{"data": {"bikes": [{"fusion_lat": 0.0, "name": "b6c4b175f797d3a8844fbb8bb429ac70", "is_disabled": 0, "rental_uris": {"android": "https://dc.lft.to/lastmile_qr_scan", "ios": "https://dc.lft.to/lastmile_qr_scan"}, "fusion_lon": 0.0, "lat": 38.9090465, "bike_id": "b6c4b175f797d3a8844fbb8bb429ac70", "type": "electric_scooter", "is_reserved": 0, "lon": -77.042104}, {"fusion_lat": 0.0, "name": "06ab451102156ac5c1544e66f2b26ad3", "is_disabled": 0, "rental_uris": {"android": "https://dc.lft.to/lastmile_qr_scan", "ios": "https://dc.lft.to/lastmile_qr_scan"}, "fusion_lon": 0.0, "lat": 38.916153, "bike_id": "06ab451102156ac5c1544e66f2b26ad3", "type": "electric_scooter", "is_reserved": 0, "lon": -77.02405983333334}, {"fusion_lat": 0.0, "name": "2066a7c064f74a119abe777e9fd6a220", "is_disabled": 0, "rental_uris": {"android": "https://dc.lft.to/lastmile_qr_scan", "ios": "https://dc.lft.to/lastmile_qr_scan"}, "fusion_lon": 0.0, "lat": 38.889912333333335, "bike_id": "2066a7c064f74a119abe777e9fd6a220", "type": "electric_bike", "is_reserved": 0, "lon": -77.07132283333334}, {"fusion_lat": 0.0, "name": "2e7a4ef8ce0cf09a04cc000fd277b976", "is_disabled": 0, "rental_uris": {"android": "https://dc.lft.to/lastmile_qr_scan", "ios": "https://dc.lft.to/lastmile_qr_scan"}, "fusion_lon": 0.0, "lat": 38.83240383333333, "bike_id": "2e7a4ef8ce0cf09a04cc000fd277b976", "type": "electric_scooter", "is_reserved": 0, "lon": -76.9870815}, {"fusion_lat": 0.0, "name": "f7ebc4afc0cb23be58ca25cb3c2c5558", "is_disabled": 0, "rental_uris": {"android": "https://dc.lft.to/lastmile_qr_scan", "ios": "https://dc.lft.to/lastmile_qr_scan"}, "fusion_lon": 0.0, "lat": 38.93557883333333, "bike_id": "f7ebc4afc0cb23be58ca25cb3c2c5558", "type": "electric_bike", "is_reserved": 0, "lon": -77.03701733333334}, {"fusion_lat": 0.0, "name": "1c99b8904cc67e8c3ea3905f886dff2e", "is_disabled": 0, "rental_uris": {"android": "https://dc.lft.to/lastmile_qr_scan", "ios": "https://dc.lft.to/lastmile_qr_scan"}, "fusion_lon": 0.0, "lat": 38.938319666666665, "bike_id": "1c99b8904cc67e8c3ea3905f886dff2e", "type": "electric_scooter", "is_reserved": 0, "lon": -76.99192833333333}, {"fusion_lat": 0.0, "name": "b0186d35d565681fe675171d6549f3fd", "is_disabled": 0, "rental_uris": {"android": "https://dc.lft.to/lastmile_qr_scan", "ios": "https://dc.lft.to/lastmile_qr_scan"}, "fusion_lon": 0.0, "lat": 38.903724, "bike_id": "b0186d35d565681fe675171d6549f3fd", "type": "electric_scooter", "is_reserved": 0, "lon": -77.03827983333333}, {"fusion_lat": 0.0, "name": "a0b67175db3a7f9d6c85018e083ff829", "is_disabled": 0, "rental_uris": {"android": "https://dc.lft.to/lastmile_qr_scan", "ios": "https://dc.lft.to/lastmile_qr_scan"}, "fusion_lon": 0.0, "lat": 38.90773633333333, "bike_id": "a0b67175db3a7f9d6c85018e083ff829", "type": "electric_scooter", "is_reserved": 0, "lon": -77.0352295}, {"fusion_lat": 0.0, "name": "d39524da7ae7fefdcfd8ad294bcd607e", "is_disabled": 0, "rental_uris": {"android": "https://dc.lft.to/lastmile_qr_scan", "ios": "https://dc.lft.to/lastmile_qr_scan"}, "fusion_lon": 0.0, "lat": 38.91753033333333, "bike_id": "d39524da7ae7fefdcfd8ad294bcd607e", "type": "electric_scooter", "is_reserved": 0, "lon": -77.069343}, {"fusion_lat": 0.0, "name": "c43b5e6f99f8d0bd757cbe0eed6f96d1", "is_disabled": 0, "rental_uris": {"android": "https://dc.lft.to/lastmile_qr_scan", "ios": "https://dc.lft.to/lastmile_qr_scan"}, "fusion_lon": 0.0, "lat": 38.9004255, "bike_id": "c43b5e6f99f8d0bd757cbe0eed6f96d1", "type": "electric_scooter", "is_reserved": 0, "lon": -77.002032}, {"fusion_lat": 0.0, "name": "63974552358c2d79719538c5c0dc2b79", "is_disabled": 0, "rental_uris": {"android": "https://dc.lft.to/lastmile_qr_scan", "ios": "https://dc.lft.to/lastmile_qr_scan"}, "fusion_lon": 0.0, "lat": 38.904931, "bike_id": "63974552358c2d79719538c5c0dc2b79", "type": "electric_scooter", "is_reserved": 0, "lon": -77.02604666666667}, {"fusion_lat": 0.0, "name": "49af7422168a21aeb3eb89b4cf0dcf84", "is_disabled": 0, "rental_uris": {"android": "https://dc.lft.to/lastmile_qr_scan", "ios": "https://dc.lft.to/lastmile_qr_scan"}, "fusion_lon": 0.0, "lat": 38.9050185, "bike_id": "49af7422168a21aeb3eb89b4cf0dcf84", "type": "electric_scooter", "is_reserved": 0, "lon": -77.048803}, {"fusion_lat": 0.0, "name": "7b870f4f749ce6e403c56a54529764a8", "is_disabled": 0, "rental_uris": {"android": "https://dc.lft.to/lastmile_qr_scan", "ios": "https://dc.lft.to/lastmile_qr_scan"}, "fusion_lon": 0.0, "lat": 38.9068875, "bike_id": "7b870f4f749ce6e403c56a54529764a8", "type": "electric_scooter", "is_reserved": 0, "lon": -77.0364775}, {"fusion_lat": 0.0, "name": "8b2edcb72f856850c6388f8451da6d8f", "is_disabled": 0, "rental_uris": {"android": "https://dc.lft.to/lastmile_qr_scan", "ios": "https://dc.lft.to/lastmile_qr_scan"}, "fusion_lon": 0.0, "lat": 38.9110475, "bike_id": "8b2edcb72f856850c6388f8451da6d8f", "type": "electric_scooter", "is_reserved": 0, "lon": -77.00211983333334}, {"fusion_lat": 0.0, "name": "9d07420f97ffc90373aaccf3b7c81a72", "is_disabled": 0, "rental_uris": {"android": "https://dc.lft.to/lastmile_qr_scan", "ios": "https://dc.lft.to/lastmile_qr_scan"}, "fusion_lon": 0.0, "lat": 38.90933066666667, "bike_id": "9d07420f97ffc90373aaccf3b7c81a72", "type": "electric_scooter", "is_reserved": 0, "lon": -76.99961133333333}, {"fusion_lat": 0.0, "name": "77658a0e2e34961fbaf9302ce71b3728", "is_disabled": 0, "rental_uris": {"android": "https://dc.lft.to/lastmile_qr_scan", "ios": "https://dc.lft.to/lastmile_qr_scan"}, "fusion_lon": 0.0, "lat": 38.9172775, "bike_id": "77658a0e2e34961fbaf9302ce71b3728", "type": "electric_scooter", "is_reserved": 0, "lon": -77.02697266666667}, {"fusion_lat": 0.0, "name": "38d2fb2721db0c29312ae58f93023a28", "is_disabled": 0, "rental_uris": {"android": "https://dc.lft.to/lastmile_qr_scan", "ios": "https://dc.lft.to/lastmile_qr_scan"}, "fusion_lon": 0.0, "lat": 38.905638, "bike_id": "38d2fb2721db0c29312ae58f93023a28", "type": "electric_scooter", "is_reserved": 0, "lon": -77.02421916666667}, {"fusion_lat": 0.0, "name": "b3ad3b3275359bbf285496d263889489", "is_disabled": 0, "rental_uris": {"android": "https://dc.lft.to/lastmile_qr_scan", "ios": "https://dc.lft.to/lastmile_qr_scan"}, "fusion_lon": 0.0, "lat": 38.965891666666664, "bike_id": "b3ad3b3275359bbf285496d263889489", "type": "electric_scooter", "is_reserved": 0, "lon": -77.0159845}, {"fusion_lat": 0.0, "name": "96b7629625ff4356c92dfcc96615fc33", "is_disabled": 0, "rental_uris": {"android": "https://dc.lft.to/lastmile_qr_scan", "ios": "https://dc.lft.to/lastmile_qr_scan"}, "fusion_lon": 0.0, "lat": 38.92629316666667, "bike_id": "96b7629625ff4356c92dfcc96615fc33", "type": "electric_scooter", "is_reserved": 0, "lon": -77.03506533333334}, {"fusion_lat": 0.0, "name": "8c99438e59bcc50b54ecda503a684914", "is_disabled": 0, "rental_uris": {"android": "https://dc.lft.to/lastmile_qr_scan", "ios": "https://dc.lft.to/lastmile_qr_scan"}, "fusion_lon": 0.0, "lat": 38.863919833333334, "bike_id": "8c99438e59bcc50b54ecda503a684914", "type": "electric_bike", "is_reserved": 0, "lon": -77.20108583333334}, {"fusion_lat": 0.0, "name": "702e2621213c2d0f3e7e8aa661abc2e9", "is_disabled": 0, "rental_uris": {"android": "https://dc.lft.to/lastmile_qr_scan", "ios": "https://dc.lft.to/lastmile_qr_scan"}, "fusion_lon": 0.0, "lat": 38.91003533333333, "bike_id": "702e2621213c2d0f3e7e8aa661abc2e9", "type": "electric_scooter", "is_reserved": 0, "lon": -77.04914733333334}, {"fusion_lat": 0.0, "name": "5c7f41c389fa03c96cfad5b4f1aca885", "is_disabled": 0, "rental_uris": {"android": "https://dc.lft.to/lastmile_qr_scan", "ios": "https://dc.lft.to/lastmile_qr_scan"}, "fusion_lon": 0.0, "lat": 38.898445333333335, "bike_id": "5c7f41c389fa03c96cfad5b4f1aca885", "type": "electric_scooter", "is_reserved": 0, "lon": -77.025213}, {"fusion_lat": 0.0, "name": "ed4d942719565f68f5a693513dfeba95", "is_disabled": 0, "rental_uris": {"android": "https://dc.lft.to/lastmile_qr_scan", "ios": "https://dc.lft.to/lastmile_qr_scan"}, "fusion_lon": 0.0, "lat": 38.9240885, "bike_id": "ed4d942719565f68f5a693513dfeba95", "type": "electric_scooter", "is_reserved": 0, "lon": -76.99717916666667}, {"fusion_lat": 0.0, "name": "85ff11ecc0f1ea3751918b2bc9c67e33", "is_disabled": 0, "rental_uris": {"android": "https://dc.lft.to/lastmile_qr_scan", "ios": "https://dc.lft.to/lastmile_qr_scan"}, "fusion_lon": 0.0, "lat": 38.907808833333334, "bike_id": "85ff11ecc0f1ea3751918b2bc9c67e33", "type": "electric_scooter", "is_reserved": 0, "lon": -77.01110783333333}, {"fusion_lat": 0.0, "name": "e58bf7281b9903045785ecb909480a4c", "is_disabled": 0, "rental_uris": {"android": "https://dc.lft.to/lastmile_qr_scan", "ios": "https://dc.lft.to/lastmile_qr_scan"}, "fusion_lon": 0.0, "lat": 38.924693166666664, "bike_id": "e58bf7281b9903045785ecb909480a4c", "type": "electric_scooter", "is_reserved": 0, "lon": -77.037646}, {"fusion_lat": 0.0, "name": "e93963cc108191cb49af3fc9a8ad6037", "is_disabled": 0, "rental_uris": {"android": "https://dc.lft.to/lastmile_qr_scan", "ios": "https://dc.lft.to/lastmile_qr_scan"}, "fusion_lon": 0.0, "lat": 38.90258766666667, "bike_id": "e93963cc108191cb49af3fc9a8ad6037", "type": "electric_scooter", "is_reserved": 0, "lon": -77.0260865}, {"fusion_lat": 0.0, "name": "e46996598bd87e0665d0a54ac5cc81c8", "is_disabled": 0, "rental_uris": {"android": "https://dc.lft.to/lastmile_qr_scan", "ios": "https://dc.lft.to/lastmile_qr_scan"}, "fusion_lon": 0.0, "lat": 38.933876166666664, "bike_id": "e46996598bd87e0665d0a54ac5cc81c8", "type": "electric_scooter", "is_reserved": 0, "lon": -77.03896733333333}, {"fusion_lat": 0.0, "name": "dffcc86c2143a468c186b0bf9c9304c9", "is_disabled": 0, "rental_uris": {"android": "https://dc.lft.to/lastmile_qr_scan", "ios": "https://dc.lft.to/lastmile_qr_scan"}, "fusion_lon": 0.0, "lat": 38.847569166666666, "bike_id": "dffcc86c2143a468c186b0bf9c9304c9", "type": "electric_scooter", "is_reserved": 0, "lon": -76.99499683333333}, {"fusion_lat": 0.0, "name": "b772018db550d492c5ac16e582e17f27", "is_disabled": 0, "rental_uris": {"android": "https://dc.lft.to/lastmile_qr_scan", "ios": "https://dc.lft.to/lastmile_qr_scan"}, "fusion_lon": 0.0, "lat": 38.901715333333335, "bike_id": "b772018db550d492c5ac16e582e17f27", "type": "electric_scooter", "is_reserved": 0, "lon": -76.99259233333333}, {"fusion_lat": 0.0, "name": "47e67b5c6e63c88763a2fcef162ece85", "is_disabled": 0, "rental_uris": {"android": "https://dc.lft.to/lastmile_qr_scan", "ios": "https://dc.lft.to/lastmile_qr_scan"}, "fusion_lon": 0.0, "lat": 38.9071355, "bike_id": "47e67b5c6e63c88763a2fcef162ece85", "type": "electric_scooter", "is_reserved": 0, "lon": -77.02718333333333}, {"fusion_lat": 0.0, "name": "001efe84af3082b60eb2f900a384c94f", "is_disabled": 0, "rental_uris": {"android": "https://dc.lft.to/lastmile_qr_scan", "ios": "https://dc.lft.to/lastmile_qr_scan"}, "fusion_lon": 0.0, "lat": 38.904822833333334, "bike_id": "001efe84af3082b60eb2f900a384c94f", "type": "electric_scooter", "is_reserved": 0, "lon": -77.030226}, {"fusion_lat": 0.0, "name": "34970d18db10c298faebb433639ebf0c", "is_disabled": 0, "rental_uris": {"android": "https://dc.lft.to/lastmile_qr_scan", "ios": "https://dc.lft.to/lastmile_qr_scan"}, "fusion_lon": 0.0, "lat": 38.92325916666667, "bike_id": "34970d18db10c298faebb433639ebf0c", "type": "electric_scooter", "is_reserved": 0, "lon": -77.03976566666667}, {"fusion_lat": 0.0, "name": "ab8550951b11252fa97f72f1340b085e", "is_disabled": 0, "rental_uris": {"android": "https://dc.lft.to/lastmile_qr_scan", "ios": "https://dc.lft.to/lastmile_qr_scan"}, "fusion_lon": 0.0, "lat": 38.883449666666664, "bike_id": "ab8550951b11252fa97f72f1340b085e", "type": "electric_scooter", "is_reserved": 0, "lon": -77.03167133333334}, {"fusion_lat": 0.0, "name": "7bf4c1264482943c763197f130da5266", "is_disabled": 0, "rental_uris": {"android": "https://dc.lft.to/lastmile_qr_scan", "ios": "https://dc.lft.to/lastmile_qr_scan"}, "fusion_lon": 0.0, "lat": 38.90056366666666, "bike_id": "7bf4c1264482943c763197f130da5266", "type": "electric_scooter", "is_reserved": 0, "lon": -77.0566605}, {"fusion_lat": 0.0, "name": "dc9e05ba57199e33af55a2e6188fc27e", "is_disabled": 0, "rental_uris": {"android": "https://dc.lft.to/lastmile_qr_scan", "ios": "https://dc.lft.to/lastmile_qr_scan"}, "fusion_lon": 0.0, "lat": 38.93607333333333, "bike_id": "dc9e05ba57199e33af55a2e6188fc27e", "type": "electric_scooter", "is_reserved": 0, "lon": -77.03637183333333}, {"fusion_lat": 0.0, "name": "57df788bfcd4ba78f629b63c72e91686", "is_disabled": 0, "rental_uris": {"android": "https://dc.lft.to/lastmile_qr_scan", "ios": "https://dc.lft.to/lastmile_qr_scan"}, "fusion_lon": 0.0, "lat": 38.905505166666664, "bike_id": "57df788bfcd4ba78f629b63c72e91686", "type": "electric_scooter", "is_reserved": 0, "lon": -77.046629}, {"fusion_lat": 0.0, "name": "8767b00201bed4a1b9addd6870fdddc7", "is_disabled": 0, "rental_uris": {"android": "https://dc.lft.to/lastmile_qr_scan", "ios": "https://dc.lft.to/lastmile_qr_scan"}, "fusion_lon": 0.0, "lat": 38.92606766666667, "bike_id": "8767b00201bed4a1b9addd6870fdddc7", "type": "electric_scooter", "is_reserved": 0, "lon": -77.02424166666667}, {"fusion_lat": 0.0, "name": "ae0c61b971b0cd255c2099f99a47ed86", "is_disabled": 0, "rental_uris": {"android": "https://dc.lft.to/lastmile_qr_scan", "ios": "https://dc.lft.to/lastmile_qr_scan"}, "fusion_lon": 0.0, "lat": 38.92251366666667, "bike_id": "ae0c61b971b0cd255c2099f99a47ed86", "type": "electric_scooter", "is_reserved": 0, "lon": -77.02807433333334}, {"fusion_lat": 0.0, "name": "03416cda0e9053d76953a95f34166a6f", "is_disabled": 0, "rental_uris": {"android": "https://dc.lft.to/lastmile_qr_scan", "ios": "https://dc.lft.to/lastmile_qr_scan"}, "fusion_lon": 0.0, "lat": 38.90436183333333, "bike_id": "03416cda0e9053d76953a95f34166a6f", "type": "electric_scooter", "is_reserved": 0, "lon": -77.05814166666667}, {"fusion_lat": 0.0, "name": "e3f5f573e947297fe0f400edce609ae8", "is_disabled": 0, "rental_uris": {"android": "https://dc.lft.to/lastmile_qr_scan", "ios": "https://dc.lft.to/lastmile_qr_scan"}, "fusion_lon": 0.0, "lat": 38.91056666666667, "bike_id": "e3f5f573e947297fe0f400edce609ae8", "type": "electric_scooter", "is_reserved": 0, "lon": -77.03835816666667}, {"fusion_lat": 0.0, "name": "543b9aa58c1e90a6a5c50a3ffa147fae", "is_disabled": 0, "rental_uris": {"android": "https://dc.lft.to/lastmile_qr_scan", "ios": "https://dc.lft.to/lastmile_qr_scan"}, "fusion_lon": 0.0, "lat": 38.90684433333333, "bike_id": "543b9aa58c1e90a6a5c50a3ffa147fae", "type": "electric_scooter", "is_reserved": 0, "lon": -77.02700016666667}, {"fusion_lat": 0.0, "name": "36208fae7225b1d1ade44027612b18ec", "is_disabled": 0, "rental_uris": {"android": "https://dc.lft.to/lastmile_qr_scan", "ios": "https://dc.lft.to/lastmile_qr_scan"}, "fusion_lon": 0.0, "lat": 38.91554083333333, "bike_id": "36208fae7225b1d1ade44027612b18ec", "type": "electric_scooter", "is_reserved": 0, "lon": -77.02144283333334}, {"fusion_lat": 0.0, "name": "3bf06fb2013f17840a0ae2c2c94960bb", "is_disabled": 0, "rental_uris": {"android": "https://dc.lft.to/lastmile_qr_scan", "ios": "https://dc.lft.to/lastmile_qr_scan"}, "fusion_lon": 0.0, "lat": 38.89742, "bike_id": "3bf06fb2013f17840a0ae2c2c94960bb", "type": "electric_scooter", "is_reserved": 0, "lon": -77.008521}, {"fusion_lat": 0.0, "name": "808d74ce762b871e75f3f10ab0ef142f", "is_disabled": 0, "rental_uris": {"android": "https://dc.lft.to/lastmile_qr_scan", "ios": "https://dc.lft.to/lastmile_qr_scan"}, "fusion_lon": 0.0, "lat": 38.90570266666667, "bike_id": "808d74ce762b871e75f3f10ab0ef142f", "type": "electric_scooter", "is_reserved": 0, "lon": -77.04674383333334}, {"fusion_lat": 0.0, "name": "248a5229dbbe6656103f83ffa434c723", "is_disabled": 0, "rental_uris": {"android": "https://dc.lft.to/lastmile_qr_scan", "ios": "https://dc.lft.to/lastmile_qr_scan"}, "fusion_lon": 0.0, "lat": 38.9219855, "bike_id": "248a5229dbbe6656103f83ffa434c723", "type": "electric_scooter", "is_reserved": 0, "lon": -77.080783}, {"fusion_lat": 0.0, "name": "e5afab3466dcefde9f93b012df8f1ad3", "is_disabled": 0, "rental_uris": {"android": "https://dc.lft.to/lastmile_qr_scan", "ios": "https://dc.lft.to/lastmile_qr_scan"}, "fusion_lon": 0.0, "lat": 38.89957966666667, "bike_id": "e5afab3466dcefde9f93b012df8f1ad3", "type": "electric_scooter", "is_reserved": 0, "lon": -76.98564816666666}, {"fusion_lat": 0.0, "name": "b0e36aafbf3e37a40083770be7a9d007", "is_disabled": 0, "rental_uris": {"android": "https://dc.lft.to/lastmile_qr_scan", "ios": "https://dc.lft.to/lastmile_qr_scan"}, "fusion_lon": 0.0, "lat": 38.914416, "bike_id": "b0e36aafbf3e37a40083770be7a9d007", "type": "electric_scooter", "is_reserved": 0, "lon": -77.04483183333333}, {"fusion_lat": 0.0, "name": "b5b809755e09097ced1d87f42d74c9ff", "is_disabled": 0, "rental_uris": {"android": "https://dc.lft.to/lastmile_qr_scan", "ios": "https://dc.lft.to/lastmile_qr_scan"}, "fusion_lon": 0.0, "lat": 38.948663833333335, "bike_id": "b5b809755e09097ced1d87f42d74c9ff", "type": "electric_scooter", "is_reserved": 0, "lon": -77.02613833333334}, {"fusion_lat": 0.0, "name": "7917f11bda46924531cd19925fb314a6", "is_disabled": 0, "rental_uris": {"android": "https://dc.lft.to/lastmile_qr_scan", "ios": "https://dc.lft.to/lastmile_qr_scan"}, "fusion_lon": 0.0, "lat": 38.9243865, "bike_id": "7917f11bda46924531cd19925fb314a6", "type": "electric_scooter", "is_reserved": 0, "lon": -77.0522285}, {"fusion_lat": 0.0, "name": "205d3c431ffd1aee8570804975b3b295", "is_disabled": 0, "rental_uris": {"android": "https://dc.lft.to/lastmile_qr_scan", "ios": "https://dc.lft.to/lastmile_qr_scan"}, "fusion_lon": 0.0, "lat": 38.954839, "bike_id": "205d3c431ffd1aee8570804975b3b295", "type": "electric_bike", "is_reserved": 0, "lon": -77.02672716666666}, {"fusion_lat": 0.0, "name": "37f00440232da17b4ee8fac07c17067e", "is_disabled": 0, "rental_uris": {"android": "https://dc.lft.to/lastmile_qr_scan", "ios": "https://dc.lft.to/lastmile_qr_scan"}, "fusion_lon": 0.0, "lat": 38.9579975, "bike_id": "37f00440232da17b4ee8fac07c17067e", "type": "electric_bike", "is_reserved": 0, "lon": -76.96046583333333}, {"fusion_lat": 0.0, "name": "9ff227a6e796fc36ef3dcad984ab1faf", "is_disabled": 0, "rental_uris": {"android": "https://dc.lft.to/lastmile_qr_scan", "ios": "https://dc.lft.to/lastmile_qr_scan"}, "fusion_lon": 0.0, "lat": 38.88988166666667, "bike_id": "9ff227a6e796fc36ef3dcad984ab1faf", "type": "electric_scooter", "is_reserved": 0, "lon": -76.91418183333333}, {"fusion_lat": 0.0, "name": "a781b7d8eb1c22b401a35ca0bb7c16a2", "is_disabled": 0, "rental_uris": {"android": "https://dc.lft.to/lastmile_qr_scan", "ios": "https://dc.lft.to/lastmile_qr_scan"}, "fusion_lon": 0.0, "lat": 38.904968333333336, "bike_id": "a781b7d8eb1c22b401a35ca0bb7c16a2", "type": "electric_scooter", "is_reserved": 0, "lon": -77.041168}, {"fusion_lat": 0.0, "name": "bf07c20bf6ed8c03795797e3ba2251b1", "is_disabled": 0, "rental_uris": {"android": "https://dc.lft.to/lastmile_qr_scan", "ios": "https://dc.lft.to/lastmile_qr_scan"}, "fusion_lon": 0.0, "lat": 38.90246283333333, "bike_id": "bf07c20bf6ed8c03795797e3ba2251b1", "type": "electric_scooter", "is_reserved": 0, "lon": -77.01558766666666}, {"fusion_lat": 0.0, "name": "c19c6abb0ae40563c6d0205cbc504d89", "is_disabled": 0, "rental_uris": {"android": "https://dc.lft.to/lastmile_qr_scan", "ios": "https://dc.lft.to/lastmile_qr_scan"}, "fusion_lon": 0.0, "lat": 38.9061645, "bike_id": "c19c6abb0ae40563c6d0205cbc504d89", "type": "electric_scooter", "is_reserved": 0, "lon": -77.00574733333333}, {"fusion_lat": 0.0, "name": "c04148aaba520fab190a9e23bee31833", "is_disabled": 0, "rental_uris": {"android": "https://dc.lft.to/lastmile_qr_scan", "ios": "https://dc.lft.to/lastmile_qr_scan"}, "fusion_lon": 0.0, "lat": 38.911013, "bike_id": "c04148aaba520fab190a9e23bee31833", "type": "electric_scooter", "is_reserved": 0, "lon": -77.04202883333333}, {"fusion_lat": 0.0, "name": "780bf6e649bdfa9bb1810a99b42ae691", "is_disabled": 0, "rental_uris": {"android": "https://dc.lft.to/lastmile_qr_scan", "ios": "https://dc.lft.to/lastmile_qr_scan"}, "fusion_lon": 0.0, "lat": 38.899617666666664, "bike_id": "780bf6e649bdfa9bb1810a99b42ae691", "type": "electric_scooter", "is_reserved": 0, "lon": -76.98713166666667}, {"fusion_lat": 0.0, "name": "43afd6d24b4e520d0b91b4e6b7a369b5", "is_disabled": 0, "rental_uris": {"android": "https://dc.lft.to/lastmile_qr_scan", "ios": "https://dc.lft.to/lastmile_qr_scan"}, "fusion_lon": 0.0, "lat": 38.90308066666667, "bike_id": "43afd6d24b4e520d0b91b4e6b7a369b5", "type": "electric_scooter", "is_reserved": 0, "lon": -77.006084}, {"fusion_lat": 0.0, "name": "05c55bbc679790c9839f01b89c3d4e6c", "is_disabled": 0, "rental_uris": {"android": "https://dc.lft.to/lastmile_qr_scan", "ios": "https://dc.lft.to/lastmile_qr_scan"}, "fusion_lon": 0.0, "lat": 38.897046833333334, "bike_id": "05c55bbc679790c9839f01b89c3d4e6c", "type": "electric_scooter", "is_reserved": 0, "lon": -77.0277785}, {"fusion_lat": 0.0, "name": "26bf4daf9c894ef8620d138a43b4d227", "is_disabled": 0, "rental_uris": {"android": "https://dc.lft.to/lastmile_qr_scan", "ios": "https://dc.lft.to/lastmile_qr_scan"}, "fusion_lon": 0.0, "lat": 38.902543, "bike_id": "26bf4daf9c894ef8620d138a43b4d227", "type": "electric_scooter", "is_reserved": 0, "lon": -77.04176933333333}, {"fusion_lat": 0.0, "name": "39301cf8af4226f1aea47d78d178775b", "is_disabled": 0, "rental_uris": {"android": "https://dc.lft.to/lastmile_qr_scan", "ios": "https://dc.lft.to/lastmile_qr_scan"}, "fusion_lon": 0.0, "lat": 38.8983165, "bike_id": "39301cf8af4226f1aea47d78d178775b", "type": "electric_scooter", "is_reserved": 0, "lon": -76.98778533333333}, {"fusion_lat": 0.0, "name": "c2f745b82b0c598473300c6edb684317", "is_disabled": 0, "rental_uris": {"android": "https://dc.lft.to/lastmile_qr_scan", "ios": "https://dc.lft.to/lastmile_qr_scan"}, "fusion_lon": 0.0, "lat": 38.91256116666667, "bike_id": "c2f745b82b0c598473300c6edb684317", "type": "electric_scooter", "is_reserved": 0, "lon": -77.03870766666667}, {"fusion_lat": 0.0, "name": "e95eb978cab427a3502d072f8621c8b5", "is_disabled": 0, "rental_uris": {"android": "https://dc.lft.to/lastmile_qr_scan", "ios": "https://dc.lft.to/lastmile_qr_scan"}, "fusion_lon": 0.0, "lat": 38.92073583333333, "bike_id": "e95eb978cab427a3502d072f8621c8b5", "type": "electric_bike", "is_reserved": 0, "lon": -76.98947366666667}, {"fusion_lat": 0.0, "name": "1d56deebcec982e0986cc4f1f22455dd", "is_disabled": 0, "rental_uris": {"android": "https://dc.lft.to/lastmile_qr_scan", "ios": "https://dc.lft.to/lastmile_qr_scan"}, "fusion_lon": 0.0, "lat": 38.9199735, "bike_id": "1d56deebcec982e0986cc4f1f22455dd", "type": "electric_scooter", "is_reserved": 0, "lon": -77.03281466666667}, {"fusion_lat": 0.0, "name": "29dfc2ff27df895e5a6b91b9a038029d", "is_disabled": 0, "rental_uris": {"android": "https://dc.lft.to/lastmile_qr_scan", "ios": "https://dc.lft.to/lastmile_qr_scan"}, "fusion_lon": 0.0, "lat": 38.91559683333333, "bike_id": "29dfc2ff27df895e5a6b91b9a038029d", "type": "electric_scooter", "is_reserved": 0, "lon": -77.01046433333333}, {"fusion_lat": 0.0, "name": "62ad66e416dbf1e27d3cd19d52f96ace", "is_disabled": 0, "rental_uris": {"android": "https://dc.lft.to/lastmile_qr_scan", "ios": "https://dc.lft.to/lastmile_qr_scan"}, "fusion_lon": 0.0, "lat": 38.88538633333334, "bike_id": "62ad66e416dbf1e27d3cd19d52f96ace", "type": "electric_scooter", "is_reserved": 0, "lon": -76.97889466666666}, {"fusion_lat": 0.0, "name": "85969938db41e44c2d3994acb310c44d", "is_disabled": 0, "rental_uris": {"android": "https://dc.lft.to/lastmile_qr_scan", "ios": "https://dc.lft.to/lastmile_qr_scan"}, "fusion_lon": 0.0, "lat": 38.90971316666667, "bike_id": "85969938db41e44c2d3994acb310c44d", "type": "electric_scooter", "is_reserved": 0, "lon": -77.0268855}, {"fusion_lat": 0.0, "name": "f52024335c6f6ba21f6156f2d9227b7f", "is_disabled": 0, "rental_uris": {"android": "https://dc.lft.to/lastmile_qr_scan", "ios": "https://dc.lft.to/lastmile_qr_scan"}, "fusion_lon": 0.0, "lat": 38.887366, "bike_id": "f52024335c6f6ba21f6156f2d9227b7f", "type": "electric_scooter", "is_reserved": 0, "lon": -77.00322716666666}, {"fusion_lat": 0.0, "name": "78e1d146642cb0231a3033c49214465e", "is_disabled": 0, "rental_uris": {"android": "https://dc.lft.to/lastmile_qr_scan", "ios": "https://dc.lft.to/lastmile_qr_scan"}, "fusion_lon": 0.0, "lat": 38.87083633333334, "bike_id": "78e1d146642cb0231a3033c49214465e", "type": "electric_scooter", "is_reserved": 0, "lon": -77.01379916666667}, {"fusion_lat": 0.0, "name": "31ac6c795bfb12c5cc0dbf7a70301e45", "is_disabled": 0, "rental_uris": {"android": "https://dc.lft.to/lastmile_qr_scan", "ios": "https://dc.lft.to/lastmile_qr_scan"}, "fusion_lon": 0.0, "lat": 38.903803333333336, "bike_id": "31ac6c795bfb12c5cc0dbf7a70301e45", "type": "electric_scooter", "is_reserved": 0, "lon": -77.0164235}, {"fusion_lat": 0.0, "name": "549969474c1f6fff5d1b359a375b7aa0", "is_disabled": 0, "rental_uris": {"android": "https://dc.lft.to/lastmile_qr_scan", "ios": "https://dc.lft.to/lastmile_qr_scan"}, "fusion_lon": 0.0, "lat": 38.93394466666667, "bike_id": "549969474c1f6fff5d1b359a375b7aa0", "type": "electric_bike", "is_reserved": 0, "lon": -77.03547133333333}, {"fusion_lat": 0.0, "name": "1041043dad0b9eaafbbce38f74130431", "is_disabled": 0, "rental_uris": {"android": "https://dc.lft.to/lastmile_qr_scan", "ios": "https://dc.lft.to/lastmile_qr_scan"}, "fusion_lon": 0.0, "lat": 38.9001965, "bike_id": "1041043dad0b9eaafbbce38f74130431", "type": "electric_scooter", "is_reserved": 0, "lon": -77.01194016666666}, {"fusion_lat": 0.0, "name": "f611e136539399b42d8ae3d2b4a22ebf", "is_disabled": 0, "rental_uris": {"android": "https://dc.lft.to/lastmile_qr_scan", "ios": "https://dc.lft.to/lastmile_qr_scan"}, "fusion_lon": 0.0, "lat": 38.88744633333334, "bike_id": "f611e136539399b42d8ae3d2b4a22ebf", "type": "electric_scooter", "is_reserved": 0, "lon": -77.017847}, {"fusion_lat": 0.0, "name": "e1ea0c04310bbe7667cfe3da3eccd41e", "is_disabled": 0, "rental_uris": {"android": "https://dc.lft.to/lastmile_qr_scan", "ios": "https://dc.lft.to/lastmile_qr_scan"}, "fusion_lon": 0.0, "lat": 38.921010833333334, "bike_id": "e1ea0c04310bbe7667cfe3da3eccd41e", "type": "electric_scooter", "is_reserved": 0, "lon": -77.02552833333333}, {"fusion_lat": 0.0, "name": "3cb2ef4f4d2ac096fc68a30d43ad7240", "is_disabled": 0, "rental_uris": {"android": "https://dc.lft.to/lastmile_qr_scan", "ios": "https://dc.lft.to/lastmile_qr_scan"}, "fusion_lon": 0.0, "lat": 38.9028755, "bike_id": "3cb2ef4f4d2ac096fc68a30d43ad7240", "type": "electric_scooter", "is_reserved": 0, "lon": -77.03644183333333}, {"fusion_lat": 0.0, "name": "9f7bd2fd291e84d70a1941090dd4fca9", "is_disabled": 0, "rental_uris": {"android": "https://dc.lft.to/lastmile_qr_scan", "ios": "https://dc.lft.to/lastmile_qr_scan"}, "fusion_lon": 0.0, "lat": 38.9115305, "bike_id": "9f7bd2fd291e84d70a1941090dd4fca9", "type": "electric_scooter", "is_reserved": 0, "lon": -77.03200966666667}, {"fusion_lat": 0.0, "name": "2db952e7c3595edd2ebb3e262c851f1e", "is_disabled": 0, "rental_uris": {"android": "https://dc.lft.to/lastmile_qr_scan", "ios": "https://dc.lft.to/lastmile_qr_scan"}, "fusion_lon": 0.0, "lat": 38.92364966666667, "bike_id": "2db952e7c3595edd2ebb3e262c851f1e", "type": "electric_scooter", "is_reserved": 0, "lon": -77.02966983333333}, {"fusion_lat": 0.0, "name": "3bd0886bde5bfe648e6c01411e8000f1", "is_disabled": 0, "rental_uris": {"android": "https://dc.lft.to/lastmile_qr_scan", "ios": "https://dc.lft.to/lastmile_qr_scan"}, "fusion_lon": 0.0, "lat": 38.93991, "bike_id": "3bd0886bde5bfe648e6c01411e8000f1", "type": "electric_scooter", "is_reserved": 0, "lon": -77.01653466666667}, {"fusion_lat": 0.0, "name": "b010e56ff8187b4ee6924c4ffdef0a2d", "is_disabled": 0, "rental_uris": {"android": "https://dc.lft.to/lastmile_qr_scan", "ios": "https://dc.lft.to/lastmile_qr_scan"}, "fusion_lon": 0.0, "lat": 38.92609316666667, "bike_id": "b010e56ff8187b4ee6924c4ffdef0a2d", "type": "electric_scooter", "is_reserved": 0, "lon": -77.0396275}, {"fusion_lat": 0.0, "name": "809eab40123dd75b32d151be4c3cc3ef", "is_disabled": 0, "rental_uris": {"android": "https://dc.lft.to/lastmile_qr_scan", "ios": "https://dc.lft.to/lastmile_qr_scan"}, "fusion_lon": 0.0, "lat": 38.92328116666667, "bike_id": "809eab40123dd75b32d151be4c3cc3ef", "type": "electric_scooter", "is_reserved": 0, "lon": -77.0358255}, {"fusion_lat": 0.0, "name": "3503350d2d9a1b0a3d3e5a8d2364675a", "is_disabled": 0, "rental_uris": {"android": "https://dc.lft.to/lastmile_qr_scan", "ios": "https://dc.lft.to/lastmile_qr_scan"}, "fusion_lon": 0.0, "lat": 38.90462083333333, "bike_id": "3503350d2d9a1b0a3d3e5a8d2364675a", "type": "electric_scooter", "is_reserved": 0, "lon": -77.053327}, {"fusion_lat": 0.0, "name": "cfeb74a00302e7b561d3b820d7a2dd8a", "is_disabled": 0, "rental_uris": {"android": "https://dc.lft.to/lastmile_qr_scan", "ios": "https://dc.lft.to/lastmile_qr_scan"}, "fusion_lon": 0.0, "lat": 38.844223166666666, "bike_id": "cfeb74a00302e7b561d3b820d7a2dd8a", "type": "electric_scooter", "is_reserved": 0, "lon": -76.997789}, {"fusion_lat": 0.0, "name": "6ab8f5ed651c300932c03013b200666c", "is_disabled": 0, "rental_uris": {"android": "https://dc.lft.to/lastmile_qr_scan", "ios": "https://dc.lft.to/lastmile_qr_scan"}, "fusion_lon": 0.0, "lat": 38.87702733333333, "bike_id": "6ab8f5ed651c300932c03013b200666c", "type": "electric_scooter", "is_reserved": 0, "lon": -77.00694716666666}, {"fusion_lat": 0.0, "name": "fb70f724669504bc1914ef2f816e618a", "is_disabled": 0, "rental_uris": {"android": "https://dc.lft.to/lastmile_qr_scan", "ios": "https://dc.lft.to/lastmile_qr_scan"}, "fusion_lon": 0.0, "lat": 38.911378666666664, "bike_id": "fb70f724669504bc1914ef2f816e618a", "type": "electric_scooter", "is_reserved": 0, "lon": -77.0653405}, {"fusion_lat": 0.0, "name": "32e020e350e043e084de477ae7456f4c", "is_disabled": 0, "rental_uris": {"android": "https://dc.lft.to/lastmile_qr_scan", "ios": "https://dc.lft.to/lastmile_qr_scan"}, "fusion_lon": 0.0, "lat": 38.9506985, "bike_id": "32e020e350e043e084de477ae7456f4c", "type": "electric_bike", "is_reserved": 0, "lon": -76.99600283333334}, {"fusion_lat": 0.0, "name": "576375e461ea58151fa690c180901ec3", "is_disabled": 0, "rental_uris": {"android": "https://dc.lft.to/lastmile_qr_scan", "ios": "https://dc.lft.to/lastmile_qr_scan"}, "fusion_lon": 0.0, "lat": 38.92474983333334, "bike_id": "576375e461ea58151fa690c180901ec3", "type": "electric_scooter", "is_reserved": 0, "lon": -77.025951}, {"fusion_lat": 0.0, "name": "3b9e77c6f2eefc1e5ca0ccc6f9eaa0d3", "is_disabled": 0, "rental_uris": {"android": "https://dc.lft.to/lastmile_qr_scan", "ios": "https://dc.lft.to/lastmile_qr_scan"}, "fusion_lon": 0.0, "lat": 38.93476016666666, "bike_id": "3b9e77c6f2eefc1e5ca0ccc6f9eaa0d3", "type": "electric_scooter", "is_reserved": 0, "lon": -77.07275466666667}, {"fusion_lat": 0.0, "name": "35e105932feb2f0f78809968d87a5be0", "is_disabled": 0, "rental_uris": {"android": "https://dc.lft.to/lastmile_qr_scan", "ios": "https://dc.lft.to/lastmile_qr_scan"}, "fusion_lon": 0.0, "lat": 38.91579316666667, "bike_id": "35e105932feb2f0f78809968d87a5be0", "type": "electric_scooter", "is_reserved": 0, "lon": -77.046634}, {"fusion_lat": 0.0, "name": "528bd6c8b44c1cbb52dd8b775421c275", "is_disabled": 0, "rental_uris": {"android": "https://dc.lft.to/lastmile_qr_scan", "ios": "https://dc.lft.to/lastmile_qr_scan"}, "fusion_lon": 0.0, "lat": 38.92380966666666, "bike_id": "528bd6c8b44c1cbb52dd8b775421c275", "type": "electric_scooter", "is_reserved": 0, "lon": -77.0275105}, {"fusion_lat": 0.0, "name": "503c9afa6418f37b430fdbc45b45c453", "is_disabled": 0, "rental_uris": {"android": "https://dc.lft.to/lastmile_qr_scan", "ios": "https://dc.lft.to/lastmile_qr_scan"}, "fusion_lon": 0.0, "lat": 38.89856533333333, "bike_id": "503c9afa6418f37b430fdbc45b45c453", "type": "electric_scooter", "is_reserved": 0, "lon": -77.02218616666667}, {"fusion_lat": 0.0, "name": "7b3c3e97e42afdd5a719ade698011812", "is_disabled": 0, "rental_uris": {"android": "https://dc.lft.to/lastmile_qr_scan", "ios": "https://dc.lft.to/lastmile_qr_scan"}, "fusion_lon": 0.0, "lat": 38.87882416666667, "bike_id": "7b3c3e97e42afdd5a719ade698011812", "type": "electric_scooter", "is_reserved": 0, "lon": -76.96541066666667}, {"fusion_lat": 0.0, "name": "08ed553bc586acd21015eb9d211eaddf", "is_disabled": 0, "rental_uris": {"android": "https://dc.lft.to/lastmile_qr_scan", "ios": "https://dc.lft.to/lastmile_qr_scan"}, "fusion_lon": 0.0, "lat": 38.903811, "bike_id": "08ed553bc586acd21015eb9d211eaddf", "type": "electric_scooter", "is_reserved": 0, "lon": -77.03630816666667}, {"fusion_lat": 0.0, "name": "95efd36c5847c40c54e1f008ff2a3af2", "is_disabled": 0, "rental_uris": {"android": "https://dc.lft.to/lastmile_qr_scan", "ios": "https://dc.lft.to/lastmile_qr_scan"}, "fusion_lon": 0.0, "lat": 38.898164333333334, "bike_id": "95efd36c5847c40c54e1f008ff2a3af2", "type": "electric_scooter", "is_reserved": 0, "lon": -77.02713783333333}, {"fusion_lat": 0.0, "name": "514e411319c969ad510388dffd6a60ad", "is_disabled": 0, "rental_uris": {"android": "https://dc.lft.to/lastmile_qr_scan", "ios": "https://dc.lft.to/lastmile_qr_scan"}, "fusion_lon": 0.0, "lat": 38.91254416666666, "bike_id": "514e411319c969ad510388dffd6a60ad", "type": "electric_scooter", "is_reserved": 0, "lon": -77.006757}, {"fusion_lat": 0.0, "name": "d78fa73fac5d38da10197162258bea80", "is_disabled": 0, "rental_uris": {"android": "https://dc.lft.to/lastmile_qr_scan", "ios": "https://dc.lft.to/lastmile_qr_scan"}, "fusion_lon": 0.0, "lat": 38.903639, "bike_id": "d78fa73fac5d38da10197162258bea80", "type": "electric_scooter", "is_reserved": 0, "lon": -77.0400735}, {"fusion_lat": 0.0, "name": "a8b0b62d75ff276373ea28f975435458", "is_disabled": 0, "rental_uris": {"android": "https://dc.lft.to/lastmile_qr_scan", "ios": "https://dc.lft.to/lastmile_qr_scan"}, "fusion_lon": 0.0, "lat": 38.88994783333333, "bike_id": "a8b0b62d75ff276373ea28f975435458", "type": "electric_scooter", "is_reserved": 0, "lon": -76.983705}, {"fusion_lat": 0.0, "name": "26fa63ce81f4d4deaea708efe1510880", "is_disabled": 0, "rental_uris": {"android": "https://dc.lft.to/lastmile_qr_scan", "ios": "https://dc.lft.to/lastmile_qr_scan"}, "fusion_lon": 0.0, "lat": 38.9100515, "bike_id": "26fa63ce81f4d4deaea708efe1510880", "type": "electric_scooter", "is_reserved": 0, "lon": -77.038491}, {"fusion_lat": 0.0, "name": "0be8a155e189147710190fe3e8218e8f", "is_disabled": 0, "rental_uris": {"android": "https://dc.lft.to/lastmile_qr_scan", "ios": "https://dc.lft.to/lastmile_qr_scan"}, "fusion_lon": 0.0, "lat": 38.903606333333336, "bike_id": "0be8a155e189147710190fe3e8218e8f", "type": "electric_scooter", "is_reserved": 0, "lon": -77.034326}, {"fusion_lat": 0.0, "name": "70c005a7fb8ed7ba8c3e0355336532a2", "is_disabled": 0, "rental_uris": {"android": "https://dc.lft.to/lastmile_qr_scan", "ios": "https://dc.lft.to/lastmile_qr_scan"}, "fusion_lon": 0.0, "lat": 38.91198966666666, "bike_id": "70c005a7fb8ed7ba8c3e0355336532a2", "type": "electric_scooter", "is_reserved": 0, "lon": -77.00211216666666}, {"fusion_lat": 0.0, "name": "d56b1342ff3172e8682ec688ecc6f3a2", "is_disabled": 0, "rental_uris": {"android": "https://dc.lft.to/lastmile_qr_scan", "ios": "https://dc.lft.to/lastmile_qr_scan"}, "fusion_lon": 0.0, "lat": 38.90238766666667, "bike_id": "d56b1342ff3172e8682ec688ecc6f3a2", "type": "electric_scooter", "is_reserved": 0, "lon": -77.0054985}, {"fusion_lat": 0.0, "name": "8f6acbf6492c8368a2c2de253ba33dd8", "is_disabled": 0, "rental_uris": {"android": "https://dc.lft.to/lastmile_qr_scan", "ios": "https://dc.lft.to/lastmile_qr_scan"}, "fusion_lon": 0.0, "lat": 38.92729116666667, "bike_id": "8f6acbf6492c8368a2c2de253ba33dd8", "type": "electric_scooter", "is_reserved": 0, "lon": -77.0231235}, {"fusion_lat": 0.0, "name": "e74d257c426ac459755f7c19b67ed1ca", "is_disabled": 0, "rental_uris": {"android": "https://dc.lft.to/lastmile_qr_scan", "ios": "https://dc.lft.to/lastmile_qr_scan"}, "fusion_lon": 0.0, "lat": 38.878462, "bike_id": "e74d257c426ac459755f7c19b67ed1ca", "type": "electric_scooter", "is_reserved": 0, "lon": -77.00111266666667}, {"fusion_lat": 0.0, "name": "d508d2fdc09d620f28319eb5f802e16f", "is_disabled": 0, "rental_uris": {"android": "https://dc.lft.to/lastmile_qr_scan", "ios": "https://dc.lft.to/lastmile_qr_scan"}, "fusion_lon": 0.0, "lat": 38.874721666666666, "bike_id": "d508d2fdc09d620f28319eb5f802e16f", "type": "electric_scooter", "is_reserved": 0, "lon": -77.00479466666667}, {"fusion_lat": 0.0, "name": "5cefda22e4d83516011d5b6b09c6afc4", "is_disabled": 0, "rental_uris": {"android": "https://dc.lft.to/lastmile_qr_scan", "ios": "https://dc.lft.to/lastmile_qr_scan"}, "fusion_lon": 0.0, "lat": 38.907174166666664, "bike_id": "5cefda22e4d83516011d5b6b09c6afc4", "type": "electric_scooter", "is_reserved": 0, "lon": -77.03269433333334}, {"fusion_lat": 0.0, "name": "f23b8dbcc95c0827a165d41851ddfc8c", "is_disabled": 0, "rental_uris": {"android": "https://dc.lft.to/lastmile_qr_scan", "ios": "https://dc.lft.to/lastmile_qr_scan"}, "fusion_lon": 0.0, "lat": 38.920934833333334, "bike_id": "f23b8dbcc95c0827a165d41851ddfc8c", "type": "electric_scooter", "is_reserved": 0, "lon": -77.0241565}, {"fusion_lat": 0.0, "name": "fc24d6cd954ed404561e738cdcf65c02", "is_disabled": 0, "rental_uris": {"android": "https://dc.lft.to/lastmile_qr_scan", "ios": "https://dc.lft.to/lastmile_qr_scan"}, "fusion_lon": 0.0, "lat": 38.911590333333336, "bike_id": "fc24d6cd954ed404561e738cdcf65c02", "type": "electric_scooter", "is_reserved": 0, "lon": -77.0107025}, {"fusion_lat": 0.0, "name": "d580eacffb4de649048979872d0fb582", "is_disabled": 0, "rental_uris": {"android": "https://dc.lft.to/lastmile_qr_scan", "ios": "https://dc.lft.to/lastmile_qr_scan"}, "fusion_lon": 0.0, "lat": 38.92013383333333, "bike_id": "d580eacffb4de649048979872d0fb582", "type": "electric_scooter", "is_reserved": 0, "lon": -77.03212266666667}, {"fusion_lat": 0.0, "name": "f5189758c70bd066968b4943a2525745", "is_disabled": 0, "rental_uris": {"android": "https://dc.lft.to/lastmile_qr_scan", "ios": "https://dc.lft.to/lastmile_qr_scan"}, "fusion_lon": 0.0, "lat": 38.921366, "bike_id": "f5189758c70bd066968b4943a2525745", "type": "electric_scooter", "is_reserved": 0, "lon": -77.02547433333334}, {"fusion_lat": 0.0, "name": "5c52e55c6470a92b8a749e7335dbca22", "is_disabled": 0, "rental_uris": {"android": "https://dc.lft.to/lastmile_qr_scan", "ios": "https://dc.lft.to/lastmile_qr_scan"}, "fusion_lon": 0.0, "lat": 38.912563, "bike_id": "5c52e55c6470a92b8a749e7335dbca22", "type": "electric_scooter", "is_reserved": 0, "lon": -77.035057}, {"fusion_lat": 0.0, "name": "25173a93eefd940b9b4957fc83b33d72", "is_disabled": 0, "rental_uris": {"android": "https://dc.lft.to/lastmile_qr_scan", "ios": "https://dc.lft.to/lastmile_qr_scan"}, "fusion_lon": 0.0, "lat": 38.913098, "bike_id": "25173a93eefd940b9b4957fc83b33d72", "type": "electric_scooter", "is_reserved": 0, "lon": -77.04180083333334}, {"fusion_lat": 0.0, "name": "7ea725adea840273dcb30ce560d9250a", "is_disabled": 0, "rental_uris": {"android": "https://dc.lft.to/lastmile_qr_scan", "ios": "https://dc.lft.to/lastmile_qr_scan"}, "fusion_lon": 0.0, "lat": 38.928705666666666, "bike_id": "7ea725adea840273dcb30ce560d9250a", "type": "electric_scooter", "is_reserved": 0, "lon": -77.013668}, {"fusion_lat": 0.0, "name": "3ca038793b2af514ff997c2182b7baf2", "is_disabled": 0, "rental_uris": {"android": "https://dc.lft.to/lastmile_qr_scan", "ios": "https://dc.lft.to/lastmile_qr_scan"}, "fusion_lon": 0.0, "lat": 38.90557783333333, "bike_id": "3ca038793b2af514ff997c2182b7baf2", "type": "electric_scooter", "is_reserved": 0, "lon": -77.046595}, {"fusion_lat": 0.0, "name": "0e9c8fb3c646bf17b55f00e822fc6e99", "is_disabled": 0, "rental_uris": {"android": "https://dc.lft.to/lastmile_qr_scan", "ios": "https://dc.lft.to/lastmile_qr_scan"}, "fusion_lon": 0.0, "lat": 38.90986566666667, "bike_id": "0e9c8fb3c646bf17b55f00e822fc6e99", "type": "electric_scooter", "is_reserved": 0, "lon": -77.0466485}, {"fusion_lat": 0.0, "name": "6487340bbf6d5bcb951c8cda82d5e8dc", "is_disabled": 0, "rental_uris": {"android": "https://dc.lft.to/lastmile_qr_scan", "ios": "https://dc.lft.to/lastmile_qr_scan"}, "fusion_lon": 0.0, "lat": 38.93395566666667, "bike_id": "6487340bbf6d5bcb951c8cda82d5e8dc", "type": "electric_scooter", "is_reserved": 0, "lon": -77.0574375}, {"fusion_lat": 0.0, "name": "ab87e8424085c602f97a4375785a6d8c", "is_disabled": 0, "rental_uris": {"android": "https://dc.lft.to/lastmile_qr_scan", "ios": "https://dc.lft.to/lastmile_qr_scan"}, "fusion_lon": 0.0, "lat": 38.938591, "bike_id": "ab87e8424085c602f97a4375785a6d8c", "type": "electric_scooter", "is_reserved": 0, "lon": -77.03438833333334}, {"fusion_lat": 0.0, "name": "11daed81a25cb79119ac4566284b2795", "is_disabled": 0, "rental_uris": {"android": "https://dc.lft.to/lastmile_qr_scan", "ios": "https://dc.lft.to/lastmile_qr_scan"}, "fusion_lon": 0.0, "lat": 38.9046465, "bike_id": "11daed81a25cb79119ac4566284b2795", "type": "electric_scooter", "is_reserved": 0, "lon": -77.048593}, {"fusion_lat": 0.0, "name": "0914ad4b49423931f440772563fb4077", "is_disabled": 0, "rental_uris": {"android": "https://dc.lft.to/lastmile_qr_scan", "ios": "https://dc.lft.to/lastmile_qr_scan"}, "fusion_lon": 0.0, "lat": 38.8930525, "bike_id": "0914ad4b49423931f440772563fb4077", "type": "electric_scooter", "is_reserved": 0, "lon": -77.01243533333333}, {"fusion_lat": 0.0, "name": "725ba21f5609d325671d9fec232de249", "is_disabled": 0, "rental_uris": {"android": "https://dc.lft.to/lastmile_qr_scan", "ios": "https://dc.lft.to/lastmile_qr_scan"}, "fusion_lon": 0.0, "lat": 38.89915933333333, "bike_id": "725ba21f5609d325671d9fec232de249", "type": "electric_scooter", "is_reserved": 0, "lon": -76.93354466666666}, {"fusion_lat": 0.0, "name": "7bae33f320bedc9fe936b2e7b5f92f3e", "is_disabled": 0, "rental_uris": {"android": "https://dc.lft.to/lastmile_qr_scan", "ios": "https://dc.lft.to/lastmile_qr_scan"}, "fusion_lon": 0.0, "lat": 38.916905666666665, "bike_id": "7bae33f320bedc9fe936b2e7b5f92f3e", "type": "electric_scooter", "is_reserved": 0, "lon": -77.03384333333334}, {"fusion_lat": 0.0, "name": "c22fe527b8462174943c4ec081e0882f", "is_disabled": 0, "rental_uris": {"android": "https://dc.lft.to/lastmile_qr_scan", "ios": "https://dc.lft.to/lastmile_qr_scan"}, "fusion_lon": 0.0, "lat": 38.9353755, "bike_id": "c22fe527b8462174943c4ec081e0882f", "type": "electric_scooter", "is_reserved": 0, "lon": -77.05743866666667}, {"fusion_lat": 0.0, "name": "e7fb5a5ef29176629ff593ca4fe9dc5c", "is_disabled": 0, "rental_uris": {"android": "https://dc.lft.to/lastmile_qr_scan", "ios": "https://dc.lft.to/lastmile_qr_scan"}, "fusion_lon": 0.0, "lat": 38.9012715, "bike_id": "e7fb5a5ef29176629ff593ca4fe9dc5c", "type": "electric_scooter", "is_reserved": 0, "lon": -77.00211683333333}, {"fusion_lat": 0.0, "name": "e5e21e40503295efa0c3b7222f3cc97b", "is_disabled": 0, "rental_uris": {"android": "https://dc.lft.to/lastmile_qr_scan", "ios": "https://dc.lft.to/lastmile_qr_scan"}, "fusion_lon": 0.0, "lat": 38.958828, "bike_id": "e5e21e40503295efa0c3b7222f3cc97b", "type": "electric_bike", "is_reserved": 0, "lon": -77.01037583333333}, {"fusion_lat": 0.0, "name": "a0bccf545fc4d8713394d62910ab45b4", "is_disabled": 0, "rental_uris": {"android": "https://dc.lft.to/lastmile_qr_scan", "ios": "https://dc.lft.to/lastmile_qr_scan"}, "fusion_lon": 0.0, "lat": 38.919693333333335, "bike_id": "a0bccf545fc4d8713394d62910ab45b4", "type": "electric_scooter", "is_reserved": 0, "lon": -77.03218783333334}, {"fusion_lat": 0.0, "name": "70f90bca80f22bd0f30638357ba9f4da", "is_disabled": 0, "rental_uris": {"android": "https://dc.lft.to/lastmile_qr_scan", "ios": "https://dc.lft.to/lastmile_qr_scan"}, "fusion_lon": 0.0, "lat": 38.901557, "bike_id": "70f90bca80f22bd0f30638357ba9f4da", "type": "electric_scooter", "is_reserved": 0, "lon": -77.04168566666667}, {"fusion_lat": 0.0, "name": "34618c5c6da7b32a2ceb9a732a41a72d", "is_disabled": 0, "rental_uris": {"android": "https://dc.lft.to/lastmile_qr_scan", "ios": "https://dc.lft.to/lastmile_qr_scan"}, "fusion_lon": 0.0, "lat": 38.966702166666664, "bike_id": "34618c5c6da7b32a2ceb9a732a41a72d", "type": "electric_scooter", "is_reserved": 0, "lon": -77.025467}, {"fusion_lat": 0.0, "name": "4eb2fcbfbab319d0310480dd8699844b", "is_disabled": 0, "rental_uris": {"android": "https://dc.lft.to/lastmile_qr_scan", "ios": "https://dc.lft.to/lastmile_qr_scan"}, "fusion_lon": 0.0, "lat": 38.917824, "bike_id": "4eb2fcbfbab319d0310480dd8699844b", "type": "electric_scooter", "is_reserved": 0, "lon": -77.0229415}, {"fusion_lat": 0.0, "name": "7899fb113132e46b8abbaa0cadd19ef8", "is_disabled": 0, "rental_uris": {"android": "https://dc.lft.to/lastmile_qr_scan", "ios": "https://dc.lft.to/lastmile_qr_scan"}, "fusion_lon": 0.0, "lat": 38.884434, "bike_id": "7899fb113132e46b8abbaa0cadd19ef8", "type": "electric_scooter", "is_reserved": 0, "lon": -77.02298366666666}, {"fusion_lat": 0.0, "name": "7e7ca51603d2949cc60742ea887016df", "is_disabled": 0, "rental_uris": {"android": "https://dc.lft.to/lastmile_qr_scan", "ios": "https://dc.lft.to/lastmile_qr_scan"}, "fusion_lon": 0.0, "lat": 38.9156375, "bike_id": "7e7ca51603d2949cc60742ea887016df", "type": "electric_scooter", "is_reserved": 0, "lon": -77.03112083333333}, {"fusion_lat": 0.0, "name": "b8d62915db083d0aefb5fe99d4be1327", "is_disabled": 0, "rental_uris": {"android": "https://dc.lft.to/lastmile_qr_scan", "ios": "https://dc.lft.to/lastmile_qr_scan"}, "fusion_lon": 0.0, "lat": 38.934134666666665, "bike_id": "b8d62915db083d0aefb5fe99d4be1327", "type": "electric_bike", "is_reserved": 0, "lon": -77.04309266666667}, {"fusion_lat": 0.0, "name": "7954ad8c8daa8cca7cc57cde5d3946ec", "is_disabled": 0, "rental_uris": {"android": "https://dc.lft.to/lastmile_qr_scan", "ios": "https://dc.lft.to/lastmile_qr_scan"}, "fusion_lon": 0.0, "lat": 38.912216, "bike_id": "7954ad8c8daa8cca7cc57cde5d3946ec", "type": "electric_scooter", "is_reserved": 0, "lon": -77.0660095}, {"fusion_lat": 0.0, "name": "7c00786f9d996c41eb5a28003d1ce5ec", "is_disabled": 0, "rental_uris": {"android": "https://dc.lft.to/lastmile_qr_scan", "ios": "https://dc.lft.to/lastmile_qr_scan"}, "fusion_lon": 0.0, "lat": 38.887452833333334, "bike_id": "7c00786f9d996c41eb5a28003d1ce5ec", "type": "electric_scooter", "is_reserved": 0, "lon": -77.02134233333334}, {"fusion_lat": 0.0, "name": "cb22790d3590792d987b7de06f5cbe9e", "is_disabled": 0, "rental_uris": {"android": "https://dc.lft.to/lastmile_qr_scan", "ios": "https://dc.lft.to/lastmile_qr_scan"}, "fusion_lon": 0.0, "lat": 38.90883266666667, "bike_id": "cb22790d3590792d987b7de06f5cbe9e", "type": "electric_scooter", "is_reserved": 0, "lon": -77.002144}, {"fusion_lat": 0.0, "name": "a89d4388d75c628404e4a039d6579457", "is_disabled": 0, "rental_uris": {"android": "https://dc.lft.to/lastmile_qr_scan", "ios": "https://dc.lft.to/lastmile_qr_scan"}, "fusion_lon": 0.0, "lat": 38.93538433333333, "bike_id": "a89d4388d75c628404e4a039d6579457", "type": "electric_scooter", "is_reserved": 0, "lon": -77.0575395}, {"fusion_lat": 0.0, "name": "752534a4c6e5f4df56ff5ce72c47a8e5", "is_disabled": 0, "rental_uris": {"android": "https://dc.lft.to/lastmile_qr_scan", "ios": "https://dc.lft.to/lastmile_qr_scan"}, "fusion_lon": 0.0, "lat": 38.911036333333335, "bike_id": "752534a4c6e5f4df56ff5ce72c47a8e5", "type": "electric_scooter", "is_reserved": 0, "lon": -77.04203266666667}, {"fusion_lat": 0.0, "name": "5bb0a6ae12c12dc533c349c24d7ab0ef", "is_disabled": 0, "rental_uris": {"android": "https://dc.lft.to/lastmile_qr_scan", "ios": "https://dc.lft.to/lastmile_qr_scan"}, "fusion_lon": 0.0, "lat": 38.908510666666665, "bike_id": "5bb0a6ae12c12dc533c349c24d7ab0ef", "type": "electric_scooter", "is_reserved": 0, "lon": -77.0330145}, {"fusion_lat": 0.0, "name": "247b817b204a48ffc968a974ee9fb1d4", "is_disabled": 0, "rental_uris": {"android": "https://dc.lft.to/lastmile_qr_scan", "ios": "https://dc.lft.to/lastmile_qr_scan"}, "fusion_lon": 0.0, "lat": 38.9170875, "bike_id": "247b817b204a48ffc968a974ee9fb1d4", "type": "electric_scooter", "is_reserved": 0, "lon": -77.02596216666667}, {"fusion_lat": 0.0, "name": "8db942c126c431473702e1be15859dcc", "is_disabled": 0, "rental_uris": {"android": "https://dc.lft.to/lastmile_qr_scan", "ios": "https://dc.lft.to/lastmile_qr_scan"}, "fusion_lon": 0.0, "lat": 38.91650933333333, "bike_id": "8db942c126c431473702e1be15859dcc", "type": "electric_scooter", "is_reserved": 0, "lon": -77.03207283333333}, {"fusion_lat": 0.0, "name": "41a6b529c406ff1f1d5e167a0565dca8", "is_disabled": 0, "rental_uris": {"android": "https://dc.lft.to/lastmile_qr_scan", "ios": "https://dc.lft.to/lastmile_qr_scan"}, "fusion_lon": 0.0, "lat": 38.89897916666666, "bike_id": "41a6b529c406ff1f1d5e167a0565dca8", "type": "electric_scooter", "is_reserved": 0, "lon": -76.93355616666666}, {"fusion_lat": 0.0, "name": "3a1ec30cb7b559f0b365020ac8159d3b", "is_disabled": 0, "rental_uris": {"android": "https://dc.lft.to/lastmile_qr_scan", "ios": "https://dc.lft.to/lastmile_qr_scan"}, "fusion_lon": 0.0, "lat": 38.9039695, "bike_id": "3a1ec30cb7b559f0b365020ac8159d3b", "type": "electric_scooter", "is_reserved": 0, "lon": -76.9894115}, {"fusion_lat": 0.0, "name": "2361b976ec3253ebdf351b21b014be6a", "is_disabled": 0, "rental_uris": {"android": "https://dc.lft.to/lastmile_qr_scan", "ios": "https://dc.lft.to/lastmile_qr_scan"}, "fusion_lon": 0.0, "lat": 38.885232, "bike_id": "2361b976ec3253ebdf351b21b014be6a", "type": "electric_scooter", "is_reserved": 0, "lon": -76.9292505}, {"fusion_lat": 0.0, "name": "900115ed51f4e02a471e59d4ae61ee8c", "is_disabled": 0, "rental_uris": {"android": "https://dc.lft.to/lastmile_qr_scan", "ios": "https://dc.lft.to/lastmile_qr_scan"}, "fusion_lon": 0.0, "lat": 38.92412733333333, "bike_id": "900115ed51f4e02a471e59d4ae61ee8c", "type": "electric_scooter", "is_reserved": 0, "lon": -77.05251016666666}, {"fusion_lat": 0.0, "name": "963a5ebb0e2f193b4b6998454830ee23", "is_disabled": 0, "rental_uris": {"android": "https://dc.lft.to/lastmile_qr_scan", "ios": "https://dc.lft.to/lastmile_qr_scan"}, "fusion_lon": 0.0, "lat": 38.89957966666667, "bike_id": "963a5ebb0e2f193b4b6998454830ee23", "type": "electric_scooter", "is_reserved": 0, "lon": -77.02751766666667}, {"fusion_lat": 0.0, "name": "2e701b3e920ee48e526e96d7323f4331", "is_disabled": 0, "rental_uris": {"android": "https://dc.lft.to/lastmile_qr_scan", "ios": "https://dc.lft.to/lastmile_qr_scan"}, "fusion_lon": 0.0, "lat": 38.909726666666664, "bike_id": "2e701b3e920ee48e526e96d7323f4331", "type": "electric_scooter", "is_reserved": 0, "lon": -77.020168}, {"fusion_lat": 0.0, "name": "2ef6adce1a1a40d830bc87710b4cccd8", "is_disabled": 0, "rental_uris": {"android": "https://dc.lft.to/lastmile_qr_scan", "ios": "https://dc.lft.to/lastmile_qr_scan"}, "fusion_lon": 0.0, "lat": 38.90236616666667, "bike_id": "2ef6adce1a1a40d830bc87710b4cccd8", "type": "electric_scooter", "is_reserved": 0, "lon": -77.01795866666667}, {"fusion_lat": 0.0, "name": "5098485c369dfe3efb4f76579308dfd9", "is_disabled": 0, "rental_uris": {"android": "https://dc.lft.to/lastmile_qr_scan", "ios": "https://dc.lft.to/lastmile_qr_scan"}, "fusion_lon": 0.0, "lat": 38.95056816666666, "bike_id": "5098485c369dfe3efb4f76579308dfd9", "type": "electric_scooter", "is_reserved": 0, "lon": -77.08028183333333}, {"fusion_lat": 0.0, "name": "224b063986ac483e309367a19a2322db", "is_disabled": 0, "rental_uris": {"android": "https://dc.lft.to/lastmile_qr_scan", "ios": "https://dc.lft.to/lastmile_qr_scan"}, "fusion_lon": 0.0, "lat": 38.875820166666664, "bike_id": "224b063986ac483e309367a19a2322db", "type": "electric_bike", "is_reserved": 0, "lon": -77.23411466666667}, {"fusion_lat": 0.0, "name": "208c338a6c74ccf1513fabd7a485d513", "is_disabled": 0, "rental_uris": {"android": "https://dc.lft.to/lastmile_qr_scan", "ios": "https://dc.lft.to/lastmile_qr_scan"}, "fusion_lon": 0.0, "lat": 38.899129333333335, "bike_id": "208c338a6c74ccf1513fabd7a485d513", "type": "electric_scooter", "is_reserved": 0, "lon": -76.94588583333334}, {"fusion_lat": 0.0, "name": "116f3c20e5c6702e87e113c31e6ce393", "is_disabled": 0, "rental_uris": {"android": "https://dc.lft.to/lastmile_qr_scan", "ios": "https://dc.lft.to/lastmile_qr_scan"}, "fusion_lon": 0.0, "lat": 38.84278916666667, "bike_id": "116f3c20e5c6702e87e113c31e6ce393", "type": "electric_bike", "is_reserved": 0, "lon": -76.988421}, {"fusion_lat": 0.0, "name": "babca438679de08017965d856a02b254", "is_disabled": 0, "rental_uris": {"android": "https://dc.lft.to/lastmile_qr_scan", "ios": "https://dc.lft.to/lastmile_qr_scan"}, "fusion_lon": 0.0, "lat": 38.915518166666665, "bike_id": "babca438679de08017965d856a02b254", "type": "electric_scooter", "is_reserved": 0, "lon": -77.00364966666666}, {"fusion_lat": 0.0, "name": "a9be5322abdd8c087f66406dab9e8b5a", "is_disabled": 0, "rental_uris": {"android": "https://dc.lft.to/lastmile_qr_scan", "ios": "https://dc.lft.to/lastmile_qr_scan"}, "fusion_lon": 0.0, "lat": 38.91690333333333, "bike_id": "a9be5322abdd8c087f66406dab9e8b5a", "type": "electric_scooter", "is_reserved": 0, "lon": -77.02286116666667}, {"fusion_lat": 0.0, "name": "66a027bf37777953fce6ae648c164323", "is_disabled": 0, "rental_uris": {"android": "https://dc.lft.to/lastmile_qr_scan", "ios": "https://dc.lft.to/lastmile_qr_scan"}, "fusion_lon": 0.0, "lat": 38.914146333333335, "bike_id": "66a027bf37777953fce6ae648c164323", "type": "electric_scooter", "is_reserved": 0, "lon": -77.0107735}, {"fusion_lat": 0.0, "name": "beb97624ad7521e6c3c96c3ade27a946", "is_disabled": 0, "rental_uris": {"android": "https://dc.lft.to/lastmile_qr_scan", "ios": "https://dc.lft.to/lastmile_qr_scan"}, "fusion_lon": 0.0, "lat": 38.9203245, "bike_id": "beb97624ad7521e6c3c96c3ade27a946", "type": "electric_scooter", "is_reserved": 0, "lon": -77.01760316666666}, {"fusion_lat": 0.0, "name": "b52a27bf9a6341b36e913e05728de9f5", "is_disabled": 0, "rental_uris": {"android": "https://dc.lft.to/lastmile_qr_scan", "ios": "https://dc.lft.to/lastmile_qr_scan"}, "fusion_lon": 0.0, "lat": 38.92155016666667, "bike_id": "b52a27bf9a6341b36e913e05728de9f5", "type": "electric_scooter", "is_reserved": 0, "lon": -77.0337015}, {"fusion_lat": 0.0, "name": "1d08c03617367c4ae4bae03f02ef9376", "is_disabled": 0, "rental_uris": {"android": "https://dc.lft.to/lastmile_qr_scan", "ios": "https://dc.lft.to/lastmile_qr_scan"}, "fusion_lon": 0.0, "lat": 38.88730183333333, "bike_id": "1d08c03617367c4ae4bae03f02ef9376", "type": "electric_scooter", "is_reserved": 0, "lon": -77.03214083333333}, {"fusion_lat": 0.0, "name": "79765e65f4d9c8cb7af923b4597173e2", "is_disabled": 0, "rental_uris": {"android": "https://dc.lft.to/lastmile_qr_scan", "ios": "https://dc.lft.to/lastmile_qr_scan"}, "fusion_lon": 0.0, "lat": 38.92231233333333, "bike_id": "79765e65f4d9c8cb7af923b4597173e2", "type": "electric_scooter", "is_reserved": 0, "lon": -77.02977383333334}, {"fusion_lat": 0.0, "name": "a1bc66fe62e432218aff4d4c4d27a64a", "is_disabled": 0, "rental_uris": {"android": "https://dc.lft.to/lastmile_qr_scan", "ios": "https://dc.lft.to/lastmile_qr_scan"}, "fusion_lon": 0.0, "lat": 38.92169366666667, "bike_id": "a1bc66fe62e432218aff4d4c4d27a64a", "type": "electric_scooter", "is_reserved": 0, "lon": -77.03834683333334}, {"fusion_lat": 0.0, "name": "a4c09bdbb8916aabbe14df38179d8d21", "is_disabled": 0, "rental_uris": {"android": "https://dc.lft.to/lastmile_qr_scan", "ios": "https://dc.lft.to/lastmile_qr_scan"}, "fusion_lon": 0.0, "lat": 38.90957266666667, "bike_id": "a4c09bdbb8916aabbe14df38179d8d21", "type": "electric_scooter", "is_reserved": 0, "lon": -77.039478}, {"fusion_lat": 0.0, "name": "3a16b0e5be3c6b60055c6926eeec1126", "is_disabled": 0, "rental_uris": {"android": "https://dc.lft.to/lastmile_qr_scan", "ios": "https://dc.lft.to/lastmile_qr_scan"}, "fusion_lon": 0.0, "lat": 38.9199765, "bike_id": "3a16b0e5be3c6b60055c6926eeec1126", "type": "electric_scooter", "is_reserved": 0, "lon": -77.03283483333334}, {"fusion_lat": 0.0, "name": "ce7b1df5fe80701909a937fd66d8bb78", "is_disabled": 0, "rental_uris": {"android": "https://dc.lft.to/lastmile_qr_scan", "ios": "https://dc.lft.to/lastmile_qr_scan"}, "fusion_lon": 0.0, "lat": 38.863898, "bike_id": "ce7b1df5fe80701909a937fd66d8bb78", "type": "electric_bike", "is_reserved": 0, "lon": -76.9899855}, {"fusion_lat": 0.0, "name": "7cd43200cfd1adf9c140b5a6673013c6", "is_disabled": 0, "rental_uris": {"android": "https://dc.lft.to/lastmile_qr_scan", "ios": "https://dc.lft.to/lastmile_qr_scan"}, "fusion_lon": 0.0, "lat": 38.887273666666665, "bike_id": "7cd43200cfd1adf9c140b5a6673013c6", "type": "electric_scooter", "is_reserved": 0, "lon": -77.01765616666667}, {"fusion_lat": 0.0, "name": "eab36f354b89f895a34665625ddf483f", "is_disabled": 0, "rental_uris": {"android": "https://dc.lft.to/lastmile_qr_scan", "ios": "https://dc.lft.to/lastmile_qr_scan"}, "fusion_lon": 0.0, "lat": 38.91802766666667, "bike_id": "eab36f354b89f895a34665625ddf483f", "type": "electric_scooter", "is_reserved": 0, "lon": -77.03460933333334}, {"fusion_lat": 0.0, "name": "ff93a16946a9d27243c40312a38380b1", "is_disabled": 0, "rental_uris": {"android": "https://dc.lft.to/lastmile_qr_scan", "ios": "https://dc.lft.to/lastmile_qr_scan"}, "fusion_lon": 0.0, "lat": 38.90290683333333, "bike_id": "ff93a16946a9d27243c40312a38380b1", "type": "electric_scooter", "is_reserved": 0, "lon": -77.036546}, {"fusion_lat": 0.0, "name": "00879631d77a0cf4ccf11910f0106a45", "is_disabled": 0, "rental_uris": {"android": "https://dc.lft.to/lastmile_qr_scan", "ios": "https://dc.lft.to/lastmile_qr_scan"}, "fusion_lon": 0.0, "lat": 38.900308, "bike_id": "00879631d77a0cf4ccf11910f0106a45", "type": "electric_scooter", "is_reserved": 0, "lon": -76.998726}, {"fusion_lat": 0.0, "name": "4bec3f8172eb81d444a001b75ce0c05f", "is_disabled": 0, "rental_uris": {"android": "https://dc.lft.to/lastmile_qr_scan", "ios": "https://dc.lft.to/lastmile_qr_scan"}, "fusion_lon": 0.0, "lat": 38.88742516666667, "bike_id": "4bec3f8172eb81d444a001b75ce0c05f", "type": "electric_scooter", "is_reserved": 0, "lon": -77.02140233333333}, {"fusion_lat": 0.0, "name": "124cfd99fdae9671c79d212a6cb50642", "is_disabled": 0, "rental_uris": {"android": "https://dc.lft.to/lastmile_qr_scan", "ios": "https://dc.lft.to/lastmile_qr_scan"}, "fusion_lon": 0.0, "lat": 38.91776866666667, "bike_id": "124cfd99fdae9671c79d212a6cb50642", "type": "electric_scooter", "is_reserved": 0, "lon": -77.0359015}, {"fusion_lat": 0.0, "name": "5c798b61d73de7e5ada52b3e983f2c08", "is_disabled": 0, "rental_uris": {"android": "https://dc.lft.to/lastmile_qr_scan", "ios": "https://dc.lft.to/lastmile_qr_scan"}, "fusion_lon": 0.0, "lat": 38.899523333333335, "bike_id": "5c798b61d73de7e5ada52b3e983f2c08", "type": "electric_scooter", "is_reserved": 0, "lon": -77.05713166666666}, {"fusion_lat": 0.0, "name": "e6d5ceee64665e3636e8ab90833b941c", "is_disabled": 0, "rental_uris": {"android": "https://dc.lft.to/lastmile_qr_scan", "ios": "https://dc.lft.to/lastmile_qr_scan"}, "fusion_lon": 0.0, "lat": 38.92289666666667, "bike_id": "e6d5ceee64665e3636e8ab90833b941c", "type": "electric_scooter", "is_reserved": 0, "lon": -77.03663883333333}, {"fusion_lat": 0.0, "name": "41be4bafc7e571da9f6fc5c5ede6016e", "is_disabled": 0, "rental_uris": {"android": "https://dc.lft.to/lastmile_qr_scan", "ios": "https://dc.lft.to/lastmile_qr_scan"}, "fusion_lon": 0.0, "lat": 38.91404516666667, "bike_id": "41be4bafc7e571da9f6fc5c5ede6016e", "type": "electric_scooter", "is_reserved": 0, "lon": -77.07554633333334}, {"fusion_lat": 0.0, "name": "b972639525a0114617b7b278eb61b42e", "is_disabled": 0, "rental_uris": {"android": "https://dc.lft.to/lastmile_qr_scan", "ios": "https://dc.lft.to/lastmile_qr_scan"}, "fusion_lon": 0.0, "lat": 38.9237475, "bike_id": "b972639525a0114617b7b278eb61b42e", "type": "electric_scooter", "is_reserved": 0, "lon": -77.0352265}, {"fusion_lat": 0.0, "name": "1422f30140c4e09be2c7139e39767221", "is_disabled": 0, "rental_uris": {"android": "https://dc.lft.to/lastmile_qr_scan", "ios": "https://dc.lft.to/lastmile_qr_scan"}, "fusion_lon": 0.0, "lat": 38.8766565, "bike_id": "1422f30140c4e09be2c7139e39767221", "type": "electric_scooter", "is_reserved": 0, "lon": -77.0008815}, {"fusion_lat": 0.0, "name": "b2a15220220a1284e18d0586e2041885", "is_disabled": 0, "rental_uris": {"android": "https://dc.lft.to/lastmile_qr_scan", "ios": "https://dc.lft.to/lastmile_qr_scan"}, "fusion_lon": 0.0, "lat": 38.889259833333334, "bike_id": "b2a15220220a1284e18d0586e2041885", "type": "electric_bike", "is_reserved": 0, "lon": -76.99175016666666}, {"fusion_lat": 0.0, "name": "63fc10d76a347f02ef4c54b03d22ff5c", "is_disabled": 0, "rental_uris": {"android": "https://dc.lft.to/lastmile_qr_scan", "ios": "https://dc.lft.to/lastmile_qr_scan"}, "fusion_lon": 0.0, "lat": 38.8983085, "bike_id": "63fc10d76a347f02ef4c54b03d22ff5c", "type": "electric_scooter", "is_reserved": 0, "lon": -76.94634283333333}, {"fusion_lat": 0.0, "name": "4d8d3a2ed5aa92e5253fd69b3c3d4b0d", "is_disabled": 0, "rental_uris": {"android": "https://dc.lft.to/lastmile_qr_scan", "ios": "https://dc.lft.to/lastmile_qr_scan"}, "fusion_lon": 0.0, "lat": 38.906252333333335, "bike_id": "4d8d3a2ed5aa92e5253fd69b3c3d4b0d", "type": "electric_scooter", "is_reserved": 0, "lon": -77.02609516666666}, {"fusion_lat": 0.0, "name": "eae677389ebad150c10a123404c007db", "is_disabled": 0, "rental_uris": {"android": "https://dc.lft.to/lastmile_qr_scan", "ios": "https://dc.lft.to/lastmile_qr_scan"}, "fusion_lon": 0.0, "lat": 38.905166, "bike_id": "eae677389ebad150c10a123404c007db", "type": "electric_scooter", "is_reserved": 0, "lon": -77.04829233333334}, {"fusion_lat": 0.0, "name": "256e9b1096ac756cfe2d4e8f4e82fef6", "is_disabled": 0, "rental_uris": {"android": "https://dc.lft.to/lastmile_qr_scan", "ios": "https://dc.lft.to/lastmile_qr_scan"}, "fusion_lon": 0.0, "lat": 38.87744933333333, "bike_id": "256e9b1096ac756cfe2d4e8f4e82fef6", "type": "electric_scooter", "is_reserved": 0, "lon": -77.00596216666666}, {"fusion_lat": 0.0, "name": "ef8e2942cb54c72b2f352ddc126aefa7", "is_disabled": 0, "rental_uris": {"android": "https://dc.lft.to/lastmile_qr_scan", "ios": "https://dc.lft.to/lastmile_qr_scan"}, "fusion_lon": 0.0, "lat": 38.90733133333333, "bike_id": "ef8e2942cb54c72b2f352ddc126aefa7", "type": "electric_scooter", "is_reserved": 0, "lon": -77.0431975}, {"fusion_lat": 0.0, "name": "8c3cedac7b5efade99c5db66d104a738", "is_disabled": 0, "rental_uris": {"android": "https://dc.lft.to/lastmile_qr_scan", "ios": "https://dc.lft.to/lastmile_qr_scan"}, "fusion_lon": 0.0, "lat": 38.9050345, "bike_id": "8c3cedac7b5efade99c5db66d104a738", "type": "electric_scooter", "is_reserved": 0, "lon": -77.03018833333333}, {"fusion_lat": 0.0, "name": "f0d9b05ed0b6a5f1faf66c1fb97f948f", "is_disabled": 0, "rental_uris": {"android": "https://dc.lft.to/lastmile_qr_scan", "ios": "https://dc.lft.to/lastmile_qr_scan"}, "fusion_lon": 0.0, "lat": 38.924336, "bike_id": "f0d9b05ed0b6a5f1faf66c1fb97f948f", "type": "electric_scooter", "is_reserved": 0, "lon": -77.03551333333333}, {"fusion_lat": 0.0, "name": "4aa5040826259ecafa800c0b5800de60", "is_disabled": 0, "rental_uris": {"android": "https://dc.lft.to/lastmile_qr_scan", "ios": "https://dc.lft.to/lastmile_qr_scan"}, "fusion_lon": 0.0, "lat": 38.9104845, "bike_id": "4aa5040826259ecafa800c0b5800de60", "type": "electric_scooter", "is_reserved": 0, "lon": -77.04163683333333}, {"fusion_lat": 0.0, "name": "ba3c755adf5a9043a4f6955d3d63768a", "is_disabled": 0, "rental_uris": {"android": "https://dc.lft.to/lastmile_qr_scan", "ios": "https://dc.lft.to/lastmile_qr_scan"}, "fusion_lon": 0.0, "lat": 38.900654833333334, "bike_id": "ba3c755adf5a9043a4f6955d3d63768a", "type": "electric_scooter", "is_reserved": 0, "lon": -76.93383916666667}, {"fusion_lat": 0.0, "name": "af35f32ed11d3d43d7ffbcb5128593cf", "is_disabled": 0, "rental_uris": {"android": "https://dc.lft.to/lastmile_qr_scan", "ios": "https://dc.lft.to/lastmile_qr_scan"}, "fusion_lon": 0.0, "lat": 38.90501583333333, "bike_id": "af35f32ed11d3d43d7ffbcb5128593cf", "type": "electric_scooter", "is_reserved": 0, "lon": -77.04796533333334}, {"fusion_lat": 0.0, "name": "0c1c911d05d6d1f30c4654dfc3650843", "is_disabled": 0, "rental_uris": {"android": "https://dc.lft.to/lastmile_qr_scan", "ios": "https://dc.lft.to/lastmile_qr_scan"}, "fusion_lon": 0.0, "lat": 38.899172666666665, "bike_id": "0c1c911d05d6d1f30c4654dfc3650843", "type": "electric_scooter", "is_reserved": 0, "lon": -77.02702166666667}, {"fusion_lat": 0.0, "name": "dc4884c8a2ce6a978f1006812755f0d1", "is_disabled": 0, "rental_uris": {"android": "https://dc.lft.to/lastmile_qr_scan", "ios": "https://dc.lft.to/lastmile_qr_scan"}, "fusion_lon": 0.0, "lat": 38.87678366666667, "bike_id": "dc4884c8a2ce6a978f1006812755f0d1", "type": "electric_scooter", "is_reserved": 0, "lon": -77.003059}, {"fusion_lat": 0.0, "name": "8f3ed1ea7feafa4013b200b408808a1f", "is_disabled": 0, "rental_uris": {"android": "https://dc.lft.to/lastmile_qr_scan", "ios": "https://dc.lft.to/lastmile_qr_scan"}, "fusion_lon": 0.0, "lat": 38.920485, "bike_id": "8f3ed1ea7feafa4013b200b408808a1f", "type": "electric_bike", "is_reserved": 0, "lon": -77.2413135}, {"fusion_lat": 0.0, "name": "f430127cbce99b8a07825757dfe60971", "is_disabled": 0, "rental_uris": {"android": "https://dc.lft.to/lastmile_qr_scan", "ios": "https://dc.lft.to/lastmile_qr_scan"}, "fusion_lon": 0.0, "lat": 38.911925, "bike_id": "f430127cbce99b8a07825757dfe60971", "type": "electric_scooter", "is_reserved": 0, "lon": -77.031836}, {"fusion_lat": 0.0, "name": "d36e2910b7d5c1cc7d90d476fec497a6", "is_disabled": 0, "rental_uris": {"android": "https://dc.lft.to/lastmile_qr_scan", "ios": "https://dc.lft.to/lastmile_qr_scan"}, "fusion_lon": 0.0, "lat": 38.89850883333333, "bike_id": "d36e2910b7d5c1cc7d90d476fec497a6", "type": "electric_scooter", "is_reserved": 0, "lon": -76.95033516666666}, {"fusion_lat": 0.0, "name": "54c7cb83d45ec330ec0d421770bb9574", "is_disabled": 0, "rental_uris": {"android": "https://dc.lft.to/lastmile_qr_scan", "ios": "https://dc.lft.to/lastmile_qr_scan"}, "fusion_lon": 0.0, "lat": 38.931787666666665, "bike_id": "54c7cb83d45ec330ec0d421770bb9574", "type": "electric_scooter", "is_reserved": 0, "lon": -77.02352766666667}, {"fusion_lat": 0.0, "name": "5618568a7727819b1764632894006604", "is_disabled": 0, "rental_uris": {"android": "https://dc.lft.to/lastmile_qr_scan", "ios": "https://dc.lft.to/lastmile_qr_scan"}, "fusion_lon": 0.0, "lat": 38.911221166666664, "bike_id": "5618568a7727819b1764632894006604", "type": "electric_scooter", "is_reserved": 0, "lon": -77.02968133333333}, {"fusion_lat": 0.0, "name": "94b895a1daaa10c08ccd4c8893012ba6", "is_disabled": 0, "rental_uris": {"android": "https://dc.lft.to/lastmile_qr_scan", "ios": "https://dc.lft.to/lastmile_qr_scan"}, "fusion_lon": 0.0, "lat": 38.905935, "bike_id": "94b895a1daaa10c08ccd4c8893012ba6", "type": "electric_scooter", "is_reserved": 0, "lon": -77.04673733333334}, {"fusion_lat": 0.0, "name": "9cf4d58e539f8e65f6ec930b16d996aa", "is_disabled": 0, "rental_uris": {"android": "https://dc.lft.to/lastmile_qr_scan", "ios": "https://dc.lft.to/lastmile_qr_scan"}, "fusion_lon": 0.0, "lat": 38.90708683333333, "bike_id": "9cf4d58e539f8e65f6ec930b16d996aa", "type": "electric_scooter", "is_reserved": 0, "lon": -77.03203216666667}, {"fusion_lat": 0.0, "name": "f6d6bf86a5ac89716bb432a43293a245", "is_disabled": 0, "rental_uris": {"android": "https://dc.lft.to/lastmile_qr_scan", "ios": "https://dc.lft.to/lastmile_qr_scan"}, "fusion_lon": 0.0, "lat": 38.93717083333333, "bike_id": "f6d6bf86a5ac89716bb432a43293a245", "type": "electric_scooter", "is_reserved": 0, "lon": -77.024137}, {"fusion_lat": 0.0, "name": "ca694ecc1607ba9fdc2d0133bd356d69", "is_disabled": 0, "rental_uris": {"android": "https://dc.lft.to/lastmile_qr_scan", "ios": "https://dc.lft.to/lastmile_qr_scan"}, "fusion_lon": 0.0, "lat": 38.8992835, "bike_id": "ca694ecc1607ba9fdc2d0133bd356d69", "type": "electric_scooter", "is_reserved": 0, "lon": -77.04042183333334}, {"fusion_lat": 0.0, "name": "e4a76b9f9f73bd08a39c0e8f47f2d14b", "is_disabled": 0, "rental_uris": {"android": "https://dc.lft.to/lastmile_qr_scan", "ios": "https://dc.lft.to/lastmile_qr_scan"}, "fusion_lon": 0.0, "lat": 38.94501116666667, "bike_id": "e4a76b9f9f73bd08a39c0e8f47f2d14b", "type": "electric_scooter", "is_reserved": 0, "lon": -77.03867883333334}, {"fusion_lat": 0.0, "name": "de26b36f454c39acda72f6d6c6471bc7", "is_disabled": 0, "rental_uris": {"android": "https://dc.lft.to/lastmile_qr_scan", "ios": "https://dc.lft.to/lastmile_qr_scan"}, "fusion_lon": 0.0, "lat": 38.9300325, "bike_id": "de26b36f454c39acda72f6d6c6471bc7", "type": "electric_scooter", "is_reserved": 0, "lon": -77.0217805}, {"fusion_lat": 0.0, "name": "b246ee9ed9fa597016364f29689a0d54", "is_disabled": 0, "rental_uris": {"android": "https://dc.lft.to/lastmile_qr_scan", "ios": "https://dc.lft.to/lastmile_qr_scan"}, "fusion_lon": 0.0, "lat": 38.904611333333335, "bike_id": "b246ee9ed9fa597016364f29689a0d54", "type": "electric_scooter", "is_reserved": 0, "lon": -77.06275716666667}, {"fusion_lat": 0.0, "name": "dd5f95e52bbf36d790fb4b7727b208f9", "is_disabled": 0, "rental_uris": {"android": "https://dc.lft.to/lastmile_qr_scan", "ios": "https://dc.lft.to/lastmile_qr_scan"}, "fusion_lon": 0.0, "lat": 38.90827, "bike_id": "dd5f95e52bbf36d790fb4b7727b208f9", "type": "electric_scooter", "is_reserved": 0, "lon": -77.04353483333334}, {"fusion_lat": 0.0, "name": "f47c9dcb8dbdd475ce8ea991d5ffa994", "is_disabled": 0, "rental_uris": {"android": "https://dc.lft.to/lastmile_qr_scan", "ios": "https://dc.lft.to/lastmile_qr_scan"}, "fusion_lon": 0.0, "lat": 38.912213666666666, "bike_id": "f47c9dcb8dbdd475ce8ea991d5ffa994", "type": "electric_scooter", "is_reserved": 0, "lon": -77.03193916666666}, {"fusion_lat": 0.0, "name": "42338ff9bd4302dfb00e2d26daa9862a", "is_disabled": 0, "rental_uris": {"android": "https://dc.lft.to/lastmile_qr_scan", "ios": "https://dc.lft.to/lastmile_qr_scan"}, "fusion_lon": 0.0, "lat": 38.899639666666666, "bike_id": "42338ff9bd4302dfb00e2d26daa9862a", "type": "electric_scooter", "is_reserved": 0, "lon": -77.024773}, {"fusion_lat": 0.0, "name": "aa0e29f76b9bc4803136bfda86cfcde4", "is_disabled": 0, "rental_uris": {"android": "https://dc.lft.to/lastmile_qr_scan", "ios": "https://dc.lft.to/lastmile_qr_scan"}, "fusion_lon": 0.0, "lat": 38.89648016666666, "bike_id": "aa0e29f76b9bc4803136bfda86cfcde4", "type": "electric_scooter", "is_reserved": 0, "lon": -77.02410966666666}, {"fusion_lat": 0.0, "name": "e725c5aa0a57c793104274e8de18e82c", "is_disabled": 0, "rental_uris": {"android": "https://dc.lft.to/lastmile_qr_scan", "ios": "https://dc.lft.to/lastmile_qr_scan"}, "fusion_lon": 0.0, "lat": 38.90243383333333, "bike_id": "e725c5aa0a57c793104274e8de18e82c", "type": "electric_scooter", "is_reserved": 0, "lon": -77.010926}, {"fusion_lat": 0.0, "name": "b0feae19243a74d8c8a88468cd82e67c", "is_disabled": 0, "rental_uris": {"android": "https://dc.lft.to/lastmile_qr_scan", "ios": "https://dc.lft.to/lastmile_qr_scan"}, "fusion_lon": 0.0, "lat": 38.9210915, "bike_id": "b0feae19243a74d8c8a88468cd82e67c", "type": "electric_scooter", "is_reserved": 0, "lon": -77.04703116666667}, {"fusion_lat": 0.0, "name": "ed1230a87d513f2a218e5b1053aa4871", "is_disabled": 0, "rental_uris": {"android": "https://dc.lft.to/lastmile_qr_scan", "ios": "https://dc.lft.to/lastmile_qr_scan"}, "fusion_lon": 0.0, "lat": 38.92032483333333, "bike_id": "ed1230a87d513f2a218e5b1053aa4871", "type": "electric_scooter", "is_reserved": 0, "lon": -77.08200033333334}, {"fusion_lat": 0.0, "name": "c78de44045b72a82cd5d05c75a978349", "is_disabled": 0, "rental_uris": {"android": "https://dc.lft.to/lastmile_qr_scan", "ios": "https://dc.lft.to/lastmile_qr_scan"}, "fusion_lon": 0.0, "lat": 38.878409, "bike_id": "c78de44045b72a82cd5d05c75a978349", "type": "electric_scooter", "is_reserved": 0, "lon": -77.00550516666667}, {"fusion_lat": 0.0, "name": "95ce82c9813ebfb9467899f70eb84846", "is_disabled": 0, "rental_uris": {"android": "https://dc.lft.to/lastmile_qr_scan", "ios": "https://dc.lft.to/lastmile_qr_scan"}, "fusion_lon": 0.0, "lat": 38.9117785, "bike_id": "95ce82c9813ebfb9467899f70eb84846", "type": "electric_scooter", "is_reserved": 0, "lon": -77.03210583333333}, {"fusion_lat": 0.0, "name": "469129174b8e357b3950f0b88000bbf9", "is_disabled": 0, "rental_uris": {"android": "https://dc.lft.to/lastmile_qr_scan", "ios": "https://dc.lft.to/lastmile_qr_scan"}, "fusion_lon": 0.0, "lat": 38.916366, "bike_id": "469129174b8e357b3950f0b88000bbf9", "type": "electric_scooter", "is_reserved": 0, "lon": -77.0507005}, {"fusion_lat": 0.0, "name": "b07581c7af88689a23c29ab2eea1f610", "is_disabled": 0, "rental_uris": {"android": "https://dc.lft.to/lastmile_qr_scan", "ios": "https://dc.lft.to/lastmile_qr_scan"}, "fusion_lon": 0.0, "lat": 38.887447333333334, "bike_id": "b07581c7af88689a23c29ab2eea1f610", "type": "electric_scooter", "is_reserved": 0, "lon": -77.0277445}, {"fusion_lat": 0.0, "name": "60a095dbad3a5e0f230b2f5e0b62db2a", "is_disabled": 0, "rental_uris": {"android": "https://dc.lft.to/lastmile_qr_scan", "ios": "https://dc.lft.to/lastmile_qr_scan"}, "fusion_lon": 0.0, "lat": 38.915529166666666, "bike_id": "60a095dbad3a5e0f230b2f5e0b62db2a", "type": "electric_scooter", "is_reserved": 0, "lon": -77.02090966666667}, {"fusion_lat": 0.0, "name": "052c3d3b598627c4ee337feb62b171e0", "is_disabled": 0, "rental_uris": {"android": "https://dc.lft.to/lastmile_qr_scan", "ios": "https://dc.lft.to/lastmile_qr_scan"}, "fusion_lon": 0.0, "lat": 38.93423216666667, "bike_id": "052c3d3b598627c4ee337feb62b171e0", "type": "electric_scooter", "is_reserved": 0, "lon": -77.04286733333333}, {"fusion_lat": 0.0, "name": "3f57dc72702e4381affb36421d62dd0a", "is_disabled": 0, "rental_uris": {"android": "https://dc.lft.to/lastmile_qr_scan", "ios": "https://dc.lft.to/lastmile_qr_scan"}, "fusion_lon": 0.0, "lat": 38.9093595, "bike_id": "3f57dc72702e4381affb36421d62dd0a", "type": "electric_scooter", "is_reserved": 0, "lon": -77.02807383333334}, {"fusion_lat": 0.0, "name": "21f66246d905b2e50fadb2b58cef1256", "is_disabled": 0, "rental_uris": {"android": "https://dc.lft.to/lastmile_qr_scan", "ios": "https://dc.lft.to/lastmile_qr_scan"}, "fusion_lon": 0.0, "lat": 38.897276166666664, "bike_id": "21f66246d905b2e50fadb2b58cef1256", "type": "electric_scooter", "is_reserved": 0, "lon": -77.01921633333333}, {"fusion_lat": 0.0, "name": "dd55b34f4334fbee1922a42a6b9cb689", "is_disabled": 0, "rental_uris": {"android": "https://dc.lft.to/lastmile_qr_scan", "ios": "https://dc.lft.to/lastmile_qr_scan"}, "fusion_lon": 0.0, "lat": 38.877506833333335, "bike_id": "dd55b34f4334fbee1922a42a6b9cb689", "type": "electric_scooter", "is_reserved": 0, "lon": -77.00342916666666}, {"fusion_lat": 0.0, "name": "7efeb48be0fe4e843fd68ac10a4be646", "is_disabled": 0, "rental_uris": {"android": "https://dc.lft.to/lastmile_qr_scan", "ios": "https://dc.lft.to/lastmile_qr_scan"}, "fusion_lon": 0.0, "lat": 38.90536266666667, "bike_id": "7efeb48be0fe4e843fd68ac10a4be646", "type": "electric_bike", "is_reserved": 0, "lon": -76.99803066666666}, {"fusion_lat": 0.0, "name": "c145dff5ba6782bbb9e3c42bde1ebcd1", "is_disabled": 0, "rental_uris": {"android": "https://dc.lft.to/lastmile_qr_scan", "ios": "https://dc.lft.to/lastmile_qr_scan"}, "fusion_lon": 0.0, "lat": 38.90796733333333, "bike_id": "c145dff5ba6782bbb9e3c42bde1ebcd1", "type": "electric_scooter", "is_reserved": 0, "lon": -77.029398}, {"fusion_lat": 0.0, "name": "0d04160fb607723dfa009cd11c81c17c", "is_disabled": 0, "rental_uris": {"android": "https://dc.lft.to/lastmile_qr_scan", "ios": "https://dc.lft.to/lastmile_qr_scan"}, "fusion_lon": 0.0, "lat": 38.897314, "bike_id": "0d04160fb607723dfa009cd11c81c17c", "type": "electric_scooter", "is_reserved": 0, "lon": -77.023819}, {"fusion_lat": 0.0, "name": "0611ab06b740563acd5a43c91ff122fd", "is_disabled": 0, "rental_uris": {"android": "https://dc.lft.to/lastmile_qr_scan", "ios": "https://dc.lft.to/lastmile_qr_scan"}, "fusion_lon": 0.0, "lat": 38.903554, "bike_id": "0611ab06b740563acd5a43c91ff122fd", "type": "electric_scooter", "is_reserved": 0, "lon": -77.04502866666667}, {"fusion_lat": 0.0, "name": "c2962edc3368a702209f6599cf105fdd", "is_disabled": 0, "rental_uris": {"android": "https://dc.lft.to/lastmile_qr_scan", "ios": "https://dc.lft.to/lastmile_qr_scan"}, "fusion_lon": 0.0, "lat": 38.895554, "bike_id": "c2962edc3368a702209f6599cf105fdd", "type": "electric_scooter", "is_reserved": 0, "lon": -76.9487375}, {"fusion_lat": 0.0, "name": "2da553fecdd0db4284f7cc380d96fab1", "is_disabled": 0, "rental_uris": {"android": "https://dc.lft.to/lastmile_qr_scan", "ios": "https://dc.lft.to/lastmile_qr_scan"}, "fusion_lon": 0.0, "lat": 38.9056265, "bike_id": "2da553fecdd0db4284f7cc380d96fab1", "type": "electric_scooter", "is_reserved": 0, "lon": -77.04168666666666}, {"fusion_lat": 0.0, "name": "5e0ea04015239005a0fee09e4f33f740", "is_disabled": 0, "rental_uris": {"android": "https://dc.lft.to/lastmile_qr_scan", "ios": "https://dc.lft.to/lastmile_qr_scan"}, "fusion_lon": 0.0, "lat": 38.9232285, "bike_id": "5e0ea04015239005a0fee09e4f33f740", "type": "electric_scooter", "is_reserved": 0, "lon": -77.04021616666667}, {"fusion_lat": 0.0, "name": "b05bac2be645c196a8bde8246c0e9161", "is_disabled": 0, "rental_uris": {"android": "https://dc.lft.to/lastmile_qr_scan", "ios": "https://dc.lft.to/lastmile_qr_scan"}, "fusion_lon": 0.0, "lat": 38.90507616666667, "bike_id": "b05bac2be645c196a8bde8246c0e9161", "type": "electric_bike", "is_reserved": 0, "lon": -77.0297205}, {"fusion_lat": 0.0, "name": "ad8137212ed2bcf959b7c683f8e30e29", "is_disabled": 0, "rental_uris": {"android": "https://dc.lft.to/lastmile_qr_scan", "ios": "https://dc.lft.to/lastmile_qr_scan"}, "fusion_lon": 0.0, "lat": 38.906346666666664, "bike_id": "ad8137212ed2bcf959b7c683f8e30e29", "type": "electric_scooter", "is_reserved": 0, "lon": -77.05012783333333}, {"fusion_lat": 0.0, "name": "c828d0203dfc102d1309c1d7bbafc696", "is_disabled": 0, "rental_uris": {"android": "https://dc.lft.to/lastmile_qr_scan", "ios": "https://dc.lft.to/lastmile_qr_scan"}, "fusion_lon": 0.0, "lat": 38.8773785, "bike_id": "c828d0203dfc102d1309c1d7bbafc696", "type": "electric_scooter", "is_reserved": 0, "lon": -77.00260716666666}, {"fusion_lat": 0.0, "name": "971ba9aae457fa06f10a1f1fb2c601e2", "is_disabled": 0, "rental_uris": {"android": "https://dc.lft.to/lastmile_qr_scan", "ios": "https://dc.lft.to/lastmile_qr_scan"}, "fusion_lon": 0.0, "lat": 38.897375, "bike_id": "971ba9aae457fa06f10a1f1fb2c601e2", "type": "electric_scooter", "is_reserved": 0, "lon": -76.94715266666667}, {"fusion_lat": 0.0, "name": "8a76d7261f95aeea5552d870f05f6cb7", "is_disabled": 0, "rental_uris": {"android": "https://dc.lft.to/lastmile_qr_scan", "ios": "https://dc.lft.to/lastmile_qr_scan"}, "fusion_lon": 0.0, "lat": 38.92475783333333, "bike_id": "8a76d7261f95aeea5552d870f05f6cb7", "type": "electric_scooter", "is_reserved": 0, "lon": -77.03561433333333}, {"fusion_lat": 0.0, "name": "a016b902c0084eb18d212b1e251041bc", "is_disabled": 0, "rental_uris": {"android": "https://dc.lft.to/lastmile_qr_scan", "ios": "https://dc.lft.to/lastmile_qr_scan"}, "fusion_lon": 0.0, "lat": 38.874716166666666, "bike_id": "a016b902c0084eb18d212b1e251041bc", "type": "electric_scooter", "is_reserved": 0, "lon": -77.00477683333334}, {"fusion_lat": 0.0, "name": "08a5cd0a23b3be7fab75bb93e35131f4", "is_disabled": 0, "rental_uris": {"android": "https://dc.lft.to/lastmile_qr_scan", "ios": "https://dc.lft.to/lastmile_qr_scan"}, "fusion_lon": 0.0, "lat": 38.891957166666664, "bike_id": "08a5cd0a23b3be7fab75bb93e35131f4", "type": "electric_scooter", "is_reserved": 0, "lon": -77.02655116666666}, {"fusion_lat": 0.0, "name": "df236681d66eccbd3d141ec6bbb31a24", "is_disabled": 0, "rental_uris": {"android": "https://dc.lft.to/lastmile_qr_scan", "ios": "https://dc.lft.to/lastmile_qr_scan"}, "fusion_lon": 0.0, "lat": 38.90071533333333, "bike_id": "df236681d66eccbd3d141ec6bbb31a24", "type": "electric_scooter", "is_reserved": 0, "lon": -77.02211133333333}, {"fusion_lat": 0.0, "name": "7a837c72129f3f4acd217b44c4f19c06", "is_disabled": 0, "rental_uris": {"android": "https://dc.lft.to/lastmile_qr_scan", "ios": "https://dc.lft.to/lastmile_qr_scan"}, "fusion_lon": 0.0, "lat": 38.8872805, "bike_id": "7a837c72129f3f4acd217b44c4f19c06", "type": "electric_scooter", "is_reserved": 0, "lon": -77.01344866666666}, {"fusion_lat": 0.0, "name": "f87de02de7d6c3d8aa05148af627626c", "is_disabled": 0, "rental_uris": {"android": "https://dc.lft.to/lastmile_qr_scan", "ios": "https://dc.lft.to/lastmile_qr_scan"}, "fusion_lon": 0.0, "lat": 38.907250166666664, "bike_id": "f87de02de7d6c3d8aa05148af627626c", "type": "electric_scooter", "is_reserved": 0, "lon": -77.025072}, {"fusion_lat": 0.0, "name": "39fd58a292e7f8ca3eb09577f4f93cf6", "is_disabled": 0, "rental_uris": {"android": "https://dc.lft.to/lastmile_qr_scan", "ios": "https://dc.lft.to/lastmile_qr_scan"}, "fusion_lon": 0.0, "lat": 38.92473533333333, "bike_id": "39fd58a292e7f8ca3eb09577f4f93cf6", "type": "electric_scooter", "is_reserved": 0, "lon": -77.03044083333333}, {"fusion_lat": 0.0, "name": "398b41246d15ab495cd336b96101504b", "is_disabled": 0, "rental_uris": {"android": "https://dc.lft.to/lastmile_qr_scan", "ios": "https://dc.lft.to/lastmile_qr_scan"}, "fusion_lon": 0.0, "lat": 38.91786966666667, "bike_id": "398b41246d15ab495cd336b96101504b", "type": "electric_scooter", "is_reserved": 0, "lon": -77.03205566666666}, {"fusion_lat": 0.0, "name": "233013be8a6a2096b2c32715a8552f47", "is_disabled": 0, "rental_uris": {"android": "https://dc.lft.to/lastmile_qr_scan", "ios": "https://dc.lft.to/lastmile_qr_scan"}, "fusion_lon": 0.0, "lat": 38.914772, "bike_id": "233013be8a6a2096b2c32715a8552f47", "type": "electric_scooter", "is_reserved": 0, "lon": -76.981103}, {"fusion_lat": 0.0, "name": "11e8b5bdccf05ff05a36f8d6bf77267d", "is_disabled": 0, "rental_uris": {"android": "https://dc.lft.to/lastmile_qr_scan", "ios": "https://dc.lft.to/lastmile_qr_scan"}, "fusion_lon": 0.0, "lat": 38.91484716666667, "bike_id": "11e8b5bdccf05ff05a36f8d6bf77267d", "type": "electric_scooter", "is_reserved": 0, "lon": -77.04615266666667}, {"fusion_lat": 0.0, "name": "5f8a53429b8811442019a33a6b80f808", "is_disabled": 0, "rental_uris": {"android": "https://dc.lft.to/lastmile_qr_scan", "ios": "https://dc.lft.to/lastmile_qr_scan"}, "fusion_lon": 0.0, "lat": 38.933482, "bike_id": "5f8a53429b8811442019a33a6b80f808", "type": "electric_scooter", "is_reserved": 0, "lon": -77.06192866666666}, {"fusion_lat": 0.0, "name": "564705729edd9cfbaaf4ddec1c69da17", "is_disabled": 0, "rental_uris": {"android": "https://dc.lft.to/lastmile_qr_scan", "ios": "https://dc.lft.to/lastmile_qr_scan"}, "fusion_lon": 0.0, "lat": 38.896837833333336, "bike_id": "564705729edd9cfbaaf4ddec1c69da17", "type": "electric_scooter", "is_reserved": 0, "lon": -77.05059683333333}, {"fusion_lat": 0.0, "name": "b3fee09be4bed143b9b22010101c484b", "is_disabled": 0, "rental_uris": {"android": "https://dc.lft.to/lastmile_qr_scan", "ios": "https://dc.lft.to/lastmile_qr_scan"}, "fusion_lon": 0.0, "lat": 38.969857166666664, "bike_id": "b3fee09be4bed143b9b22010101c484b", "type": "electric_scooter", "is_reserved": 0, "lon": -77.01161366666666}, {"fusion_lat": 0.0, "name": "b8ffff2de0392c7e7ebade7d36f689e9", "is_disabled": 0, "rental_uris": {"android": "https://dc.lft.to/lastmile_qr_scan", "ios": "https://dc.lft.to/lastmile_qr_scan"}, "fusion_lon": 0.0, "lat": 38.87311183333333, "bike_id": "b8ffff2de0392c7e7ebade7d36f689e9", "type": "electric_scooter", "is_reserved": 0, "lon": -77.0013895}, {"fusion_lat": 0.0, "name": "d3c35bde72b5768a47f1e50ad867b747", "is_disabled": 0, "rental_uris": {"android": "https://dc.lft.to/lastmile_qr_scan", "ios": "https://dc.lft.to/lastmile_qr_scan"}, "fusion_lon": 0.0, "lat": 38.9205875, "bike_id": "d3c35bde72b5768a47f1e50ad867b747", "type": "electric_scooter", "is_reserved": 0, "lon": -77.0434195}, {"fusion_lat": 0.0, "name": "413a2804137af9c0fcac15e12ed3f076", "is_disabled": 0, "rental_uris": {"android": "https://dc.lft.to/lastmile_qr_scan", "ios": "https://dc.lft.to/lastmile_qr_scan"}, "fusion_lon": 0.0, "lat": 38.924691333333335, "bike_id": "413a2804137af9c0fcac15e12ed3f076", "type": "electric_scooter", "is_reserved": 0, "lon": -77.03093166666666}, {"fusion_lat": 0.0, "name": "95ef286022dc84652a26026731cbcd11", "is_disabled": 0, "rental_uris": {"android": "https://dc.lft.to/lastmile_qr_scan", "ios": "https://dc.lft.to/lastmile_qr_scan"}, "fusion_lon": 0.0, "lat": 38.90728266666667, "bike_id": "95ef286022dc84652a26026731cbcd11", "type": "electric_scooter", "is_reserved": 0, "lon": -77.01095033333333}, {"fusion_lat": 0.0, "name": "52c1f97b4aae65a01ccff0efca352f18", "is_disabled": 0, "rental_uris": {"android": "https://dc.lft.to/lastmile_qr_scan", "ios": "https://dc.lft.to/lastmile_qr_scan"}, "fusion_lon": 0.0, "lat": 38.9212765, "bike_id": "52c1f97b4aae65a01ccff0efca352f18", "type": "electric_scooter", "is_reserved": 0, "lon": -77.017972}, {"fusion_lat": 0.0, "name": "b74e85a348a8e12f695aa38e09f6f072", "is_disabled": 0, "rental_uris": {"android": "https://dc.lft.to/lastmile_qr_scan", "ios": "https://dc.lft.to/lastmile_qr_scan"}, "fusion_lon": 0.0, "lat": 38.96119183333333, "bike_id": "b74e85a348a8e12f695aa38e09f6f072", "type": "electric_scooter", "is_reserved": 0, "lon": -77.02794016666667}, {"fusion_lat": 0.0, "name": "1d19a783841128fef3374d1e55af023a", "is_disabled": 0, "rental_uris": {"android": "https://dc.lft.to/lastmile_qr_scan", "ios": "https://dc.lft.to/lastmile_qr_scan"}, "fusion_lon": 0.0, "lat": 38.916832, "bike_id": "1d19a783841128fef3374d1e55af023a", "type": "electric_scooter", "is_reserved": 0, "lon": -77.03671383333334}, {"fusion_lat": 0.0, "name": "f11ea03fcace34de11cdaa8a1eb73ffc", "is_disabled": 0, "rental_uris": {"android": "https://dc.lft.to/lastmile_qr_scan", "ios": "https://dc.lft.to/lastmile_qr_scan"}, "fusion_lon": 0.0, "lat": 38.93445216666667, "bike_id": "f11ea03fcace34de11cdaa8a1eb73ffc", "type": "electric_scooter", "is_reserved": 0, "lon": -77.05774166666667}, {"fusion_lat": 0.0, "name": "533bd96536046c269da77353e277dc08", "is_disabled": 0, "rental_uris": {"android": "https://dc.lft.to/lastmile_qr_scan", "ios": "https://dc.lft.to/lastmile_qr_scan"}, "fusion_lon": 0.0, "lat": 38.92457683333333, "bike_id": "533bd96536046c269da77353e277dc08", "type": "electric_scooter", "is_reserved": 0, "lon": -76.9710515}, {"fusion_lat": 0.0, "name": "e83eb1e629b9ffcace556721b6743031", "is_disabled": 0, "rental_uris": {"android": "https://dc.lft.to/lastmile_qr_scan", "ios": "https://dc.lft.to/lastmile_qr_scan"}, "fusion_lon": 0.0, "lat": 38.9069685, "bike_id": "e83eb1e629b9ffcace556721b6743031", "type": "electric_scooter", "is_reserved": 0, "lon": -76.98854916666667}, {"fusion_lat": 0.0, "name": "0ea9a0642de5ef72661663df39907a52", "is_disabled": 0, "rental_uris": {"android": "https://dc.lft.to/lastmile_qr_scan", "ios": "https://dc.lft.to/lastmile_qr_scan"}, "fusion_lon": 0.0, "lat": 38.932234, "bike_id": "0ea9a0642de5ef72661663df39907a52", "type": "electric_scooter", "is_reserved": 0, "lon": -76.99490416666667}, {"fusion_lat": 0.0, "name": "0649459c32db8facad54cb31e6a450bd", "is_disabled": 0, "rental_uris": {"android": "https://dc.lft.to/lastmile_qr_scan", "ios": "https://dc.lft.to/lastmile_qr_scan"}, "fusion_lon": 0.0, "lat": 38.89090083333333, "bike_id": "0649459c32db8facad54cb31e6a450bd", "type": "electric_scooter", "is_reserved": 0, "lon": -76.91924566666667}, {"fusion_lat": 0.0, "name": "b68e012dc538201995a04c85a7eafa75", "is_disabled": 0, "rental_uris": {"android": "https://dc.lft.to/lastmile_qr_scan", "ios": "https://dc.lft.to/lastmile_qr_scan"}, "fusion_lon": 0.0, "lat": 38.9002465, "bike_id": "b68e012dc538201995a04c85a7eafa75", "type": "electric_scooter", "is_reserved": 0, "lon": -77.0121255}, {"fusion_lat": 0.0, "name": "270acef97bc6157fd56fa8380e78c351", "is_disabled": 0, "rental_uris": {"android": "https://dc.lft.to/lastmile_qr_scan", "ios": "https://dc.lft.to/lastmile_qr_scan"}, "fusion_lon": 0.0, "lat": 38.895087, "bike_id": "270acef97bc6157fd56fa8380e78c351", "type": "electric_scooter", "is_reserved": 0, "lon": -77.03961933333333}, {"fusion_lat": 0.0, "name": "5e9087d5905038d5801a4136a2bf5959", "is_disabled": 0, "rental_uris": {"android": "https://dc.lft.to/lastmile_qr_scan", "ios": "https://dc.lft.to/lastmile_qr_scan"}, "fusion_lon": 0.0, "lat": 38.93943266666667, "bike_id": "5e9087d5905038d5801a4136a2bf5959", "type": "electric_scooter", "is_reserved": 0, "lon": -77.021847}, {"fusion_lat": 0.0, "name": "c0c57d8367af425832f88726c8eb1bd2", "is_disabled": 0, "rental_uris": {"android": "https://dc.lft.to/lastmile_qr_scan", "ios": "https://dc.lft.to/lastmile_qr_scan"}, "fusion_lon": 0.0, "lat": 38.8990255, "bike_id": "c0c57d8367af425832f88726c8eb1bd2", "type": "electric_scooter", "is_reserved": 0, "lon": -76.99390383333333}, {"fusion_lat": 0.0, "name": "7e7bdc5503a0bbd0408f3dec41183241", "is_disabled": 0, "rental_uris": {"android": "https://dc.lft.to/lastmile_qr_scan", "ios": "https://dc.lft.to/lastmile_qr_scan"}, "fusion_lon": 0.0, "lat": 38.956245, "bike_id": "7e7bdc5503a0bbd0408f3dec41183241", "type": "electric_bike", "is_reserved": 0, "lon": -76.939018}, {"fusion_lat": 0.0, "name": "2c9d9a81f2ed6d73a7e61774847f1eaa", "is_disabled": 0, "rental_uris": {"android": "https://dc.lft.to/lastmile_qr_scan", "ios": "https://dc.lft.to/lastmile_qr_scan"}, "fusion_lon": 0.0, "lat": 38.905164166666665, "bike_id": "2c9d9a81f2ed6d73a7e61774847f1eaa", "type": "electric_scooter", "is_reserved": 0, "lon": -77.06468233333334}, {"fusion_lat": 0.0, "name": "1371ddbe57f1c5780f53d5c8bd8e23ac", "is_disabled": 0, "rental_uris": {"android": "https://dc.lft.to/lastmile_qr_scan", "ios": "https://dc.lft.to/lastmile_qr_scan"}, "fusion_lon": 0.0, "lat": 38.895305, "bike_id": "1371ddbe57f1c5780f53d5c8bd8e23ac", "type": "electric_scooter", "is_reserved": 0, "lon": -76.9340835}, {"fusion_lat": 0.0, "name": "e22ece537e0b165388570b01fa52d022", "is_disabled": 0, "rental_uris": {"android": "https://dc.lft.to/lastmile_qr_scan", "ios": "https://dc.lft.to/lastmile_qr_scan"}, "fusion_lon": 0.0, "lat": 38.90093983333333, "bike_id": "e22ece537e0b165388570b01fa52d022", "type": "electric_scooter", "is_reserved": 0, "lon": -76.98341183333334}, {"fusion_lat": 0.0, "name": "b3d470f88ab33e58471a09b2b204368e", "is_disabled": 0, "rental_uris": {"android": "https://dc.lft.to/lastmile_qr_scan", "ios": "https://dc.lft.to/lastmile_qr_scan"}, "fusion_lon": 0.0, "lat": 38.9105125, "bike_id": "b3d470f88ab33e58471a09b2b204368e", "type": "electric_scooter", "is_reserved": 0, "lon": -77.03842566666667}, {"fusion_lat": 0.0, "name": "eab9b261ba94706572ccccaa59560c68", "is_disabled": 0, "rental_uris": {"android": "https://dc.lft.to/lastmile_qr_scan", "ios": "https://dc.lft.to/lastmile_qr_scan"}, "fusion_lon": 0.0, "lat": 38.93129966666667, "bike_id": "eab9b261ba94706572ccccaa59560c68", "type": "electric_scooter", "is_reserved": 0, "lon": -77.03858166666667}, {"fusion_lat": 0.0, "name": "0a1607cbe4d677caa720f18ef238e337", "is_disabled": 0, "rental_uris": {"android": "https://dc.lft.to/lastmile_qr_scan", "ios": "https://dc.lft.to/lastmile_qr_scan"}, "fusion_lon": 0.0, "lat": 38.89730933333333, "bike_id": "0a1607cbe4d677caa720f18ef238e337", "type": "electric_scooter", "is_reserved": 0, "lon": -77.02382916666667}, {"fusion_lat": 0.0, "name": "598dd8481ef5eee8e8177c172aaa2b6d", "is_disabled": 0, "rental_uris": {"android": "https://dc.lft.to/lastmile_qr_scan", "ios": "https://dc.lft.to/lastmile_qr_scan"}, "fusion_lon": 0.0, "lat": 38.914788, "bike_id": "598dd8481ef5eee8e8177c172aaa2b6d", "type": "electric_scooter", "is_reserved": 0, "lon": -77.04620066666666}, {"fusion_lat": 0.0, "name": "5078cf9c731dc82d847d1b5affe33740", "is_disabled": 0, "rental_uris": {"android": "https://dc.lft.to/lastmile_qr_scan", "ios": "https://dc.lft.to/lastmile_qr_scan"}, "fusion_lon": 0.0, "lat": 38.89607916666667, "bike_id": "5078cf9c731dc82d847d1b5affe33740", "type": "electric_scooter", "is_reserved": 0, "lon": -77.02711466666666}, {"fusion_lat": 0.0, "name": "ccd090fa70a3a0b6273cf079a27d2673", "is_disabled": 0, "rental_uris": {"android": "https://dc.lft.to/lastmile_qr_scan", "ios": "https://dc.lft.to/lastmile_qr_scan"}, "fusion_lon": 0.0, "lat": 38.9419295, "bike_id": "ccd090fa70a3a0b6273cf079a27d2673", "type": "electric_scooter", "is_reserved": 0, "lon": -77.041094}, {"fusion_lat": 0.0, "name": "7e232ae1b0b36ad2c4a20229c8c98b3b", "is_disabled": 0, "rental_uris": {"android": "https://dc.lft.to/lastmile_qr_scan", "ios": "https://dc.lft.to/lastmile_qr_scan"}, "fusion_lon": 0.0, "lat": 38.90875616666667, "bike_id": "7e232ae1b0b36ad2c4a20229c8c98b3b", "type": "electric_scooter", "is_reserved": 0, "lon": -77.02333083333333}, {"fusion_lat": 0.0, "name": "b44074e9747af8c2853bb557681aa0c1", "is_disabled": 0, "rental_uris": {"android": "https://dc.lft.to/lastmile_qr_scan", "ios": "https://dc.lft.to/lastmile_qr_scan"}, "fusion_lon": 0.0, "lat": 38.910991833333334, "bike_id": "b44074e9747af8c2853bb557681aa0c1", "type": "electric_bike", "is_reserved": 0, "lon": -77.023907}, {"fusion_lat": 0.0, "name": "8bfa57d80288b2ddc2d5f49c52bdc964", "is_disabled": 0, "rental_uris": {"android": "https://dc.lft.to/lastmile_qr_scan", "ios": "https://dc.lft.to/lastmile_qr_scan"}, "fusion_lon": 0.0, "lat": 38.90990216666667, "bike_id": "8bfa57d80288b2ddc2d5f49c52bdc964", "type": "electric_scooter", "is_reserved": 0, "lon": -77.03849866666667}, {"fusion_lat": 0.0, "name": "e6c2fec1901e454bcb18b551029a1ab1", "is_disabled": 0, "rental_uris": {"android": "https://dc.lft.to/lastmile_qr_scan", "ios": "https://dc.lft.to/lastmile_qr_scan"}, "fusion_lon": 0.0, "lat": 38.98053916666667, "bike_id": "e6c2fec1901e454bcb18b551029a1ab1", "type": "electric_bike", "is_reserved": 0, "lon": -76.957948}, {"fusion_lat": 0.0, "name": "6359deed478fe2d4cd7f81de2c1eb6d2", "is_disabled": 0, "rental_uris": {"android": "https://dc.lft.to/lastmile_qr_scan", "ios": "https://dc.lft.to/lastmile_qr_scan"}, "fusion_lon": 0.0, "lat": 38.931885, "bike_id": "6359deed478fe2d4cd7f81de2c1eb6d2", "type": "electric_scooter", "is_reserved": 0, "lon": -77.03840583333333}, {"fusion_lat": 0.0, "name": "287be36a5a06d2775dbf2e6b44be6bec", "is_disabled": 0, "rental_uris": {"android": "https://dc.lft.to/lastmile_qr_scan", "ios": "https://dc.lft.to/lastmile_qr_scan"}, "fusion_lon": 0.0, "lat": 38.92065, "bike_id": "287be36a5a06d2775dbf2e6b44be6bec", "type": "electric_scooter", "is_reserved": 0, "lon": -77.02303066666667}, {"fusion_lat": 0.0, "name": "71f3a407100f12034b66e6de3d2fa09e", "is_disabled": 0, "rental_uris": {"android": "https://dc.lft.to/lastmile_qr_scan", "ios": "https://dc.lft.to/lastmile_qr_scan"}, "fusion_lon": 0.0, "lat": 38.917393, "bike_id": "71f3a407100f12034b66e6de3d2fa09e", "type": "electric_scooter", "is_reserved": 0, "lon": -77.03450616666667}, {"fusion_lat": 0.0, "name": "6729bb26182f97fa620249fcf302271a", "is_disabled": 0, "rental_uris": {"android": "https://dc.lft.to/lastmile_qr_scan", "ios": "https://dc.lft.to/lastmile_qr_scan"}, "fusion_lon": 0.0, "lat": 38.923516, "bike_id": "6729bb26182f97fa620249fcf302271a", "type": "electric_scooter", "is_reserved": 0, "lon": -77.07308083333334}, {"fusion_lat": 0.0, "name": "5af1dc3938cdfb15219ca8359bc9d4e6", "is_disabled": 0, "rental_uris": {"android": "https://dc.lft.to/lastmile_qr_scan", "ios": "https://dc.lft.to/lastmile_qr_scan"}, "fusion_lon": 0.0, "lat": 38.907473333333336, "bike_id": "5af1dc3938cdfb15219ca8359bc9d4e6", "type": "electric_scooter", "is_reserved": 0, "lon": -77.03472033333334}, {"fusion_lat": 0.0, "name": "1d271592ef20c73074e69be440e432ae", "is_disabled": 0, "rental_uris": {"android": "https://dc.lft.to/lastmile_qr_scan", "ios": "https://dc.lft.to/lastmile_qr_scan"}, "fusion_lon": 0.0, "lat": 38.92349383333333, "bike_id": "1d271592ef20c73074e69be440e432ae", "type": "electric_scooter", "is_reserved": 0, "lon": -77.05624816666666}, {"fusion_lat": 0.0, "name": "50d6f09405f7d3ad1eb01a4e8bfadd83", "is_disabled": 0, "rental_uris": {"android": "https://dc.lft.to/lastmile_qr_scan", "ios": "https://dc.lft.to/lastmile_qr_scan"}, "fusion_lon": 0.0, "lat": 38.90024233333333, "bike_id": "50d6f09405f7d3ad1eb01a4e8bfadd83", "type": "electric_scooter", "is_reserved": 0, "lon": -76.9986425}, {"fusion_lat": 0.0, "name": "8715c93fe2dea52e0d317d3def70f3d6", "is_disabled": 0, "rental_uris": {"android": "https://dc.lft.to/lastmile_qr_scan", "ios": "https://dc.lft.to/lastmile_qr_scan"}, "fusion_lon": 0.0, "lat": 38.96444116666667, "bike_id": "8715c93fe2dea52e0d317d3def70f3d6", "type": "electric_bike", "is_reserved": 0, "lon": -77.02243033333333}, {"fusion_lat": 0.0, "name": "cf6e591c1f6fe7dbe83d46b0d76a9650", "is_disabled": 0, "rental_uris": {"android": "https://dc.lft.to/lastmile_qr_scan", "ios": "https://dc.lft.to/lastmile_qr_scan"}, "fusion_lon": 0.0, "lat": 38.8876325, "bike_id": "cf6e591c1f6fe7dbe83d46b0d76a9650", "type": "electric_scooter", "is_reserved": 0, "lon": -77.0336455}, {"fusion_lat": 0.0, "name": "c461c1bc8ead9f25ed11f1874c19ff66", "is_disabled": 0, "rental_uris": {"android": "https://dc.lft.to/lastmile_qr_scan", "ios": "https://dc.lft.to/lastmile_qr_scan"}, "fusion_lon": 0.0, "lat": 38.91413333333333, "bike_id": "c461c1bc8ead9f25ed11f1874c19ff66", "type": "electric_scooter", "is_reserved": 0, "lon": -77.02427983333334}, {"fusion_lat": 0.0, "name": "e0187faa573a92d55aa02d2555f41ccf", "is_disabled": 0, "rental_uris": {"android": "https://dc.lft.to/lastmile_qr_scan", "ios": "https://dc.lft.to/lastmile_qr_scan"}, "fusion_lon": 0.0, "lat": 38.909560166666665, "bike_id": "e0187faa573a92d55aa02d2555f41ccf", "type": "electric_scooter", "is_reserved": 0, "lon": -77.0337925}, {"fusion_lat": 0.0, "name": "097ea67b9b31490a73180a0eab262e46", "is_disabled": 0, "rental_uris": {"android": "https://dc.lft.to/lastmile_qr_scan", "ios": "https://dc.lft.to/lastmile_qr_scan"}, "fusion_lon": 0.0, "lat": 38.92229566666666, "bike_id": "097ea67b9b31490a73180a0eab262e46", "type": "electric_bike", "is_reserved": 0, "lon": -77.023404}, {"fusion_lat": 0.0, "name": "546a50deba0f6daa1a0d69964f397a69", "is_disabled": 0, "rental_uris": {"android": "https://dc.lft.to/lastmile_qr_scan", "ios": "https://dc.lft.to/lastmile_qr_scan"}, "fusion_lon": 0.0, "lat": 38.913502333333334, "bike_id": "546a50deba0f6daa1a0d69964f397a69", "type": "electric_scooter", "is_reserved": 0, "lon": -77.02057583333334}, {"fusion_lat": 0.0, "name": "05cb19bf757ab0ba3c545074256a8a46", "is_disabled": 0, "rental_uris": {"android": "https://dc.lft.to/lastmile_qr_scan", "ios": "https://dc.lft.to/lastmile_qr_scan"}, "fusion_lon": 0.0, "lat": 38.90942666666667, "bike_id": "05cb19bf757ab0ba3c545074256a8a46", "type": "electric_scooter", "is_reserved": 0, "lon": -76.98771316666667}, {"fusion_lat": 0.0, "name": "bcaa1f1c5e11adc371fcf833e4f3f2d0", "is_disabled": 0, "rental_uris": {"android": "https://dc.lft.to/lastmile_qr_scan", "ios": "https://dc.lft.to/lastmile_qr_scan"}, "fusion_lon": 0.0, "lat": 38.910454666666666, "bike_id": "bcaa1f1c5e11adc371fcf833e4f3f2d0", "type": "electric_scooter", "is_reserved": 0, "lon": -77.03843333333333}, {"fusion_lat": 0.0, "name": "886c0b647a10156e181b7d14d8fde787", "is_disabled": 0, "rental_uris": {"android": "https://dc.lft.to/lastmile_qr_scan", "ios": "https://dc.lft.to/lastmile_qr_scan"}, "fusion_lon": 0.0, "lat": 38.90692583333333, "bike_id": "886c0b647a10156e181b7d14d8fde787", "type": "electric_scooter", "is_reserved": 0, "lon": -76.99961983333333}, {"fusion_lat": 0.0, "name": "b4e805a16bd10a8fcec27280407a1393", "is_disabled": 0, "rental_uris": {"android": "https://dc.lft.to/lastmile_qr_scan", "ios": "https://dc.lft.to/lastmile_qr_scan"}, "fusion_lon": 0.0, "lat": 38.90940533333333, "bike_id": "b4e805a16bd10a8fcec27280407a1393", "type": "electric_scooter", "is_reserved": 0, "lon": -77.03209366666667}, {"fusion_lat": 0.0, "name": "4d93ff37cf15ccb0b0a16534230a6cee", "is_disabled": 0, "rental_uris": {"android": "https://dc.lft.to/lastmile_qr_scan", "ios": "https://dc.lft.to/lastmile_qr_scan"},