{"data": {"bikes": [{"rental_uris": {"ios": "https://dc.lft.to/lastmile_qr_scan", "android": "https://dc.lft.to/lastmile_qr_scan"}, "type": "electric_scooter", "name": "71c2c402bfc7585dca8624f6f9efbd88", "is_reserved": 0, "lon": -77.03805016666666, "is_disabled": 0, "fusion_lat": 0.0, "lat": 38.91189166666667, "bike_id": "71c2c402bfc7585dca8624f6f9efbd88", "fusion_lon": 0.0}, {"rental_uris": {"ios": "https://dc.lft.to/lastmile_qr_scan", "android": "https://dc.lft.to/lastmile_qr_scan"}, "type": "electric_scooter", "name": "e5f306df04e87079e92c49fbf8162be4", "is_reserved": 0, "lon": -77.020968, "is_disabled": 0, "fusion_lat": 0.0, "lat": 38.930177666666665, "bike_id": "e5f306df04e87079e92c49fbf8162be4", "fusion_lon": 0.0}, {"rental_uris": {"ios": "https://dc.lft.to/lastmile_qr_scan", "android": "https://dc.lft.to/lastmile_qr_scan"}, "type": "electric_scooter", "name": "a4d2815110e2c28755adbd9919a7f0d4", "is_reserved": 0, "lon": -77.02474883333333, "is_disabled": 0, "fusion_lat": 0.0, "lat": 38.91814, "bike_id": "a4d2815110e2c28755adbd9919a7f0d4", "fusion_lon": 0.0}, {"rental_uris": {"ios": "https://dc.lft.to/lastmile_qr_scan", "android": "https://dc.lft.to/lastmile_qr_scan"}, "type": "electric_scooter", "name": "2ef92f9e0e4af8f1f53475a1921a5c84", "is_reserved": 0, "lon": -77.04187316666666, "is_disabled": 0, "fusion_lat": 0.0, "lat": 38.92050316666667, "bike_id": "2ef92f9e0e4af8f1f53475a1921a5c84", "fusion_lon": 0.0}, {"rental_uris": {"ios": "https://dc.lft.to/lastmile_qr_scan", "android": "https://dc.lft.to/lastmile_qr_scan"}, "type": "electric_scooter", "name": "34bb9b2a1b366b7218ad9c95df973f8e", "is_reserved": 0, "lon": -77.02140216666666, "is_disabled": 0, "fusion_lat": 0.0, "lat": 38.90559583333334, "bike_id": "34bb9b2a1b366b7218ad9c95df973f8e", "fusion_lon": 0.0}, {"rental_uris": {"ios": "https://dc.lft.to/lastmile_qr_scan", "android": "https://dc.lft.to/lastmile_qr_scan"}, "type": "electric_scooter", "name": "70b75e8287da7531824cb1b56118a57f", "is_reserved": 0, "lon": -77.06125566666667, "is_disabled": 0, "fusion_lat": 0.0, "lat": 38.90507733333333, "bike_id": "70b75e8287da7531824cb1b56118a57f", "fusion_lon": 0.0}, {"rental_uris": {"ios": "https://dc.lft.to/lastmile_qr_scan", "android": "https://dc.lft.to/lastmile_qr_scan"}, "type": "electric_scooter", "name": "6af25642f5b054911e4a2ee98c551fdb", "is_reserved": 0, "lon": -77.0296, "is_disabled": 0, "fusion_lat": 0.0, "lat": 38.9049635, "bike_id": "6af25642f5b054911e4a2ee98c551fdb", "fusion_lon": 0.0}, {"rental_uris": {"ios": "https://dc.lft.to/lastmile_qr_scan", "android": "https://dc.lft.to/lastmile_qr_scan"}, "type": "electric_scooter", "name": "14dcfadb9e40da2fca20fe9fa1012024", "is_reserved": 0, "lon": -77.04801616666667, "is_disabled": 0, "fusion_lat": 0.0, "lat": 38.9110085, "bike_id": "14dcfadb9e40da2fca20fe9fa1012024", "fusion_lon": 0.0}, {"rental_uris": {"ios": "https://dc.lft.to/lastmile_qr_scan", "android": "https://dc.lft.to/lastmile_qr_scan"}, "type": "electric_scooter", "name": "e3f69eb430d01094fbe71ca48300d1b7", "is_reserved": 0, "lon": -77.007209, "is_disabled": 0, "fusion_lat": 0.0, "lat": 38.911031, "bike_id": "e3f69eb430d01094fbe71ca48300d1b7", "fusion_lon": 0.0}, {"rental_uris": {"ios": "https://dc.lft.to/lastmile_qr_scan", "android": "https://dc.lft.to/lastmile_qr_scan"}, "type": "electric_scooter", "name": "aa64bccb6c378ad36d2d781a50b893d1", "is_reserved": 0, "lon": -77.0257755, "is_disabled": 0, "fusion_lat": 0.0, "lat": 38.925264166666665, "bike_id": "aa64bccb6c378ad36d2d781a50b893d1", "fusion_lon": 0.0}, {"rental_uris": {"ios": "https://dc.lft.to/lastmile_qr_scan", "android": "https://dc.lft.to/lastmile_qr_scan"}, "type": "electric_scooter", "name": "5bb8d2d13768379eaeec715a5888a62f", "is_reserved": 0, "lon": -77.04104883333333, "is_disabled": 0, "fusion_lat": 0.0, "lat": 38.91783616666667, "bike_id": "5bb8d2d13768379eaeec715a5888a62f", "fusion_lon": 0.0}, {"rental_uris": {"ios": "https://dc.lft.to/lastmile_qr_scan", "android": "https://dc.lft.to/lastmile_qr_scan"}, "type": "electric_scooter", "name": "be402a8ed2846ed9ca3f89be7375937d", "is_reserved": 0, "lon": -77.03827, "is_disabled": 0, "fusion_lat": 0.0, "lat": 38.91255, "bike_id": "be402a8ed2846ed9ca3f89be7375937d", "fusion_lon": 0.0}, {"rental_uris": {"ios": "https://dc.lft.to/lastmile_qr_scan", "android": "https://dc.lft.to/lastmile_qr_scan"}, "type": "electric_scooter", "name": "e1ebdd174f279c7ba884f3fbc684556f", "is_reserved": 0, "lon": -77.01201333333333, "is_disabled": 0, "fusion_lat": 0.0, "lat": 38.91108883333333, "bike_id": "e1ebdd174f279c7ba884f3fbc684556f", "fusion_lon": 0.0}, {"rental_uris": {"ios": "https://dc.lft.to/lastmile_qr_scan", "android": "https://dc.lft.to/lastmile_qr_scan"}, "type": "electric_bike", "name": "6f891df05a6dd33ade1206da8d11941e", "is_reserved": 0, "lon": -76.977748, "is_disabled": 0, "fusion_lat": 0.0, "lat": 38.85725383333333, "bike_id": "6f891df05a6dd33ade1206da8d11941e", "fusion_lon": 0.0}, {"rental_uris": {"ios": "https://dc.lft.to/lastmile_qr_scan", "android": "https://dc.lft.to/lastmile_qr_scan"}, "type": "electric_scooter", "name": "afa7d429b591771daaf6a00565b27af4", "is_reserved": 0, "lon": -77.0436725, "is_disabled": 0, "fusion_lat": 0.0, "lat": 38.89222216666667, "bike_id": "afa7d429b591771daaf6a00565b27af4", "fusion_lon": 0.0}, {"rental_uris": {"ios": "https://dc.lft.to/lastmile_qr_scan", "android": "https://dc.lft.to/lastmile_qr_scan"}, "type": "electric_scooter", "name": "65b32382a41984da40e9a4f5ca7212b9", "is_reserved": 0, "lon": -77.04554366666666, "is_disabled": 0, "fusion_lat": 0.0, "lat": 38.91319933333333, "bike_id": "65b32382a41984da40e9a4f5ca7212b9", "fusion_lon": 0.0}, {"rental_uris": {"ios": "https://dc.lft.to/lastmile_qr_scan", "android": "https://dc.lft.to/lastmile_qr_scan"}, "type": "electric_scooter", "name": "454662614528a9aeb3fd503c14992fad", "is_reserved": 0, "lon": -77.0250095, "is_disabled": 0, "fusion_lat": 0.0, "lat": 38.9420985, "bike_id": "454662614528a9aeb3fd503c14992fad", "fusion_lon": 0.0}, {"rental_uris": {"ios": "https://dc.lft.to/lastmile_qr_scan", "android": "https://dc.lft.to/lastmile_qr_scan"}, "type": "electric_scooter", "name": "507e92658990e3dae54421e638d55b4e", "is_reserved": 0, "lon": -77.042392, "is_disabled": 0, "fusion_lat": 0.0, "lat": 38.921787333333334, "bike_id": "507e92658990e3dae54421e638d55b4e", "fusion_lon": 0.0}, {"rental_uris": {"ios": "https://dc.lft.to/lastmile_qr_scan", "android": "https://dc.lft.to/lastmile_qr_scan"}, "type": "electric_bike", "name": "61a6e18aadbbd6a03af8b5231dd215a1", "is_reserved": 0, "lon": -77.12840083333333, "is_disabled": 0, "fusion_lat": 0.0, "lat": 38.8005245, "bike_id": "61a6e18aadbbd6a03af8b5231dd215a1", "fusion_lon": 0.0}, {"rental_uris": {"ios": "https://dc.lft.to/lastmile_qr_scan", "android": "https://dc.lft.to/lastmile_qr_scan"}, "type": "electric_bike", "name": "a7c6cbbf69df2b8fc4074bec0ab25e42", "is_reserved": 0, "lon": -76.96263783333333, "is_disabled": 0, "fusion_lat": 0.0, "lat": 38.967825833333336, "bike_id": "a7c6cbbf69df2b8fc4074bec0ab25e42", "fusion_lon": 0.0}, {"rental_uris": {"ios": "https://dc.lft.to/lastmile_qr_scan", "android": "https://dc.lft.to/lastmile_qr_scan"}, "type": "electric_bike", "name": "79a2bd16902352c925524bee10c4ee7f", "is_reserved": 0, "lon": -77.02511733333333, "is_disabled": 0, "fusion_lat": 0.0, "lat": 38.94029533333333, "bike_id": "79a2bd16902352c925524bee10c4ee7f", "fusion_lon": 0.0}, {"rental_uris": {"ios": "https://dc.lft.to/lastmile_qr_scan", "android": "https://dc.lft.to/lastmile_qr_scan"}, "type": "electric_scooter", "name": "70a8d26fcd64428eae8ada8877d1ae42", "is_reserved": 0, "lon": -77.01576233333333, "is_disabled": 0, "fusion_lat": 0.0, "lat": 38.916826666666665, "bike_id": "70a8d26fcd64428eae8ada8877d1ae42", "fusion_lon": 0.0}, {"rental_uris": {"ios": "https://dc.lft.to/lastmile_qr_scan", "android": "https://dc.lft.to/lastmile_qr_scan"}, "type": "electric_scooter", "name": "1c89d1ac3b90b59c13efe39d0df2c7ca", "is_reserved": 0, "lon": -77.01206833333333, "is_disabled": 0, "fusion_lat": 0.0, "lat": 38.911997166666666, "bike_id": "1c89d1ac3b90b59c13efe39d0df2c7ca", "fusion_lon": 0.0}, {"rental_uris": {"ios": "https://dc.lft.to/lastmile_qr_scan", "android": "https://dc.lft.to/lastmile_qr_scan"}, "type": "electric_scooter", "name": "6e558a930c404a65b0197a73636d22f6", "is_reserved": 0, "lon": -76.98510433333334, "is_disabled": 0, "fusion_lat": 0.0, "lat": 38.879824, "bike_id": "6e558a930c404a65b0197a73636d22f6", "fusion_lon": 0.0}, {"rental_uris": {"ios": "https://dc.lft.to/lastmile_qr_scan", "android": "https://dc.lft.to/lastmile_qr_scan"}, "type": "electric_scooter", "name": "f9411c299d0c403abd0231a02bdb2896", "is_reserved": 0, "lon": -77.0402765, "is_disabled": 0, "fusion_lat": 0.0, "lat": 38.90377083333333, "bike_id": "f9411c299d0c403abd0231a02bdb2896", "fusion_lon": 0.0}, {"rental_uris": {"ios": "https://dc.lft.to/lastmile_qr_scan", "android": "https://dc.lft.to/lastmile_qr_scan"}, "type": "electric_scooter", "name": "99781ed470d8a4a392d4fbf4a89fffbc", "is_reserved": 0, "lon": -77.04617733333333, "is_disabled": 0, "fusion_lat": 0.0, "lat": 38.90225266666667, "bike_id": "99781ed470d8a4a392d4fbf4a89fffbc", "fusion_lon": 0.0}, {"rental_uris": {"ios": "https://dc.lft.to/lastmile_qr_scan", "android": "https://dc.lft.to/lastmile_qr_scan"}, "type": "electric_scooter", "name": "141f19ea3e94ca503e9a23d28344b6ff", "is_reserved": 0, "lon": -77.02760583333334, "is_disabled": 0, "fusion_lat": 0.0, "lat": 38.95607366666667, "bike_id": "141f19ea3e94ca503e9a23d28344b6ff", "fusion_lon": 0.0}, {"rental_uris": {"ios": "https://dc.lft.to/lastmile_qr_scan", "android": "https://dc.lft.to/lastmile_qr_scan"}, "type": "electric_bike", "name": "a08679c61ee00ca0cc8057f62eb69ddb", "is_reserved": 0, "lon": -76.93664666666666, "is_disabled": 0, "fusion_lat": 0.0, "lat": 38.894562, "bike_id": "a08679c61ee00ca0cc8057f62eb69ddb", "fusion_lon": 0.0}, {"rental_uris": {"ios": "https://dc.lft.to/lastmile_qr_scan", "android": "https://dc.lft.to/lastmile_qr_scan"}, "type": "electric_scooter", "name": "6a83f54ec9993306981870a5ce2ad6c0", "is_reserved": 0, "lon": -77.01207016666666, "is_disabled": 0, "fusion_lat": 0.0, "lat": 38.921172166666665, "bike_id": "6a83f54ec9993306981870a5ce2ad6c0", "fusion_lon": 0.0}, {"rental_uris": {"ios": "https://dc.lft.to/lastmile_qr_scan", "android": "https://dc.lft.to/lastmile_qr_scan"}, "type": "electric_scooter", "name": "b480eb8008d40ede9b31b87afd0ad424", "is_reserved": 0, "lon": -77.04143966666666, "is_disabled": 0, "fusion_lat": 0.0, "lat": 38.90726883333333, "bike_id": "b480eb8008d40ede9b31b87afd0ad424", "fusion_lon": 0.0}, {"rental_uris": {"ios": "https://dc.lft.to/lastmile_qr_scan", "android": "https://dc.lft.to/lastmile_qr_scan"}, "type": "electric_scooter", "name": "875ebd1b8e20aacb746f6d55a9b8384e", "is_reserved": 0, "lon": -76.97624283333333, "is_disabled": 0, "fusion_lat": 0.0, "lat": 38.90571966666667, "bike_id": "875ebd1b8e20aacb746f6d55a9b8384e", "fusion_lon": 0.0}, {"rental_uris": {"ios": "https://dc.lft.to/lastmile_qr_scan", "android": "https://dc.lft.to/lastmile_qr_scan"}, "type": "electric_scooter", "name": "b5d54eb9cd6d1b915e0fd32214a181a4", "is_reserved": 0, "lon": -77.052521, "is_disabled": 0, "fusion_lat": 0.0, "lat": 38.92369633333333, "bike_id": "b5d54eb9cd6d1b915e0fd32214a181a4", "fusion_lon": 0.0}, {"rental_uris": {"ios": "https://dc.lft.to/lastmile_qr_scan", "android": "https://dc.lft.to/lastmile_qr_scan"}, "type": "electric_scooter", "name": "2c2e3e0f12cf92e3e342b325d2faf134", "is_reserved": 0, "lon": -77.05524516666667, "is_disabled": 0, "fusion_lat": 0.0, "lat": 38.89729766666667, "bike_id": "2c2e3e0f12cf92e3e342b325d2faf134", "fusion_lon": 0.0}, {"rental_uris": {"ios": "https://dc.lft.to/lastmile_qr_scan", "android": "https://dc.lft.to/lastmile_qr_scan"}, "type": "electric_bike", "name": "dbb5432524b919b6a2b59a2f58e1d5bf", "is_reserved": 0, "lon": -77.2341155, "is_disabled": 0, "fusion_lat": 0.0, "lat": 38.87576833333333, "bike_id": "dbb5432524b919b6a2b59a2f58e1d5bf", "fusion_lon": 0.0}, {"rental_uris": {"ios": "https://dc.lft.to/lastmile_qr_scan", "android": "https://dc.lft.to/lastmile_qr_scan"}, "type": "electric_scooter", "name": "ad721bbc7c7553b68f2ffe3ade981316", "is_reserved": 0, "lon": -77.02103816666667, "is_disabled": 0, "fusion_lat": 0.0, "lat": 38.911984333333336, "bike_id": "ad721bbc7c7553b68f2ffe3ade981316", "fusion_lon": 0.0}, {"rental_uris": {"ios": "https://dc.lft.to/lastmile_qr_scan", "android": "https://dc.lft.to/lastmile_qr_scan"}, "type": "electric_scooter", "name": "f0ddf4471e69aa660268338eebe75626", "is_reserved": 0, "lon": -76.989421, "is_disabled": 0, "fusion_lat": 0.0, "lat": 38.90396833333333, "bike_id": "f0ddf4471e69aa660268338eebe75626", "fusion_lon": 0.0}, {"rental_uris": {"ios": "https://dc.lft.to/lastmile_qr_scan", "android": "https://dc.lft.to/lastmile_qr_scan"}, "type": "electric_scooter", "name": "49c1b58ec5a3e25d5c575bfa5a8bd83f", "is_reserved": 0, "lon": -77.03492016666667, "is_disabled": 0, "fusion_lat": 0.0, "lat": 38.9327315, "bike_id": "49c1b58ec5a3e25d5c575bfa5a8bd83f", "fusion_lon": 0.0}, {"rental_uris": {"ios": "https://dc.lft.to/lastmile_qr_scan", "android": "https://dc.lft.to/lastmile_qr_scan"}, "type": "electric_scooter", "name": "9e3b7b8ce0382c2f2430ff6ae41f8f2c", "is_reserved": 0, "lon": -77.04945916666667, "is_disabled": 0, "fusion_lat": 0.0, "lat": 38.9201915, "bike_id": "9e3b7b8ce0382c2f2430ff6ae41f8f2c", "fusion_lon": 0.0}, {"rental_uris": {"ios": "https://dc.lft.to/lastmile_qr_scan", "android": "https://dc.lft.to/lastmile_qr_scan"}, "type": "electric_scooter", "name": "91030c295439b5aafbae542b754917d6", "is_reserved": 0, "lon": -77.02958133333334, "is_disabled": 0, "fusion_lat": 0.0, "lat": 38.92260866666667, "bike_id": "91030c295439b5aafbae542b754917d6", "fusion_lon": 0.0}, {"rental_uris": {"ios": "https://dc.lft.to/lastmile_qr_scan", "android": "https://dc.lft.to/lastmile_qr_scan"}, "type": "electric_scooter", "name": "89d0a396b7d77b764d991e8b9c7c0502", "is_reserved": 0, "lon": -77.04138416666666, "is_disabled": 0, "fusion_lat": 0.0, "lat": 38.903999, "bike_id": "89d0a396b7d77b764d991e8b9c7c0502", "fusion_lon": 0.0}, {"rental_uris": {"ios": "https://dc.lft.to/lastmile_qr_scan", "android": "https://dc.lft.to/lastmile_qr_scan"}, "type": "electric_scooter", "name": "026de3897472524f86ae0827037ee374", "is_reserved": 0, "lon": -77.04863616666667, "is_disabled": 0, "fusion_lat": 0.0, "lat": 38.90476483333333, "bike_id": "026de3897472524f86ae0827037ee374", "fusion_lon": 0.0}, {"rental_uris": {"ios": "https://dc.lft.to/lastmile_qr_scan", "android": "https://dc.lft.to/lastmile_qr_scan"}, "type": "electric_scooter", "name": "8581f7c242eb0429c46d5b97151c1fa8", "is_reserved": 0, "lon": -77.04648833333333, "is_disabled": 0, "fusion_lat": 0.0, "lat": 38.89726, "bike_id": "8581f7c242eb0429c46d5b97151c1fa8", "fusion_lon": 0.0}, {"rental_uris": {"ios": "https://dc.lft.to/lastmile_qr_scan", "android": "https://dc.lft.to/lastmile_qr_scan"}, "type": "electric_scooter", "name": "f91e200969b173248493f1272f56cb24", "is_reserved": 0, "lon": -77.000602, "is_disabled": 0, "fusion_lat": 0.0, "lat": 38.96131916666667, "bike_id": "f91e200969b173248493f1272f56cb24", "fusion_lon": 0.0}, {"rental_uris": {"ios": "https://dc.lft.to/lastmile_qr_scan", "android": "https://dc.lft.to/lastmile_qr_scan"}, "type": "electric_scooter", "name": "00cb59c8e69e28c3bb888d20173ad804", "is_reserved": 0, "lon": -77.02801216666667, "is_disabled": 0, "fusion_lat": 0.0, "lat": 38.90732833333333, "bike_id": "00cb59c8e69e28c3bb888d20173ad804", "fusion_lon": 0.0}, {"rental_uris": {"ios": "https://dc.lft.to/lastmile_qr_scan", "android": "https://dc.lft.to/lastmile_qr_scan"}, "type": "electric_scooter", "name": "c8093e800e2d95904cf89324700cd267", "is_reserved": 0, "lon": -77.0279655, "is_disabled": 0, "fusion_lat": 0.0, "lat": 38.92316133333333, "bike_id": "c8093e800e2d95904cf89324700cd267", "fusion_lon": 0.0}, {"rental_uris": {"ios": "https://dc.lft.to/lastmile_qr_scan", "android": "https://dc.lft.to/lastmile_qr_scan"}, "type": "electric_scooter", "name": "7cccb35fc63915638d654c11f157ef7e", "is_reserved": 0, "lon": -77.045272, "is_disabled": 0, "fusion_lat": 0.0, "lat": 38.89950666666667, "bike_id": "7cccb35fc63915638d654c11f157ef7e", "fusion_lon": 0.0}, {"rental_uris": {"ios": "https://dc.lft.to/lastmile_qr_scan", "android": "https://dc.lft.to/lastmile_qr_scan"}, "type": "electric_scooter", "name": "ac8f5fd912421326db6b85f5b90017da", "is_reserved": 0, "lon": -77.00591333333334, "is_disabled": 0, "fusion_lat": 0.0, "lat": 38.8753115, "bike_id": "ac8f5fd912421326db6b85f5b90017da", "fusion_lon": 0.0}, {"rental_uris": {"ios": "https://dc.lft.to/lastmile_qr_scan", "android": "https://dc.lft.to/lastmile_qr_scan"}, "type": "electric_scooter", "name": "d336399e3aaaf96aa55c50c8f533e72e", "is_reserved": 0, "lon": -76.995301, "is_disabled": 0, "fusion_lat": 0.0, "lat": 38.8626795, "bike_id": "d336399e3aaaf96aa55c50c8f533e72e", "fusion_lon": 0.0}, {"rental_uris": {"ios": "https://dc.lft.to/lastmile_qr_scan", "android": "https://dc.lft.to/lastmile_qr_scan"}, "type": "electric_scooter", "name": "eee48a7bcbea0ab84b99c18d1dfa0e21", "is_reserved": 0, "lon": -77.04220316666667, "is_disabled": 0, "fusion_lat": 0.0, "lat": 38.911185833333334, "bike_id": "eee48a7bcbea0ab84b99c18d1dfa0e21", "fusion_lon": 0.0}, {"rental_uris": {"ios": "https://dc.lft.to/lastmile_qr_scan", "android": "https://dc.lft.to/lastmile_qr_scan"}, "type": "electric_scooter", "name": "bdd609005c7e1204cce9385e9ccfe4f5", "is_reserved": 0, "lon": -77.03476133333334, "is_disabled": 0, "fusion_lat": 0.0, "lat": 38.90727183333333, "bike_id": "bdd609005c7e1204cce9385e9ccfe4f5", "fusion_lon": 0.0}, {"rental_uris": {"ios": "https://dc.lft.to/lastmile_qr_scan", "android": "https://dc.lft.to/lastmile_qr_scan"}, "type": "electric_scooter", "name": "b110155b1284929afed530a97b1e296d", "is_reserved": 0, "lon": -76.98516983333333, "is_disabled": 0, "fusion_lat": 0.0, "lat": 38.860007333333336, "bike_id": "b110155b1284929afed530a97b1e296d", "fusion_lon": 0.0}, {"rental_uris": {"ios": "https://dc.lft.to/lastmile_qr_scan", "android": "https://dc.lft.to/lastmile_qr_scan"}, "type": "electric_scooter", "name": "caede0cea4593b348dd6a69c84cd83a9", "is_reserved": 0, "lon": -77.02744716666666, "is_disabled": 0, "fusion_lat": 0.0, "lat": 38.9660845, "bike_id": "caede0cea4593b348dd6a69c84cd83a9", "fusion_lon": 0.0}, {"rental_uris": {"ios": "https://dc.lft.to/lastmile_qr_scan", "android": "https://dc.lft.to/lastmile_qr_scan"}, "type": "electric_scooter", "name": "159fb80a26a8608b321704220c63ada3", "is_reserved": 0, "lon": -77.014205, "is_disabled": 0, "fusion_lat": 0.0, "lat": 38.91856633333333, "bike_id": "159fb80a26a8608b321704220c63ada3", "fusion_lon": 0.0}, {"rental_uris": {"ios": "https://dc.lft.to/lastmile_qr_scan", "android": "https://dc.lft.to/lastmile_qr_scan"}, "type": "electric_scooter", "name": "46d26f994f1241b596564c8339477b76", "is_reserved": 0, "lon": -77.07518633333333, "is_disabled": 0, "fusion_lat": 0.0, "lat": 38.9394025, "bike_id": "46d26f994f1241b596564c8339477b76", "fusion_lon": 0.0}, {"rental_uris": {"ios": "https://dc.lft.to/lastmile_qr_scan", "android": "https://dc.lft.to/lastmile_qr_scan"}, "type": "electric_scooter", "name": "81c63d27c7f1908126177ad7177e3ff1", "is_reserved": 0, "lon": -77.03619133333333, "is_disabled": 0, "fusion_lat": 0.0, "lat": 38.928441, "bike_id": "81c63d27c7f1908126177ad7177e3ff1", "fusion_lon": 0.0}, {"rental_uris": {"ios": "https://dc.lft.to/lastmile_qr_scan", "android": "https://dc.lft.to/lastmile_qr_scan"}, "type": "electric_scooter", "name": "afa268aebfd3e7af4cf8eaa5da4e488f", "is_reserved": 0, "lon": -77.040785, "is_disabled": 0, "fusion_lat": 0.0, "lat": 38.9477315, "bike_id": "afa268aebfd3e7af4cf8eaa5da4e488f", "fusion_lon": 0.0}, {"rental_uris": {"ios": "https://dc.lft.to/lastmile_qr_scan", "android": "https://dc.lft.to/lastmile_qr_scan"}, "type": "electric_scooter", "name": "cc2537a58734684fc14bd5f73b11da5b", "is_reserved": 0, "lon": -77.04337633333333, "is_disabled": 0, "fusion_lat": 0.0, "lat": 38.907312166666664, "bike_id": "cc2537a58734684fc14bd5f73b11da5b", "fusion_lon": 0.0}, {"rental_uris": {"ios": "https://dc.lft.to/lastmile_qr_scan", "android": "https://dc.lft.to/lastmile_qr_scan"}, "type": "electric_scooter", "name": "2555a266b306b3275d63635984c3fa43", "is_reserved": 0, "lon": -77.0072765, "is_disabled": 0, "fusion_lat": 0.0, "lat": 38.897068166666664, "bike_id": "2555a266b306b3275d63635984c3fa43", "fusion_lon": 0.0}, {"rental_uris": {"ios": "https://dc.lft.to/lastmile_qr_scan", "android": "https://dc.lft.to/lastmile_qr_scan"}, "type": "electric_scooter", "name": "cb42eb6254f1775d201fea73c63cead4", "is_reserved": 0, "lon": -77.039571, "is_disabled": 0, "fusion_lat": 0.0, "lat": 38.892464, "bike_id": "cb42eb6254f1775d201fea73c63cead4", "fusion_lon": 0.0}, {"rental_uris": {"ios": "https://dc.lft.to/lastmile_qr_scan", "android": "https://dc.lft.to/lastmile_qr_scan"}, "type": "electric_scooter", "name": "2a5be984f200d3442d98d591dc19f24f", "is_reserved": 0, "lon": -77.04945516666666, "is_disabled": 0, "fusion_lat": 0.0, "lat": 38.90063083333333, "bike_id": "2a5be984f200d3442d98d591dc19f24f", "fusion_lon": 0.0}, {"rental_uris": {"ios": "https://dc.lft.to/lastmile_qr_scan", "android": "https://dc.lft.to/lastmile_qr_scan"}, "type": "electric_scooter", "name": "92c90746af51abf27042c3bd9a814f60", "is_reserved": 0, "lon": -77.0316835, "is_disabled": 0, "fusion_lat": 0.0, "lat": 38.9211225, "bike_id": "92c90746af51abf27042c3bd9a814f60", "fusion_lon": 0.0}, {"rental_uris": {"ios": "https://dc.lft.to/lastmile_qr_scan", "android": "https://dc.lft.to/lastmile_qr_scan"}, "type": "electric_scooter", "name": "16b4731c1c7b9792aaed4ac925cd39cb", "is_reserved": 0, "lon": -77.03660616666667, "is_disabled": 0, "fusion_lat": 0.0, "lat": 38.918253666666665, "bike_id": "16b4731c1c7b9792aaed4ac925cd39cb", "fusion_lon": 0.0}, {"rental_uris": {"ios": "https://dc.lft.to/lastmile_qr_scan", "android": "https://dc.lft.to/lastmile_qr_scan"}, "type": "electric_scooter", "name": "2a5616a9079e6c3ec860a393ff7b181b", "is_reserved": 0, "lon": -76.97835516666666, "is_disabled": 0, "fusion_lat": 0.0, "lat": 38.87203933333333, "bike_id": "2a5616a9079e6c3ec860a393ff7b181b", "fusion_lon": 0.0}, {"rental_uris": {"ios": "https://dc.lft.to/lastmile_qr_scan", "android": "https://dc.lft.to/lastmile_qr_scan"}, "type": "electric_scooter", "name": "336b72f77f20fbdac00721713237eba6", "is_reserved": 0, "lon": -77.0066725, "is_disabled": 0, "fusion_lat": 0.0, "lat": 38.871409666666665, "bike_id": "336b72f77f20fbdac00721713237eba6", "fusion_lon": 0.0}, {"rental_uris": {"ios": "https://dc.lft.to/lastmile_qr_scan", "android": "https://dc.lft.to/lastmile_qr_scan"}, "type": "electric_scooter", "name": "269f702de1badbe9bc5c01e49c3c0fc1", "is_reserved": 0, "lon": -77.03444266666666, "is_disabled": 0, "fusion_lat": 0.0, "lat": 38.905752, "bike_id": "269f702de1badbe9bc5c01e49c3c0fc1", "fusion_lon": 0.0}, {"rental_uris": {"ios": "https://dc.lft.to/lastmile_qr_scan", "android": "https://dc.lft.to/lastmile_qr_scan"}, "type": "electric_bike", "name": "a6012008b465e8c991778e1ee03de64f", "is_reserved": 0, "lon": -77.0258395, "is_disabled": 0, "fusion_lat": 0.0, "lat": 38.978683333333336, "bike_id": "a6012008b465e8c991778e1ee03de64f", "fusion_lon": 0.0}, {"rental_uris": {"ios": "https://dc.lft.to/lastmile_qr_scan", "android": "https://dc.lft.to/lastmile_qr_scan"}, "type": "electric_bike", "name": "e469213f0f206dbfdee4c15fe46fb111", "is_reserved": 0, "lon": -76.9991205, "is_disabled": 0, "fusion_lat": 0.0, "lat": 38.86445233333333, "bike_id": "e469213f0f206dbfdee4c15fe46fb111", "fusion_lon": 0.0}, {"rental_uris": {"ios": "https://dc.lft.to/lastmile_qr_scan", "android": "https://dc.lft.to/lastmile_qr_scan"}, "type": "electric_scooter", "name": "1a6885ebfaede81540f10a5fd0dbc27d", "is_reserved": 0, "lon": -77.03446516666666, "is_disabled": 0, "fusion_lat": 0.0, "lat": 38.90733816666667, "bike_id": "1a6885ebfaede81540f10a5fd0dbc27d", "fusion_lon": 0.0}, {"rental_uris": {"ios": "https://dc.lft.to/lastmile_qr_scan", "android": "https://dc.lft.to/lastmile_qr_scan"}, "type": "electric_scooter", "name": "f7275e28ad3917e08baf2222b988425c", "is_reserved": 0, "lon": -77.02305666666666, "is_disabled": 0, "fusion_lat": 0.0, "lat": 38.911076666666666, "bike_id": "f7275e28ad3917e08baf2222b988425c", "fusion_lon": 0.0}, {"rental_uris": {"ios": "https://dc.lft.to/lastmile_qr_scan", "android": "https://dc.lft.to/lastmile_qr_scan"}, "type": "electric_scooter", "name": "cbfd31f1bd0fb1bc53da8d543fca4287", "is_reserved": 0, "lon": -77.02812016666667, "is_disabled": 0, "fusion_lat": 0.0, "lat": 38.89973466666667, "bike_id": "cbfd31f1bd0fb1bc53da8d543fca4287", "fusion_lon": 0.0}, {"rental_uris": {"ios": "https://dc.lft.to/lastmile_qr_scan", "android": "https://dc.lft.to/lastmile_qr_scan"}, "type": "electric_scooter", "name": "e5159ccfce8bca1e6fd66b3c087b3d52", "is_reserved": 0, "lon": -77.03903333333334, "is_disabled": 0, "fusion_lat": 0.0, "lat": 38.912635, "bike_id": "e5159ccfce8bca1e6fd66b3c087b3d52", "fusion_lon": 0.0}, {"rental_uris": {"ios": "https://dc.lft.to/lastmile_qr_scan", "android": "https://dc.lft.to/lastmile_qr_scan"}, "type": "electric_scooter", "name": "1df53ef6e0e1144c9fdc5939f71fd48b", "is_reserved": 0, "lon": -77.02704816666666, "is_disabled": 0, "fusion_lat": 0.0, "lat": 38.90447966666667, "bike_id": "1df53ef6e0e1144c9fdc5939f71fd48b", "fusion_lon": 0.0}, {"rental_uris": {"ios": "https://dc.lft.to/lastmile_qr_scan", "android": "https://dc.lft.to/lastmile_qr_scan"}, "type": "electric_scooter", "name": "76563612fef283cc4d326bdc2a546787", "is_reserved": 0, "lon": -77.04548583333333, "is_disabled": 0, "fusion_lat": 0.0, "lat": 38.933861666666665, "bike_id": "76563612fef283cc4d326bdc2a546787", "fusion_lon": 0.0}, {"rental_uris": {"ios": "https://dc.lft.to/lastmile_qr_scan", "android": "https://dc.lft.to/lastmile_qr_scan"}, "type": "electric_scooter", "name": "3d6549f70de43e90802312aa4b17387c", "is_reserved": 0, "lon": -77.01977683333334, "is_disabled": 0, "fusion_lat": 0.0, "lat": 38.88715966666667, "bike_id": "3d6549f70de43e90802312aa4b17387c", "fusion_lon": 0.0}, {"rental_uris": {"ios": "https://dc.lft.to/lastmile_qr_scan", "android": "https://dc.lft.to/lastmile_qr_scan"}, "type": "electric_scooter", "name": "1d72bbd4866276b920141437b43f7fff", "is_reserved": 0, "lon": -77.031792, "is_disabled": 0, "fusion_lat": 0.0, "lat": 38.920200333333334, "bike_id": "1d72bbd4866276b920141437b43f7fff", "fusion_lon": 0.0}, {"rental_uris": {"ios": "https://dc.lft.to/lastmile_qr_scan", "android": "https://dc.lft.to/lastmile_qr_scan"}, "type": "electric_scooter", "name": "d41b642468018e6a99ae0b80cef79487", "is_reserved": 0, "lon": -77.03565766666667, "is_disabled": 0, "fusion_lat": 0.0, "lat": 38.9188565, "bike_id": "d41b642468018e6a99ae0b80cef79487", "fusion_lon": 0.0}, {"rental_uris": {"ios": "https://dc.lft.to/lastmile_qr_scan", "android": "https://dc.lft.to/lastmile_qr_scan"}, "type": "electric_scooter", "name": "6103f7a943393dfe43fc11121625c413", "is_reserved": 0, "lon": -77.0176785, "is_disabled": 0, "fusion_lat": 0.0, "lat": 38.88724083333334, "bike_id": "6103f7a943393dfe43fc11121625c413", "fusion_lon": 0.0}, {"rental_uris": {"ios": "https://dc.lft.to/lastmile_qr_scan", "android": "https://dc.lft.to/lastmile_qr_scan"}, "type": "electric_scooter", "name": "0be90f3830b7adc29233bbdca7c17530", "is_reserved": 0, "lon": -77.039433, "is_disabled": 0, "fusion_lat": 0.0, "lat": 38.90172583333333, "bike_id": "0be90f3830b7adc29233bbdca7c17530", "fusion_lon": 0.0}, {"rental_uris": {"ios": "https://dc.lft.to/lastmile_qr_scan", "android": "https://dc.lft.to/lastmile_qr_scan"}, "type": "electric_scooter", "name": "875767dbeb314909a25e1e314995bdd3", "is_reserved": 0, "lon": -77.04481083333333, "is_disabled": 0, "fusion_lat": 0.0, "lat": 38.914418833333336, "bike_id": "875767dbeb314909a25e1e314995bdd3", "fusion_lon": 0.0}, {"rental_uris": {"ios": "https://dc.lft.to/lastmile_qr_scan", "android": "https://dc.lft.to/lastmile_qr_scan"}, "type": "electric_scooter", "name": "cd83aff3be12f30f43e7268ec4a9b1f6", "is_reserved": 0, "lon": -77.02089483333333, "is_disabled": 0, "fusion_lat": 0.0, "lat": 38.92909266666667, "bike_id": "cd83aff3be12f30f43e7268ec4a9b1f6", "fusion_lon": 0.0}, {"rental_uris": {"ios": "https://dc.lft.to/lastmile_qr_scan", "android": "https://dc.lft.to/lastmile_qr_scan"}, "type": "electric_scooter", "name": "b69c21ae50880a6f341239f95488af46", "is_reserved": 0, "lon": -77.04507966666667, "is_disabled": 0, "fusion_lat": 0.0, "lat": 38.91818583333333, "bike_id": "b69c21ae50880a6f341239f95488af46", "fusion_lon": 0.0}, {"rental_uris": {"ios": "https://dc.lft.to/lastmile_qr_scan", "android": "https://dc.lft.to/lastmile_qr_scan"}, "type": "electric_scooter", "name": "5435a84f0c0b940804623f2c92c37c27", "is_reserved": 0, "lon": -77.04162933333333, "is_disabled": 0, "fusion_lat": 0.0, "lat": 38.91568983333333, "bike_id": "5435a84f0c0b940804623f2c92c37c27", "fusion_lon": 0.0}, {"rental_uris": {"ios": "https://dc.lft.to/lastmile_qr_scan", "android": "https://dc.lft.to/lastmile_qr_scan"}, "type": "electric_scooter", "name": "2a433052648167942376d803400d8ee9", "is_reserved": 0, "lon": -77.03178083333333, "is_disabled": 0, "fusion_lat": 0.0, "lat": 38.920118333333335, "bike_id": "2a433052648167942376d803400d8ee9", "fusion_lon": 0.0}, {"rental_uris": {"ios": "https://dc.lft.to/lastmile_qr_scan", "android": "https://dc.lft.to/lastmile_qr_scan"}, "type": "electric_scooter", "name": "218cafe11b49903b70b75527985c28ba", "is_reserved": 0, "lon": -76.99422666666666, "is_disabled": 0, "fusion_lat": 0.0, "lat": 38.916858166666664, "bike_id": "218cafe11b49903b70b75527985c28ba", "fusion_lon": 0.0}, {"rental_uris": {"ios": "https://dc.lft.to/lastmile_qr_scan", "android": "https://dc.lft.to/lastmile_qr_scan"}, "type": "electric_scooter", "name": "d03834af1a86ec0631aee8d5848119de", "is_reserved": 0, "lon": -77.025919, "is_disabled": 0, "fusion_lat": 0.0, "lat": 38.8930355, "bike_id": "d03834af1a86ec0631aee8d5848119de", "fusion_lon": 0.0}, {"rental_uris": {"ios": "https://dc.lft.to/lastmile_qr_scan", "android": "https://dc.lft.to/lastmile_qr_scan"}, "type": "electric_scooter", "name": "d87bce71bd27891514baa76d3f0ae746", "is_reserved": 0, "lon": -77.037969, "is_disabled": 0, "fusion_lat": 0.0, "lat": 38.91537533333333, "bike_id": "d87bce71bd27891514baa76d3f0ae746", "fusion_lon": 0.0}, {"rental_uris": {"ios": "https://dc.lft.to/lastmile_qr_scan", "android": "https://dc.lft.to/lastmile_qr_scan"}, "type": "electric_scooter", "name": "b7e765f817405d470a2e1cc91b91e769", "is_reserved": 0, "lon": -77.0242735, "is_disabled": 0, "fusion_lat": 0.0, "lat": 38.903078666666666, "bike_id": "b7e765f817405d470a2e1cc91b91e769", "fusion_lon": 0.0}, {"rental_uris": {"ios": "https://dc.lft.to/lastmile_qr_scan", "android": "https://dc.lft.to/lastmile_qr_scan"}, "type": "electric_scooter", "name": "a7c0ec2450b3266335957e671ce1e926", "is_reserved": 0, "lon": -77.03220333333333, "is_disabled": 0, "fusion_lat": 0.0, "lat": 38.909663333333334, "bike_id": "a7c0ec2450b3266335957e671ce1e926", "fusion_lon": 0.0}, {"rental_uris": {"ios": "https://dc.lft.to/lastmile_qr_scan", "android": "https://dc.lft.to/lastmile_qr_scan"}, "type": "electric_scooter", "name": "63c480a7f55a4e0e1d58db41645672a7", "is_reserved": 0, "lon": -77.0473065, "is_disabled": 0, "fusion_lat": 0.0, "lat": 38.89550066666666, "bike_id": "63c480a7f55a4e0e1d58db41645672a7", "fusion_lon": 0.0}, {"rental_uris": {"ios": "https://dc.lft.to/lastmile_qr_scan", "android": "https://dc.lft.to/lastmile_qr_scan"}, "type": "electric_scooter", "name": "f951176db8cc9b6c82b86893c2152bd3", "is_reserved": 0, "lon": -77.01835866666667, "is_disabled": 0, "fusion_lat": 0.0, "lat": 38.905297833333336, "bike_id": "f951176db8cc9b6c82b86893c2152bd3", "fusion_lon": 0.0}, {"rental_uris": {"ios": "https://dc.lft.to/lastmile_qr_scan", "android": "https://dc.lft.to/lastmile_qr_scan"}, "type": "electric_scooter", "name": "47b53f1ca5c89530ea476ad7b612044e", "is_reserved": 0, "lon": -77.018994, "is_disabled": 0, "fusion_lat": 0.0, "lat": 38.897928, "bike_id": "47b53f1ca5c89530ea476ad7b612044e", "fusion_lon": 0.0}, {"rental_uris": {"ios": "https://dc.lft.to/lastmile_qr_scan", "android": "https://dc.lft.to/lastmile_qr_scan"}, "type": "electric_scooter", "name": "605a1d590f132f2d11b56e6f8b006e20", "is_reserved": 0, "lon": -77.05207833333333, "is_disabled": 0, "fusion_lat": 0.0, "lat": 38.9243545, "bike_id": "605a1d590f132f2d11b56e6f8b006e20", "fusion_lon": 0.0}, {"rental_uris": {"ios": "https://dc.lft.to/lastmile_qr_scan", "android": "https://dc.lft.to/lastmile_qr_scan"}, "type": "electric_scooter", "name": "73a3cef3a64a107ece6bfbf0907a6fb3", "is_reserved": 0, "lon": -77.02625316666666, "is_disabled": 0, "fusion_lat": 0.0, "lat": 38.892146833333335, "bike_id": "73a3cef3a64a107ece6bfbf0907a6fb3", "fusion_lon": 0.0}, {"rental_uris": {"ios": "https://dc.lft.to/lastmile_qr_scan", "android": "https://dc.lft.to/lastmile_qr_scan"}, "type": "electric_scooter", "name": "faa6586ff000e5a21ef1e69905b1d815", "is_reserved": 0, "lon": -77.03029566666666, "is_disabled": 0, "fusion_lat": 0.0, "lat": 38.92237183333334, "bike_id": "faa6586ff000e5a21ef1e69905b1d815", "fusion_lon": 0.0}, {"rental_uris": {"ios": "https://dc.lft.to/lastmile_qr_scan", "android": "https://dc.lft.to/lastmile_qr_scan"}, "type": "electric_scooter", "name": "daaeeb7c2b60387ab641d04235bfbac1", "is_reserved": 0, "lon": -77.03957316666667, "is_disabled": 0, "fusion_lat": 0.0, "lat": 38.892386333333334, "bike_id": "daaeeb7c2b60387ab641d04235bfbac1", "fusion_lon": 0.0}, {"rental_uris": {"ios": "https://dc.lft.to/lastmile_qr_scan", "android": "https://dc.lft.to/lastmile_qr_scan"}, "type": "electric_scooter", "name": "9fe9a0e81d58c0cd2ee408a56e667cad", "is_reserved": 0, "lon": -77.02414, "is_disabled": 0, "fusion_lat": 0.0, "lat": 38.90956883333333, "bike_id": "9fe9a0e81d58c0cd2ee408a56e667cad", "fusion_lon": 0.0}, {"rental_uris": {"ios": "https://dc.lft.to/lastmile_qr_scan", "android": "https://dc.lft.to/lastmile_qr_scan"}, "type": "electric_scooter", "name": "22a21f0ecbb23fa8abfba182ef44ecb3", "is_reserved": 0, "lon": -77.029125, "is_disabled": 0, "fusion_lat": 0.0, "lat": 38.9403545, "bike_id": "22a21f0ecbb23fa8abfba182ef44ecb3", "fusion_lon": 0.0}, {"rental_uris": {"ios": "https://dc.lft.to/lastmile_qr_scan", "android": "https://dc.lft.to/lastmile_qr_scan"}, "type": "electric_bike", "name": "d3cdb981c342059196c3a2e2361517fb", "is_reserved": 0, "lon": -77.06697133333333, "is_disabled": 0, "fusion_lat": 0.0, "lat": 38.831674666666665, "bike_id": "d3cdb981c342059196c3a2e2361517fb", "fusion_lon": 0.0}, {"rental_uris": {"ios": "https://dc.lft.to/lastmile_qr_scan", "android": "https://dc.lft.to/lastmile_qr_scan"}, "type": "electric_scooter", "name": "d9b79f935c9e4f7cc535d684eda9f499", "is_reserved": 0, "lon": -76.9705335, "is_disabled": 0, "fusion_lat": 0.0, "lat": 38.87327066666667, "bike_id": "d9b79f935c9e4f7cc535d684eda9f499", "fusion_lon": 0.0}, {"rental_uris": {"ios": "https://dc.lft.to/lastmile_qr_scan", "android": "https://dc.lft.to/lastmile_qr_scan"}, "type": "electric_scooter", "name": "a89ae7c7baf17e2d2ad69e894877f5a5", "is_reserved": 0, "lon": -77.0020135, "is_disabled": 0, "fusion_lat": 0.0, "lat": 38.90022533333333, "bike_id": "a89ae7c7baf17e2d2ad69e894877f5a5", "fusion_lon": 0.0}, {"rental_uris": {"ios": "https://dc.lft.to/lastmile_qr_scan", "android": "https://dc.lft.to/lastmile_qr_scan"}, "type": "electric_scooter", "name": "d4a8876ed72ff1c80a1da83970565020", "is_reserved": 0, "lon": -76.9860185, "is_disabled": 0, "fusion_lat": 0.0, "lat": 38.878355666666664, "bike_id": "d4a8876ed72ff1c80a1da83970565020", "fusion_lon": 0.0}, {"rental_uris": {"ios": "https://dc.lft.to/lastmile_qr_scan", "android": "https://dc.lft.to/lastmile_qr_scan"}, "type": "electric_scooter", "name": "3263cb8954ee29c360a08e451a70da67", "is_reserved": 0, "lon": -77.06753516666667, "is_disabled": 0, "fusion_lat": 0.0, "lat": 38.915748, "bike_id": "3263cb8954ee29c360a08e451a70da67", "fusion_lon": 0.0}, {"rental_uris": {"ios": "https://dc.lft.to/lastmile_qr_scan", "android": "https://dc.lft.to/lastmile_qr_scan"}, "type": "electric_scooter", "name": "871095276b1d9881dce0ef29ec7bb3cc", "is_reserved": 0, "lon": -77.04044983333333, "is_disabled": 0, "fusion_lat": 0.0, "lat": 38.9231365, "bike_id": "871095276b1d9881dce0ef29ec7bb3cc", "fusion_lon": 0.0}, {"rental_uris": {"ios": "https://dc.lft.to/lastmile_qr_scan", "android": "https://dc.lft.to/lastmile_qr_scan"}, "type": "electric_scooter", "name": "3588753f1e6e99e88884ca1b9bd37cdf", "is_reserved": 0, "lon": -77.0371475, "is_disabled": 0, "fusion_lat": 0.0, "lat": 38.900276, "bike_id": "3588753f1e6e99e88884ca1b9bd37cdf", "fusion_lon": 0.0}, {"rental_uris": {"ios": "https://dc.lft.to/lastmile_qr_scan", "android": "https://dc.lft.to/lastmile_qr_scan"}, "type": "electric_scooter", "name": "423f86d89486ebf7e8a2fe301b65dafe", "is_reserved": 0, "lon": -76.99968766666667, "is_disabled": 0, "fusion_lat": 0.0, "lat": 38.8866005, "bike_id": "423f86d89486ebf7e8a2fe301b65dafe", "fusion_lon": 0.0}, {"rental_uris": {"ios": "https://dc.lft.to/lastmile_qr_scan", "android": "https://dc.lft.to/lastmile_qr_scan"}, "type": "electric_scooter", "name": "54074626d2698b5fa5754a8f32ecfb27", "is_reserved": 0, "lon": -77.039538, "is_disabled": 0, "fusion_lat": 0.0, "lat": 38.924472333333334, "bike_id": "54074626d2698b5fa5754a8f32ecfb27", "fusion_lon": 0.0}, {"rental_uris": {"ios": "https://dc.lft.to/lastmile_qr_scan", "android": "https://dc.lft.to/lastmile_qr_scan"}, "type": "electric_scooter", "name": "b81a0d2c685c698804915f61c1219bf3", "is_reserved": 0, "lon": -76.98373016666666, "is_disabled": 0, "fusion_lat": 0.0, "lat": 38.866670666666664, "bike_id": "b81a0d2c685c698804915f61c1219bf3", "fusion_lon": 0.0}, {"rental_uris": {"ios": "https://dc.lft.to/lastmile_qr_scan", "android": "https://dc.lft.to/lastmile_qr_scan"}, "type": "electric_scooter", "name": "aa829518eee68c0d6f8a64f7916fb05a", "is_reserved": 0, "lon": -77.0559725, "is_disabled": 0, "fusion_lat": 0.0, "lat": 38.936992833333335, "bike_id": "aa829518eee68c0d6f8a64f7916fb05a", "fusion_lon": 0.0}, {"rental_uris": {"ios": "https://dc.lft.to/lastmile_qr_scan", "android": "https://dc.lft.to/lastmile_qr_scan"}, "type": "electric_scooter", "name": "bd68eb77d41b0da7286274d0ea698b6d", "is_reserved": 0, "lon": -77.03178483333333, "is_disabled": 0, "fusion_lat": 0.0, "lat": 38.89222383333333, "bike_id": "bd68eb77d41b0da7286274d0ea698b6d", "fusion_lon": 0.0}, {"rental_uris": {"ios": "https://dc.lft.to/lastmile_qr_scan", "android": "https://dc.lft.to/lastmile_qr_scan"}, "type": "electric_scooter", "name": "22925d96cde3441e2f751ecc297f3e88", "is_reserved": 0, "lon": -77.02670633333334, "is_disabled": 0, "fusion_lat": 0.0, "lat": 38.98431266666667, "bike_id": "22925d96cde3441e2f751ecc297f3e88", "fusion_lon": 0.0}, {"rental_uris": {"ios": "https://dc.lft.to/lastmile_qr_scan", "android": "https://dc.lft.to/lastmile_qr_scan"}, "type": "electric_scooter", "name": "bfd637d874d15fb768bbd6c110b35626", "is_reserved": 0, "lon": -77.03815516666667, "is_disabled": 0, "fusion_lat": 0.0, "lat": 38.915605666666664, "bike_id": "bfd637d874d15fb768bbd6c110b35626", "fusion_lon": 0.0}, {"rental_uris": {"ios": "https://dc.lft.to/lastmile_qr_scan", "android": "https://dc.lft.to/lastmile_qr_scan"}, "type": "electric_scooter", "name": "19116b46d1d41feeaa88bf231758b486", "is_reserved": 0, "lon": -77.02704783333333, "is_disabled": 0, "fusion_lat": 0.0, "lat": 38.915191666666665, "bike_id": "19116b46d1d41feeaa88bf231758b486", "fusion_lon": 0.0}, {"rental_uris": {"ios": "https://dc.lft.to/lastmile_qr_scan", "android": "https://dc.lft.to/lastmile_qr_scan"}, "type": "electric_scooter", "name": "04d31cb8e149b50c9f8492bec9424467", "is_reserved": 0, "lon": -76.99740633333333, "is_disabled": 0, "fusion_lat": 0.0, "lat": 38.92040766666667, "bike_id": "04d31cb8e149b50c9f8492bec9424467", "fusion_lon": 0.0}, {"rental_uris": {"ios": "https://dc.lft.to/lastmile_qr_scan", "android": "https://dc.lft.to/lastmile_qr_scan"}, "type": "electric_scooter", "name": "598e8d8414a56012d6b2549ff096f81b", "is_reserved": 0, "lon": -77.00499833333333, "is_disabled": 0, "fusion_lat": 0.0, "lat": 38.879439, "bike_id": "598e8d8414a56012d6b2549ff096f81b", "fusion_lon": 0.0}, {"rental_uris": {"ios": "https://dc.lft.to/lastmile_qr_scan", "android": "https://dc.lft.to/lastmile_qr_scan"}, "type": "electric_scooter", "name": "321d6c40bdd0f404baa2ad8dcc69d55e", "is_reserved": 0, "lon": -77.02173266666667, "is_disabled": 0, "fusion_lat": 0.0, "lat": 38.915620833333335, "bike_id": "321d6c40bdd0f404baa2ad8dcc69d55e", "fusion_lon": 0.0}, {"rental_uris": {"ios": "https://dc.lft.to/lastmile_qr_scan", "android": "https://dc.lft.to/lastmile_qr_scan"}, "type": "electric_bike", "name": "a5cfe8f056832fa84bbeecba557726ec", "is_reserved": 0, "lon": -77.0831705, "is_disabled": 0, "fusion_lat": 0.0, "lat": 38.854331, "bike_id": "a5cfe8f056832fa84bbeecba557726ec", "fusion_lon": 0.0}, {"rental_uris": {"ios": "https://dc.lft.to/lastmile_qr_scan", "android": "https://dc.lft.to/lastmile_qr_scan"}, "type": "electric_scooter", "name": "9f154499811c10ea3fed0014bf45450b", "is_reserved": 0, "lon": -77.0468825, "is_disabled": 0, "fusion_lat": 0.0, "lat": 38.89222916666667, "bike_id": "9f154499811c10ea3fed0014bf45450b", "fusion_lon": 0.0}, {"rental_uris": {"ios": "https://dc.lft.to/lastmile_qr_scan", "android": "https://dc.lft.to/lastmile_qr_scan"}, "type": "electric_scooter", "name": "cca89d8988672cce69d0ad4637a5163c", "is_reserved": 0, "lon": -77.039348, "is_disabled": 0, "fusion_lat": 0.0, "lat": 38.914139166666665, "bike_id": "cca89d8988672cce69d0ad4637a5163c", "fusion_lon": 0.0}, {"rental_uris": {"ios": "https://dc.lft.to/lastmile_qr_scan", "android": "https://dc.lft.to/lastmile_qr_scan"}, "type": "electric_scooter", "name": "93a8ad0b943ab83c428e1d7f4b29c0e4", "is_reserved": 0, "lon": -76.96542716666667, "is_disabled": 0, "fusion_lat": 0.0, "lat": 38.878830666666666, "bike_id": "93a8ad0b943ab83c428e1d7f4b29c0e4", "fusion_lon": 0.0}, {"rental_uris": {"ios": "https://dc.lft.to/lastmile_qr_scan", "android": "https://dc.lft.to/lastmile_qr_scan"}, "type": "electric_scooter", "name": "363d60b9bf91d8cd62e01ec09d99e752", "is_reserved": 0, "lon": -77.0227485, "is_disabled": 0, "fusion_lat": 0.0, "lat": 38.909543, "bike_id": "363d60b9bf91d8cd62e01ec09d99e752", "fusion_lon": 0.0}, {"rental_uris": {"ios": "https://dc.lft.to/lastmile_qr_scan", "android": "https://dc.lft.to/lastmile_qr_scan"}, "type": "electric_scooter", "name": "cc4ee4e064bf824b64a0adb3dd57bb81", "is_reserved": 0, "lon": -76.92302966666666, "is_disabled": 0, "fusion_lat": 0.0, "lat": 38.89383633333333, "bike_id": "cc4ee4e064bf824b64a0adb3dd57bb81", "fusion_lon": 0.0}, {"rental_uris": {"ios": "https://dc.lft.to/lastmile_qr_scan", "android": "https://dc.lft.to/lastmile_qr_scan"}, "type": "electric_scooter", "name": "d118973104e087cbef644ce05c0ae5ca", "is_reserved": 0, "lon": -77.00403333333334, "is_disabled": 0, "fusion_lat": 0.0, "lat": 38.87945783333333, "bike_id": "d118973104e087cbef644ce05c0ae5ca", "fusion_lon": 0.0}, {"rental_uris": {"ios": "https://dc.lft.to/lastmile_qr_scan", "android": "https://dc.lft.to/lastmile_qr_scan"}, "type": "electric_scooter", "name": "9bac01ffd4161f0f883bb85304708bf9", "is_reserved": 0, "lon": -77.02704616666666, "is_disabled": 0, "fusion_lat": 0.0, "lat": 38.90516133333333, "bike_id": "9bac01ffd4161f0f883bb85304708bf9", "fusion_lon": 0.0}, {"rental_uris": {"ios": "https://dc.lft.to/lastmile_qr_scan", "android": "https://dc.lft.to/lastmile_qr_scan"}, "type": "electric_scooter", "name": "2d95de05d47b4618bbf1acb53afed432", "is_reserved": 0, "lon": -77.02461033333333, "is_disabled": 0, "fusion_lat": 0.0, "lat": 38.957729666666665, "bike_id": "2d95de05d47b4618bbf1acb53afed432", "fusion_lon": 0.0}, {"rental_uris": {"ios": "https://dc.lft.to/lastmile_qr_scan", "android": "https://dc.lft.to/lastmile_qr_scan"}, "type": "electric_scooter", "name": "c30c9a1c26f4f4f8cba0aabbe767cb01", "is_reserved": 0, "lon": -77.02447266666667, "is_disabled": 0, "fusion_lat": 0.0, "lat": 38.94974216666667, "bike_id": "c30c9a1c26f4f4f8cba0aabbe767cb01", "fusion_lon": 0.0}, {"rental_uris": {"ios": "https://dc.lft.to/lastmile_qr_scan", "android": "https://dc.lft.to/lastmile_qr_scan"}, "type": "electric_scooter", "name": "5f3f580d075c347bdef54513d296e7eb", "is_reserved": 0, "lon": -77.02030833333333, "is_disabled": 0, "fusion_lat": 0.0, "lat": 38.92436466666667, "bike_id": "5f3f580d075c347bdef54513d296e7eb", "fusion_lon": 0.0}, {"rental_uris": {"ios": "https://dc.lft.to/lastmile_qr_scan", "android": "https://dc.lft.to/lastmile_qr_scan"}, "type": "electric_scooter", "name": "3d3dc036ebe5cc969b6c47d03e44c16e", "is_reserved": 0, "lon": -77.07403383333333, "is_disabled": 0, "fusion_lat": 0.0, "lat": 38.8972585, "bike_id": "3d3dc036ebe5cc969b6c47d03e44c16e", "fusion_lon": 0.0}, {"rental_uris": {"ios": "https://dc.lft.to/lastmile_qr_scan", "android": "https://dc.lft.to/lastmile_qr_scan"}, "type": "electric_scooter", "name": "cb7f1b196c2bc555975e584768227dc7", "is_reserved": 0, "lon": -76.98866116666667, "is_disabled": 0, "fusion_lat": 0.0, "lat": 38.9002495, "bike_id": "cb7f1b196c2bc555975e584768227dc7", "fusion_lon": 0.0}, {"rental_uris": {"ios": "https://dc.lft.to/lastmile_qr_scan", "android": "https://dc.lft.to/lastmile_qr_scan"}, "type": "electric_scooter", "name": "aef779475fab37d7e9e187ee4291e38b", "is_reserved": 0, "lon": -77.03491333333334, "is_disabled": 0, "fusion_lat": 0.0, "lat": 38.932751333333336, "bike_id": "aef779475fab37d7e9e187ee4291e38b", "fusion_lon": 0.0}, {"rental_uris": {"ios": "https://dc.lft.to/lastmile_qr_scan", "android": "https://dc.lft.to/lastmile_qr_scan"}, "type": "electric_scooter", "name": "190d3a01ac0ab2076bfd6e64ff344a3b", "is_reserved": 0, "lon": -77.02514283333333, "is_disabled": 0, "fusion_lat": 0.0, "lat": 38.90406316666667, "bike_id": "190d3a01ac0ab2076bfd6e64ff344a3b", "fusion_lon": 0.0}, {"rental_uris": {"ios": "https://dc.lft.to/lastmile_qr_scan", "android": "https://dc.lft.to/lastmile_qr_scan"}, "type": "electric_scooter", "name": "29ed8302616135ef973dd641e972ca87", "is_reserved": 0, "lon": -77.04762966666667, "is_disabled": 0, "fusion_lat": 0.0, "lat": 38.900835, "bike_id": "29ed8302616135ef973dd641e972ca87", "fusion_lon": 0.0}, {"rental_uris": {"ios": "https://dc.lft.to/lastmile_qr_scan", "android": "https://dc.lft.to/lastmile_qr_scan"}, "type": "electric_scooter", "name": "69c38524f78ffc049bde48f3dcfd8d28", "is_reserved": 0, "lon": -77.01501333333333, "is_disabled": 0, "fusion_lat": 0.0, "lat": 38.9266605, "bike_id": "69c38524f78ffc049bde48f3dcfd8d28", "fusion_lon": 0.0}, {"rental_uris": {"ios": "https://dc.lft.to/lastmile_qr_scan", "android": "https://dc.lft.to/lastmile_qr_scan"}, "type": "electric_scooter", "name": "47bd600095fce4de318d91bb6f5c3746", "is_reserved": 0, "lon": -76.98647783333334, "is_disabled": 0, "fusion_lat": 0.0, "lat": 38.90537333333333, "bike_id": "47bd600095fce4de318d91bb6f5c3746", "fusion_lon": 0.0}, {"rental_uris": {"ios": "https://dc.lft.to/lastmile_qr_scan", "android": "https://dc.lft.to/lastmile_qr_scan"}, "type": "electric_bike", "name": "9b645caf65d4c3cea53b6c35fa356af0", "is_reserved": 0, "lon": -77.07382233333334, "is_disabled": 0, "fusion_lat": 0.0, "lat": 38.9143705, "bike_id": "9b645caf65d4c3cea53b6c35fa356af0", "fusion_lon": 0.0}, {"rental_uris": {"ios": "https://dc.lft.to/lastmile_qr_scan", "android": "https://dc.lft.to/lastmile_qr_scan"}, "type": "electric_bike", "name": "490466e5d2eed9503e29823d259c6305", "is_reserved": 0, "lon": -77.10623716666667, "is_disabled": 0, "fusion_lat": 0.0, "lat": 38.87324233333333, "bike_id": "490466e5d2eed9503e29823d259c6305", "fusion_lon": 0.0}, {"rental_uris": {"ios": "https://dc.lft.to/lastmile_qr_scan", "android": "https://dc.lft.to/lastmile_qr_scan"}, "type": "electric_scooter", "name": "44ca6bcf215a74fd46d5dbfb04b8bd67", "is_reserved": 0, "lon": -77.03830183333334, "is_disabled": 0, "fusion_lat": 0.0, "lat": 38.910305, "bike_id": "44ca6bcf215a74fd46d5dbfb04b8bd67", "fusion_lon": 0.0}, {"rental_uris": {"ios": "https://dc.lft.to/lastmile_qr_scan", "android": "https://dc.lft.to/lastmile_qr_scan"}, "type": "electric_scooter", "name": "115e8ab9c41e77a569fc8aa242e99c14", "is_reserved": 0, "lon": -77.02196866666667, "is_disabled": 0, "fusion_lat": 0.0, "lat": 38.91131133333333, "bike_id": "115e8ab9c41e77a569fc8aa242e99c14", "fusion_lon": 0.0}, {"rental_uris": {"ios": "https://dc.lft.to/lastmile_qr_scan", "android": "https://dc.lft.to/lastmile_qr_scan"}, "type": "electric_scooter", "name": "1e0f85c2f71b126d81fc18cb505f7f11", "is_reserved": 0, "lon": -76.990093, "is_disabled": 0, "fusion_lat": 0.0, "lat": 38.89883366666667, "bike_id": "1e0f85c2f71b126d81fc18cb505f7f11", "fusion_lon": 0.0}, {"rental_uris": {"ios": "https://dc.lft.to/lastmile_qr_scan", "android": "https://dc.lft.to/lastmile_qr_scan"}, "type": "electric_scooter", "name": "31d496fa455c2b57b2a313f7846f7073", "is_reserved": 0, "lon": -77.0670795, "is_disabled": 0, "fusion_lat": 0.0, "lat": 38.94796433333333, "bike_id": "31d496fa455c2b57b2a313f7846f7073", "fusion_lon": 0.0}, {"rental_uris": {"ios": "https://dc.lft.to/lastmile_qr_scan", "android": "https://dc.lft.to/lastmile_qr_scan"}, "type": "electric_scooter", "name": "6ed26c150aad63f7e23cbc492478f83d", "is_reserved": 0, "lon": -77.05325733333333, "is_disabled": 0, "fusion_lat": 0.0, "lat": 38.90264366666667, "bike_id": "6ed26c150aad63f7e23cbc492478f83d", "fusion_lon": 0.0}, {"rental_uris": {"ios": "https://dc.lft.to/lastmile_qr_scan", "android": "https://dc.lft.to/lastmile_qr_scan"}, "type": "electric_scooter", "name": "d59d4f441747caf18c016f5d4762c72a", "is_reserved": 0, "lon": -77.03788716666666, "is_disabled": 0, "fusion_lat": 0.0, "lat": 38.93103983333334, "bike_id": "d59d4f441747caf18c016f5d4762c72a", "fusion_lon": 0.0}, {"rental_uris": {"ios": "https://dc.lft.to/lastmile_qr_scan", "android": "https://dc.lft.to/lastmile_qr_scan"}, "type": "electric_bike", "name": "2f432c97ca76a5b1dfe96d79f51ea358", "is_reserved": 0, "lon": -76.945483, "is_disabled": 0, "fusion_lat": 0.0, "lat": 38.9829895, "bike_id": "2f432c97ca76a5b1dfe96d79f51ea358", "fusion_lon": 0.0}, {"rental_uris": {"ios": "https://dc.lft.to/lastmile_qr_scan", "android": "https://dc.lft.to/lastmile_qr_scan"}, "type": "electric_bike", "name": "76dbfb2867eb1f0186f96b1e87790c6d", "is_reserved": 0, "lon": -76.952416, "is_disabled": 0, "fusion_lat": 0.0, "lat": 38.88464966666667, "bike_id": "76dbfb2867eb1f0186f96b1e87790c6d", "fusion_lon": 0.0}, {"rental_uris": {"ios": "https://dc.lft.to/lastmile_qr_scan", "android": "https://dc.lft.to/lastmile_qr_scan"}, "type": "electric_bike", "name": "37381170e1879a4568463277bd8f49f2", "is_reserved": 0, "lon": -77.0407235, "is_disabled": 0, "fusion_lat": 0.0, "lat": 38.993776833333335, "bike_id": "37381170e1879a4568463277bd8f49f2", "fusion_lon": 0.0}, {"rental_uris": {"ios": "https://dc.lft.to/lastmile_qr_scan", "android": "https://dc.lft.to/lastmile_qr_scan"}, "type": "electric_scooter", "name": "d655376efa4c1d9eae289e266c7d0ff0", "is_reserved": 0, "lon": -76.99711366666666, "is_disabled": 0, "fusion_lat": 0.0, "lat": 38.911165833333335, "bike_id": "d655376efa4c1d9eae289e266c7d0ff0", "fusion_lon": 0.0}, {"rental_uris": {"ios": "https://dc.lft.to/lastmile_qr_scan", "android": "https://dc.lft.to/lastmile_qr_scan"}, "type": "electric_scooter", "name": "1b25e4ea23d7077dd3b9d52e597e0cee", "is_reserved": 0, "lon": -77.01444666666667, "is_disabled": 0, "fusion_lat": 0.0, "lat": 38.911042333333334, "bike_id": "1b25e4ea23d7077dd3b9d52e597e0cee", "fusion_lon": 0.0}, {"rental_uris": {"ios": "https://dc.lft.to/lastmile_qr_scan", "android": "https://dc.lft.to/lastmile_qr_scan"}, "type": "electric_scooter", "name": "ffaa19489c76940a805a478736cdd4f1", "is_reserved": 0, "lon": -77.08401483333333, "is_disabled": 0, "fusion_lat": 0.0, "lat": 38.9080385, "bike_id": "ffaa19489c76940a805a478736cdd4f1", "fusion_lon": 0.0}, {"rental_uris": {"ios": "https://dc.lft.to/lastmile_qr_scan", "android": "https://dc.lft.to/lastmile_qr_scan"}, "type": "electric_scooter", "name": "c9d8a8dfde93e97b3acc11544c63d583", "is_reserved": 0, "lon": -77.043761, "is_disabled": 0, "fusion_lat": 0.0, "lat": 38.934949333333336, "bike_id": "c9d8a8dfde93e97b3acc11544c63d583", "fusion_lon": 0.0}, {"rental_uris": {"ios": "https://dc.lft.to/lastmile_qr_scan", "android": "https://dc.lft.to/lastmile_qr_scan"}, "type": "electric_bike", "name": "5bad7af20cb3f91d13eca6a225144ae0", "is_reserved": 0, "lon": -77.0791395, "is_disabled": 0, "fusion_lat": 0.0, "lat": 38.838258833333335, "bike_id": "5bad7af20cb3f91d13eca6a225144ae0", "fusion_lon": 0.0}, {"rental_uris": {"ios": "https://dc.lft.to/lastmile_qr_scan", "android": "https://dc.lft.to/lastmile_qr_scan"}, "type": "electric_scooter", "name": "eb0717a04fc86d1005d0527bb0563c32", "is_reserved": 0, "lon": -77.073665, "is_disabled": 0, "fusion_lat": 0.0, "lat": 38.937364333333335, "bike_id": "eb0717a04fc86d1005d0527bb0563c32", "fusion_lon": 0.0}, {"rental_uris": {"ios": "https://dc.lft.to/lastmile_qr_scan", "android": "https://dc.lft.to/lastmile_qr_scan"}, "type": "electric_bike", "name": "f2e3b2cca1614f997b48475c2b1b7256", "is_reserved": 0, "lon": -77.08140216666666, "is_disabled": 0, "fusion_lat": 0.0, "lat": 38.82294066666667, "bike_id": "f2e3b2cca1614f997b48475c2b1b7256", "fusion_lon": 0.0}, {"rental_uris": {"ios": "https://dc.lft.to/lastmile_qr_scan", "android": "https://dc.lft.to/lastmile_qr_scan"}, "type": "electric_bike", "name": "a7f7622e78722f555cdf91cd08de8062", "is_reserved": 0, "lon": -76.96320283333333, "is_disabled": 0, "fusion_lat": 0.0, "lat": 38.938952, "bike_id": "a7f7622e78722f555cdf91cd08de8062", "fusion_lon": 0.0}, {"rental_uris": {"ios": "https://dc.lft.to/lastmile_qr_scan", "android": "https://dc.lft.to/lastmile_qr_scan"}, "type": "electric_scooter", "name": "552b0c11d5150b32f9257c5e1f8c04c8", "is_reserved": 0, "lon": -77.03631283333333, "is_disabled": 0, "fusion_lat": 0.0, "lat": 38.9481695, "bike_id": "552b0c11d5150b32f9257c5e1f8c04c8", "fusion_lon": 0.0}, {"rental_uris": {"ios": "https://dc.lft.to/lastmile_qr_scan", "android": "https://dc.lft.to/lastmile_qr_scan"}, "type": "electric_bike", "name": "893905bd347d64886046e3158de33b29", "is_reserved": 0, "lon": -76.97013266666667, "is_disabled": 0, "fusion_lat": 0.0, "lat": 38.863669, "bike_id": "893905bd347d64886046e3158de33b29", "fusion_lon": 0.0}, {"rental_uris": {"ios": "https://dc.lft.to/lastmile_qr_scan", "android": "https://dc.lft.to/lastmile_qr_scan"}, "type": "electric_scooter", "name": "be59978f28a82b0fe9b2525e5f89bdc9", "is_reserved": 0, "lon": -77.0425215, "is_disabled": 0, "fusion_lat": 0.0, "lat": 38.9206855, "bike_id": "be59978f28a82b0fe9b2525e5f89bdc9", "fusion_lon": 0.0}, {"rental_uris": {"ios": "https://dc.lft.to/lastmile_qr_scan", "android": "https://dc.lft.to/lastmile_qr_scan"}, "type": "electric_scooter", "name": "9db602ee80f7dd18002b97f04b834c24", "is_reserved": 0, "lon": -77.02721233333334, "is_disabled": 0, "fusion_lat": 0.0, "lat": 38.93393716666667, "bike_id": "9db602ee80f7dd18002b97f04b834c24", "fusion_lon": 0.0}, {"rental_uris": {"ios": "https://dc.lft.to/lastmile_qr_scan", "android": "https://dc.lft.to/lastmile_qr_scan"}, "type": "electric_scooter", "name": "e994aa9ddd9d2bc7ea84d1ac161a1b52", "is_reserved": 0, "lon": -77.07848016666667, "is_disabled": 0, "fusion_lat": 0.0, "lat": 38.93140116666667, "bike_id": "e994aa9ddd9d2bc7ea84d1ac161a1b52", "fusion_lon": 0.0}, {"rental_uris": {"ios": "https://dc.lft.to/lastmile_qr_scan", "android": "https://dc.lft.to/lastmile_qr_scan"}, "type": "electric_scooter", "name": "73371ce3779e123e7743d84bc7b22ccd", "is_reserved": 0, "lon": -77.00955866666666, "is_disabled": 0, "fusion_lat": 0.0, "lat": 38.897749166666664, "bike_id": "73371ce3779e123e7743d84bc7b22ccd", "fusion_lon": 0.0}, {"rental_uris": {"ios": "https://dc.lft.to/lastmile_qr_scan", "android": "https://dc.lft.to/lastmile_qr_scan"}, "type": "electric_scooter", "name": "9c4404004cb8e570789d45448a88fe76", "is_reserved": 0, "lon": -77.03780533333334, "is_disabled": 0, "fusion_lat": 0.0, "lat": 38.912687, "bike_id": "9c4404004cb8e570789d45448a88fe76", "fusion_lon": 0.0}, {"rental_uris": {"ios": "https://dc.lft.to/lastmile_qr_scan", "android": "https://dc.lft.to/lastmile_qr_scan"}, "type": "electric_scooter", "name": "ecd0e8068327d732e8688e097e360058", "is_reserved": 0, "lon": -77.000693, "is_disabled": 0, "fusion_lat": 0.0, "lat": 38.91909283333333, "bike_id": "ecd0e8068327d732e8688e097e360058", "fusion_lon": 0.0}, {"rental_uris": {"ios": "https://dc.lft.to/lastmile_qr_scan", "android": "https://dc.lft.to/lastmile_qr_scan"}, "type": "electric_scooter", "name": "c09ec020f877467b4308605474d851f8", "is_reserved": 0, "lon": -77.0399605, "is_disabled": 0, "fusion_lat": 0.0, "lat": 38.941835833333336, "bike_id": "c09ec020f877467b4308605474d851f8", "fusion_lon": 0.0}, {"rental_uris": {"ios": "https://dc.lft.to/lastmile_qr_scan", "android": "https://dc.lft.to/lastmile_qr_scan"}, "type": "electric_scooter", "name": "b4b6dc17f670444378bb52555254d077", "is_reserved": 0, "lon": -77.03451016666666, "is_disabled": 0, "fusion_lat": 0.0, "lat": 38.907310833333334, "bike_id": "b4b6dc17f670444378bb52555254d077", "fusion_lon": 0.0}, {"rental_uris": {"ios": "https://dc.lft.to/lastmile_qr_scan", "android": "https://dc.lft.to/lastmile_qr_scan"}, "type": "electric_scooter", "name": "98622da54aa372eed2dd97810c7deca1", "is_reserved": 0, "lon": -77.0447935, "is_disabled": 0, "fusion_lat": 0.0, "lat": 38.918527833333336, "bike_id": "98622da54aa372eed2dd97810c7deca1", "fusion_lon": 0.0}, {"rental_uris": {"ios": "https://dc.lft.to/lastmile_qr_scan", "android": "https://dc.lft.to/lastmile_qr_scan"}, "type": "electric_scooter", "name": "2db6904feebc5354d373aaea1610c2ac", "is_reserved": 0, "lon": -77.03250683333333, "is_disabled": 0, "fusion_lat": 0.0, "lat": 38.917161666666665, "bike_id": "2db6904feebc5354d373aaea1610c2ac", "fusion_lon": 0.0}, {"rental_uris": {"ios": "https://dc.lft.to/lastmile_qr_scan", "android": "https://dc.lft.to/lastmile_qr_scan"}, "type": "electric_scooter", "name": "81f94f4a14b5ee85448c8d79362e3d1a", "is_reserved": 0, "lon": -76.99745133333333, "is_disabled": 0, "fusion_lat": 0.0, "lat": 38.90003816666667, "bike_id": "81f94f4a14b5ee85448c8d79362e3d1a", "fusion_lon": 0.0}, {"rental_uris": {"ios": "https://dc.lft.to/lastmile_qr_scan", "android": "https://dc.lft.to/lastmile_qr_scan"}, "type": "electric_scooter", "name": "b3001579a530eda57f262cdd9e4d5756", "is_reserved": 0, "lon": -77.0211705, "is_disabled": 0, "fusion_lat": 0.0, "lat": 38.91738216666667, "bike_id": "b3001579a530eda57f262cdd9e4d5756", "fusion_lon": 0.0}, {"rental_uris": {"ios": "https://dc.lft.to/lastmile_qr_scan", "android": "https://dc.lft.to/lastmile_qr_scan"}, "type": "electric_scooter", "name": "02f38362c468b0d76200c743228451ee", "is_reserved": 0, "lon": -77.08780233333333, "is_disabled": 0, "fusion_lat": 0.0, "lat": 38.9355405, "bike_id": "02f38362c468b0d76200c743228451ee", "fusion_lon": 0.0}, {"rental_uris": {"ios": "https://dc.lft.to/lastmile_qr_scan", "android": "https://dc.lft.to/lastmile_qr_scan"}, "type": "electric_scooter", "name": "c954cda9654be7cedd1618e5931f22ee", "is_reserved": 0, "lon": -77.06321266666667, "is_disabled": 0, "fusion_lat": 0.0, "lat": 38.91335633333333, "bike_id": "c954cda9654be7cedd1618e5931f22ee", "fusion_lon": 0.0}, {"rental_uris": {"ios": "https://dc.lft.to/lastmile_qr_scan", "android": "https://dc.lft.to/lastmile_qr_scan"}, "type": "electric_bike", "name": "e51794663389413705c601c93ffd1f2e", "is_reserved": 0, "lon": -77.112828, "is_disabled": 0, "fusion_lat": 0.0, "lat": 38.831039, "bike_id": "e51794663389413705c601c93ffd1f2e", "fusion_lon": 0.0}, {"rental_uris": {"ios": "https://dc.lft.to/lastmile_qr_scan", "android": "https://dc.lft.to/lastmile_qr_scan"}, "type": "electric_scooter", "name": "cab45b52e9a31219d7781875a81793ed", "is_reserved": 0, "lon": -77.007367, "is_disabled": 0, "fusion_lat": 0.0, "lat": 38.90582283333333, "bike_id": "cab45b52e9a31219d7781875a81793ed", "fusion_lon": 0.0}, {"rental_uris": {"ios": "https://dc.lft.to/lastmile_qr_scan", "android": "https://dc.lft.to/lastmile_qr_scan"}, "type": "electric_scooter", "name": "65140ba3ed000b25b8578ffc2ab3018c", "is_reserved": 0, "lon": -77.03651566666667, "is_disabled": 0, "fusion_lat": 0.0, "lat": 38.92141016666667, "bike_id": "65140ba3ed000b25b8578ffc2ab3018c", "fusion_lon": 0.0}, {"rental_uris": {"ios": "https://dc.lft.to/lastmile_qr_scan", "android": "https://dc.lft.to/lastmile_qr_scan"}, "type": "electric_scooter", "name": "3f354f6be824038fe5282a6960e76d03", "is_reserved": 0, "lon": -77.03328583333334, "is_disabled": 0, "fusion_lat": 0.0, "lat": 38.92852216666667, "bike_id": "3f354f6be824038fe5282a6960e76d03", "fusion_lon": 0.0}, {"rental_uris": {"ios": "https://dc.lft.to/lastmile_qr_scan", "android": "https://dc.lft.to/lastmile_qr_scan"}, "type": "electric_scooter", "name": "82af7d8000912db3481744968d4d87bf", "is_reserved": 0, "lon": -77.013112, "is_disabled": 0, "fusion_lat": 0.0, "lat": 38.920273, "bike_id": "82af7d8000912db3481744968d4d87bf", "fusion_lon": 0.0}, {"rental_uris": {"ios": "https://dc.lft.to/lastmile_qr_scan", "android": "https://dc.lft.to/lastmile_qr_scan"}, "type": "electric_scooter", "name": "d6e949291bdb2b0850eb93225036d7ba", "is_reserved": 0, "lon": -77.00574983333334, "is_disabled": 0, "fusion_lat": 0.0, "lat": 38.90561183333333, "bike_id": "d6e949291bdb2b0850eb93225036d7ba", "fusion_lon": 0.0}, {"rental_uris": {"ios": "https://dc.lft.to/lastmile_qr_scan", "android": "https://dc.lft.to/lastmile_qr_scan"}, "type": "electric_scooter", "name": "3b95a22e912925579f94a57dd64fa7ab", "is_reserved": 0, "lon": -76.99943483333334, "is_disabled": 0, "fusion_lat": 0.0, "lat": 38.900551666666665, "bike_id": "3b95a22e912925579f94a57dd64fa7ab", "fusion_lon": 0.0}, {"rental_uris": {"ios": "https://dc.lft.to/lastmile_qr_scan", "android": "https://dc.lft.to/lastmile_qr_scan"}, "type": "electric_scooter", "name": "da2e94e2ee9b35586a3f43ccfd1d800a", "is_reserved": 0, "lon": -76.99042316666667, "is_disabled": 0, "fusion_lat": 0.0, "lat": 38.863670666666664, "bike_id": "da2e94e2ee9b35586a3f43ccfd1d800a", "fusion_lon": 0.0}, {"rental_uris": {"ios": "https://dc.lft.to/lastmile_qr_scan", "android": "https://dc.lft.to/lastmile_qr_scan"}, "type": "electric_scooter", "name": "5cd83af5ff8c0888611c7b2cd92b8c67", "is_reserved": 0, "lon": -77.03339366666667, "is_disabled": 0, "fusion_lat": 0.0, "lat": 38.92528566666667, "bike_id": "5cd83af5ff8c0888611c7b2cd92b8c67", "fusion_lon": 0.0}, {"rental_uris": {"ios": "https://dc.lft.to/lastmile_qr_scan", "android": "https://dc.lft.to/lastmile_qr_scan"}, "type": "electric_scooter", "name": "6c33827d05588e6a5068a34f507b8967", "is_reserved": 0, "lon": -77.07019533333333, "is_disabled": 0, "fusion_lat": 0.0, "lat": 38.893168833333334, "bike_id": "6c33827d05588e6a5068a34f507b8967", "fusion_lon": 0.0}, {"rental_uris": {"ios": "https://dc.lft.to/lastmile_qr_scan", "android": "https://dc.lft.to/lastmile_qr_scan"}, "type": "electric_bike", "name": "637996677a83ddc4bf82b5c2d0e96996", "is_reserved": 0, "lon": -76.94151983333333, "is_disabled": 0, "fusion_lat": 0.0, "lat": 38.890198, "bike_id": "637996677a83ddc4bf82b5c2d0e96996", "fusion_lon": 0.0}, {"rental_uris": {"ios": "https://dc.lft.to/lastmile_qr_scan", "android": "https://dc.lft.to/lastmile_qr_scan"}, "type": "electric_scooter", "name": "6eeb14358cb0810fde447719fdcaa027", "is_reserved": 0, "lon": -77.05000416666667, "is_disabled": 0, "fusion_lat": 0.0, "lat": 38.89226416666666, "bike_id": "6eeb14358cb0810fde447719fdcaa027", "fusion_lon": 0.0}, {"rental_uris": {"ios": "https://dc.lft.to/lastmile_qr_scan", "android": "https://dc.lft.to/lastmile_qr_scan"}, "type": "electric_scooter", "name": "5ea64cba8afcb0eec8e5929066f9eb63", "is_reserved": 0, "lon": -77.015793, "is_disabled": 0, "fusion_lat": 0.0, "lat": 38.87638066666667, "bike_id": "5ea64cba8afcb0eec8e5929066f9eb63", "fusion_lon": 0.0}, {"rental_uris": {"ios": "https://dc.lft.to/lastmile_qr_scan", "android": "https://dc.lft.to/lastmile_qr_scan"}, "type": "electric_scooter", "name": "93fb9f5fdb2d914964ba573bf5f18476", "is_reserved": 0, "lon": -77.026636, "is_disabled": 0, "fusion_lat": 0.0, "lat": 38.90265766666667, "bike_id": "93fb9f5fdb2d914964ba573bf5f18476", "fusion_lon": 0.0}, {"rental_uris": {"ios": "https://dc.lft.to/lastmile_qr_scan", "android": "https://dc.lft.to/lastmile_qr_scan"}, "type": "electric_bike", "name": "55a8060858575e3b06b1aa75bfd0a96d", "is_reserved": 0, "lon": -76.94534533333334, "is_disabled": 0, "fusion_lat": 0.0, "lat": 38.867511666666665, "bike_id": "55a8060858575e3b06b1aa75bfd0a96d", "fusion_lon": 0.0}, {"rental_uris": {"ios": "https://dc.lft.to/lastmile_qr_scan", "android": "https://dc.lft.to/lastmile_qr_scan"}, "type": "electric_scooter", "name": "5270b1dab535de5856002c2e358742b7", "is_reserved": 0, "lon": -77.02720366666667, "is_disabled": 0, "fusion_lat": 0.0, "lat": 38.92480583333333, "bike_id": "5270b1dab535de5856002c2e358742b7", "fusion_lon": 0.0}, {"rental_uris": {"ios": "https://dc.lft.to/lastmile_qr_scan", "android": "https://dc.lft.to/lastmile_qr_scan"}, "type": "electric_scooter", "name": "7472ebfd48ba1adae585e3ebac2220b6", "is_reserved": 0, "lon": -77.051436, "is_disabled": 0, "fusion_lat": 0.0, "lat": 38.90443483333333, "bike_id": "7472ebfd48ba1adae585e3ebac2220b6", "fusion_lon": 0.0}, {"rental_uris": {"ios": "https://dc.lft.to/lastmile_qr_scan", "android": "https://dc.lft.to/lastmile_qr_scan"}, "type": "electric_scooter", "name": "87454f6c16e3ad07be7d30ce71f9ae4d", "is_reserved": 0, "lon": -77.012149, "is_disabled": 0, "fusion_lat": 0.0, "lat": 38.92031, "bike_id": "87454f6c16e3ad07be7d30ce71f9ae4d", "fusion_lon": 0.0}, {"rental_uris": {"ios": "https://dc.lft.to/lastmile_qr_scan", "android": "https://dc.lft.to/lastmile_qr_scan"}, "type": "electric_scooter", "name": "e742a50bf6b5b00a82900061ee93f6d7", "is_reserved": 0, "lon": -77.01494866666667, "is_disabled": 0, "fusion_lat": 0.0, "lat": 38.892224666666664, "bike_id": "e742a50bf6b5b00a82900061ee93f6d7", "fusion_lon": 0.0}, {"rental_uris": {"ios": "https://dc.lft.to/lastmile_qr_scan", "android": "https://dc.lft.to/lastmile_qr_scan"}, "type": "electric_scooter", "name": "6e1a6d0b30982aed9e9d8b1a9afaf299", "is_reserved": 0, "lon": -77.0110065, "is_disabled": 0, "fusion_lat": 0.0, "lat": 38.885376, "bike_id": "6e1a6d0b30982aed9e9d8b1a9afaf299", "fusion_lon": 0.0}, {"rental_uris": {"ios": "https://dc.lft.to/lastmile_qr_scan", "android": "https://dc.lft.to/lastmile_qr_scan"}, "type": "electric_bike", "name": "85d2c60f90033380c046304f3eedbe6e", "is_reserved": 0, "lon": -76.99030916666666, "is_disabled": 0, "fusion_lat": 0.0, "lat": 38.89772966666666, "bike_id": "85d2c60f90033380c046304f3eedbe6e", "fusion_lon": 0.0}, {"rental_uris": {"ios": "https://dc.lft.to/lastmile_qr_scan", "android": "https://dc.lft.to/lastmile_qr_scan"}, "type": "electric_scooter", "name": "ebaa882060dd37509e644397a722253a", "is_reserved": 0, "lon": -77.02950383333334, "is_disabled": 0, "fusion_lat": 0.0, "lat": 38.883963333333334, "bike_id": "ebaa882060dd37509e644397a722253a", "fusion_lon": 0.0}, {"rental_uris": {"ios": "https://dc.lft.to/lastmile_qr_scan", "android": "https://dc.lft.to/lastmile_qr_scan"}, "type": "electric_bike", "name": "6f94a854ca559f65eee130e0bcce9d39", "is_reserved": 0, "lon": -76.960986, "is_disabled": 0, "fusion_lat": 0.0, "lat": 38.94957866666667, "bike_id": "6f94a854ca559f65eee130e0bcce9d39", "fusion_lon": 0.0}, {"rental_uris": {"ios": "https://dc.lft.to/lastmile_qr_scan", "android": "https://dc.lft.to/lastmile_qr_scan"}, "type": "electric_scooter", "name": "16902363dd38c8db75a8372bfa50ffd7", "is_reserved": 0, "lon": -77.00210466666667, "is_disabled": 0, "fusion_lat": 0.0, "lat": 38.91103733333333, "bike_id": "16902363dd38c8db75a8372bfa50ffd7", "fusion_lon": 0.0}, {"rental_uris": {"ios": "https://dc.lft.to/lastmile_qr_scan", "android": "https://dc.lft.to/lastmile_qr_scan"}, "type": "electric_scooter", "name": "7a3d35ff4ca460a09925f2edd1b3870a", "is_reserved": 0, "lon": -77.02154833333333, "is_disabled": 0, "fusion_lat": 0.0, "lat": 38.9020785, "bike_id": "7a3d35ff4ca460a09925f2edd1b3870a", "fusion_lon": 0.0}, {"rental_uris": {"ios": "https://dc.lft.to/lastmile_qr_scan", "android": "https://dc.lft.to/lastmile_qr_scan"}, "type": "electric_scooter", "name": "b56a805069e52c2febe0cf3b9f5bf10e", "is_reserved": 0, "lon": -77.04628216666667, "is_disabled": 0, "fusion_lat": 0.0, "lat": 38.919258166666665, "bike_id": "b56a805069e52c2febe0cf3b9f5bf10e", "fusion_lon": 0.0}, {"rental_uris": {"ios": "https://dc.lft.to/lastmile_qr_scan", "android": "https://dc.lft.to/lastmile_qr_scan"}, "type": "electric_scooter", "name": "037266366ab9d4ca3e094ba4500667e5", "is_reserved": 0, "lon": -77.03575616666667, "is_disabled": 0, "fusion_lat": 0.0, "lat": 38.906256166666665, "bike_id": "037266366ab9d4ca3e094ba4500667e5", "fusion_lon": 0.0}, {"rental_uris": {"ios": "https://dc.lft.to/lastmile_qr_scan", "android": "https://dc.lft.to/lastmile_qr_scan"}, "type": "electric_scooter", "name": "5b0cc8b765394a62781537e5fb3445e9", "is_reserved": 0, "lon": -77.00528483333333, "is_disabled": 0, "fusion_lat": 0.0, "lat": 38.885058666666666, "bike_id": "5b0cc8b765394a62781537e5fb3445e9", "fusion_lon": 0.0}, {"rental_uris": {"ios": "https://dc.lft.to/lastmile_qr_scan", "android": "https://dc.lft.to/lastmile_qr_scan"}, "type": "electric_scooter", "name": "a7fa47487ffe78ea7d8edca1abb84b87", "is_reserved": 0, "lon": -77.0391535, "is_disabled": 0, "fusion_lat": 0.0, "lat": 38.908201166666665, "bike_id": "a7fa47487ffe78ea7d8edca1abb84b87", "fusion_lon": 0.0}, {"rental_uris": {"ios": "https://dc.lft.to/lastmile_qr_scan", "android": "https://dc.lft.to/lastmile_qr_scan"}, "type": "electric_scooter", "name": "fab7d4038818d5a70f0ef769f2bc53db", "is_reserved": 0, "lon": -77.02336933333333, "is_disabled": 0, "fusion_lat": 0.0, "lat": 38.927033333333334, "bike_id": "fab7d4038818d5a70f0ef769f2bc53db", "fusion_lon": 0.0}, {"rental_uris": {"ios": "https://dc.lft.to/lastmile_qr_scan", "android": "https://dc.lft.to/lastmile_qr_scan"}, "type": "electric_scooter", "name": "277b51b672c1ddccf1d36767c567283e", "is_reserved": 0, "lon": -77.044927, "is_disabled": 0, "fusion_lat": 0.0, "lat": 38.90783483333333, "bike_id": "277b51b672c1ddccf1d36767c567283e", "fusion_lon": 0.0}, {"rental_uris": {"ios": "https://dc.lft.to/lastmile_qr_scan", "android": "https://dc.lft.to/lastmile_qr_scan"}, "type": "electric_scooter", "name": "ecd6e3aaa32af3f6dde097956444fd04", "is_reserved": 0, "lon": -77.02306616666667, "is_disabled": 0, "fusion_lat": 0.0, "lat": 38.9104895, "bike_id": "ecd6e3aaa32af3f6dde097956444fd04", "fusion_lon": 0.0}, {"rental_uris": {"ios": "https://dc.lft.to/lastmile_qr_scan", "android": "https://dc.lft.to/lastmile_qr_scan"}, "type": "electric_scooter", "name": "934ac585af2e2d4f69f031c094852e76", "is_reserved": 0, "lon": -77.0390815, "is_disabled": 0, "fusion_lat": 0.0, "lat": 38.908219833333334, "bike_id": "934ac585af2e2d4f69f031c094852e76", "fusion_lon": 0.0}, {"rental_uris": {"ios": "https://dc.lft.to/lastmile_qr_scan", "android": "https://dc.lft.to/lastmile_qr_scan"}, "type": "electric_scooter", "name": "6811df7edcfd8549330782efc857c0aa", "is_reserved": 0, "lon": -76.98442983333334, "is_disabled": 0, "fusion_lat": 0.0, "lat": 38.91463433333333, "bike_id": "6811df7edcfd8549330782efc857c0aa", "fusion_lon": 0.0}, {"rental_uris": {"ios": "https://dc.lft.to/lastmile_qr_scan", "android": "https://dc.lft.to/lastmile_qr_scan"}, "type": "electric_scooter", "name": "2eec20ebb4390252f5f130f4d40504ed", "is_reserved": 0, "lon": -76.985598, "is_disabled": 0, "fusion_lat": 0.0, "lat": 38.889948, "bike_id": "2eec20ebb4390252f5f130f4d40504ed", "fusion_lon": 0.0}, {"rental_uris": {"ios": "https://dc.lft.to/lastmile_qr_scan", "android": "https://dc.lft.to/lastmile_qr_scan"}, "type": "electric_scooter", "name": "82d12ce99d02ea0157f50c3b8586fb65", "is_reserved": 0, "lon": -77.00496516666666, "is_disabled": 0, "fusion_lat": 0.0, "lat": 38.905673666666665, "bike_id": "82d12ce99d02ea0157f50c3b8586fb65", "fusion_lon": 0.0}, {"rental_uris": {"ios": "https://dc.lft.to/lastmile_qr_scan", "android": "https://dc.lft.to/lastmile_qr_scan"}, "type": "electric_scooter", "name": "34c7793e21b3d04e9b7585697a0b897b", "is_reserved": 0, "lon": -77.053254, "is_disabled": 0, "fusion_lat": 0.0, "lat": 38.90723466666667, "bike_id": "34c7793e21b3d04e9b7585697a0b897b", "fusion_lon": 0.0}, {"rental_uris": {"ios": "https://dc.lft.to/lastmile_qr_scan", "android": "https://dc.lft.to/lastmile_qr_scan"}, "type": "electric_scooter", "name": "de8d73e276889e1fe11b71bb4d3e457c", "is_reserved": 0, "lon": -77.0231515, "is_disabled": 0, "fusion_lat": 0.0, "lat": 38.91766633333334, "bike_id": "de8d73e276889e1fe11b71bb4d3e457c", "fusion_lon": 0.0}, {"rental_uris": {"ios": "https://dc.lft.to/lastmile_qr_scan", "android": "https://dc.lft.to/lastmile_qr_scan"}, "type": "electric_scooter", "name": "2a63353fd30ede3f0f2d0dbd2ad7353b", "is_reserved": 0, "lon": -77.07457833333333, "is_disabled": 0, "fusion_lat": 0.0, "lat": 38.92073333333333, "bike_id": "2a63353fd30ede3f0f2d0dbd2ad7353b", "fusion_lon": 0.0}, {"rental_uris": {"ios": "https://dc.lft.to/lastmile_qr_scan", "android": "https://dc.lft.to/lastmile_qr_scan"}, "type": "electric_scooter", "name": "6b448410b851c09d91cd36f8f35f6350", "is_reserved": 0, "lon": -77.03751083333333, "is_disabled": 0, "fusion_lat": 0.0, "lat": 38.929100166666665, "bike_id": "6b448410b851c09d91cd36f8f35f6350", "fusion_lon": 0.0}, {"rental_uris": {"ios": "https://dc.lft.to/lastmile_qr_scan", "android": "https://dc.lft.to/lastmile_qr_scan"}, "type": "electric_scooter", "name": "e0f81e8e9f012a48d7dae7e6ad4f2f1c", "is_reserved": 0, "lon": -77.047999, "is_disabled": 0, "fusion_lat": 0.0, "lat": 38.892233833333336, "bike_id": "e0f81e8e9f012a48d7dae7e6ad4f2f1c", "fusion_lon": 0.0}, {"rental_uris": {"ios": "https://dc.lft.to/lastmile_qr_scan", "android": "https://dc.lft.to/lastmile_qr_scan"}, "type": "electric_scooter", "name": "d951f5182cdfe4d6a49778341f7e2be8", "is_reserved": 0, "lon": -77.03498916666666, "is_disabled": 0, "fusion_lat": 0.0, "lat": 38.9286595, "bike_id": "d951f5182cdfe4d6a49778341f7e2be8", "fusion_lon": 0.0}, {"rental_uris": {"ios": "https://dc.lft.to/lastmile_qr_scan", "android": "https://dc.lft.to/lastmile_qr_scan"}, "type": "electric_scooter", "name": "78da99ed2c9a415b925439e855944949", "is_reserved": 0, "lon": -77.044142, "is_disabled": 0, "fusion_lat": 0.0, "lat": 38.925973, "bike_id": "78da99ed2c9a415b925439e855944949", "fusion_lon": 0.0}, {"rental_uris": {"ios": "https://dc.lft.to/lastmile_qr_scan", "android": "https://dc.lft.to/lastmile_qr_scan"}, "type": "electric_scooter", "name": "9b3885771a4323623eae863e7ab673c7", "is_reserved": 0, "lon": -77.02094233333334, "is_disabled": 0, "fusion_lat": 0.0, "lat": 38.93112983333333, "bike_id": "9b3885771a4323623eae863e7ab673c7", "fusion_lon": 0.0}, {"rental_uris": {"ios": "https://dc.lft.to/lastmile_qr_scan", "android": "https://dc.lft.to/lastmile_qr_scan"}, "type": "electric_scooter", "name": "666643d33f829586f83422cad2a5c00b", "is_reserved": 0, "lon": -77.0259345, "is_disabled": 0, "fusion_lat": 0.0, "lat": 38.91689816666667, "bike_id": "666643d33f829586f83422cad2a5c00b", "fusion_lon": 0.0}, {"rental_uris": {"ios": "https://dc.lft.to/lastmile_qr_scan", "android": "https://dc.lft.to/lastmile_qr_scan"}, "type": "electric_bike", "name": "807fb59eafa4ca3a62b2301d8483364e", "is_reserved": 0, "lon": -77.01223516666667, "is_disabled": 0, "fusion_lat": 0.0, "lat": 38.95075383333333, "bike_id": "807fb59eafa4ca3a62b2301d8483364e", "fusion_lon": 0.0}, {"rental_uris": {"ios": "https://dc.lft.to/lastmile_qr_scan", "android": "https://dc.lft.to/lastmile_qr_scan"}, "type": "electric_scooter", "name": "bda175c7bd958a5a0b271a4ada6b86c5", "is_reserved": 0, "lon": -76.9527405, "is_disabled": 0, "fusion_lat": 0.0, "lat": 38.89188633333333, "bike_id": "bda175c7bd958a5a0b271a4ada6b86c5", "fusion_lon": 0.0}, {"rental_uris": {"ios": "https://dc.lft.to/lastmile_qr_scan", "android": "https://dc.lft.to/lastmile_qr_scan"}, "type": "electric_scooter", "name": "e993d5a01b230ea4015b22ae0c5b1ac3", "is_reserved": 0, "lon": -77.034452, "is_disabled": 0, "fusion_lat": 0.0, "lat": 38.91787466666667, "bike_id": "e993d5a01b230ea4015b22ae0c5b1ac3", "fusion_lon": 0.0}, {"rental_uris": {"ios": "https://dc.lft.to/lastmile_qr_scan", "android": "https://dc.lft.to/lastmile_qr_scan"}, "type": "electric_scooter", "name": "81299e877bc8d7b2d13ef96535db9da5", "is_reserved": 0, "lon": -77.0269135, "is_disabled": 0, "fusion_lat": 0.0, "lat": 38.949782, "bike_id": "81299e877bc8d7b2d13ef96535db9da5", "fusion_lon": 0.0}, {"rental_uris": {"ios": "https://dc.lft.to/lastmile_qr_scan", "android": "https://dc.lft.to/lastmile_qr_scan"}, "type": "electric_bike", "name": "df41651b2e011a6b9130b66be72435a2", "is_reserved": 0, "lon": -76.996798, "is_disabled": 0, "fusion_lat": 0.0, "lat": 38.838140333333335, "bike_id": "df41651b2e011a6b9130b66be72435a2", "fusion_lon": 0.0}, {"rental_uris": {"ios": "https://dc.lft.to/lastmile_qr_scan", "android": "https://dc.lft.to/lastmile_qr_scan"}, "type": "electric_scooter", "name": "260a599ecc88bf6b9c8dac79c6c2bf87", "is_reserved": 0, "lon": -76.93423683333333, "is_disabled": 0, "fusion_lat": 0.0, "lat": 38.893429166666664, "bike_id": "260a599ecc88bf6b9c8dac79c6c2bf87", "fusion_lon": 0.0}, {"rental_uris": {"ios": "https://dc.lft.to/lastmile_qr_scan", "android": "https://dc.lft.to/lastmile_qr_scan"}, "type": "electric_scooter", "name": "d7b935a7e543e2900b4771fe13964412", "is_reserved": 0, "lon": -77.04217933333334, "is_disabled": 0, "fusion_lat": 0.0, "lat": 38.92502316666667, "bike_id": "d7b935a7e543e2900b4771fe13964412", "fusion_lon": 0.0}, {"rental_uris": {"ios": "https://dc.lft.to/lastmile_qr_scan", "android": "https://dc.lft.to/lastmile_qr_scan"}, "type": "electric_scooter", "name": "2dbcb381bd6dec241134ccf195f94b5a", "is_reserved": 0, "lon": -77.00874033333334, "is_disabled": 0, "fusion_lat": 0.0, "lat": 38.89746016666667, "bike_id": "2dbcb381bd6dec241134ccf195f94b5a", "fusion_lon": 0.0}, {"rental_uris": {"ios": "https://dc.lft.to/lastmile_qr_scan", "android": "https://dc.lft.to/lastmile_qr_scan"}, "type": "electric_scooter", "name": "8361cb2d2cedb7700eea77ad39f5f6cf", "is_reserved": 0, "lon": -77.02377516666667, "is_disabled": 0, "fusion_lat": 0.0, "lat": 38.9168255, "bike_id": "8361cb2d2cedb7700eea77ad39f5f6cf", "fusion_lon": 0.0}, {"rental_uris": {"ios": "https://dc.lft.to/lastmile_qr_scan", "android": "https://dc.lft.to/lastmile_qr_scan"}, "type": "electric_scooter", "name": "b879f7f4f67cecbfbebed7b6d41a858b", "is_reserved": 0, "lon": -77.04152983333333, "is_disabled": 0, "fusion_lat": 0.0, "lat": 38.90719333333333, "bike_id": "b879f7f4f67cecbfbebed7b6d41a858b", "fusion_lon": 0.0}, {"rental_uris": {"ios": "https://dc.lft.to/lastmile_qr_scan", "android": "https://dc.lft.to/lastmile_qr_scan"}, "type": "electric_scooter", "name": "935a2644bcb6a82d8e400112153b56f2", "is_reserved": 0, "lon": -77.03217616666667, "is_disabled": 0, "fusion_lat": 0.0, "lat": 38.9013915, "bike_id": "935a2644bcb6a82d8e400112153b56f2", "fusion_lon": 0.0}, {"rental_uris": {"ios": "https://dc.lft.to/lastmile_qr_scan", "android": "https://dc.lft.to/lastmile_qr_scan"}, "type": "electric_scooter", "name": "f0f32bac6302075f9ec9863a700a0193", "is_reserved": 0, "lon": -77.02425533333333, "is_disabled": 0, "fusion_lat": 0.0, "lat": 38.89916916666667, "bike_id": "f0f32bac6302075f9ec9863a700a0193", "fusion_lon": 0.0}, {"rental_uris": {"ios": "https://dc.lft.to/lastmile_qr_scan", "android": "https://dc.lft.to/lastmile_qr_scan"}, "type": "electric_scooter", "name": "58cee9509bf60652988b925ad8503eed", "is_reserved": 0, "lon": -77.033512, "is_disabled": 0, "fusion_lat": 0.0, "lat": 38.92236316666666, "bike_id": "58cee9509bf60652988b925ad8503eed", "fusion_lon": 0.0}, {"rental_uris": {"ios": "https://dc.lft.to/lastmile_qr_scan", "android": "https://dc.lft.to/lastmile_qr_scan"}, "type": "electric_scooter", "name": "972925a36a117e99cb34427d77005ed8", "is_reserved": 0, "lon": -76.988292, "is_disabled": 0, "fusion_lat": 0.0, "lat": 38.894887833333335, "bike_id": "972925a36a117e99cb34427d77005ed8", "fusion_lon": 0.0}, {"rental_uris": {"ios": "https://dc.lft.to/lastmile_qr_scan", "android": "https://dc.lft.to/lastmile_qr_scan"}, "type": "electric_scooter", "name": "8589794dd90c1068c44ed5d429ebbfbb", "is_reserved": 0, "lon": -77.01776683333334, "is_disabled": 0, "fusion_lat": 0.0, "lat": 38.88317583333333, "bike_id": "8589794dd90c1068c44ed5d429ebbfbb", "fusion_lon": 0.0}, {"rental_uris": {"ios": "https://dc.lft.to/lastmile_qr_scan", "android": "https://dc.lft.to/lastmile_qr_scan"}, "type": "electric_scooter", "name": "2146a2705350638be209d582fac57202", "is_reserved": 0, "lon": -77.03444633333334, "is_disabled": 0, "fusion_lat": 0.0, "lat": 38.905664, "bike_id": "2146a2705350638be209d582fac57202", "fusion_lon": 0.0}, {"rental_uris": {"ios": "https://dc.lft.to/lastmile_qr_scan", "android": "https://dc.lft.to/lastmile_qr_scan"}, "type": "electric_bike", "name": "c66a6bd5f45f4fee730ecaac2da26301", "is_reserved": 0, "lon": -76.98763716666667, "is_disabled": 0, "fusion_lat": 0.0, "lat": 38.85768933333333, "bike_id": "c66a6bd5f45f4fee730ecaac2da26301", "fusion_lon": 0.0}, {"rental_uris": {"ios": "https://dc.lft.to/lastmile_qr_scan", "android": "https://dc.lft.to/lastmile_qr_scan"}, "type": "electric_scooter", "name": "dd8ef9e2ee201352fbe640a7c404f8ab", "is_reserved": 0, "lon": -77.03790366666667, "is_disabled": 0, "fusion_lat": 0.0, "lat": 38.915367833333335, "bike_id": "dd8ef9e2ee201352fbe640a7c404f8ab", "fusion_lon": 0.0}, {"rental_uris": {"ios": "https://dc.lft.to/lastmile_qr_scan", "android": "https://dc.lft.to/lastmile_qr_scan"}, "type": "electric_bike", "name": "ac8c61d1af5aab22e73c1125661be535", "is_reserved": 0, "lon": -77.00827166666667, "is_disabled": 0, "fusion_lat": 0.0, "lat": 38.949203, "bike_id": "ac8c61d1af5aab22e73c1125661be535", "fusion_lon": 0.0}, {"rental_uris": {"ios": "https://dc.lft.to/lastmile_qr_scan", "android": "https://dc.lft.to/lastmile_qr_scan"}, "type": "electric_scooter", "name": "9fda0e5f80782b84039bdbd5fc518ec5", "is_reserved": 0, "lon": -76.98070166666666, "is_disabled": 0, "fusion_lat": 0.0, "lat": 38.901776166666664, "bike_id": "9fda0e5f80782b84039bdbd5fc518ec5", "fusion_lon": 0.0}, {"rental_uris": {"ios": "https://dc.lft.to/lastmile_qr_scan", "android": "https://dc.lft.to/lastmile_qr_scan"}, "type": "electric_scooter", "name": "09e1fb30c90b261503ec47ecb7488402", "is_reserved": 0, "lon": -77.02304866666667, "is_disabled": 0, "fusion_lat": 0.0, "lat": 38.92860183333333, "bike_id": "09e1fb30c90b261503ec47ecb7488402", "fusion_lon": 0.0}, {"rental_uris": {"ios": "https://dc.lft.to/lastmile_qr_scan", "android": "https://dc.lft.to/lastmile_qr_scan"}, "type": "electric_scooter", "name": "16175c85d3ceb1fefbc8c35d932c8533", "is_reserved": 0, "lon": -77.0177075, "is_disabled": 0, "fusion_lat": 0.0, "lat": 38.90080433333333, "bike_id": "16175c85d3ceb1fefbc8c35d932c8533", "fusion_lon": 0.0}, {"rental_uris": {"ios": "https://dc.lft.to/lastmile_qr_scan", "android": "https://dc.lft.to/lastmile_qr_scan"}, "type": "electric_scooter", "name": "2db4ffdc416afc539791bec74cfc0875", "is_reserved": 0, "lon": -77.0375075, "is_disabled": 0, "fusion_lat": 0.0, "lat": 38.93194166666667, "bike_id": "2db4ffdc416afc539791bec74cfc0875", "fusion_lon": 0.0}, {"rental_uris": {"ios": "https://dc.lft.to/lastmile_qr_scan", "android": "https://dc.lft.to/lastmile_qr_scan"}, "type": "electric_scooter", "name": "a92895919fb102c2229fe2fb15e382de", "is_reserved": 0, "lon": -77.02208483333334, "is_disabled": 0, "fusion_lat": 0.0, "lat": 38.92050733333333, "bike_id": "a92895919fb102c2229fe2fb15e382de", "fusion_lon": 0.0}, {"rental_uris": {"ios": "https://dc.lft.to/lastmile_qr_scan", "android": "https://dc.lft.to/lastmile_qr_scan"}, "type": "electric_scooter", "name": "efbc6fb009bcc40751b5736bf19da577", "is_reserved": 0, "lon": -77.03853966666667, "is_disabled": 0, "fusion_lat": 0.0, "lat": 38.91641416666667, "bike_id": "efbc6fb009bcc40751b5736bf19da577", "fusion_lon": 0.0}, {"rental_uris": {"ios": "https://dc.lft.to/lastmile_qr_scan", "android": "https://dc.lft.to/lastmile_qr_scan"}, "type": "electric_scooter", "name": "79a5a6e8795cf93a91709a68895b32d5", "is_reserved": 0, "lon": -76.994671, "is_disabled": 0, "fusion_lat": 0.0, "lat": 38.9054355, "bike_id": "79a5a6e8795cf93a91709a68895b32d5", "fusion_lon": 0.0}, {"rental_uris": {"ios": "https://dc.lft.to/lastmile_qr_scan", "android": "https://dc.lft.to/lastmile_qr_scan"}, "type": "electric_scooter", "name": "51b3eab2e14cbebebbce41f9eb9869f4", "is_reserved": 0, "lon": -77.00396766666667, "is_disabled": 0, "fusion_lat": 0.0, "lat": 38.9055885, "bike_id": "51b3eab2e14cbebebbce41f9eb9869f4", "fusion_lon": 0.0}, {"rental_uris": {"ios": "https://dc.lft.to/lastmile_qr_scan", "android": "https://dc.lft.to/lastmile_qr_scan"}, "type": "electric_scooter", "name": "48d4112b037503ca9048e9a76d90ca31", "is_reserved": 0, "lon": -77.02374016666667, "is_disabled": 0, "fusion_lat": 0.0, "lat": 38.91684716666666, "bike_id": "48d4112b037503ca9048e9a76d90ca31", "fusion_lon": 0.0}, {"rental_uris": {"ios": "https://dc.lft.to/lastmile_qr_scan", "android": "https://dc.lft.to/lastmile_qr_scan"}, "type": "electric_scooter", "name": "133f20d204cc1c618cd0cd9146a85d4c", "is_reserved": 0, "lon": -76.94196416666666, "is_disabled": 0, "fusion_lat": 0.0, "lat": 38.90223983333333, "bike_id": "133f20d204cc1c618cd0cd9146a85d4c", "fusion_lon": 0.0}, {"rental_uris": {"ios": "https://dc.lft.to/lastmile_qr_scan", "android": "https://dc.lft.to/lastmile_qr_scan"}, "type": "electric_scooter", "name": "86ed68c05803e8c5d1aafefc055f7a1b", "is_reserved": 0, "lon": -77.07552533333333, "is_disabled": 0, "fusion_lat": 0.0, "lat": 38.920852333333336, "bike_id": "86ed68c05803e8c5d1aafefc055f7a1b", "fusion_lon": 0.0}, {"rental_uris": {"ios": "https://dc.lft.to/lastmile_qr_scan", "android": "https://dc.lft.to/lastmile_qr_scan"}, "type": "electric_scooter", "name": "d3ba7ae4e244ebfae205b25a82b5650b", "is_reserved": 0, "lon": -77.03816283333333, "is_disabled": 0, "fusion_lat": 0.0, "lat": 38.915554666666665, "bike_id": "d3ba7ae4e244ebfae205b25a82b5650b", "fusion_lon": 0.0}, {"rental_uris": {"ios": "https://dc.lft.to/lastmile_qr_scan", "android": "https://dc.lft.to/lastmile_qr_scan"}, "type": "electric_bike", "name": "1b94a49a2acd36d40b304d510549b34d", "is_reserved": 0, "lon": -77.0701615, "is_disabled": 0, "fusion_lat": 0.0, "lat": 38.84107433333333, "bike_id": "1b94a49a2acd36d40b304d510549b34d", "fusion_lon": 0.0}, {"rental_uris": {"ios": "https://dc.lft.to/lastmile_qr_scan", "android": "https://dc.lft.to/lastmile_qr_scan"}, "type": "electric_scooter", "name": "99cd2944ad486df4ab67c4acee845fb5", "is_reserved": 0, "lon": -77.053234, "is_disabled": 0, "fusion_lat": 0.0, "lat": 38.90264116666667, "bike_id": "99cd2944ad486df4ab67c4acee845fb5", "fusion_lon": 0.0}, {"rental_uris": {"ios": "https://dc.lft.to/lastmile_qr_scan", "android": "https://dc.lft.to/lastmile_qr_scan"}, "type": "electric_scooter", "name": "3dbbcd463e161e702cc6c05314d00197", "is_reserved": 0, "lon": -77.0440615, "is_disabled": 0, "fusion_lat": 0.0, "lat": 38.92946083333333, "bike_id": "3dbbcd463e161e702cc6c05314d00197", "fusion_lon": 0.0}, {"rental_uris": {"ios": "https://dc.lft.to/lastmile_qr_scan", "android": "https://dc.lft.to/lastmile_qr_scan"}, "type": "electric_scooter", "name": "247e38cc2ca384715cf08d979e46b6c0", "is_reserved": 0, "lon": -77.0241235, "is_disabled": 0, "fusion_lat": 0.0, "lat": 38.90958466666667, "bike_id": "247e38cc2ca384715cf08d979e46b6c0", "fusion_lon": 0.0}, {"rental_uris": {"ios": "https://dc.lft.to/lastmile_qr_scan", "android": "https://dc.lft.to/lastmile_qr_scan"}, "type": "electric_scooter", "name": "9e7219f844562318dfc292002ec845f9", "is_reserved": 0, "lon": -77.065999, "is_disabled": 0, "fusion_lat": 0.0, "lat": 38.90519333333334, "bike_id": "9e7219f844562318dfc292002ec845f9", "fusion_lon": 0.0}, {"rental_uris": {"ios": "https://dc.lft.to/lastmile_qr_scan", "android": "https://dc.lft.to/lastmile_qr_scan"}, "type": "electric_scooter", "name": "1c5d88b2e23358d722757f018f3274c0", "is_reserved": 0, "lon": -76.9438505, "is_disabled": 0, "fusion_lat": 0.0, "lat": 38.89109916666666, "bike_id": "1c5d88b2e23358d722757f018f3274c0", "fusion_lon": 0.0}, {"rental_uris": {"ios": "https://dc.lft.to/lastmile_qr_scan", "android": "https://dc.lft.to/lastmile_qr_scan"}, "type": "electric_scooter", "name": "7ef8335285b3f3882e173228d9ededb7", "is_reserved": 0, "lon": -76.96565383333333, "is_disabled": 0, "fusion_lat": 0.0, "lat": 38.87610316666667, "bike_id": "7ef8335285b3f3882e173228d9ededb7", "fusion_lon": 0.0}, {"rental_uris": {"ios": "https://dc.lft.to/lastmile_qr_scan", "android": "https://dc.lft.to/lastmile_qr_scan"}, "type": "electric_scooter", "name": "221b55974f5faf1135e5942f516b1719", "is_reserved": 0, "lon": -77.03243933333333, "is_disabled": 0, "fusion_lat": 0.0, "lat": 38.91983416666667, "bike_id": "221b55974f5faf1135e5942f516b1719", "fusion_lon": 0.0}, {"rental_uris": {"ios": "https://dc.lft.to/lastmile_qr_scan", "android": "https://dc.lft.to/lastmile_qr_scan"}, "type": "electric_scooter", "name": "9c730cb77f6e527b3d874720abcdd0a5", "is_reserved": 0, "lon": -77.04122283333334, "is_disabled": 0, "fusion_lat": 0.0, "lat": 38.933629333333336, "bike_id": "9c730cb77f6e527b3d874720abcdd0a5", "fusion_lon": 0.0}, {"rental_uris": {"ios": "https://dc.lft.to/lastmile_qr_scan", "android": "https://dc.lft.to/lastmile_qr_scan"}, "type": "electric_scooter", "name": "a431bf285abdc4313e606791f1fd2ba9", "is_reserved": 0, "lon": -77.0387385, "is_disabled": 0, "fusion_lat": 0.0, "lat": 38.911880333333336, "bike_id": "a431bf285abdc4313e606791f1fd2ba9", "fusion_lon": 0.0}, {"rental_uris": {"ios": "https://dc.lft.to/lastmile_qr_scan", "android": "https://dc.lft.to/lastmile_qr_scan"}, "type": "electric_scooter", "name": "08b3d19d92c230a7b5e3905f1ca1da88", "is_reserved": 0, "lon": -77.00345433333334, "is_disabled": 0, "fusion_lat": 0.0, "lat": 38.899292, "bike_id": "08b3d19d92c230a7b5e3905f1ca1da88", "fusion_lon": 0.0}, {"rental_uris": {"ios": "https://dc.lft.to/lastmile_qr_scan", "android": "https://dc.lft.to/lastmile_qr_scan"}, "type": "electric_scooter", "name": "11b9bcf0a358ce832671fb7decac8d90", "is_reserved": 0, "lon": -77.021081, "is_disabled": 0, "fusion_lat": 0.0, "lat": 38.927095333333334, "bike_id": "11b9bcf0a358ce832671fb7decac8d90", "fusion_lon": 0.0}, {"rental_uris": {"ios": "https://dc.lft.to/lastmile_qr_scan", "android": "https://dc.lft.to/lastmile_qr_scan"}, "type": "electric_scooter", "name": "ae199a3706843bb6476d0e075d51586d", "is_reserved": 0, "lon": -77.043634, "is_disabled": 0, "fusion_lat": 0.0, "lat": 38.92672533333333, "bike_id": "ae199a3706843bb6476d0e075d51586d", "fusion_lon": 0.0}, {"rental_uris": {"ios": "https://dc.lft.to/lastmile_qr_scan", "android": "https://dc.lft.to/lastmile_qr_scan"}, "type": "electric_bike", "name": "c603bcce74bd718bf5b775312218857f", "is_reserved": 0, "lon": -76.91714616666667, "is_disabled": 0, "fusion_lat": 0.0, "lat": 38.880266666666664, "bike_id": "c603bcce74bd718bf5b775312218857f", "fusion_lon": 0.0}, {"rental_uris": {"ios": "https://dc.lft.to/lastmile_qr_scan", "android": "https://dc.lft.to/lastmile_qr_scan"}, "type": "electric_scooter", "name": "9453167e7a29c58cb097892a5b213f92", "is_reserved": 0, "lon": -77.02373516666667, "is_disabled": 0, "fusion_lat": 0.0, "lat": 38.916720166666664, "bike_id": "9453167e7a29c58cb097892a5b213f92", "fusion_lon": 0.0}, {"rental_uris": {"ios": "https://dc.lft.to/lastmile_qr_scan", "android": "https://dc.lft.to/lastmile_qr_scan"}, "type": "electric_scooter", "name": "5fcbfb516f9766a0a387e59c8ec11b83", "is_reserved": 0, "lon": -76.98073666666667, "is_disabled": 0, "fusion_lat": 0.0, "lat": 38.901649166666665, "bike_id": "5fcbfb516f9766a0a387e59c8ec11b83", "fusion_lon": 0.0}, {"rental_uris": {"ios": "https://dc.lft.to/lastmile_qr_scan", "android": "https://dc.lft.to/lastmile_qr_scan"}, "type": "electric_scooter", "name": "b7fb19e582ed8ce7cf61e7e66a86e70c", "is_reserved": 0, "lon": -77.02041533333333, "is_disabled": 0, "fusion_lat": 0.0, "lat": 38.9224425, "bike_id": "b7fb19e582ed8ce7cf61e7e66a86e70c", "fusion_lon": 0.0}, {"rental_uris": {"ios": "https://dc.lft.to/lastmile_qr_scan", "android": "https://dc.lft.to/lastmile_qr_scan"}, "type": "electric_scooter", "name": "2464759d58b182562342a11c69d26b7f", "is_reserved": 0, "lon": -77.00097716666667, "is_disabled": 0, "fusion_lat": 0.0, "lat": 38.881207, "bike_id": "2464759d58b182562342a11c69d26b7f", "fusion_lon": 0.0}, {"rental_uris": {"ios": "https://dc.lft.to/lastmile_qr_scan", "android": "https://dc.lft.to/lastmile_qr_scan"}, "type": "electric_scooter", "name": "6c70fc7572b4873c9a25f416c72decd3", "is_reserved": 0, "lon": -77.019801, "is_disabled": 0, "fusion_lat": 0.0, "lat": 38.89936216666667, "bike_id": "6c70fc7572b4873c9a25f416c72decd3", "fusion_lon": 0.0}, {"rental_uris": {"ios": "https://dc.lft.to/lastmile_qr_scan", "android": "https://dc.lft.to/lastmile_qr_scan"}, "type": "electric_scooter", "name": "8fd6d5d1307fd5228999956be71f7386", "is_reserved": 0, "lon": -77.034394, "is_disabled": 0, "fusion_lat": 0.0, "lat": 38.9097385, "bike_id": "8fd6d5d1307fd5228999956be71f7386", "fusion_lon": 0.0}, {"rental_uris": {"ios": "https://dc.lft.to/lastmile_qr_scan", "android": "https://dc.lft.to/lastmile_qr_scan"}, "type": "electric_bike", "name": "5b3800f3cd5156a0991f70fe1b29c423", "is_reserved": 0, "lon": -77.020079, "is_disabled": 0, "fusion_lat": 0.0, "lat": 38.9643755, "bike_id": "5b3800f3cd5156a0991f70fe1b29c423", "fusion_lon": 0.0}, {"rental_uris": {"ios": "https://dc.lft.to/lastmile_qr_scan", "android": "https://dc.lft.to/lastmile_qr_scan"}, "type": "electric_scooter", "name": "f69b15be1e672d2c929ff1f9e380d2df", "is_reserved": 0, "lon": -77.01854866666666, "is_disabled": 0, "fusion_lat": 0.0, "lat": 38.9489165, "bike_id": "f69b15be1e672d2c929ff1f9e380d2df", "fusion_lon": 0.0}, {"rental_uris": {"ios": "https://dc.lft.to/lastmile_qr_scan", "android": "https://dc.lft.to/lastmile_qr_scan"}, "type": "electric_scooter", "name": "cdd39e6442461ef62a6828599bb7ba36", "is_reserved": 0, "lon": -77.02334533333334, "is_disabled": 0, "fusion_lat": 0.0, "lat": 38.9229725, "bike_id": "cdd39e6442461ef62a6828599bb7ba36", "fusion_lon": 0.0}, {"rental_uris": {"ios": "https://dc.lft.to/lastmile_qr_scan", "android": "https://dc.lft.to/lastmile_qr_scan"}, "type": "electric_scooter", "name": "eeacbe38b16c99468f40d465ce144df0", "is_reserved": 0, "lon": -77.03014766666666, "is_disabled": 0, "fusion_lat": 0.0, "lat": 38.884049833333336, "bike_id": "eeacbe38b16c99468f40d465ce144df0", "fusion_lon": 0.0}, {"rental_uris": {"ios": "https://dc.lft.to/lastmile_qr_scan", "android": "https://dc.lft.to/lastmile_qr_scan"}, "type": "electric_scooter", "name": "019d665c4ec71a07f8c7edf5224cf76a", "is_reserved": 0, "lon": -77.0421095, "is_disabled": 0, "fusion_lat": 0.0, "lat": 38.921277333333336, "bike_id": "019d665c4ec71a07f8c7edf5224cf76a", "fusion_lon": 0.0}, {"rental_uris": {"ios": "https://dc.lft.to/lastmile_qr_scan", "android": "https://dc.lft.to/lastmile_qr_scan"}, "type": "electric_scooter", "name": "a24c72bb1b05b118a749a6d18717b48e", "is_reserved": 0, "lon": -76.9825995, "is_disabled": 0, "fusion_lat": 0.0, "lat": 38.8662775, "bike_id": "a24c72bb1b05b118a749a6d18717b48e", "fusion_lon": 0.0}, {"rental_uris": {"ios": "https://dc.lft.to/lastmile_qr_scan", "android": "https://dc.lft.to/lastmile_qr_scan"}, "type": "electric_bike", "name": "dd966aa3bfa0ea12df34d6804a169fa5", "is_reserved": 0, "lon": -77.07942766666666, "is_disabled": 0, "fusion_lat": 0.0, "lat": 38.848956666666666, "bike_id": "dd966aa3bfa0ea12df34d6804a169fa5", "fusion_lon": 0.0}, {"rental_uris": {"ios": "https://dc.lft.to/lastmile_qr_scan", "android": "https://dc.lft.to/lastmile_qr_scan"}, "type": "electric_scooter", "name": "d91dc19215d159d94e75c49858d7703d", "is_reserved": 0, "lon": -77.03654266666666, "is_disabled": 0, "fusion_lat": 0.0, "lat": 38.92282, "bike_id": "d91dc19215d159d94e75c49858d7703d", "fusion_lon": 0.0}, {"rental_uris": {"ios": "https://dc.lft.to/lastmile_qr_scan", "android": "https://dc.lft.to/lastmile_qr_scan"}, "type": "electric_scooter", "name": "4941e9e7f38a882b09931574ea0e7aec", "is_reserved": 0, "lon": -77.04147833333333, "is_disabled": 0, "fusion_lat": 0.0, "lat": 38.90719383333333, "bike_id": "4941e9e7f38a882b09931574ea0e7aec", "fusion_lon": 0.0}, {"rental_uris": {"ios": "https://dc.lft.to/lastmile_qr_scan", "android": "https://dc.lft.to/lastmile_qr_scan"}, "type": "electric_scooter", "name": "44c20cba50c2832bbb685f02f7bedc2b", "is_reserved": 0, "lon": -77.046199, "is_disabled": 0, "fusion_lat": 0.0, "lat": 38.89740416666667, "bike_id": "44c20cba50c2832bbb685f02f7bedc2b", "fusion_lon": 0.0}, {"rental_uris": {"ios": "https://dc.lft.to/lastmile_qr_scan", "android": "https://dc.lft.to/lastmile_qr_scan"}, "type": "electric_bike", "name": "bfcfa7b8fd8b2da28201775d617acb93", "is_reserved": 0, "lon": -77.12649366666666, "is_disabled": 0, "fusion_lat": 0.0, "lat": 38.819049, "bike_id": "bfcfa7b8fd8b2da28201775d617acb93", "fusion_lon": 0.0}, {"rental_uris": {"ios": "https://dc.lft.to/lastmile_qr_scan", "android": "https://dc.lft.to/lastmile_qr_scan"}, "type": "electric_scooter", "name": "9b137c780bf1d7044a977d4c465030a3", "is_reserved": 0, "lon": -76.92826783333334, "is_disabled": 0, "fusion_lat": 0.0, "lat": 38.901789666666666, "bike_id": "9b137c780bf1d7044a977d4c465030a3", "fusion_lon": 0.0}, {"rental_uris": {"ios": "https://dc.lft.to/lastmile_qr_scan", "android": "https://dc.lft.to/lastmile_qr_scan"}, "type": "electric_scooter", "name": "d7e20cb45da31c66a3ae83af51af7d9a", "is_reserved": 0, "lon": -77.024764, "is_disabled": 0, "fusion_lat": 0.0, "lat": 38.91812266666667, "bike_id": "d7e20cb45da31c66a3ae83af51af7d9a", "fusion_lon": 0.0}, {"rental_uris": {"ios": "https://dc.lft.to/lastmile_qr_scan", "android": "https://dc.lft.to/lastmile_qr_scan"}, "type": "electric_scooter", "name": "221877ad190467ccebbaed2f9ebd1657", "is_reserved": 0, "lon": -77.0498855, "is_disabled": 0, "fusion_lat": 0.0, "lat": 38.9013255, "bike_id": "221877ad190467ccebbaed2f9ebd1657", "fusion_lon": 0.0}, {"rental_uris": {"ios": "https://dc.lft.to/lastmile_qr_scan", "android": "https://dc.lft.to/lastmile_qr_scan"}, "type": "electric_scooter", "name": "dce07e0e2bb001dd96b7ac0a54f0fa5f", "is_reserved": 0, "lon": -77.01396483333333, "is_disabled": 0, "fusion_lat": 0.0, "lat": 38.894905333333334, "bike_id": "dce07e0e2bb001dd96b7ac0a54f0fa5f", "fusion_lon": 0.0}, {"rental_uris": {"ios": "https://dc.lft.to/lastmile_qr_scan", "android": "https://dc.lft.to/lastmile_qr_scan"}, "type": "electric_scooter", "name": "592b135ca25ee24e808c81b3c0a85e2f", "is_reserved": 0, "lon": -77.063713, "is_disabled": 0, "fusion_lat": 0.0, "lat": 38.935574833333334, "bike_id": "592b135ca25ee24e808c81b3c0a85e2f", "fusion_lon": 0.0}, {"rental_uris": {"ios": "https://dc.lft.to/lastmile_qr_scan", "android": "https://dc.lft.to/lastmile_qr_scan"}, "type": "electric_scooter", "name": "13dc3ac6d6465bb544b5e367186c54bf", "is_reserved": 0, "lon": -77.03802983333334, "is_disabled": 0, "fusion_lat": 0.0, "lat": 38.93225, "bike_id": "13dc3ac6d6465bb544b5e367186c54bf", "fusion_lon": 0.0}, {"rental_uris": {"ios": "https://dc.lft.to/lastmile_qr_scan", "android": "https://dc.lft.to/lastmile_qr_scan"}, "type": "electric_scooter", "name": "c1ad319941374d4f139b90f610de6fa4", "is_reserved": 0, "lon": -77.03355433333333, "is_disabled": 0, "fusion_lat": 0.0, "lat": 38.9214865, "bike_id": "c1ad319941374d4f139b90f610de6fa4", "fusion_lon": 0.0}, {"rental_uris": {"ios": "https://dc.lft.to/lastmile_qr_scan", "android": "https://dc.lft.to/lastmile_qr_scan"},