{"data": {"bikes": [{"name": "278f09a4f83b075e128a74eb9be2c4a0", "is_disabled": 0, "lat": 38.8982125, "rental_uris": {"ios": "https://dc.lft.to/lastmile_qr_scan", "android": "https://dc.lft.to/lastmile_qr_scan"}, "bike_id": "278f09a4f83b075e128a74eb9be2c4a0", "type": "electric_scooter", "lon": -77.0460725, "is_reserved": 0, "fusion_lat": 0.0, "fusion_lon": 0.0}, {"name": "3228bfe358121a006bf2d88f5ba8ab99", "is_disabled": 0, "lat": 38.91538233333333, "rental_uris": {"ios": "https://dc.lft.to/lastmile_qr_scan", "android": "https://dc.lft.to/lastmile_qr_scan"}, "bike_id": "3228bfe358121a006bf2d88f5ba8ab99", "type": "electric_scooter", "lon": -77.03207216666667, "is_reserved": 0, "fusion_lat": 0.0, "fusion_lon": 0.0}, {"name": "c7e53b903de707327880436d14a1944d", "is_disabled": 0, "lat": 38.88823033333333, "rental_uris": {"ios": "https://dc.lft.to/lastmile_qr_scan", "android": "https://dc.lft.to/lastmile_qr_scan"}, "bike_id": "c7e53b903de707327880436d14a1944d", "type": "electric_scooter", "lon": -76.97720483333333, "is_reserved": 0, "fusion_lat": 0.0, "fusion_lon": 0.0}, {"name": "95ad084a24195be9b78fae6ed347130d", "is_disabled": 0, "lat": 38.90082133333333, "rental_uris": {"ios": "https://dc.lft.to/lastmile_qr_scan", "android": "https://dc.lft.to/lastmile_qr_scan"}, "bike_id": "95ad084a24195be9b78fae6ed347130d", "type": "electric_scooter", "lon": -77.01369633333333, "is_reserved": 0, "fusion_lat": 0.0, "fusion_lon": 0.0}, {"name": "d92d5b58075d623c45b072daa953f3d4", "is_disabled": 0, "lat": 38.9256325, "rental_uris": {"ios": "https://dc.lft.to/lastmile_qr_scan", "android": "https://dc.lft.to/lastmile_qr_scan"}, "bike_id": "d92d5b58075d623c45b072daa953f3d4", "type": "electric_scooter", "lon": -77.0769125, "is_reserved": 0, "fusion_lat": 0.0, "fusion_lon": 0.0}, {"name": "bedf4311bb990c513c33cfa89cec8941", "is_disabled": 0, "lat": 38.91259383333333, "rental_uris": {"ios": "https://dc.lft.to/lastmile_qr_scan", "android": "https://dc.lft.to/lastmile_qr_scan"}, "bike_id": "bedf4311bb990c513c33cfa89cec8941", "type": "electric_scooter", "lon": -77.0315995, "is_reserved": 0, "fusion_lat": 0.0, "fusion_lon": 0.0}, {"name": "198513d6fc3188d42ed3146f891893d5", "is_disabled": 0, "lat": 38.888214, "rental_uris": {"ios": "https://dc.lft.to/lastmile_qr_scan", "android": "https://dc.lft.to/lastmile_qr_scan"}, "bike_id": "198513d6fc3188d42ed3146f891893d5", "type": "electric_scooter", "lon": -76.97717933333334, "is_reserved": 0, "fusion_lat": 0.0, "fusion_lon": 0.0}, {"name": "c361888cfac825853d0ecfb256727b72", "is_disabled": 0, "lat": 38.94265466666667, "rental_uris": {"ios": "https://dc.lft.to/lastmile_qr_scan", "android": "https://dc.lft.to/lastmile_qr_scan"}, "bike_id": "c361888cfac825853d0ecfb256727b72", "type": "electric_bike", "lon": -77.02843916666667, "is_reserved": 0, "fusion_lat": 0.0, "fusion_lon": 0.0}, {"name": "d42e8cbb6ce70b6511e169e0e199a56e", "is_disabled": 0, "lat": 38.906362666666666, "rental_uris": {"ios": "https://dc.lft.to/lastmile_qr_scan", "android": "https://dc.lft.to/lastmile_qr_scan"}, "bike_id": "d42e8cbb6ce70b6511e169e0e199a56e", "type": "electric_scooter", "lon": -77.03603416666667, "is_reserved": 0, "fusion_lat": 0.0, "fusion_lon": 0.0}, {"name": "2024c2a16b6307705f79bd81a33f3c7f", "is_disabled": 0, "lat": 38.8988735, "rental_uris": {"ios": "https://dc.lft.to/lastmile_qr_scan", "android": "https://dc.lft.to/lastmile_qr_scan"}, "bike_id": "2024c2a16b6307705f79bd81a33f3c7f", "type": "electric_scooter", "lon": -76.99359433333333, "is_reserved": 0, "fusion_lat": 0.0, "fusion_lon": 0.0}, {"name": "d75f2dd7e15a19569bd61ef00148f489", "is_disabled": 0, "lat": 38.9170845, "rental_uris": {"ios": "https://dc.lft.to/lastmile_qr_scan", "android": "https://dc.lft.to/lastmile_qr_scan"}, "bike_id": "d75f2dd7e15a19569bd61ef00148f489", "type": "electric_scooter", "lon": -77.03119733333334, "is_reserved": 0, "fusion_lat": 0.0, "fusion_lon": 0.0}, {"name": "9d3a4c64e15869119d3664a14e720c8f", "is_disabled": 0, "lat": 38.88513616666667, "rental_uris": {"ios": "https://dc.lft.to/lastmile_qr_scan", "android": "https://dc.lft.to/lastmile_qr_scan"}, "bike_id": "9d3a4c64e15869119d3664a14e720c8f", "type": "electric_scooter", "lon": -77.01484183333334, "is_reserved": 0, "fusion_lat": 0.0, "fusion_lon": 0.0}, {"name": "5fe54fb742bc6c69ae538219415ff448", "is_disabled": 0, "lat": 38.911503333333336, "rental_uris": {"ios": "https://dc.lft.to/lastmile_qr_scan", "android": "https://dc.lft.to/lastmile_qr_scan"}, "bike_id": "5fe54fb742bc6c69ae538219415ff448", "type": "electric_scooter", "lon": -77.08750683333334, "is_reserved": 0, "fusion_lat": 0.0, "fusion_lon": 0.0}, {"name": "0f968d53a8c364e358d4eea04bd12efc", "is_disabled": 0, "lat": 38.8954405, "rental_uris": {"ios": "https://dc.lft.to/lastmile_qr_scan", "android": "https://dc.lft.to/lastmile_qr_scan"}, "bike_id": "0f968d53a8c364e358d4eea04bd12efc", "type": "electric_scooter", "lon": -76.9834185, "is_reserved": 0, "fusion_lat": 0.0, "fusion_lon": 0.0}, {"name": "28c0592880411d1a87f186c585fc18c7", "is_disabled": 0, "lat": 38.8877335, "rental_uris": {"ios": "https://dc.lft.to/lastmile_qr_scan", "android": "https://dc.lft.to/lastmile_qr_scan"}, "bike_id": "28c0592880411d1a87f186c585fc18c7", "type": "electric_scooter", "lon": -77.02946616666667, "is_reserved": 0, "fusion_lat": 0.0, "fusion_lon": 0.0}, {"name": "b2ac6c10bb03568189aef1636fd5fb06", "is_disabled": 0, "lat": 38.886487833333334, "rental_uris": {"ios": "https://dc.lft.to/lastmile_qr_scan", "android": "https://dc.lft.to/lastmile_qr_scan"}, "bike_id": "b2ac6c10bb03568189aef1636fd5fb06", "type": "electric_scooter", "lon": -77.00199483333333, "is_reserved": 0, "fusion_lat": 0.0, "fusion_lon": 0.0}, {"name": "fa960a0a6e6b39b3859b89cc25585df5", "is_disabled": 0, "lat": 38.8737865, "rental_uris": {"ios": "https://dc.lft.to/lastmile_qr_scan", "android": "https://dc.lft.to/lastmile_qr_scan"}, "bike_id": "fa960a0a6e6b39b3859b89cc25585df5", "type": "electric_scooter", "lon": -77.000646, "is_reserved": 0, "fusion_lat": 0.0, "fusion_lon": 0.0}, {"name": "0fc02d9f3a390a602ba68a6913c26d02", "is_disabled": 0, "lat": 38.909402666666665, "rental_uris": {"ios": "https://dc.lft.to/lastmile_qr_scan", "android": "https://dc.lft.to/lastmile_qr_scan"}, "bike_id": "0fc02d9f3a390a602ba68a6913c26d02", "type": "electric_scooter", "lon": -77.03197816666666, "is_reserved": 0, "fusion_lat": 0.0, "fusion_lon": 0.0}, {"name": "cca52d617fd86ace8cd166cfa441e178", "is_disabled": 0, "lat": 38.920405833333334, "rental_uris": {"ios": "https://dc.lft.to/lastmile_qr_scan", "android": "https://dc.lft.to/lastmile_qr_scan"}, "bike_id": "cca52d617fd86ace8cd166cfa441e178", "type": "electric_scooter", "lon": -77.01681966666666, "is_reserved": 0, "fusion_lat": 0.0, "fusion_lon": 0.0}, {"name": "0d54a6a841254ddca609d46acf332ed9", "is_disabled": 0, "lat": 38.900876333333336, "rental_uris": {"ios": "https://dc.lft.to/lastmile_qr_scan", "android": "https://dc.lft.to/lastmile_qr_scan"}, "bike_id": "0d54a6a841254ddca609d46acf332ed9", "type": "electric_scooter", "lon": -77.04924966666667, "is_reserved": 0, "fusion_lat": 0.0, "fusion_lon": 0.0}, {"name": "d5901922e21957f0cf4c8777e2a7547b", "is_disabled": 0, "lat": 38.90948383333333, "rental_uris": {"ios": "https://dc.lft.to/lastmile_qr_scan", "android": "https://dc.lft.to/lastmile_qr_scan"}, "bike_id": "d5901922e21957f0cf4c8777e2a7547b", "type": "electric_scooter", "lon": -77.0317915, "is_reserved": 0, "fusion_lat": 0.0, "fusion_lon": 0.0}, {"name": "eeb15de17b6b92297431eaff63fdf10e", "is_disabled": 0, "lat": 38.926371, "rental_uris": {"ios": "https://dc.lft.to/lastmile_qr_scan", "android": "https://dc.lft.to/lastmile_qr_scan"}, "bike_id": "eeb15de17b6b92297431eaff63fdf10e", "type": "electric_scooter", "lon": -77.03393516666667, "is_reserved": 0, "fusion_lat": 0.0, "fusion_lon": 0.0}, {"name": "d75697b2180652e459019c83b831d364", "is_disabled": 0, "lat": 38.917165, "rental_uris": {"ios": "https://dc.lft.to/lastmile_qr_scan", "android": "https://dc.lft.to/lastmile_qr_scan"}, "bike_id": "d75697b2180652e459019c83b831d364", "type": "electric_scooter", "lon": -77.0240645, "is_reserved": 0, "fusion_lat": 0.0, "fusion_lon": 0.0}, {"name": "7c2b3a0cb329bdf1fc7a49f66921481c", "is_disabled": 0, "lat": 38.942534333333334, "rental_uris": {"ios": "https://dc.lft.to/lastmile_qr_scan", "android": "https://dc.lft.to/lastmile_qr_scan"}, "bike_id": "7c2b3a0cb329bdf1fc7a49f66921481c", "type": "electric_scooter", "lon": -77.03627883333333, "is_reserved": 0, "fusion_lat": 0.0, "fusion_lon": 0.0}, {"name": "5da4e81cae2ddc345d3df98d3ef177a0", "is_disabled": 0, "lat": 38.89683483333334, "rental_uris": {"ios": "https://dc.lft.to/lastmile_qr_scan", "android": "https://dc.lft.to/lastmile_qr_scan"}, "bike_id": "5da4e81cae2ddc345d3df98d3ef177a0", "type": "electric_scooter", "lon": -77.0049415, "is_reserved": 0, "fusion_lat": 0.0, "fusion_lon": 0.0}, {"name": "c1ba96feece7ca10d07fb04937f35a8b", "is_disabled": 0, "lat": 38.920302, "rental_uris": {"ios": "https://dc.lft.to/lastmile_qr_scan", "android": "https://dc.lft.to/lastmile_qr_scan"}, "bike_id": "c1ba96feece7ca10d07fb04937f35a8b", "type": "electric_scooter", "lon": -77.0714805, "is_reserved": 0, "fusion_lat": 0.0, "fusion_lon": 0.0}, {"name": "63e9ac7b938e56a58fead00da6424292", "is_disabled": 0, "lat": 38.90394966666667, "rental_uris": {"ios": "https://dc.lft.to/lastmile_qr_scan", "android": "https://dc.lft.to/lastmile_qr_scan"}, "bike_id": "63e9ac7b938e56a58fead00da6424292", "type": "electric_scooter", "lon": -77.04884416666667, "is_reserved": 0, "fusion_lat": 0.0, "fusion_lon": 0.0}, {"name": "e4d0a02717014240230fdfa1c867deb6", "is_disabled": 0, "lat": 38.9370715, "rental_uris": {"ios": "https://dc.lft.to/lastmile_qr_scan", "android": "https://dc.lft.to/lastmile_qr_scan"}, "bike_id": "e4d0a02717014240230fdfa1c867deb6", "type": "electric_scooter", "lon": -77.02440666666666, "is_reserved": 0, "fusion_lat": 0.0, "fusion_lon": 0.0}, {"name": "efa14a3f4c3a071d7536f58417eeffeb", "is_disabled": 0, "lat": 38.9134875, "rental_uris": {"ios": "https://dc.lft.to/lastmile_qr_scan", "android": "https://dc.lft.to/lastmile_qr_scan"}, "bike_id": "efa14a3f4c3a071d7536f58417eeffeb", "type": "electric_bike", "lon": -76.98896916666666, "is_reserved": 0, "fusion_lat": 0.0, "fusion_lon": 0.0}, {"name": "7a713b0ad7436761b281b43e2d6517a1", "is_disabled": 0, "lat": 38.866651, "rental_uris": {"ios": "https://dc.lft.to/lastmile_qr_scan", "android": "https://dc.lft.to/lastmile_qr_scan"}, "bike_id": "7a713b0ad7436761b281b43e2d6517a1", "type": "electric_scooter", "lon": -76.98901933333333, "is_reserved": 0, "fusion_lat": 0.0, "fusion_lon": 0.0}, {"name": "5e4bd4ea29c81cd425c47d830432d513", "is_disabled": 0, "lat": 38.9066535, "rental_uris": {"ios": "https://dc.lft.to/lastmile_qr_scan", "android": "https://dc.lft.to/lastmile_qr_scan"}, "bike_id": "5e4bd4ea29c81cd425c47d830432d513", "type": "electric_scooter", "lon": -77.03753266666666, "is_reserved": 0, "fusion_lat": 0.0, "fusion_lon": 0.0}, {"name": "fa60bef93d12ed25adda2776281f7ac2", "is_disabled": 0, "lat": 38.9340365, "rental_uris": {"ios": "https://dc.lft.to/lastmile_qr_scan", "android": "https://dc.lft.to/lastmile_qr_scan"}, "bike_id": "fa60bef93d12ed25adda2776281f7ac2", "type": "electric_bike", "lon": -77.0430395, "is_reserved": 0, "fusion_lat": 0.0, "fusion_lon": 0.0}, {"name": "42d2e6b867264324fe3bd924b89012de", "is_disabled": 0, "lat": 38.88738, "rental_uris": {"ios": "https://dc.lft.to/lastmile_qr_scan", "android": "https://dc.lft.to/lastmile_qr_scan"}, "bike_id": "42d2e6b867264324fe3bd924b89012de", "type": "electric_scooter", "lon": -77.0212825, "is_reserved": 0, "fusion_lat": 0.0, "fusion_lon": 0.0}, {"name": "256c0889d88ba90a0ce1d6f7bdce6e70", "is_disabled": 0, "lat": 38.906491333333335, "rental_uris": {"ios": "https://dc.lft.to/lastmile_qr_scan", "android": "https://dc.lft.to/lastmile_qr_scan"}, "bike_id": "256c0889d88ba90a0ce1d6f7bdce6e70", "type": "electric_scooter", "lon": -77.006869, "is_reserved": 0, "fusion_lat": 0.0, "fusion_lon": 0.0}, {"name": "86ddeb944b670df0eb194ee20ec32888", "is_disabled": 0, "lat": 38.91224316666667, "rental_uris": {"ios": "https://dc.lft.to/lastmile_qr_scan", "android": "https://dc.lft.to/lastmile_qr_scan"}, "bike_id": "86ddeb944b670df0eb194ee20ec32888", "type": "electric_scooter", "lon": -77.0659785, "is_reserved": 0, "fusion_lat": 0.0, "fusion_lon": 0.0}, {"name": "ee97fb5acb029b5840080647fe211836", "is_disabled": 0, "lat": 38.898534, "rental_uris": {"ios": "https://dc.lft.to/lastmile_qr_scan", "android": "https://dc.lft.to/lastmile_qr_scan"}, "bike_id": "ee97fb5acb029b5840080647fe211836", "type": "electric_scooter", "lon": -77.02185616666667, "is_reserved": 0, "fusion_lat": 0.0, "fusion_lon": 0.0}, {"name": "2a36158bae8981cc7c1746a6b3ee74c7", "is_disabled": 0, "lat": 38.877053833333335, "rental_uris": {"ios": "https://dc.lft.to/lastmile_qr_scan", "android": "https://dc.lft.to/lastmile_qr_scan"}, "bike_id": "2a36158bae8981cc7c1746a6b3ee74c7", "type": "electric_scooter", "lon": -77.018876, "is_reserved": 0, "fusion_lat": 0.0, "fusion_lon": 0.0}, {"name": "8bfa60f940138f6d499ec3b25448757c", "is_disabled": 0, "lat": 38.85718383333333, "rental_uris": {"ios": "https://dc.lft.to/lastmile_qr_scan", "android": "https://dc.lft.to/lastmile_qr_scan"}, "bike_id": "8bfa60f940138f6d499ec3b25448757c", "type": "electric_bike", "lon": -76.980961, "is_reserved": 0, "fusion_lat": 0.0, "fusion_lon": 0.0}, {"name": "634ea61735fa23479066dc2e48605ffa", "is_disabled": 0, "lat": 38.90599233333333, "rental_uris": {"ios": "https://dc.lft.to/lastmile_qr_scan", "android": "https://dc.lft.to/lastmile_qr_scan"}, "bike_id": "634ea61735fa23479066dc2e48605ffa", "type": "electric_scooter", "lon": -77.02602783333333, "is_reserved": 0, "fusion_lat": 0.0, "fusion_lon": 0.0}, {"name": "c63287a933f177caaa2fafc9335e6cc4", "is_disabled": 0, "lat": 38.90369316666666, "rental_uris": {"ios": "https://dc.lft.to/lastmile_qr_scan", "android": "https://dc.lft.to/lastmile_qr_scan"}, "bike_id": "c63287a933f177caaa2fafc9335e6cc4", "type": "electric_scooter", "lon": -77.007876, "is_reserved": 0, "fusion_lat": 0.0, "fusion_lon": 0.0}, {"name": "d94cf5bdced884f8b60acc09124fd7a6", "is_disabled": 0, "lat": 38.90142566666667, "rental_uris": {"ios": "https://dc.lft.to/lastmile_qr_scan", "android": "https://dc.lft.to/lastmile_qr_scan"}, "bike_id": "d94cf5bdced884f8b60acc09124fd7a6", "type": "electric_scooter", "lon": -77.04166333333333, "is_reserved": 0, "fusion_lat": 0.0, "fusion_lon": 0.0}, {"name": "7657fe6e8a095db23f999c0b8a1386de", "is_disabled": 0, "lat": 38.9081645, "rental_uris": {"ios": "https://dc.lft.to/lastmile_qr_scan", "android": "https://dc.lft.to/lastmile_qr_scan"}, "bike_id": "7657fe6e8a095db23f999c0b8a1386de", "type": "electric_scooter", "lon": -77.0346035, "is_reserved": 0, "fusion_lat": 0.0, "fusion_lon": 0.0}, {"name": "875a9a12c5b3dcaf687096e1d2d8ee92", "is_disabled": 0, "lat": 38.905839666666665, "rental_uris": {"ios": "https://dc.lft.to/lastmile_qr_scan", "android": "https://dc.lft.to/lastmile_qr_scan"}, "bike_id": "875a9a12c5b3dcaf687096e1d2d8ee92", "type": "electric_scooter", "lon": -77.0088475, "is_reserved": 0, "fusion_lat": 0.0, "fusion_lon": 0.0}, {"name": "bf5fbbd9e0826a9ef17a81c378cb8c07", "is_disabled": 0, "lat": 38.92410433333333, "rental_uris": {"ios": "https://dc.lft.to/lastmile_qr_scan", "android": "https://dc.lft.to/lastmile_qr_scan"}, "bike_id": "bf5fbbd9e0826a9ef17a81c378cb8c07", "type": "electric_scooter", "lon": -77.05258266666667, "is_reserved": 0, "fusion_lat": 0.0, "fusion_lon": 0.0}, {"name": "a22e43b22bddae0ffd4bec0bc3389f87", "is_disabled": 0, "lat": 38.91750116666667, "rental_uris": {"ios": "https://dc.lft.to/lastmile_qr_scan", "android": "https://dc.lft.to/lastmile_qr_scan"}, "bike_id": "a22e43b22bddae0ffd4bec0bc3389f87", "type": "electric_scooter", "lon": -77.0260195, "is_reserved": 0, "fusion_lat": 0.0, "fusion_lon": 0.0}, {"name": "44520c5937935eaf49451169f7f12fdf", "is_disabled": 0, "lat": 38.916815166666666, "rental_uris": {"ios": "https://dc.lft.to/lastmile_qr_scan", "android": "https://dc.lft.to/lastmile_qr_scan"}, "bike_id": "44520c5937935eaf49451169f7f12fdf", "type": "electric_scooter", "lon": -77.0227975, "is_reserved": 0, "fusion_lat": 0.0, "fusion_lon": 0.0}, {"name": "1c1c08b8f337e31b86d6dd5d71ff5ae9", "is_disabled": 0, "lat": 38.935418, "rental_uris": {"ios": "https://dc.lft.to/lastmile_qr_scan", "android": "https://dc.lft.to/lastmile_qr_scan"}, "bike_id": "1c1c08b8f337e31b86d6dd5d71ff5ae9", "type": "electric_scooter", "lon": -77.05751233333334, "is_reserved": 0, "fusion_lat": 0.0, "fusion_lon": 0.0}, {"name": "d8527e6f7c6fa5639f950133fc0dc3f5", "is_disabled": 0, "lat": 38.916410166666665, "rental_uris": {"ios": "https://dc.lft.to/lastmile_qr_scan", "android": "https://dc.lft.to/lastmile_qr_scan"}, "bike_id": "d8527e6f7c6fa5639f950133fc0dc3f5", "type": "electric_scooter", "lon": -77.03207833333333, "is_reserved": 0, "fusion_lat": 0.0, "fusion_lon": 0.0}, {"name": "b0d2c3f861f66ca4ba2470689a510994", "is_disabled": 0, "lat": 38.911042333333334, "rental_uris": {"ios": "https://dc.lft.to/lastmile_qr_scan", "android": "https://dc.lft.to/lastmile_qr_scan"}, "bike_id": "b0d2c3f861f66ca4ba2470689a510994", "type": "electric_scooter", "lon": -77.04203683333333, "is_reserved": 0, "fusion_lat": 0.0, "fusion_lon": 0.0}, {"name": "f06899ed68d6b69ed99596c67ea5131e", "is_disabled": 0, "lat": 38.90852433333333, "rental_uris": {"ios": "https://dc.lft.to/lastmile_qr_scan", "android": "https://dc.lft.to/lastmile_qr_scan"}, "bike_id": "f06899ed68d6b69ed99596c67ea5131e", "type": "electric_scooter", "lon": -77.03293983333333, "is_reserved": 0, "fusion_lat": 0.0, "fusion_lon": 0.0}, {"name": "5ef962e62b93b1637c2043cc273bcf61", "is_disabled": 0, "lat": 38.899900833333334, "rental_uris": {"ios": "https://dc.lft.to/lastmile_qr_scan", "android": "https://dc.lft.to/lastmile_qr_scan"}, "bike_id": "5ef962e62b93b1637c2043cc273bcf61", "type": "electric_scooter", "lon": -77.0275335, "is_reserved": 0, "fusion_lat": 0.0, "fusion_lon": 0.0}, {"name": "9fd440fd1eafb1afb7c80fd50857e8ef", "is_disabled": 0, "lat": 38.899675, "rental_uris": {"ios": "https://dc.lft.to/lastmile_qr_scan", "android": "https://dc.lft.to/lastmile_qr_scan"}, "bike_id": "9fd440fd1eafb1afb7c80fd50857e8ef", "type": "electric_scooter", "lon": -76.93761516666666, "is_reserved": 0, "fusion_lat": 0.0, "fusion_lon": 0.0}, {"name": "3a581bc2a85f738d0c46a924ef7f5487", "is_disabled": 0, "lat": 38.87578383333334, "rental_uris": {"ios": "https://dc.lft.to/lastmile_qr_scan", "android": "https://dc.lft.to/lastmile_qr_scan"}, "bike_id": "3a581bc2a85f738d0c46a924ef7f5487", "type": "electric_bike", "lon": -77.234108, "is_reserved": 0, "fusion_lat": 0.0, "fusion_lon": 0.0}, {"name": "48c39e964d0f5ac1ba2fc06a8cd56e44", "is_disabled": 0, "lat": 38.89077533333333, "rental_uris": {"ios": "https://dc.lft.to/lastmile_qr_scan", "android": "https://dc.lft.to/lastmile_qr_scan"}, "bike_id": "48c39e964d0f5ac1ba2fc06a8cd56e44", "type": "electric_scooter", "lon": -76.98826283333334, "is_reserved": 0, "fusion_lat": 0.0, "fusion_lon": 0.0}, {"name": "3fb6d6e3e38fe9d874508c9a1259ef2a", "is_disabled": 0, "lat": 38.906009166666664, "rental_uris": {"ios": "https://dc.lft.to/lastmile_qr_scan", "android": "https://dc.lft.to/lastmile_qr_scan"}, "bike_id": "3fb6d6e3e38fe9d874508c9a1259ef2a", "type": "electric_scooter", "lon": -77.00264266666667, "is_reserved": 0, "fusion_lat": 0.0, "fusion_lon": 0.0}, {"name": "930fcd2c60dd58a446a7c55d2a813d9f", "is_disabled": 0, "lat": 38.896849333333336, "rental_uris": {"ios": "https://dc.lft.to/lastmile_qr_scan", "android": "https://dc.lft.to/lastmile_qr_scan"}, "bike_id": "930fcd2c60dd58a446a7c55d2a813d9f", "type": "electric_scooter", "lon": -76.9371055, "is_reserved": 0, "fusion_lat": 0.0, "fusion_lon": 0.0}, {"name": "2f481b4a3f603a1045c08c8569ed6350", "is_disabled": 0, "lat": 38.9505775, "rental_uris": {"ios": "https://dc.lft.to/lastmile_qr_scan", "android": "https://dc.lft.to/lastmile_qr_scan"}, "bike_id": "2f481b4a3f603a1045c08c8569ed6350", "type": "electric_scooter", "lon": -77.08028683333333, "is_reserved": 0, "fusion_lat": 0.0, "fusion_lon": 0.0}, {"name": "72634bb652d71baf1363a27559e7d25f", "is_disabled": 0, "lat": 38.9182235, "rental_uris": {"ios": "https://dc.lft.to/lastmile_qr_scan", "android": "https://dc.lft.to/lastmile_qr_scan"}, "bike_id": "72634bb652d71baf1363a27559e7d25f", "type": "electric_scooter", "lon": -77.02699866666667, "is_reserved": 0, "fusion_lat": 0.0, "fusion_lon": 0.0}, {"name": "b60e5d1f36e407343191c09ace0347c6", "is_disabled": 0, "lat": 38.92358683333333, "rental_uris": {"ios": "https://dc.lft.to/lastmile_qr_scan", "android": "https://dc.lft.to/lastmile_qr_scan"}, "bike_id": "b60e5d1f36e407343191c09ace0347c6", "type": "electric_scooter", "lon": -77.05050166666666, "is_reserved": 0, "fusion_lat": 0.0, "fusion_lon": 0.0}, {"name": "016c19abca31865762ef17e353d4d9cc", "is_disabled": 0, "lat": 38.88462716666667, "rental_uris": {"ios": "https://dc.lft.to/lastmile_qr_scan", "android": "https://dc.lft.to/lastmile_qr_scan"}, "bike_id": "016c19abca31865762ef17e353d4d9cc", "type": "electric_bike", "lon": -76.952194, "is_reserved": 0, "fusion_lat": 0.0, "fusion_lon": 0.0}, {"name": "fd898d130a98df24f12c4db20763980e", "is_disabled": 0, "lat": 38.9247845, "rental_uris": {"ios": "https://dc.lft.to/lastmile_qr_scan", "android": "https://dc.lft.to/lastmile_qr_scan"}, "bike_id": "fd898d130a98df24f12c4db20763980e", "type": "electric_scooter", "lon": -77.03528466666667, "is_reserved": 0, "fusion_lat": 0.0, "fusion_lon": 0.0}, {"name": "2d3a4a331041ac3eaac94b9931f4fec6", "is_disabled": 0, "lat": 38.988122, "rental_uris": {"ios": "https://dc.lft.to/lastmile_qr_scan", "android": "https://dc.lft.to/lastmile_qr_scan"}, "bike_id": "2d3a4a331041ac3eaac94b9931f4fec6", "type": "electric_bike", "lon": -77.02649016666666, "is_reserved": 0, "fusion_lat": 0.0, "fusion_lon": 0.0}, {"name": "4dfecd63a013acef92871c6e06e6e076", "is_disabled": 0, "lat": 38.90136183333333, "rental_uris": {"ios": "https://dc.lft.to/lastmile_qr_scan", "android": "https://dc.lft.to/lastmile_qr_scan"}, "bike_id": "4dfecd63a013acef92871c6e06e6e076", "type": "electric_scooter", "lon": -77.044906, "is_reserved": 0, "fusion_lat": 0.0, "fusion_lon": 0.0}, {"name": "c36b78d900faa7eb8061f80d8d0f4297", "is_disabled": 0, "lat": 38.90605683333333, "rental_uris": {"ios": "https://dc.lft.to/lastmile_qr_scan", "android": "https://dc.lft.to/lastmile_qr_scan"}, "bike_id": "c36b78d900faa7eb8061f80d8d0f4297", "type": "electric_scooter", "lon": -77.041272, "is_reserved": 0, "fusion_lat": 0.0, "fusion_lon": 0.0}, {"name": "cf95104759dc6b8d011b69f0ed43d090", "is_disabled": 0, "lat": 38.9938985, "rental_uris": {"ios": "https://dc.lft.to/lastmile_qr_scan", "android": "https://dc.lft.to/lastmile_qr_scan"}, "bike_id": "cf95104759dc6b8d011b69f0ed43d090", "type": "electric_bike", "lon": -76.928842, "is_reserved": 0, "fusion_lat": 0.0, "fusion_lon": 0.0}, {"name": "e1930940db30a613c7d8a55c274a081a", "is_disabled": 0, "lat": 38.91674583333333, "rental_uris": {"ios": "https://dc.lft.to/lastmile_qr_scan", "android": "https://dc.lft.to/lastmile_qr_scan"}, "bike_id": "e1930940db30a613c7d8a55c274a081a", "type": "electric_scooter", "lon": -77.02714916666666, "is_reserved": 0, "fusion_lat": 0.0, "fusion_lon": 0.0}, {"name": "a112c868bf17eff397e14c2519e719ad", "is_disabled": 0, "lat": 38.916865333333334, "rental_uris": {"ios": "https://dc.lft.to/lastmile_qr_scan", "android": "https://dc.lft.to/lastmile_qr_scan"}, "bike_id": "a112c868bf17eff397e14c2519e719ad", "type": "electric_scooter", "lon": -77.026428, "is_reserved": 0, "fusion_lat": 0.0, "fusion_lon": 0.0}, {"name": "1d9b29761f1bb154097577ad9531f6f4", "is_disabled": 0, "lat": 38.928004, "rental_uris": {"ios": "https://dc.lft.to/lastmile_qr_scan", "android": "https://dc.lft.to/lastmile_qr_scan"}, "bike_id": "1d9b29761f1bb154097577ad9531f6f4", "type": "electric_scooter", "lon": -77.022955, "is_reserved": 0, "fusion_lat": 0.0, "fusion_lon": 0.0}, {"name": "9ecb8fe02fa032ace8a1e9f99149c2d6", "is_disabled": 0, "lat": 38.91656666666667, "rental_uris": {"ios": "https://dc.lft.to/lastmile_qr_scan", "android": "https://dc.lft.to/lastmile_qr_scan"}, "bike_id": "9ecb8fe02fa032ace8a1e9f99149c2d6", "type": "electric_scooter", "lon": -77.02275083333333, "is_reserved": 0, "fusion_lat": 0.0, "fusion_lon": 0.0}, {"name": "d4b115a9d0caee2a2288b7b8507fad7d", "is_disabled": 0, "lat": 38.91404933333333, "rental_uris": {"ios": "https://dc.lft.to/lastmile_qr_scan", "android": "https://dc.lft.to/lastmile_qr_scan"}, "bike_id": "d4b115a9d0caee2a2288b7b8507fad7d", "type": "electric_scooter", "lon": -77.03164716666667, "is_reserved": 0, "fusion_lat": 0.0, "fusion_lon": 0.0}, {"name": "1abe0013dbb8262a2220636340cbb179", "is_disabled": 0, "lat": 38.949200166666664, "rental_uris": {"ios": "https://dc.lft.to/lastmile_qr_scan", "android": "https://dc.lft.to/lastmile_qr_scan"}, "bike_id": "1abe0013dbb8262a2220636340cbb179", "type": "electric_bike", "lon": -77.00804516666666, "is_reserved": 0, "fusion_lat": 0.0, "fusion_lon": 0.0}, {"name": "2378b8e1543c3d78123e75fa96fef2a8", "is_disabled": 0, "lat": 38.898435166666665, "rental_uris": {"ios": "https://dc.lft.to/lastmile_qr_scan", "android": "https://dc.lft.to/lastmile_qr_scan"}, "bike_id": "2378b8e1543c3d78123e75fa96fef2a8", "type": "electric_scooter", "lon": -77.02955683333333, "is_reserved": 0, "fusion_lat": 0.0, "fusion_lon": 0.0}, {"name": "6893574ef8098f48d29d2a3f040e3528", "is_disabled": 0, "lat": 38.91021216666667, "rental_uris": {"ios": "https://dc.lft.to/lastmile_qr_scan", "android": "https://dc.lft.to/lastmile_qr_scan"}, "bike_id": "6893574ef8098f48d29d2a3f040e3528", "type": "electric_scooter", "lon": -76.99726883333334, "is_reserved": 0, "fusion_lat": 0.0, "fusion_lon": 0.0}, {"name": "ecf1f8f762b45a97d12671b43200d69b", "is_disabled": 0, "lat": 38.8955255, "rental_uris": {"ios": "https://dc.lft.to/lastmile_qr_scan", "android": "https://dc.lft.to/lastmile_qr_scan"}, "bike_id": "ecf1f8f762b45a97d12671b43200d69b", "type": "electric_scooter", "lon": -76.94881283333333, "is_reserved": 0, "fusion_lat": 0.0, "fusion_lon": 0.0}, {"name": "f981271f2f3afaed4c555188f2b364de", "is_disabled": 0, "lat": 38.89268583333333, "rental_uris": {"ios": "https://dc.lft.to/lastmile_qr_scan", "android": "https://dc.lft.to/lastmile_qr_scan"}, "bike_id": "f981271f2f3afaed4c555188f2b364de", "type": "electric_scooter", "lon": -77.03187116666666, "is_reserved": 0, "fusion_lat": 0.0, "fusion_lon": 0.0}, {"name": "2ca91c72875d6c9b8f3d02b819955172", "is_disabled": 0, "lat": 38.912828833333336, "rental_uris": {"ios": "https://dc.lft.to/lastmile_qr_scan", "android": "https://dc.lft.to/lastmile_qr_scan"}, "bike_id": "2ca91c72875d6c9b8f3d02b819955172", "type": "electric_scooter", "lon": -77.03872083333333, "is_reserved": 0, "fusion_lat": 0.0, "fusion_lon": 0.0}, {"name": "310e7082c4d0d4c17f9b3161b6515fd1", "is_disabled": 0, "lat": 38.8746745, "rental_uris": {"ios": "https://dc.lft.to/lastmile_qr_scan", "android": "https://dc.lft.to/lastmile_qr_scan"}, "bike_id": "310e7082c4d0d4c17f9b3161b6515fd1", "type": "electric_scooter", "lon": -77.0046515, "is_reserved": 0, "fusion_lat": 0.0, "fusion_lon": 0.0}, {"name": "6c94c2a1f29a1ba213485a93e2fc0f60", "is_disabled": 0, "lat": 38.894748166666666, "rental_uris": {"ios": "https://dc.lft.to/lastmile_qr_scan", "android": "https://dc.lft.to/lastmile_qr_scan"}, "bike_id": "6c94c2a1f29a1ba213485a93e2fc0f60", "type": "electric_scooter", "lon": -77.00307716666667, "is_reserved": 0, "fusion_lat": 0.0, "fusion_lon": 0.0}, {"name": "f2a3a9ab088ea8f5298ea7ad850eb047", "is_disabled": 0, "lat": 38.910303166666665, "rental_uris": {"ios": "https://dc.lft.to/lastmile_qr_scan", "android": "https://dc.lft.to/lastmile_qr_scan"}, "bike_id": "f2a3a9ab088ea8f5298ea7ad850eb047", "type": "electric_scooter", "lon": -77.04277633333334, "is_reserved": 0, "fusion_lat": 0.0, "fusion_lon": 0.0}, {"name": "62b25f9fa6ec2a8646678947de776953", "is_disabled": 0, "lat": 38.917631, "rental_uris": {"ios": "https://dc.lft.to/lastmile_qr_scan", "android": "https://dc.lft.to/lastmile_qr_scan"}, "bike_id": "62b25f9fa6ec2a8646678947de776953", "type": "electric_scooter", "lon": -77.06950933333333, "is_reserved": 0, "fusion_lat": 0.0, "fusion_lon": 0.0}, {"name": "179658beb315c1f8658ffcc64213a576", "is_disabled": 0, "lat": 38.923612, "rental_uris": {"ios": "https://dc.lft.to/lastmile_qr_scan", "android": "https://dc.lft.to/lastmile_qr_scan"}, "bike_id": "179658beb315c1f8658ffcc64213a576", "type": "electric_scooter", "lon": -77.03323283333333, "is_reserved": 0, "fusion_lat": 0.0, "fusion_lon": 0.0}, {"name": "09a3e53d8ee88312c52182a604077e75", "is_disabled": 0, "lat": 38.9311665, "rental_uris": {"ios": "https://dc.lft.to/lastmile_qr_scan", "android": "https://dc.lft.to/lastmile_qr_scan"}, "bike_id": "09a3e53d8ee88312c52182a604077e75", "type": "electric_scooter", "lon": -77.02098966666667, "is_reserved": 0, "fusion_lat": 0.0, "fusion_lon": 0.0}, {"name": "f09b27b1265394919f76aa166e267f7f", "is_disabled": 0, "lat": 38.926484, "rental_uris": {"ios": "https://dc.lft.to/lastmile_qr_scan", "android": "https://dc.lft.to/lastmile_qr_scan"}, "bike_id": "f09b27b1265394919f76aa166e267f7f", "type": "electric_scooter", "lon": -77.041339, "is_reserved": 0, "fusion_lat": 0.0, "fusion_lon": 0.0}, {"name": "88273e5893a210647b07affbbb090636", "is_disabled": 0, "lat": 38.89471733333333, "rental_uris": {"ios": "https://dc.lft.to/lastmile_qr_scan", "android": "https://dc.lft.to/lastmile_qr_scan"}, "bike_id": "88273e5893a210647b07affbbb090636", "type": "electric_scooter", "lon": -77.01763966666667, "is_reserved": 0, "fusion_lat": 0.0, "fusion_lon": 0.0}, {"name": "79936ba6af4e1ff7e4bab674dd1065a2", "is_disabled": 0, "lat": 38.87372416666667, "rental_uris": {"ios": "https://dc.lft.to/lastmile_qr_scan", "android": "https://dc.lft.to/lastmile_qr_scan"}, "bike_id": "79936ba6af4e1ff7e4bab674dd1065a2", "type": "electric_scooter", "lon": -77.00067666666666, "is_reserved": 0, "fusion_lat": 0.0, "fusion_lon": 0.0}, {"name": "701aa655f3391348b26daf0f7b3c60ed", "is_disabled": 0, "lat": 38.915505333333336, "rental_uris": {"ios": "https://dc.lft.to/lastmile_qr_scan", "android": "https://dc.lft.to/lastmile_qr_scan"}, "bike_id": "701aa655f3391348b26daf0f7b3c60ed", "type": "electric_scooter", "lon": -77.03853433333333, "is_reserved": 0, "fusion_lat": 0.0, "fusion_lon": 0.0}, {"name": "374b1867ff35141d31c93ffdc417460a", "is_disabled": 0, "lat": 38.932431333333334, "rental_uris": {"ios": "https://dc.lft.to/lastmile_qr_scan", "android": "https://dc.lft.to/lastmile_qr_scan"}, "bike_id": "374b1867ff35141d31c93ffdc417460a", "type": "electric_scooter", "lon": -76.99524333333333, "is_reserved": 0, "fusion_lat": 0.0, "fusion_lon": 0.0}, {"name": "0000611d0fc7ab79111e40beaed8bc49", "is_disabled": 0, "lat": 38.9077545, "rental_uris": {"ios": "https://dc.lft.to/lastmile_qr_scan", "android": "https://dc.lft.to/lastmile_qr_scan"}, "bike_id": "0000611d0fc7ab79111e40beaed8bc49", "type": "electric_scooter", "lon": -76.993793, "is_reserved": 0, "fusion_lat": 0.0, "fusion_lon": 0.0}, {"name": "9d058e9bdd2c581c5fbaf170e85f2c01", "is_disabled": 0, "lat": 38.927593333333334, "rental_uris": {"ios": "https://dc.lft.to/lastmile_qr_scan", "android": "https://dc.lft.to/lastmile_qr_scan"}, "bike_id": "9d058e9bdd2c581c5fbaf170e85f2c01", "type": "electric_scooter", "lon": -77.02964416666667, "is_reserved": 0, "fusion_lat": 0.0, "fusion_lon": 0.0}, {"name": "494ba4a82490645853482ff6d72ec69b", "is_disabled": 0, "lat": 38.9252455, "rental_uris": {"ios": "https://dc.lft.to/lastmile_qr_scan", "android": "https://dc.lft.to/lastmile_qr_scan"}, "bike_id": "494ba4a82490645853482ff6d72ec69b", "type": "electric_scooter", "lon": -77.04119466666667, "is_reserved": 0, "fusion_lat": 0.0, "fusion_lon": 0.0}, {"name": "45d4228f86e57bf5484b832021e0b1d9", "is_disabled": 0, "lat": 38.8796135, "rental_uris": {"ios": "https://dc.lft.to/lastmile_qr_scan", "android": "https://dc.lft.to/lastmile_qr_scan"}, "bike_id": "45d4228f86e57bf5484b832021e0b1d9", "type": "electric_scooter", "lon": -77.00618183333333, "is_reserved": 0, "fusion_lat": 0.0, "fusion_lon": 0.0}, {"name": "e7c3f55ef25f31d5d66198fb986358e2", "is_disabled": 0, "lat": 38.918562, "rental_uris": {"ios": "https://dc.lft.to/lastmile_qr_scan", "android": "https://dc.lft.to/lastmile_qr_scan"}, "bike_id": "e7c3f55ef25f31d5d66198fb986358e2", "type": "electric_scooter", "lon": -76.96552, "is_reserved": 0, "fusion_lat": 0.0, "fusion_lon": 0.0}, {"name": "2fe1e59ea0d6e5201a0bdb4db3aa2599", "is_disabled": 0, "lat": 38.923466166666664, "rental_uris": {"ios": "https://dc.lft.to/lastmile_qr_scan", "android": "https://dc.lft.to/lastmile_qr_scan"}, "bike_id": "2fe1e59ea0d6e5201a0bdb4db3aa2599", "type": "electric_scooter", "lon": -77.01901616666666, "is_reserved": 0, "fusion_lat": 0.0, "fusion_lon": 0.0}, {"name": "2b6828aafeb2ae724940f157fed389a0", "is_disabled": 0, "lat": 38.904568166666664, "rental_uris": {"ios": "https://dc.lft.to/lastmile_qr_scan", "android": "https://dc.lft.to/lastmile_qr_scan"}, "bike_id": "2b6828aafeb2ae724940f157fed389a0", "type": "electric_scooter", "lon": -77.04888166666667, "is_reserved": 0, "fusion_lat": 0.0, "fusion_lon": 0.0}, {"name": "9f6b76989abee82ce38d2382427e935e", "is_disabled": 0, "lat": 38.915782, "rental_uris": {"ios": "https://dc.lft.to/lastmile_qr_scan", "android": "https://dc.lft.to/lastmile_qr_scan"}, "bike_id": "9f6b76989abee82ce38d2382427e935e", "type": "electric_scooter", "lon": -76.98390233333333, "is_reserved": 0, "fusion_lat": 0.0, "fusion_lon": 0.0}, {"name": "7c5683a5b93948445c63f25ab3957654", "is_disabled": 0, "lat": 38.9186235, "rental_uris": {"ios": "https://dc.lft.to/lastmile_qr_scan", "android": "https://dc.lft.to/lastmile_qr_scan"}, "bike_id": "7c5683a5b93948445c63f25ab3957654", "type": "electric_scooter", "lon": -77.03660283333333, "is_reserved": 0, "fusion_lat": 0.0, "fusion_lon": 0.0}, {"name": "23dda08df260a078fd3881fb95e59c10", "is_disabled": 0, "lat": 38.88718333333333, "rental_uris": {"ios": "https://dc.lft.to/lastmile_qr_scan", "android": "https://dc.lft.to/lastmile_qr_scan"}, "bike_id": "23dda08df260a078fd3881fb95e59c10", "type": "electric_scooter", "lon": -77.02578316666667, "is_reserved": 0, "fusion_lat": 0.0, "fusion_lon": 0.0}, {"name": "7a672f0dd83fc60cb6b9580748850b0c", "is_disabled": 0, "lat": 38.91275266666667, "rental_uris": {"ios": "https://dc.lft.to/lastmile_qr_scan", "android": "https://dc.lft.to/lastmile_qr_scan"}, "bike_id": "7a672f0dd83fc60cb6b9580748850b0c", "type": "electric_scooter", "lon": -77.0365045, "is_reserved": 0, "fusion_lat": 0.0, "fusion_lon": 0.0}, {"name": "d4da327b9e85dfc5b3a5c51d103a46ae", "is_disabled": 0, "lat": 38.90311233333333, "rental_uris": {"ios": "https://dc.lft.to/lastmile_qr_scan", "android": "https://dc.lft.to/lastmile_qr_scan"}, "bike_id": "d4da327b9e85dfc5b3a5c51d103a46ae", "type": "electric_scooter", "lon": -76.978062, "is_reserved": 0, "fusion_lat": 0.0, "fusion_lon": 0.0}, {"name": "1401241ea96da587b60cad3ffc579370", "is_disabled": 0, "lat": 38.9121495, "rental_uris": {"ios": "https://dc.lft.to/lastmile_qr_scan", "android": "https://dc.lft.to/lastmile_qr_scan"}, "bike_id": "1401241ea96da587b60cad3ffc579370", "type": "electric_scooter", "lon": -77.03193116666667, "is_reserved": 0, "fusion_lat": 0.0, "fusion_lon": 0.0}, {"name": "831451dc00d84a68e579523bedc2e76e", "is_disabled": 0, "lat": 38.91787166666667, "rental_uris": {"ios": "https://dc.lft.to/lastmile_qr_scan", "android": "https://dc.lft.to/lastmile_qr_scan"}, "bike_id": "831451dc00d84a68e579523bedc2e76e", "type": "electric_scooter", "lon": -77.02304866666667, "is_reserved": 0, "fusion_lat": 0.0, "fusion_lon": 0.0}, {"name": "e9ce48a6d17ea4b71e293eef086fa3cd", "is_disabled": 0, "lat": 38.88718033333333, "rental_uris": {"ios": "https://dc.lft.to/lastmile_qr_scan", "android": "https://dc.lft.to/lastmile_qr_scan"}, "bike_id": "e9ce48a6d17ea4b71e293eef086fa3cd", "type": "electric_scooter", "lon": -77.02576816666667, "is_reserved": 0, "fusion_lat": 0.0, "fusion_lon": 0.0}, {"name": "d8891656e2bbe041e9c3a687cb588e16", "is_disabled": 0, "lat": 38.915872, "rental_uris": {"ios": "https://dc.lft.to/lastmile_qr_scan", "android": "https://dc.lft.to/lastmile_qr_scan"}, "bike_id": "d8891656e2bbe041e9c3a687cb588e16", "type": "electric_scooter", "lon": -77.0448605, "is_reserved": 0, "fusion_lat": 0.0, "fusion_lon": 0.0}, {"name": "923ebbc31f7ca3704ad6190302be5222", "is_disabled": 0, "lat": 38.931115166666665, "rental_uris": {"ios": "https://dc.lft.to/lastmile_qr_scan", "android": "https://dc.lft.to/lastmile_qr_scan"}, "bike_id": "923ebbc31f7ca3704ad6190302be5222", "type": "electric_scooter", "lon": -77.03041083333333, "is_reserved": 0, "fusion_lat": 0.0, "fusion_lon": 0.0}, {"name": "e6c4b68ed7164a2ff07b7a72ab6db543", "is_disabled": 0, "lat": 38.90415466666666, "rental_uris": {"ios": "https://dc.lft.to/lastmile_qr_scan", "android": "https://dc.lft.to/lastmile_qr_scan"}, "bike_id": "e6c4b68ed7164a2ff07b7a72ab6db543", "type": "electric_scooter", "lon": -77.04650833333334, "is_reserved": 0, "fusion_lat": 0.0, "fusion_lon": 0.0}, {"name": "786cf18e4a7b6e31166a09abbce98fb6", "is_disabled": 0, "lat": 38.862425, "rental_uris": {"ios": "https://dc.lft.to/lastmile_qr_scan", "android": "https://dc.lft.to/lastmile_qr_scan"}, "bike_id": "786cf18e4a7b6e31166a09abbce98fb6", "type": "electric_scooter", "lon": -76.99495616666667, "is_reserved": 0, "fusion_lat": 0.0, "fusion_lon": 0.0}, {"name": "bb6cb7d3b341a4c692d3b83ce846e937", "is_disabled": 0, "lat": 38.923154, "rental_uris": {"ios": "https://dc.lft.to/lastmile_qr_scan", "android": "https://dc.lft.to/lastmile_qr_scan"}, "bike_id": "bb6cb7d3b341a4c692d3b83ce846e937", "type": "electric_scooter", "lon": -77.039092, "is_reserved": 0, "fusion_lat": 0.0, "fusion_lon": 0.0}, {"name": "2d9a9f1593d2ed58d9b21c71b704f563", "is_disabled": 0, "lat": 38.8737635, "rental_uris": {"ios": "https://dc.lft.to/lastmile_qr_scan", "android": "https://dc.lft.to/lastmile_qr_scan"}, "bike_id": "2d9a9f1593d2ed58d9b21c71b704f563", "type": "electric_scooter", "lon": -77.00162116666667, "is_reserved": 0, "fusion_lat": 0.0, "fusion_lon": 0.0}, {"name": "e3aaa37a7e0cebed6d11d551b3ee6736", "is_disabled": 0, "lat": 38.9240395, "rental_uris": {"ios": "https://dc.lft.to/lastmile_qr_scan", "android": "https://dc.lft.to/lastmile_qr_scan"}, "bike_id": "e3aaa37a7e0cebed6d11d551b3ee6736", "type": "electric_scooter", "lon": -77.040741, "is_reserved": 0, "fusion_lat": 0.0, "fusion_lon": 0.0}, {"name": "09cf40926b75cb12eb979e9abfa68e0d", "is_disabled": 0, "lat": 38.9306725, "rental_uris": {"ios": "https://dc.lft.to/lastmile_qr_scan", "android": "https://dc.lft.to/lastmile_qr_scan"}, "bike_id": "09cf40926b75cb12eb979e9abfa68e0d", "type": "electric_scooter", "lon": -77.02158533333333, "is_reserved": 0, "fusion_lat": 0.0, "fusion_lon": 0.0}, {"name": "a1fac1372af0a5338ca8f76a9d900ae8", "is_disabled": 0, "lat": 38.91846683333333, "rental_uris": {"ios": "https://dc.lft.to/lastmile_qr_scan", "android": "https://dc.lft.to/lastmile_qr_scan"}, "bike_id": "a1fac1372af0a5338ca8f76a9d900ae8", "type": "electric_bike", "lon": -77.06976866666666, "is_reserved": 0, "fusion_lat": 0.0, "fusion_lon": 0.0}, {"name": "3c31c6bf56b1219e4b20bc818ab5dec2", "is_disabled": 0, "lat": 38.892251333333334, "rental_uris": {"ios": "https://dc.lft.to/lastmile_qr_scan", "android": "https://dc.lft.to/lastmile_qr_scan"}, "bike_id": "3c31c6bf56b1219e4b20bc818ab5dec2", "type": "electric_scooter", "lon": -77.046452, "is_reserved": 0, "fusion_lat": 0.0, "fusion_lon": 0.0}, {"name": "2ec0bae57e101ff244050a6b25124265", "is_disabled": 0, "lat": 38.8491025, "rental_uris": {"ios": "https://dc.lft.to/lastmile_qr_scan", "android": "https://dc.lft.to/lastmile_qr_scan"}, "bike_id": "2ec0bae57e101ff244050a6b25124265", "type": "electric_bike", "lon": -77.09985316666666, "is_reserved": 0, "fusion_lat": 0.0, "fusion_lon": 0.0}, {"name": "84f6fa1fd59dc272a890133b1aff2c37", "is_disabled": 0, "lat": 38.934428833333335, "rental_uris": {"ios": "https://dc.lft.to/lastmile_qr_scan", "android": "https://dc.lft.to/lastmile_qr_scan"}, "bike_id": "84f6fa1fd59dc272a890133b1aff2c37", "type": "electric_scooter", "lon": -77.02982133333333, "is_reserved": 0, "fusion_lat": 0.0, "fusion_lon": 0.0}, {"name": "b14ca4486dd080e88c3c00ca88311f29", "is_disabled": 0, "lat": 38.926238, "rental_uris": {"ios": "https://dc.lft.to/lastmile_qr_scan", "android": "https://dc.lft.to/lastmile_qr_scan"}, "bike_id": "b14ca4486dd080e88c3c00ca88311f29", "type": "electric_scooter", "lon": -77.04199516666667, "is_reserved": 0, "fusion_lat": 0.0, "fusion_lon": 0.0}, {"name": "1e8bbf757ac869a4088e015f27d11289", "is_disabled": 0, "lat": 38.878271166666664, "rental_uris": {"ios": "https://dc.lft.to/lastmile_qr_scan", "android": "https://dc.lft.to/lastmile_qr_scan"}, "bike_id": "1e8bbf757ac869a4088e015f27d11289", "type": "electric_scooter", "lon": -77.00139233333333, "is_reserved": 0, "fusion_lat": 0.0, "fusion_lon": 0.0}, {"name": "93b1f7120df8ced90618f4433972f5d6", "is_disabled": 0, "lat": 38.85098033333333, "rental_uris": {"ios": "https://dc.lft.to/lastmile_qr_scan", "android": "https://dc.lft.to/lastmile_qr_scan"}, "bike_id": "93b1f7120df8ced90618f4433972f5d6", "type": "electric_bike", "lon": -76.95676116666667, "is_reserved": 0, "fusion_lat": 0.0, "fusion_lon": 0.0}, {"name": "9480bd63d21613d264154c376c760474", "is_disabled": 0, "lat": 38.918102, "rental_uris": {"ios": "https://dc.lft.to/lastmile_qr_scan", "android": "https://dc.lft.to/lastmile_qr_scan"}, "bike_id": "9480bd63d21613d264154c376c760474", "type": "electric_scooter", "lon": -77.034391, "is_reserved": 0, "fusion_lat": 0.0, "fusion_lon": 0.0}, {"name": "8d63d865b151ed2a95cd718505d5fa62", "is_disabled": 0, "lat": 38.920638333333336, "rental_uris": {"ios": "https://dc.lft.to/lastmile_qr_scan", "android": "https://dc.lft.to/lastmile_qr_scan"}, "bike_id": "8d63d865b151ed2a95cd718505d5fa62", "type": "electric_scooter", "lon": -77.04192366666666, "is_reserved": 0, "fusion_lat": 0.0, "fusion_lon": 0.0}, {"name": "335d7968e4bc6087f292d444ea12f9c7", "is_disabled": 0, "lat": 38.9056865, "rental_uris": {"ios": "https://dc.lft.to/lastmile_qr_scan", "android": "https://dc.lft.to/lastmile_qr_scan"}, "bike_id": "335d7968e4bc6087f292d444ea12f9c7", "type": "electric_bike", "lon": -77.0472345, "is_reserved": 0, "fusion_lat": 0.0, "fusion_lon": 0.0}, {"name": "dc6ab1ed767804a9ab96c7d8997a2cf6", "is_disabled": 0, "lat": 38.90860583333333, "rental_uris": {"ios": "https://dc.lft.to/lastmile_qr_scan", "android": "https://dc.lft.to/lastmile_qr_scan"}, "bike_id": "dc6ab1ed767804a9ab96c7d8997a2cf6", "type": "electric_scooter", "lon": -77.02395066666666, "is_reserved": 0, "fusion_lat": 0.0, "fusion_lon": 0.0}, {"name": "334841058a76bc3d1d50eccc96f1751c", "is_disabled": 0, "lat": 38.89544, "rental_uris": {"ios": "https://dc.lft.to/lastmile_qr_scan", "android": "https://dc.lft.to/lastmile_qr_scan"}, "bike_id": "334841058a76bc3d1d50eccc96f1751c", "type": "electric_scooter", "lon": -76.98337566666666, "is_reserved": 0, "fusion_lat": 0.0, "fusion_lon": 0.0}, {"name": "60e7ab94d5bc4164b1f080375b8c5ef6", "is_disabled": 0, "lat": 38.916097666666666, "rental_uris": {"ios": "https://dc.lft.to/lastmile_qr_scan", "android": "https://dc.lft.to/lastmile_qr_scan"}, "bike_id": "60e7ab94d5bc4164b1f080375b8c5ef6", "type": "electric_scooter", "lon": -77.02298633333334, "is_reserved": 0, "fusion_lat": 0.0, "fusion_lon": 0.0}, {"name": "d44c7a125a81526adfb4f0a4af7bd4a7", "is_disabled": 0, "lat": 38.9344935, "rental_uris": {"ios": "https://dc.lft.to/lastmile_qr_scan", "android": "https://dc.lft.to/lastmile_qr_scan"}, "bike_id": "d44c7a125a81526adfb4f0a4af7bd4a7", "type": "electric_bike", "lon": -77.02101016666667, "is_reserved": 0, "fusion_lat": 0.0, "fusion_lon": 0.0}, {"name": "adeef4b56d2c60b36ac2d866dc769097", "is_disabled": 0, "lat": 38.88746483333333, "rental_uris": {"ios": "https://dc.lft.to/lastmile_qr_scan", "android": "https://dc.lft.to/lastmile_qr_scan"}, "bike_id": "adeef4b56d2c60b36ac2d866dc769097", "type": "electric_scooter", "lon": -77.02778666666667, "is_reserved": 0, "fusion_lat": 0.0, "fusion_lon": 0.0}, {"name": "352e12d77746507fe22443d97360c273", "is_disabled": 0, "lat": 38.98783616666667, "rental_uris": {"ios": "https://dc.lft.to/lastmile_qr_scan", "android": "https://dc.lft.to/lastmile_qr_scan"}, "bike_id": "352e12d77746507fe22443d97360c273", "type": "electric_bike", "lon": -77.14097666666666, "is_reserved": 0, "fusion_lat": 0.0, "fusion_lon": 0.0}, {"name": "d3a69570d0c3475a9f5730c7fe712ce3", "is_disabled": 0, "lat": 38.914602333333335, "rental_uris": {"ios": "https://dc.lft.to/lastmile_qr_scan", "android": "https://dc.lft.to/lastmile_qr_scan"}, "bike_id": "d3a69570d0c3475a9f5730c7fe712ce3", "type": "electric_scooter", "lon": -77.04564383333333, "is_reserved": 0, "fusion_lat": 0.0, "fusion_lon": 0.0}, {"name": "906d916a3ef358bc37da39b34c77bd5a", "is_disabled": 0, "lat": 38.95197016666667, "rental_uris": {"ios": "https://dc.lft.to/lastmile_qr_scan", "android": "https://dc.lft.to/lastmile_qr_scan"}, "bike_id": "906d916a3ef358bc37da39b34c77bd5a", "type": "electric_scooter", "lon": -77.012538, "is_reserved": 0, "fusion_lat": 0.0, "fusion_lon": 0.0}, {"name": "e6bf49c9aa45a4d91f143deba5155aab", "is_disabled": 0, "lat": 38.873741, "rental_uris": {"ios": "https://dc.lft.to/lastmile_qr_scan", "android": "https://dc.lft.to/lastmile_qr_scan"}, "bike_id": "e6bf49c9aa45a4d91f143deba5155aab", "type": "electric_scooter", "lon": -77.001261, "is_reserved": 0, "fusion_lat": 0.0, "fusion_lon": 0.0}, {"name": "418cfc909a2c72aacb6c46bf964c1fe5", "is_disabled": 0, "lat": 38.89747066666666, "rental_uris": {"ios": "https://dc.lft.to/lastmile_qr_scan", "android": "https://dc.lft.to/lastmile_qr_scan"}, "bike_id": "418cfc909a2c72aacb6c46bf964c1fe5", "type": "electric_scooter", "lon": -77.01222866666667, "is_reserved": 0, "fusion_lat": 0.0, "fusion_lon": 0.0}, {"name": "0b591215aa1ef6395caa00f98ef87f20", "is_disabled": 0, "lat": 38.9419305, "rental_uris": {"ios": "https://dc.lft.to/lastmile_qr_scan", "android": "https://dc.lft.to/lastmile_qr_scan"}, "bike_id": "0b591215aa1ef6395caa00f98ef87f20", "type": "electric_scooter", "lon": -77.04112733333334, "is_reserved": 0, "fusion_lat": 0.0, "fusion_lon": 0.0}, {"name": "17de56925a512d9f702766b4e8e16aa5", "is_disabled": 0, "lat": 38.924967, "rental_uris": {"ios": "https://dc.lft.to/lastmile_qr_scan", "android": "https://dc.lft.to/lastmile_qr_scan"}, "bike_id": "17de56925a512d9f702766b4e8e16aa5", "type": "electric_scooter", "lon": -77.0240405, "is_reserved": 0, "fusion_lat": 0.0, "fusion_lon": 0.0}, {"name": "5e1c70b4b6b3cbb1528aaed73326129a", "is_disabled": 0, "lat": 38.916062333333336, "rental_uris": {"ios": "https://dc.lft.to/lastmile_qr_scan", "android": "https://dc.lft.to/lastmile_qr_scan"}, "bike_id": "5e1c70b4b6b3cbb1528aaed73326129a", "type": "electric_scooter", "lon": -77.03209833333334, "is_reserved": 0, "fusion_lat": 0.0, "fusion_lon": 0.0}, {"name": "16964486ff3a57e69f5b5462ed86b5c1", "is_disabled": 0, "lat": 38.914718666666666, "rental_uris": {"ios": "https://dc.lft.to/lastmile_qr_scan", "android": "https://dc.lft.to/lastmile_qr_scan"}, "bike_id": "16964486ff3a57e69f5b5462ed86b5c1", "type": "electric_scooter", "lon": -77.038346, "is_reserved": 0, "fusion_lat": 0.0, "fusion_lon": 0.0}, {"name": "93cd5e255af38bef817e7efd55dc591f", "is_disabled": 0, "lat": 38.89549016666667, "rental_uris": {"ios": "https://dc.lft.to/lastmile_qr_scan", "android": "https://dc.lft.to/lastmile_qr_scan"}, "bike_id": "93cd5e255af38bef817e7efd55dc591f", "type": "electric_scooter", "lon": -77.00914116666667, "is_reserved": 0, "fusion_lat": 0.0, "fusion_lon": 0.0}, {"name": "2dbdac9f4d7fbd663ede9ef8d6d6c707", "is_disabled": 0, "lat": 38.98045, "rental_uris": {"ios": "https://dc.lft.to/lastmile_qr_scan", "android": "https://dc.lft.to/lastmile_qr_scan"}, "bike_id": "2dbdac9f4d7fbd663ede9ef8d6d6c707", "type": "electric_bike", "lon": -76.957887, "is_reserved": 0, "fusion_lat": 0.0, "fusion_lon": 0.0}, {"name": "5842ffb084d6fc06e5fc92072276fb7b", "is_disabled": 0, "lat": 38.949806333333335, "rental_uris": {"ios": "https://dc.lft.to/lastmile_qr_scan", "android": "https://dc.lft.to/lastmile_qr_scan"}, "bike_id": "5842ffb084d6fc06e5fc92072276fb7b", "type": "electric_scooter", "lon": -77.0244945, "is_reserved": 0, "fusion_lat": 0.0, "fusion_lon": 0.0}, {"name": "8008bda7b925e1c34f71a40f1abe5e5f", "is_disabled": 0, "lat": 38.899265, "rental_uris": {"ios": "https://dc.lft.to/lastmile_qr_scan", "android": "https://dc.lft.to/lastmile_qr_scan"}, "bike_id": "8008bda7b925e1c34f71a40f1abe5e5f", "type": "electric_scooter", "lon": -77.0127165, "is_reserved": 0, "fusion_lat": 0.0, "fusion_lon": 0.0}, {"name": "bb0612543cd19b69ea3fb81f6883afb0", "is_disabled": 0, "lat": 38.90573633333333, "rental_uris": {"ios": "https://dc.lft.to/lastmile_qr_scan", "android": "https://dc.lft.to/lastmile_qr_scan"}, "bike_id": "bb0612543cd19b69ea3fb81f6883afb0", "type": "electric_scooter", "lon": -77.02208066666667, "is_reserved": 0, "fusion_lat": 0.0, "fusion_lon": 0.0}, {"name": "6098101357fd4897d41730f1d2a3d282", "is_disabled": 0, "lat": 38.89850466666667, "rental_uris": {"ios": "https://dc.lft.to/lastmile_qr_scan", "android": "https://dc.lft.to/lastmile_qr_scan"}, "bike_id": "6098101357fd4897d41730f1d2a3d282", "type": "electric_scooter", "lon": -77.02182166666667, "is_reserved": 0, "fusion_lat": 0.0, "fusion_lon": 0.0}, {"name": "c120d2493052391260628a30b246d642", "is_disabled": 0, "lat": 38.914023, "rental_uris": {"ios": "https://dc.lft.to/lastmile_qr_scan", "android": "https://dc.lft.to/lastmile_qr_scan"}, "bike_id": "c120d2493052391260628a30b246d642", "type": "electric_scooter", "lon": -77.03209483333333, "is_reserved": 0, "fusion_lat": 0.0, "fusion_lon": 0.0}, {"name": "fd4f126ddda8163e2151bac097bcb5bc", "is_disabled": 0, "lat": 38.938491, "rental_uris": {"ios": "https://dc.lft.to/lastmile_qr_scan", "android": "https://dc.lft.to/lastmile_qr_scan"}, "bike_id": "fd4f126ddda8163e2151bac097bcb5bc", "type": "electric_scooter", "lon": -77.024785, "is_reserved": 0, "fusion_lat": 0.0, "fusion_lon": 0.0}, {"name": "8f0299c4169e20f2bbfcabf26a20dc55", "is_disabled": 0, "lat": 38.919255166666666, "rental_uris": {"ios": "https://dc.lft.to/lastmile_qr_scan", "android": "https://dc.lft.to/lastmile_qr_scan"}, "bike_id": "8f0299c4169e20f2bbfcabf26a20dc55", "type": "electric_scooter", "lon": -77.03253616666667, "is_reserved": 0, "fusion_lat": 0.0, "fusion_lon": 0.0}, {"name": "d09f454cc69656eeed1ab91e55769c69", "is_disabled": 0, "lat": 38.90269033333333, "rental_uris": {"ios": "https://dc.lft.to/lastmile_qr_scan", "android": "https://dc.lft.to/lastmile_qr_scan"}, "bike_id": "d09f454cc69656eeed1ab91e55769c69", "type": "electric_scooter", "lon": -77.0531195, "is_reserved": 0, "fusion_lat": 0.0, "fusion_lon": 0.0}, {"name": "100027a0afa51e1c64fa700d4596d8f4", "is_disabled": 0, "lat": 38.905569666666665, "rental_uris": {"ios": "https://dc.lft.to/lastmile_qr_scan", "android": "https://dc.lft.to/lastmile_qr_scan"}, "bike_id": "100027a0afa51e1c64fa700d4596d8f4", "type": "electric_scooter", "lon": -77.01687616666666, "is_reserved": 0, "fusion_lat": 0.0, "fusion_lon": 0.0}, {"name": "7343504af579255466b4005f3fffb4f1", "is_disabled": 0, "lat": 38.9556245, "rental_uris": {"ios": "https://dc.lft.to/lastmile_qr_scan", "android": "https://dc.lft.to/lastmile_qr_scan"}, "bike_id": "7343504af579255466b4005f3fffb4f1", "type": "electric_bike", "lon": -77.02435083333333, "is_reserved": 0, "fusion_lat": 0.0, "fusion_lon": 0.0}, {"name": "cd4f76214debc3c5902020bab6509ace", "is_disabled": 0, "lat": 39.01413683333333, "rental_uris": {"ios": "https://dc.lft.to/lastmile_qr_scan", "android": "https://dc.lft.to/lastmile_qr_scan"}, "bike_id": "cd4f76214debc3c5902020bab6509ace", "type": "electric_bike", "lon": -77.04497783333333, "is_reserved": 0, "fusion_lat": 0.0, "fusion_lon": 0.0}, {"name": "24338ef95403d49406e2389dd01668c4", "is_disabled": 0, "lat": 38.88661666666667, "rental_uris": {"ios": "https://dc.lft.to/lastmile_qr_scan", "android": "https://dc.lft.to/lastmile_qr_scan"}, "bike_id": "24338ef95403d49406e2389dd01668c4", "type": "electric_bike", "lon": -77.16234233333333, "is_reserved": 0, "fusion_lat": 0.0, "fusion_lon": 0.0}, {"name": "36c2575e09257faa27481c25abdf232f", "is_disabled": 0, "lat": 38.915520666666666, "rental_uris": {"ios": "https://dc.lft.to/lastmile_qr_scan", "android": "https://dc.lft.to/lastmile_qr_scan"}, "bike_id": "36c2575e09257faa27481c25abdf232f", "type": "electric_scooter", "lon": -77.038537, "is_reserved": 0, "fusion_lat": 0.0, "fusion_lon": 0.0}, {"name": "1c99eba96b45a588ff8798d145853ccc", "is_disabled": 0, "lat": 38.88181483333334, "rental_uris": {"ios": "https://dc.lft.to/lastmile_qr_scan", "android": "https://dc.lft.to/lastmile_qr_scan"}, "bike_id": "1c99eba96b45a588ff8798d145853ccc", "type": "electric_scooter", "lon": -77.027634, "is_reserved": 0, "fusion_lat": 0.0, "fusion_lon": 0.0}, {"name": "8a8ffb1bcd4fb4429b8f306445c048b1", "is_disabled": 0, "lat": 38.9057155, "rental_uris": {"ios": "https://dc.lft.to/lastmile_qr_scan", "android": "https://dc.lft.to/lastmile_qr_scan"}, "bike_id": "8a8ffb1bcd4fb4429b8f306445c048b1", "type": "electric_scooter", "lon": -77.0220905, "is_reserved": 0, "fusion_lat": 0.0, "fusion_lon": 0.0}, {"name": "2911183a7ce3dcb170d11ae9b0d81c47", "is_disabled": 0, "lat": 38.873716, "rental_uris": {"ios": "https://dc.lft.to/lastmile_qr_scan", "android": "https://dc.lft.to/lastmile_qr_scan"}, "bike_id": "2911183a7ce3dcb170d11ae9b0d81c47", "type": "electric_scooter", "lon": -77.00123633333334, "is_reserved": 0, "fusion_lat": 0.0, "fusion_lon": 0.0}, {"name": "8c1e3a69c5310d15832e31f5d48ab01f", "is_disabled": 0, "lat": 38.899686333333335, "rental_uris": {"ios": "https://dc.lft.to/lastmile_qr_scan", "android": "https://dc.lft.to/lastmile_qr_scan"}, "bike_id": "8c1e3a69c5310d15832e31f5d48ab01f", "type": "electric_scooter", "lon": -77.02136866666666, "is_reserved": 0, "fusion_lat": 0.0, "fusion_lon": 0.0}, {"name": "2fd5478fbac7efd2105429912e74076e", "is_disabled": 0, "lat": 38.8972705, "rental_uris": {"ios": "https://dc.lft.to/lastmile_qr_scan", "android": "https://dc.lft.to/lastmile_qr_scan"}, "bike_id": "2fd5478fbac7efd2105429912e74076e", "type": "electric_scooter", "lon": -77.01865933333333, "is_reserved": 0, "fusion_lat": 0.0, "fusion_lon": 0.0}, {"name": "9d6ab5521f3a2d8527ddba0e53634c52", "is_disabled": 0, "lat": 38.873808, "rental_uris": {"ios": "https://dc.lft.to/lastmile_qr_scan", "android": "https://dc.lft.to/lastmile_qr_scan"}, "bike_id": "9d6ab5521f3a2d8527ddba0e53634c52", "type": "electric_scooter", "lon": -77.00168716666667, "is_reserved": 0, "fusion_lat": 0.0, "fusion_lon": 0.0}, {"name": "96e473084b82ce5849d420a9c2f75c13", "is_disabled": 0, "lat": 38.904193, "rental_uris": {"ios": "https://dc.lft.to/lastmile_qr_scan", "android": "https://dc.lft.to/lastmile_qr_scan"}, "bike_id": "96e473084b82ce5849d420a9c2f75c13", "type": "electric_bike", "lon": -77.02381583333333, "is_reserved": 0, "fusion_lat": 0.0, "fusion_lon": 0.0}, {"name": "a3d444f58b19df5ee6ad322009678327", "is_disabled": 0, "lat": 38.944063, "rental_uris": {"ios": "https://dc.lft.to/lastmile_qr_scan", "android": "https://dc.lft.to/lastmile_qr_scan"}, "bike_id": "a3d444f58b19df5ee6ad322009678327", "type": "electric_bike", "lon": -77.05514866666667, "is_reserved": 0, "fusion_lat": 0.0, "fusion_lon": 0.0}, {"name": "2517c3ea8be0309554d1526e04058718", "is_disabled": 0, "lat": 38.90228483333333, "rental_uris": {"ios": "https://dc.lft.to/lastmile_qr_scan", "android": "https://dc.lft.to/lastmile_qr_scan"}, "bike_id": "2517c3ea8be0309554d1526e04058718", "type": "electric_scooter", "lon": -77.02220033333333, "is_reserved": 0, "fusion_lat": 0.0, "fusion_lon": 0.0}, {"name": "195edec3d39082bf5dad7b47b1880484", "is_disabled": 0, "lat": 38.9127055, "rental_uris": {"ios": "https://dc.lft.to/lastmile_qr_scan", "android": "https://dc.lft.to/lastmile_qr_scan"}, "bike_id": "195edec3d39082bf5dad7b47b1880484", "type": "electric_scooter", "lon": -77.03059583333334, "is_reserved": 0, "fusion_lat": 0.0, "fusion_lon": 0.0}, {"name": "6cea7740f6f4a350a5c4714862070a7e", "is_disabled": 0, "lat": 38.89905783333333, "rental_uris": {"ios": "https://dc.lft.to/lastmile_qr_scan", "android": "https://dc.lft.to/lastmile_qr_scan"}, "bike_id": "6cea7740f6f4a350a5c4714862070a7e", "type": "electric_scooter", "lon": -76.99158866666667, "is_reserved": 0, "fusion_lat": 0.0, "fusion_lon": 0.0}, {"name": "2fd8a1c7e035e368ec946d7069f19e5a", "is_disabled": 0, "lat": 38.91711883333333, "rental_uris": {"ios": "https://dc.lft.to/lastmile_qr_scan", "android": "https://dc.lft.to/lastmile_qr_scan"}, "bike_id": "2fd8a1c7e035e368ec946d7069f19e5a", "type": "electric_scooter", "lon": -76.97663616666667, "is_reserved": 0, "fusion_lat": 0.0, "fusion_lon": 0.0}, {"name": "802d3ec61c0477c931d83ff8bbaf39cc", "is_disabled": 0, "lat": 38.9077795, "rental_uris": {"ios": "https://dc.lft.to/lastmile_qr_scan", "android": "https://dc.lft.to/lastmile_qr_scan"}, "bike_id": "802d3ec61c0477c931d83ff8bbaf39cc", "type": "electric_scooter", "lon": -77.03858966666667, "is_reserved": 0, "fusion_lat": 0.0, "fusion_lon": 0.0}, {"name": "6cfd358f911d3d46a5752d60dfbe334c", "is_disabled": 0, "lat": 38.8996315, "rental_uris": {"ios": "https://dc.lft.to/lastmile_qr_scan", "android": "https://dc.lft.to/lastmile_qr_scan"}, "bike_id": "6cfd358f911d3d46a5752d60dfbe334c", "type": "electric_scooter", "lon": -77.01631916666666, "is_reserved": 0, "fusion_lat": 0.0, "fusion_lon": 0.0}, {"name": "3e75280756b01a94490a80ba9bb47293", "is_disabled": 0, "lat": 38.91927716666667, "rental_uris": {"ios": "https://dc.lft.to/lastmile_qr_scan", "android": "https://dc.lft.to/lastmile_qr_scan"}, "bike_id": "3e75280756b01a94490a80ba9bb47293", "type": "electric_scooter", "lon": -77.03225133333333, "is_reserved": 0, "fusion_lat": 0.0, "fusion_lon": 0.0}, {"name": "c38c63a2f3d8fda7e98a9378e0f406a4", "is_disabled": 0, "lat": 38.92790183333334, "rental_uris": {"ios": "https://dc.lft.to/lastmile_qr_scan", "android": "https://dc.lft.to/lastmile_qr_scan"}, "bike_id": "c38c63a2f3d8fda7e98a9378e0f406a4", "type": "electric_scooter", "lon": -77.02458716666666, "is_reserved": 0, "fusion_lat": 0.0, "fusion_lon": 0.0}, {"name": "d05a61747890c2a58698c604edcd16df", "is_disabled": 0, "lat": 38.95607483333333, "rental_uris": {"ios": "https://dc.lft.to/lastmile_qr_scan", "android": "https://dc.lft.to/lastmile_qr_scan"}, "bike_id": "d05a61747890c2a58698c604edcd16df", "type": "electric_scooter", "lon": -77.03356083333334, "is_reserved": 0, "fusion_lat": 0.0, "fusion_lon": 0.0}, {"name": "081fa08b6e946eb4b06557ba2c390eb7", "is_disabled": 0, "lat": 38.900937666666664, "rental_uris": {"ios": "https://dc.lft.to/lastmile_qr_scan", "android": "https://dc.lft.to/lastmile_qr_scan"}, "bike_id": "081fa08b6e946eb4b06557ba2c390eb7", "type": "electric_scooter", "lon": -76.98325416666667, "is_reserved": 0, "fusion_lat": 0.0, "fusion_lon": 0.0}, {"name": "b203a50da617b18a18ab5de25b4cfb91", "is_disabled": 0, "lat": 38.8796875, "rental_uris": {"ios": "https://dc.lft.to/lastmile_qr_scan", "android": "https://dc.lft.to/lastmile_qr_scan"}, "bike_id": "b203a50da617b18a18ab5de25b4cfb91", "type": "electric_bike", "lon": -76.91615766666666, "is_reserved": 0, "fusion_lat": 0.0, "fusion_lon": 0.0}, {"name": "0a1702598507dc1d0d2da3acff96e560", "is_disabled": 0, "lat": 38.887523, "rental_uris": {"ios": "https://dc.lft.to/lastmile_qr_scan", "android": "https://dc.lft.to/lastmile_qr_scan"}, "bike_id": "0a1702598507dc1d0d2da3acff96e560", "type": "electric_scooter", "lon": -76.99608966666666, "is_reserved": 0, "fusion_lat": 0.0, "fusion_lon": 0.0}, {"name": "fe149376c97ba775e5221bedea3ca993", "is_disabled": 0, "lat": 38.916734166666664, "rental_uris": {"ios": "https://dc.lft.to/lastmile_qr_scan", "android": "https://dc.lft.to/lastmile_qr_scan"}, "bike_id": "fe149376c97ba775e5221bedea3ca993", "type": "electric_scooter", "lon": -77.02383833333333, "is_reserved": 0, "fusion_lat": 0.0, "fusion_lon": 0.0}, {"name": "9a346600192c1051c6210f22c8784d8d", "is_disabled": 0, "lat": 38.920731833333335, "rental_uris": {"ios": "https://dc.lft.to/lastmile_qr_scan", "android": "https://dc.lft.to/lastmile_qr_scan"}, "bike_id": "9a346600192c1051c6210f22c8784d8d", "type": "electric_scooter", "lon": -77.02224083333333, "is_reserved": 0, "fusion_lat": 0.0, "fusion_lon": 0.0}, {"name": "ca45fef7e04d019623e19e383f3f8bf4", "is_disabled": 0, "lat": 38.930524, "rental_uris": {"ios": "https://dc.lft.to/lastmile_qr_scan", "android": "https://dc.lft.to/lastmile_qr_scan"}, "bike_id": "ca45fef7e04d019623e19e383f3f8bf4", "type": "electric_scooter", "lon": -77.03283633333334, "is_reserved": 0, "fusion_lat": 0.0, "fusion_lon": 0.0}, {"name": "6986b2894e8762048f9150686ea14d85", "is_disabled": 0, "lat": 38.909583166666664, "rental_uris": {"ios": "https://dc.lft.to/lastmile_qr_scan", "android": "https://dc.lft.to/lastmile_qr_scan"}, "bike_id": "6986b2894e8762048f9150686ea14d85", "type": "electric_scooter", "lon": -77.0143925, "is_reserved": 0, "fusion_lat": 0.0, "fusion_lon": 0.0}, {"name": "0e5ab9974fadf92fd23df4744e339387", "is_disabled": 0, "lat": 38.88734216666667, "rental_uris": {"ios": "https://dc.lft.to/lastmile_qr_scan", "android": "https://dc.lft.to/lastmile_qr_scan"}, "bike_id": "0e5ab9974fadf92fd23df4744e339387", "type": "electric_scooter", "lon": -77.02383666666667, "is_reserved": 0, "fusion_lat": 0.0, "fusion_lon": 0.0}, {"name": "b9fafccdb646f22065a033b27f7f8aa8", "is_disabled": 0, "lat": 38.9179825, "rental_uris": {"ios": "https://dc.lft.to/lastmile_qr_scan", "android": "https://dc.lft.to/lastmile_qr_scan"}, "bike_id": "b9fafccdb646f22065a033b27f7f8aa8", "type": "electric_scooter", "lon": -77.02707783333334, "is_reserved": 0, "fusion_lat": 0.0, "fusion_lon": 0.0}, {"name": "93e5b40a1f3b988528837da44a807891", "is_disabled": 0, "lat": 38.902631166666666, "rental_uris": {"ios": "https://dc.lft.to/lastmile_qr_scan", "android": "https://dc.lft.to/lastmile_qr_scan"}, "bike_id": "93e5b40a1f3b988528837da44a807891", "type": "electric_scooter", "lon": -77.05318283333334, "is_reserved": 0, "fusion_lat": 0.0, "fusion_lon": 0.0}, {"name": "3ac237d0f0c474d78d242d8d6b0123d2", "is_disabled": 0, "lat": 38.91471216666667, "rental_uris": {"ios": "https://dc.lft.to/lastmile_qr_scan", "android": "https://dc.lft.to/lastmile_qr_scan"}, "bike_id": "3ac237d0f0c474d78d242d8d6b0123d2", "type": "electric_scooter", "lon": -77.03870333333333, "is_reserved": 0, "fusion_lat": 0.0, "fusion_lon": 0.0}, {"name": "75561c8ef8678cbd847854447048c117", "is_disabled": 0, "lat": 38.924468833333336, "rental_uris": {"ios": "https://dc.lft.to/lastmile_qr_scan", "android": "https://dc.lft.to/lastmile_qr_scan"}, "bike_id": "75561c8ef8678cbd847854447048c117", "type": "electric_scooter", "lon": -77.03330966666667, "is_reserved": 0, "fusion_lat": 0.0, "fusion_lon": 0.0}, {"name": "ee759c94010446cfcde6d4a09991efef", "is_disabled": 0, "lat": 38.90552183333333, "rental_uris": {"ios": "https://dc.lft.to/lastmile_qr_scan", "android": "https://dc.lft.to/lastmile_qr_scan"}, "bike_id": "ee759c94010446cfcde6d4a09991efef", "type": "electric_scooter", "lon": -77.00585183333334, "is_reserved": 0, "fusion_lat": 0.0, "fusion_lon": 0.0}, {"name": "1a83b91922d43d681a97d97815fadc04", "is_disabled": 0, "lat": 38.878974, "rental_uris": {"ios": "https://dc.lft.to/lastmile_qr_scan", "android": "https://dc.lft.to/lastmile_qr_scan"}, "bike_id": "1a83b91922d43d681a97d97815fadc04", "type": "electric_scooter", "lon": -77.005926, "is_reserved": 0, "fusion_lat": 0.0, "fusion_lon": 0.0}, {"name": "f7bd44c69b072078dba81467646c7321", "is_disabled": 0, "lat": 38.899893666666664, "rental_uris": {"ios": "https://dc.lft.to/lastmile_qr_scan", "android": "https://dc.lft.to/lastmile_qr_scan"}, "bike_id": "f7bd44c69b072078dba81467646c7321", "type": "electric_scooter", "lon": -76.98369233333334, "is_reserved": 0, "fusion_lat": 0.0, "fusion_lon": 0.0}, {"name": "319844d5df10a3da6289e9c18e3c395b", "is_disabled": 0, "lat": 38.91919866666667, "rental_uris": {"ios": "https://dc.lft.to/lastmile_qr_scan", "android": "https://dc.lft.to/lastmile_qr_scan"}, "bike_id": "319844d5df10a3da6289e9c18e3c395b", "type": "electric_scooter", "lon": -77.03034333333333, "is_reserved": 0, "fusion_lat": 0.0, "fusion_lon": 0.0}, {"name": "3c8ba5575359d6b2873f7dd85301ab32", "is_disabled": 0, "lat": 38.9074005, "rental_uris": {"ios": "https://dc.lft.to/lastmile_qr_scan", "android": "https://dc.lft.to/lastmile_qr_scan"}, "bike_id": "3c8ba5575359d6b2873f7dd85301ab32", "type": "electric_scooter", "lon": -77.041604, "is_reserved": 0, "fusion_lat": 0.0, "fusion_lon": 0.0}, {"name": "7ae353dc577a6a0d37d91d423181bb00", "is_disabled": 0, "lat": 38.91404383333333, "rental_uris": {"ios": "https://dc.lft.to/lastmile_qr_scan", "android": "https://dc.lft.to/lastmile_qr_scan"}, "bike_id": "7ae353dc577a6a0d37d91d423181bb00", "type": "electric_scooter", "lon": -77.0322645, "is_reserved": 0, "fusion_lat": 0.0, "fusion_lon": 0.0}, {"name": "f5a89950f182422f546e96ef19a62e9d", "is_disabled": 0, "lat": 38.90397216666667, "rental_uris": {"ios": "https://dc.lft.to/lastmile_qr_scan", "android": "https://dc.lft.to/lastmile_qr_scan"}, "bike_id": "f5a89950f182422f546e96ef19a62e9d", "type": "electric_scooter", "lon": -77.04319316666667, "is_reserved": 0, "fusion_lat": 0.0, "fusion_lon": 0.0}, {"name": "f256851e7317062cdb80dbe413072a71", "is_disabled": 0, "lat": 38.878906666666666, "rental_uris": {"ios": "https://dc.lft.to/lastmile_qr_scan", "android": "https://dc.lft.to/lastmile_qr_scan"}, "bike_id": "f256851e7317062cdb80dbe413072a71", "type": "electric_scooter", "lon": -77.005852, "is_reserved": 0, "fusion_lat": 0.0, "fusion_lon": 0.0}, {"name": "3d7e1babf2938b77f4dff2ca2b47a928", "is_disabled": 0, "lat": 38.906174666666665, "rental_uris": {"ios": "https://dc.lft.to/lastmile_qr_scan", "android": "https://dc.lft.to/lastmile_qr_scan"}, "bike_id": "3d7e1babf2938b77f4dff2ca2b47a928", "type": "electric_scooter", "lon": -77.0149345, "is_reserved": 0, "fusion_lat": 0.0, "fusion_lon": 0.0}, {"name": "556965a6020aa37fa3e5ec8504551d01", "is_disabled": 0, "lat": 38.88753883333333, "rental_uris": {"ios": "https://dc.lft.to/lastmile_qr_scan", "android": "https://dc.lft.to/lastmile_qr_scan"}, "bike_id": "556965a6020aa37fa3e5ec8504551d01", "type": "electric_scooter", "lon": -77.029222, "is_reserved": 0, "fusion_lat": 0.0, "fusion_lon": 0.0}, {"name": "112c18401f5650db926d6a0b9223fd8d", "is_disabled": 0, "lat": 38.91913066666667, "rental_uris": {"ios": "https://dc.lft.to/lastmile_qr_scan", "android": "https://dc.lft.to/lastmile_qr_scan"}, "bike_id": "112c18401f5650db926d6a0b9223fd8d", "type": "electric_scooter", "lon": -77.02292133333333, "is_reserved": 0, "fusion_lat": 0.0, "fusion_lon": 0.0}, {"name": "5b336779ab9e31e91ab8733111123d34", "is_disabled": 0, "lat": 38.9327945, "rental_uris": {"ios": "https://dc.lft.to/lastmile_qr_scan", "android": "https://dc.lft.to/lastmile_qr_scan"}, "bike_id": "5b336779ab9e31e91ab8733111123d34", "type": "electric_scooter", "lon": -77.028687, "is_reserved": 0, "fusion_lat": 0.0, "fusion_lon": 0.0}, {"name": "c41333f1ef9a287c6980cc6796ae3847", "is_disabled": 0, "lat": 38.90197333333333, "rental_uris": {"ios": "https://dc.lft.to/lastmile_qr_scan", "android": "https://dc.lft.to/lastmile_qr_scan"}, "bike_id": "c41333f1ef9a287c6980cc6796ae3847", "type": "electric_scooter", "lon": -77.0237875, "is_reserved": 0, "fusion_lat": 0.0, "fusion_lon": 0.0}, {"name": "f8d6fc28a5ae20197cd2b13e5f8ab4fa", "is_disabled": 0, "lat": 38.90093733333333, "rental_uris": {"ios": "https://dc.lft.to/lastmile_qr_scan", "android": "https://dc.lft.to/lastmile_qr_scan"}, "bike_id": "f8d6fc28a5ae20197cd2b13e5f8ab4fa", "type": "electric_scooter", "lon": -77.04924583333333, "is_reserved": 0, "fusion_lat": 0.0, "fusion_lon": 0.0}, {"name": "cad3d0ca1684cafa54b355877e195bb5", "is_disabled": 0, "lat": 38.919281166666664, "rental_uris": {"ios": "https://dc.lft.to/lastmile_qr_scan", "android": "https://dc.lft.to/lastmile_qr_scan"}, "bike_id": "cad3d0ca1684cafa54b355877e195bb5", "type": "electric_scooter", "lon": -77.02291733333334, "is_reserved": 0, "fusion_lat": 0.0, "fusion_lon": 0.0}, {"name": "5393e63b2dcb493c686d46b40ffc8e2b", "is_disabled": 0, "lat": 39.01077683333333, "rental_uris": {"ios": "https://dc.lft.to/lastmile_qr_scan", "android": "https://dc.lft.to/lastmile_qr_scan"}, "bike_id": "5393e63b2dcb493c686d46b40ffc8e2b", "type": "electric_bike", "lon": -76.91066316666667, "is_reserved": 0, "fusion_lat": 0.0, "fusion_lon": 0.0}, {"name": "f2a550f75cbdbfbf18ebd1edae07f7ec", "is_disabled": 0, "lat": 38.92317633333333, "rental_uris": {"ios": "https://dc.lft.to/lastmile_qr_scan", "android": "https://dc.lft.to/lastmile_qr_scan"}, "bike_id": "f2a550f75cbdbfbf18ebd1edae07f7ec", "type": "electric_scooter", "lon": -77.04037733333334, "is_reserved": 0, "fusion_lat": 0.0, "fusion_lon": 0.0}, {"name": "d771f4c14670c5acfa46bba57288b166", "is_disabled": 0, "lat": 38.92413483333333, "rental_uris": {"ios": "https://dc.lft.to/lastmile_qr_scan", "android": "https://dc.lft.to/lastmile_qr_scan"}, "bike_id": "d771f4c14670c5acfa46bba57288b166", "type": "electric_scooter", "lon": -77.03637683333334, "is_reserved": 0, "fusion_lat": 0.0, "fusion_lon": 0.0}, {"name": "ec890297c79628acbd094489cb100ca5", "is_disabled": 0, "lat": 38.89225066666667, "rental_uris": {"ios": "https://dc.lft.to/lastmile_qr_scan", "android": "https://dc.lft.to/lastmile_qr_scan"}, "bike_id": "ec890297c79628acbd094489cb100ca5", "type": "electric_scooter", "lon": -77.04505983333334, "is_reserved": 0, "fusion_lat": 0.0, "fusion_lon": 0.0}, {"name": "15b25b3fd5ff27a0fee7a05ec88cab82", "is_disabled": 0, "lat": 38.91705233333333, "rental_uris": {"ios": "https://dc.lft.to/lastmile_qr_scan", "android": "https://dc.lft.to/lastmile_qr_scan"}, "bike_id": "15b25b3fd5ff27a0fee7a05ec88cab82", "type": "electric_scooter", "lon": -77.02435966666667, "is_reserved": 0, "fusion_lat": 0.0, "fusion_lon": 0.0}, {"name": "93928e131d43877f7b3743a08d3ab359", "is_disabled": 0, "lat": 38.91440633333333, "rental_uris": {"ios": "https://dc.lft.to/lastmile_qr_scan", "android": "https://dc.lft.to/lastmile_qr_scan"}, "bike_id": "93928e131d43877f7b3743a08d3ab359", "type": "electric_scooter", "lon": -77.02197866666667, "is_reserved": 0, "fusion_lat": 0.0, "fusion_lon": 0.0}, {"name": "6b45d641bd527620c0699687f0cb4097", "is_disabled": 0, "lat": 38.917918666666665, "rental_uris": {"ios": "https://dc.lft.to/lastmile_qr_scan", "android": "https://dc.lft.to/lastmile_qr_scan"}, "bike_id": "6b45d641bd527620c0699687f0cb4097", "type": "electric_scooter", "lon": -77.034609, "is_reserved": 0, "fusion_lat": 0.0, "fusion_lon": 0.0}, {"name": "85e5bc6cdbd8f48f5b9ebf1c95c8226b", "is_disabled": 0, "lat": 38.863884, "rental_uris": {"ios": "https://dc.lft.to/lastmile_qr_scan", "android": "https://dc.lft.to/lastmile_qr_scan"}, "bike_id": "85e5bc6cdbd8f48f5b9ebf1c95c8226b", "type": "electric_bike", "lon": -76.98998383333333, "is_reserved": 0, "fusion_lat": 0.0, "fusion_lon": 0.0}, {"name": "c7633dd29c3f2878b1af9f2c279bf6a8", "is_disabled": 0, "lat": 38.914126833333334, "rental_uris": {"ios": "https://dc.lft.to/lastmile_qr_scan", "android": "https://dc.lft.to/lastmile_qr_scan"}, "bike_id": "c7633dd29c3f2878b1af9f2c279bf6a8", "type": "electric_scooter", "lon": -77.01075483333334, "is_reserved": 0, "fusion_lat": 0.0, "fusion_lon": 0.0}, {"name": "04356383d42f854666bb9a0b3dd1cad0", "is_disabled": 0, "lat": 38.91689483333333, "rental_uris": {"ios": "https://dc.lft.to/lastmile_qr_scan", "android": "https://dc.lft.to/lastmile_qr_scan"}, "bike_id": "04356383d42f854666bb9a0b3dd1cad0", "type": "electric_scooter", "lon": -77.0228545, "is_reserved": 0, "fusion_lat": 0.0, "fusion_lon": 0.0}, {"name": "64bff0e5d2a1904eb84d89cbd0f1f42a", "is_disabled": 0, "lat": 38.88723266666667, "rental_uris": {"ios": "https://dc.lft.to/lastmile_qr_scan", "android": "https://dc.lft.to/lastmile_qr_scan"}, "bike_id": "64bff0e5d2a1904eb84d89cbd0f1f42a", "type": "electric_scooter", "lon": -77.031904, "is_reserved": 0, "fusion_lat": 0.0, "fusion_lon": 0.0}, {"name": "18f7127fa823dc0f74b01c3b0bb7415b", "is_disabled": 0, "lat": 38.92152166666666, "rental_uris": {"ios": "https://dc.lft.to/lastmile_qr_scan", "android": "https://dc.lft.to/lastmile_qr_scan"}, "bike_id": "18f7127fa823dc0f74b01c3b0bb7415b", "type": "electric_scooter", "lon": -77.03357233333334, "is_reserved": 0, "fusion_lat": 0.0, "fusion_lon": 0.0}, {"name": "36cb1a289f5f16915970f377e5e8b6de", "is_disabled": 0, "lat": 38.8996585, "rental_uris": {"ios": "https://dc.lft.to/lastmile_qr_scan", "android": "https://dc.lft.to/lastmile_qr_scan"}, "bike_id": "36cb1a289f5f16915970f377e5e8b6de", "type": "electric_scooter", "lon": -77.016299, "is_reserved": 0, "fusion_lat": 0.0, "fusion_lon": 0.0}, {"name": "3606d43dbe50938aaa238fb0ee71dfb2", "is_disabled": 0, "lat": 38.922612666666666, "rental_uris": {"ios": "https://dc.lft.to/lastmile_qr_scan", "android": "https://dc.lft.to/lastmile_qr_scan"}, "bike_id": "3606d43dbe50938aaa238fb0ee71dfb2", "type": "electric_scooter", "lon": -77.02435983333334, "is_reserved": 0, "fusion_lat": 0.0, "fusion_lon": 0.0}, {"name": "bb3100d5f0911a1285049a4cbb9a9971", "is_disabled": 0, "lat": 38.915499833333335, "rental_uris": {"ios": "https://dc.lft.to/lastmile_qr_scan", "android": "https://dc.lft.to/lastmile_qr_scan"}, "bike_id": "bb3100d5f0911a1285049a4cbb9a9971", "type": "electric_scooter", "lon": -77.00364666666667, "is_reserved": 0, "fusion_lat": 0.0, "fusion_lon": 0.0}, {"name": "1a589df58a60e34d731dfa05fdd775ae", "is_disabled": 0, "lat": 38.922303166666666, "rental_uris": {"ios": "https://dc.lft.to/lastmile_qr_scan", "android": "https://dc.lft.to/lastmile_qr_scan"}, "bike_id": "1a589df58a60e34d731dfa05fdd775ae", "type": "electric_scooter", "lon": -77.02980833333334, "is_reserved": 0, "fusion_lat": 0.0, "fusion_lon": 0.0}, {"name": "6001876ade8b696f7d753e05bb8e0ccc", "is_disabled": 0, "lat": 38.887296, "rental_uris": {"ios": "https://dc.lft.to/lastmile_qr_scan", "android": "https://dc.lft.to/lastmile_qr_scan"}, "bike_id": "6001876ade8b696f7d753e05bb8e0ccc", "type": "electric_scooter", "lon": -77.017686, "is_reserved": 0, "fusion_lat": 0.0, "fusion_lon": 0.0}, {"name": "9f8e31f46896e4f5a1ffd8c8f23aebcf", "is_disabled": 0, "lat": 38.90959866666667, "rental_uris": {"ios": "https://dc.lft.to/lastmile_qr_scan", "android": "https://dc.lft.to/lastmile_qr_scan"}, "bike_id": "9f8e31f46896e4f5a1ffd8c8f23aebcf", "type": "electric_scooter", "lon": -77.03948116666666, "is_reserved": 0, "fusion_lat": 0.0, "fusion_lon": 0.0}, {"name": "1038672e607a1ae84132bfd0324a8b1a", "is_disabled": 0, "lat": 38.91994616666667, "rental_uris": {"ios": "https://dc.lft.to/lastmile_qr_scan", "android": "https://dc.lft.to/lastmile_qr_scan"}, "bike_id": "1038672e607a1ae84132bfd0324a8b1a", "type": "electric_scooter", "lon": -77.03286083333333, "is_reserved": 0, "fusion_lat": 0.0, "fusion_lon": 0.0}, {"name": "c2d20910efbc68bc0896d2bade926879", "is_disabled": 0, "lat": 38.838274166666665, "rental_uris": {"ios": "https://dc.lft.to/lastmile_qr_scan", "android": "https://dc.lft.to/lastmile_qr_scan"}, "bike_id": "c2d20910efbc68bc0896d2bade926879", "type": "electric_bike", "lon": -76.99681583333333, "is_reserved": 0, "fusion_lat": 0.0, "fusion_lon": 0.0}, {"name": "51c94fc76577024cd0d76b2115c0f9d1", "is_disabled": 0, "lat": 38.929217666666666, "rental_uris": {"ios": "https://dc.lft.to/lastmile_qr_scan", "android": "https://dc.lft.to/lastmile_qr_scan"}, "bike_id": "51c94fc76577024cd0d76b2115c0f9d1", "type": "electric_scooter", "lon": -77.03261333333333, "is_reserved": 0, "fusion_lat": 0.0, "fusion_lon": 0.0}, {"name": "b57acee70bd8952e439f01c639f130f4", "is_disabled": 0, "lat": 38.9050955, "rental_uris": {"ios": "https://dc.lft.to/lastmile_qr_scan", "android": "https://dc.lft.to/lastmile_qr_scan"}, "bike_id": "b57acee70bd8952e439f01c639f130f4", "type": "electric_scooter", "lon": -77.04867833333333, "is_reserved": 0, "fusion_lat": 0.0, "fusion_lon": 0.0}, {"name": "213d19a8d13045abffdee1c5df2f2999", "is_disabled": 0, "lat": 38.90394416666667, "rental_uris": {"ios": "https://dc.lft.to/lastmile_qr_scan", "android": "https://dc.lft.to/lastmile_qr_scan"}, "bike_id": "213d19a8d13045abffdee1c5df2f2999", "type": "electric_scooter", "lon": -77.0384815, "is_reserved": 0, "fusion_lat": 0.0, "fusion_lon": 0.0}, {"name": "3fcfe5b546805738137485d04c2757ea", "is_disabled": 0, "lat": 38.900433166666666, "rental_uris": {"ios": "https://dc.lft.to/lastmile_qr_scan", "android": "https://dc.lft.to/lastmile_qr_scan"}, "bike_id": "3fcfe5b546805738137485d04c2757ea", "type": "electric_scooter", "lon": -77.00209, "is_reserved": 0, "fusion_lat": 0.0, "fusion_lon": 0.0}, {"name": "e292c1f1dc773a5b1e34cd318dd414f9", "is_disabled": 0, "lat": 38.91724383333333, "rental_uris": {"ios": "https://dc.lft.to/lastmile_qr_scan", "android": "https://dc.lft.to/lastmile_qr_scan"}, "bike_id": "e292c1f1dc773a5b1e34cd318dd414f9", "type": "electric_scooter", "lon": -77.02699483333333, "is_reserved": 0, "fusion_lat": 0.0, "fusion_lon": 0.0}, {"name": "fb2f051072467e78b8521a24505f6f4a", "is_disabled": 0, "lat": 38.909060833333335, "rental_uris": {"ios": "https://dc.lft.to/lastmile_qr_scan", "android": "https://dc.lft.to/lastmile_qr_scan"}, "bike_id": "fb2f051072467e78b8521a24505f6f4a", "type": "electric_scooter", "lon": -77.04214916666666, "is_reserved": 0, "fusion_lat": 0.0, "fusion_lon": 0.0}, {"name": "63394b911c9f09c18d358d6c3820835c", "is_disabled": 0, "lat": 38.88714816666667, "rental_uris": {"ios": "https://dc.lft.to/lastmile_qr_scan", "android": "https://dc.lft.to/lastmile_qr_scan"}, "bike_id": "63394b911c9f09c18d358d6c3820835c", "type": "electric_scooter", "lon": -77.02580066666667, "is_reserved": 0, "fusion_lat": 0.0, "fusion_lon": 0.0}, {"name": "e31f30c706a40e0965e842808dd46e8e", "is_disabled": 0, "lat": 38.889907, "rental_uris": {"ios": "https://dc.lft.to/lastmile_qr_scan", "android": "https://dc.lft.to/lastmile_qr_scan"}, "bike_id": "e31f30c706a40e0965e842808dd46e8e", "type": "electric_bike", "lon": -77.07130933333333, "is_reserved": 0, "fusion_lat": 0.0, "fusion_lon": 0.0}, {"name": "144a2baf001971527dcc517af7b9a369", "is_disabled": 0, "lat": 38.906786, "rental_uris": {"ios": "https://dc.lft.to/lastmile_qr_scan", "android": "https://dc.lft.to/lastmile_qr_scan"}, "bike_id": "144a2baf001971527dcc517af7b9a369", "type": "electric_bike", "lon": -77.03635966666667, "is_reserved": 0, "fusion_lat": 0.0, "fusion_lon": 0.0}, {"name": "6e0296fe512b468561a815287856e439", "is_disabled": 0, "lat": 38.89241666666667, "rental_uris": {"ios": "https://dc.lft.to/lastmile_qr_scan", "android": "https://dc.lft.to/lastmile_qr_scan"}, "bike_id": "6e0296fe512b468561a815287856e439", "type": "electric_scooter", "lon": -77.03186183333334, "is_reserved": 0, "fusion_lat": 0.0, "fusion_lon": 0.0}, {"name": "8410dca0a0a727252796b3a2ba83fc06", "is_disabled": 0, "lat": 38.909326, "rental_uris": {"ios": "https://dc.lft.to/lastmile_qr_scan", "android": "https://dc.lft.to/lastmile_qr_scan"}, "bike_id": "8410dca0a0a727252796b3a2ba83fc06", "type": "electric_scooter", "lon": -76.99967366666667, "is_reserved": 0, "fusion_lat": 0.0, "fusion_lon": 0.0}, {"name": "e38ad1eef4612d31f95ba9103bbe5fec", "is_disabled": 0, "lat": 38.938319, "rental_uris": {"ios": "https://dc.lft.to/lastmile_qr_scan", "android": "https://dc.lft.to/lastmile_qr_scan"}, "bike_id": "e38ad1eef4612d31f95ba9103bbe5fec", "type": "electric_scooter", "lon": -76.99191566666667, "is_reserved": 0, "fusion_lat": 0.0, "fusion_lon": 0.0}, {"name": "5c54d797325c5eb5997510c035c2f62d", "is_disabled": 0, "lat": 38.90588533333333, "rental_uris": {"ios": "https://dc.lft.to/lastmile_qr_scan", "android": "https://dc.lft.to/lastmile_qr_scan"}, "bike_id": "5c54d797325c5eb5997510c035c2f62d", "type": "electric_scooter", "lon": -77.00403316666667, "is_reserved": 0, "fusion_lat": 0.0, "fusion_lon": 0.0}, {"name": "c88969838a58d9109eb2dd71b743462f", "is_disabled": 0, "lat": 38.900851333333335, "rental_uris": {"ios": "https://dc.lft.to/lastmile_qr_scan", "android": "https://dc.lft.to/lastmile_qr_scan"}, "bike_id": "c88969838a58d9109eb2dd71b743462f", "type": "electric_scooter", "lon": -77.0317355, "is_reserved": 0, "fusion_lat": 0.0, "fusion_lon": 0.0}, {"name": "f28fad35c42feb5771e6236acb141f26", "is_disabled": 0, "lat": 38.9247385, "rental_uris": {"ios": "https://dc.lft.to/lastmile_qr_scan", "android": "https://dc.lft.to/lastmile_qr_scan"}, "bike_id": "f28fad35c42feb5771e6236acb141f26", "type": "electric_scooter", "lon": -77.022223, "is_reserved": 0, "fusion_lat": 0.0, "fusion_lon": 0.0}, {"name": "fe8cf2dec8aa8a63cc175e42696d5b82", "is_disabled": 0, "lat": 38.93241716666667, "rental_uris": {"ios": "https://dc.lft.to/lastmile_qr_scan", "android": "https://dc.lft.to/lastmile_qr_scan"}, "bike_id": "fe8cf2dec8aa8a63cc175e42696d5b82", "type": "electric_scooter", "lon": -76.99525116666666, "is_reserved": 0, "fusion_lat": 0.0, "fusion_lon": 0.0}, {"name": "1a359220d747aee92fdb3827200b7170", "is_disabled": 0, "lat": 38.91578033333333, "rental_uris": {"ios": "https://dc.lft.to/lastmile_qr_scan", "android": "https://dc.lft.to/lastmile_qr_scan"}, "bike_id": "1a359220d747aee92fdb3827200b7170", "type": "electric_scooter", "lon": -77.01230683333333, "is_reserved": 0, "fusion_lat": 0.0, "fusion_lon": 0.0}, {"name": "a0a51288d53feb2b07e38b49f82118ff", "is_disabled": 0, "lat": 38.912426333333336, "rental_uris": {"ios": "https://dc.lft.to/lastmile_qr_scan", "android": "https://dc.lft.to/lastmile_qr_scan"}, "bike_id": "a0a51288d53feb2b07e38b49f82118ff", "type": "electric_scooter", "lon": -77.04874983333333, "is_reserved": 0, "fusion_lat": 0.0, "fusion_lon": 0.0}, {"name": "b57f97f628e7c8ff00c6a5b25337d800", "is_disabled": 0, "lat": 38.8995255, "rental_uris": {"ios": "https://dc.lft.to/lastmile_qr_scan", "android": "https://dc.lft.to/lastmile_qr_scan"}, "bike_id": "b57f97f628e7c8ff00c6a5b25337d800", "type": "electric_scooter", "lon": -77.013936, "is_reserved": 0, "fusion_lat": 0.0, "fusion_lon": 0.0}, {"name": "5cb97b2df4df8bb574034baa116361b5", "is_disabled": 0, "lat": 38.905246, "rental_uris": {"ios": "https://dc.lft.to/lastmile_qr_scan", "android": "https://dc.lft.to/lastmile_qr_scan"}, "bike_id": "5cb97b2df4df8bb574034baa116361b5", "type": "electric_scooter", "lon": -77.06353916666667, "is_reserved": 0, "fusion_lat": 0.0, "fusion_lon": 0.0}, {"name": "04f3b2e6f04e7e1e4b310b90d8904210", "is_disabled": 0, "lat": 38.89222266666667, "rental_uris": {"ios": "https://dc.lft.to/lastmile_qr_scan", "android": "https://dc.lft.to/lastmile_qr_scan"}, "bike_id": "04f3b2e6f04e7e1e4b310b90d8904210", "type": "electric_scooter", "lon": -77.03984933333334, "is_reserved": 0, "fusion_lat": 0.0, "fusion_lon": 0.0}, {"name": "5f3a2d6eb56584e26027606c9b21232a", "is_disabled": 0, "lat": 38.90575166666667, "rental_uris": {"ios": "https://dc.lft.to/lastmile_qr_scan", "android": "https://dc.lft.to/lastmile_qr_scan"}, "bike_id": "5f3a2d6eb56584e26027606c9b21232a", "type": "electric_scooter", "lon": -77.008919, "is_reserved": 0, "fusion_lat": 0.0, "fusion_lon": 0.0}, {"name": "f6d0f2d2f5800926834a8d70f7e0cce9", "is_disabled": 0, "lat": 38.914894, "rental_uris": {"ios": "https://dc.lft.to/lastmile_qr_scan", "android": "https://dc.lft.to/lastmile_qr_scan"}, "bike_id": "f6d0f2d2f5800926834a8d70f7e0cce9", "type": "electric_scooter", "lon": -77.042386, "is_reserved": 0, "fusion_lat": 0.0, "fusion_lon": 0.0}, {"name": "f1ebe47bbd75a7796fe4ee6eca91d142", "is_disabled": 0, "lat": 38.90564066666666, "rental_uris": {"ios": "https://dc.lft.to/lastmile_qr_scan", "android": "https://dc.lft.to/lastmile_qr_scan"}, "bike_id": "f1ebe47bbd75a7796fe4ee6eca91d142", "type": "electric_scooter", "lon": -77.00571783333334, "is_reserved": 0, "fusion_lat": 0.0, "fusion_lon": 0.0}, {"name": "72b5faa10f207b2b63b9bf41208fc3ad", "is_disabled": 0, "lat": 38.89893383333333, "rental_uris": {"ios": "https://dc.lft.to/lastmile_qr_scan", "android": "https://dc.lft.to/lastmile_qr_scan"}, "bike_id": "72b5faa10f207b2b63b9bf41208fc3ad", "type": "electric_scooter", "lon": -76.980619, "is_reserved": 0, "fusion_lat": 0.0, "fusion_lon": 0.0}, {"name": "5899ecc9fe7015e97957ebbd5af2c444", "is_disabled": 0, "lat": 39.07054, "rental_uris": {"ios": "https://dc.lft.to/lastmile_qr_scan", "android": "https://dc.lft.to/lastmile_qr_scan"}, "bike_id": "5899ecc9fe7015e97957ebbd5af2c444", "type": "electric_bike", "lon": -77.114872, "is_reserved": 0, "fusion_lat": 0.0, "fusion_lon": 0.0}, {"name": "b02371e6b08dae2d6f414d158c380fb2", "is_disabled": 0, "lat": 38.902016, "rental_uris": {"ios": "https://dc.lft.to/lastmile_qr_scan", "android": "https://dc.lft.to/lastmile_qr_scan"}, "bike_id": "b02371e6b08dae2d6f414d158c380fb2", "type": "electric_scooter", "lon": -77.02371, "is_reserved": 0, "fusion_lat": 0.0, "fusion_lon": 0.0}, {"name": "a3d1459fa5e647fd7bb13680e7e6d143", "is_disabled": 0, "lat": 38.89080216666667, "rental_uris": {"ios": "https://dc.lft.to/lastmile_qr_scan", "android": "https://dc.lft.to/lastmile_qr_scan"}, "bike_id": "a3d1459fa5e647fd7bb13680e7e6d143", "type": "electric_scooter", "lon": -76.98824566666667, "is_reserved": 0, "fusion_lat": 0.0, "fusion_lon": 0.0}, {"name": "407e5e3b8b5bc87413029d748a337625", "is_disabled": 0, "lat": 38.908862166666665, "rental_uris": {"ios": "https://dc.lft.to/lastmile_qr_scan", "android": "https://dc.lft.to/lastmile_qr_scan"}, "bike_id": "407e5e3b8b5bc87413029d748a337625", "type": "electric_scooter", "lon": -77.03221366666666, "is_reserved": 0, "fusion_lat": 0.0, "fusion_lon": 0.0}, {"name": "7a5a991a8b831114ce987015ae1153ea", "is_disabled": 0, "lat": 38.9170935, "rental_uris": {"ios": "https://dc.lft.to/lastmile_qr_scan", "android": "https://dc.lft.to/lastmile_qr_scan"}, "bike_id": "7a5a991a8b831114ce987015ae1153ea", "type": "electric_scooter", "lon": -77.03047083333334, "is_reserved": 0, "fusion_lat": 0.0, "fusion_lon": 0.0}, {"name": "23deb31c525ec3584a1b64e1b0816f94", "is_disabled": 0, "lat": 38.879384, "rental_uris": {"ios": "https://dc.lft.to/lastmile_qr_scan", "android": "https://dc.lft.to/lastmile_qr_scan"}, "bike_id": "23deb31c525ec3584a1b64e1b0816f94", "type": "electric_scooter", "lon": -77.00605266666666, "is_reserved": 0, "fusion_lat": 0.0, "fusion_lon": 0.0}, {"name": "e46dedb43f76d39d5869ef142f7c4f8c", "is_disabled": 0, "lat": 38.91605766666667, "rental_uris": {"ios": "https://dc.lft.to/lastmile_qr_scan", "android": "https://dc.lft.to/lastmile_qr_scan"}, "bike_id": "e46dedb43f76d39d5869ef142f7c4f8c", "type": "electric_scooter", "lon": -77.03225333333333, "is_reserved": 0, "fusion_lat": 0.0, "fusion_lon": 0.0}, {"name": "2bf91e30a64b7741563373db15228e51", "is_disabled": 0, "lat": 38.893198, "rental_uris": {"ios": "https://dc.lft.to/lastmile_qr_scan", "android": "https://dc.lft.to/lastmile_qr_scan"}, "bike_id": "2bf91e30a64b7741563373db15228e51", "type": "electric_scooter", "lon": -77.0223915, "is_reserved": 0, "fusion_lat": 0.0, "fusion_lon": 0.0}, {"name": "4e4560c33647fa9401a2fe3140743f05", "is_disabled": 0, "lat": 38.874653333333335, "rental_uris": {"ios": "https://dc.lft.to/lastmile_qr_scan", "android": "https://dc.lft.to/lastmile_qr_scan"}, "bike_id": "4e4560c33647fa9401a2fe3140743f05", "type": "electric_scooter", "lon": -77.00854933333333, "is_reserved": 0, "fusion_lat": 0.0, "fusion_lon": 0.0}, {"name": "25a76d3a45c7a618e9f6a4e5291ae113", "is_disabled": 0, "lat": 38.9191395, "rental_uris": {"ios": "https://dc.lft.to/lastmile_qr_scan", "android": "https://dc.lft.to/lastmile_qr_scan"}, "bike_id": "25a76d3a45c7a618e9f6a4e5291ae113", "type": "electric_scooter", "lon": -77.03219333333334, "is_reserved": 0, "fusion_lat": 0.0, "fusion_lon": 0.0}, {"name": "1b8f96c9211afc9c3c80e614085a609e", "is_disabled": 0, "lat": 38.93292783333333, "rental_uris": {"ios": "https://dc.lft.to/lastmile_qr_scan", "android": "https://dc.lft.to/lastmile_qr_scan"}, "bike_id": "1b8f96c9211afc9c3c80e614085a609e", "type": "electric_scooter", "lon": -77.02854566666667, "is_reserved": 0, "fusion_lat": 0.0, "fusion_lon": 0.0}, {"name": "bff5c8f3bb226fdf307f2626be629e6b", "is_disabled": 0, "lat": 38.895862, "rental_uris": {"ios": "https://dc.lft.to/lastmile_qr_scan", "android": "https://dc.lft.to/lastmile_qr_scan"}, "bike_id": "bff5c8f3bb226fdf307f2626be629e6b", "type": "electric_scooter", "lon": -76.9831205, "is_reserved": 0, "fusion_lat": 0.0, "fusion_lon": 0.0}, {"name": "9475e64ff3bc3c8e4da8209d1b5dd6de", "is_disabled": 0, "lat": 38.910119333333334, "rental_uris": {"ios": "https://dc.lft.to/lastmile_qr_scan", "android": "https://dc.lft.to/lastmile_qr_scan"}, "bike_id": "9475e64ff3bc3c8e4da8209d1b5dd6de", "type": "electric_scooter", "lon": -77.0345545, "is_reserved": 0, "fusion_lat": 0.0, "fusion_lon": 0.0}, {"name": "117af47fbe68c72804812ef673215c2e", "is_disabled": 0, "lat": 38.89617066666667, "rental_uris": {"ios": "https://dc.lft.to/lastmile_qr_scan", "android": "https://dc.lft.to/lastmile_qr_scan"}, "bike_id": "117af47fbe68c72804812ef673215c2e", "type": "electric_scooter", "lon": -77.02362666666667, "is_reserved": 0, "fusion_lat": 0.0, "fusion_lon": 0.0}, {"name": "f5674dbc7831170ae494fa1d19d3b580", "is_disabled": 0, "lat": 38.90049283333333, "rental_uris": {"ios": "https://dc.lft.to/lastmile_qr_scan", "android": "https://dc.lft.to/lastmile_qr_scan"}, "bike_id": "f5674dbc7831170ae494fa1d19d3b580", "type": "electric_scooter", "lon": -77.00073816666666, "is_reserved": 0, "fusion_lat": 0.0, "fusion_lon": 0.0}, {"name": "4bca1baa8e54c484503ff77a247d1047", "is_disabled": 0, "lat": 38.91684816666667, "rental_uris": {"ios": "https://dc.lft.to/lastmile_qr_scan", "android": "https://dc.lft.to/lastmile_qr_scan"}, "bike_id": "4bca1baa8e54c484503ff77a247d1047", "type": "electric_scooter", "lon": -77.023834, "is_reserved": 0, "fusion_lat": 0.0, "fusion_lon": 0.0}, {"name": "06ece11c9a5003ea3f478f5d520f8587", "is_disabled": 0, "lat": 38.8830685, "rental_uris": {"ios": "https://dc.lft.to/lastmile_qr_scan", "android": "https://dc.lft.to/lastmile_qr_scan"}, "bike_id": "06ece11c9a5003ea3f478f5d520f8587", "type": "electric_scooter", "lon": -77.01386966666666, "is_reserved": 0, "fusion_lat": 0.0, "fusion_lon": 0.0}, {"name": "e2936e3216654056f4fe3fd09dc80111", "is_disabled": 0, "lat": 38.902238833333335, "rental_uris": {"ios": "https://dc.lft.to/lastmile_qr_scan", "android": "https://dc.lft.to/lastmile_qr_scan"}, "bike_id": "e2936e3216654056f4fe3fd09dc80111", "type": "electric_scooter", "lon": -77.01613633333334, "is_reserved": 0, "fusion_lat": 0.0, "fusion_lon": 0.0}, {"name": "c08ed679ffe2b141f853c016dc90c023", "is_disabled": 0, "lat": 38.8853365, "rental_uris": {"ios": "https://dc.lft.to/lastmile_qr_scan", "android": "https://dc.lft.to/lastmile_qr_scan"}, "bike_id": "c08ed679ffe2b141f853c016dc90c023", "type": "electric_scooter", "lon": -77.022061, "is_reserved": 0, "fusion_lat": 0.0, "fusion_lon": 0.0}, {"name": "a99e8d364bef800c6210b8bf8f4edef6", "is_disabled": 0, "lat": 38.9099605, "rental_uris": {"ios": "https://dc.lft.to/lastmile_qr_scan", "android": "https://dc.lft.to/lastmile_qr_scan"}, "bike_id": "a99e8d364bef800c6210b8bf8f4edef6", "type": "electric_scooter", "lon": -77.034639, "is_reserved": 0, "fusion_lat": 0.0, "fusion_lon": 0.0}, {"name": "00429342b576a2542d1ec81cb1275ea4", "is_disabled": 0, "lat": 38.900461166666666, "rental_uris": {"ios": "https://dc.lft.to/lastmile_qr_scan", "android": "https://dc.lft.to/lastmile_qr_scan"}, "bike_id": "00429342b576a2542d1ec81cb1275ea4", "type": "electric_scooter", "lon": -77.00217666666667, "is_reserved": 0, "fusion_lat": 0.0, "fusion_lon": 0.0}, {"name": "fe3c367287b1d60203b8274cdda26b81", "is_disabled": 0, "lat": 38.871812, "rental_uris": {"ios": "https://dc.lft.to/lastmile_qr_scan", "android": "https://dc.lft.to/lastmile_qr_scan"}, "bike_id": "fe3c367287b1d60203b8274cdda26b81", "type": "electric_scooter", "lon": -77.00612483333333, "is_reserved": 0, "fusion_lat": 0.0, "fusion_lon": 0.0}, {"name": "e15e7237d036a4dca552873d0166761d", "is_disabled": 0, "lat": 38.90005, "rental_uris": {"ios": "https://dc.lft.to/lastmile_qr_scan", "android": "https://dc.lft.to/lastmile_qr_scan"}, "bike_id": "e15e7237d036a4dca552873d0166761d", "type": "electric_scooter", "lon": -77.05421316666667, "is_reserved": 0, "fusion_lat": 0.0, "fusion_lon": 0.0}, {"name": "4683b2e01037bfea94b9b6bb2338138a", "is_disabled": 0, "lat": 38.9230125, "rental_uris": {"ios": "https://dc.lft.to/lastmile_qr_scan", "android": "https://dc.lft.to/lastmile_qr_scan"}, "bike_id": "4683b2e01037bfea94b9b6bb2338138a", "type": "electric_scooter", "lon": -77.02357016666667, "is_reserved": 0, "fusion_lat": 0.0, "fusion_lon": 0.0}, {"name": "8fa4ceee5a11ab49630b7c347a5faa07", "is_disabled": 0, "lat": 38.897177166666665, "rental_uris": {"ios": "https://dc.lft.to/lastmile_qr_scan", "android": "https://dc.lft.to/lastmile_qr_scan"}, "bike_id": "8fa4ceee5a11ab49630b7c347a5faa07", "type": "electric_scooter", "lon": -77.002075, "is_reserved": 0, "fusion_lat": 0.0, "fusion_lon": 0.0}, {"name": "22e5f998b8f4fbd95acb5d0716bbdd81", "is_disabled": 0, "lat": 38.92342416666666, "rental_uris": {"ios": "https://dc.lft.to/lastmile_qr_scan", "android": "https://dc.lft.to/lastmile_qr_scan"}, "bike_id": "22e5f998b8f4fbd95acb5d0716bbdd81", "type": "electric_scooter", "lon": -77.051808, "is_reserved": 0, "fusion_lat": 0.0, "fusion_lon": 0.0}, {"name": "a1ca17c42387d3502e65f4c29b8e71dd", "is_disabled": 0, "lat": 38.89759866666667, "rental_uris": {"ios": "https://dc.lft.to/lastmile_qr_scan", "android": "https://dc.lft.to/lastmile_qr_scan"}, "bike_id": "a1ca17c42387d3502e65f4c29b8e71dd", "type": "electric_scooter", "lon": -77.02197333333334, "is_reserved": 0, "fusion_lat": 0.0, "fusion_lon": 0.0}, {"name": "c1f87baac89d6027122f1d62bb283e2b", "is_disabled": 0, "lat": 38.906285, "rental_uris": {"ios": "https://dc.lft.to/lastmile_qr_scan", "android": "https://dc.lft.to/lastmile_qr_scan"}, "bike_id": "c1f87baac89d6027122f1d62bb283e2b", "type": "electric_scooter", "lon": -77.02534066666666, "is_reserved": 0, "fusion_lat": 0.0, "fusion_lon": 0.0}, {"name": "9b3b943b2d741a90bfa6e9e8199d2279", "is_disabled": 0, "lat": 38.92369033333333, "rental_uris": {"ios": "https://dc.lft.to/lastmile_qr_scan", "android": "https://dc.lft.to/lastmile_qr_scan"}, "bike_id": "9b3b943b2d741a90bfa6e9e8199d2279", "type": "electric_scooter", "lon": -77.021223, "is_reserved": 0, "fusion_lat": 0.0, "fusion_lon": 0.0}, {"name": "7aee0eb77bd4232183057395e05de678", "is_disabled": 0, "lat": 38.90135, "rental_uris": {"ios": "https://dc.lft.to/lastmile_qr_scan", "android": "https://dc.lft.to/lastmile_qr_scan"}, "bike_id": "7aee0eb77bd4232183057395e05de678", "type": "electric_scooter", "lon": -77.032123, "is_reserved": 0, "fusion_lat": 0.0, "fusion_lon": 0.0}, {"name": "5c2fa13a2e6b1a595fb0dded5bd132d8", "is_disabled": 0, "lat": 38.9308975, "rental_uris": {"ios": "https://dc.lft.to/lastmile_qr_scan", "android": "https://dc.lft.to/lastmile_qr_scan"}, "bike_id": "5c2fa13a2e6b1a595fb0dded5bd132d8", "type": "electric_scooter", "lon": -77.03434983333334, "is_reserved": 0, "fusion_lat": 0.0, "fusion_lon": 0.0}, {"name": "f9a376e0c573c4c53fb51646f9646931", "is_disabled": 0, "lat": 38.8071505, "rental_uris": {"ios": "https://dc.lft.to/lastmile_qr_scan", "android": "https://dc.lft.to/lastmile_qr_scan"}, "bike_id": "f9a376e0c573c4c53fb51646f9646931", "type": "electric_bike", "lon": -77.0617545, "is_reserved": 0, "fusion_lat": 0.0, "fusion_lon": 0.0}, {"name": "ff7cc9bfca97425660de7888dd346cc8", "is_disabled": 0, "lat": 38.88120966666666, "rental_uris": {"ios": "https://dc.lft.to/lastmile_qr_scan", "android": "https://dc.lft.to/lastmile_qr_scan"}, "bike_id": "ff7cc9bfca97425660de7888dd346cc8", "type": "electric_bike", "lon": -76.99799033333333, "is_reserved": 0, "fusion_lat": 0.0, "fusion_lon": 0.0}, {"name": "4c07614b5a22d13e8302176674809440", "is_disabled": 0, "lat": 38.90287433333334, "rental_uris": {"ios": "https://dc.lft.to/lastmile_qr_scan", "android": "https://dc.lft.to/lastmile_qr_scan"}, "bike_id": "4c07614b5a22d13e8302176674809440", "type": "electric_scooter", "lon": -77.02271116666667, "is_reserved": 0, "fusion_lat": 0.0, "fusion_lon": 0.0}, {"name": "f9daa7111a6c24022b38f150d47194ae", "is_disabled": 0, "lat": 38.88734866666667, "rental_uris": {"ios": "https://dc.lft.to/lastmile_qr_scan", "android": "https://dc.lft.to/lastmile_qr_scan"}, "bike_id": "f9daa7111a6c24022b38f150d47194ae", "type": "electric_scooter", "lon": -77.01515816666667, "is_reserved": 0, "fusion_lat": 0.0, "fusion_lon": 0.0}, {"name": "1f3bcf2c6011626a32d3725c34c97e4f", "is_disabled": 0, "lat": 38.924212, "rental_uris": {"ios": "https://dc.lft.to/lastmile_qr_scan", "android": "https://dc.lft.to/lastmile_qr_scan"}, "bike_id": "1f3bcf2c6011626a32d3725c34c97e4f", "type": "electric_scooter", "lon": -77.02030983333333, "is_reserved": 0, "fusion_lat": 0.0, "fusion_lon": 0.0}, {"name": "3efd2a226b9384f40914c231cd1013b4", "is_disabled": 0, "lat": 38.891067666666665, "rental_uris": {"ios": "https://dc.lft.to/lastmile_qr_scan", "android": "https://dc.lft.to/lastmile_qr_scan"}, "bike_id": "3efd2a226b9384f40914c231cd1013b4", "type": "electric_bike", "lon": -76.9836075, "is_reserved": 0, "fusion_lat": 0.0, "fusion_lon": 0.0}, {"name": "5a3778fcbf4b66942f06355c91ac58c4", "is_disabled": 0, "lat": 38.8874455, "rental_uris": {"ios": "https://dc.lft.to/lastmile_qr_scan", "android": "https://dc.lft.to/lastmile_qr_scan"}, "bike_id": "5a3778fcbf4b66942f06355c91ac58c4", "type": "electric_scooter", "lon": -77.02126433333333, "is_reserved": 0, "fusion_lat": 0.0, "fusion_lon": 0.0}, {"name": "be66b4fcd59db49f36fd1fe94507f9c5", "is_disabled": 0, "lat": 38.941804166666664, "rental_uris": {"ios": "https://dc.lft.to/lastmile_qr_scan", "android": "https://dc.lft.to/lastmile_qr_scan"}, "bike_id": "be66b4fcd59db49f36fd1fe94507f9c5", "type": "electric_scooter", "lon": -77.0261525, "is_reserved": 0, "fusion_lat": 0.0, "fusion_lon": 0.0}, {"name": "d00ab5bbf4938197a564e036b8984769", "is_disabled": 0, "lat": 38.9308435, "rental_uris": {"ios": "https://dc.lft.to/lastmile_qr_scan", "android": "https://dc.lft.to/lastmile_qr_scan"}, "bike_id": "d00ab5bbf4938197a564e036b8984769", "type": "electric_scooter", "lon": -77.03417716666667, "is_reserved": 0, "fusion_lat": 0.0, "fusion_lon": 0.0}, {"name": "9b71012caa5261261924c021f764420f", "is_disabled": 0, "lat": 38.91275366666667, "rental_uris": {"ios": "https://dc.lft.to/lastmile_qr_scan", "android": "https://dc.lft.to/lastmile_qr_scan"}, "bike_id": "9b71012caa5261261924c021f764420f", "type": "electric_scooter", "lon": -77.03127133333334, "is_reserved": 0, "fusion_lat": 0.0, "fusion_lon": 0.0}, {"name": "f0a3da2db58180cf4b45b17eef64f737", "is_disabled": 0, "lat": 38.892337166666664, "rental_uris": {"ios": "https://dc.lft.to/lastmile_qr_scan", "android": "https://dc.lft.to/lastmile_qr_scan"}, "bike_id": "f0a3da2db58180cf4b45b17eef64f737", "type": "electric_scooter", "lon": -76.98813916666667, "is_reserved": 0, "fusion_lat": 0.0, "fusion_lon": 0.0}, {"name": "36e0cb5f12bc2c264a74a1e8cc5bebe2", "is_disabled": 0, "lat": 38.921779666666666, "rental_uris": {"ios": "https://dc.lft.to/lastmile_qr_scan", "android": "https://dc.lft.to/lastmile_qr_scan"}, "bike_id": "36e0cb5f12bc2c264a74a1e8cc5bebe2", "type": "electric_scooter", "lon": -77.04026416666666, "is_reserved": 0, "fusion_lat": 0.0, "fusion_lon": 0.0}, {"name": "f810a4dcd47c2943991f12af39f86140", "is_disabled": 0, "lat": 38.806816, "rental_uris": {"ios": "https://dc.lft.to/lastmile_qr_scan", "android": "https://dc.lft.to/lastmile_qr_scan"}, "bike_id": "f810a4dcd47c2943991f12af39f86140", "type": "electric_bike", "lon": -77.06912616666666, "is_reserved": 0, "fusion_lat": 0.0, "fusion_lon": 0.0}, {"name": "c3030ae977275b9ccac596ec53461d51", "is_disabled": 0, "lat": 38.928526, "rental_uris": {"ios": "https://dc.lft.to/lastmile_qr_scan", "android": "https://dc.lft.to/lastmile_qr_scan"},