{"data": {"bikes": [{"type": "electric_scooter", "fusion_lon": 0.0, "bike_id": "c4ad50cd85069c20c9d8588789915c43", "is_disabled": 0, "lat": 38.9119445, "rental_uris": {"ios": "https://dc.lft.to/lastmile_qr_scan", "android": "https://dc.lft.to/lastmile_qr_scan"}, "is_reserved": 0, "lon": -77.04538566666666, "fusion_lat": 0.0, "name": "c4ad50cd85069c20c9d8588789915c43"}, {"type": "electric_scooter", "fusion_lon": 0.0, "bike_id": "900bcee90ad933e2140dc22f5729b468", "is_disabled": 0, "lat": 38.878932666666664, "rental_uris": {"ios": "https://dc.lft.to/lastmile_qr_scan", "android": "https://dc.lft.to/lastmile_qr_scan"}, "is_reserved": 0, "lon": -77.00543633333334, "fusion_lat": 0.0, "name": "900bcee90ad933e2140dc22f5729b468"}, {"type": "electric_scooter", "fusion_lon": 0.0, "bike_id": "cef8f8385c4f40b60dfead2b22c0e04d", "is_disabled": 0, "lat": 38.8976205, "rental_uris": {"ios": "https://dc.lft.to/lastmile_qr_scan", "android": "https://dc.lft.to/lastmile_qr_scan"}, "is_reserved": 0, "lon": -76.98648383333334, "fusion_lat": 0.0, "name": "cef8f8385c4f40b60dfead2b22c0e04d"}, {"type": "electric_scooter", "fusion_lon": 0.0, "bike_id": "f111af979acb4603805f307f5e9a5fd1", "is_disabled": 0, "lat": 38.921372, "rental_uris": {"ios": "https://dc.lft.to/lastmile_qr_scan", "android": "https://dc.lft.to/lastmile_qr_scan"}, "is_reserved": 0, "lon": -77.0366745, "fusion_lat": 0.0, "name": "f111af979acb4603805f307f5e9a5fd1"}, {"type": "electric_scooter", "fusion_lon": 0.0, "bike_id": "2318a267319532b53c4377c8e6a1ef1c", "is_disabled": 0, "lat": 38.90123366666667, "rental_uris": {"ios": "https://dc.lft.to/lastmile_qr_scan", "android": "https://dc.lft.to/lastmile_qr_scan"}, "is_reserved": 0, "lon": -77.051529, "fusion_lat": 0.0, "name": "2318a267319532b53c4377c8e6a1ef1c"}, {"type": "electric_scooter", "fusion_lon": 0.0, "bike_id": "772a291d31a7c84460b4e5365095ffd1", "is_disabled": 0, "lat": 38.93434333333333, "rental_uris": {"ios": "https://dc.lft.to/lastmile_qr_scan", "android": "https://dc.lft.to/lastmile_qr_scan"}, "is_reserved": 0, "lon": -77.0327905, "fusion_lat": 0.0, "name": "772a291d31a7c84460b4e5365095ffd1"}, {"type": "electric_scooter", "fusion_lon": 0.0, "bike_id": "caf4ba0981e868c66740c05ca3125125", "is_disabled": 0, "lat": 38.914117166666664, "rental_uris": {"ios": "https://dc.lft.to/lastmile_qr_scan", "android": "https://dc.lft.to/lastmile_qr_scan"}, "is_reserved": 0, "lon": -77.03550166666666, "fusion_lat": 0.0, "name": "caf4ba0981e868c66740c05ca3125125"}, {"type": "electric_scooter", "fusion_lon": 0.0, "bike_id": "78f5288d7277750cab2585316b548a1c", "is_disabled": 0, "lat": 38.906219, "rental_uris": {"ios": "https://dc.lft.to/lastmile_qr_scan", "android": "https://dc.lft.to/lastmile_qr_scan"}, "is_reserved": 0, "lon": -77.0515735, "fusion_lat": 0.0, "name": "78f5288d7277750cab2585316b548a1c"}, {"type": "electric_scooter", "fusion_lon": 0.0, "bike_id": "158940f8138adb4afda35b3bc99eb961", "is_disabled": 0, "lat": 38.9263025, "rental_uris": {"ios": "https://dc.lft.to/lastmile_qr_scan", "android": "https://dc.lft.to/lastmile_qr_scan"}, "is_reserved": 0, "lon": -76.99623416666667, "fusion_lat": 0.0, "name": "158940f8138adb4afda35b3bc99eb961"}, {"type": "electric_scooter", "fusion_lon": 0.0, "bike_id": "ae7657e7ec2ce747f7eca6935483ffd7", "is_disabled": 0, "lat": 38.887359333333336, "rental_uris": {"ios": "https://dc.lft.to/lastmile_qr_scan", "android": "https://dc.lft.to/lastmile_qr_scan"}, "is_reserved": 0, "lon": -77.03179216666666, "fusion_lat": 0.0, "name": "ae7657e7ec2ce747f7eca6935483ffd7"}, {"type": "electric_scooter", "fusion_lon": 0.0, "bike_id": "daf475c18fb3b3727fdfc2cf9816b859", "is_disabled": 0, "lat": 38.91273616666667, "rental_uris": {"ios": "https://dc.lft.to/lastmile_qr_scan", "android": "https://dc.lft.to/lastmile_qr_scan"}, "is_reserved": 0, "lon": -77.02214733333334, "fusion_lat": 0.0, "name": "daf475c18fb3b3727fdfc2cf9816b859"}, {"type": "electric_scooter", "fusion_lon": 0.0, "bike_id": "55faf4c88fd0f86a42198b2b213c55e5", "is_disabled": 0, "lat": 38.91408966666667, "rental_uris": {"ios": "https://dc.lft.to/lastmile_qr_scan", "android": "https://dc.lft.to/lastmile_qr_scan"}, "is_reserved": 0, "lon": -77.03261516666667, "fusion_lat": 0.0, "name": "55faf4c88fd0f86a42198b2b213c55e5"}, {"type": "electric_scooter", "fusion_lon": 0.0, "bike_id": "2346c4e34049ff5bd38f4962a31c978e", "is_disabled": 0, "lat": 38.924648, "rental_uris": {"ios": "https://dc.lft.to/lastmile_qr_scan", "android": "https://dc.lft.to/lastmile_qr_scan"}, "is_reserved": 0, "lon": -77.02711283333333, "fusion_lat": 0.0, "name": "2346c4e34049ff5bd38f4962a31c978e"}, {"type": "electric_scooter", "fusion_lon": 0.0, "bike_id": "afffbc848da9156480b358edbffad3c1", "is_disabled": 0, "lat": 38.95181083333333, "rental_uris": {"ios": "https://dc.lft.to/lastmile_qr_scan", "android": "https://dc.lft.to/lastmile_qr_scan"}, "is_reserved": 0, "lon": -77.0260855, "fusion_lat": 0.0, "name": "afffbc848da9156480b358edbffad3c1"}, {"type": "electric_scooter", "fusion_lon": 0.0, "bike_id": "8c53e72c54fac775d75aabc589425b7a", "is_disabled": 0, "lat": 38.9183495, "rental_uris": {"ios": "https://dc.lft.to/lastmile_qr_scan", "android": "https://dc.lft.to/lastmile_qr_scan"}, "is_reserved": 0, "lon": -77.04168383333334, "fusion_lat": 0.0, "name": "8c53e72c54fac775d75aabc589425b7a"}, {"type": "electric_scooter", "fusion_lon": 0.0, "bike_id": "35f66674ce893d5cfba139bc3a30a8b9", "is_disabled": 0, "lat": 38.90528483333333, "rental_uris": {"ios": "https://dc.lft.to/lastmile_qr_scan", "android": "https://dc.lft.to/lastmile_qr_scan"}, "is_reserved": 0, "lon": -77.02969366666666, "fusion_lat": 0.0, "name": "35f66674ce893d5cfba139bc3a30a8b9"}, {"type": "electric_scooter", "fusion_lon": 0.0, "bike_id": "111db379eac374027ecf39d2cdb5e8fc", "is_disabled": 0, "lat": 38.89226133333333, "rental_uris": {"ios": "https://dc.lft.to/lastmile_qr_scan", "android": "https://dc.lft.to/lastmile_qr_scan"}, "is_reserved": 0, "lon": -77.02418916666667, "fusion_lat": 0.0, "name": "111db379eac374027ecf39d2cdb5e8fc"}, {"type": "electric_scooter", "fusion_lon": 0.0, "bike_id": "7edbe312a551c9c0c66dc95a19ac9200", "is_disabled": 0, "lat": 38.93104433333333, "rental_uris": {"ios": "https://dc.lft.to/lastmile_qr_scan", "android": "https://dc.lft.to/lastmile_qr_scan"}, "is_reserved": 0, "lon": -77.02475733333333, "fusion_lat": 0.0, "name": "7edbe312a551c9c0c66dc95a19ac9200"}, {"type": "electric_scooter", "fusion_lon": 0.0, "bike_id": "bc15a790ccfa1eb393997bc26afaf0ae", "is_disabled": 0, "lat": 38.90875183333333, "rental_uris": {"ios": "https://dc.lft.to/lastmile_qr_scan", "android": "https://dc.lft.to/lastmile_qr_scan"}, "is_reserved": 0, "lon": -77.06782716666666, "fusion_lat": 0.0, "name": "bc15a790ccfa1eb393997bc26afaf0ae"}, {"type": "electric_scooter", "fusion_lon": 0.0, "bike_id": "eb160a756842be3080f1ffbd2318adfa", "is_disabled": 0, "lat": 38.920314833333336, "rental_uris": {"ios": "https://dc.lft.to/lastmile_qr_scan", "android": "https://dc.lft.to/lastmile_qr_scan"}, "is_reserved": 0, "lon": -77.01430766666667, "fusion_lat": 0.0, "name": "eb160a756842be3080f1ffbd2318adfa"}, {"type": "electric_scooter", "fusion_lon": 0.0, "bike_id": "69101c0b04d9b30cb131d135d8d45c1d", "is_disabled": 0, "lat": 38.90517466666667, "rental_uris": {"ios": "https://dc.lft.to/lastmile_qr_scan", "android": "https://dc.lft.to/lastmile_qr_scan"}, "is_reserved": 0, "lon": -77.047594, "fusion_lat": 0.0, "name": "69101c0b04d9b30cb131d135d8d45c1d"}, {"type": "electric_scooter", "fusion_lon": 0.0, "bike_id": "e0301195f205858b4764894210109725", "is_disabled": 0, "lat": 38.914881, "rental_uris": {"ios": "https://dc.lft.to/lastmile_qr_scan", "android": "https://dc.lft.to/lastmile_qr_scan"}, "is_reserved": 0, "lon": -77.0325455, "fusion_lat": 0.0, "name": "e0301195f205858b4764894210109725"}, {"type": "electric_scooter", "fusion_lon": 0.0, "bike_id": "a57acb1549cbf05dd3f9276218dcad19", "is_disabled": 0, "lat": 38.90249983333333, "rental_uris": {"ios": "https://dc.lft.to/lastmile_qr_scan", "android": "https://dc.lft.to/lastmile_qr_scan"}, "is_reserved": 0, "lon": -77.02663116666666, "fusion_lat": 0.0, "name": "a57acb1549cbf05dd3f9276218dcad19"}, {"type": "electric_bike", "fusion_lon": 0.0, "bike_id": "bcaf04da2ba6dd1da7ae4ec13ea331e2", "is_disabled": 0, "lat": 38.89570666666667, "rental_uris": {"ios": "https://dc.lft.to/lastmile_qr_scan", "android": "https://dc.lft.to/lastmile_qr_scan"}, "is_reserved": 0, "lon": -77.09615916666667, "fusion_lat": 0.0, "name": "bcaf04da2ba6dd1da7ae4ec13ea331e2"}, {"type": "electric_scooter", "fusion_lon": 0.0, "bike_id": "04756a1f71cc7250f75282918f9fa155", "is_disabled": 0, "lat": 38.887685166666664, "rental_uris": {"ios": "https://dc.lft.to/lastmile_qr_scan", "android": "https://dc.lft.to/lastmile_qr_scan"}, "is_reserved": 0, "lon": -77.03354383333334, "fusion_lat": 0.0, "name": "04756a1f71cc7250f75282918f9fa155"}, {"type": "electric_scooter", "fusion_lon": 0.0, "bike_id": "5a75c57d71d17c5e087f5529df178314", "is_disabled": 0, "lat": 38.911104, "rental_uris": {"ios": "https://dc.lft.to/lastmile_qr_scan", "android": "https://dc.lft.to/lastmile_qr_scan"}, "is_reserved": 0, "lon": -77.03827783333334, "fusion_lat": 0.0, "name": "5a75c57d71d17c5e087f5529df178314"}, {"type": "electric_scooter", "fusion_lon": 0.0, "bike_id": "2a0fd5eef8b8d50a658c52606bb8f2ee", "is_disabled": 0, "lat": 38.914655, "rental_uris": {"ios": "https://dc.lft.to/lastmile_qr_scan", "android": "https://dc.lft.to/lastmile_qr_scan"}, "is_reserved": 0, "lon": -77.03829216666666, "fusion_lat": 0.0, "name": "2a0fd5eef8b8d50a658c52606bb8f2ee"}, {"type": "electric_scooter", "fusion_lon": 0.0, "bike_id": "e8a89f906498b9bd4b076bdb982e4ff8", "is_disabled": 0, "lat": 38.9076035, "rental_uris": {"ios": "https://dc.lft.to/lastmile_qr_scan", "android": "https://dc.lft.to/lastmile_qr_scan"}, "is_reserved": 0, "lon": -77.0230105, "fusion_lat": 0.0, "name": "e8a89f906498b9bd4b076bdb982e4ff8"}, {"type": "electric_scooter", "fusion_lon": 0.0, "bike_id": "a52d79ada078ef5ca550f4234a0748f4", "is_disabled": 0, "lat": 38.909961833333334, "rental_uris": {"ios": "https://dc.lft.to/lastmile_qr_scan", "android": "https://dc.lft.to/lastmile_qr_scan"}, "is_reserved": 0, "lon": -76.99453833333334, "fusion_lat": 0.0, "name": "a52d79ada078ef5ca550f4234a0748f4"}, {"type": "electric_scooter", "fusion_lon": 0.0, "bike_id": "d1d1cf11523755794b6a70c1f3968ba1", "is_disabled": 0, "lat": 38.90238183333334, "rental_uris": {"ios": "https://dc.lft.to/lastmile_qr_scan", "android": "https://dc.lft.to/lastmile_qr_scan"}, "is_reserved": 0, "lon": -77.002094, "fusion_lat": 0.0, "name": "d1d1cf11523755794b6a70c1f3968ba1"}, {"type": "electric_scooter", "fusion_lon": 0.0, "bike_id": "384dfdb06022c5563052b4b2f916842c", "is_disabled": 0, "lat": 38.91191283333333, "rental_uris": {"ios": "https://dc.lft.to/lastmile_qr_scan", "android": "https://dc.lft.to/lastmile_qr_scan"}, "is_reserved": 0, "lon": -77.01077116666667, "fusion_lat": 0.0, "name": "384dfdb06022c5563052b4b2f916842c"}, {"type": "electric_scooter", "fusion_lon": 0.0, "bike_id": "1f1cd05050a13449ebd4c3f83dd65e5e", "is_disabled": 0, "lat": 38.941981, "rental_uris": {"ios": "https://dc.lft.to/lastmile_qr_scan", "android": "https://dc.lft.to/lastmile_qr_scan"}, "is_reserved": 0, "lon": -77.02439716666666, "fusion_lat": 0.0, "name": "1f1cd05050a13449ebd4c3f83dd65e5e"}, {"type": "electric_scooter", "fusion_lon": 0.0, "bike_id": "2d3ec8f0fbbb586d2b2e5891d048abdd", "is_disabled": 0, "lat": 38.96026283333333, "rental_uris": {"ios": "https://dc.lft.to/lastmile_qr_scan", "android": "https://dc.lft.to/lastmile_qr_scan"}, "is_reserved": 0, "lon": -77.01985183333333, "fusion_lat": 0.0, "name": "2d3ec8f0fbbb586d2b2e5891d048abdd"}, {"type": "electric_bike", "fusion_lon": 0.0, "bike_id": "18ddf724d75e377274cf492819598540", "is_disabled": 0, "lat": 38.8133385, "rental_uris": {"ios": "https://dc.lft.to/lastmile_qr_scan", "android": "https://dc.lft.to/lastmile_qr_scan"}, "is_reserved": 0, "lon": -77.0511895, "fusion_lat": 0.0, "name": "18ddf724d75e377274cf492819598540"}, {"type": "electric_scooter", "fusion_lon": 0.0, "bike_id": "bed9edcdc90b36bb17d470a87e9bb7dc", "is_disabled": 0, "lat": 38.918777, "rental_uris": {"ios": "https://dc.lft.to/lastmile_qr_scan", "android": "https://dc.lft.to/lastmile_qr_scan"}, "is_reserved": 0, "lon": -77.02460116666667, "fusion_lat": 0.0, "name": "bed9edcdc90b36bb17d470a87e9bb7dc"}, {"type": "electric_scooter", "fusion_lon": 0.0, "bike_id": "4d91357e579abbb80d37349c3b1e3e22", "is_disabled": 0, "lat": 38.91046566666667, "rental_uris": {"ios": "https://dc.lft.to/lastmile_qr_scan", "android": "https://dc.lft.to/lastmile_qr_scan"}, "is_reserved": 0, "lon": -77.019948, "fusion_lat": 0.0, "name": "4d91357e579abbb80d37349c3b1e3e22"}, {"type": "electric_scooter", "fusion_lon": 0.0, "bike_id": "68df15a1e03d3b0a7cd81f4f038d3a9d", "is_disabled": 0, "lat": 38.9014005, "rental_uris": {"ios": "https://dc.lft.to/lastmile_qr_scan", "android": "https://dc.lft.to/lastmile_qr_scan"}, "is_reserved": 0, "lon": -77.0404365, "fusion_lat": 0.0, "name": "68df15a1e03d3b0a7cd81f4f038d3a9d"}, {"type": "electric_scooter", "fusion_lon": 0.0, "bike_id": "a007fe48a0bc360405ce671a50df12a9", "is_disabled": 0, "lat": 38.91499983333333, "rental_uris": {"ios": "https://dc.lft.to/lastmile_qr_scan", "android": "https://dc.lft.to/lastmile_qr_scan"}, "is_reserved": 0, "lon": -77.012252, "fusion_lat": 0.0, "name": "a007fe48a0bc360405ce671a50df12a9"}, {"type": "electric_bike", "fusion_lon": 0.0, "bike_id": "557b42321b5dd57e1267514b552ef30b", "is_disabled": 0, "lat": 38.94475533333333, "rental_uris": {"ios": "https://dc.lft.to/lastmile_qr_scan", "android": "https://dc.lft.to/lastmile_qr_scan"}, "is_reserved": 0, "lon": -76.98688783333333, "fusion_lat": 0.0, "name": "557b42321b5dd57e1267514b552ef30b"}, {"type": "electric_scooter", "fusion_lon": 0.0, "bike_id": "fbb282f8ecbd3b2fd5d0559db88a8edf", "is_disabled": 0, "lat": 38.9061625, "rental_uris": {"ios": "https://dc.lft.to/lastmile_qr_scan", "android": "https://dc.lft.to/lastmile_qr_scan"}, "is_reserved": 0, "lon": -77.043615, "fusion_lat": 0.0, "name": "fbb282f8ecbd3b2fd5d0559db88a8edf"}, {"type": "electric_scooter", "fusion_lon": 0.0, "bike_id": "c520b490cda822d69dcafb1d143ce078", "is_disabled": 0, "lat": 38.90708166666667, "rental_uris": {"ios": "https://dc.lft.to/lastmile_qr_scan", "android": "https://dc.lft.to/lastmile_qr_scan"}, "is_reserved": 0, "lon": -77.04973, "fusion_lat": 0.0, "name": "c520b490cda822d69dcafb1d143ce078"}, {"type": "electric_scooter", "fusion_lon": 0.0, "bike_id": "06335e0229fcc8693b1f10865375db97", "is_disabled": 0, "lat": 38.90551383333333, "rental_uris": {"ios": "https://dc.lft.to/lastmile_qr_scan", "android": "https://dc.lft.to/lastmile_qr_scan"}, "is_reserved": 0, "lon": -77.047441, "fusion_lat": 0.0, "name": "06335e0229fcc8693b1f10865375db97"}, {"type": "electric_scooter", "fusion_lon": 0.0, "bike_id": "dfc0e6778565351134157d5af6b97527", "is_disabled": 0, "lat": 38.90505866666667, "rental_uris": {"ios": "https://dc.lft.to/lastmile_qr_scan", "android": "https://dc.lft.to/lastmile_qr_scan"}, "is_reserved": 0, "lon": -76.99186616666667, "fusion_lat": 0.0, "name": "dfc0e6778565351134157d5af6b97527"}, {"type": "electric_scooter", "fusion_lon": 0.0, "bike_id": "50b5a77f604aa87611579854e70db2ee", "is_disabled": 0, "lat": 38.92935333333333, "rental_uris": {"ios": "https://dc.lft.to/lastmile_qr_scan", "android": "https://dc.lft.to/lastmile_qr_scan"}, "is_reserved": 0, "lon": -77.01638933333334, "fusion_lat": 0.0, "name": "50b5a77f604aa87611579854e70db2ee"}, {"type": "electric_bike", "fusion_lon": 0.0, "bike_id": "f6b684eb6bb26eefb0f16fa80297b4c9", "is_disabled": 0, "lat": 38.80739783333333, "rental_uris": {"ios": "https://dc.lft.to/lastmile_qr_scan", "android": "https://dc.lft.to/lastmile_qr_scan"}, "is_reserved": 0, "lon": -77.09723266666667, "fusion_lat": 0.0, "name": "f6b684eb6bb26eefb0f16fa80297b4c9"}, {"type": "electric_scooter", "fusion_lon": 0.0, "bike_id": "992ad932fe5d25d08dec53b476cdfc32", "is_disabled": 0, "lat": 38.9330885, "rental_uris": {"ios": "https://dc.lft.to/lastmile_qr_scan", "android": "https://dc.lft.to/lastmile_qr_scan"}, "is_reserved": 0, "lon": -77.032745, "fusion_lat": 0.0, "name": "992ad932fe5d25d08dec53b476cdfc32"}, {"type": "electric_scooter", "fusion_lon": 0.0, "bike_id": "6d0f730b8e4522c94c9061dec72640d8", "is_disabled": 0, "lat": 38.917058833333336, "rental_uris": {"ios": "https://dc.lft.to/lastmile_qr_scan", "android": "https://dc.lft.to/lastmile_qr_scan"}, "is_reserved": 0, "lon": -77.03470483333334, "fusion_lat": 0.0, "name": "6d0f730b8e4522c94c9061dec72640d8"}, {"type": "electric_scooter", "fusion_lon": 0.0, "bike_id": "f7fbddfc7b7ef4df50f123c66cc2d96c", "is_disabled": 0, "lat": 38.9161315, "rental_uris": {"ios": "https://dc.lft.to/lastmile_qr_scan", "android": "https://dc.lft.to/lastmile_qr_scan"}, "is_reserved": 0, "lon": -77.04883133333334, "fusion_lat": 0.0, "name": "f7fbddfc7b7ef4df50f123c66cc2d96c"}, {"type": "electric_bike", "fusion_lon": 0.0, "bike_id": "9e02d2143b79388f9ca795a0095bed45", "is_disabled": 0, "lat": 38.862613833333334, "rental_uris": {"ios": "https://dc.lft.to/lastmile_qr_scan", "android": "https://dc.lft.to/lastmile_qr_scan"}, "is_reserved": 0, "lon": -76.98356866666667, "fusion_lat": 0.0, "name": "9e02d2143b79388f9ca795a0095bed45"}, {"type": "electric_scooter", "fusion_lon": 0.0, "bike_id": "0b4a68d1cc679f52061ff3be926c2a03", "is_disabled": 0, "lat": 38.88182116666667, "rental_uris": {"ios": "https://dc.lft.to/lastmile_qr_scan", "android": "https://dc.lft.to/lastmile_qr_scan"}, "is_reserved": 0, "lon": -77.022035, "fusion_lat": 0.0, "name": "0b4a68d1cc679f52061ff3be926c2a03"}, {"type": "electric_scooter", "fusion_lon": 0.0, "bike_id": "20e632cb6e0776209af557a90f66ed1d", "is_disabled": 0, "lat": 38.924682833333335, "rental_uris": {"ios": "https://dc.lft.to/lastmile_qr_scan", "android": "https://dc.lft.to/lastmile_qr_scan"}, "is_reserved": 0, "lon": -77.0256255, "fusion_lat": 0.0, "name": "20e632cb6e0776209af557a90f66ed1d"}, {"type": "electric_scooter", "fusion_lon": 0.0, "bike_id": "37135e211ae69ab5100cfbea1787f040", "is_disabled": 0, "lat": 38.9231465, "rental_uris": {"ios": "https://dc.lft.to/lastmile_qr_scan", "android": "https://dc.lft.to/lastmile_qr_scan"}, "is_reserved": 0, "lon": -77.03048183333334, "fusion_lat": 0.0, "name": "37135e211ae69ab5100cfbea1787f040"}, {"type": "electric_scooter", "fusion_lon": 0.0, "bike_id": "5d5cce67222200e1e7f37642510ef7da", "is_disabled": 0, "lat": 38.895319666666666, "rental_uris": {"ios": "https://dc.lft.to/lastmile_qr_scan", "android": "https://dc.lft.to/lastmile_qr_scan"}, "is_reserved": 0, "lon": -77.01600166666667, "fusion_lat": 0.0, "name": "5d5cce67222200e1e7f37642510ef7da"}, {"type": "electric_scooter", "fusion_lon": 0.0, "bike_id": "4186fb6c547172b74f1c41eeea0e5667", "is_disabled": 0, "lat": 38.90039216666667, "rental_uris": {"ios": "https://dc.lft.to/lastmile_qr_scan", "android": "https://dc.lft.to/lastmile_qr_scan"}, "is_reserved": 0, "lon": -76.9977035, "fusion_lat": 0.0, "name": "4186fb6c547172b74f1c41eeea0e5667"}, {"type": "electric_scooter", "fusion_lon": 0.0, "bike_id": "7ebed567017f13d8a7e8c6b3571a3e34", "is_disabled": 0, "lat": 38.89203766666667, "rental_uris": {"ios": "https://dc.lft.to/lastmile_qr_scan", "android": "https://dc.lft.to/lastmile_qr_scan"}, "is_reserved": 0, "lon": -76.956977, "fusion_lat": 0.0, "name": "7ebed567017f13d8a7e8c6b3571a3e34"}, {"type": "electric_scooter", "fusion_lon": 0.0, "bike_id": "1a98c43716ddc6b523ad926543572eea", "is_disabled": 0, "lat": 38.91354716666667, "rental_uris": {"ios": "https://dc.lft.to/lastmile_qr_scan", "android": "https://dc.lft.to/lastmile_qr_scan"}, "is_reserved": 0, "lon": -77.02061116666667, "fusion_lat": 0.0, "name": "1a98c43716ddc6b523ad926543572eea"}, {"type": "electric_scooter", "fusion_lon": 0.0, "bike_id": "40b477fe0308699edfcb7fd0c05d9103", "is_disabled": 0, "lat": 38.892275, "rental_uris": {"ios": "https://dc.lft.to/lastmile_qr_scan", "android": "https://dc.lft.to/lastmile_qr_scan"}, "is_reserved": 0, "lon": -77.024183, "fusion_lat": 0.0, "name": "40b477fe0308699edfcb7fd0c05d9103"}, {"type": "electric_scooter", "fusion_lon": 0.0, "bike_id": "3db879cc0636b4ab10af4c8520591ad2", "is_disabled": 0, "lat": 38.9265195, "rental_uris": {"ios": "https://dc.lft.to/lastmile_qr_scan", "android": "https://dc.lft.to/lastmile_qr_scan"}, "is_reserved": 0, "lon": -77.03302016666666, "fusion_lat": 0.0, "name": "3db879cc0636b4ab10af4c8520591ad2"}, {"type": "electric_scooter", "fusion_lon": 0.0, "bike_id": "b3102fa19378db858952c717353a0789", "is_disabled": 0, "lat": 38.87478983333333, "rental_uris": {"ios": "https://dc.lft.to/lastmile_qr_scan", "android": "https://dc.lft.to/lastmile_qr_scan"}, "is_reserved": 0, "lon": -77.00416883333334, "fusion_lat": 0.0, "name": "b3102fa19378db858952c717353a0789"}, {"type": "electric_scooter", "fusion_lon": 0.0, "bike_id": "62a37657d468e595a0a0dbf2f6a8d3b5", "is_disabled": 0, "lat": 38.91651683333333, "rental_uris": {"ios": "https://dc.lft.to/lastmile_qr_scan", "android": "https://dc.lft.to/lastmile_qr_scan"}, "is_reserved": 0, "lon": -77.036789, "fusion_lat": 0.0, "name": "62a37657d468e595a0a0dbf2f6a8d3b5"}, {"type": "electric_scooter", "fusion_lon": 0.0, "bike_id": "51a53127f5f1380756536ba21b34f5cb", "is_disabled": 0, "lat": 38.937164333333335, "rental_uris": {"ios": "https://dc.lft.to/lastmile_qr_scan", "android": "https://dc.lft.to/lastmile_qr_scan"}, "is_reserved": 0, "lon": -77.0245755, "fusion_lat": 0.0, "name": "51a53127f5f1380756536ba21b34f5cb"}, {"type": "electric_scooter", "fusion_lon": 0.0, "bike_id": "401456fcf70fe0eb6f2f3b0a7bbe6de7", "is_disabled": 0, "lat": 38.91980233333334, "rental_uris": {"ios": "https://dc.lft.to/lastmile_qr_scan", "android": "https://dc.lft.to/lastmile_qr_scan"}, "is_reserved": 0, "lon": -77.023766, "fusion_lat": 0.0, "name": "401456fcf70fe0eb6f2f3b0a7bbe6de7"}, {"type": "electric_scooter", "fusion_lon": 0.0, "bike_id": "4f5ab4cbb38e8262513f4453e4a2c157", "is_disabled": 0, "lat": 38.926298333333335, "rental_uris": {"ios": "https://dc.lft.to/lastmile_qr_scan", "android": "https://dc.lft.to/lastmile_qr_scan"}, "is_reserved": 0, "lon": -77.02271783333333, "fusion_lat": 0.0, "name": "4f5ab4cbb38e8262513f4453e4a2c157"}, {"type": "electric_scooter", "fusion_lon": 0.0, "bike_id": "5c5b8c8e83c62abbe798a633119d4f1d", "is_disabled": 0, "lat": 38.90028983333333, "rental_uris": {"ios": "https://dc.lft.to/lastmile_qr_scan", "android": "https://dc.lft.to/lastmile_qr_scan"}, "is_reserved": 0, "lon": -76.9966155, "fusion_lat": 0.0, "name": "5c5b8c8e83c62abbe798a633119d4f1d"}, {"type": "electric_scooter", "fusion_lon": 0.0, "bike_id": "2edb96b77d03788e1967ad134b754497", "is_disabled": 0, "lat": 38.924554, "rental_uris": {"ios": "https://dc.lft.to/lastmile_qr_scan", "android": "https://dc.lft.to/lastmile_qr_scan"}, "is_reserved": 0, "lon": -77.04028366666667, "fusion_lat": 0.0, "name": "2edb96b77d03788e1967ad134b754497"}, {"type": "electric_scooter", "fusion_lon": 0.0, "bike_id": "3ff443bb0d8318e97cc55c9d623f0ce5", "is_disabled": 0, "lat": 38.91959383333333, "rental_uris": {"ios": "https://dc.lft.to/lastmile_qr_scan", "android": "https://dc.lft.to/lastmile_qr_scan"}, "is_reserved": 0, "lon": -77.02710666666667, "fusion_lat": 0.0, "name": "3ff443bb0d8318e97cc55c9d623f0ce5"}, {"type": "electric_scooter", "fusion_lon": 0.0, "bike_id": "3da146257066393236700fb9b42a28f7", "is_disabled": 0, "lat": 38.93773066666667, "rental_uris": {"ios": "https://dc.lft.to/lastmile_qr_scan", "android": "https://dc.lft.to/lastmile_qr_scan"}, "is_reserved": 0, "lon": -77.0326515, "fusion_lat": 0.0, "name": "3da146257066393236700fb9b42a28f7"}, {"type": "electric_scooter", "fusion_lon": 0.0, "bike_id": "85682f55fce755fa9369a30b07042847", "is_disabled": 0, "lat": 38.92940866666667, "rental_uris": {"ios": "https://dc.lft.to/lastmile_qr_scan", "android": "https://dc.lft.to/lastmile_qr_scan"}, "is_reserved": 0, "lon": -77.05513, "fusion_lat": 0.0, "name": "85682f55fce755fa9369a30b07042847"}, {"type": "electric_scooter", "fusion_lon": 0.0, "bike_id": "48b98015c2deb882dbcbefb76416f52a", "is_disabled": 0, "lat": 38.917656666666666, "rental_uris": {"ios": "https://dc.lft.to/lastmile_qr_scan", "android": "https://dc.lft.to/lastmile_qr_scan"}, "is_reserved": 0, "lon": -77.0235305, "fusion_lat": 0.0, "name": "48b98015c2deb882dbcbefb76416f52a"}, {"type": "electric_scooter", "fusion_lon": 0.0, "bike_id": "abf78e2ca58763f49f427aa69648db40", "is_disabled": 0, "lat": 38.911033333333336, "rental_uris": {"ios": "https://dc.lft.to/lastmile_qr_scan", "android": "https://dc.lft.to/lastmile_qr_scan"}, "is_reserved": 0, "lon": -77.03830883333333, "fusion_lat": 0.0, "name": "abf78e2ca58763f49f427aa69648db40"}, {"type": "electric_scooter", "fusion_lon": 0.0, "bike_id": "56d3e058630c5d369800aa61d55a09f5", "is_disabled": 0, "lat": 38.895035, "rental_uris": {"ios": "https://dc.lft.to/lastmile_qr_scan", "android": "https://dc.lft.to/lastmile_qr_scan"}, "is_reserved": 0, "lon": -77.00332516666667, "fusion_lat": 0.0, "name": "56d3e058630c5d369800aa61d55a09f5"}, {"type": "electric_scooter", "fusion_lon": 0.0, "bike_id": "5a61faca3c03dbf92bec954c8d4377d3", "is_disabled": 0, "lat": 38.93842383333333, "rental_uris": {"ios": "https://dc.lft.to/lastmile_qr_scan", "android": "https://dc.lft.to/lastmile_qr_scan"}, "is_reserved": 0, "lon": -77.03390466666667, "fusion_lat": 0.0, "name": "5a61faca3c03dbf92bec954c8d4377d3"}, {"type": "electric_scooter", "fusion_lon": 0.0, "bike_id": "44d97272278ea591d5c042df0f85fcd6", "is_disabled": 0, "lat": 38.91049983333333, "rental_uris": {"ios": "https://dc.lft.to/lastmile_qr_scan", "android": "https://dc.lft.to/lastmile_qr_scan"}, "is_reserved": 0, "lon": -77.0482785, "fusion_lat": 0.0, "name": "44d97272278ea591d5c042df0f85fcd6"}, {"type": "electric_scooter", "fusion_lon": 0.0, "bike_id": "2ee224e2a4ccea67346f60cbed4cdb16", "is_disabled": 0, "lat": 38.897346166666665, "rental_uris": {"ios": "https://dc.lft.to/lastmile_qr_scan", "android": "https://dc.lft.to/lastmile_qr_scan"}, "is_reserved": 0, "lon": -77.04742233333333, "fusion_lat": 0.0, "name": "2ee224e2a4ccea67346f60cbed4cdb16"}, {"type": "electric_scooter", "fusion_lon": 0.0, "bike_id": "36dd383f402d46bb0f3a6f1bedde7d72", "is_disabled": 0, "lat": 38.905280166666664, "rental_uris": {"ios": "https://dc.lft.to/lastmile_qr_scan", "android": "https://dc.lft.to/lastmile_qr_scan"}, "is_reserved": 0, "lon": -77.02974516666667, "fusion_lat": 0.0, "name": "36dd383f402d46bb0f3a6f1bedde7d72"}, {"type": "electric_scooter", "fusion_lon": 0.0, "bike_id": "55c82f8ba94c0b9ce13382d8da5c193b", "is_disabled": 0, "lat": 38.907463166666666, "rental_uris": {"ios": "https://dc.lft.to/lastmile_qr_scan", "android": "https://dc.lft.to/lastmile_qr_scan"}, "is_reserved": 0, "lon": -77.00088833333334, "fusion_lat": 0.0, "name": "55c82f8ba94c0b9ce13382d8da5c193b"}, {"type": "electric_scooter", "fusion_lon": 0.0, "bike_id": "b3109f97f14cbf05b534a89c9bde20c2", "is_disabled": 0, "lat": 38.924422666666665, "rental_uris": {"ios": "https://dc.lft.to/lastmile_qr_scan", "android": "https://dc.lft.to/lastmile_qr_scan"}, "is_reserved": 0, "lon": -77.0202835, "fusion_lat": 0.0, "name": "b3109f97f14cbf05b534a89c9bde20c2"}, {"type": "electric_scooter", "fusion_lon": 0.0, "bike_id": "e62ce8012317f285e74ae6f3387e9ad1", "is_disabled": 0, "lat": 38.892245333333335, "rental_uris": {"ios": "https://dc.lft.to/lastmile_qr_scan", "android": "https://dc.lft.to/lastmile_qr_scan"}, "is_reserved": 0, "lon": -77.04688833333333, "fusion_lat": 0.0, "name": "e62ce8012317f285e74ae6f3387e9ad1"}, {"type": "electric_scooter", "fusion_lon": 0.0, "bike_id": "a2e23901039b98fbb9da32124cc5299e", "is_disabled": 0, "lat": 38.924624, "rental_uris": {"ios": "https://dc.lft.to/lastmile_qr_scan", "android": "https://dc.lft.to/lastmile_qr_scan"}, "is_reserved": 0, "lon": -77.0523535, "fusion_lat": 0.0, "name": "a2e23901039b98fbb9da32124cc5299e"}, {"type": "electric_scooter", "fusion_lon": 0.0, "bike_id": "35746508f9ef5b90c9473de20692717e", "is_disabled": 0, "lat": 38.922875, "rental_uris": {"ios": "https://dc.lft.to/lastmile_qr_scan", "android": "https://dc.lft.to/lastmile_qr_scan"}, "is_reserved": 0, "lon": -77.02714216666666, "fusion_lat": 0.0, "name": "35746508f9ef5b90c9473de20692717e"}, {"type": "electric_scooter", "fusion_lon": 0.0, "bike_id": "d4bf9244496141c1835c920409c014ee", "is_disabled": 0, "lat": 38.900541833333335, "rental_uris": {"ios": "https://dc.lft.to/lastmile_qr_scan", "android": "https://dc.lft.to/lastmile_qr_scan"}, "is_reserved": 0, "lon": -76.998298, "fusion_lat": 0.0, "name": "d4bf9244496141c1835c920409c014ee"}, {"type": "electric_scooter", "fusion_lon": 0.0, "bike_id": "574781e9f9a927e54a0bed8163a5aad5", "is_disabled": 0, "lat": 38.927105, "rental_uris": {"ios": "https://dc.lft.to/lastmile_qr_scan", "android": "https://dc.lft.to/lastmile_qr_scan"}, "is_reserved": 0, "lon": -77.023452, "fusion_lat": 0.0, "name": "574781e9f9a927e54a0bed8163a5aad5"}, {"type": "electric_bike", "fusion_lon": 0.0, "bike_id": "b2ac5c8eaaa8929e9e709c16fff503e1", "is_disabled": 0, "lat": 39.002959833333335, "rental_uris": {"ios": "https://dc.lft.to/lastmile_qr_scan", "android": "https://dc.lft.to/lastmile_qr_scan"}, "is_reserved": 0, "lon": -76.90300233333333, "fusion_lat": 0.0, "name": "b2ac5c8eaaa8929e9e709c16fff503e1"}, {"type": "electric_scooter", "fusion_lon": 0.0, "bike_id": "a9aed11ecec92f8d01e643c5dc47187a", "is_disabled": 0, "lat": 38.894215333333335, "rental_uris": {"ios": "https://dc.lft.to/lastmile_qr_scan", "android": "https://dc.lft.to/lastmile_qr_scan"}, "is_reserved": 0, "lon": -76.99963583333333, "fusion_lat": 0.0, "name": "a9aed11ecec92f8d01e643c5dc47187a"}, {"type": "electric_scooter", "fusion_lon": 0.0, "bike_id": "43026c494802dc39528a020e23f94c57", "is_disabled": 0, "lat": 38.886124833333334, "rental_uris": {"ios": "https://dc.lft.to/lastmile_qr_scan", "android": "https://dc.lft.to/lastmile_qr_scan"}, "is_reserved": 0, "lon": -77.017912, "fusion_lat": 0.0, "name": "43026c494802dc39528a020e23f94c57"}, {"type": "electric_scooter", "fusion_lon": 0.0, "bike_id": "2a47f4bd7c7b5bf796e803157e6e3094", "is_disabled": 0, "lat": 38.938276333333334, "rental_uris": {"ios": "https://dc.lft.to/lastmile_qr_scan", "android": "https://dc.lft.to/lastmile_qr_scan"}, "is_reserved": 0, "lon": -77.06174866666667, "fusion_lat": 0.0, "name": "2a47f4bd7c7b5bf796e803157e6e3094"}, {"type": "electric_scooter", "fusion_lon": 0.0, "bike_id": "4a4ee89e381a0395b8508d6c1f5c0568", "is_disabled": 0, "lat": 38.9450985, "rental_uris": {"ios": "https://dc.lft.to/lastmile_qr_scan", "android": "https://dc.lft.to/lastmile_qr_scan"}, "is_reserved": 0, "lon": -77.03356133333334, "fusion_lat": 0.0, "name": "4a4ee89e381a0395b8508d6c1f5c0568"}, {"type": "electric_bike", "fusion_lon": 0.0, "bike_id": "696e98cca54b243b6fcba7ff94af0e12", "is_disabled": 0, "lat": 38.81334866666667, "rental_uris": {"ios": "https://dc.lft.to/lastmile_qr_scan", "android": "https://dc.lft.to/lastmile_qr_scan"}, "is_reserved": 0, "lon": -77.05087916666666, "fusion_lat": 0.0, "name": "696e98cca54b243b6fcba7ff94af0e12"}, {"type": "electric_scooter", "fusion_lon": 0.0, "bike_id": "860ed69b2ee8e465a49cd6c7f45dcb5a", "is_disabled": 0, "lat": 38.87656366666667, "rental_uris": {"ios": "https://dc.lft.to/lastmile_qr_scan", "android": "https://dc.lft.to/lastmile_qr_scan"}, "is_reserved": 0, "lon": -77.015756, "fusion_lat": 0.0, "name": "860ed69b2ee8e465a49cd6c7f45dcb5a"}, {"type": "electric_scooter", "fusion_lon": 0.0, "bike_id": "8d208b7abc1dfe849e18dc2d41941ad9", "is_disabled": 0, "lat": 38.880449, "rental_uris": {"ios": "https://dc.lft.to/lastmile_qr_scan", "android": "https://dc.lft.to/lastmile_qr_scan"}, "is_reserved": 0, "lon": -76.98625766666666, "fusion_lat": 0.0, "name": "8d208b7abc1dfe849e18dc2d41941ad9"}, {"type": "electric_scooter", "fusion_lon": 0.0, "bike_id": "3380aad6ab6a53bd734ab46c952598c2", "is_disabled": 0, "lat": 38.92952316666667, "rental_uris": {"ios": "https://dc.lft.to/lastmile_qr_scan", "android": "https://dc.lft.to/lastmile_qr_scan"}, "is_reserved": 0, "lon": -77.0276675, "fusion_lat": 0.0, "name": "3380aad6ab6a53bd734ab46c952598c2"}, {"type": "electric_scooter", "fusion_lon": 0.0, "bike_id": "656e0804e44dba504eb66cc35f2fe1a7", "is_disabled": 0, "lat": 38.92106616666667, "rental_uris": {"ios": "https://dc.lft.to/lastmile_qr_scan", "android": "https://dc.lft.to/lastmile_qr_scan"}, "is_reserved": 0, "lon": -77.04380333333333, "fusion_lat": 0.0, "name": "656e0804e44dba504eb66cc35f2fe1a7"}, {"type": "electric_scooter", "fusion_lon": 0.0, "bike_id": "32763bcc0dae453b0a76424b70911873", "is_disabled": 0, "lat": 38.8991085, "rental_uris": {"ios": "https://dc.lft.to/lastmile_qr_scan", "android": "https://dc.lft.to/lastmile_qr_scan"}, "is_reserved": 0, "lon": -76.933801, "fusion_lat": 0.0, "name": "32763bcc0dae453b0a76424b70911873"}, {"type": "electric_scooter", "fusion_lon": 0.0, "bike_id": "6fd523c2c5b8babeb442574a323edc7f", "is_disabled": 0, "lat": 38.92374933333333, "rental_uris": {"ios": "https://dc.lft.to/lastmile_qr_scan", "android": "https://dc.lft.to/lastmile_qr_scan"}, "is_reserved": 0, "lon": -77.019903, "fusion_lat": 0.0, "name": "6fd523c2c5b8babeb442574a323edc7f"}, {"type": "electric_scooter", "fusion_lon": 0.0, "bike_id": "050ffc9364538500c6cf20cfde6e3559", "is_disabled": 0, "lat": 38.86198516666666, "rental_uris": {"ios": "https://dc.lft.to/lastmile_qr_scan", "android": "https://dc.lft.to/lastmile_qr_scan"}, "is_reserved": 0, "lon": -76.99511866666667, "fusion_lat": 0.0, "name": "050ffc9364538500c6cf20cfde6e3559"}, {"type": "electric_scooter", "fusion_lon": 0.0, "bike_id": "159ad242dbda0c82316c2325431a846a", "is_disabled": 0, "lat": 38.924591166666666, "rental_uris": {"ios": "https://dc.lft.to/lastmile_qr_scan", "android": "https://dc.lft.to/lastmile_qr_scan"}, "is_reserved": 0, "lon": -77.05751133333334, "fusion_lat": 0.0, "name": "159ad242dbda0c82316c2325431a846a"}, {"type": "electric_scooter", "fusion_lon": 0.0, "bike_id": "ae06d4ed6fe00b3a1bf7ca1c537f782d", "is_disabled": 0, "lat": 38.95921033333333, "rental_uris": {"ios": "https://dc.lft.to/lastmile_qr_scan", "android": "https://dc.lft.to/lastmile_qr_scan"}, "is_reserved": 0, "lon": -76.99437233333333, "fusion_lat": 0.0, "name": "ae06d4ed6fe00b3a1bf7ca1c537f782d"}, {"type": "electric_scooter", "fusion_lon": 0.0, "bike_id": "3728f4269b4d3af461b690ebe5472af2", "is_disabled": 0, "lat": 38.920580333333334, "rental_uris": {"ios": "https://dc.lft.to/lastmile_qr_scan", "android": "https://dc.lft.to/lastmile_qr_scan"}, "is_reserved": 0, "lon": -77.0250205, "fusion_lat": 0.0, "name": "3728f4269b4d3af461b690ebe5472af2"}, {"type": "electric_scooter", "fusion_lon": 0.0, "bike_id": "ce492eaac5ccca5c7a0b250e042088af", "is_disabled": 0, "lat": 38.90791883333333, "rental_uris": {"ios": "https://dc.lft.to/lastmile_qr_scan", "android": "https://dc.lft.to/lastmile_qr_scan"}, "is_reserved": 0, "lon": -77.0642305, "fusion_lat": 0.0, "name": "ce492eaac5ccca5c7a0b250e042088af"}, {"type": "electric_bike", "fusion_lon": 0.0, "bike_id": "5e5e3e40f9c97b69c1bf224e952b6e7d", "is_disabled": 0, "lat": 38.84509033333333, "rental_uris": {"ios": "https://dc.lft.to/lastmile_qr_scan", "android": "https://dc.lft.to/lastmile_qr_scan"}, "is_reserved": 0, "lon": -76.98813466666667, "fusion_lat": 0.0, "name": "5e5e3e40f9c97b69c1bf224e952b6e7d"}, {"type": "electric_scooter", "fusion_lon": 0.0, "bike_id": "679c4af98e5fbd8efb5276305299ee02", "is_disabled": 0, "lat": 38.92239133333333, "rental_uris": {"ios": "https://dc.lft.to/lastmile_qr_scan", "android": "https://dc.lft.to/lastmile_qr_scan"}, "is_reserved": 0, "lon": -77.04267366666667, "fusion_lat": 0.0, "name": "679c4af98e5fbd8efb5276305299ee02"}, {"type": "electric_scooter", "fusion_lon": 0.0, "bike_id": "f01b92ded0937e35e8d1a13fe6d3fa67", "is_disabled": 0, "lat": 38.9204375, "rental_uris": {"ios": "https://dc.lft.to/lastmile_qr_scan", "android": "https://dc.lft.to/lastmile_qr_scan"}, "is_reserved": 0, "lon": -77.03389733333333, "fusion_lat": 0.0, "name": "f01b92ded0937e35e8d1a13fe6d3fa67"}, {"type": "electric_scooter", "fusion_lon": 0.0, "bike_id": "d3464329b154626d2a74833972972586", "is_disabled": 0, "lat": 38.9086465, "rental_uris": {"ios": "https://dc.lft.to/lastmile_qr_scan", "android": "https://dc.lft.to/lastmile_qr_scan"}, "is_reserved": 0, "lon": -76.98496466666667, "fusion_lat": 0.0, "name": "d3464329b154626d2a74833972972586"}, {"type": "electric_scooter", "fusion_lon": 0.0, "bike_id": "49369108968f1049204a0bcf4b5a9b56", "is_disabled": 0, "lat": 38.9248185, "rental_uris": {"ios": "https://dc.lft.to/lastmile_qr_scan", "android": "https://dc.lft.to/lastmile_qr_scan"}, "is_reserved": 0, "lon": -77.02550483333333, "fusion_lat": 0.0, "name": "49369108968f1049204a0bcf4b5a9b56"}, {"type": "electric_scooter", "fusion_lon": 0.0, "bike_id": "34f7ed9ad448c9ff371e555b7b0b2588", "is_disabled": 0, "lat": 38.924699833333335, "rental_uris": {"ios": "https://dc.lft.to/lastmile_qr_scan", "android": "https://dc.lft.to/lastmile_qr_scan"}, "is_reserved": 0, "lon": -77.029115, "fusion_lat": 0.0, "name": "34f7ed9ad448c9ff371e555b7b0b2588"}, {"type": "electric_scooter", "fusion_lon": 0.0, "bike_id": "28eb616b32a793e7d4c725bab0566534", "is_disabled": 0, "lat": 38.9259635, "rental_uris": {"ios": "https://dc.lft.to/lastmile_qr_scan", "android": "https://dc.lft.to/lastmile_qr_scan"}, "is_reserved": 0, "lon": -77.03221766666667, "fusion_lat": 0.0, "name": "28eb616b32a793e7d4c725bab0566534"}, {"type": "electric_scooter", "fusion_lon": 0.0, "bike_id": "a58938d6a19c3c1a7d86b82a7ead68a7", "is_disabled": 0, "lat": 38.886599, "rental_uris": {"ios": "https://dc.lft.to/lastmile_qr_scan", "android": "https://dc.lft.to/lastmile_qr_scan"}, "is_reserved": 0, "lon": -77.02836766666667, "fusion_lat": 0.0, "name": "a58938d6a19c3c1a7d86b82a7ead68a7"}, {"type": "electric_scooter", "fusion_lon": 0.0, "bike_id": "71f59970dd4e1b53eaf1d52439bafe62", "is_disabled": 0, "lat": 38.90394333333333, "rental_uris": {"ios": "https://dc.lft.to/lastmile_qr_scan", "android": "https://dc.lft.to/lastmile_qr_scan"}, "is_reserved": 0, "lon": -77.01797916666666, "fusion_lat": 0.0, "name": "71f59970dd4e1b53eaf1d52439bafe62"}, {"type": "electric_scooter", "fusion_lon": 0.0, "bike_id": "abc2b296f1e95d98b4dec1b6af9b2850", "is_disabled": 0, "lat": 38.92656483333333, "rental_uris": {"ios": "https://dc.lft.to/lastmile_qr_scan", "android": "https://dc.lft.to/lastmile_qr_scan"}, "is_reserved": 0, "lon": -77.02432133333333, "fusion_lat": 0.0, "name": "abc2b296f1e95d98b4dec1b6af9b2850"}, {"type": "electric_scooter", "fusion_lon": 0.0, "bike_id": "e1d85a31cdc9985edcb48d3f77aab607", "is_disabled": 0, "lat": 38.8922945, "rental_uris": {"ios": "https://dc.lft.to/lastmile_qr_scan", "android": "https://dc.lft.to/lastmile_qr_scan"}, "is_reserved": 0, "lon": -77.04662183333333, "fusion_lat": 0.0, "name": "e1d85a31cdc9985edcb48d3f77aab607"}, {"type": "electric_scooter", "fusion_lon": 0.0, "bike_id": "6cbb08e840d55cccb682e395ca14a1a5", "is_disabled": 0, "lat": 38.914161, "rental_uris": {"ios": "https://dc.lft.to/lastmile_qr_scan", "android": "https://dc.lft.to/lastmile_qr_scan"}, "is_reserved": 0, "lon": -77.01075533333334, "fusion_lat": 0.0, "name": "6cbb08e840d55cccb682e395ca14a1a5"}, {"type": "electric_bike", "fusion_lon": 0.0, "bike_id": "e655a8a908d048792feadc39161143d4", "is_disabled": 0, "lat": 38.83586366666667, "rental_uris": {"ios": "https://dc.lft.to/lastmile_qr_scan", "android": "https://dc.lft.to/lastmile_qr_scan"}, "is_reserved": 0, "lon": -77.00138483333333, "fusion_lat": 0.0, "name": "e655a8a908d048792feadc39161143d4"}, {"type": "electric_scooter", "fusion_lon": 0.0, "bike_id": "6d8dd8ac084c6702871d13a9162135b1", "is_disabled": 0, "lat": 38.90473, "rental_uris": {"ios": "https://dc.lft.to/lastmile_qr_scan", "android": "https://dc.lft.to/lastmile_qr_scan"}, "is_reserved": 0, "lon": -77.02710516666667, "fusion_lat": 0.0, "name": "6d8dd8ac084c6702871d13a9162135b1"}, {"type": "electric_scooter", "fusion_lon": 0.0, "bike_id": "650c8c6b9a369ff4c1c2ae14aca09bd0", "is_disabled": 0, "lat": 38.919567666666666, "rental_uris": {"ios": "https://dc.lft.to/lastmile_qr_scan", "android": "https://dc.lft.to/lastmile_qr_scan"}, "is_reserved": 0, "lon": -77.02591366666667, "fusion_lat": 0.0, "name": "650c8c6b9a369ff4c1c2ae14aca09bd0"}, {"type": "electric_scooter", "fusion_lon": 0.0, "bike_id": "c56c8fa7f4b59c4a4b518d74344ce328", "is_disabled": 0, "lat": 38.909012, "rental_uris": {"ios": "https://dc.lft.to/lastmile_qr_scan", "android": "https://dc.lft.to/lastmile_qr_scan"}, "is_reserved": 0, "lon": -77.04498366666667, "fusion_lat": 0.0, "name": "c56c8fa7f4b59c4a4b518d74344ce328"}, {"type": "electric_scooter", "fusion_lon": 0.0, "bike_id": "70b86cb4653086a9827e5b1ede3dd9ff", "is_disabled": 0, "lat": 38.88296833333333, "rental_uris": {"ios": "https://dc.lft.to/lastmile_qr_scan", "android": "https://dc.lft.to/lastmile_qr_scan"}, "is_reserved": 0, "lon": -77.02205083333334, "fusion_lat": 0.0, "name": "70b86cb4653086a9827e5b1ede3dd9ff"}, {"type": "electric_scooter", "fusion_lon": 0.0, "bike_id": "5f49326caed34bbc46922227340e5d22", "is_disabled": 0, "lat": 38.892375333333334, "rental_uris": {"ios": "https://dc.lft.to/lastmile_qr_scan", "android": "https://dc.lft.to/lastmile_qr_scan"}, "is_reserved": 0, "lon": -77.03215966666667, "fusion_lat": 0.0, "name": "5f49326caed34bbc46922227340e5d22"}, {"type": "electric_scooter", "fusion_lon": 0.0, "bike_id": "8cc529b8eddac362d127edada293bed0", "is_disabled": 0, "lat": 38.924588666666665, "rental_uris": {"ios": "https://dc.lft.to/lastmile_qr_scan", "android": "https://dc.lft.to/lastmile_qr_scan"}, "is_reserved": 0, "lon": -77.040401, "fusion_lat": 0.0, "name": "8cc529b8eddac362d127edada293bed0"}, {"type": "electric_scooter", "fusion_lon": 0.0, "bike_id": "60731da0eeb6ebd3004501428c1e46a5", "is_disabled": 0, "lat": 38.91648133333333, "rental_uris": {"ios": "https://dc.lft.to/lastmile_qr_scan", "android": "https://dc.lft.to/lastmile_qr_scan"}, "is_reserved": 0, "lon": -77.024069, "fusion_lat": 0.0, "name": "60731da0eeb6ebd3004501428c1e46a5"}, {"type": "electric_scooter", "fusion_lon": 0.0, "bike_id": "e51c7642be6f510ad99c3076e8b2f202", "is_disabled": 0, "lat": 38.916640666666666, "rental_uris": {"ios": "https://dc.lft.to/lastmile_qr_scan", "android": "https://dc.lft.to/lastmile_qr_scan"}, "is_reserved": 0, "lon": -77.03853566666666, "fusion_lat": 0.0, "name": "e51c7642be6f510ad99c3076e8b2f202"}, {"type": "electric_scooter", "fusion_lon": 0.0, "bike_id": "ed5a84bea4a0e1ca6e89a78e0355e3e2", "is_disabled": 0, "lat": 38.90523016666667, "rental_uris": {"ios": "https://dc.lft.to/lastmile_qr_scan", "android": "https://dc.lft.to/lastmile_qr_scan"}, "is_reserved": 0, "lon": -77.06337133333334, "fusion_lat": 0.0, "name": "ed5a84bea4a0e1ca6e89a78e0355e3e2"}, {"type": "electric_scooter", "fusion_lon": 0.0, "bike_id": "94c7ec8484c93b8e752ecbba757583ae", "is_disabled": 0, "lat": 38.900349166666665, "rental_uris": {"ios": "https://dc.lft.to/lastmile_qr_scan", "android": "https://dc.lft.to/lastmile_qr_scan"}, "is_reserved": 0, "lon": -76.99139216666667, "fusion_lat": 0.0, "name": "94c7ec8484c93b8e752ecbba757583ae"}, {"type": "electric_scooter", "fusion_lon": 0.0, "bike_id": "40cd2b049317fb7ab56c15e7930e9f05", "is_disabled": 0, "lat": 38.87919633333333, "rental_uris": {"ios": "https://dc.lft.to/lastmile_qr_scan", "android": "https://dc.lft.to/lastmile_qr_scan"}, "is_reserved": 0, "lon": -76.943257, "fusion_lat": 0.0, "name": "40cd2b049317fb7ab56c15e7930e9f05"}, {"type": "electric_scooter", "fusion_lon": 0.0, "bike_id": "994d2a0598857db36e9a31872ac56465", "is_disabled": 0, "lat": 38.91996233333333, "rental_uris": {"ios": "https://dc.lft.to/lastmile_qr_scan", "android": "https://dc.lft.to/lastmile_qr_scan"}, "is_reserved": 0, "lon": -77.02469066666667, "fusion_lat": 0.0, "name": "994d2a0598857db36e9a31872ac56465"}, {"type": "electric_scooter", "fusion_lon": 0.0, "bike_id": "eb7d8bae8ca41f831aacd7251e0f7d4b", "is_disabled": 0, "lat": 38.906310500000004, "rental_uris": {"ios": "https://dc.lft.to/lastmile_qr_scan", "android": "https://dc.lft.to/lastmile_qr_scan"}, "is_reserved": 0, "lon": -77.005943, "fusion_lat": 0.0, "name": "eb7d8bae8ca41f831aacd7251e0f7d4b"}, {"type": "electric_scooter", "fusion_lon": 0.0, "bike_id": "9c004dfae43a2d1463af4521efdbf20b", "is_disabled": 0, "lat": 38.90038716666667, "rental_uris": {"ios": "https://dc.lft.to/lastmile_qr_scan", "android": "https://dc.lft.to/lastmile_qr_scan"}, "is_reserved": 0, "lon": -76.98552916666667, "fusion_lat": 0.0, "name": "9c004dfae43a2d1463af4521efdbf20b"}, {"type": "electric_scooter", "fusion_lon": 0.0, "bike_id": "438a6b13f4974a59d61fd992ed80e97a", "is_disabled": 0, "lat": 38.91875366666667, "rental_uris": {"ios": "https://dc.lft.to/lastmile_qr_scan", "android": "https://dc.lft.to/lastmile_qr_scan"}, "is_reserved": 0, "lon": -77.03504216666667, "fusion_lat": 0.0, "name": "438a6b13f4974a59d61fd992ed80e97a"}, {"type": "electric_scooter", "fusion_lon": 0.0, "bike_id": "05dc6c733a31064fed0336ef48144105", "is_disabled": 0, "lat": 38.9176055, "rental_uris": {"ios": "https://dc.lft.to/lastmile_qr_scan", "android": "https://dc.lft.to/lastmile_qr_scan"}, "is_reserved": 0, "lon": -77.0279485, "fusion_lat": 0.0, "name": "05dc6c733a31064fed0336ef48144105"}, {"type": "electric_scooter", "fusion_lon": 0.0, "bike_id": "c6d4a15500073b534a60371afe95bbf3", "is_disabled": 0, "lat": 38.930703333333334, "rental_uris": {"ios": "https://dc.lft.to/lastmile_qr_scan", "android": "https://dc.lft.to/lastmile_qr_scan"}, "is_reserved": 0, "lon": -77.0395565, "fusion_lat": 0.0, "name": "c6d4a15500073b534a60371afe95bbf3"}, {"type": "electric_scooter", "fusion_lon": 0.0, "bike_id": "e84d7ae771d230535726817477f53332", "is_disabled": 0, "lat": 38.89220483333333, "rental_uris": {"ios": "https://dc.lft.to/lastmile_qr_scan", "android": "https://dc.lft.to/lastmile_qr_scan"}, "is_reserved": 0, "lon": -77.02221383333334, "fusion_lat": 0.0, "name": "e84d7ae771d230535726817477f53332"}, {"type": "electric_scooter", "fusion_lon": 0.0, "bike_id": "98759649bcaf520b3e308f088f2a7ebb", "is_disabled": 0, "lat": 38.9228525, "rental_uris": {"ios": "https://dc.lft.to/lastmile_qr_scan", "android": "https://dc.lft.to/lastmile_qr_scan"}, "is_reserved": 0, "lon": -76.9946375, "fusion_lat": 0.0, "name": "98759649bcaf520b3e308f088f2a7ebb"}, {"type": "electric_scooter", "fusion_lon": 0.0, "bike_id": "98b5f3cf21d4884f414088daaf9832f5", "is_disabled": 0, "lat": 38.9180635, "rental_uris": {"ios": "https://dc.lft.to/lastmile_qr_scan", "android": "https://dc.lft.to/lastmile_qr_scan"}, "is_reserved": 0, "lon": -77.039968, "fusion_lat": 0.0, "name": "98b5f3cf21d4884f414088daaf9832f5"}, {"type": "electric_scooter", "fusion_lon": 0.0, "bike_id": "17d03ce705419904514bcb7ec94035b7", "is_disabled": 0, "lat": 38.9072455, "rental_uris": {"ios": "https://dc.lft.to/lastmile_qr_scan", "android": "https://dc.lft.to/lastmile_qr_scan"}, "is_reserved": 0, "lon": -77.02539916666667, "fusion_lat": 0.0, "name": "17d03ce705419904514bcb7ec94035b7"}, {"type": "electric_scooter", "fusion_lon": 0.0, "bike_id": "52666ecda1bf563697fe4267bda7adf9", "is_disabled": 0, "lat": 38.902438333333336, "rental_uris": {"ios": "https://dc.lft.to/lastmile_qr_scan", "android": "https://dc.lft.to/lastmile_qr_scan"}, "is_reserved": 0, "lon": -77.0358815, "fusion_lat": 0.0, "name": "52666ecda1bf563697fe4267bda7adf9"}, {"type": "electric_scooter", "fusion_lon": 0.0, "bike_id": "4048b947b2b6abfb1680cd7ccc2c04d2", "is_disabled": 0, "lat": 38.916682333333334, "rental_uris": {"ios": "https://dc.lft.to/lastmile_qr_scan", "android": "https://dc.lft.to/lastmile_qr_scan"}, "is_reserved": 0, "lon": -77.0239265, "fusion_lat": 0.0, "name": "4048b947b2b6abfb1680cd7ccc2c04d2"}, {"type": "electric_scooter", "fusion_lon": 0.0, "bike_id": "86ffe140d879d8c0b27d112d43f6d048", "is_disabled": 0, "lat": 38.913481166666664, "rental_uris": {"ios": "https://dc.lft.to/lastmile_qr_scan", "android": "https://dc.lft.to/lastmile_qr_scan"}, "is_reserved": 0, "lon": -77.0320635, "fusion_lat": 0.0, "name": "86ffe140d879d8c0b27d112d43f6d048"}, {"type": "electric_scooter", "fusion_lon": 0.0, "bike_id": "6382a83373e5e589d4ade09f49d4245b", "is_disabled": 0, "lat": 38.905012666666664, "rental_uris": {"ios": "https://dc.lft.to/lastmile_qr_scan", "android": "https://dc.lft.to/lastmile_qr_scan"}, "is_reserved": 0, "lon": -77.03478633333333, "fusion_lat": 0.0, "name": "6382a83373e5e589d4ade09f49d4245b"}, {"type": "electric_scooter", "fusion_lon": 0.0, "bike_id": "6995a173d2e34103dd08a9bc0e783e12", "is_disabled": 0, "lat": 38.90640783333333, "rental_uris": {"ios": "https://dc.lft.to/lastmile_qr_scan", "android": "https://dc.lft.to/lastmile_qr_scan"}, "is_reserved": 0, "lon": -77.01770066666667, "fusion_lat": 0.0, "name": "6995a173d2e34103dd08a9bc0e783e12"}, {"type": "electric_scooter", "fusion_lon": 0.0, "bike_id": "11530bc7f8f377ce3c55398d2e911bbc", "is_disabled": 0, "lat": 38.9238805, "rental_uris": {"ios": "https://dc.lft.to/lastmile_qr_scan", "android": "https://dc.lft.to/lastmile_qr_scan"}, "is_reserved": 0, "lon": -77.02702816666667, "fusion_lat": 0.0, "name": "11530bc7f8f377ce3c55398d2e911bbc"}, {"type": "electric_scooter", "fusion_lon": 0.0, "bike_id": "d776f07d8177fbeb119bb7ec445bd5bb", "is_disabled": 0, "lat": 38.93560983333333, "rental_uris": {"ios": "https://dc.lft.to/lastmile_qr_scan", "android": "https://dc.lft.to/lastmile_qr_scan"}, "is_reserved": 0, "lon": -77.07464133333333, "fusion_lat": 0.0, "name": "d776f07d8177fbeb119bb7ec445bd5bb"}, {"type": "electric_scooter", "fusion_lon": 0.0, "bike_id": "4792217a6cf73dac3f4817e1108f7460", "is_disabled": 0, "lat": 38.918068833333336, "rental_uris": {"ios": "https://dc.lft.to/lastmile_qr_scan", "android": "https://dc.lft.to/lastmile_qr_scan"}, "is_reserved": 0, "lon": -77.03996233333334, "fusion_lat": 0.0, "name": "4792217a6cf73dac3f4817e1108f7460"}, {"type": "electric_bike", "fusion_lon": 0.0, "bike_id": "e10370ce6c63fddb46108d63d68c65e0", "is_disabled": 0, "lat": 38.83607683333334, "rental_uris": {"ios": "https://dc.lft.to/lastmile_qr_scan", "android": "https://dc.lft.to/lastmile_qr_scan"}, "is_reserved": 0, "lon": -77.00386616666667, "fusion_lat": 0.0, "name": "e10370ce6c63fddb46108d63d68c65e0"}, {"type": "electric_scooter", "fusion_lon": 0.0, "bike_id": "6a72af5f23f9b8ae3be21e491138f659", "is_disabled": 0, "lat": 38.9087645, "rental_uris": {"ios": "https://dc.lft.to/lastmile_qr_scan", "android": "https://dc.lft.to/lastmile_qr_scan"}, "is_reserved": 0, "lon": -76.99796633333334, "fusion_lat": 0.0, "name": "6a72af5f23f9b8ae3be21e491138f659"}, {"type": "electric_scooter", "fusion_lon": 0.0, "bike_id": "e752bc3339faaf4a2a5e2472d1e828c2", "is_disabled": 0, "lat": 38.937809, "rental_uris": {"ios": "https://dc.lft.to/lastmile_qr_scan", "android": "https://dc.lft.to/lastmile_qr_scan"}, "is_reserved": 0, "lon": -77.02461183333334, "fusion_lat": 0.0, "name": "e752bc3339faaf4a2a5e2472d1e828c2"}, {"type": "electric_scooter", "fusion_lon": 0.0, "bike_id": "cac8fb4e1877c7f99d62a229dff064c8", "is_disabled": 0, "lat": 38.9141725, "rental_uris": {"ios": "https://dc.lft.to/lastmile_qr_scan", "android": "https://dc.lft.to/lastmile_qr_scan"}, "is_reserved": 0, "lon": -77.03894266666667, "fusion_lat": 0.0, "name": "cac8fb4e1877c7f99d62a229dff064c8"}, {"type": "electric_bike", "fusion_lon": 0.0, "bike_id": "5a6f80db4baf34896044d64db34f77e7", "is_disabled": 0, "lat": 38.944074, "rental_uris": {"ios": "https://dc.lft.to/lastmile_qr_scan", "android": "https://dc.lft.to/lastmile_qr_scan"}, "is_reserved": 0, "lon": -77.055172, "fusion_lat": 0.0, "name": "5a6f80db4baf34896044d64db34f77e7"}, {"type": "electric_scooter", "fusion_lon": 0.0, "bike_id": "5e217f50919c8190c7b09791382f1296", "is_disabled": 0, "lat": 38.92434566666667, "rental_uris": {"ios": "https://dc.lft.to/lastmile_qr_scan", "android": "https://dc.lft.to/lastmile_qr_scan"}, "is_reserved": 0, "lon": -77.042478, "fusion_lat": 0.0, "name": "5e217f50919c8190c7b09791382f1296"}, {"type": "electric_scooter", "fusion_lon": 0.0, "bike_id": "9592d0f731b65b740045aac7dd07c82a", "is_disabled": 0, "lat": 38.92351016666667, "rental_uris": {"ios": "https://dc.lft.to/lastmile_qr_scan", "android": "https://dc.lft.to/lastmile_qr_scan"}, "is_reserved": 0, "lon": -76.99246583333333, "fusion_lat": 0.0, "name": "9592d0f731b65b740045aac7dd07c82a"}, {"type": "electric_scooter", "fusion_lon": 0.0, "bike_id": "23fb8b2f65a82afbd064fa0cc1c3b09c", "is_disabled": 0, "lat": 38.90776816666666, "rental_uris": {"ios": "https://dc.lft.to/lastmile_qr_scan", "android": "https://dc.lft.to/lastmile_qr_scan"}, "is_reserved": 0, "lon": -77.037693, "fusion_lat": 0.0, "name": "23fb8b2f65a82afbd064fa0cc1c3b09c"}, {"type": "electric_scooter", "fusion_lon": 0.0, "bike_id": "114c183cb309a75152e5cb32fbc6e51b", "is_disabled": 0, "lat": 38.90116166666667, "rental_uris": {"ios": "https://dc.lft.to/lastmile_qr_scan", "android": "https://dc.lft.to/lastmile_qr_scan"}, "is_reserved": 0, "lon": -77.02257066666667, "fusion_lat": 0.0, "name": "114c183cb309a75152e5cb32fbc6e51b"}, {"type": "electric_scooter", "fusion_lon": 0.0, "bike_id": "f87027851e7d4105546bc904a39a010e", "is_disabled": 0, "lat": 38.922419, "rental_uris": {"ios": "https://dc.lft.to/lastmile_qr_scan", "android": "https://dc.lft.to/lastmile_qr_scan"}, "is_reserved": 0, "lon": -77.04492266666666, "fusion_lat": 0.0, "name": "f87027851e7d4105546bc904a39a010e"}, {"type": "electric_scooter", "fusion_lon": 0.0, "bike_id": "e33376a7b1285a6819faebf352f0e30a", "is_disabled": 0, "lat": 38.892813833333335, "rental_uris": {"ios": "https://dc.lft.to/lastmile_qr_scan", "android": "https://dc.lft.to/lastmile_qr_scan"}, "is_reserved": 0, "lon": -77.04666066666667, "fusion_lat": 0.0, "name": "e33376a7b1285a6819faebf352f0e30a"}, {"type": "electric_scooter", "fusion_lon": 0.0, "bike_id": "81e7a3bde4f2b6ba4b50b1befaa703f7", "is_disabled": 0, "lat": 38.924469333333334, "rental_uris": {"ios": "https://dc.lft.to/lastmile_qr_scan", "android": "https://dc.lft.to/lastmile_qr_scan"}, "is_reserved": 0, "lon": -76.99065, "fusion_lat": 0.0, "name": "81e7a3bde4f2b6ba4b50b1befaa703f7"}, {"type": "electric_scooter", "fusion_lon": 0.0, "bike_id": "afc3d61109ea2b28fc46c3642ed7bb85", "is_disabled": 0, "lat": 38.949213666666665, "rental_uris": {"ios": "https://dc.lft.to/lastmile_qr_scan", "android": "https://dc.lft.to/lastmile_qr_scan"}, "is_reserved": 0, "lon": -77.0231895, "fusion_lat": 0.0, "name": "afc3d61109ea2b28fc46c3642ed7bb85"}, {"type": "electric_scooter", "fusion_lon": 0.0, "bike_id": "7d89be7cfd34e0978ad4db2089d0e43c", "is_disabled": 0, "lat": 38.900317666666666, "rental_uris": {"ios": "https://dc.lft.to/lastmile_qr_scan", "android": "https://dc.lft.to/lastmile_qr_scan"}, "is_reserved": 0, "lon": -76.998575, "fusion_lat": 0.0, "name": "7d89be7cfd34e0978ad4db2089d0e43c"}, {"type": "electric_scooter", "fusion_lon": 0.0, "bike_id": "777982721cfbd1320845148a105c44ed", "is_disabled": 0, "lat": 38.897986, "rental_uris": {"ios": "https://dc.lft.to/lastmile_qr_scan", "android": "https://dc.lft.to/lastmile_qr_scan"}, "is_reserved": 0, "lon": -77.04181966666667, "fusion_lat": 0.0, "name": "777982721cfbd1320845148a105c44ed"}, {"type": "electric_scooter", "fusion_lon": 0.0, "bike_id": "e47aa2208774bc7273ce1b8e445335f5", "is_disabled": 0, "lat": 38.92644266666667, "rental_uris": {"ios": "https://dc.lft.to/lastmile_qr_scan", "android": "https://dc.lft.to/lastmile_qr_scan"}, "is_reserved": 0, "lon": -77.03470533333333, "fusion_lat": 0.0, "name": "e47aa2208774bc7273ce1b8e445335f5"}, {"type": "electric_scooter", "fusion_lon": 0.0, "bike_id": "ff147b6d5f6585b266a9a6eb6ebc2b8a", "is_disabled": 0, "lat": 38.90750383333334, "rental_uris": {"ios": "https://dc.lft.to/lastmile_qr_scan", "android": "https://dc.lft.to/lastmile_qr_scan"}, "is_reserved": 0, "lon": -77.03584666666667, "fusion_lat": 0.0, "name": "ff147b6d5f6585b266a9a6eb6ebc2b8a"}, {"type": "electric_scooter", "fusion_lon": 0.0, "bike_id": "e455fd57f9742d4b1bc906e44fc20f52", "is_disabled": 0, "lat": 38.91031383333333, "rental_uris": {"ios": "https://dc.lft.to/lastmile_qr_scan", "android": "https://dc.lft.to/lastmile_qr_scan"}, "is_reserved": 0, "lon": -76.98566983333333, "fusion_lat": 0.0, "name": "e455fd57f9742d4b1bc906e44fc20f52"}, {"type": "electric_scooter", "fusion_lon": 0.0, "bike_id": "439841b9cfa6180d306fecc668541c1e", "is_disabled": 0, "lat": 38.917994, "rental_uris": {"ios": "https://dc.lft.to/lastmile_qr_scan", "android": "https://dc.lft.to/lastmile_qr_scan"}, "is_reserved": 0, "lon": -77.03333616666667, "fusion_lat": 0.0, "name": "439841b9cfa6180d306fecc668541c1e"}, {"type": "electric_scooter", "fusion_lon": 0.0, "bike_id": "51ea724c0e4182e181ebe446c9eace79", "is_disabled": 0, "lat": 38.923639333333334, "rental_uris": {"ios": "https://dc.lft.to/lastmile_qr_scan", "android": "https://dc.lft.to/lastmile_qr_scan"}, "is_reserved": 0, "lon": -77.0322785, "fusion_lat": 0.0, "name": "51ea724c0e4182e181ebe446c9eace79"}, {"type": "electric_scooter", "fusion_lon": 0.0, "bike_id": "34807254291cad09df719bc66bc03c3c", "is_disabled": 0, "lat": 38.9288555, "rental_uris": {"ios": "https://dc.lft.to/lastmile_qr_scan", "android": "https://dc.lft.to/lastmile_qr_scan"}, "is_reserved": 0, "lon": -77.01944083333333, "fusion_lat": 0.0, "name": "34807254291cad09df719bc66bc03c3c"}, {"type": "electric_scooter", "fusion_lon": 0.0, "bike_id": "e9bc96855dd632bcc953ec480bcdd365", "is_disabled": 0, "lat": 38.93363183333334, "rental_uris": {"ios": "https://dc.lft.to/lastmile_qr_scan", "android": "https://dc.lft.to/lastmile_qr_scan"}, "is_reserved": 0, "lon": -77.024286, "fusion_lat": 0.0, "name": "e9bc96855dd632bcc953ec480bcdd365"}, {"type": "electric_scooter", "fusion_lon": 0.0, "bike_id": "58656d31f4a5973a9bf190d36550a133", "is_disabled": 0, "lat": 38.94624483333333, "rental_uris": {"ios": "https://dc.lft.to/lastmile_qr_scan", "android": "https://dc.lft.to/lastmile_qr_scan"}, "is_reserved": 0, "lon": -77.03953066666666, "fusion_lat": 0.0, "name": "58656d31f4a5973a9bf190d36550a133"}, {"type": "electric_scooter", "fusion_lon": 0.0, "bike_id": "35ab959967eea4a4f4540f434ca5c31b", "is_disabled": 0, "lat": 38.92503266666667, "rental_uris": {"ios": "https://dc.lft.to/lastmile_qr_scan", "android": "https://dc.lft.to/lastmile_qr_scan"}, "is_reserved": 0, "lon": -77.02141616666667, "fusion_lat": 0.0, "name": "35ab959967eea4a4f4540f434ca5c31b"}, {"type": "electric_scooter", "fusion_lon": 0.0, "bike_id": "0fa6fe66a13f05a4b0235a11846899d0", "is_disabled": 0, "lat": 38.924419, "rental_uris": {"ios": "https://dc.lft.to/lastmile_qr_scan", "android": "https://dc.lft.to/lastmile_qr_scan"}, "is_reserved": 0, "lon": -77.03321366666667, "fusion_lat": 0.0, "name": "0fa6fe66a13f05a4b0235a11846899d0"}, {"type": "electric_scooter", "fusion_lon": 0.0, "bike_id": "b6a7037f07bc130102dc359bf71335b6", "is_disabled": 0, "lat": 38.89221966666667, "rental_uris": {"ios": "https://dc.lft.to/lastmile_qr_scan", "android": "https://dc.lft.to/lastmile_qr_scan"}, "is_reserved": 0, "lon": -77.04366183333333, "fusion_lat": 0.0, "name": "b6a7037f07bc130102dc359bf71335b6"}, {"type": "electric_bike", "fusion_lon": 0.0, "bike_id": "e703f6c8305580aaf9c03b300688fc5e", "is_disabled": 0, "lat": 38.8826545, "rental_uris": {"ios": "https://dc.lft.to/lastmile_qr_scan", "android": "https://dc.lft.to/lastmile_qr_scan"}, "is_reserved": 0, "lon": -77.22825216666666, "fusion_lat": 0.0, "name": "e703f6c8305580aaf9c03b300688fc5e"}, {"type": "electric_scooter", "fusion_lon": 0.0, "bike_id": "abdd2835207ab277822989fec2913722", "is_disabled": 0, "lat": 38.8839705, "rental_uris": {"ios": "https://dc.lft.to/lastmile_qr_scan", "android": "https://dc.lft.to/lastmile_qr_scan"}, "is_reserved": 0, "lon": -76.930433, "fusion_lat": 0.0, "name": "abdd2835207ab277822989fec2913722"}, {"type": "electric_scooter", "fusion_lon": 0.0, "bike_id": "85dfc53edd8cf2568352279e0e661ae4", "is_disabled": 0, "lat": 38.907281166666664, "rental_uris": {"ios": "https://dc.lft.to/lastmile_qr_scan", "android": "https://dc.lft.to/lastmile_qr_scan"}, "is_reserved": 0, "lon": -77.02495233333333, "fusion_lat": 0.0, "name": "85dfc53edd8cf2568352279e0e661ae4"}, {"type": "electric_bike", "fusion_lon": 0.0, "bike_id": "10add15732ba01799699c625caf48e7e", "is_disabled": 0, "lat": 39.084373166666666, "rental_uris": {"ios": "https://dc.lft.to/lastmile_qr_scan", "android": "https://dc.lft.to/lastmile_qr_scan"}, "is_reserved": 0, "lon": -76.9516495, "fusion_lat": 0.0, "name": "10add15732ba01799699c625caf48e7e"}, {"type": "electric_scooter", "fusion_lon": 0.0, "bike_id": "0d32b91103ffdec6e35785656ecca4b0", "is_disabled": 0, "lat": 38.9055325, "rental_uris": {"ios": "https://dc.lft.to/lastmile_qr_scan", "android": "https://dc.lft.to/lastmile_qr_scan"}, "is_reserved": 0, "lon": -77.03249366666667, "fusion_lat": 0.0, "name": "0d32b91103ffdec6e35785656ecca4b0"}, {"type": "electric_scooter", "fusion_lon": 0.0, "bike_id": "40ff0a2dedfd9f4a8fbd78c2391fdeeb", "is_disabled": 0, "lat": 38.892233833333336, "rental_uris": {"ios": "https://dc.lft.to/lastmile_qr_scan", "android": "https://dc.lft.to/lastmile_qr_scan"}, "is_reserved": 0, "lon": -77.04334966666667, "fusion_lat": 0.0, "name": "40ff0a2dedfd9f4a8fbd78c2391fdeeb"}, {"type": "electric_scooter", "fusion_lon": 0.0, "bike_id": "050389c7855cd50d5d2885d5e13d2ce9", "is_disabled": 0, "lat": 38.88441266666667, "rental_uris": {"ios": "https://dc.lft.to/lastmile_qr_scan", "android": "https://dc.lft.to/lastmile_qr_scan"}, "is_reserved": 0, "lon": -77.015334, "fusion_lat": 0.0, "name": "050389c7855cd50d5d2885d5e13d2ce9"}, {"type": "electric_scooter", "fusion_lon": 0.0, "bike_id": "650320d84cd1030723834952f193a8e5", "is_disabled": 0, "lat": 38.911304, "rental_uris": {"ios": "https://dc.lft.to/lastmile_qr_scan", "android": "https://dc.lft.to/lastmile_qr_scan"}, "is_reserved": 0, "lon": -77.02198766666666, "fusion_lat": 0.0, "name": "650320d84cd1030723834952f193a8e5"}, {"type": "electric_scooter", "fusion_lon": 0.0, "bike_id": "7f1f1e5672bab5d48ff98c97bff7b62a", "is_disabled": 0, "lat": 38.894716333333335, "rental_uris": {"ios": "https://dc.lft.to/lastmile_qr_scan", "android": "https://dc.lft.to/lastmile_qr_scan"}, "is_reserved": 0, "lon": -76.949641, "fusion_lat": 0.0, "name": "7f1f1e5672bab5d48ff98c97bff7b62a"}, {"type": "electric_scooter", "fusion_lon": 0.0, "bike_id": "946f097faffcb8ef41d71334a21aba9b", "is_disabled": 0, "lat": 38.904682333333334, "rental_uris": {"ios": "https://dc.lft.to/lastmile_qr_scan", "android": "https://dc.lft.to/lastmile_qr_scan"}, "is_reserved": 0, "lon": -77.03566783333333, "fusion_lat": 0.0, "name": "946f097faffcb8ef41d71334a21aba9b"}, {"type": "electric_scooter", "fusion_lon": 0.0, "bike_id": "2ff989c940cdfee5b177a2cf8ff61535", "is_disabled": 0, "lat": 38.8929285, "rental_uris": {"ios": "https://dc.lft.to/lastmile_qr_scan", "android": "https://dc.lft.to/lastmile_qr_scan"}, "is_reserved": 0, "lon": -77.02113416666667, "fusion_lat": 0.0, "name": "2ff989c940cdfee5b177a2cf8ff61535"}, {"type": "electric_scooter", "fusion_lon": 0.0, "bike_id": "23906d3c915268d17239cdc1f3e82173", "is_disabled": 0, "lat": 38.874578, "rental_uris": {"ios": "https://dc.lft.to/lastmile_qr_scan", "android": "https://dc.lft.to/lastmile_qr_scan"}, "is_reserved": 0, "lon": -77.00567383333333, "fusion_lat": 0.0, "name": "23906d3c915268d17239cdc1f3e82173"}, {"type": "electric_scooter", "fusion_lon": 0.0, "bike_id": "26f6ffd448284fede1758d00c2dfdec6", "is_disabled": 0, "lat": 38.89224083333333, "rental_uris": {"ios": "https://dc.lft.to/lastmile_qr_scan", "android": "https://dc.lft.to/lastmile_qr_scan"}, "is_reserved": 0, "lon": -77.04466883333333, "fusion_lat": 0.0, "name": "26f6ffd448284fede1758d00c2dfdec6"}, {"type": "electric_scooter", "fusion_lon": 0.0, "bike_id": "31106fde8755438f2d707c8216fdf07a", "is_disabled": 0, "lat": 38.90307683333333, "rental_uris": {"ios": "https://dc.lft.to/lastmile_qr_scan", "android": "https://dc.lft.to/lastmile_qr_scan"}, "is_reserved": 0, "lon": -76.97805, "fusion_lat": 0.0, "name": "31106fde8755438f2d707c8216fdf07a"}, {"type": "electric_scooter", "fusion_lon": 0.0, "bike_id": "5e503bd490c2c4148b8b1532ffbf6839", "is_disabled": 0, "lat": 38.9265615, "rental_uris": {"ios": "https://dc.lft.to/lastmile_qr_scan", "android": "https://dc.lft.to/lastmile_qr_scan"}, "is_reserved": 0, "lon": -77.05325833333333, "fusion_lat": 0.0, "name": "5e503bd490c2c4148b8b1532ffbf6839"}, {"type": "electric_scooter", "fusion_lon": 0.0, "bike_id": "6cecaf9ef2f0bb722a98b33dbef6ed5a", "is_disabled": 0, "lat": 38.92386966666667, "rental_uris": {"ios": "https://dc.lft.to/lastmile_qr_scan", "android": "https://dc.lft.to/lastmile_qr_scan"}, "is_reserved": 0, "lon": -77.03649333333334, "fusion_lat": 0.0, "name": "6cecaf9ef2f0bb722a98b33dbef6ed5a"}, {"type": "electric_scooter", "fusion_lon": 0.0, "bike_id": "64e37a93aa64ff9670f6c6741393a06e", "is_disabled": 0, "lat": 38.91944866666667, "rental_uris": {"ios": "https://dc.lft.to/lastmile_qr_scan", "android": "https://dc.lft.to/lastmile_qr_scan"}, "is_reserved": 0, "lon": -77.01787733333333, "fusion_lat": 0.0, "name": "64e37a93aa64ff9670f6c6741393a06e"}, {"type": "electric_scooter", "fusion_lon": 0.0, "bike_id": "1bbf8d19b26ba0ebc04750761da351f9", "is_disabled": 0, "lat": 38.92643833333333, "rental_uris": {"ios": "https://dc.lft.to/lastmile_qr_scan", "android": "https://dc.lft.to/lastmile_qr_scan"}, "is_reserved": 0, "lon": -77.037076, "fusion_lat": 0.0, "name": "1bbf8d19b26ba0ebc04750761da351f9"}, {"type": "electric_scooter", "fusion_lon": 0.0, "bike_id": "3fcbb94e6ff84e796791e8079f87d596", "is_disabled": 0, "lat": 38.91710916666667, "rental_uris": {"ios": "https://dc.lft.to/lastmile_qr_scan", "android": "https://dc.lft.to/lastmile_qr_scan"}, "is_reserved": 0, "lon": -77.038689, "fusion_lat": 0.0, "name": "3fcbb94e6ff84e796791e8079f87d596"}, {"type": "electric_scooter", "fusion_lon": 0.0, "bike_id": "173a692f9f0c743f02b458b69fa9dabf", "is_disabled": 0, "lat": 38.944505, "rental_uris": {"ios": "https://dc.lft.to/lastmile_qr_scan", "android": "https://dc.lft.to/lastmile_qr_scan"}, "is_reserved": 0, "lon": -77.063558, "fusion_lat": 0.0, "name": "173a692f9f0c743f02b458b69fa9dabf"}, {"type": "electric_scooter", "fusion_lon": 0.0, "bike_id": "ea212a7f2650796077621096e29a9856", "is_disabled": 0, "lat": 38.90173383333333, "rental_uris": {"ios": "https://dc.lft.to/lastmile_qr_scan", "android": "https://dc.lft.to/lastmile_qr_scan"}, "is_reserved": 0, "lon": -76.98076433333334, "fusion_lat": 0.0, "name": "ea212a7f2650796077621096e29a9856"}, {"type": "electric_scooter", "fusion_lon": 0.0, "bike_id": "f36a5e0082814a1161e1ecd20f8052c0", "is_disabled": 0, "lat": 38.93352433333333, "rental_uris": {"ios": "https://dc.lft.to/lastmile_qr_scan", "android": "https://dc.lft.to/lastmile_qr_scan"}, "is_reserved": 0, "lon": -77.03656633333334, "fusion_lat": 0.0, "name": "f36a5e0082814a1161e1ecd20f8052c0"}, {"type": "electric_scooter", "fusion_lon": 0.0, "bike_id": "94b1d1130ea7876a2f2493074fb8d4be", "is_disabled": 0, "lat": 38.94501316666667, "rental_uris": {"ios": "https://dc.lft.to/lastmile_qr_scan", "android": "https://dc.lft.to/lastmile_qr_scan"}, "is_reserved": 0, "lon": -77.03833, "fusion_lat": 0.0, "name": "94b1d1130ea7876a2f2493074fb8d4be"}, {"type": "electric_scooter", "fusion_lon": 0.0, "bike_id": "ca4a7e9f68f44277fd45b82ed8284ac0", "is_disabled": 0, "lat": 38.90356666666667, "rental_uris": {"ios": "https://dc.lft.to/lastmile_qr_scan", "android": "https://dc.lft.to/lastmile_qr_scan"}, "is_reserved": 0, "lon": -76.98730283333333, "fusion_lat": 0.0, "name": "ca4a7e9f68f44277fd45b82ed8284ac0"}, {"type": "electric_scooter", "fusion_lon": 0.0, "bike_id": "54e342070b42aec941450c4ae9833e41", "is_disabled": 0, "lat": 38.903544, "rental_uris": {"ios": "https://dc.lft.to/lastmile_qr_scan", "android": "https://dc.lft.to/lastmile_qr_scan"}, "is_reserved": 0, "lon": -76.98968416666666, "fusion_lat": 0.0, "name": "54e342070b42aec941450c4ae9833e41"}, {"type": "electric_scooter", "fusion_lon": 0.0, "bike_id": "4c118854ad16cfdeb83d2807624f02fe", "is_disabled": 0, "lat": 38.911169, "rental_uris": {"ios": "https://dc.lft.to/lastmile_qr_scan", "android": "https://dc.lft.to/lastmile_qr_scan"}, "is_reserved": 0, "lon": -77.00749166666667, "fusion_lat": 0.0, "name": "4c118854ad16cfdeb83d2807624f02fe"}, {"type": "electric_scooter", "fusion_lon": 0.0, "bike_id": "609f36b791eb8f79cd1ad5a51dc5a1f2", "is_disabled": 0, "lat": 38.9095575, "rental_uris": {"ios": "https://dc.lft.to/lastmile_qr_scan", "android": "https://dc.lft.to/lastmile_qr_scan"}, "is_reserved": 0, "lon": -77.01859833333333, "fusion_lat": 0.0, "name": "609f36b791eb8f79cd1ad5a51dc5a1f2"}, {"type": "electric_scooter", "fusion_lon": 0.0, "bike_id": "937a5b834d3223042de6f28af47ecca7", "is_disabled": 0, "lat": 38.88725316666667, "rental_uris": {"ios": "https://dc.lft.to/lastmile_qr_scan", "android": "https://dc.lft.to/lastmile_qr_scan"}, "is_reserved": 0, "lon": -77.02826916666666, "fusion_lat": 0.0, "name": "937a5b834d3223042de6f28af47ecca7"}, {"type": "electric_scooter", "fusion_lon": 0.0, "bike_id": "504098b4944495d8ddadd2002ae0773f", "is_disabled": 0, "lat": 38.97350516666667, "rental_uris": {"ios": "https://dc.lft.to/lastmile_qr_scan", "android": "https://dc.lft.to/lastmile_qr_scan"}, "is_reserved": 0, "lon": -77.02790733333333, "fusion_lat": 0.0, "name": "504098b4944495d8ddadd2002ae0773f"}, {"type": "electric_scooter", "fusion_lon": 0.0, "bike_id": "271f9231373428c3bf1e2893b0ec6cfc", "is_disabled": 0, "lat": 38.91904666666667, "rental_uris": {"ios": "https://dc.lft.to/lastmile_qr_scan", "android": "https://dc.lft.to/lastmile_qr_scan"}, "is_reserved": 0, "lon": -77.0196995, "fusion_lat": 0.0, "name": "271f9231373428c3bf1e2893b0ec6cfc"}, {"type": "electric_scooter", "fusion_lon": 0.0, "bike_id": "3a8b6a9744d1b3d403b450c4128e276d", "is_disabled": 0, "lat": 38.904122666666666, "rental_uris": {"ios": "https://dc.lft.to/lastmile_qr_scan", "android": "https://dc.lft.to/lastmile_qr_scan"}, "is_reserved": 0, "lon": -76.99958766666667, "fusion_lat": 0.0, "name": "3a8b6a9744d1b3d403b450c4128e276d"}, {"type": "electric_scooter", "fusion_lon": 0.0, "bike_id": "66cf29ffe174bee914774bfae43d3f16", "is_disabled": 0, "lat": 38.90626916666667, "rental_uris": {"ios": "https://dc.lft.to/lastmile_qr_scan", "android": "https://dc.lft.to/lastmile_qr_scan"}, "is_reserved": 0, "lon": -77.05024833333333, "fusion_lat": 0.0, "name": "66cf29ffe174bee914774bfae43d3f16"}, {"type": "electric_scooter", "fusion_lon": 0.0, "bike_id": "304bce73e5202058e3d9be8ec6d2d9b5", "is_disabled": 0, "lat": 38.911518, "rental_uris": {"ios": "https://dc.lft.to/lastmile_qr_scan", "android": "https://dc.lft.to/lastmile_qr_scan"}, "is_reserved": 0, "lon": -77.00451083333333, "fusion_lat": 0.0, "name": "304bce73e5202058e3d9be8ec6d2d9b5"}, {"type": "electric_scooter", "fusion_lon": 0.0, "bike_id": "48e90eb9ac490a878d3c33fab6661cbf", "is_disabled": 0, "lat": 38.91774066666667, "rental_uris": {"ios": "https://dc.lft.to/lastmile_qr_scan", "android": "https://dc.lft.to/lastmile_qr_scan"}, "is_reserved": 0, "lon": -77.03210283333334, "fusion_lat": 0.0, "name": "48e90eb9ac490a878d3c33fab6661cbf"}, {"type": "electric_scooter", "fusion_lon": 0.0, "bike_id": "0460ef406481b70c118760f01ff2b827", "is_disabled": 0, "lat": 38.925731, "rental_uris": {"ios": "https://dc.lft.to/lastmile_qr_scan", "android": "https://dc.lft.to/lastmile_qr_scan"}, "is_reserved": 0, "lon": -77.02839216666666, "fusion_lat": 0.0, "name": "0460ef406481b70c118760f01ff2b827"}, {"type": "electric_scooter", "fusion_lon": 0.0, "bike_id": "de17e7202bba59ec1ff0036d0d75def0", "is_disabled": 0, "lat": 38.88537816666667, "rental_uris": {"ios": "https://dc.lft.to/lastmile_qr_scan", "android": "https://dc.lft.to/lastmile_qr_scan"}, "is_reserved": 0, "lon": -76.97889866666667, "fusion_lat": 0.0, "name": "de17e7202bba59ec1ff0036d0d75def0"}, {"type": "electric_bike", "fusion_lon": 0.0, "bike_id": "a72ac6e7483e5c35d852757cfec1c89e", "is_disabled": 0, "lat": 38.866252833333334, "rental_uris": {"ios": "https://dc.lft.to/lastmile_qr_scan", "android": "https://dc.lft.to/lastmile_qr_scan"}, "is_reserved": 0, "lon": -76.9457185, "fusion_lat": 0.0, "name": "a72ac6e7483e5c35d852757cfec1c89e"}, {"type": "electric_scooter", "fusion_lon": 0.0, "bike_id": "71e6bbcec0e165bf4f882e96ae45c9d5", "is_disabled": 0, "lat": 38.899655833333334, "rental_uris": {"ios": "https://dc.lft.to/lastmile_qr_scan", "android": "https://dc.lft.to/lastmile_qr_scan"}, "is_reserved": 0, "lon": -77.0161205, "fusion_lat": 0.0, "name": "71e6bbcec0e165bf4f882e96ae45c9d5"}, {"type": "electric_scooter", "fusion_lon": 0.0, "bike_id": "a09ffb6198acc43315a84bd635b86901", "is_disabled": 0, "lat": 38.89464866666667, "rental_uris": {"ios": "https://dc.lft.to/lastmile_qr_scan", "android": "https://dc.lft.to/lastmile_qr_scan"}, "is_reserved": 0, "lon": -77.0186145, "fusion_lat": 0.0, "name": "a09ffb6198acc43315a84bd635b86901"}, {"type": "electric_bike", "fusion_lon": 0.0, "bike_id": "5d11438b36abe401fd2b171adafdf58d", "is_disabled": 0, "lat": 38.997764833333335, "rental_uris": {"ios": "https://dc.lft.to/lastmile_qr_scan", "android": "https://dc.lft.to/lastmile_qr_scan"}, "is_reserved": 0, "lon": -77.00756316666667, "fusion_lat": 0.0, "name": "5d11438b36abe401fd2b171adafdf58d"}, {"type": "electric_scooter", "fusion_lon": 0.0, "bike_id": "5b718fe44ae31bf4ad64423f0d773eec", "is_disabled": 0, "lat": 38.909575833333335, "rental_uris": {"ios": "https://dc.lft.to/lastmile_qr_scan", "android": "https://dc.lft.to/lastmile_qr_scan"}, "is_reserved": 0, "lon": -77.04650466666666, "fusion_lat": 0.0, "name": "5b718fe44ae31bf4ad64423f0d773eec"}, {"type": "electric_scooter", "fusion_lon": 0.0, "bike_id": "e4d74bc1c7f635702a98fd63459ae08b", "is_disabled": 0, "lat": 38.89298983333333, "rental_uris": {"ios": "https://dc.lft.to/lastmile_qr_scan", "android": "https://dc.lft.to/lastmile_qr_scan"}, "is_reserved": 0, "lon": -77.00204133333334, "fusion_lat": 0.0, "name": "e4d74bc1c7f635702a98fd63459ae08b"}, {"type": "electric_scooter", "fusion_lon": 0.0, "bike_id": "bcf0b79a8db554be0dd91e86c0d938cb", "is_disabled": 0, "lat": 38.9295365, "rental_uris": {"ios": "https://dc.lft.to/lastmile_qr_scan", "android": "https://dc.lft.to/lastmile_qr_scan"}, "is_reserved": 0, "lon": -77.0309855, "fusion_lat": 0.0, "name": "bcf0b79a8db554be0dd91e86c0d938cb"}, {"type": "electric_scooter", "fusion_lon": 0.0, "bike_id": "0926557007649b2f036874e1e115b47a", "is_disabled": 0, "lat": 38.9427945, "rental_uris": {"ios": "https://dc.lft.to/lastmile_qr_scan", "android": "https://dc.lft.to/lastmile_qr_scan"}, "is_reserved": 0, "lon": -77.0293285, "fusion_lat": 0.0, "name": "0926557007649b2f036874e1e115b47a"}, {"type": "electric_scooter", "fusion_lon": 0.0, "bike_id": "9b67e22e9ba9a2f45a8290cc64c9ce75", "is_disabled": 0, "lat": 38.911283166666664, "rental_uris": {"ios": "https://dc.lft.to/lastmile_qr_scan", "android": "https://dc.lft.to/lastmile_qr_scan"}, "is_reserved": 0, "lon": -77.02199316666666, "fusion_lat": 0.0, "name": "9b67e22e9ba9a2f45a8290cc64c9ce75"}, {"type": "electric_scooter", "fusion_lon": 0.0, "bike_id": "18f7279aaa1c4e2b6ce42b8af2798262", "is_disabled": 0, "lat": 38.89910916666667, "rental_uris": {"ios": "https://dc.lft.to/lastmile_qr_scan", "android": "https://dc.lft.to/lastmile_qr_scan"}, "is_reserved": 0, "lon": -76.9338265, "fusion_lat": 0.0, "name": "18f7279aaa1c4e2b6ce42b8af2798262"}, {"type": "electric_scooter", "fusion_lon": 0.0, "bike_id": "2518033c86ce4e4db4022db6ceb47775", "is_disabled": 0, "lat": 38.908623, "rental_uris": {"ios": "https://dc.lft.to/lastmile_qr_scan", "android": "https://dc.lft.to/lastmile_qr_scan"}, "is_reserved": 0, "lon": -77.0404245, "fusion_lat": 0.0, "name": "2518033c86ce4e4db4022db6ceb47775"}, {"type": "electric_scooter", "fusion_lon": 0.0, "bike_id": "82e5c4570a66273b36084fd86c61ae71", "is_disabled": 0, "lat": 38.930181, "rental_uris": {"ios": "https://dc.lft.to/lastmile_qr_scan", "android": "https://dc.lft.to/lastmile_qr_scan"}, "is_reserved": 0, "lon": -77.02792883333333, "fusion_lat": 0.0, "name": "82e5c4570a66273b36084fd86c61ae71"}, {"type": "electric_scooter", "fusion_lon": 0.0, "bike_id": "d864828c1a2fa0f6fc61304d20de7c4f", "is_disabled": 0, "lat": 38.8922425, "rental_uris": {"ios": "https://dc.lft.to/lastmile_qr_scan", "android": "https://dc.lft.to/lastmile_qr_scan"}, "is_reserved": 0, "lon": -77.0450565, "fusion_lat": 0.0, "name": "d864828c1a2fa0f6fc61304d20de7c4f"}, {"type": "electric_scooter", "fusion_lon": 0.0, "bike_id": "ade823ea5654de2be12ff2fdbcf7d8db", "is_disabled": 0, "lat": 38.89543233333333, "rental_uris": {"ios": "https://dc.lft.to/lastmile_qr_scan", "android": "https://dc.lft.to/lastmile_qr_scan"}, "is_reserved": 0, "lon": -76.98336283333333, "fusion_lat": 0.0, "name": "ade823ea5654de2be12ff2fdbcf7d8db"}, {"type": "electric_scooter", "fusion_lon": 0.0, "bike_id": "59a4b38df35d7a2158bb89483a8f6205", "is_disabled": 0, "lat": 38.90870966666667, "rental_uris": {"ios": "https://dc.lft.to/lastmile_qr_scan", "android": "https://dc.lft.to/lastmile_qr_scan"}, "is_reserved": 0, "lon": -77.01888666666666, "fusion_lat": 0.0, "name": "59a4b38df35d7a2158bb89483a8f6205"}, {"type": "electric_bike", "fusion_lon": 0.0, "bike_id": "5f19ed414b27ea973613e091c8b80e5b", "is_disabled": 0, "lat": 38.972559833333335, "rental_uris": {"ios": "https://dc.lft.to/lastmile_qr_scan", "android": "https://dc.lft.to/lastmile_qr_scan"}, "is_reserved": 0, "lon": -76.992755, "fusion_lat": 0.0, "name": "5f19ed414b27ea973613e091c8b80e5b"}, {"type": "electric_scooter", "fusion_lon": 0.0, "bike_id": "0e60271ff4b29fd5dad095b09e006c02", "is_disabled": 0, "lat": 38.89223, "rental_uris": {"ios": "https://dc.lft.to/lastmile_qr_scan", "android": "https://dc.lft.to/lastmile_qr_scan"}, "is_reserved": 0, "lon": -77.02627933333333, "fusion_lat": 0.0, "name": "0e60271ff4b29fd5dad095b09e006c02"}, {"type": "electric_scooter", "fusion_lon": 0.0, "bike_id": "4770079f9d4b18813f12f862f547af9e", "is_disabled": 0, "lat": 38.912566166666664, "rental_uris": {"ios": "https://dc.lft.to/lastmile_qr_scan", "android": "https://dc.lft.to/lastmile_qr_scan"}, "is_reserved": 0, "lon": -77.03826766666667, "fusion_lat": 0.0, "name": "4770079f9d4b18813f12f862f547af9e"}, {"type": "electric_scooter", "fusion_lon": 0.0, "bike_id": "1f89592ffb015caafb66def167bd8b02", "is_disabled": 0, "lat": 38.879885, "rental_uris": {"ios": "https://dc.lft.to/lastmile_qr_scan", "android": "https://dc.lft.to/lastmile_qr_scan"}, "is_reserved": 0, "lon": -76.987076, "fusion_lat": 0.0, "name": "1f89592ffb015caafb66def167bd8b02"}, {"type": "electric_bike", "fusion_lon": 0.0, "bike_id": "4c259af9382e8642114a6e0e29b55384", "is_disabled": 0, "lat": 38.8384735, "rental_uris": {"ios": "https://dc.lft.to/lastmile_qr_scan", "android": "https://dc.lft.to/lastmile_qr_scan"}, "is_reserved": 0, "lon": -76.997256, "fusion_lat": 0.0, "name": "4c259af9382e8642114a6e0e29b55384"}, {"type": "electric_scooter", "fusion_lon": 0.0, "bike_id": "fdb1fcd00f09fc14c7381b7493a8540f", "is_disabled": 0, "lat": 38.9036025, "rental_uris": {"ios": "https://dc.lft.to/lastmile_qr_scan", "android": "https://dc.lft.to/lastmile_qr_scan"}, "is_reserved": 0, "lon": -77.003408, "fusion_lat": 0.0, "name": "fdb1fcd00f09fc14c7381b7493a8540f"}, {"type": "electric_scooter", "fusion_lon": 0.0, "bike_id": "210ad58ab8ffcfa40650f03f45e51bce", "is_disabled": 0, "lat": 38.904673333333335, "rental_uris": {"ios": "https://dc.lft.to/lastmile_qr_scan", "android": "https://dc.lft.to/lastmile_qr_scan"}, "is_reserved": 0, "lon": -77.065997, "fusion_lat": 0.0, "name": "210ad58ab8ffcfa40650f03f45e51bce"}, {"type": "electric_scooter", "fusion_lon": 0.0, "bike_id": "5839e7277f41c2203a97c70bc9ff5c30", "is_disabled": 0, "lat": 38.88339033333333, "rental_uris": {"ios": "https://dc.lft.to/lastmile_qr_scan", "android": "https://dc.lft.to/lastmile_qr_scan"}, "is_reserved": 0, "lon": -77.00649183333333, "fusion_lat": 0.0, "name": "5839e7277f41c2203a97c70bc9ff5c30"}, {"type": "electric_scooter", "fusion_lon": 0.0, "bike_id": "66591407c4a07fa8d412ba7eeea7679a", "is_disabled": 0, "lat": 38.92385133333333, "rental_uris": {"ios": "https://dc.lft.to/lastmile_qr_scan", "android": "https://dc.lft.to/lastmile_qr_scan"}, "is_reserved": 0, "lon": -77.03654566666667, "fusion_lat": 0.0, "name": "66591407c4a07fa8d412ba7eeea7679a"}, {"type": "electric_scooter", "fusion_lon": 0.0, "bike_id": "a3fb461aa480517ef11a4649f4fe82e8", "is_disabled": 0, "lat": 38.9077775, "rental_uris": {"ios": "https://dc.lft.to/lastmile_qr_scan", "android": "https://dc.lft.to/lastmile_qr_scan"}, "is_reserved": 0, "lon": -77.04247616666666, "fusion_lat": 0.0, "name": "a3fb461aa480517ef11a4649f4fe82e8"}, {"type": "electric_scooter", "fusion_lon": 0.0, "bike_id": "a368f962cf09723da4ed2c46a4b0f961", "is_disabled": 0, "lat": 38.901175, "rental_uris": {"ios": "https://dc.lft.to/lastmile_qr_scan", "android": "https://dc.lft.to/lastmile_qr_scan"}, "is_reserved": 0, "lon": -76.9456405, "fusion_lat": 0.0, "name": "a368f962cf09723da4ed2c46a4b0f961"}, {"type": "electric_scooter", "fusion_lon": 0.0, "bike_id": "ebb53f8f33d6470e7aa5b82527bbab33", "is_disabled": 0, "lat": 38.887693166666665, "rental_uris": {"ios": "https://dc.lft.to/lastmile_qr_scan", "android": "https://dc.lft.to/lastmile_qr_scan"}, "is_reserved": 0, "lon": -77.028445, "fusion_lat": 0.0, "name": "ebb53f8f33d6470e7aa5b82527bbab33"}, {"type": "electric_bike", "fusion_lon": 0.0, "bike_id": "a44a94e25ee9b602420e9bd84d86f94c", "is_disabled": 0, "lat": 38.873059833333336, "rental_uris": {"ios": "https://dc.lft.to/lastmile_qr_scan", "android": "https://dc.lft.to/lastmile_qr_scan"}, "is_reserved": 0, "lon": -77.01100166666667, "fusion_lat": 0.0, "name": "a44a94e25ee9b602420e9bd84d86f94c"}, {"type": "electric_bike", "fusion_lon": 0.0, "bike_id": "4e33a2f185c7dff6d61d7c3eca712106", "is_disabled": 0, "lat": 38.920159166666664, "rental_uris": {"ios": "https://dc.lft.to/lastmile_qr_scan", "android": "https://dc.lft.to/lastmile_qr_scan"}, "is_reserved": 0, "lon": -77.03232316666667, "fusion_lat": 0.0, "name": "4e33a2f185c7dff6d61d7c3eca712106"}, {"type": "electric_scooter", "fusion_lon": 0.0, "bike_id": "9ac80652af1b18ac3f6ab1cf99e74037", "is_disabled": 0, "lat": 38.93674166666667, "rental_uris": {"ios": "https://dc.lft.to/lastmile_qr_scan", "android": "https://dc.lft.to/lastmile_qr_scan"}, "is_reserved": 0, "lon": -77.03622816666666, "fusion_lat": 0.0, "name": "9ac80652af1b18ac3f6ab1cf99e74037"}, {"type": "electric_scooter", "fusion_lon": 0.0, "bike_id": "fbef0a38110a07bf29610a631f336885", "is_disabled": 0, "lat": 38.886535333333335, "rental_uris": {"ios": "https://dc.lft.to/lastmile_qr_scan", "android": "https://dc.lft.to/lastmile_qr_scan"}, "is_reserved": 0, "lon": -77.02831583333334, "fusion_lat": 0.0, "name": "fbef0a38110a07bf29610a631f336885"}, {"type": "electric_scooter", "fusion_lon": 0.0, "bike_id": "f02d476eeac7c88fbdf4beb2ded7cebf", "is_disabled": 0, "lat": 38.924473166666665, "rental_uris": {"ios": "https://dc.lft.to/lastmile_qr_scan", "android": "https://dc.lft.to/lastmile_qr_scan"}, "is_reserved": 0, "lon": -77.002121, "fusion_lat": 0.0, "name": "f02d476eeac7c88fbdf4beb2ded7cebf"}, {"type": "electric_bike", "fusion_lon": 0.0, "bike_id": "73ca189cfa83f15c2de1ee8f93f94f2f", "is_disabled": 0, "lat": 38.84282833333333, "rental_uris": {"ios": "https://dc.lft.to/lastmile_qr_scan", "android": "https://dc.lft.to/lastmile_qr_scan"}, "is_reserved": 0, "lon": -77.0752545, "fusion_lat": 0.0, "name": "73ca189cfa83f15c2de1ee8f93f94f2f"}, {"type": "electric_scooter", "fusion_lon": 0.0, "bike_id": "335e497cc9e67e0b91530faa650fca95", "is_disabled": 0, "lat": 38.89751916666667, "rental_uris": {"ios": "https://dc.lft.to/lastmile_qr_scan", "android": "https://dc.lft.to/lastmile_qr_scan"}, "is_reserved": 0, "lon": -77.04345766666667, "fusion_lat": 0.0, "name": "335e497cc9e67e0b91530faa650fca95"}, {"type": "electric_bike", "fusion_lon": 0.0, "bike_id": "8af542a2e478a9062573145702581e8b", "is_disabled": 0, "lat": 38.933896, "rental_uris": {"ios": "https://dc.lft.to/lastmile_qr_scan", "android": "https://dc.lft.to/lastmile_qr_scan"}, "is_reserved": 0, "lon": -77.02212466666667, "fusion_lat": 0.0, "name": "8af542a2e478a9062573145702581e8b"}, {"type": "electric_bike", "fusion_lon": 0.0, "bike_id": "cf3ca0bdeacc96aa26c192fd69ca1f52", "is_disabled": 0, "lat": 38.84281683333333, "rental_uris": {"ios": "https://dc.lft.to/lastmile_qr_scan", "android": "https://dc.lft.to/lastmile_qr_scan"}, "is_reserved": 0, "lon": -76.98818833333333, "fusion_lat": 0.0, "name": "cf3ca0bdeacc96aa26c192fd69ca1f52"}, {"type": "electric_scooter", "fusion_lon": 0.0, "bike_id": "70c8db196c79407a723f5e5971976606", "is_disabled": 0, "lat": 38.892384666666665, "rental_uris": {"ios": "https://dc.lft.to/lastmile_qr_scan", "android": "https://dc.lft.to/lastmile_qr_scan"}, "is_reserved": 0, "lon": -77.03213366666667, "fusion_lat": 0.0, "name": "70c8db196c79407a723f5e5971976606"}, {"type": "electric_scooter", "fusion_lon": 0.0, "bike_id": "c26d5678406f5c22f5212d5fe8bf4974", "is_disabled": 0, "lat": 38.92118083333333, "rental_uris": {"ios": "https://dc.lft.to/lastmile_qr_scan", "android": "https://dc.lft.to/lastmile_qr_scan"}, "is_reserved": 0, "lon": -77.012095, "fusion_lat": 0.0, "name": "c26d5678406f5c22f5212d5fe8bf4974"}, {"type": "electric_scooter", "fusion_lon": 0.0, "bike_id": "b30b2f0f396f1babba1d162a4b3348a5", "is_disabled": 0, "lat": 38.904765, "rental_uris": {"ios": "https://dc.lft.to/lastmile_qr_scan", "android": "https://dc.lft.to/lastmile_qr_scan"}, "is_reserved": 0, "lon": -76.952009, "fusion_lat": 0.0, "name": "b30b2f0f396f1babba1d162a4b3348a5"}, {"type": "electric_scooter", "fusion_lon": 0.0, "bike_id": "7ba0c7d93c350b8d938227de09dfc053", "is_disabled": 0, "lat": 38.896157333333335, "rental_uris": {"ios": "https://dc.lft.to/lastmile_qr_scan", "android": "https://dc.lft.to/lastmile_qr_scan"}, "is_reserved": 0, "lon": -77.01971316666666, "fusion_lat": 0.0, "name": "7ba0c7d93c350b8d938227de09dfc053"}, {"type": "electric_scooter", "fusion_lon": 0.0, "bike_id": "7aa19fc5d5e25d6fb4e878249cf9bd0a", "is_disabled": 0, "lat": 38.9347455, "rental_uris": {"ios": "https://dc.lft.to/lastmile_qr_scan", "android": "https://dc.lft.to/lastmile_qr_scan"}, "is_reserved": 0, "lon": -77.072807, "fusion_lat": 0.0, "name": "7aa19fc5d5e25d6fb4e878249cf9bd0a"}, {"type": "electric_scooter", "fusion_lon": 0.0, "bike_id": "7c84fd8c5563fc54857a3751e4f3b290", "is_disabled": 0, "lat": 38.89385883333333, "rental_uris": {"ios": "https://dc.lft.to/lastmile_qr_scan", "android": "https://dc.lft.to/lastmile_qr_scan"}, "is_reserved": 0, "lon": -76.92306016666667, "fusion_lat": 0.0, "name": "7c84fd8c5563fc54857a3751e4f3b290"}, {"type": "electric_scooter", "fusion_lon": 0.0, "bike_id": "6579e339b81c9a23086e1a73dcd7eb27", "is_disabled": 0, "lat": 38.92158933333333, "rental_uris": {"ios": "https://dc.lft.to/lastmile_qr_scan", "android": "https://dc.lft.to/lastmile_qr_scan"}, "is_reserved": 0, "lon": -77.03292316666666, "fusion_lat": 0.0, "name": "6579e339b81c9a23086e1a73dcd7eb27"}, {"type": "electric_scooter", "fusion_lon": 0.0, "bike_id": "7ebac535e457333809b10699378e9dca", "is_disabled": 0, "lat": 38.907792666666666, "rental_uris": {"ios": "https://dc.lft.to/lastmile_qr_scan", "android": "https://dc.lft.to/lastmile_qr_scan"}, "is_reserved": 0, "lon": -77.009567, "fusion_lat": 0.0, "name": "7ebac535e457333809b10699378e9dca"}, {"type": "electric_scooter", "fusion_lon": 0.0, "bike_id": "c82069080c7a1af55c1314a45668c390", "is_disabled": 0, "lat": 38.931182166666666, "rental_uris": {"ios": "https://dc.lft.to/lastmile_qr_scan", "android": "https://dc.lft.to/lastmile_qr_scan"}, "is_reserved": 0, "lon": -77.05608433333333, "fusion_lat": 0.0, "name": "c82069080c7a1af55c1314a45668c390"}, {"type": "electric_scooter", "fusion_lon": 0.0, "bike_id": "4d5ecbd0fbaa55557af260a5a7b008c5", "is_disabled": 0, "lat": 38.924461, "rental_uris": {"ios": "https://dc.lft.to/lastmile_qr_scan", "android": "https://dc.lft.to/lastmile_qr_scan"}, "is_reserved": 0, "lon": -77.02026033333334, "fusion_lat": 0.0, "name": "4d5ecbd0fbaa55557af260a5a7b008c5"}, {"type": "electric_scooter", "fusion_lon": 0.0, "bike_id": "93ff1d259ebeaad0ea412fc5d737f63a", "is_disabled": 0, "lat": 38.90155166666667, "rental_uris": {"ios": "https://dc.lft.to/lastmile_qr_scan", "android": "https://dc.lft.to/lastmile_qr_scan"}, "is_reserved": 0, "lon": -77.03985916666667, "fusion_lat": 0.0, "name": "93ff1d259ebeaad0ea412fc5d737f63a"}, {"type": "electric_scooter", "fusion_lon": 0.0, "bike_id": "c6acfe4c3a1f25bcb77845a772b57326", "is_disabled": 0, "lat": 38.920658833333334, "rental_uris": {"ios": "https://dc.lft.to/lastmile_qr_scan", "android": "https://dc.lft.to/lastmile_qr_scan"}, "is_reserved": 0, "lon": -77.0230245, "fusion_lat": 0.0, "name": "c6acfe4c3a1f25bcb77845a772b57326"}, {"type": "electric_scooter", "fusion_lon": 0.0, "bike_id": "f017dcf7218c5e1712fe7370461d52fa", "is_disabled": 0, "lat": 38.93113733333333, "rental_uris": {"ios": "https://dc.lft.to/lastmile_qr_scan", "android": "https://dc.lft.to/lastmile_qr_scan"}, "is_reserved": 0, "lon": -77.02100016666667, "fusion_lat": 0.0, "name": "f017dcf7218c5e1712fe7370461d52fa"}, {"type": "electric_scooter", "fusion_lon": 0.0, "bike_id": "7ed22f012fec891167bbdcfd059f0f02", "is_disabled": 0, "lat": 38.923646, "rental_uris": {"ios": "https://dc.lft.to/lastmile_qr_scan", "android": "https://dc.lft.to/lastmile_qr_scan"}, "is_reserved": 0, "lon": -77.0518975, "fusion_lat": 0.0, "name": "7ed22f012fec891167bbdcfd059f0f02"}, {"type": "electric_scooter", "fusion_lon": 0.0, "bike_id": "920e26705d1d007bff1eaa7f9f131a0f", "is_disabled": 0, "lat": 38.862657666666664, "rental_uris": {"ios": "https://dc.lft.to/lastmile_qr_scan", "android": "https://dc.lft.to/lastmile_qr_scan"}, "is_reserved": 0, "lon": -76.9957045, "fusion_lat": 0.0, "name": "920e26705d1d007bff1eaa7f9f131a0f"}, {"type": "electric_bike", "fusion_lon": 0.0, "bike_id": "d1d796ffd94f7cfcbb3da17e6aef3b65", "is_disabled": 0, "lat": 38.8956355, "rental_uris": {"ios": "https://dc.lft.to/lastmile_qr_scan", "android": "https://dc.lft.to/lastmile_qr_scan"}, "is_reserved": 0, "lon": -77.12736283333334, "fusion_lat": 0.0, "name": "d1d796ffd94f7cfcbb3da17e6aef3b65"}, {"type": "electric_scooter", "fusion_lon": 0.0, "bike_id": "7ea35f4ab001f50c8e9222dba5b78d54", "is_disabled": 0, "lat": 38.92705816666667, "rental_uris": {"ios": "https://dc.lft.to/lastmile_qr_scan", "android": "https://dc.lft.to/lastmile_qr_scan"}, "is_reserved": 0, "lon": -77.020901, "fusion_lat": 0.0, "name": "7ea35f4ab001f50c8e9222dba5b78d54"}, {"type": "electric_scooter", "fusion_lon": 0.0, "bike_id": "ab98509b006bf42a4415dc7914f41a1c", "is_disabled": 0, "lat": 38.94455516666667, "rental_uris": {"ios": "https://dc.lft.to/lastmile_qr_scan", "android": "https://dc.lft.to/lastmile_qr_scan"}, "is_reserved": 0, "lon": -77.0280205, "fusion_lat": 0.0, "name": "ab98509b006bf42a4415dc7914f41a1c"}, {"type": "electric_scooter", "fusion_lon": 0.0, "bike_id": "b1ba3218af0e6fe03955006585acbec6", "is_disabled": 0, "lat": 38.92469283333333, "rental_uris": {"ios": "https://dc.lft.to/lastmile_qr_scan", "android": "https://dc.lft.to/lastmile_qr_scan"}, "is_reserved": 0, "lon": -77.03067783333333, "fusion_lat": 0.0, "name": "b1ba3218af0e6fe03955006585acbec6"}, {"type": "electric_scooter", "fusion_lon": 0.0, "bike_id": "82ed0fd4a0c6973b96f25907b5fa0a6c", "is_disabled": 0, "lat": 38.89909633333333, "rental_uris": {"ios": "https://dc.lft.to/lastmile_qr_scan", "android": "https://dc.lft.to/lastmile_qr_scan"}, "is_reserved": 0, "lon": -76.933794, "fusion_lat": 0.0, "name": "82ed0fd4a0c6973b96f25907b5fa0a6c"}, {"type": "electric_scooter", "fusion_lon": 0.0, "bike_id": "e4e8ba047b762d2f3e72eaaadf6b0064", "is_disabled": 0, "lat": 38.90376933333334, "rental_uris": {"ios": "https://dc.lft.to/lastmile_qr_scan", "android": "https://dc.lft.to/lastmile_qr_scan"}, "is_reserved": 0, "lon": -77.06683916666667, "fusion_lat": 0.0, "name": "e4e8ba047b762d2f3e72eaaadf6b0064"}, {"type": "electric_scooter", "fusion_lon": 0.0, "bike_id": "58777090632a7afbaebd069885e4d102", "is_disabled": 0, "lat": 38.88738983333333, "rental_uris": {"ios": "https://dc.lft.to/lastmile_qr_scan", "android": "https://dc.lft.to/lastmile_qr_scan"}, "is_reserved": 0, "lon": -77.0153205, "fusion_lat": 0.0, "name": "58777090632a7afbaebd069885e4d102"}, {"type": "electric_scooter", "fusion_lon": 0.0, "bike_id": "7132cff201ead003c0b3baed29adc579", "is_disabled": 0, "lat": 38.8951235, "rental_uris": {"ios": "https://dc.lft.to/lastmile_qr_scan", "android": "https://dc.lft.to/lastmile_qr_scan"}, "is_reserved": 0, "lon": -77.02794833333333, "fusion_lat": 0.0, "name": "7132cff201ead003c0b3baed29adc579"}, {"type": "electric_scooter", "fusion_lon": 0.0, "bike_id": "1f174584120193ab2bcfe16853cb37fd", "is_disabled": 0, "lat": 38.9201105, "rental_uris": {"ios": "https://dc.lft.to/lastmile_qr_scan", "android": "https://dc.lft.to/lastmile_qr_scan"}, "is_reserved": 0, "lon": -77.04413716666667, "fusion_lat": 0.0, "name": "1f174584120193ab2bcfe16853cb37fd"}, {"type": "electric_scooter", "fusion_lon": 0.0, "bike_id": "b341cc2e9d55a02a2d6ee3c12c89e769", "is_disabled": 0, "lat": 38.91418983333333, "rental_uris": {"ios": "https://dc.lft.to/lastmile_qr_scan", "android": "https://dc.lft.to/lastmile_qr_scan"}, "is_reserved": 0, "lon": -77.04148966666666, "fusion_lat": 0.0, "name": "b341cc2e9d55a02a2d6ee3c12c89e769"}, {"type": "electric_scooter", "fusion_lon": 0.0, "bike_id": "7853bcdbec27845bde4cf7cdfb80786e", "is_disabled": 0, "lat": 38.90013416666667, "rental_uris": {"ios": "https://dc.lft.to/lastmile_qr_scan", "android": "https://dc.lft.to/lastmile_qr_scan"}, "is_reserved": 0, "lon": -76.988959, "fusion_lat": 0.0, "name": "7853bcdbec27845bde4cf7cdfb80786e"}, {"type": "electric_scooter", "fusion_lon": 0.0, "bike_id": "fa9eef349250f732e9e6cbb746000cac", "is_disabled": 0, "lat": 38.91971616666667, "rental_uris": {"ios": "https://dc.lft.to/lastmile_qr_scan", "android": "https://dc.lft.to/lastmile_qr_scan"}, "is_reserved": 0, "lon": -77.02195366666666, "fusion_lat": 0.0, "name": "fa9eef349250f732e9e6cbb746000cac"}, {"type": "electric_bike", "fusion_lon": 0.0, "bike_id": "65e8b0fe031c190c2cb6f34e33ccfc54", "is_disabled": 0, "lat": 38.848996, "rental_uris": {"ios": "https://dc.lft.to/lastmile_qr_scan", "android": "https://dc.lft.to/lastmile_qr_scan"}, "is_reserved": 0, "lon": -77.07949683333334, "fusion_lat": 0.0, "name": "65e8b0fe031c190c2cb6f34e33ccfc54"}, {"type": "electric_scooter", "fusion_lon": 0.0, "bike_id": "d6f1b4dda8f6e73a46cb25e8de8887fc", "is_disabled": 0, "lat": 38.923009, "rental_uris": {"ios": "https://dc.lft.to/lastmile_qr_scan", "android": "https://dc.lft.to/lastmile_qr_scan"}, "is_reserved": 0, "lon": -77.04210266666666, "fusion_lat": 0.0, "name": "d6f1b4dda8f6e73a46cb25e8de8887fc"}, {"type": "electric_scooter", "fusion_lon": 0.0, "bike_id": "fd43ddf25fec66c8f62eb1996aa587c5", "is_disabled": 0, "lat": 38.927451, "rental_uris": {"ios": "https://dc.lft.to/lastmile_qr_scan", "android": "https://dc.lft.to/lastmile_qr_scan"}, "is_reserved": 0, "lon": -76.95560283333333, "fusion_lat": 0.0, "name": "fd43ddf25fec66c8f62eb1996aa587c5"}, {"type": "electric_scooter", "fusion_lon": 0.0, "bike_id": "944a794402e9b38b2ae97675ca74f6ce", "is_disabled": 0, "lat": 38.919367666666666, "rental_uris": {"ios": "https://dc.lft.to/lastmile_qr_scan", "android": "https://dc.lft.to/lastmile_qr_scan"}, "is_reserved": 0, "lon": -77.03210033333333, "fusion_lat": 0.0, "name": "944a794402e9b38b2ae97675ca74f6ce"}, {"type": "electric_scooter", "fusion_lon": 0.0, "bike_id": "91426e3b17ba183d3b8c1b7e1140ca53", "is_disabled": 0, "lat": 38.90274433333333, "rental_uris": {"ios": "https://dc.lft.to/lastmile_qr_scan", "android": "https://dc.lft.to/lastmile_qr_scan"}, "is_reserved": 0, "lon": -77.03824766666666, "fusion_lat": 0.0, "name": "91426e3b17ba183d3b8c1b7e1140ca53"}, {"type": "electric_scooter", "fusion_lon": 0.0, "bike_id": "26d657135a5500c1e93d4245d054e5b7", "is_disabled": 0, "lat": 38.91541016666667, "rental_uris": {"ios": "https://dc.lft.to/lastmile_qr_scan", "android": "https://dc.lft.to/lastmile_qr_scan"}, "is_reserved": 0, "lon": -77.0444725, "fusion_lat": 0.0, "name": "26d657135a5500c1e93d4245d054e5b7"}, {"type": "electric_scooter", "fusion_lon": 0.0, "bike_id": "52b16385ebb420c2997c6b0787e8d942", "is_disabled": 0, "lat": 38.86286533333333, "rental_uris": {"ios": "https://dc.lft.to/lastmile_qr_scan", "android": "https://dc.lft.to/lastmile_qr_scan"}, "is_reserved": 0, "lon": -76.99231133333333, "fusion_lat": 0.0, "name": "52b16385ebb420c2997c6b0787e8d942"}, {"type": "electric_scooter", "fusion_lon": 0.0, "bike_id": "b4929b5fae80464a446f77195bf998ad", "is_disabled": 0, "lat": 38.86697766666666, "rental_uris": {"ios": "https://dc.lft.to/lastmile_qr_scan", "android": "https://dc.lft.to/lastmile_qr_scan"}, "is_reserved": 0, "lon": -76.98093833333333, "fusion_lat": 0.0, "name": "b4929b5fae80464a446f77195bf998ad"}, {"type": "electric_scooter", "fusion_lon": 0.0, "bike_id": "d28c4110ff728a629a96c2d7c6af0cd1", "is_disabled": 0, "lat": 38.9488725, "rental_uris": {"ios": "https://dc.lft.to/lastmile_qr_scan", "android": "https://dc.lft.to/lastmile_qr_scan"}, "is_reserved": 0, "lon": -77.018572, "fusion_lat": 0.0, "name": "d28c4110ff728a629a96c2d7c6af0cd1"}, {"type": "electric_scooter", "fusion_lon": 0.0, "bike_id": "a28d10b89bda9b361b7dd8c91e9d8870", "is_disabled": 0, "lat": 38.93465466666667, "rental_uris": {"ios": "https://dc.lft.to/lastmile_qr_scan", "android": "https://dc.lft.to/lastmile_qr_scan"}, "is_reserved": 0, "lon": -77.04130516666666, "fusion_lat": 0.0, "name": "a28d10b89bda9b361b7dd8c91e9d8870"}, {"type": "electric_scooter", "fusion_lon": 0.0, "bike_id": "5f5004ac953b148d7c883f29f4e07de7", "is_disabled": 0, "lat": 38.90956833333333, "rental_uris": {"ios": "https://dc.lft.to/lastmile_qr_scan", "android": "https://dc.lft.to/lastmile_qr_scan"}, "is_reserved": 0, "lon": -77.04790216666666, "fusion_lat": 0.0, "name": "5f5004ac953b148d7c883f29f4e07de7"}, {"type": "electric_scooter", "fusion_lon": 0.0, "bike_id": "06cd00547515fec080463660e07a7cae", "is_disabled": 0, "lat": 38.90090566666667, "rental_uris": {"ios": "https://dc.lft.to/lastmile_qr_scan", "android": "https://dc.lft.to/lastmile_qr_scan"}, "is_reserved": 0, "lon": -77.04997533333334, "fusion_lat": 0.0, "name": "06cd00547515fec080463660e07a7cae"}, {"type": "electric_scooter", "fusion_lon": 0.0, "bike_id": "49698e4fca64b9b1c4b7e7ed6c430ab5", "is_disabled": 0, "lat": 38.89764483333333, "rental_uris": {"ios": "https://dc.lft.to/lastmile_qr_scan", "android": "https://dc.lft.to/lastmile_qr_scan"}, "is_reserved": 0, "lon": -77.02733116666667, "fusion_lat": 0.0, "name": "49698e4fca64b9b1c4b7e7ed6c430ab5"}, {"type": "electric_scooter", "fusion_lon": 0.0, "bike_id": "fc1d299b2ea266819bccf9284087bdaa", "is_disabled": 0, "lat": 38.91117766666667, "rental_uris": {"ios": "https://dc.lft.to/lastmile_qr_scan", "android": "https://dc.lft.to/lastmile_qr_scan"}, "is_reserved": 0, "lon": -77.00755433333333, "fusion_lat": 0.0, "name": "fc1d299b2ea266819bccf9284087bdaa"}, {"type": "electric_scooter", "fusion_lon": 0.0, "bike_id": "3508e138b153778d4c09790a5aea6092", "is_disabled": 0, "lat": 38.90671866666667, "rental_uris": {"ios": "https://dc.lft.to/lastmile_qr_scan", "android": "https://dc.lft.to/lastmile_qr_scan"}, "is_reserved": 0, "lon": -77.005725, "fusion_lat": 0.0, "name": "3508e138b153778d4c09790a5aea6092"}, {"type": "electric_scooter", "fusion_lon": 0.0, "bike_id": "8a459e1fb942c3a6bd3b32bb38e08aa7", "is_disabled": 0, "lat": 38.880160000000004, "rental_uris": {"ios": "https://dc.lft.to/lastmile_qr_scan", "android": "https://dc.lft.to/lastmile_qr_scan"}, "is_reserved": 0, "lon": -76.9806805, "fusion_lat": 0.0, "name": "8a459e1fb942c3a6bd3b32bb38e08aa7"},