{"data": {"bikes": [{"fusion_lon": 0.0, "bike_id": "ac40c3e31c8e4324e58fac1ee804a224", "is_disabled": 0, "is_reserved": 0, "lat": 38.902422333333334, "name": "ac40c3e31c8e4324e58fac1ee804a224", "rental_uris": {"ios": "https://dc.lft.to/lastmile_qr_scan", "android": "https://dc.lft.to/lastmile_qr_scan"}, "type": "electric_scooter", "fusion_lat": 0.0, "lon": -77.014518}, {"fusion_lon": 0.0, "bike_id": "f4929e6b27dbe28b0dc7f04c260f36ea", "is_disabled": 0, "is_reserved": 0, "lat": 38.930629833333334, "name": "f4929e6b27dbe28b0dc7f04c260f36ea", "rental_uris": {"ios": "https://dc.lft.to/lastmile_qr_scan", "android": "https://dc.lft.to/lastmile_qr_scan"}, "type": "electric_scooter", "fusion_lat": 0.0, "lon": -77.02328066666666}, {"fusion_lon": 0.0, "bike_id": "80f440f226013043c6c52e57bfa1aa56", "is_disabled": 0, "is_reserved": 0, "lat": 38.87378566666667, "name": "80f440f226013043c6c52e57bfa1aa56", "rental_uris": {"ios": "https://dc.lft.to/lastmile_qr_scan", "android": "https://dc.lft.to/lastmile_qr_scan"}, "type": "electric_scooter", "fusion_lat": 0.0, "lon": -77.00134683333333}, {"fusion_lon": 0.0, "bike_id": "3ad4ff271d206fc7a7c3b7b7e579f23a", "is_disabled": 0, "is_reserved": 0, "lat": 38.9001545, "name": "3ad4ff271d206fc7a7c3b7b7e579f23a", "rental_uris": {"ios": "https://dc.lft.to/lastmile_qr_scan", "android": "https://dc.lft.to/lastmile_qr_scan"}, "type": "electric_scooter", "fusion_lat": 0.0, "lon": -77.002042}, {"fusion_lon": 0.0, "bike_id": "6d0f1616673e9d51140630faefdde740", "is_disabled": 0, "is_reserved": 0, "lat": 38.906025666666665, "name": "6d0f1616673e9d51140630faefdde740", "rental_uris": {"ios": "https://dc.lft.to/lastmile_qr_scan", "android": "https://dc.lft.to/lastmile_qr_scan"}, "type": "electric_bike", "fusion_lat": 0.0, "lon": -77.128904}, {"fusion_lon": 0.0, "bike_id": "94e4c6b39b4509da0f363619d424a550", "is_disabled": 0, "is_reserved": 0, "lat": 38.936312, "name": "94e4c6b39b4509da0f363619d424a550", "rental_uris": {"ios": "https://dc.lft.to/lastmile_qr_scan", "android": "https://dc.lft.to/lastmile_qr_scan"}, "type": "electric_scooter", "fusion_lat": 0.0, "lon": -77.03660366666666}, {"fusion_lon": 0.0, "bike_id": "eb0000d7ccf7589c46a3d60ebea89790", "is_disabled": 0, "is_reserved": 0, "lat": 38.906914, "name": "eb0000d7ccf7589c46a3d60ebea89790", "rental_uris": {"ios": "https://dc.lft.to/lastmile_qr_scan", "android": "https://dc.lft.to/lastmile_qr_scan"}, "type": "electric_scooter", "fusion_lat": 0.0, "lon": -77.02716666666667}, {"fusion_lon": 0.0, "bike_id": "ca8ca34ef6e65dd815b03dd6e929f214", "is_disabled": 0, "is_reserved": 0, "lat": 38.91987366666667, "name": "ca8ca34ef6e65dd815b03dd6e929f214", "rental_uris": {"ios": "https://dc.lft.to/lastmile_qr_scan", "android": "https://dc.lft.to/lastmile_qr_scan"}, "type": "electric_scooter", "fusion_lat": 0.0, "lon": -77.02392783333333}, {"fusion_lon": 0.0, "bike_id": "55ce05f6c680a1ba7d7885a5d8a2777f", "is_disabled": 0, "is_reserved": 0, "lat": 38.86004233333333, "name": "55ce05f6c680a1ba7d7885a5d8a2777f", "rental_uris": {"ios": "https://dc.lft.to/lastmile_qr_scan", "android": "https://dc.lft.to/lastmile_qr_scan"}, "type": "electric_scooter", "fusion_lat": 0.0, "lon": -76.98517266666667}, {"fusion_lon": 0.0, "bike_id": "12d26881969eba7904478353535b2049", "is_disabled": 0, "is_reserved": 0, "lat": 38.9183125, "name": "12d26881969eba7904478353535b2049", "rental_uris": {"ios": "https://dc.lft.to/lastmile_qr_scan", "android": "https://dc.lft.to/lastmile_qr_scan"}, "type": "electric_scooter", "fusion_lat": 0.0, "lon": -77.031725}, {"fusion_lon": 0.0, "bike_id": "7a6bc344822057666b32535c08b82621", "is_disabled": 0, "is_reserved": 0, "lat": 38.927151, "name": "7a6bc344822057666b32535c08b82621", "rental_uris": {"ios": "https://dc.lft.to/lastmile_qr_scan", "android": "https://dc.lft.to/lastmile_qr_scan"}, "type": "electric_scooter", "fusion_lat": 0.0, "lon": -77.02296983333333}, {"fusion_lon": 0.0, "bike_id": "28b0ae40bdc98bc3baf1b45747f25da0", "is_disabled": 0, "is_reserved": 0, "lat": 38.9234335, "name": "28b0ae40bdc98bc3baf1b45747f25da0", "rental_uris": {"ios": "https://dc.lft.to/lastmile_qr_scan", "android": "https://dc.lft.to/lastmile_qr_scan"}, "type": "electric_scooter", "fusion_lat": 0.0, "lon": -77.0244535}, {"fusion_lon": 0.0, "bike_id": "f9dd2be3ed6d2621f4a9dd24cc8f1c3f", "is_disabled": 0, "is_reserved": 0, "lat": 38.909598833333334, "name": "f9dd2be3ed6d2621f4a9dd24cc8f1c3f", "rental_uris": {"ios": "https://dc.lft.to/lastmile_qr_scan", "android": "https://dc.lft.to/lastmile_qr_scan"}, "type": "electric_scooter", "fusion_lat": 0.0, "lon": -77.01185183333334}, {"fusion_lon": 0.0, "bike_id": "bb098cb1fd7e65bd9dd329908e82b0e4", "is_disabled": 0, "is_reserved": 0, "lat": 38.926226166666666, "name": "bb098cb1fd7e65bd9dd329908e82b0e4", "rental_uris": {"ios": "https://dc.lft.to/lastmile_qr_scan", "android": "https://dc.lft.to/lastmile_qr_scan"}, "type": "electric_scooter", "fusion_lat": 0.0, "lon": -77.0771815}, {"fusion_lon": 0.0, "bike_id": "69f1bfd82da96b44b0b66ffa58282198", "is_disabled": 0, "is_reserved": 0, "lat": 38.9013575, "name": "69f1bfd82da96b44b0b66ffa58282198", "rental_uris": {"ios": "https://dc.lft.to/lastmile_qr_scan", "android": "https://dc.lft.to/lastmile_qr_scan"}, "type": "electric_scooter", "fusion_lat": 0.0, "lon": -77.051153}, {"fusion_lon": 0.0, "bike_id": "f2363555c12f4d251a56e69a7e8cacae", "is_disabled": 0, "is_reserved": 0, "lat": 38.92827966666667, "name": "f2363555c12f4d251a56e69a7e8cacae", "rental_uris": {"ios": "https://dc.lft.to/lastmile_qr_scan", "android": "https://dc.lft.to/lastmile_qr_scan"}, "type": "electric_scooter", "fusion_lat": 0.0, "lon": -77.02262466666667}, {"fusion_lon": 0.0, "bike_id": "af29e0b56442bd7299e244ac6f95e8c8", "is_disabled": 0, "is_reserved": 0, "lat": 38.919212, "name": "af29e0b56442bd7299e244ac6f95e8c8", "rental_uris": {"ios": "https://dc.lft.to/lastmile_qr_scan", "android": "https://dc.lft.to/lastmile_qr_scan"}, "type": "electric_scooter", "fusion_lat": 0.0, "lon": -77.0179025}, {"fusion_lon": 0.0, "bike_id": "f8085cccd33de62faa7a9b5198103232", "is_disabled": 0, "is_reserved": 0, "lat": 38.919096333333336, "name": "f8085cccd33de62faa7a9b5198103232", "rental_uris": {"ios": "https://dc.lft.to/lastmile_qr_scan", "android": "https://dc.lft.to/lastmile_qr_scan"}, "type": "electric_scooter", "fusion_lat": 0.0, "lon": -77.0446515}, {"fusion_lon": 0.0, "bike_id": "88d84073a9ad712911cfe0b9c9d53f24", "is_disabled": 0, "is_reserved": 0, "lat": 38.9007315, "name": "88d84073a9ad712911cfe0b9c9d53f24", "rental_uris": {"ios": "https://dc.lft.to/lastmile_qr_scan", "android": "https://dc.lft.to/lastmile_qr_scan"}, "type": "electric_scooter", "fusion_lat": 0.0, "lon": -77.02705466666667}, {"fusion_lon": 0.0, "bike_id": "a43c9ae8df8bbb49b4c6657ed35d907f", "is_disabled": 0, "is_reserved": 0, "lat": 38.9181285, "name": "a43c9ae8df8bbb49b4c6657ed35d907f", "rental_uris": {"ios": "https://dc.lft.to/lastmile_qr_scan", "android": "https://dc.lft.to/lastmile_qr_scan"}, "type": "electric_scooter", "fusion_lat": 0.0, "lon": -77.011607}, {"fusion_lon": 0.0, "bike_id": "965cd182b48f7597751619781acfd9b6", "is_disabled": 0, "is_reserved": 0, "lat": 38.901771, "name": "965cd182b48f7597751619781acfd9b6", "rental_uris": {"ios": "https://dc.lft.to/lastmile_qr_scan", "android": "https://dc.lft.to/lastmile_qr_scan"}, "type": "electric_scooter", "fusion_lat": 0.0, "lon": -76.92945066666667}, {"fusion_lon": 0.0, "bike_id": "ad9961c9e51dcc2a5789450da25ffb40", "is_disabled": 0, "is_reserved": 0, "lat": 38.921189, "name": "ad9961c9e51dcc2a5789450da25ffb40", "rental_uris": {"ios": "https://dc.lft.to/lastmile_qr_scan", "android": "https://dc.lft.to/lastmile_qr_scan"}, "type": "electric_scooter", "fusion_lat": 0.0, "lon": -77.01213533333333}, {"fusion_lon": 0.0, "bike_id": "3ccc0ce7ee79abd873aa58fee9cbd963", "is_disabled": 0, "is_reserved": 0, "lat": 38.8855645, "name": "3ccc0ce7ee79abd873aa58fee9cbd963", "rental_uris": {"ios": "https://dc.lft.to/lastmile_qr_scan", "android": "https://dc.lft.to/lastmile_qr_scan"}, "type": "electric_scooter", "fusion_lat": 0.0, "lon": -77.01993933333334}, {"fusion_lon": 0.0, "bike_id": "1995486ae1618cac845d11e708e2dee6", "is_disabled": 0, "is_reserved": 0, "lat": 38.919457, "name": "1995486ae1618cac845d11e708e2dee6", "rental_uris": {"ios": "https://dc.lft.to/lastmile_qr_scan", "android": "https://dc.lft.to/lastmile_qr_scan"}, "type": "electric_scooter", "fusion_lat": 0.0, "lon": -77.01346166666667}, {"fusion_lon": 0.0, "bike_id": "19e383ae5c5fab6a22e1ac44c82349c4", "is_disabled": 0, "is_reserved": 0, "lat": 38.87732883333334, "name": "19e383ae5c5fab6a22e1ac44c82349c4", "rental_uris": {"ios": "https://dc.lft.to/lastmile_qr_scan", "android": "https://dc.lft.to/lastmile_qr_scan"}, "type": "electric_scooter", "fusion_lat": 0.0, "lon": -77.0105965}, {"fusion_lon": 0.0, "bike_id": "416aac6ac0be1f9bee6340a1fa239149", "is_disabled": 0, "is_reserved": 0, "lat": 38.9205035, "name": "416aac6ac0be1f9bee6340a1fa239149", "rental_uris": {"ios": "https://dc.lft.to/lastmile_qr_scan", "android": "https://dc.lft.to/lastmile_qr_scan"}, "type": "electric_scooter", "fusion_lat": 0.0, "lon": -77.03414816666667}, {"fusion_lon": 0.0, "bike_id": "00449cef228425b338c37587165d9b26", "is_disabled": 0, "is_reserved": 0, "lat": 38.927533833333335, "name": "00449cef228425b338c37587165d9b26", "rental_uris": {"ios": "https://dc.lft.to/lastmile_qr_scan", "android": "https://dc.lft.to/lastmile_qr_scan"}, "type": "electric_scooter", "fusion_lat": 0.0, "lon": -77.033037}, {"fusion_lon": 0.0, "bike_id": "b4c8173ecb1bee7d7b6ff660e15a35d4", "is_disabled": 0, "is_reserved": 0, "lat": 38.89759083333333, "name": "b4c8173ecb1bee7d7b6ff660e15a35d4", "rental_uris": {"ios": "https://dc.lft.to/lastmile_qr_scan", "android": "https://dc.lft.to/lastmile_qr_scan"}, "type": "electric_scooter", "fusion_lat": 0.0, "lon": -77.01059583333333}, {"fusion_lon": 0.0, "bike_id": "43b000d3c88063c76a2587cd873d8d55", "is_disabled": 0, "is_reserved": 0, "lat": 38.91916533333333, "name": "43b000d3c88063c76a2587cd873d8d55", "rental_uris": {"ios": "https://dc.lft.to/lastmile_qr_scan", "android": "https://dc.lft.to/lastmile_qr_scan"}, "type": "electric_scooter", "fusion_lat": 0.0, "lon": -77.031925}, {"fusion_lon": 0.0, "bike_id": "1553fd03f3b36a02735574353845821f", "is_disabled": 0, "is_reserved": 0, "lat": 38.885098166666666, "name": "1553fd03f3b36a02735574353845821f", "rental_uris": {"ios": "https://dc.lft.to/lastmile_qr_scan", "android": "https://dc.lft.to/lastmile_qr_scan"}, "type": "electric_scooter", "fusion_lat": 0.0, "lon": -77.00220483333334}, {"fusion_lon": 0.0, "bike_id": "93cbd04a9adb6395fda77b3c21020b5f", "is_disabled": 0, "is_reserved": 0, "lat": 38.90209866666667, "name": "93cbd04a9adb6395fda77b3c21020b5f", "rental_uris": {"ios": "https://dc.lft.to/lastmile_qr_scan", "android": "https://dc.lft.to/lastmile_qr_scan"}, "type": "electric_scooter", "fusion_lat": 0.0, "lon": -77.05029383333333}, {"fusion_lon": 0.0, "bike_id": "41030de78a48df038822b89a8aa8f112", "is_disabled": 0, "is_reserved": 0, "lat": 38.896297833333335, "name": "41030de78a48df038822b89a8aa8f112", "rental_uris": {"ios": "https://dc.lft.to/lastmile_qr_scan", "android": "https://dc.lft.to/lastmile_qr_scan"}, "type": "electric_scooter", "fusion_lat": 0.0, "lon": -77.045083}, {"fusion_lon": 0.0, "bike_id": "b7024b04f01585f4b4bbdccb91144549", "is_disabled": 0, "is_reserved": 0, "lat": 38.9035995, "name": "b7024b04f01585f4b4bbdccb91144549", "rental_uris": {"ios": "https://dc.lft.to/lastmile_qr_scan", "android": "https://dc.lft.to/lastmile_qr_scan"}, "type": "electric_scooter", "fusion_lat": 0.0, "lon": -77.021812}, {"fusion_lon": 0.0, "bike_id": "e7adf6a60ce60271b6039ccf8f27618e", "is_disabled": 0, "is_reserved": 0, "lat": 38.90558433333333, "name": "e7adf6a60ce60271b6039ccf8f27618e", "rental_uris": {"ios": "https://dc.lft.to/lastmile_qr_scan", "android": "https://dc.lft.to/lastmile_qr_scan"}, "type": "electric_scooter", "fusion_lat": 0.0, "lon": -77.00597816666667}, {"fusion_lon": 0.0, "bike_id": "a50fdad29643546e5e2d7fec5891b260", "is_disabled": 0, "is_reserved": 0, "lat": 38.91938433333333, "name": "a50fdad29643546e5e2d7fec5891b260", "rental_uris": {"ios": "https://dc.lft.to/lastmile_qr_scan", "android": "https://dc.lft.to/lastmile_qr_scan"}, "type": "electric_scooter", "fusion_lat": 0.0, "lon": -77.01796216666666}, {"fusion_lon": 0.0, "bike_id": "e533ba27aee9527e6d4f498390ba1460", "is_disabled": 0, "is_reserved": 0, "lat": 38.91811283333333, "name": "e533ba27aee9527e6d4f498390ba1460", "rental_uris": {"ios": "https://dc.lft.to/lastmile_qr_scan", "android": "https://dc.lft.to/lastmile_qr_scan"}, "type": "electric_scooter", "fusion_lat": 0.0, "lon": -77.02473316666666}, {"fusion_lon": 0.0, "bike_id": "68bab9672c55de44b4a66e23e76943db", "is_disabled": 0, "is_reserved": 0, "lat": 38.90087483333333, "name": "68bab9672c55de44b4a66e23e76943db", "rental_uris": {"ios": "https://dc.lft.to/lastmile_qr_scan", "android": "https://dc.lft.to/lastmile_qr_scan"}, "type": "electric_scooter", "fusion_lat": 0.0, "lon": -76.983321}, {"fusion_lon": 0.0, "bike_id": "581e46c8e10e9f2f1f6df35b0884e787", "is_disabled": 0, "is_reserved": 0, "lat": 38.944578666666665, "name": "581e46c8e10e9f2f1f6df35b0884e787", "rental_uris": {"ios": "https://dc.lft.to/lastmile_qr_scan", "android": "https://dc.lft.to/lastmile_qr_scan"}, "type": "electric_scooter", "fusion_lat": 0.0, "lon": -77.0065685}, {"fusion_lon": 0.0, "bike_id": "90e07621fb5c4d85d3fdb22d67dc68eb", "is_disabled": 0, "is_reserved": 0, "lat": 38.90894883333333, "name": "90e07621fb5c4d85d3fdb22d67dc68eb", "rental_uris": {"ios": "https://dc.lft.to/lastmile_qr_scan", "android": "https://dc.lft.to/lastmile_qr_scan"}, "type": "electric_scooter", "fusion_lat": 0.0, "lon": -77.031475}, {"fusion_lon": 0.0, "bike_id": "1101d0fc832892f168a2b06d9ddf12fe", "is_disabled": 0, "is_reserved": 0, "lat": 38.91538366666666, "name": "1101d0fc832892f168a2b06d9ddf12fe", "rental_uris": {"ios": "https://dc.lft.to/lastmile_qr_scan", "android": "https://dc.lft.to/lastmile_qr_scan"}, "type": "electric_scooter", "fusion_lat": 0.0, "lon": -77.0442205}, {"fusion_lon": 0.0, "bike_id": "df8cccfdcbf021970aaaf73927e00dc4", "is_disabled": 0, "is_reserved": 0, "lat": 38.93062416666667, "name": "df8cccfdcbf021970aaaf73927e00dc4", "rental_uris": {"ios": "https://dc.lft.to/lastmile_qr_scan", "android": "https://dc.lft.to/lastmile_qr_scan"}, "type": "electric_scooter", "fusion_lat": 0.0, "lon": -77.02322983333333}, {"fusion_lon": 0.0, "bike_id": "8744e604245502421134ba58771bd0e2", "is_disabled": 0, "is_reserved": 0, "lat": 38.9324805, "name": "8744e604245502421134ba58771bd0e2", "rental_uris": {"ios": "https://dc.lft.to/lastmile_qr_scan", "android": "https://dc.lft.to/lastmile_qr_scan"}, "type": "electric_scooter", "fusion_lat": 0.0, "lon": -77.03276666666666}, {"fusion_lon": 0.0, "bike_id": "94acbbe5339a691e1094e480da478602", "is_disabled": 0, "is_reserved": 0, "lat": 38.900546, "name": "94acbbe5339a691e1094e480da478602", "rental_uris": {"ios": "https://dc.lft.to/lastmile_qr_scan", "android": "https://dc.lft.to/lastmile_qr_scan"}, "type": "electric_scooter", "fusion_lat": 0.0, "lon": -77.04544133333333}, {"fusion_lon": 0.0, "bike_id": "dcd92b9cf83687964c5e8f2c79021d5d", "is_disabled": 0, "is_reserved": 0, "lat": 38.9125895, "name": "dcd92b9cf83687964c5e8f2c79021d5d", "rental_uris": {"ios": "https://dc.lft.to/lastmile_qr_scan", "android": "https://dc.lft.to/lastmile_qr_scan"}, "type": "electric_scooter", "fusion_lat": 0.0, "lon": -77.04437916666667}, {"fusion_lon": 0.0, "bike_id": "577dc796673b35d307650fffce50084b", "is_disabled": 0, "is_reserved": 0, "lat": 38.907781, "name": "577dc796673b35d307650fffce50084b", "rental_uris": {"ios": "https://dc.lft.to/lastmile_qr_scan", "android": "https://dc.lft.to/lastmile_qr_scan"}, "type": "electric_bike", "fusion_lat": 0.0, "lon": -77.08166516666667}, {"fusion_lon": 0.0, "bike_id": "e0ed36f9593a6da206a3f8e01a159a7e", "is_disabled": 0, "is_reserved": 0, "lat": 38.90850016666667, "name": "e0ed36f9593a6da206a3f8e01a159a7e", "rental_uris": {"ios": "https://dc.lft.to/lastmile_qr_scan", "android": "https://dc.lft.to/lastmile_qr_scan"}, "type": "electric_scooter", "fusion_lat": 0.0, "lon": -77.06372133333333}, {"fusion_lon": 0.0, "bike_id": "84e2719dece0f8db74f533da5ca4186f", "is_disabled": 0, "is_reserved": 0, "lat": 38.93935066666667, "name": "84e2719dece0f8db74f533da5ca4186f", "rental_uris": {"ios": "https://dc.lft.to/lastmile_qr_scan", "android": "https://dc.lft.to/lastmile_qr_scan"}, "type": "electric_scooter", "fusion_lat": 0.0, "lon": -77.06056983333333}, {"fusion_lon": 0.0, "bike_id": "e85afd0ce496046c6be3acbcf2e03e29", "is_disabled": 0, "is_reserved": 0, "lat": 38.87634466666667, "name": "e85afd0ce496046c6be3acbcf2e03e29", "rental_uris": {"ios": "https://dc.lft.to/lastmile_qr_scan", "android": "https://dc.lft.to/lastmile_qr_scan"}, "type": "electric_scooter", "fusion_lat": 0.0, "lon": -77.0083075}, {"fusion_lon": 0.0, "bike_id": "8291a04d88b277d055a1c712d3eb4c7b", "is_disabled": 0, "is_reserved": 0, "lat": 38.903755333333336, "name": "8291a04d88b277d055a1c712d3eb4c7b", "rental_uris": {"ios": "https://dc.lft.to/lastmile_qr_scan", "android": "https://dc.lft.to/lastmile_qr_scan"}, "type": "electric_bike", "fusion_lat": 0.0, "lon": -76.93756183333333}, {"fusion_lon": 0.0, "bike_id": "a31cb6b019ddefab3482088aa4706c21", "is_disabled": 0, "is_reserved": 0, "lat": 38.932563333333334, "name": "a31cb6b019ddefab3482088aa4706c21", "rental_uris": {"ios": "https://dc.lft.to/lastmile_qr_scan", "android": "https://dc.lft.to/lastmile_qr_scan"}, "type": "electric_scooter", "fusion_lat": 0.0, "lon": -77.03267033333333}, {"fusion_lon": 0.0, "bike_id": "85812ef6054861f70cbd6438280d035e", "is_disabled": 0, "is_reserved": 0, "lat": 38.90641216666667, "name": "85812ef6054861f70cbd6438280d035e", "rental_uris": {"ios": "https://dc.lft.to/lastmile_qr_scan", "android": "https://dc.lft.to/lastmile_qr_scan"}, "type": "electric_scooter", "fusion_lat": 0.0, "lon": -77.03432633333334}, {"fusion_lon": 0.0, "bike_id": "8cc29f9c7ad2aa15a12efc64a713c165", "is_disabled": 0, "is_reserved": 0, "lat": 38.906763166666664, "name": "8cc29f9c7ad2aa15a12efc64a713c165", "rental_uris": {"ios": "https://dc.lft.to/lastmile_qr_scan", "android": "https://dc.lft.to/lastmile_qr_scan"}, "type": "electric_scooter", "fusion_lat": 0.0, "lon": -77.0718215}, {"fusion_lon": 0.0, "bike_id": "01be56c31a5c56ec494ff74633991c92", "is_disabled": 0, "is_reserved": 0, "lat": 38.83867033333333, "name": "01be56c31a5c56ec494ff74633991c92", "rental_uris": {"ios": "https://dc.lft.to/lastmile_qr_scan", "android": "https://dc.lft.to/lastmile_qr_scan"}, "type": "electric_bike", "fusion_lat": 0.0, "lon": -76.996957}, {"fusion_lon": 0.0, "bike_id": "e44d7c2b77678d43578218d1ad519e1f", "is_disabled": 0, "is_reserved": 0, "lat": 38.924336, "name": "e44d7c2b77678d43578218d1ad519e1f", "rental_uris": {"ios": "https://dc.lft.to/lastmile_qr_scan", "android": "https://dc.lft.to/lastmile_qr_scan"}, "type": "electric_scooter", "fusion_lat": 0.0, "lon": -77.0224105}, {"fusion_lon": 0.0, "bike_id": "c30f7c7803f38561b28e0219d4d5b0f4", "is_disabled": 0, "is_reserved": 0, "lat": 38.93625316666667, "name": "c30f7c7803f38561b28e0219d4d5b0f4", "rental_uris": {"ios": "https://dc.lft.to/lastmile_qr_scan", "android": "https://dc.lft.to/lastmile_qr_scan"}, "type": "electric_scooter", "fusion_lat": 0.0, "lon": -77.03647716666667}, {"fusion_lon": 0.0, "bike_id": "4b236e771171c56089c01cff3f00b06e", "is_disabled": 0, "is_reserved": 0, "lat": 38.854472, "name": "4b236e771171c56089c01cff3f00b06e", "rental_uris": {"ios": "https://dc.lft.to/lastmile_qr_scan", "android": "https://dc.lft.to/lastmile_qr_scan"}, "type": "electric_scooter", "fusion_lat": 0.0, "lon": -76.9860845}, {"fusion_lon": 0.0, "bike_id": "87f2716b08db4b4b7080b16efe327b49", "is_disabled": 0, "is_reserved": 0, "lat": 38.9241225, "name": "87f2716b08db4b4b7080b16efe327b49", "rental_uris": {"ios": "https://dc.lft.to/lastmile_qr_scan", "android": "https://dc.lft.to/lastmile_qr_scan"}, "type": "electric_scooter", "fusion_lat": 0.0, "lon": -77.0200975}, {"fusion_lon": 0.0, "bike_id": "2c4fa0fb750b28f1c2203b7d73c63930", "is_disabled": 0, "is_reserved": 0, "lat": 38.97440983333333, "name": "2c4fa0fb750b28f1c2203b7d73c63930", "rental_uris": {"ios": "https://dc.lft.to/lastmile_qr_scan", "android": "https://dc.lft.to/lastmile_qr_scan"}, "type": "electric_bike", "fusion_lat": 0.0, "lon": -77.096175}, {"fusion_lon": 0.0, "bike_id": "9ae854a6d50c8b457dbb0c6893f38870", "is_disabled": 0, "is_reserved": 0, "lat": 38.932813333333335, "name": "9ae854a6d50c8b457dbb0c6893f38870", "rental_uris": {"ios": "https://dc.lft.to/lastmile_qr_scan", "android": "https://dc.lft.to/lastmile_qr_scan"}, "type": "electric_scooter", "fusion_lat": 0.0, "lon": -76.98644566666667}, {"fusion_lon": 0.0, "bike_id": "3f5def00d6b555b347159206725999f2", "is_disabled": 0, "is_reserved": 0, "lat": 38.919231833333335, "name": "3f5def00d6b555b347159206725999f2", "rental_uris": {"ios": "https://dc.lft.to/lastmile_qr_scan", "android": "https://dc.lft.to/lastmile_qr_scan"}, "type": "electric_scooter", "fusion_lat": 0.0, "lon": -77.03424633333333}, {"fusion_lon": 0.0, "bike_id": "1bfc6cc2fc3f25eb0681a6271e3cbab7", "is_disabled": 0, "is_reserved": 0, "lat": 38.912554, "name": "1bfc6cc2fc3f25eb0681a6271e3cbab7", "rental_uris": {"ios": "https://dc.lft.to/lastmile_qr_scan", "android": "https://dc.lft.to/lastmile_qr_scan"}, "type": "electric_scooter", "fusion_lat": 0.0, "lon": -77.047757}, {"fusion_lon": 0.0, "bike_id": "db87ccd56c4499db4c53f1c13b524904", "is_disabled": 0, "is_reserved": 0, "lat": 38.921632, "name": "db87ccd56c4499db4c53f1c13b524904", "rental_uris": {"ios": "https://dc.lft.to/lastmile_qr_scan", "android": "https://dc.lft.to/lastmile_qr_scan"}, "type": "electric_scooter", "fusion_lat": 0.0, "lon": -77.03180583333334}, {"fusion_lon": 0.0, "bike_id": "75239de4217f727b7f2f56310373dec9", "is_disabled": 0, "is_reserved": 0, "lat": 38.905535, "name": "75239de4217f727b7f2f56310373dec9", "rental_uris": {"ios": "https://dc.lft.to/lastmile_qr_scan", "android": "https://dc.lft.to/lastmile_qr_scan"}, "type": "electric_scooter", "fusion_lat": 0.0, "lon": -77.0056475}, {"fusion_lon": 0.0, "bike_id": "2db17580052d51431872658315337cc3", "is_disabled": 0, "is_reserved": 0, "lat": 38.931166833333336, "name": "2db17580052d51431872658315337cc3", "rental_uris": {"ios": "https://dc.lft.to/lastmile_qr_scan", "android": "https://dc.lft.to/lastmile_qr_scan"}, "type": "electric_scooter", "fusion_lat": 0.0, "lon": -77.02098066666667}, {"fusion_lon": 0.0, "bike_id": "d18300a38e4f58d70a5c17cbd4161637", "is_disabled": 0, "is_reserved": 0, "lat": 38.89909883333333, "name": "d18300a38e4f58d70a5c17cbd4161637", "rental_uris": {"ios": "https://dc.lft.to/lastmile_qr_scan", "android": "https://dc.lft.to/lastmile_qr_scan"}, "type": "electric_scooter", "fusion_lat": 0.0, "lon": -76.93390833333333}, {"fusion_lon": 0.0, "bike_id": "70e45c75e7f8a4332515db4bcbc4aa5d", "is_disabled": 0, "is_reserved": 0, "lat": 38.9169835, "name": "70e45c75e7f8a4332515db4bcbc4aa5d", "rental_uris": {"ios": "https://dc.lft.to/lastmile_qr_scan", "android": "https://dc.lft.to/lastmile_qr_scan"}, "type": "electric_scooter", "fusion_lat": 0.0, "lon": -77.03132916666667}, {"fusion_lon": 0.0, "bike_id": "aa4cb2f3b3005923c90dbf7db0a61656", "is_disabled": 0, "is_reserved": 0, "lat": 38.891598, "name": "aa4cb2f3b3005923c90dbf7db0a61656", "rental_uris": {"ios": "https://dc.lft.to/lastmile_qr_scan", "android": "https://dc.lft.to/lastmile_qr_scan"}, "type": "electric_scooter", "fusion_lat": 0.0, "lon": -76.9914875}, {"fusion_lon": 0.0, "bike_id": "93c05b9f2c741cca411a2369242e8fcd", "is_disabled": 0, "is_reserved": 0, "lat": 38.92001, "name": "93c05b9f2c741cca411a2369242e8fcd", "rental_uris": {"ios": "https://dc.lft.to/lastmile_qr_scan", "android": "https://dc.lft.to/lastmile_qr_scan"}, "type": "electric_scooter", "fusion_lat": 0.0, "lon": -77.02172433333334}, {"fusion_lon": 0.0, "bike_id": "e69f1aa40de5ea85591591c0ca873a84", "is_disabled": 0, "is_reserved": 0, "lat": 38.900602166666665, "name": "e69f1aa40de5ea85591591c0ca873a84", "rental_uris": {"ios": "https://dc.lft.to/lastmile_qr_scan", "android": "https://dc.lft.to/lastmile_qr_scan"}, "type": "electric_scooter", "fusion_lat": 0.0, "lon": -77.04588566666666}, {"fusion_lon": 0.0, "bike_id": "9d3647ecc3ef2a412554e836871d1cea", "is_disabled": 0, "is_reserved": 0, "lat": 38.918759333333334, "name": "9d3647ecc3ef2a412554e836871d1cea", "rental_uris": {"ios": "https://dc.lft.to/lastmile_qr_scan", "android": "https://dc.lft.to/lastmile_qr_scan"}, "type": "electric_bike", "fusion_lat": 0.0, "lon": -77.01628933333333}, {"fusion_lon": 0.0, "bike_id": "1272a221e3e913384c51658d5ab90f1e", "is_disabled": 0, "is_reserved": 0, "lat": 38.881872, "name": "1272a221e3e913384c51658d5ab90f1e", "rental_uris": {"ios": "https://dc.lft.to/lastmile_qr_scan", "android": "https://dc.lft.to/lastmile_qr_scan"}, "type": "electric_scooter", "fusion_lat": 0.0, "lon": -77.02100383333334}, {"fusion_lon": 0.0, "bike_id": "72d96793e90c0c9ed4319e6bb5236ce5", "is_disabled": 0, "is_reserved": 0, "lat": 38.91703966666667, "name": "72d96793e90c0c9ed4319e6bb5236ce5", "rental_uris": {"ios": "https://dc.lft.to/lastmile_qr_scan", "android": "https://dc.lft.to/lastmile_qr_scan"}, "type": "electric_scooter", "fusion_lat": 0.0, "lon": -77.09211533333334}, {"fusion_lon": 0.0, "bike_id": "cf50e8c994764f469cd62fd170b96bb9", "is_disabled": 0, "is_reserved": 0, "lat": 38.92248933333333, "name": "cf50e8c994764f469cd62fd170b96bb9", "rental_uris": {"ios": "https://dc.lft.to/lastmile_qr_scan", "android": "https://dc.lft.to/lastmile_qr_scan"}, "type": "electric_scooter", "fusion_lat": 0.0, "lon": -77.008295}, {"fusion_lon": 0.0, "bike_id": "4f74be50ecd9a26b83cd3ad5bcabe8cf", "is_disabled": 0, "is_reserved": 0, "lat": 38.92120716666667, "name": "4f74be50ecd9a26b83cd3ad5bcabe8cf", "rental_uris": {"ios": "https://dc.lft.to/lastmile_qr_scan", "android": "https://dc.lft.to/lastmile_qr_scan"}, "type": "electric_scooter", "fusion_lat": 0.0, "lon": -77.036636}, {"fusion_lon": 0.0, "bike_id": "2d727ad54ee4bc49279902f2ee8665ce", "is_disabled": 0, "is_reserved": 0, "lat": 38.88140683333334, "name": "2d727ad54ee4bc49279902f2ee8665ce", "rental_uris": {"ios": "https://dc.lft.to/lastmile_qr_scan", "android": "https://dc.lft.to/lastmile_qr_scan"}, "type": "electric_bike", "fusion_lat": 0.0, "lon": -77.01290966666667}, {"fusion_lon": 0.0, "bike_id": "15a60f19c971eacacaf1a0ce0b007421", "is_disabled": 0, "is_reserved": 0, "lat": 38.90272066666667, "name": "15a60f19c971eacacaf1a0ce0b007421", "rental_uris": {"ios": "https://dc.lft.to/lastmile_qr_scan", "android": "https://dc.lft.to/lastmile_qr_scan"}, "type": "electric_scooter", "fusion_lat": 0.0, "lon": -77.0465505}, {"fusion_lon": 0.0, "bike_id": "1884b85cfcd1882765a75aa09cad5d7f", "is_disabled": 0, "is_reserved": 0, "lat": 38.918133166666664, "name": "1884b85cfcd1882765a75aa09cad5d7f", "rental_uris": {"ios": "https://dc.lft.to/lastmile_qr_scan", "android": "https://dc.lft.to/lastmile_qr_scan"}, "type": "electric_scooter", "fusion_lat": 0.0, "lon": -77.02472966666667}, {"fusion_lon": 0.0, "bike_id": "7a60e4aeb3f9d472d905d01565c6a44f", "is_disabled": 0, "is_reserved": 0, "lat": 38.953558666666666, "name": "7a60e4aeb3f9d472d905d01565c6a44f", "rental_uris": {"ios": "https://dc.lft.to/lastmile_qr_scan", "android": "https://dc.lft.to/lastmile_qr_scan"}, "type": "electric_bike", "fusion_lat": 0.0, "lon": -76.9809485}, {"fusion_lon": 0.0, "bike_id": "703196c8128709c69b2de639a3ed0dde", "is_disabled": 0, "is_reserved": 0, "lat": 38.92640333333333, "name": "703196c8128709c69b2de639a3ed0dde", "rental_uris": {"ios": "https://dc.lft.to/lastmile_qr_scan", "android": "https://dc.lft.to/lastmile_qr_scan"}, "type": "electric_scooter", "fusion_lat": 0.0, "lon": -77.03696316666667}, {"fusion_lon": 0.0, "bike_id": "43f1541b689a247507eaf3cfba6cbecb", "is_disabled": 0, "is_reserved": 0, "lat": 38.90864033333333, "name": "43f1541b689a247507eaf3cfba6cbecb", "rental_uris": {"ios": "https://dc.lft.to/lastmile_qr_scan", "android": "https://dc.lft.to/lastmile_qr_scan"}, "type": "electric_scooter", "fusion_lat": 0.0, "lon": -77.01835716666666}, {"fusion_lon": 0.0, "bike_id": "bee09c8b914a960963c0e46f3755bd13", "is_disabled": 0, "is_reserved": 0, "lat": 38.894879, "name": "bee09c8b914a960963c0e46f3755bd13", "rental_uris": {"ios": "https://dc.lft.to/lastmile_qr_scan", "android": "https://dc.lft.to/lastmile_qr_scan"}, "type": "electric_scooter", "fusion_lat": 0.0, "lon": -77.0550835}, {"fusion_lon": 0.0, "bike_id": "e354c391fbb7bbc84163b756dfce8887", "is_disabled": 0, "is_reserved": 0, "lat": 38.8923325, "name": "e354c391fbb7bbc84163b756dfce8887", "rental_uris": {"ios": "https://dc.lft.to/lastmile_qr_scan", "android": "https://dc.lft.to/lastmile_qr_scan"}, "type": "electric_scooter", "fusion_lat": 0.0, "lon": -77.03186716666667}, {"fusion_lon": 0.0, "bike_id": "66f9c8b804e77d605f87d092b447b9a3", "is_disabled": 0, "is_reserved": 0, "lat": 38.9076335, "name": "66f9c8b804e77d605f87d092b447b9a3", "rental_uris": {"ios": "https://dc.lft.to/lastmile_qr_scan", "android": "https://dc.lft.to/lastmile_qr_scan"}, "type": "electric_scooter", "fusion_lat": 0.0, "lon": -77.04525016666666}, {"fusion_lon": 0.0, "bike_id": "300af2c7086797252c093c54394e4c56", "is_disabled": 0, "is_reserved": 0, "lat": 38.91349533333333, "name": "300af2c7086797252c093c54394e4c56", "rental_uris": {"ios": "https://dc.lft.to/lastmile_qr_scan", "android": "https://dc.lft.to/lastmile_qr_scan"}, "type": "electric_scooter", "fusion_lat": 0.0, "lon": -77.0318315}, {"fusion_lon": 0.0, "bike_id": "da19102c5fe7a3152ab64a6ee91de812", "is_disabled": 0, "is_reserved": 0, "lat": 38.94514383333333, "name": "da19102c5fe7a3152ab64a6ee91de812", "rental_uris": {"ios": "https://dc.lft.to/lastmile_qr_scan", "android": "https://dc.lft.to/lastmile_qr_scan"}, "type": "electric_bike", "fusion_lat": 0.0, "lon": -77.006786}, {"fusion_lon": 0.0, "bike_id": "75601015723ce2aa09cb1363d9347244", "is_disabled": 0, "is_reserved": 0, "lat": 38.822063666666665, "name": "75601015723ce2aa09cb1363d9347244", "rental_uris": {"ios": "https://dc.lft.to/lastmile_qr_scan", "android": "https://dc.lft.to/lastmile_qr_scan"}, "type": "electric_bike", "fusion_lat": 0.0, "lon": -76.97702666666666}, {"fusion_lon": 0.0, "bike_id": "d135b36155b36c6af73d2412439838c2", "is_disabled": 0, "is_reserved": 0, "lat": 38.932042, "name": "d135b36155b36c6af73d2412439838c2", "rental_uris": {"ios": "https://dc.lft.to/lastmile_qr_scan", "android": "https://dc.lft.to/lastmile_qr_scan"}, "type": "electric_scooter", "fusion_lat": 0.0, "lon": -77.03748}, {"fusion_lon": 0.0, "bike_id": "7b254956ae91b3ba7704b42d0eca3d56", "is_disabled": 0, "is_reserved": 0, "lat": 38.91754383333333, "name": "7b254956ae91b3ba7704b42d0eca3d56", "rental_uris": {"ios": "https://dc.lft.to/lastmile_qr_scan", "android": "https://dc.lft.to/lastmile_qr_scan"}, "type": "electric_scooter", "fusion_lat": 0.0, "lon": -77.023877}, {"fusion_lon": 0.0, "bike_id": "9db0169ef33fca27ebbedb49afb6c8e4", "is_disabled": 0, "is_reserved": 0, "lat": 38.95840166666667, "name": "9db0169ef33fca27ebbedb49afb6c8e4", "rental_uris": {"ios": "https://dc.lft.to/lastmile_qr_scan", "android": "https://dc.lft.to/lastmile_qr_scan"}, "type": "electric_scooter", "fusion_lat": 0.0, "lon": -77.071671}, {"fusion_lon": 0.0, "bike_id": "be5b8d9de21c052845f6e10d3d0da029", "is_disabled": 0, "is_reserved": 0, "lat": 38.90504833333333, "name": "be5b8d9de21c052845f6e10d3d0da029", "rental_uris": {"ios": "https://dc.lft.to/lastmile_qr_scan", "android": "https://dc.lft.to/lastmile_qr_scan"}, "type": "electric_scooter", "fusion_lat": 0.0, "lon": -77.0295315}, {"fusion_lon": 0.0, "bike_id": "c8f30cfd483bc7c71363b47a70d46f64", "is_disabled": 0, "is_reserved": 0, "lat": 38.905165333333336, "name": "c8f30cfd483bc7c71363b47a70d46f64", "rental_uris": {"ios": "https://dc.lft.to/lastmile_qr_scan", "android": "https://dc.lft.to/lastmile_qr_scan"}, "type": "electric_scooter", "fusion_lat": 0.0, "lon": -76.98398233333333}, {"fusion_lon": 0.0, "bike_id": "c0ff144d4856ae1e48a3f9441e19aced", "is_disabled": 0, "is_reserved": 0, "lat": 38.946349166666664, "name": "c0ff144d4856ae1e48a3f9441e19aced", "rental_uris": {"ios": "https://dc.lft.to/lastmile_qr_scan", "android": "https://dc.lft.to/lastmile_qr_scan"}, "type": "electric_scooter", "fusion_lat": 0.0, "lon": -77.02271983333333}, {"fusion_lon": 0.0, "bike_id": "2fcf3066fa997cffcb262a0209ddfae3", "is_disabled": 0, "is_reserved": 0, "lat": 38.94555033333334, "name": "2fcf3066fa997cffcb262a0209ddfae3", "rental_uris": {"ios": "https://dc.lft.to/lastmile_qr_scan", "android": "https://dc.lft.to/lastmile_qr_scan"}, "type": "electric_scooter", "fusion_lat": 0.0, "lon": -77.06406566666666}, {"fusion_lon": 0.0, "bike_id": "be281b6b5e3f3bdd5ce7e6c807d27748", "is_disabled": 0, "is_reserved": 0, "lat": 38.90737383333333, "name": "be281b6b5e3f3bdd5ce7e6c807d27748", "rental_uris": {"ios": "https://dc.lft.to/lastmile_qr_scan", "android": "https://dc.lft.to/lastmile_qr_scan"}, "type": "electric_scooter", "fusion_lat": 0.0, "lon": -77.04138983333333}, {"fusion_lon": 0.0, "bike_id": "bb54c92549807fc27d30a833d7a8a0cc", "is_disabled": 0, "is_reserved": 0, "lat": 38.920486833333335, "name": "bb54c92549807fc27d30a833d7a8a0cc", "rental_uris": {"ios": "https://dc.lft.to/lastmile_qr_scan", "android": "https://dc.lft.to/lastmile_qr_scan"}, "type": "electric_scooter", "fusion_lat": 0.0, "lon": -77.04186583333333}, {"fusion_lon": 0.0, "bike_id": "40f458b80623b57edfacd30bc63ecbef", "is_disabled": 0, "is_reserved": 0, "lat": 38.9242265, "name": "40f458b80623b57edfacd30bc63ecbef", "rental_uris": {"ios": "https://dc.lft.to/lastmile_qr_scan", "android": "https://dc.lft.to/lastmile_qr_scan"}, "type": "electric_scooter", "fusion_lat": 0.0, "lon": -77.022884}, {"fusion_lon": 0.0, "bike_id": "5d86aa3c4f978b0f150f231323afdc85", "is_disabled": 0, "is_reserved": 0, "lat": 38.8133425, "name": "5d86aa3c4f978b0f150f231323afdc85", "rental_uris": {"ios": "https://dc.lft.to/lastmile_qr_scan", "android": "https://dc.lft.to/lastmile_qr_scan"}, "type": "electric_bike", "fusion_lat": 0.0, "lon": -77.05115166666667}, {"fusion_lon": 0.0, "bike_id": "af019ec509164e2ad66b0eb4727b2d2c", "is_disabled": 0, "is_reserved": 0, "lat": 38.9009945, "name": "af019ec509164e2ad66b0eb4727b2d2c", "rental_uris": {"ios": "https://dc.lft.to/lastmile_qr_scan", "android": "https://dc.lft.to/lastmile_qr_scan"}, "type": "electric_bike", "fusion_lat": 0.0, "lon": -76.983483}, {"fusion_lon": 0.0, "bike_id": "da6f69f4a41705a847327e897880ca01", "is_disabled": 0, "is_reserved": 0, "lat": 38.89995183333333, "name": "da6f69f4a41705a847327e897880ca01", "rental_uris": {"ios": "https://dc.lft.to/lastmile_qr_scan", "android": "https://dc.lft.to/lastmile_qr_scan"}, "type": "electric_scooter", "fusion_lat": 0.0, "lon": -76.99853716666667}, {"fusion_lon": 0.0, "bike_id": "0b1386c4455455236d13b99b8a32a35a", "is_disabled": 0, "is_reserved": 0, "lat": 38.8620125, "name": "0b1386c4455455236d13b99b8a32a35a", "rental_uris": {"ios": "https://dc.lft.to/lastmile_qr_scan", "android": "https://dc.lft.to/lastmile_qr_scan"}, "type": "electric_scooter", "fusion_lat": 0.0, "lon": -76.99463366666667}, {"fusion_lon": 0.0, "bike_id": "4eb015cc7d9ffb90ff494a061f58b634", "is_disabled": 0, "is_reserved": 0, "lat": 38.90992966666666, "name": "4eb015cc7d9ffb90ff494a061f58b634", "rental_uris": {"ios": "https://dc.lft.to/lastmile_qr_scan", "android": "https://dc.lft.to/lastmile_qr_scan"}, "type": "electric_scooter", "fusion_lat": 0.0, "lon": -77.00472016666667}, {"fusion_lon": 0.0, "bike_id": "38fc1cf9ad6876dd410fc40bb4a08cca", "is_disabled": 0, "is_reserved": 0, "lat": 38.91035133333333, "name": "38fc1cf9ad6876dd410fc40bb4a08cca", "rental_uris": {"ios": "https://dc.lft.to/lastmile_qr_scan", "android": "https://dc.lft.to/lastmile_qr_scan"}, "type": "electric_scooter", "fusion_lat": 0.0, "lon": -77.04365733333333}, {"fusion_lon": 0.0, "bike_id": "d1045ea0a811e5628ad5bc4fb27e3dac", "is_disabled": 0, "is_reserved": 0, "lat": 38.92590666666667, "name": "d1045ea0a811e5628ad5bc4fb27e3dac", "rental_uris": {"ios": "https://dc.lft.to/lastmile_qr_scan", "android": "https://dc.lft.to/lastmile_qr_scan"}, "type": "electric_scooter", "fusion_lat": 0.0, "lon": -77.02499133333333}, {"fusion_lon": 0.0, "bike_id": "409c97b2ec3ac48679d45f08477105de", "is_disabled": 0, "is_reserved": 0, "lat": 38.927939333333335, "name": "409c97b2ec3ac48679d45f08477105de", "rental_uris": {"ios": "https://dc.lft.to/lastmile_qr_scan", "android": "https://dc.lft.to/lastmile_qr_scan"}, "type": "electric_bike", "fusion_lat": 0.0, "lon": -77.2292585}, {"fusion_lon": 0.0, "bike_id": "6f477ac9983e9154449cc95dfaa160e7", "is_disabled": 0, "is_reserved": 0, "lat": 38.924215333333336, "name": "6f477ac9983e9154449cc95dfaa160e7", "rental_uris": {"ios": "https://dc.lft.to/lastmile_qr_scan", "android": "https://dc.lft.to/lastmile_qr_scan"}, "type": "electric_scooter", "fusion_lat": 0.0, "lon": -77.04479716666667}, {"fusion_lon": 0.0, "bike_id": "6ceaded9cf52daa8ed1984c79f3c2126", "is_disabled": 0, "is_reserved": 0, "lat": 38.88394866666667, "name": "6ceaded9cf52daa8ed1984c79f3c2126", "rental_uris": {"ios": "https://dc.lft.to/lastmile_qr_scan", "android": "https://dc.lft.to/lastmile_qr_scan"}, "type": "electric_scooter", "fusion_lat": 0.0, "lon": -77.04455466666667}, {"fusion_lon": 0.0, "bike_id": "e923bfd93b75d7be665b551dec042428", "is_disabled": 0, "is_reserved": 0, "lat": 38.92410533333333, "name": "e923bfd93b75d7be665b551dec042428", "rental_uris": {"ios": "https://dc.lft.to/lastmile_qr_scan", "android": "https://dc.lft.to/lastmile_qr_scan"}, "type": "electric_scooter", "fusion_lat": 0.0, "lon": -77.03639366666667}, {"fusion_lon": 0.0, "bike_id": "9151bb85f4c02dd8ebc8390862c46852", "is_disabled": 0, "is_reserved": 0, "lat": 38.936871833333335, "name": "9151bb85f4c02dd8ebc8390862c46852", "rental_uris": {"ios": "https://dc.lft.to/lastmile_qr_scan", "android": "https://dc.lft.to/lastmile_qr_scan"}, "type": "electric_bike", "fusion_lat": 0.0, "lon": -77.05644133333334}, {"fusion_lon": 0.0, "bike_id": "ff234d7a316b75149fd5e61e1d8df189", "is_disabled": 0, "is_reserved": 0, "lat": 38.91251283333333, "name": "ff234d7a316b75149fd5e61e1d8df189", "rental_uris": {"ios": "https://dc.lft.to/lastmile_qr_scan", "android": "https://dc.lft.to/lastmile_qr_scan"}, "type": "electric_scooter", "fusion_lat": 0.0, "lon": -77.02806966666667}, {"fusion_lon": 0.0, "bike_id": "8451ee2e8c7cc72dc383a79979800c67", "is_disabled": 0, "is_reserved": 0, "lat": 38.8982405, "name": "8451ee2e8c7cc72dc383a79979800c67", "rental_uris": {"ios": "https://dc.lft.to/lastmile_qr_scan", "android": "https://dc.lft.to/lastmile_qr_scan"}, "type": "electric_scooter", "fusion_lat": 0.0, "lon": -77.0461255}, {"fusion_lon": 0.0, "bike_id": "9c2bf775be4becbba25e8cb408b0d6e0", "is_disabled": 0, "is_reserved": 0, "lat": 38.899042666666666, "name": "9c2bf775be4becbba25e8cb408b0d6e0", "rental_uris": {"ios": "https://dc.lft.to/lastmile_qr_scan", "android": "https://dc.lft.to/lastmile_qr_scan"}, "type": "electric_scooter", "fusion_lat": 0.0, "lon": -77.023104}, {"fusion_lon": 0.0, "bike_id": "bf1a5be344f6ece88e0287d7df88638d", "is_disabled": 0, "is_reserved": 0, "lat": 38.91048716666667, "name": "bf1a5be344f6ece88e0287d7df88638d", "rental_uris": {"ios": "https://dc.lft.to/lastmile_qr_scan", "android": "https://dc.lft.to/lastmile_qr_scan"}, "type": "electric_scooter", "fusion_lat": 0.0, "lon": -77.04098816666666}, {"fusion_lon": 0.0, "bike_id": "67d6d49800e140ddcab5fd89381effce", "is_disabled": 0, "is_reserved": 0, "lat": 38.91997333333333, "name": "67d6d49800e140ddcab5fd89381effce", "rental_uris": {"ios": "https://dc.lft.to/lastmile_qr_scan", "android": "https://dc.lft.to/lastmile_qr_scan"}, "type": "electric_scooter", "fusion_lat": 0.0, "lon": -77.03278083333333}, {"fusion_lon": 0.0, "bike_id": "2aea7fafd2599ab8336ff69e597c847d", "is_disabled": 0, "is_reserved": 0, "lat": 38.904022, "name": "2aea7fafd2599ab8336ff69e597c847d", "rental_uris": {"ios": "https://dc.lft.to/lastmile_qr_scan", "android": "https://dc.lft.to/lastmile_qr_scan"}, "type": "electric_scooter", "fusion_lat": 0.0, "lon": -77.04343766666666}, {"fusion_lon": 0.0, "bike_id": "3869bd2f50ec8e76b06bb5621ce735af", "is_disabled": 0, "is_reserved": 0, "lat": 38.93059983333333, "name": "3869bd2f50ec8e76b06bb5621ce735af", "rental_uris": {"ios": "https://dc.lft.to/lastmile_qr_scan", "android": "https://dc.lft.to/lastmile_qr_scan"}, "type": "electric_scooter", "fusion_lat": 0.0, "lon": -77.03942083333334}, {"fusion_lon": 0.0, "bike_id": "8760c24b642f6918b88e7569478468a4", "is_disabled": 0, "is_reserved": 0, "lat": 38.906896333333336, "name": "8760c24b642f6918b88e7569478468a4", "rental_uris": {"ios": "https://dc.lft.to/lastmile_qr_scan", "android": "https://dc.lft.to/lastmile_qr_scan"}, "type": "electric_scooter", "fusion_lat": 0.0, "lon": -77.0271405}, {"fusion_lon": 0.0, "bike_id": "253df2f1f30fe41242913a8c89c31f77", "is_disabled": 0, "is_reserved": 0, "lat": 38.922339, "name": "253df2f1f30fe41242913a8c89c31f77", "rental_uris": {"ios": "https://dc.lft.to/lastmile_qr_scan", "android": "https://dc.lft.to/lastmile_qr_scan"}, "type": "electric_scooter", "fusion_lat": 0.0, "lon": -77.04245966666667}, {"fusion_lon": 0.0, "bike_id": "c1658897c0578f5ed7c9d42fadedd6c4", "is_disabled": 0, "is_reserved": 0, "lat": 38.907273, "name": "c1658897c0578f5ed7c9d42fadedd6c4", "rental_uris": {"ios": "https://dc.lft.to/lastmile_qr_scan", "android": "https://dc.lft.to/lastmile_qr_scan"}, "type": "electric_scooter", "fusion_lat": 0.0, "lon": -77.03457416666667}, {"fusion_lon": 0.0, "bike_id": "44b827887b28be672da8bcac9382306b", "is_disabled": 0, "is_reserved": 0, "lat": 38.952582166666666, "name": "44b827887b28be672da8bcac9382306b", "rental_uris": {"ios": "https://dc.lft.to/lastmile_qr_scan", "android": "https://dc.lft.to/lastmile_qr_scan"}, "type": "electric_scooter", "fusion_lat": 0.0, "lon": -77.020739}, {"fusion_lon": 0.0, "bike_id": "44626419ce86a0d594e587c32aeccd6f", "is_disabled": 0, "is_reserved": 0, "lat": 38.91751166666667, "name": "44626419ce86a0d594e587c32aeccd6f", "rental_uris": {"ios": "https://dc.lft.to/lastmile_qr_scan", "android": "https://dc.lft.to/lastmile_qr_scan"}, "type": "electric_scooter", "fusion_lat": 0.0, "lon": -77.021199}, {"fusion_lon": 0.0, "bike_id": "511be5fc998339e009de947cf355773e", "is_disabled": 0, "is_reserved": 0, "lat": 38.905096666666665, "name": "511be5fc998339e009de947cf355773e", "rental_uris": {"ios": "https://dc.lft.to/lastmile_qr_scan", "android": "https://dc.lft.to/lastmile_qr_scan"}, "type": "electric_scooter", "fusion_lat": 0.0, "lon": -77.06525183333333}, {"fusion_lon": 0.0, "bike_id": "dec80c046b8226882ebe69af37176af9", "is_disabled": 0, "is_reserved": 0, "lat": 38.8972685, "name": "dec80c046b8226882ebe69af37176af9", "rental_uris": {"ios": "https://dc.lft.to/lastmile_qr_scan", "android": "https://dc.lft.to/lastmile_qr_scan"}, "type": "electric_scooter", "fusion_lat": 0.0, "lon": -76.92590383333334}, {"fusion_lon": 0.0, "bike_id": "8f5277ac4ab9893339129eb5c7975efe", "is_disabled": 0, "is_reserved": 0, "lat": 38.903634833333335, "name": "8f5277ac4ab9893339129eb5c7975efe", "rental_uris": {"ios": "https://dc.lft.to/lastmile_qr_scan", "android": "https://dc.lft.to/lastmile_qr_scan"}, "type": "electric_scooter", "fusion_lat": 0.0, "lon": -77.0423555}, {"fusion_lon": 0.0, "bike_id": "3aa77df7bc4e7ff3e9c4e52a189944a7", "is_disabled": 0, "is_reserved": 0, "lat": 38.918166666666664, "name": "3aa77df7bc4e7ff3e9c4e52a189944a7", "rental_uris": {"ios": "https://dc.lft.to/lastmile_qr_scan", "android": "https://dc.lft.to/lastmile_qr_scan"}, "type": "electric_scooter", "fusion_lat": 0.0, "lon": -77.02529716666666}, {"fusion_lon": 0.0, "bike_id": "44320d706f344c90c5f74eeb60215fe8", "is_disabled": 0, "is_reserved": 0, "lat": 38.914369, "name": "44320d706f344c90c5f74eeb60215fe8", "rental_uris": {"ios": "https://dc.lft.to/lastmile_qr_scan", "android": "https://dc.lft.to/lastmile_qr_scan"}, "type": "electric_scooter", "fusion_lat": 0.0, "lon": -77.06690766666667}, {"fusion_lon": 0.0, "bike_id": "8e0ed07c317bd24f6198c88cf3ffac90", "is_disabled": 0, "is_reserved": 0, "lat": 38.91465983333333, "name": "8e0ed07c317bd24f6198c88cf3ffac90", "rental_uris": {"ios": "https://dc.lft.to/lastmile_qr_scan", "android": "https://dc.lft.to/lastmile_qr_scan"}, "type": "electric_scooter", "fusion_lat": 0.0, "lon": -77.00210283333334}, {"fusion_lon": 0.0, "bike_id": "93ef2b89320ab5846ef397228adcbe97", "is_disabled": 0, "is_reserved": 0, "lat": 38.9224865, "name": "93ef2b89320ab5846ef397228adcbe97", "rental_uris": {"ios": "https://dc.lft.to/lastmile_qr_scan", "android": "https://dc.lft.to/lastmile_qr_scan"}, "type": "electric_scooter", "fusion_lat": 0.0, "lon": -77.03082316666666}, {"fusion_lon": 0.0, "bike_id": "b300ba52f829b295e4ee1d8a2588a5e1", "is_disabled": 0, "is_reserved": 0, "lat": 38.9188095, "name": "b300ba52f829b295e4ee1d8a2588a5e1", "rental_uris": {"ios": "https://dc.lft.to/lastmile_qr_scan", "android": "https://dc.lft.to/lastmile_qr_scan"}, "type": "electric_scooter", "fusion_lat": 0.0, "lon": -77.03734266666666}, {"fusion_lon": 0.0, "bike_id": "c2af7c0f0e1b59463721e393e67e5916", "is_disabled": 0, "is_reserved": 0, "lat": 38.92740516666667, "name": "c2af7c0f0e1b59463721e393e67e5916", "rental_uris": {"ios": "https://dc.lft.to/lastmile_qr_scan", "android": "https://dc.lft.to/lastmile_qr_scan"}, "type": "electric_scooter", "fusion_lat": 0.0, "lon": -77.03560133333333}, {"fusion_lon": 0.0, "bike_id": "c2e0f9e8f89fe76106020d33db0e3c94", "is_disabled": 0, "is_reserved": 0, "lat": 38.91704583333333, "name": "c2e0f9e8f89fe76106020d33db0e3c94", "rental_uris": {"ios": "https://dc.lft.to/lastmile_qr_scan", "android": "https://dc.lft.to/lastmile_qr_scan"}, "type": "electric_scooter", "fusion_lat": 0.0, "lon": -77.01098033333334}, {"fusion_lon": 0.0, "bike_id": "d9fbd3bf02e0d621a9b0ed9e02ec2b1e", "is_disabled": 0, "is_reserved": 0, "lat": 38.917027166666664, "name": "d9fbd3bf02e0d621a9b0ed9e02ec2b1e", "rental_uris": {"ios": "https://dc.lft.to/lastmile_qr_scan", "android": "https://dc.lft.to/lastmile_qr_scan"}, "type": "electric_scooter", "fusion_lat": 0.0, "lon": -77.02279683333333}, {"fusion_lon": 0.0, "bike_id": "a95e1184b451416bfe0fd1aa08932eee", "is_disabled": 0, "is_reserved": 0, "lat": 38.91125183333333, "name": "a95e1184b451416bfe0fd1aa08932eee", "rental_uris": {"ios": "https://dc.lft.to/lastmile_qr_scan", "android": "https://dc.lft.to/lastmile_qr_scan"}, "type": "electric_scooter", "fusion_lat": 0.0, "lon": -77.02198633333333}, {"fusion_lon": 0.0, "bike_id": "ee8ce505131c452848c65f9882285c78", "is_disabled": 0, "is_reserved": 0, "lat": 38.92468816666667, "name": "ee8ce505131c452848c65f9882285c78", "rental_uris": {"ios": "https://dc.lft.to/lastmile_qr_scan", "android": "https://dc.lft.to/lastmile_qr_scan"}, "type": "electric_scooter", "fusion_lat": 0.0, "lon": -77.0306285}, {"fusion_lon": 0.0, "bike_id": "205d2be9a7a7ec6944ad66a5f7833d33", "is_disabled": 0, "is_reserved": 0, "lat": 38.9198665, "name": "205d2be9a7a7ec6944ad66a5f7833d33", "rental_uris": {"ios": "https://dc.lft.to/lastmile_qr_scan", "android": "https://dc.lft.to/lastmile_qr_scan"}, "type": "electric_scooter", "fusion_lat": 0.0, "lon": -77.03242066666667}, {"fusion_lon": 0.0, "bike_id": "0c245bb7a225c4fe2f9c164af6607560", "is_disabled": 0, "is_reserved": 0, "lat": 38.9497785, "name": "0c245bb7a225c4fe2f9c164af6607560", "rental_uris": {"ios": "https://dc.lft.to/lastmile_qr_scan", "android": "https://dc.lft.to/lastmile_qr_scan"}, "type": "electric_scooter", "fusion_lat": 0.0, "lon": -77.02448733333334}, {"fusion_lon": 0.0, "bike_id": "5b568784134719b12229de9f0d477b8a", "is_disabled": 0, "is_reserved": 0, "lat": 38.92023433333333, "name": "5b568784134719b12229de9f0d477b8a", "rental_uris": {"ios": "https://dc.lft.to/lastmile_qr_scan", "android": "https://dc.lft.to/lastmile_qr_scan"}, "type": "electric_scooter", "fusion_lat": 0.0, "lon": -77.04175666666667}, {"fusion_lon": 0.0, "bike_id": "d216c623ca06a473122fdfa52d625176", "is_disabled": 0, "is_reserved": 0, "lat": 38.88771166666667, "name": "d216c623ca06a473122fdfa52d625176", "rental_uris": {"ios": "https://dc.lft.to/lastmile_qr_scan", "android": "https://dc.lft.to/lastmile_qr_scan"}, "type": "electric_scooter", "fusion_lat": 0.0, "lon": -77.00046933333333}, {"fusion_lon": 0.0, "bike_id": "3d1c6b280e96975ae7216f1d75646295", "is_disabled": 0, "is_reserved": 0, "lat": 38.9223405, "name": "3d1c6b280e96975ae7216f1d75646295", "rental_uris": {"ios": "https://dc.lft.to/lastmile_qr_scan", "android": "https://dc.lft.to/lastmile_qr_scan"}, "type": "electric_scooter", "fusion_lat": 0.0, "lon": -77.02828983333333}, {"fusion_lon": 0.0, "bike_id": "43c1e954bec88fa8bfaa96e6147574df", "is_disabled": 0, "is_reserved": 0, "lat": 38.895858, "name": "43c1e954bec88fa8bfaa96e6147574df", "rental_uris": {"ios": "https://dc.lft.to/lastmile_qr_scan", "android": "https://dc.lft.to/lastmile_qr_scan"}, "type": "electric_scooter", "fusion_lat": 0.0, "lon": -77.0294625}, {"fusion_lon": 0.0, "bike_id": "c1192daa41da4f21ace7013183466ef0", "is_disabled": 0, "is_reserved": 0, "lat": 38.835768333333334, "name": "c1192daa41da4f21ace7013183466ef0", "rental_uris": {"ios": "https://dc.lft.to/lastmile_qr_scan", "android": "https://dc.lft.to/lastmile_qr_scan"}, "type": "electric_bike", "fusion_lat": 0.0, "lon": -76.990209}, {"fusion_lon": 0.0, "bike_id": "273271a029bb579c6bffdf00414c0289", "is_disabled": 0, "is_reserved": 0, "lat": 38.88246733333333, "name": "273271a029bb579c6bffdf00414c0289", "rental_uris": {"ios": "https://dc.lft.to/lastmile_qr_scan", "android": "https://dc.lft.to/lastmile_qr_scan"}, "type": "electric_bike", "fusion_lat": 0.0, "lon": -76.9625875}, {"fusion_lon": 0.0, "bike_id": "19cb649a1f48d42f21606b7ddc4f4954", "is_disabled": 0, "is_reserved": 0, "lat": 38.914547666666664, "name": "19cb649a1f48d42f21606b7ddc4f4954", "rental_uris": {"ios": "https://dc.lft.to/lastmile_qr_scan", "android": "https://dc.lft.to/lastmile_qr_scan"}, "type": "electric_bike", "fusion_lat": 0.0, "lon": -76.97236033333333}, {"fusion_lon": 0.0, "bike_id": "4623dd36b3b60471e6d12d977fe68ab5", "is_disabled": 0, "is_reserved": 0, "lat": 38.9325985, "name": "4623dd36b3b60471e6d12d977fe68ab5", "rental_uris": {"ios": "https://dc.lft.to/lastmile_qr_scan", "android": "https://dc.lft.to/lastmile_qr_scan"}, "type": "electric_scooter", "fusion_lat": 0.0, "lon": -76.98879116666667}, {"fusion_lon": 0.0, "bike_id": "4913403211d243f9dba4d933b900c124", "is_disabled": 0, "is_reserved": 0, "lat": 38.88770133333333, "name": "4913403211d243f9dba4d933b900c124", "rental_uris": {"ios": "https://dc.lft.to/lastmile_qr_scan", "android": "https://dc.lft.to/lastmile_qr_scan"}, "type": "electric_scooter", "fusion_lat": 0.0, "lon": -76.97731716666667}, {"fusion_lon": 0.0, "bike_id": "1f014226aeebd5e12dbb291cbc704779", "is_disabled": 0, "is_reserved": 0, "lat": 38.917441, "name": "1f014226aeebd5e12dbb291cbc704779", "rental_uris": {"ios": "https://dc.lft.to/lastmile_qr_scan", "android": "https://dc.lft.to/lastmile_qr_scan"}, "type": "electric_scooter", "fusion_lat": 0.0, "lon": -77.02804}, {"fusion_lon": 0.0, "bike_id": "793e6c562c626fba593fccfe581e2d62", "is_disabled": 0, "is_reserved": 0, "lat": 38.89716083333333, "name": "793e6c562c626fba593fccfe581e2d62", "rental_uris": {"ios": "https://dc.lft.to/lastmile_qr_scan", "android": "https://dc.lft.to/lastmile_qr_scan"}, "type": "electric_bike", "fusion_lat": 0.0, "lon": -77.00697283333334}, {"fusion_lon": 0.0, "bike_id": "0c323fe891cfc2fc3287b287ce124af3", "is_disabled": 0, "is_reserved": 0, "lat": 38.96727966666667, "name": "0c323fe891cfc2fc3287b287ce124af3", "rental_uris": {"ios": "https://dc.lft.to/lastmile_qr_scan", "android": "https://dc.lft.to/lastmile_qr_scan"}, "type": "electric_bike", "fusion_lat": 0.0, "lon": -77.0891345}, {"fusion_lon": 0.0, "bike_id": "6778593a9295acda15d61cb78fcb5a1c", "is_disabled": 0, "is_reserved": 0, "lat": 38.90681266666667, "name": "6778593a9295acda15d61cb78fcb5a1c", "rental_uris": {"ios": "https://dc.lft.to/lastmile_qr_scan", "android": "https://dc.lft.to/lastmile_qr_scan"}, "type": "electric_scooter", "fusion_lat": 0.0, "lon": -76.98003116666666}, {"fusion_lon": 0.0, "bike_id": "9acaabc099e5751f9fa2d73f5d5229f1", "is_disabled": 0, "is_reserved": 0, "lat": 38.940758833333334, "name": "9acaabc099e5751f9fa2d73f5d5229f1", "rental_uris": {"ios": "https://dc.lft.to/lastmile_qr_scan", "android": "https://dc.lft.to/lastmile_qr_scan"}, "type": "electric_scooter", "fusion_lat": 0.0, "lon": -77.02114116666667}, {"fusion_lon": 0.0, "bike_id": "e7866352fadf56d8df56078de55dfea9", "is_disabled": 0, "is_reserved": 0, "lat": 38.89943233333334, "name": "e7866352fadf56d8df56078de55dfea9", "rental_uris": {"ios": "https://dc.lft.to/lastmile_qr_scan", "android": "https://dc.lft.to/lastmile_qr_scan"}, "type": "electric_scooter", "fusion_lat": 0.0, "lon": -77.04485883333334}, {"fusion_lon": 0.0, "bike_id": "f35ae78758b6daa51eb4d44212a36638", "is_disabled": 0, "is_reserved": 0, "lat": 38.879409833333334, "name": "f35ae78758b6daa51eb4d44212a36638", "rental_uris": {"ios": "https://dc.lft.to/lastmile_qr_scan", "android": "https://dc.lft.to/lastmile_qr_scan"}, "type": "electric_scooter", "fusion_lat": 0.0, "lon": -77.00999383333334}, {"fusion_lon": 0.0, "bike_id": "58642ec880d275a80006812d36c51eb6", "is_disabled": 0, "is_reserved": 0, "lat": 38.87684133333333, "name": "58642ec880d275a80006812d36c51eb6", "rental_uris": {"ios": "https://dc.lft.to/lastmile_qr_scan", "android": "https://dc.lft.to/lastmile_qr_scan"}, "type": "electric_scooter", "fusion_lat": 0.0, "lon": -77.00725283333334}, {"fusion_lon": 0.0, "bike_id": "0e868a40af34e9f801585e7b9fba17ac", "is_disabled": 0, "is_reserved": 0, "lat": 38.878885833333335, "name": "0e868a40af34e9f801585e7b9fba17ac", "rental_uris": {"ios": "https://dc.lft.to/lastmile_qr_scan", "android": "https://dc.lft.to/lastmile_qr_scan"}, "type": "electric_scooter", "fusion_lat": 0.0, "lon": -76.96540533333334}, {"fusion_lon": 0.0, "bike_id": "f81d905b4412928d2d7624e7eb2483d6", "is_disabled": 0, "is_reserved": 0, "lat": 38.918594666666664, "name": "f81d905b4412928d2d7624e7eb2483d6", "rental_uris": {"ios": "https://dc.lft.to/lastmile_qr_scan", "android": "https://dc.lft.to/lastmile_qr_scan"}, "type": "electric_scooter", "fusion_lat": 0.0, "lon": -77.0253555}, {"fusion_lon": 0.0, "bike_id": "d7964089f2efc678729cdb1d8d52ba2e", "is_disabled": 0, "is_reserved": 0, "lat": 38.88520966666667, "name": "d7964089f2efc678729cdb1d8d52ba2e", "rental_uris": {"ios": "https://dc.lft.to/lastmile_qr_scan", "android": "https://dc.lft.to/lastmile_qr_scan"}, "type": "electric_scooter", "fusion_lat": 0.0, "lon": -76.97708516666667}, {"fusion_lon": 0.0, "bike_id": "850cd004a82366c6b9064d6ff7bd4245", "is_disabled": 0, "is_reserved": 0, "lat": 38.919181, "name": "850cd004a82366c6b9064d6ff7bd4245", "rental_uris": {"ios": "https://dc.lft.to/lastmile_qr_scan", "android": "https://dc.lft.to/lastmile_qr_scan"}, "type": "electric_scooter", "fusion_lat": 0.0, "lon": -77.0462235}, {"fusion_lon": 0.0, "bike_id": "608412afa201a50b65d8cb5097356578", "is_disabled": 0, "is_reserved": 0, "lat": 38.92330666666667, "name": "608412afa201a50b65d8cb5097356578", "rental_uris": {"ios": "https://dc.lft.to/lastmile_qr_scan", "android": "https://dc.lft.to/lastmile_qr_scan"}, "type": "electric_scooter", "fusion_lat": 0.0, "lon": -77.0089225}, {"fusion_lon": 0.0, "bike_id": "c93e826d1342501a4f5fb0726447727b", "is_disabled": 0, "is_reserved": 0, "lat": 38.9224275, "name": "c93e826d1342501a4f5fb0726447727b", "rental_uris": {"ios": "https://dc.lft.to/lastmile_qr_scan", "android": "https://dc.lft.to/lastmile_qr_scan"}, "type": "electric_scooter", "fusion_lat": 0.0, "lon": -77.033848}, {"fusion_lon": 0.0, "bike_id": "166c6cdae8a3e3482ba045c56d517b35", "is_disabled": 0, "is_reserved": 0, "lat": 38.90545016666667, "name": "166c6cdae8a3e3482ba045c56d517b35", "rental_uris": {"ios": "https://dc.lft.to/lastmile_qr_scan", "android": "https://dc.lft.to/lastmile_qr_scan"}, "type": "electric_scooter", "fusion_lat": 0.0, "lon": -77.04995133333334}, {"fusion_lon": 0.0, "bike_id": "325a69f09ba99982de3cc7354874b07c", "is_disabled": 0, "is_reserved": 0, "lat": 38.9107115, "name": "325a69f09ba99982de3cc7354874b07c", "rental_uris": {"ios": "https://dc.lft.to/lastmile_qr_scan", "android": "https://dc.lft.to/lastmile_qr_scan"}, "type": "electric_scooter", "fusion_lat": 0.0, "lon": -77.0161285}, {"fusion_lon": 0.0, "bike_id": "cb74849a5d8b30ff8ef68ba62f0b6afe", "is_disabled": 0, "is_reserved": 0, "lat": 38.905065, "name": "cb74849a5d8b30ff8ef68ba62f0b6afe", "rental_uris": {"ios": "https://dc.lft.to/lastmile_qr_scan", "android": "https://dc.lft.to/lastmile_qr_scan"}, "type": "electric_scooter", "fusion_lat": 0.0, "lon": -76.98480416666666}, {"fusion_lon": 0.0, "bike_id": "f7ade91b1fb577f34a8f7fa861ab83b8", "is_disabled": 0, "is_reserved": 0, "lat": 38.8786695, "name": "f7ade91b1fb577f34a8f7fa861ab83b8", "rental_uris": {"ios": "https://dc.lft.to/lastmile_qr_scan", "android": "https://dc.lft.to/lastmile_qr_scan"}, "type": "electric_scooter", "fusion_lat": 0.0, "lon": -77.00711233333334}, {"fusion_lon": 0.0, "bike_id": "fa9641f4e4e86eed55d1aefd2d6fbe9b", "is_disabled": 0, "is_reserved": 0, "lat": 38.927320333333334, "name": "fa9641f4e4e86eed55d1aefd2d6fbe9b", "rental_uris": {"ios": "https://dc.lft.to/lastmile_qr_scan", "android": "https://dc.lft.to/lastmile_qr_scan"}, "type": "electric_scooter", "fusion_lat": 0.0, "lon": -77.03556716666667}, {"fusion_lon": 0.0, "bike_id": "45645ded303af989c0e8c5d901d59530", "is_disabled": 0, "is_reserved": 0, "lat": 38.918253166666666, "name": "45645ded303af989c0e8c5d901d59530", "rental_uris": {"ios": "https://dc.lft.to/lastmile_qr_scan", "android": "https://dc.lft.to/lastmile_qr_scan"}, "type": "electric_scooter", "fusion_lat": 0.0, "lon": -77.04526583333333}, {"fusion_lon": 0.0, "bike_id": "d49a2d8d6cdb1c21d0ebc2fea8bc1c1f", "is_disabled": 0, "is_reserved": 0, "lat": 38.8974595, "name": "d49a2d8d6cdb1c21d0ebc2fea8bc1c1f", "rental_uris": {"ios": "https://dc.lft.to/lastmile_qr_scan", "android": "https://dc.lft.to/lastmile_qr_scan"}, "type": "electric_scooter", "fusion_lat": 0.0, "lon": -77.04866716666666}, {"fusion_lon": 0.0, "bike_id": "3a0854379954932ca27c1a4920bfa505", "is_disabled": 0, "is_reserved": 0, "lat": 38.921019, "name": "3a0854379954932ca27c1a4920bfa505", "rental_uris": {"ios": "https://dc.lft.to/lastmile_qr_scan", "android": "https://dc.lft.to/lastmile_qr_scan"}, "type": "electric_scooter", "fusion_lat": 0.0, "lon": -77.047048}, {"fusion_lon": 0.0, "bike_id": "97a608f49702aac1db0699033ba21b93", "is_disabled": 0, "is_reserved": 0, "lat": 38.9349125, "name": "97a608f49702aac1db0699033ba21b93", "rental_uris": {"ios": "https://dc.lft.to/lastmile_qr_scan", "android": "https://dc.lft.to/lastmile_qr_scan"}, "type": "electric_scooter", "fusion_lat": 0.0, "lon": -77.032771}, {"fusion_lon": 0.0, "bike_id": "6d5ef221b176cca4f4600dfe33af469f", "is_disabled": 0, "is_reserved": 0, "lat": 38.923664, "name": "6d5ef221b176cca4f4600dfe33af469f", "rental_uris": {"ios": "https://dc.lft.to/lastmile_qr_scan", "android": "https://dc.lft.to/lastmile_qr_scan"}, "type": "electric_scooter", "fusion_lat": 0.0, "lon": -77.01953033333334}, {"fusion_lon": 0.0, "bike_id": "880d16b1624e2e497c30cab79f566359", "is_disabled": 0, "is_reserved": 0, "lat": 38.89346833333333, "name": "880d16b1624e2e497c30cab79f566359", "rental_uris": {"ios": "https://dc.lft.to/lastmile_qr_scan", "android": "https://dc.lft.to/lastmile_qr_scan"}, "type": "electric_scooter", "fusion_lat": 0.0, "lon": -77.0419575}, {"fusion_lon": 0.0, "bike_id": "4522c5f9e1f9a3fb6f9a359be4f933db", "is_disabled": 0, "is_reserved": 0, "lat": 38.937365, "name": "4522c5f9e1f9a3fb6f9a359be4f933db", "rental_uris": {"ios": "https://dc.lft.to/lastmile_qr_scan", "android": "https://dc.lft.to/lastmile_qr_scan"}, "type": "electric_scooter", "fusion_lat": 0.0, "lon": -77.03254733333333}, {"fusion_lon": 0.0, "bike_id": "8e4da384edbc1515954efc722ee0723b", "is_disabled": 0, "is_reserved": 0, "lat": 38.894203833333336, "name": "8e4da384edbc1515954efc722ee0723b", "rental_uris": {"ios": "https://dc.lft.to/lastmile_qr_scan", "android": "https://dc.lft.to/lastmile_qr_scan"}, "type": "electric_scooter", "fusion_lat": 0.0, "lon": -77.04488883333333}, {"fusion_lon": 0.0, "bike_id": "f521501a89077270a68937e81dd1c467", "is_disabled": 0, "is_reserved": 0, "lat": 38.9234155, "name": "f521501a89077270a68937e81dd1c467", "rental_uris": {"ios": "https://dc.lft.to/lastmile_qr_scan", "android": "https://dc.lft.to/lastmile_qr_scan"}, "type": "electric_scooter", "fusion_lat": 0.0, "lon": -77.04387583333333}, {"fusion_lon": 0.0, "bike_id": "b6d50d5e54688800e800bcd53c8da584", "is_disabled": 0, "is_reserved": 0, "lat": 38.90021316666667, "name": "b6d50d5e54688800e800bcd53c8da584", "rental_uris": {"ios": "https://dc.lft.to/lastmile_qr_scan", "android": "https://dc.lft.to/lastmile_qr_scan"}, "type": "electric_scooter", "fusion_lat": 0.0, "lon": -77.00194633333334}, {"fusion_lon": 0.0, "bike_id": "d8faa3be7b3c576190c66ae84f08d598", "is_disabled": 0, "is_reserved": 0, "lat": 38.92791066666667, "name": "d8faa3be7b3c576190c66ae84f08d598", "rental_uris": {"ios": "https://dc.lft.to/lastmile_qr_scan", "android": "https://dc.lft.to/lastmile_qr_scan"}, "type": "electric_scooter", "fusion_lat": 0.0, "lon": -77.0315125}, {"fusion_lon": 0.0, "bike_id": "baeb4ea40cb5f9e7713d72ecbde195ef", "is_disabled": 0, "is_reserved": 0, "lat": 38.898675833333336, "name": "baeb4ea40cb5f9e7713d72ecbde195ef", "rental_uris": {"ios": "https://dc.lft.to/lastmile_qr_scan", "android": "https://dc.lft.to/lastmile_qr_scan"}, "type": "electric_scooter", "fusion_lat": 0.0, "lon": -77.0464905}, {"fusion_lon": 0.0, "bike_id": "16363a92fefc1ec80b9ebeb20973b312", "is_disabled": 0, "is_reserved": 0, "lat": 38.94197916666667, "name": "16363a92fefc1ec80b9ebeb20973b312", "rental_uris": {"ios": "https://dc.lft.to/lastmile_qr_scan", "android": "https://dc.lft.to/lastmile_qr_scan"}, "type": "electric_scooter", "fusion_lat": 0.0, "lon": -77.02848666666667}, {"fusion_lon": 0.0, "bike_id": "33a7347a087ebffba0627b03d64366f0", "is_disabled": 0, "is_reserved": 0, "lat": 38.91816266666667, "name": "33a7347a087ebffba0627b03d64366f0", "rental_uris": {"ios": "https://dc.lft.to/lastmile_qr_scan", "android": "https://dc.lft.to/lastmile_qr_scan"}, "type": "electric_scooter", "fusion_lat": 0.0, "lon": -77.02939933333333}, {"fusion_lon": 0.0, "bike_id": "8eb926b6f16315fe5cbb0604e8e4e549", "is_disabled": 0, "is_reserved": 0, "lat": 38.916618, "name": "8eb926b6f16315fe5cbb0604e8e4e549", "rental_uris": {"ios": "https://dc.lft.to/lastmile_qr_scan", "android": "https://dc.lft.to/lastmile_qr_scan"}, "type": "electric_scooter", "fusion_lat": 0.0, "lon": -77.038519}, {"fusion_lon": 0.0, "bike_id": "8bac1f6f70dcdf8ccb12649ff269ba29", "is_disabled": 0, "is_reserved": 0, "lat": 38.94368383333333, "name": "8bac1f6f70dcdf8ccb12649ff269ba29", "rental_uris": {"ios": "https://dc.lft.to/lastmile_qr_scan", "android": "https://dc.lft.to/lastmile_qr_scan"}, "type": "electric_bike", "fusion_lat": 0.0, "lon": -77.063511}, {"fusion_lon": 0.0, "bike_id": "a24c872409f4257fd5da5b7c37e75dd5", "is_disabled": 0, "is_reserved": 0, "lat": 38.90861316666667, "name": "a24c872409f4257fd5da5b7c37e75dd5", "rental_uris": {"ios": "https://dc.lft.to/lastmile_qr_scan", "android": "https://dc.lft.to/lastmile_qr_scan"}, "type": "electric_scooter", "fusion_lat": 0.0, "lon": -76.999506}, {"fusion_lon": 0.0, "bike_id": "58b9fdc27e7dd3354b02c61f289a493e", "is_disabled": 0, "is_reserved": 0, "lat": 38.92634133333333, "name": "58b9fdc27e7dd3354b02c61f289a493e", "rental_uris": {"ios": "https://dc.lft.to/lastmile_qr_scan", "android": "https://dc.lft.to/lastmile_qr_scan"}, "type": "electric_scooter", "fusion_lat": 0.0, "lon": -77.0393595}, {"fusion_lon": 0.0, "bike_id": "e967ba30f43b846e88ad0764cd413b6d", "is_disabled": 0, "is_reserved": 0, "lat": 38.92427833333333, "name": "e967ba30f43b846e88ad0764cd413b6d", "rental_uris": {"ios": "https://dc.lft.to/lastmile_qr_scan", "android": "https://dc.lft.to/lastmile_qr_scan"}, "type": "electric_scooter", "fusion_lat": 0.0, "lon": -77.04016916666667}, {"fusion_lon": 0.0, "bike_id": "0e74ba5f2e7bb4fe1cf90268a96ee6d0", "is_disabled": 0, "is_reserved": 0, "lat": 38.9416405, "name": "0e74ba5f2e7bb4fe1cf90268a96ee6d0", "rental_uris": {"ios": "https://dc.lft.to/lastmile_qr_scan", "android": "https://dc.lft.to/lastmile_qr_scan"}, "type": "electric_scooter", "fusion_lat": 0.0, "lon": -77.025592}, {"fusion_lon": 0.0, "bike_id": "a2b78b45fa9847cf97a400b49e834a36", "is_disabled": 0, "is_reserved": 0, "lat": 38.924704166666665, "name": "a2b78b45fa9847cf97a400b49e834a36", "rental_uris": {"ios": "https://dc.lft.to/lastmile_qr_scan", "android": "https://dc.lft.to/lastmile_qr_scan"}, "type": "electric_scooter", "fusion_lat": 0.0, "lon": -77.03544166666667}, {"fusion_lon": 0.0, "bike_id": "fa4981383f97cbfa99b09acaf511fdd9", "is_disabled": 0, "is_reserved": 0, "lat": 38.9079995, "name": "fa4981383f97cbfa99b09acaf511fdd9", "rental_uris": {"ios": "https://dc.lft.to/lastmile_qr_scan", "android": "https://dc.lft.to/lastmile_qr_scan"}, "type": "electric_scooter", "fusion_lat": 0.0, "lon": -77.04327616666667}, {"fusion_lon": 0.0, "bike_id": "d27b6955adf3a0349bb03e4f531b4cde", "is_disabled": 0, "is_reserved": 0, "lat": 38.916199166666665, "name": "d27b6955adf3a0349bb03e4f531b4cde", "rental_uris": {"ios": "https://dc.lft.to/lastmile_qr_scan", "android": "https://dc.lft.to/lastmile_qr_scan"}, "type": "electric_bike", "fusion_lat": 0.0, "lon": -77.00925466666666}, {"fusion_lon": 0.0, "bike_id": "727f018b50c7e9cbd32f3cdd14b0995d", "is_disabled": 0, "is_reserved": 0, "lat": 38.918386, "name": "727f018b50c7e9cbd32f3cdd14b0995d", "rental_uris": {"ios": "https://dc.lft.to/lastmile_qr_scan", "android": "https://dc.lft.to/lastmile_qr_scan"}, "type": "electric_scooter", "fusion_lat": 0.0, "lon": -77.045251}, {"fusion_lon": 0.0, "bike_id": "dd4c156acdd2b1444772432843a4558d", "is_disabled": 0, "is_reserved": 0, "lat": 38.914161166666666, "name": "dd4c156acdd2b1444772432843a4558d", "rental_uris": {"ios": "https://dc.lft.to/lastmile_qr_scan", "android": "https://dc.lft.to/lastmile_qr_scan"}, "type": "electric_scooter", "fusion_lat": 0.0, "lon": -77.0221305}, {"fusion_lon": 0.0, "bike_id": "086a95e9c88755e2125d79c173b1fd02", "is_disabled": 0, "is_reserved": 0, "lat": 38.902783, "name": "086a95e9c88755e2125d79c173b1fd02", "rental_uris": {"ios": "https://dc.lft.to/lastmile_qr_scan", "android": "https://dc.lft.to/lastmile_qr_scan"}, "type": "electric_scooter", "fusion_lat": 0.0, "lon": -77.05183483333333}, {"fusion_lon": 0.0, "bike_id": "e901980b7f8a40377e02217c06117262", "is_disabled": 0, "is_reserved": 0, "lat": 38.923594, "name": "e901980b7f8a40377e02217c06117262", "rental_uris": {"ios": "https://dc.lft.to/lastmile_qr_scan", "android": "https://dc.lft.to/lastmile_qr_scan"}, "type": "electric_scooter", "fusion_lat": 0.0, "lon": -77.02057766666667}, {"fusion_lon": 0.0, "bike_id": "9fc6a5058efb3a7e6a9cd3bcff6e975e", "is_disabled": 0, "is_reserved": 0, "lat": 38.915626, "name": "9fc6a5058efb3a7e6a9cd3bcff6e975e", "rental_uris": {"ios": "https://dc.lft.to/lastmile_qr_scan", "android": "https://dc.lft.to/lastmile_qr_scan"}, "type": "electric_scooter", "fusion_lat": 0.0, "lon": -77.038047}, {"fusion_lon": 0.0, "bike_id": "d8aaf413bfa565a72d4f291006a7382d", "is_disabled": 0, "is_reserved": 0, "lat": 38.896186, "name": "d8aaf413bfa565a72d4f291006a7382d", "rental_uris": {"ios": "https://dc.lft.to/lastmile_qr_scan", "android": "https://dc.lft.to/lastmile_qr_scan"}, "type": "electric_scooter", "fusion_lat": 0.0, "lon": -77.02576066666667}, {"fusion_lon": 0.0, "bike_id": "cdaab5a11918f89909f50b93d6f0df0f", "is_disabled": 0, "is_reserved": 0, "lat": 38.90077383333333, "name": "cdaab5a11918f89909f50b93d6f0df0f", "rental_uris": {"ios": "https://dc.lft.to/lastmile_qr_scan", "android": "https://dc.lft.to/lastmile_qr_scan"}, "type": "electric_scooter", "fusion_lat": 0.0, "lon": -77.02689416666666}, {"fusion_lon": 0.0, "bike_id": "c49481472ece6be008157956080cad93", "is_disabled": 0, "is_reserved": 0, "lat": 38.91266316666667, "name": "c49481472ece6be008157956080cad93", "rental_uris": {"ios": "https://dc.lft.to/lastmile_qr_scan", "android": "https://dc.lft.to/lastmile_qr_scan"}, "type": "electric_scooter", "fusion_lat": 0.0, "lon": -77.02226416666667}, {"fusion_lon": 0.0, "bike_id": "96eed745714dad2efc6ff71ff388983b", "is_disabled": 0, "is_reserved": 0, "lat": 38.90200516666667, "name": "96eed745714dad2efc6ff71ff388983b", "rental_uris": {"ios": "https://dc.lft.to/lastmile_qr_scan", "android": "https://dc.lft.to/lastmile_qr_scan"}, "type": "electric_scooter", "fusion_lat": 0.0, "lon": -77.02185583333333}, {"fusion_lon": 0.0, "bike_id": "068318b57b7bb7ed8c1390f115cca9f5", "is_disabled": 0, "is_reserved": 0, "lat": 38.924105, "name": "068318b57b7bb7ed8c1390f115cca9f5", "rental_uris": {"ios": "https://dc.lft.to/lastmile_qr_scan", "android": "https://dc.lft.to/lastmile_qr_scan"}, "type": "electric_scooter", "fusion_lat": 0.0, "lon": -77.0272225}, {"fusion_lon": 0.0, "bike_id": "dbfb5cf47a623ee493ca1e5769d7b320", "is_disabled": 0, "is_reserved": 0, "lat": 38.91404433333334, "name": "dbfb5cf47a623ee493ca1e5769d7b320", "rental_uris": {"ios": "https://dc.lft.to/lastmile_qr_scan", "android": "https://dc.lft.to/lastmile_qr_scan"}, "type": "electric_scooter", "fusion_lat": 0.0, "lon": -77.03217883333333}, {"fusion_lon": 0.0, "bike_id": "2f221eb4b91c0309c56ecd387f896a3b", "is_disabled": 0, "is_reserved": 0, "lat": 38.92360683333333, "name": "2f221eb4b91c0309c56ecd387f896a3b", "rental_uris": {"ios": "https://dc.lft.to/lastmile_qr_scan", "android": "https://dc.lft.to/lastmile_qr_scan"}, "type": "electric_scooter", "fusion_lat": 0.0, "lon": -77.02054683333333}, {"fusion_lon": 0.0, "bike_id": "ed8798cd78241f77e87a1431ed24280a", "is_disabled": 0, "is_reserved": 0, "lat": 38.90025833333333, "name": "ed8798cd78241f77e87a1431ed24280a", "rental_uris": {"ios": "https://dc.lft.to/lastmile_qr_scan", "android": "https://dc.lft.to/lastmile_qr_scan"}, "type": "electric_scooter", "fusion_lat": 0.0, "lon": -76.98847616666667}, {"fusion_lon": 0.0, "bike_id": "435bfc16fb7ec054cd7b95ab6cbecd41", "is_disabled": 0, "is_reserved": 0, "lat": 38.920572, "name": "435bfc16fb7ec054cd7b95ab6cbecd41", "rental_uris": {"ios": "https://dc.lft.to/lastmile_qr_scan", "android": "https://dc.lft.to/lastmile_qr_scan"}, "type": "electric_scooter", "fusion_lat": 0.0, "lon": -76.9988345}, {"fusion_lon": 0.0, "bike_id": "c438bb2794e08f65d3951cdfbdb302bc", "is_disabled": 0, "is_reserved": 0, "lat": 38.92445383333333, "name": "c438bb2794e08f65d3951cdfbdb302bc", "rental_uris": {"ios": "https://dc.lft.to/lastmile_qr_scan", "android": "https://dc.lft.to/lastmile_qr_scan"}, "type": "electric_scooter", "fusion_lat": 0.0, "lon": -77.0215655}, {"fusion_lon": 0.0, "bike_id": "e134214b92639ce9410df546be8c8f02", "is_disabled": 0, "is_reserved": 0, "lat": 38.91175, "name": "e134214b92639ce9410df546be8c8f02", "rental_uris": {"ios": "https://dc.lft.to/lastmile_qr_scan", "android": "https://dc.lft.to/lastmile_qr_scan"}, "type": "electric_scooter", "fusion_lat": 0.0, "lon": -77.0295325}, {"fusion_lon": 0.0, "bike_id": "3056ee9920ff8401becf8b79b32af677", "is_disabled": 0, "is_reserved": 0, "lat": 38.910377833333335, "name": "3056ee9920ff8401becf8b79b32af677", "rental_uris": {"ios": "https://dc.lft.to/lastmile_qr_scan", "android": "https://dc.lft.to/lastmile_qr_scan"}, "type": "electric_scooter", "fusion_lat": 0.0, "lon": -77.013838}, {"fusion_lon": 0.0, "bike_id": "54045e02f2e3222d56d7fcfa229181d3", "is_disabled": 0, "is_reserved": 0, "lat": 38.919375333333335, "name": "54045e02f2e3222d56d7fcfa229181d3", "rental_uris": {"ios": "https://dc.lft.to/lastmile_qr_scan", "android": "https://dc.lft.to/lastmile_qr_scan"}, "type": "electric_scooter", "fusion_lat": 0.0, "lon": -77.04795833333333}, {"fusion_lon": 0.0, "bike_id": "3118e03814b27f96b4f576b330635273", "is_disabled": 0, "is_reserved": 0, "lat": 38.902697, "name": "3118e03814b27f96b4f576b330635273", "rental_uris": {"ios": "https://dc.lft.to/lastmile_qr_scan", "android": "https://dc.lft.to/lastmile_qr_scan"}, "type": "electric_scooter", "fusion_lat": 0.0, "lon": -77.01763933333334}, {"fusion_lon": 0.0, "bike_id": "8d78cb8239ebdc6fcedc9edea8183bed", "is_disabled": 0, "is_reserved": 0, "lat": 38.909541, "name": "8d78cb8239ebdc6fcedc9edea8183bed", "rental_uris": {"ios": "https://dc.lft.to/lastmile_qr_scan", "android": "https://dc.lft.to/lastmile_qr_scan"}, "type": "electric_scooter", "fusion_lat": 0.0, "lon": -77.01273183333333}, {"fusion_lon": 0.0, "bike_id": "9dd15427c049f38111faffe8ebb0a428", "is_disabled": 0, "is_reserved": 0, "lat": 38.8380925, "name": "9dd15427c049f38111faffe8ebb0a428", "rental_uris": {"ios": "https://dc.lft.to/lastmile_qr_scan", "android": "https://dc.lft.to/lastmile_qr_scan"}, "type": "electric_bike", "fusion_lat": 0.0, "lon": -77.09522466666667}, {"fusion_lon": 0.0, "bike_id": "0bda5adcd19dba8f77d4973bce94231e", "is_disabled": 0, "is_reserved": 0, "lat": 38.911068666666665, "name": "0bda5adcd19dba8f77d4973bce94231e", "rental_uris": {"ios": "https://dc.lft.to/lastmile_qr_scan", "android": "https://dc.lft.to/lastmile_qr_scan"}, "type": "electric_scooter", "fusion_lat": 0.0, "lon": -77.02098733333334}, {"fusion_lon": 0.0, "bike_id": "4d2a12a8b2952ecd475aa58032c41f13", "is_disabled": 0, "is_reserved": 0, "lat": 38.931008166666665, "name": "4d2a12a8b2952ecd475aa58032c41f13", "rental_uris": {"ios": "https://dc.lft.to/lastmile_qr_scan", "android": "https://dc.lft.to/lastmile_qr_scan"}, "type": "electric_scooter", "fusion_lat": 0.0, "lon": -77.02664166666666}, {"fusion_lon": 0.0, "bike_id": "9d43ac7bca89d750648d8958b05e4735", "is_disabled": 0, "is_reserved": 0, "lat": 38.9242715, "name": "9d43ac7bca89d750648d8958b05e4735", "rental_uris": {"ios": "https://dc.lft.to/lastmile_qr_scan", "android": "https://dc.lft.to/lastmile_qr_scan"}, "type": "electric_scooter", "fusion_lat": 0.0, "lon": -77.04044283333333}, {"fusion_lon": 0.0, "bike_id": "11fd3b603876c06df62e639d770c3b99", "is_disabled": 0, "is_reserved": 0, "lat": 38.9197795, "name": "11fd3b603876c06df62e639d770c3b99", "rental_uris": {"ios": "https://dc.lft.to/lastmile_qr_scan", "android": "https://dc.lft.to/lastmile_qr_scan"}, "type": "electric_scooter", "fusion_lat": 0.0, "lon": -77.02367783333334}, {"fusion_lon": 0.0, "bike_id": "e823f927bb6d8a432065123f07712065", "is_disabled": 0, "is_reserved": 0, "lat": 38.8959995, "name": "e823f927bb6d8a432065123f07712065", "rental_uris": {"ios": "https://dc.lft.to/lastmile_qr_scan", "android": "https://dc.lft.to/lastmile_qr_scan"}, "type": "electric_scooter", "fusion_lat": 0.0, "lon": -77.02204183333333}, {"fusion_lon": 0.0, "bike_id": "ecfac08559f998a688e82d7f6967ce0c", "is_disabled": 0, "is_reserved": 0, "lat": 38.906003, "name": "ecfac08559f998a688e82d7f6967ce0c", "rental_uris": {"ios": "https://dc.lft.to/lastmile_qr_scan", "android": "https://dc.lft.to/lastmile_qr_scan"}, "type": "electric_scooter", "fusion_lat": 0.0, "lon": -77.07387766666666}, {"fusion_lon": 0.0, "bike_id": "5cc2d36ddbbd304dac64e790a9e28b2f", "is_disabled": 0, "is_reserved": 0, "lat": 38.888721, "name": "5cc2d36ddbbd304dac64e790a9e28b2f", "rental_uris": {"ios": "https://dc.lft.to/lastmile_qr_scan", "android": "https://dc.lft.to/lastmile_qr_scan"}, "type": "electric_scooter", "fusion_lat": 0.0, "lon": -77.001774}, {"fusion_lon": 0.0, "bike_id": "617b89f38b05970229a13b2d57595271", "is_disabled": 0, "is_reserved": 0, "lat": 38.912688, "name": "617b89f38b05970229a13b2d57595271", "rental_uris": {"ios": "https://dc.lft.to/lastmile_qr_scan", "android": "https://dc.lft.to/lastmile_qr_scan"}, "type": "electric_scooter", "fusion_lat": 0.0, "lon": -77.0387735}, {"fusion_lon": 0.0, "bike_id": "0d5535861579f519a41ecb77e5d78908", "is_disabled": 0, "is_reserved": 0, "lat": 38.8974145, "name": "0d5535861579f519a41ecb77e5d78908", "rental_uris": {"ios": "https://dc.lft.to/lastmile_qr_scan", "android": "https://dc.lft.to/lastmile_qr_scan"}, "type": "electric_scooter", "fusion_lat": 0.0, "lon": -77.04950383333333}, {"fusion_lon": 0.0, "bike_id": "3957108859adb859b3aebe5481e2d23c", "is_disabled": 0, "is_reserved": 0, "lat": 38.86936083333333, "name": "3957108859adb859b3aebe5481e2d23c", "rental_uris": {"ios": "https://dc.lft.to/lastmile_qr_scan", "android": "https://dc.lft.to/lastmile_qr_scan"}, "type": "electric_scooter", "fusion_lat": 0.0, "lon": -76.97743416666667}, {"fusion_lon": 0.0, "bike_id": "2c065726fa21e1896d4d16cb5b5aa657", "is_disabled": 0, "is_reserved": 0, "lat": 38.90612516666667, "name": "2c065726fa21e1896d4d16cb5b5aa657", "rental_uris": {"ios": "https://dc.lft.to/lastmile_qr_scan", "android": "https://dc.lft.to/lastmile_qr_scan"}, "type": "electric_scooter", "fusion_lat": 0.0, "lon": -77.056489}, {"fusion_lon": 0.0, "bike_id": "512642fe2abc204325dbeef4d472c787", "is_disabled": 0, "is_reserved": 0, "lat": 38.924667, "name": "512642fe2abc204325dbeef4d472c787", "rental_uris": {"ios": "https://dc.lft.to/lastmile_qr_scan", "android": "https://dc.lft.to/lastmile_qr_scan"}, "type": "electric_scooter", "fusion_lat": 0.0, "lon": -77.03285683333333}, {"fusion_lon": 0.0, "bike_id": "5239fa5a0ffcea3e1efee321e0810b12", "is_disabled": 0, "is_reserved": 0, "lat": 38.877913666666664, "name": "5239fa5a0ffcea3e1efee321e0810b12", "rental_uris": {"ios": "https://dc.lft.to/lastmile_qr_scan", "android": "https://dc.lft.to/lastmile_qr_scan"}, "type": "electric_scooter", "fusion_lat": 0.0, "lon": -77.00121616666667}, {"fusion_lon": 0.0, "bike_id": "339e5b229336bdd863219e1e6400e037", "is_disabled": 0, "is_reserved": 0, "lat": 38.91478133333333, "name": "339e5b229336bdd863219e1e6400e037", "rental_uris": {"ios": "https://dc.lft.to/lastmile_qr_scan", "android": "https://dc.lft.to/lastmile_qr_scan"}, "type": "electric_scooter", "fusion_lat": 0.0, "lon": -77.0365745}, {"fusion_lon": 0.0, "bike_id": "96910b4a37d20b21dd521b44d3b4ff99", "is_disabled": 0, "is_reserved": 0, "lat": 38.92413483333333, "name": "96910b4a37d20b21dd521b44d3b4ff99", "rental_uris": {"ios": "https://dc.lft.to/lastmile_qr_scan", "android": "https://dc.lft.to/lastmile_qr_scan"}, "type": "electric_scooter", "fusion_lat": 0.0, "lon": -77.02009533333333}, {"fusion_lon": 0.0, "bike_id": "ddfccd259a15dd9db9b5dbe168935603", "is_disabled": 0, "is_reserved": 0, "lat": 38.91188866666667, "name": "ddfccd259a15dd9db9b5dbe168935603", "rental_uris": {"ios": "https://dc.lft.to/lastmile_qr_scan", "android": "https://dc.lft.to/lastmile_qr_scan"}, "type": "electric_scooter", "fusion_lat": 0.0, "lon": -77.04042066666666}, {"fusion_lon": 0.0, "bike_id": "ba72d1e5ab5d1a881cfadd057156c751", "is_disabled": 0, "is_reserved": 0, "lat": 38.8974935, "name": "ba72d1e5ab5d1a881cfadd057156c751", "rental_uris": {"ios": "https://dc.lft.to/lastmile_qr_scan", "android": "https://dc.lft.to/lastmile_qr_scan"}, "type": "electric_scooter", "fusion_lat": 0.0, "lon": -77.02690283333334}, {"fusion_lon": 0.0, "bike_id": "9566fee8d6362e6769e734d0a4f69c77", "is_disabled": 0, "is_reserved": 0, "lat": 38.921601333333335, "name": "9566fee8d6362e6769e734d0a4f69c77", "rental_uris": {"ios": "https://dc.lft.to/lastmile_qr_scan", "android": "https://dc.lft.to/lastmile_qr_scan"}, "type": "electric_scooter", "fusion_lat": 0.0, "lon": -77.04356116666666}, {"fusion_lon": 0.0, "bike_id": "9d6fdf0198ee28ae4c356d6b5c4e3518", "is_disabled": 0, "is_reserved": 0, "lat": 38.93403083333333, "name": "9d6fdf0198ee28ae4c356d6b5c4e3518", "rental_uris": {"ios": "https://dc.lft.to/lastmile_qr_scan", "android": "https://dc.lft.to/lastmile_qr_scan"}, "type": "electric_scooter", "fusion_lat": 0.0, "lon": -77.04540966666667}, {"fusion_lon": 0.0, "bike_id": "ff88d2407e15e1980f17331fba18eb0f", "is_disabled": 0, "is_reserved": 0, "lat": 38.920491, "name": "ff88d2407e15e1980f17331fba18eb0f", "rental_uris": {"ios": "https://dc.lft.to/lastmile_qr_scan", "android": "https://dc.lft.to/lastmile_qr_scan"}, "type": "electric_scooter", "fusion_lat": 0.0, "lon": -77.0418745}, {"fusion_lon": 0.0, "bike_id": "41c5e4ad9a08753193f44fbf8df4b0bc", "is_disabled": 0, "is_reserved": 0, "lat": 38.918259, "name": "41c5e4ad9a08753193f44fbf8df4b0bc", "rental_uris": {"ios": "https://dc.lft.to/lastmile_qr_scan", "android": "https://dc.lft.to/lastmile_qr_scan"}, "type": "electric_scooter", "fusion_lat": 0.0, "lon": -77.02935733333334}, {"fusion_lon": 0.0, "bike_id": "f1df2d943f97e5f30ca5fdaf57381585", "is_disabled": 0, "is_reserved": 0, "lat": 38.917018666666664, "name": "f1df2d943f97e5f30ca5fdaf57381585", "rental_uris": {"ios": "https://dc.lft.to/lastmile_qr_scan", "android": "https://dc.lft.to/lastmile_qr_scan"}, "type": "electric_scooter", "fusion_lat": 0.0, "lon": -77.0104025}, {"fusion_lon": 0.0, "bike_id": "efd8a2382641a23793856b3c0c986322", "is_disabled": 0, "is_reserved": 0, "lat": 38.91764283333333, "name": "efd8a2382641a23793856b3c0c986322", "rental_uris": {"ios": "https://dc.lft.to/lastmile_qr_scan", "android": "https://dc.lft.to/lastmile_qr_scan"}, "type": "electric_bike", "fusion_lat": 0.0, "lon": -76.88443433333333}, {"fusion_lon": 0.0, "bike_id": "c8f9b11f743342e42b6ec1fc37b74172", "is_disabled": 0, "is_reserved": 0, "lat": 38.913554166666664, "name": "c8f9b11f743342e42b6ec1fc37b74172", "rental_uris": {"ios": "https://dc.lft.to/lastmile_qr_scan", "android": "https://dc.lft.to/lastmile_qr_scan"}, "type": "electric_scooter", "fusion_lat": 0.0, "lon": -76.97141783333333}, {"fusion_lon": 0.0, "bike_id": "3f48abd18441dc29b079352fa09b1eb4", "is_disabled": 0, "is_reserved": 0, "lat": 38.903617833333335, "name": "3f48abd18441dc29b079352fa09b1eb4", "rental_uris": {"ios": "https://dc.lft.to/lastmile_qr_scan", "android": "https://dc.lft.to/lastmile_qr_scan"}, "type": "electric_scooter", "fusion_lat": 0.0, "lon": -77.06007}, {"fusion_lon": 0.0, "bike_id": "40bb31a21ccbb8a9be4bf437b73f2bc8", "is_disabled": 0, "is_reserved": 0, "lat": 38.900580166666664, "name": "40bb31a21ccbb8a9be4bf437b73f2bc8", "rental_uris": {"ios": "https://dc.lft.to/lastmile_qr_scan", "android": "https://dc.lft.to/lastmile_qr_scan"}, "type": "electric_scooter", "fusion_lat": 0.0, "lon": -76.9871095}, {"fusion_lon": 0.0, "bike_id": "26242e78aa8bae43636f99f03288c1d2", "is_disabled": 0, "is_reserved": 0, "lat": 38.924661666666665, "name": "26242e78aa8bae43636f99f03288c1d2", "rental_uris": {"ios": "https://dc.lft.to/lastmile_qr_scan", "android": "https://dc.lft.to/lastmile_qr_scan"}, "type": "electric_scooter", "fusion_lat": 0.0, "lon": -77.02242933333333}, {"fusion_lon": 0.0, "bike_id": "3e7b0e5e62a38001e865f1066b618f81", "is_disabled": 0, "is_reserved": 0, "lat": 38.917037, "name": "3e7b0e5e62a38001e865f1066b618f81", "rental_uris": {"ios": "https://dc.lft.to/lastmile_qr_scan", "android": "https://dc.lft.to/lastmile_qr_scan"}, "type": "electric_scooter", "fusion_lat": 0.0, "lon": -77.02410616666667}, {"fusion_lon": 0.0, "bike_id": "924217b5f65fbbfe935df5bfe35af6a4", "is_disabled": 0, "is_reserved": 0, "lat": 38.932032166666666, "name": "924217b5f65fbbfe935df5bfe35af6a4", "rental_uris": {"ios": "https://dc.lft.to/lastmile_qr_scan", "android": "https://dc.lft.to/lastmile_qr_scan"}, "type": "electric_bike", "fusion_lat": 0.0, "lon": -76.97423683333334}, {"fusion_lon": 0.0, "bike_id": "ee74edbf740b2768d63250c70e7c182f", "is_disabled": 0, "is_reserved": 0, "lat": 38.89396983333334, "name": "ee74edbf740b2768d63250c70e7c182f", "rental_uris": {"ios": "https://dc.lft.to/lastmile_qr_scan", "android": "https://dc.lft.to/lastmile_qr_scan"}, "type": "electric_scooter", "fusion_lat": 0.0, "lon": -76.9781875}, {"fusion_lon": 0.0, "bike_id": "bb4c8202344701915955fd317dc043fe", "is_disabled": 0, "is_reserved": 0, "lat": 38.87630033333333, "name": "bb4c8202344701915955fd317dc043fe", "rental_uris": {"ios": "https://dc.lft.to/lastmile_qr_scan", "android": "https://dc.lft.to/lastmile_qr_scan"}, "type": "electric_scooter", "fusion_lat": 0.0, "lon": -77.00601883333333}, {"fusion_lon": 0.0, "bike_id": "89632c360eab3f3900539b8dfc69a85c", "is_disabled": 0, "is_reserved": 0, "lat": 38.896319166666665, "name": "89632c360eab3f3900539b8dfc69a85c", "rental_uris": {"ios": "https://dc.lft.to/lastmile_qr_scan", "android": "https://dc.lft.to/lastmile_qr_scan"}, "type": "electric_scooter", "fusion_lat": 0.0, "lon": -77.0286055}, {"fusion_lon": 0.0, "bike_id": "e43c52d8a393e4f91e5649bfdde1f939", "is_disabled": 0, "is_reserved": 0, "lat": 38.87699666666666, "name": "e43c52d8a393e4f91e5649bfdde1f939", "rental_uris": {"ios": "https://dc.lft.to/lastmile_qr_scan", "android": "https://dc.lft.to/lastmile_qr_scan"}, "type": "electric_scooter", "fusion_lat": 0.0, "lon": -77.00176666666667}, {"fusion_lon": 0.0, "bike_id": "cf6b95499107fd512fed1f1e4592446b", "is_disabled": 0, "is_reserved": 0, "lat": 38.80975266666667, "name": "cf6b95499107fd512fed1f1e4592446b", "rental_uris": {"ios": "https://dc.lft.to/lastmile_qr_scan", "android": "https://dc.lft.to/lastmile_qr_scan"}, "type": "electric_bike", "fusion_lat": 0.0, "lon": -77.07657116666667}, {"fusion_lon": 0.0, "bike_id": "9eb909540112e84d2a531850d3a28198", "is_disabled": 0, "is_reserved": 0, "lat": 38.9059595, "name": "9eb909540112e84d2a531850d3a28198", "rental_uris": {"ios": "https://dc.lft.to/lastmile_qr_scan", "android": "https://dc.lft.to/lastmile_qr_scan"}, "type": "electric_scooter", "fusion_lat": 0.0, "lon": -77.06608733333333}, {"fusion_lon": 0.0, "bike_id": "ddc2d33f409d00cbc8a8f4f4e258947b", "is_disabled": 0, "is_reserved": 0, "lat": 38.90006316666667, "name": "ddc2d33f409d00cbc8a8f4f4e258947b", "rental_uris": {"ios": "https://dc.lft.to/lastmile_qr_scan", "android": "https://dc.lft.to/lastmile_qr_scan"}, "type": "electric_scooter", "fusion_lat": 0.0, "lon": -77.02693133333334}, {"fusion_lon": 0.0, "bike_id": "57246fdc4f77984ed57718d450662274", "is_disabled": 0, "is_reserved": 0, "lat": 38.924084, "name": "57246fdc4f77984ed57718d450662274", "rental_uris": {"ios": "https://dc.lft.to/lastmile_qr_scan", "android": "https://dc.lft.to/lastmile_qr_scan"}, "type": "electric_scooter", "fusion_lat": 0.0, "lon": -77.02132266666666}, {"fusion_lon": 0.0, "bike_id": "7c2e89d571bc6c9933b1db28b7ce25d6", "is_disabled": 0, "is_reserved": 0, "lat": 38.9396105, "name": "7c2e89d571bc6c9933b1db28b7ce25d6", "rental_uris": {"ios": "https://dc.lft.to/lastmile_qr_scan", "android": "https://dc.lft.to/lastmile_qr_scan"}, "type": "electric_bike", "fusion_lat": 0.0, "lon": -76.99129983333333}, {"fusion_lon": 0.0, "bike_id": "b78a2c29b04004bf7bebdc8d83d7c09f", "is_disabled": 0, "is_reserved": 0, "lat": 38.9265535, "name": "b78a2c29b04004bf7bebdc8d83d7c09f", "rental_uris": {"ios": "https://dc.lft.to/lastmile_qr_scan", "android": "https://dc.lft.to/lastmile_qr_scan"}, "type": "electric_scooter", "fusion_lat": 0.0, "lon": -77.038506}, {"fusion_lon": 0.0, "bike_id": "a27f9bfdb6a94372e58612ab68451970", "is_disabled": 0, "is_reserved": 0, "lat": 38.89815633333333, "name": "a27f9bfdb6a94372e58612ab68451970", "rental_uris": {"ios": "https://dc.lft.to/lastmile_qr_scan", "android": "https://dc.lft.to/lastmile_qr_scan"}, "type": "electric_scooter", "fusion_lat": 0.0, "lon": -77.01269516666666}, {"fusion_lon": 0.0, "bike_id": "1b56021d740e57f6c1fc59ce914cdccf", "is_disabled": 0, "is_reserved": 0, "lat": 38.9198865, "name": "1b56021d740e57f6c1fc59ce914cdccf", "rental_uris": {"ios": "https://dc.lft.to/lastmile_qr_scan", "android": "https://dc.lft.to/lastmile_qr_scan"}, "type": "electric_scooter", "fusion_lat": 0.0, "lon": -77.0324315}, {"fusion_lon": 0.0, "bike_id": "4a0bbd45d45ce23bb50dff5061c87236", "is_disabled": 0, "is_reserved": 0, "lat": 38.9080035, "name": "4a0bbd45d45ce23bb50dff5061c87236", "rental_uris": {"ios": "https://dc.lft.to/lastmile_qr_scan", "android": "https://dc.lft.to/lastmile_qr_scan"}, "type": "electric_scooter", "fusion_lat": 0.0, "lon": -77.00020166666667}, {"fusion_lon": 0.0, "bike_id": "eca528bb5f68e92d763c3aebfe67581b", "is_disabled": 0, "is_reserved": 0, "lat": 38.903701833333336, "name": "eca528bb5f68e92d763c3aebfe67581b", "rental_uris": {"ios": "https://dc.lft.to/lastmile_qr_scan", "android": "https://dc.lft.to/lastmile_qr_scan"}, "type": "electric_scooter", "fusion_lat": 0.0, "lon": -77.05027916666667}, {"fusion_lon": 0.0, "bike_id": "783edbe4771aa61450f4f6c4bb5b3923", "is_disabled": 0, "is_reserved": 0, "lat": 38.92330416666667, "name": "783edbe4771aa61450f4f6c4bb5b3923", "rental_uris": {"ios": "https://dc.lft.to/lastmile_qr_scan", "android": "https://dc.lft.to/lastmile_qr_scan"}, "type": "electric_scooter", "fusion_lat": 0.0, "lon": -77.0089585}, {"fusion_lon": 0.0, "bike_id": "ed63ad662caebc73539df8b434fd1334", "is_disabled": 0, "is_reserved": 0, "lat": 38.942012166666665, "name": "ed63ad662caebc73539df8b434fd1334", "rental_uris": {"ios": "https://dc.lft.to/lastmile_qr_scan", "android": "https://dc.lft.to/lastmile_qr_scan"}, "type": "electric_scooter", "fusion_lat": 0.0, "lon": -77.02503616666667}, {"fusion_lon": 0.0, "bike_id": "cda8d612437e720a76e40ea3b549d7ab", "is_disabled": 0, "is_reserved": 0, "lat": 38.90837066666667, "name": "cda8d612437e720a76e40ea3b549d7ab", "rental_uris": {"ios": "https://dc.lft.to/lastmile_qr_scan", "android": "https://dc.lft.to/lastmile_qr_scan"}, "type": "electric_scooter", "fusion_lat": 0.0, "lon": -77.041579}, {"fusion_lon": 0.0, "bike_id": "c4ce3394ceeb72a7f2b67e290dd92a41", "is_disabled": 0, "is_reserved": 0, "lat": 38.8872985, "name": "c4ce3394ceeb72a7f2b67e290dd92a41", "rental_uris": {"ios": "https://dc.lft.to/lastmile_qr_scan", "android": "https://dc.lft.to/lastmile_qr_scan"}, "type": "electric_scooter", "fusion_lat": 0.0, "lon": -76.98378733333334}, {"fusion_lon": 0.0, "bike_id": "b101f2c0cee84e0168a8cd8490d67bf3", "is_disabled": 0, "is_reserved": 0, "lat": 38.9169395, "name": "b101f2c0cee84e0168a8cd8490d67bf3", "rental_uris": {"ios": "https://dc.lft.to/lastmile_qr_scan", "android": "https://dc.lft.to/lastmile_qr_scan"}, "type": "electric_scooter", "fusion_lat": 0.0, "lon": -77.02722883333334}, {"fusion_lon": 0.0, "bike_id": "15db771e6a58f1c84b8ad3391e525f06", "is_disabled": 0, "is_reserved": 0, "lat": 38.9169175, "name": "15db771e6a58f1c84b8ad3391e525f06", "rental_uris": {"ios": "https://dc.lft.to/lastmile_qr_scan", "android": "https://dc.lft.to/lastmile_qr_scan"}, "type": "electric_scooter", "fusion_lat": 0.0, "lon": -77.02723533333334}, {"fusion_lon": 0.0, "bike_id": "7cca70d9f9f06b956329f6cd3151cd9f", "is_disabled": 0, "is_reserved": 0, "lat": 38.91410183333333, "name": "7cca70d9f9f06b956329f6cd3151cd9f", "rental_uris": {"ios": "https://dc.lft.to/lastmile_qr_scan", "android": "https://dc.lft.to/lastmile_qr_scan"}, "type": "electric_scooter", "fusion_lat": 0.0, "lon": -77.00832416666667}, {"fusion_lon": 0.0, "bike_id": "31dcd1a5ad72ce893f08af24ed2fca90", "is_disabled": 0, "is_reserved": 0, "lat": 38.921668, "name": "31dcd1a5ad72ce893f08af24ed2fca90", "rental_uris": {"ios": "https://dc.lft.to/lastmile_qr_scan", "android": "https://dc.lft.to/lastmile_qr_scan"}, "type": "electric_scooter", "fusion_lat": 0.0, "lon": -77.02107833333334}, {"fusion_lon": 0.0, "bike_id": "d738e7db72e06a7405a4ba473def9408", "is_disabled": 0, "is_reserved": 0, "lat": 38.8932615, "name": "d738e7db72e06a7405a4ba473def9408", "rental_uris": {"ios": "https://dc.lft.to/lastmile_qr_scan", "android": "https://dc.lft.to/lastmile_qr_scan"}, "type": "electric_scooter", "fusion_lat": 0.0, "lon": -77.03371766666666}, {"fusion_lon": 0.0, "bike_id": "c8c714984059c0adb12dc065ac0ec06a", "is_disabled": 0, "is_reserved": 0, "lat": 38.919895333333336, "name": "c8c714984059c0adb12dc065ac0ec06a", "rental_uris": {"ios": "https://dc.lft.to/lastmile_qr_scan", "android": "https://dc.lft.to/lastmile_qr_scan"}, "type": "electric_scooter", "fusion_lat": 0.0, "lon": -77.03235166666667}, {"fusion_lon": 0.0, "bike_id": "f172dedd495f9c3f6d2151a6355cbfd7", "is_disabled": 0, "is_reserved": 0, "lat": 38.83603016666667, "name": "f172dedd495f9c3f6d2151a6355cbfd7", "rental_uris": {"ios": "https://dc.lft.to/lastmile_qr_scan", "android": "https://dc.lft.to/lastmile_qr_scan"}, "type": "electric_bike", "fusion_lat": 0.0, "lon": -77.00378733333334}, {"fusion_lon": 0.0, "bike_id": "6a178c1eccd08f3f196790d02664e93c", "is_disabled": 0, "is_reserved": 0, "lat": 38.89967566666667, "name": "6a178c1eccd08f3f196790d02664e93c", "rental_uris": {"ios": "https://dc.lft.to/lastmile_qr_scan", "android": "https://dc.lft.to/lastmile_qr_scan"}, "type": "electric_scooter", "fusion_lat": 0.0, "lon": -77.0472635}, {"fusion_lon": 0.0, "bike_id": "36f25526afa132044e3241ca06564a2e", "is_disabled": 0, "is_reserved": 0, "lat": 38.909173333333335, "name": "36f25526afa132044e3241ca06564a2e", "rental_uris": {"ios": "https://dc.lft.to/lastmile_qr_scan", "android": "https://dc.lft.to/lastmile_qr_scan"}, "type": "electric_scooter", "fusion_lat": 0.0, "lon": -77.03451433333333}, {"fusion_lon": 0.0, "bike_id": "9d36e0aca045a5fb1a0fcaa38aae39fe", "is_disabled": 0, "is_reserved": 0, "lat": 38.92022566666667, "name": "9d36e0aca045a5fb1a0fcaa38aae39fe", "rental_uris": {"ios": "https://dc.lft.to/lastmile_qr_scan", "android": "https://dc.lft.to/lastmile_qr_scan"}, "type": "electric_scooter", "fusion_lat": 0.0, "lon": -77.04407966666666}, {"fusion_lon": 0.0, "bike_id": "948cc55bdeee94b66473391ef6d015c6", "is_disabled": 0, "is_reserved": 0, "lat": 38.90175516666667, "name": "948cc55bdeee94b66473391ef6d015c6", "rental_uris": {"ios": "https://dc.lft.to/lastmile_qr_scan", "android": "https://dc.lft.to/lastmile_qr_scan"}, "type": "electric_bike", "fusion_lat": 0.0, "lon": -77.05112033333333}, {"fusion_lon": 0.0, "bike_id": "1935954cdc76c56f1077417c77cb04c1", "is_disabled": 0, "is_reserved": 0, "lat": 38.91479833333333, "name": "1935954cdc76c56f1077417c77cb04c1", "rental_uris": {"ios": "https://dc.lft.to/lastmile_qr_scan", "android": "https://dc.lft.to/lastmile_qr_scan"}, "type": "electric_scooter", "fusion_lat": 0.0, "lon": -77.021873}, {"fusion_lon": 0.0, "bike_id": "dda36bc0e507122782f9bcabff24b200", "is_disabled": 0, "is_reserved": 0, "lat": 38.90782433333333, "name": "dda36bc0e507122782f9bcabff24b200", "rental_uris": {"ios": "https://dc.lft.to/lastmile_qr_scan", "android": "https://dc.lft.to/lastmile_qr_scan"}, "type": "electric_scooter", "fusion_lat": 0.0, "lon": -77.01084683333333}, {"fusion_lon": 0.0, "bike_id": "cc5360dcb47794284cc0bdeaad9ee419", "is_disabled": 0, "is_reserved": 0, "lat": 38.911855, "name": "cc5360dcb47794284cc0bdeaad9ee419", "rental_uris": {"ios": "https://dc.lft.to/lastmile_qr_scan", "android": "https://dc.lft.to/lastmile_qr_scan"}, "type": "electric_scooter", "fusion_lat": 0.0, "lon": -77.01811966666666}, {"fusion_lon": 0.0, "bike_id": "312a9073d5541cb98858f06f2ee92e73", "is_disabled": 0, "is_reserved": 0, "lat": 38.916036, "name": "312a9073d5541cb98858f06f2ee92e73", "rental_uris": {"ios": "https://dc.lft.to/lastmile_qr_scan", "android": "https://dc.lft.to/lastmile_qr_scan"}, "type": "electric_scooter", "fusion_lat": 0.0, "lon": -77.02967083333333}, {"fusion_lon": 0.0, "bike_id": "ad894d2aa9b3f232db16e14156e6d0fd", "is_disabled": 0, "is_reserved": 0, "lat": 38.96385983333333, "name": "ad894d2aa9b3f232db16e14156e6d0fd", "rental_uris": {"ios": "https://dc.lft.to/lastmile_qr_scan", "android": "https://dc.lft.to/lastmile_qr_scan"}, "type": "electric_scooter", "fusion_lat": 0.0, "lon": -77.0276555}, {"fusion_lon": 0.0, "bike_id": "a17106f1f79010c2ff552ac49826c9d6", "is_disabled": 0, "is_reserved": 0, "lat": 38.956272166666665, "name": "a17106f1f79010c2ff552ac49826c9d6", "rental_uris": {"ios": "https://dc.lft.to/lastmile_qr_scan", "android": "https://dc.lft.to/lastmile_qr_scan"}, "type": "electric_scooter", "fusion_lat": 0.0, "lon": -77.02431433333334}, {"fusion_lon": 0.0, "bike_id": "6d20abff3593028d2e904785c1f53690", "is_disabled": 0, "is_reserved": 0, "lat": 38.8337975, "name": "6d20abff3593028d2e904785c1f53690", "rental_uris": {"ios": "https://dc.lft.to/lastmile_qr_scan", "android": "https://dc.lft.to/lastmile_qr_scan"}, "type": "electric_scooter", "fusion_lat": 0.0, "lon": -77.00303833333334}, {"fusion_lon": 0.0, "bike_id": "e5d09974e9aea0fb6b0eadaf56229e8e", "is_disabled": 0, "is_reserved": 0, "lat": 38.909618333333334, "name": "e5d09974e9aea0fb6b0eadaf56229e8e", "rental_uris": {"ios": "https://dc.lft.to/lastmile_qr_scan", "android": "https://dc.lft.to/lastmile_qr_scan"}, "type": "electric_scooter", "fusion_lat": 0.0, "lon": -77.04827383333334}, {"fusion_lon": 0.0, "bike_id": "d7d804ed1d6ebd3dc092c8ffbbd2210a", "is_disabled": 0, "is_reserved": 0, "lat": 38.90927116666667, "name": "d7d804ed1d6ebd3dc092c8ffbbd2210a", "rental_uris": {"ios": "https://dc.lft.to/lastmile_qr_scan", "android": "https://dc.lft.to/lastmile_qr_scan"}, "type": "electric_scooter", "fusion_lat": 0.0, "lon": -77.0421215}, {"fusion_lon": 0.0, "bike_id": "f1c6e6668790d56770af049757c41ecf", "is_disabled": 0, "is_reserved": 0, "lat": 38.9176325, "name": "f1c6e6668790d56770af049757c41ecf", "rental_uris": {"ios": "https://dc.lft.to/lastmile_qr_scan", "android": "https://dc.lft.to/lastmile_qr_scan"}, "type": "electric_scooter", "fusion_lat": 0.0, "lon": -77.00354916666667}, {"fusion_lon": 0.0, "bike_id": "92aa542c3eeeacd73c5d51e06b0a4150", "is_disabled": 0, "is_reserved": 0, "lat": 38.9177965, "name": "92aa542c3eeeacd73c5d51e06b0a4150", "rental_uris": {"ios": "https://dc.lft.to/lastmile_qr_scan", "android": "https://dc.lft.to/lastmile_qr_scan"}, "type": "electric_scooter", "fusion_lat": 0.0, "lon": -77.031758}, {"fusion_lon": 0.0, "bike_id": "9be694750ae6b2579aeaeb873260d26d", "is_disabled": 0, "is_reserved": 0, "lat": 38.863322833333335, "name": "9be694750ae6b2579aeaeb873260d26d", "rental_uris": {"ios": "https://dc.lft.to/lastmile_qr_scan", "android": "https://dc.lft.to/lastmile_qr_scan"}, "type": "electric_bike", "fusion_lat": 0.0, "lon": -76.98721316666666}, {"fusion_lon": 0.0, "bike_id": "5842735d7cd357bd6ad2d1c67308fdb6", "is_disabled": 0, "is_reserved": 0, "lat": 38.94888533333334, "name": "5842735d7cd357bd6ad2d1c67308fdb6", "rental_uris": {"ios": "https://dc.lft.to/lastmile_qr_scan", "android": "https://dc.lft.to/lastmile_qr_scan"}, "type": "electric_scooter", "fusion_lat": 0.0, "lon": -77.01855483333334}, {"fusion_lon": 0.0, "bike_id": "99e0c3b06f945784fb5ee8af2af0842f", "is_disabled": 0, "is_reserved": 0, "lat": 38.91568683333333, "name": "99e0c3b06f945784fb5ee8af2af0842f", "rental_uris": {"ios": "https://dc.lft.to/lastmile_qr_scan", "android": "https://dc.lft.to/lastmile_qr_scan"}, "type": "electric_scooter", "fusion_lat": 0.0, "lon": -77.01990516666666}, {"fusion_lon": 0.0, "bike_id": "eda24e247f2f61c44b6a15283ff76a01", "is_disabled": 0, "is_reserved": 0, "lat": 38.917092833333335, "name": "eda24e247f2f61c44b6a15283ff76a01", "rental_uris": {"ios": "https://dc.lft.to/lastmile_qr_scan", "android": "https://dc.lft.to/lastmile_qr_scan"}, "type": "electric_scooter", "fusion_lat": 0.0, "lon": -77.03862483333333}, {"fusion_lon": 0.0, "bike_id": "0c3b9853b33b712e3c6f3d68b88900a0", "is_disabled": 0, "is_reserved": 0, "lat": 38.924118666666665, "name": "0c3b9853b33b712e3c6f3d68b88900a0", "rental_uris": {"ios": "https://dc.lft.to/lastmile_qr_scan", "android": "https://dc.lft.to/lastmile_qr_scan"}, "type": "electric_bike", "fusion_lat": 0.0, "lon": -77.05051616666667}, {"fusion_lon": 0.0, "bike_id": "e684f87f20e18fc77c4765e34c05a2d6", "is_disabled": 0, "is_reserved": 0, "lat": 38.8048295, "name": "e684f87f20e18fc77c4765e34c05a2d6", "rental_uris": {"ios": "https://dc.lft.to/lastmile_qr_scan", "android": "https://dc.lft.to/lastmile_qr_scan"}, "type": "electric_bike", "fusion_lat": 0.0, "lon": -76.99102916666666}, {"fusion_lon": 0.0, "bike_id": "ae36f501d8c7f1adc80d2510bc6cc1fe", "is_disabled": 0, "is_reserved": 0, "lat": 38.872670666666664, "name": "ae36f501d8c7f1adc80d2510bc6cc1fe", "rental_uris": {"ios": "https://dc.lft.to/lastmile_qr_scan", "android": "https://dc.lft.to/lastmile_qr_scan"},