{"data": {"bikes": [{"rental_uris": {"ios": "https://dc.lft.to/lastmile_qr_scan", "android": "https://dc.lft.to/lastmile_qr_scan"}, "type": "electric_scooter", "name": "872be9a62c117eeb8227c53869eb042b", "is_reserved": 0, "lon": -77.02976166666667, "is_disabled": 0, "fusion_lat": 0.0, "lat": 38.902772166666665, "bike_id": "872be9a62c117eeb8227c53869eb042b", "fusion_lon": 0.0}, {"rental_uris": {"ios": "https://dc.lft.to/lastmile_qr_scan", "android": "https://dc.lft.to/lastmile_qr_scan"}, "type": "electric_scooter", "name": "41b6f2b307270bb9f3b994505c6dcb2d", "is_reserved": 0, "lon": -77.02145666666667, "is_disabled": 0, "fusion_lat": 0.0, "lat": 38.924856166666665, "bike_id": "41b6f2b307270bb9f3b994505c6dcb2d", "fusion_lon": 0.0}, {"rental_uris": {"ios": "https://dc.lft.to/lastmile_qr_scan", "android": "https://dc.lft.to/lastmile_qr_scan"}, "type": "electric_scooter", "name": "6f18b3588bb7585ffeb9564616964879", "is_reserved": 0, "lon": -76.99118016666667, "is_disabled": 0, "fusion_lat": 0.0, "lat": 38.908973333333336, "bike_id": "6f18b3588bb7585ffeb9564616964879", "fusion_lon": 0.0}, {"rental_uris": {"ios": "https://dc.lft.to/lastmile_qr_scan", "android": "https://dc.lft.to/lastmile_qr_scan"}, "type": "electric_scooter", "name": "9eb744206fdb754abc1e82856882001c", "is_reserved": 0, "lon": -77.04305433333333, "is_disabled": 0, "fusion_lat": 0.0, "lat": 38.9317935, "bike_id": "9eb744206fdb754abc1e82856882001c", "fusion_lon": 0.0}, {"rental_uris": {"ios": "https://dc.lft.to/lastmile_qr_scan", "android": "https://dc.lft.to/lastmile_qr_scan"}, "type": "electric_scooter", "name": "687514274535c0d24078c6b15fcde29c", "is_reserved": 0, "lon": -77.0271385, "is_disabled": 0, "fusion_lat": 0.0, "lat": 38.908966, "bike_id": "687514274535c0d24078c6b15fcde29c", "fusion_lon": 0.0}, {"rental_uris": {"ios": "https://dc.lft.to/lastmile_qr_scan", "android": "https://dc.lft.to/lastmile_qr_scan"}, "type": "electric_scooter", "name": "15c9451f7ef246b22cfca029d74db1ed", "is_reserved": 0, "lon": -77.01984966666667, "is_disabled": 0, "fusion_lat": 0.0, "lat": 38.876045833333336, "bike_id": "15c9451f7ef246b22cfca029d74db1ed", "fusion_lon": 0.0}, {"rental_uris": {"ios": "https://dc.lft.to/lastmile_qr_scan", "android": "https://dc.lft.to/lastmile_qr_scan"}, "type": "electric_scooter", "name": "c6bb28a4d2a7ba7649fd54702f43934c", "is_reserved": 0, "lon": -77.0057905, "is_disabled": 0, "fusion_lat": 0.0, "lat": 38.90941133333333, "bike_id": "c6bb28a4d2a7ba7649fd54702f43934c", "fusion_lon": 0.0}, {"rental_uris": {"ios": "https://dc.lft.to/lastmile_qr_scan", "android": "https://dc.lft.to/lastmile_qr_scan"}, "type": "electric_scooter", "name": "3f545517006a0db000c3efb31dce06f4", "is_reserved": 0, "lon": -77.00476416666666, "is_disabled": 0, "fusion_lat": 0.0, "lat": 38.9119265, "bike_id": "3f545517006a0db000c3efb31dce06f4", "fusion_lon": 0.0}, {"rental_uris": {"ios": "https://dc.lft.to/lastmile_qr_scan", "android": "https://dc.lft.to/lastmile_qr_scan"}, "type": "electric_bike", "name": "69df9656dce3dfd2951017bb5ade8162", "is_reserved": 0, "lon": -77.128404, "is_disabled": 0, "fusion_lat": 0.0, "lat": 38.8005195, "bike_id": "69df9656dce3dfd2951017bb5ade8162", "fusion_lon": 0.0}, {"rental_uris": {"ios": "https://dc.lft.to/lastmile_qr_scan", "android": "https://dc.lft.to/lastmile_qr_scan"}, "type": "electric_scooter", "name": "88f7f88847db153532cc406f276c9f18", "is_reserved": 0, "lon": -77.03955733333333, "is_disabled": 0, "fusion_lat": 0.0, "lat": 38.893099166666666, "bike_id": "88f7f88847db153532cc406f276c9f18", "fusion_lon": 0.0}, {"rental_uris": {"ios": "https://dc.lft.to/lastmile_qr_scan", "android": "https://dc.lft.to/lastmile_qr_scan"}, "type": "electric_scooter", "name": "360a768b58af70c8ad8ff488eac8d295", "is_reserved": 0, "lon": -77.031996, "is_disabled": 0, "fusion_lat": 0.0, "lat": 38.918338166666665, "bike_id": "360a768b58af70c8ad8ff488eac8d295", "fusion_lon": 0.0}, {"rental_uris": {"ios": "https://dc.lft.to/lastmile_qr_scan", "android": "https://dc.lft.to/lastmile_qr_scan"}, "type": "electric_scooter", "name": "c4e488ad7e169a527bef84b7de06bd46", "is_reserved": 0, "lon": -77.01259116666667, "is_disabled": 0, "fusion_lat": 0.0, "lat": 38.89722066666667, "bike_id": "c4e488ad7e169a527bef84b7de06bd46", "fusion_lon": 0.0}, {"rental_uris": {"ios": "https://dc.lft.to/lastmile_qr_scan", "android": "https://dc.lft.to/lastmile_qr_scan"}, "type": "electric_scooter", "name": "6e5e930eaa5e3be1af4d0f2be5e3ad4f", "is_reserved": 0, "lon": -77.026943, "is_disabled": 0, "fusion_lat": 0.0, "lat": 38.90619233333334, "bike_id": "6e5e930eaa5e3be1af4d0f2be5e3ad4f", "fusion_lon": 0.0}, {"rental_uris": {"ios": "https://dc.lft.to/lastmile_qr_scan", "android": "https://dc.lft.to/lastmile_qr_scan"}, "type": "electric_scooter", "name": "4e76c82ff9f0e1785e04ba892e2751d3", "is_reserved": 0, "lon": -77.04443616666667, "is_disabled": 0, "fusion_lat": 0.0, "lat": 38.91797533333333, "bike_id": "4e76c82ff9f0e1785e04ba892e2751d3", "fusion_lon": 0.0}, {"rental_uris": {"ios": "https://dc.lft.to/lastmile_qr_scan", "android": "https://dc.lft.to/lastmile_qr_scan"}, "type": "electric_scooter", "name": "6a5d800638329b2708d4e9905d04651a", "is_reserved": 0, "lon": -77.0061515, "is_disabled": 0, "fusion_lat": 0.0, "lat": 38.905652833333335, "bike_id": "6a5d800638329b2708d4e9905d04651a", "fusion_lon": 0.0}, {"rental_uris": {"ios": "https://dc.lft.to/lastmile_qr_scan", "android": "https://dc.lft.to/lastmile_qr_scan"}, "type": "electric_scooter", "name": "fb787e060669ef4f773383f04772f582", "is_reserved": 0, "lon": -77.072768, "is_disabled": 0, "fusion_lat": 0.0, "lat": 38.915920166666666, "bike_id": "fb787e060669ef4f773383f04772f582", "fusion_lon": 0.0}, {"rental_uris": {"ios": "https://dc.lft.to/lastmile_qr_scan", "android": "https://dc.lft.to/lastmile_qr_scan"}, "type": "electric_scooter", "name": "c6e62212569e975c8fadeea89d07d372", "is_reserved": 0, "lon": -77.0497315, "is_disabled": 0, "fusion_lat": 0.0, "lat": 38.90516, "bike_id": "c6e62212569e975c8fadeea89d07d372", "fusion_lon": 0.0}, {"rental_uris": {"ios": "https://dc.lft.to/lastmile_qr_scan", "android": "https://dc.lft.to/lastmile_qr_scan"}, "type": "electric_scooter", "name": "b57647ec9b9514af161f28ca66525c8a", "is_reserved": 0, "lon": -77.03864416666667, "is_disabled": 0, "fusion_lat": 0.0, "lat": 38.91710066666667, "bike_id": "b57647ec9b9514af161f28ca66525c8a", "fusion_lon": 0.0}, {"rental_uris": {"ios": "https://dc.lft.to/lastmile_qr_scan", "android": "https://dc.lft.to/lastmile_qr_scan"}, "type": "electric_scooter", "name": "72c6ecb4ce9420baa4c9b3f95e00b894", "is_reserved": 0, "lon": -77.02378466666667, "is_disabled": 0, "fusion_lat": 0.0, "lat": 38.91683716666667, "bike_id": "72c6ecb4ce9420baa4c9b3f95e00b894", "fusion_lon": 0.0}, {"rental_uris": {"ios": "https://dc.lft.to/lastmile_qr_scan", "android": "https://dc.lft.to/lastmile_qr_scan"}, "type": "electric_scooter", "name": "697161bf6ba67c91bb0bb30bfc80bcf3", "is_reserved": 0, "lon": -76.999329, "is_disabled": 0, "fusion_lat": 0.0, "lat": 38.8916005, "bike_id": "697161bf6ba67c91bb0bb30bfc80bcf3", "fusion_lon": 0.0}, {"rental_uris": {"ios": "https://dc.lft.to/lastmile_qr_scan", "android": "https://dc.lft.to/lastmile_qr_scan"}, "type": "electric_bike", "name": "820b8d8cb8f6692cf30b179796c09028", "is_reserved": 0, "lon": -76.99405783333333, "is_disabled": 0, "fusion_lat": 0.0, "lat": 38.83139466666667, "bike_id": "820b8d8cb8f6692cf30b179796c09028", "fusion_lon": 0.0}, {"rental_uris": {"ios": "https://dc.lft.to/lastmile_qr_scan", "android": "https://dc.lft.to/lastmile_qr_scan"}, "type": "electric_bike", "name": "48c755e3ed7e96f1c73466e210d5dbdf", "is_reserved": 0, "lon": -77.004074, "is_disabled": 0, "fusion_lat": 0.0, "lat": 38.98539816666667, "bike_id": "48c755e3ed7e96f1c73466e210d5dbdf", "fusion_lon": 0.0}, {"rental_uris": {"ios": "https://dc.lft.to/lastmile_qr_scan", "android": "https://dc.lft.to/lastmile_qr_scan"}, "type": "electric_scooter", "name": "078fdc9c7eb2ffb6901793757ed322b9", "is_reserved": 0, "lon": -76.938162, "is_disabled": 0, "fusion_lat": 0.0, "lat": 38.8984535, "bike_id": "078fdc9c7eb2ffb6901793757ed322b9", "fusion_lon": 0.0}, {"rental_uris": {"ios": "https://dc.lft.to/lastmile_qr_scan", "android": "https://dc.lft.to/lastmile_qr_scan"}, "type": "electric_scooter", "name": "3f4b057255be5d928aeb6d940482c18c", "is_reserved": 0, "lon": -77.04678816666667, "is_disabled": 0, "fusion_lat": 0.0, "lat": 38.906445, "bike_id": "3f4b057255be5d928aeb6d940482c18c", "fusion_lon": 0.0}, {"rental_uris": {"ios": "https://dc.lft.to/lastmile_qr_scan", "android": "https://dc.lft.to/lastmile_qr_scan"}, "type": "electric_bike", "name": "1518ed93190b39c1584662a46e0247f2", "is_reserved": 0, "lon": -77.0982035, "is_disabled": 0, "fusion_lat": 0.0, "lat": 38.85017716666667, "bike_id": "1518ed93190b39c1584662a46e0247f2", "fusion_lon": 0.0}, {"rental_uris": {"ios": "https://dc.lft.to/lastmile_qr_scan", "android": "https://dc.lft.to/lastmile_qr_scan"}, "type": "electric_scooter", "name": "549325316f72e9e1825d5a9e826a394f", "is_reserved": 0, "lon": -77.01323616666667, "is_disabled": 0, "fusion_lat": 0.0, "lat": 38.896085166666666, "bike_id": "549325316f72e9e1825d5a9e826a394f", "fusion_lon": 0.0}, {"rental_uris": {"ios": "https://dc.lft.to/lastmile_qr_scan", "android": "https://dc.lft.to/lastmile_qr_scan"}, "type": "electric_scooter", "name": "fecc6768ccca8cfe00d1d944ef0c4706", "is_reserved": 0, "lon": -77.0440455, "is_disabled": 0, "fusion_lat": 0.0, "lat": 38.929475333333336, "bike_id": "fecc6768ccca8cfe00d1d944ef0c4706", "fusion_lon": 0.0}, {"rental_uris": {"ios": "https://dc.lft.to/lastmile_qr_scan", "android": "https://dc.lft.to/lastmile_qr_scan"}, "type": "electric_scooter", "name": "49288f8aedc8f2d790fd33c9f87fe49f", "is_reserved": 0, "lon": -77.0187755, "is_disabled": 0, "fusion_lat": 0.0, "lat": 38.90610516666667, "bike_id": "49288f8aedc8f2d790fd33c9f87fe49f", "fusion_lon": 0.0}, {"rental_uris": {"ios": "https://dc.lft.to/lastmile_qr_scan", "android": "https://dc.lft.to/lastmile_qr_scan"}, "type": "electric_scooter", "name": "1d033c7352cfb3f0da58bb51886bd41c", "is_reserved": 0, "lon": -77.04253566666667, "is_disabled": 0, "fusion_lat": 0.0, "lat": 38.9042005, "bike_id": "1d033c7352cfb3f0da58bb51886bd41c", "fusion_lon": 0.0}, {"rental_uris": {"ios": "https://dc.lft.to/lastmile_qr_scan", "android": "https://dc.lft.to/lastmile_qr_scan"}, "type": "electric_scooter", "name": "bfc0f1751571c5379683bd4b8b42a540", "is_reserved": 0, "lon": -77.0419145, "is_disabled": 0, "fusion_lat": 0.0, "lat": 38.92258566666667, "bike_id": "bfc0f1751571c5379683bd4b8b42a540", "fusion_lon": 0.0}, {"rental_uris": {"ios": "https://dc.lft.to/lastmile_qr_scan", "android": "https://dc.lft.to/lastmile_qr_scan"}, "type": "electric_scooter", "name": "1f422f9a45e9e6db69a49ad3bf6c1618", "is_reserved": 0, "lon": -77.01765133333333, "is_disabled": 0, "fusion_lat": 0.0, "lat": 38.9064605, "bike_id": "1f422f9a45e9e6db69a49ad3bf6c1618", "fusion_lon": 0.0}, {"rental_uris": {"ios": "https://dc.lft.to/lastmile_qr_scan", "android": "https://dc.lft.to/lastmile_qr_scan"}, "type": "electric_scooter", "name": "6b8f71f61bfa78651dd9da0b128fddb9", "is_reserved": 0, "lon": -77.010535, "is_disabled": 0, "fusion_lat": 0.0, "lat": 38.911839666666665, "bike_id": "6b8f71f61bfa78651dd9da0b128fddb9", "fusion_lon": 0.0}, {"rental_uris": {"ios": "https://dc.lft.to/lastmile_qr_scan", "android": "https://dc.lft.to/lastmile_qr_scan"}, "type": "electric_scooter", "name": "cb87f3bbb529111cb0704bc06be5e7b7", "is_reserved": 0, "lon": -77.00303033333333, "is_disabled": 0, "fusion_lat": 0.0, "lat": 38.908931333333335, "bike_id": "cb87f3bbb529111cb0704bc06be5e7b7", "fusion_lon": 0.0}, {"rental_uris": {"ios": "https://dc.lft.to/lastmile_qr_scan", "android": "https://dc.lft.to/lastmile_qr_scan"}, "type": "electric_scooter", "name": "e5ec12b17250f1fd71528673d4dea819", "is_reserved": 0, "lon": -77.01813433333334, "is_disabled": 0, "fusion_lat": 0.0, "lat": 38.921071, "bike_id": "e5ec12b17250f1fd71528673d4dea819", "fusion_lon": 0.0}, {"rental_uris": {"ios": "https://dc.lft.to/lastmile_qr_scan", "android": "https://dc.lft.to/lastmile_qr_scan"}, "type": "electric_scooter", "name": "01d1e5b5502e120ca6247d015ce22514", "is_reserved": 0, "lon": -77.0271225, "is_disabled": 0, "fusion_lat": 0.0, "lat": 38.91725433333333, "bike_id": "01d1e5b5502e120ca6247d015ce22514", "fusion_lon": 0.0}, {"rental_uris": {"ios": "https://dc.lft.to/lastmile_qr_scan", "android": "https://dc.lft.to/lastmile_qr_scan"}, "type": "electric_scooter", "name": "4ca097c6ae2ad25d30b49b8ffe1414a1", "is_reserved": 0, "lon": -77.00610333333333, "is_disabled": 0, "fusion_lat": 0.0, "lat": 38.90567016666667, "bike_id": "4ca097c6ae2ad25d30b49b8ffe1414a1", "fusion_lon": 0.0}, {"rental_uris": {"ios": "https://dc.lft.to/lastmile_qr_scan", "android": "https://dc.lft.to/lastmile_qr_scan"}, "type": "electric_scooter", "name": "62f1c0093efdf38093107360da6e2b2d", "is_reserved": 0, "lon": -77.03793066666667, "is_disabled": 0, "fusion_lat": 0.0, "lat": 38.933195166666664, "bike_id": "62f1c0093efdf38093107360da6e2b2d", "fusion_lon": 0.0}, {"rental_uris": {"ios": "https://dc.lft.to/lastmile_qr_scan", "android": "https://dc.lft.to/lastmile_qr_scan"}, "type": "electric_scooter", "name": "099a7538808ea570b5eb13fcd7b3cbb9", "is_reserved": 0, "lon": -77.01330916666667, "is_disabled": 0, "fusion_lat": 0.0, "lat": 38.88138466666667, "bike_id": "099a7538808ea570b5eb13fcd7b3cbb9", "fusion_lon": 0.0}, {"rental_uris": {"ios": "https://dc.lft.to/lastmile_qr_scan", "android": "https://dc.lft.to/lastmile_qr_scan"}, "type": "electric_scooter", "name": "8b557e9291b1cb9752d6dfc74d3cb70f", "is_reserved": 0, "lon": -77.045264, "is_disabled": 0, "fusion_lat": 0.0, "lat": 38.9110985, "bike_id": "8b557e9291b1cb9752d6dfc74d3cb70f", "fusion_lon": 0.0}, {"rental_uris": {"ios": "https://dc.lft.to/lastmile_qr_scan", "android": "https://dc.lft.to/lastmile_qr_scan"}, "type": "electric_scooter", "name": "c89c40be8c28a540e63984b718083a42", "is_reserved": 0, "lon": -77.03197683333333, "is_disabled": 0, "fusion_lat": 0.0, "lat": 38.916440333333334, "bike_id": "c89c40be8c28a540e63984b718083a42", "fusion_lon": 0.0}, {"rental_uris": {"ios": "https://dc.lft.to/lastmile_qr_scan", "android": "https://dc.lft.to/lastmile_qr_scan"}, "type": "electric_bike", "name": "2f0d8d322be7da02a3c04375e75060c0", "is_reserved": 0, "lon": -77.01227816666666, "is_disabled": 0, "fusion_lat": 0.0, "lat": 38.950835, "bike_id": "2f0d8d322be7da02a3c04375e75060c0", "fusion_lon": 0.0}, {"rental_uris": {"ios": "https://dc.lft.to/lastmile_qr_scan", "android": "https://dc.lft.to/lastmile_qr_scan"}, "type": "electric_scooter", "name": "7685bc8100de2c1e2c6895091368eada", "is_reserved": 0, "lon": -77.03741533333333, "is_disabled": 0, "fusion_lat": 0.0, "lat": 38.87995816666667, "bike_id": "7685bc8100de2c1e2c6895091368eada", "fusion_lon": 0.0}, {"rental_uris": {"ios": "https://dc.lft.to/lastmile_qr_scan", "android": "https://dc.lft.to/lastmile_qr_scan"}, "type": "electric_scooter", "name": "3cc8d0327dbaabb94a1255e0cba8b941", "is_reserved": 0, "lon": -77.045554, "is_disabled": 0, "fusion_lat": 0.0, "lat": 38.90072466666667, "bike_id": "3cc8d0327dbaabb94a1255e0cba8b941", "fusion_lon": 0.0}, {"rental_uris": {"ios": "https://dc.lft.to/lastmile_qr_scan", "android": "https://dc.lft.to/lastmile_qr_scan"}, "type": "electric_scooter", "name": "a494330f6862f280d2a8765d114aecaa", "is_reserved": 0, "lon": -77.02207816666666, "is_disabled": 0, "fusion_lat": 0.0, "lat": 38.89229016666667, "bike_id": "a494330f6862f280d2a8765d114aecaa", "fusion_lon": 0.0}, {"rental_uris": {"ios": "https://dc.lft.to/lastmile_qr_scan", "android": "https://dc.lft.to/lastmile_qr_scan"}, "type": "electric_scooter", "name": "cd28de1aa593361dc3ff8b7775a784ed", "is_reserved": 0, "lon": -77.06603133333333, "is_disabled": 0, "fusion_lat": 0.0, "lat": 38.9038575, "bike_id": "cd28de1aa593361dc3ff8b7775a784ed", "fusion_lon": 0.0}, {"rental_uris": {"ios": "https://dc.lft.to/lastmile_qr_scan", "android": "https://dc.lft.to/lastmile_qr_scan"}, "type": "electric_scooter", "name": "ecd5130bf28e5d118d858337f6faf723", "is_reserved": 0, "lon": -77.0433875, "is_disabled": 0, "fusion_lat": 0.0, "lat": 38.913733666666666, "bike_id": "ecd5130bf28e5d118d858337f6faf723", "fusion_lon": 0.0}, {"rental_uris": {"ios": "https://dc.lft.to/lastmile_qr_scan", "android": "https://dc.lft.to/lastmile_qr_scan"}, "type": "electric_scooter", "name": "746bebf85382c63135be00eeb1e6cd80", "is_reserved": 0, "lon": -77.0157605, "is_disabled": 0, "fusion_lat": 0.0, "lat": 38.876513, "bike_id": "746bebf85382c63135be00eeb1e6cd80", "fusion_lon": 0.0}, {"rental_uris": {"ios": "https://dc.lft.to/lastmile_qr_scan", "android": "https://dc.lft.to/lastmile_qr_scan"}, "type": "electric_scooter", "name": "e955003d245e9dbf0d62f41d31afc719", "is_reserved": 0, "lon": -77.01818866666666, "is_disabled": 0, "fusion_lat": 0.0, "lat": 38.922202666666664, "bike_id": "e955003d245e9dbf0d62f41d31afc719", "fusion_lon": 0.0}, {"rental_uris": {"ios": "https://dc.lft.to/lastmile_qr_scan", "android": "https://dc.lft.to/lastmile_qr_scan"}, "type": "electric_scooter", "name": "28635b3bb8b8d20f8d122e486c409309", "is_reserved": 0, "lon": -77.01019516666666, "is_disabled": 0, "fusion_lat": 0.0, "lat": 38.912616, "bike_id": "28635b3bb8b8d20f8d122e486c409309", "fusion_lon": 0.0}, {"rental_uris": {"ios": "https://dc.lft.to/lastmile_qr_scan", "android": "https://dc.lft.to/lastmile_qr_scan"}, "type": "electric_scooter", "name": "ef09dac26113452520d23f5eac27c59e", "is_reserved": 0, "lon": -77.01103916666666, "is_disabled": 0, "fusion_lat": 0.0, "lat": 38.894744833333334, "bike_id": "ef09dac26113452520d23f5eac27c59e", "fusion_lon": 0.0}, {"rental_uris": {"ios": "https://dc.lft.to/lastmile_qr_scan", "android": "https://dc.lft.to/lastmile_qr_scan"}, "type": "electric_scooter", "name": "322bf738c6370474b95449639220a457", "is_reserved": 0, "lon": -77.02388583333334, "is_disabled": 0, "fusion_lat": 0.0, "lat": 38.916594333333336, "bike_id": "322bf738c6370474b95449639220a457", "fusion_lon": 0.0}, {"rental_uris": {"ios": "https://dc.lft.to/lastmile_qr_scan", "android": "https://dc.lft.to/lastmile_qr_scan"}, "type": "electric_scooter", "name": "2f3e70462c755055fe09402ad76ce39f", "is_reserved": 0, "lon": -77.0319765, "is_disabled": 0, "fusion_lat": 0.0, "lat": 38.91634533333333, "bike_id": "2f3e70462c755055fe09402ad76ce39f", "fusion_lon": 0.0}, {"rental_uris": {"ios": "https://dc.lft.to/lastmile_qr_scan", "android": "https://dc.lft.to/lastmile_qr_scan"}, "type": "electric_scooter", "name": "9954e513e53c2fc3dae38e9660e54efd", "is_reserved": 0, "lon": -77.04734833333333, "is_disabled": 0, "fusion_lat": 0.0, "lat": 38.89550783333333, "bike_id": "9954e513e53c2fc3dae38e9660e54efd", "fusion_lon": 0.0}, {"rental_uris": {"ios": "https://dc.lft.to/lastmile_qr_scan", "android": "https://dc.lft.to/lastmile_qr_scan"}, "type": "electric_scooter", "name": "30c5c752ac415461a26dae65a199c416", "is_reserved": 0, "lon": -77.0243695, "is_disabled": 0, "fusion_lat": 0.0, "lat": 38.87973233333334, "bike_id": "30c5c752ac415461a26dae65a199c416", "fusion_lon": 0.0}, {"rental_uris": {"ios": "https://dc.lft.to/lastmile_qr_scan", "android": "https://dc.lft.to/lastmile_qr_scan"}, "type": "electric_scooter", "name": "dc722c7bfc3df304f0df7f11d1ea8aad", "is_reserved": 0, "lon": -76.931886, "is_disabled": 0, "fusion_lat": 0.0, "lat": 38.898753, "bike_id": "dc722c7bfc3df304f0df7f11d1ea8aad", "fusion_lon": 0.0}, {"rental_uris": {"ios": "https://dc.lft.to/lastmile_qr_scan", "android": "https://dc.lft.to/lastmile_qr_scan"}, "type": "electric_scooter", "name": "0d7d674a3e3dae8ae97d65c88da0e4d0", "is_reserved": 0, "lon": -77.02171033333333, "is_disabled": 0, "fusion_lat": 0.0, "lat": 38.920161, "bike_id": "0d7d674a3e3dae8ae97d65c88da0e4d0", "fusion_lon": 0.0}, {"rental_uris": {"ios": "https://dc.lft.to/lastmile_qr_scan", "android": "https://dc.lft.to/lastmile_qr_scan"}, "type": "electric_scooter", "name": "2d4b900750d17258edc32b06287507f2", "is_reserved": 0, "lon": -77.057594, "is_disabled": 0, "fusion_lat": 0.0, "lat": 38.9244915, "bike_id": "2d4b900750d17258edc32b06287507f2", "fusion_lon": 0.0}, {"rental_uris": {"ios": "https://dc.lft.to/lastmile_qr_scan", "android": "https://dc.lft.to/lastmile_qr_scan"}, "type": "electric_scooter", "name": "d0bbc158834becc3e524675a8eb23779", "is_reserved": 0, "lon": -77.0516785, "is_disabled": 0, "fusion_lat": 0.0, "lat": 38.903112666666665, "bike_id": "d0bbc158834becc3e524675a8eb23779", "fusion_lon": 0.0}, {"rental_uris": {"ios": "https://dc.lft.to/lastmile_qr_scan", "android": "https://dc.lft.to/lastmile_qr_scan"}, "type": "electric_scooter", "name": "0725dcac204f32ad1d5716f68230e53d", "is_reserved": 0, "lon": -77.06983883333334, "is_disabled": 0, "fusion_lat": 0.0, "lat": 38.95529116666667, "bike_id": "0725dcac204f32ad1d5716f68230e53d", "fusion_lon": 0.0}, {"rental_uris": {"ios": "https://dc.lft.to/lastmile_qr_scan", "android": "https://dc.lft.to/lastmile_qr_scan"}, "type": "electric_scooter", "name": "b7465ae6866709872ed75e17b94c3637", "is_reserved": 0, "lon": -77.038405, "is_disabled": 0, "fusion_lat": 0.0, "lat": 38.9150025, "bike_id": "b7465ae6866709872ed75e17b94c3637", "fusion_lon": 0.0}, {"rental_uris": {"ios": "https://dc.lft.to/lastmile_qr_scan", "android": "https://dc.lft.to/lastmile_qr_scan"}, "type": "electric_scooter", "name": "543ca65dee3a7d8a771259ba625c4f10", "is_reserved": 0, "lon": -77.0183045, "is_disabled": 0, "fusion_lat": 0.0, "lat": 38.905258333333336, "bike_id": "543ca65dee3a7d8a771259ba625c4f10", "fusion_lon": 0.0}, {"rental_uris": {"ios": "https://dc.lft.to/lastmile_qr_scan", "android": "https://dc.lft.to/lastmile_qr_scan"}, "type": "electric_scooter", "name": "3784a6fb6859d4e1c5d758bc16139d87", "is_reserved": 0, "lon": -77.0172595, "is_disabled": 0, "fusion_lat": 0.0, "lat": 38.905582833333334, "bike_id": "3784a6fb6859d4e1c5d758bc16139d87", "fusion_lon": 0.0}, {"rental_uris": {"ios": "https://dc.lft.to/lastmile_qr_scan", "android": "https://dc.lft.to/lastmile_qr_scan"}, "type": "electric_scooter", "name": "fc6a65bdafbf16c0bd5dcc981fd8dd28", "is_reserved": 0, "lon": -77.03890366666667, "is_disabled": 0, "fusion_lat": 0.0, "lat": 38.9232175, "bike_id": "fc6a65bdafbf16c0bd5dcc981fd8dd28", "fusion_lon": 0.0}, {"rental_uris": {"ios": "https://dc.lft.to/lastmile_qr_scan", "android": "https://dc.lft.to/lastmile_qr_scan"}, "type": "electric_scooter", "name": "86c3044612230977adc0b8108b2f702c", "is_reserved": 0, "lon": -76.9975895, "is_disabled": 0, "fusion_lat": 0.0, "lat": 38.8850585, "bike_id": "86c3044612230977adc0b8108b2f702c", "fusion_lon": 0.0}, {"rental_uris": {"ios": "https://dc.lft.to/lastmile_qr_scan", "android": "https://dc.lft.to/lastmile_qr_scan"}, "type": "electric_scooter", "name": "48575af448279f716e3796b3cfda111d", "is_reserved": 0, "lon": -77.0199965, "is_disabled": 0, "fusion_lat": 0.0, "lat": 38.966277, "bike_id": "48575af448279f716e3796b3cfda111d", "fusion_lon": 0.0}, {"rental_uris": {"ios": "https://dc.lft.to/lastmile_qr_scan", "android": "https://dc.lft.to/lastmile_qr_scan"}, "type": "electric_scooter", "name": "e0e5c03cef078feca320f371bf71dc3f", "is_reserved": 0, "lon": -77.042756, "is_disabled": 0, "fusion_lat": 0.0, "lat": 38.903548666666666, "bike_id": "e0e5c03cef078feca320f371bf71dc3f", "fusion_lon": 0.0}, {"rental_uris": {"ios": "https://dc.lft.to/lastmile_qr_scan", "android": "https://dc.lft.to/lastmile_qr_scan"}, "type": "electric_scooter", "name": "9b51ab1fc6dfca7a8448293e63bd45c7", "is_reserved": 0, "lon": -77.04062033333334, "is_disabled": 0, "fusion_lat": 0.0, "lat": 38.917672, "bike_id": "9b51ab1fc6dfca7a8448293e63bd45c7", "fusion_lon": 0.0}, {"rental_uris": {"ios": "https://dc.lft.to/lastmile_qr_scan", "android": "https://dc.lft.to/lastmile_qr_scan"}, "type": "electric_scooter", "name": "4a2a98af7e479762c774c29d015a3695", "is_reserved": 0, "lon": -77.04557383333334, "is_disabled": 0, "fusion_lat": 0.0, "lat": 38.9037525, "bike_id": "4a2a98af7e479762c774c29d015a3695", "fusion_lon": 0.0}, {"rental_uris": {"ios": "https://dc.lft.to/lastmile_qr_scan", "android": "https://dc.lft.to/lastmile_qr_scan"}, "type": "electric_scooter", "name": "b83e12205f5e6e8e12f0d95443ac0d23", "is_reserved": 0, "lon": -77.06130816666666, "is_disabled": 0, "fusion_lat": 0.0, "lat": 38.90260766666667, "bike_id": "b83e12205f5e6e8e12f0d95443ac0d23", "fusion_lon": 0.0}, {"rental_uris": {"ios": "https://dc.lft.to/lastmile_qr_scan", "android": "https://dc.lft.to/lastmile_qr_scan"}, "type": "electric_scooter", "name": "9989b17cd99c56e7d653aee16b6bb7a0", "is_reserved": 0, "lon": -77.03849783333334, "is_disabled": 0, "fusion_lat": 0.0, "lat": 38.9165865, "bike_id": "9989b17cd99c56e7d653aee16b6bb7a0", "fusion_lon": 0.0}, {"rental_uris": {"ios": "https://dc.lft.to/lastmile_qr_scan", "android": "https://dc.lft.to/lastmile_qr_scan"}, "type": "electric_scooter", "name": "e38eb99c990e050868fc504ed351d6b6", "is_reserved": 0, "lon": -77.02894166666667, "is_disabled": 0, "fusion_lat": 0.0, "lat": 38.897149, "bike_id": "e38eb99c990e050868fc504ed351d6b6", "fusion_lon": 0.0}, {"rental_uris": {"ios": "https://dc.lft.to/lastmile_qr_scan", "android": "https://dc.lft.to/lastmile_qr_scan"}, "type": "electric_bike", "name": "0093858acadc5c44718e65fd18fe1b71", "is_reserved": 0, "lon": -76.96156366666666, "is_disabled": 0, "fusion_lat": 0.0, "lat": 38.856187166666665, "bike_id": "0093858acadc5c44718e65fd18fe1b71", "fusion_lon": 0.0}, {"rental_uris": {"ios": "https://dc.lft.to/lastmile_qr_scan", "android": "https://dc.lft.to/lastmile_qr_scan"}, "type": "electric_scooter", "name": "ceb31de8c4ab5bd4f396d564d3bf1f22", "is_reserved": 0, "lon": -77.007383, "is_disabled": 0, "fusion_lat": 0.0, "lat": 38.87664433333333, "bike_id": "ceb31de8c4ab5bd4f396d564d3bf1f22", "fusion_lon": 0.0}, {"rental_uris": {"ios": "https://dc.lft.to/lastmile_qr_scan", "android": "https://dc.lft.to/lastmile_qr_scan"}, "type": "electric_scooter", "name": "40f893c70898c4c04b45b9c73fdd33ae", "is_reserved": 0, "lon": -77.043371, "is_disabled": 0, "fusion_lat": 0.0, "lat": 38.90745233333333, "bike_id": "40f893c70898c4c04b45b9c73fdd33ae", "fusion_lon": 0.0}, {"rental_uris": {"ios": "https://dc.lft.to/lastmile_qr_scan", "android": "https://dc.lft.to/lastmile_qr_scan"}, "type": "electric_scooter", "name": "73c0e8871703d2ef5b26410e3d737e22", "is_reserved": 0, "lon": -77.02805783333334, "is_disabled": 0, "fusion_lat": 0.0, "lat": 38.909116833333336, "bike_id": "73c0e8871703d2ef5b26410e3d737e22", "fusion_lon": 0.0}, {"rental_uris": {"ios": "https://dc.lft.to/lastmile_qr_scan", "android": "https://dc.lft.to/lastmile_qr_scan"}, "type": "electric_scooter", "name": "dd9a7bdd22d711f48ae29465ed74b22f", "is_reserved": 0, "lon": -77.01864933333333, "is_disabled": 0, "fusion_lat": 0.0, "lat": 38.9736725, "bike_id": "dd9a7bdd22d711f48ae29465ed74b22f", "fusion_lon": 0.0}, {"rental_uris": {"ios": "https://dc.lft.to/lastmile_qr_scan", "android": "https://dc.lft.to/lastmile_qr_scan"}, "type": "electric_scooter", "name": "2ccb5ba1f0508e81f4bcd94b837a1654", "is_reserved": 0, "lon": -76.99734633333334, "is_disabled": 0, "fusion_lat": 0.0, "lat": 38.920355666666666, "bike_id": "2ccb5ba1f0508e81f4bcd94b837a1654", "fusion_lon": 0.0}, {"rental_uris": {"ios": "https://dc.lft.to/lastmile_qr_scan", "android": "https://dc.lft.to/lastmile_qr_scan"}, "type": "electric_scooter", "name": "bf5227b42d058d03accdc61e9c465b1f", "is_reserved": 0, "lon": -77.01736233333334, "is_disabled": 0, "fusion_lat": 0.0, "lat": 38.90260166666667, "bike_id": "bf5227b42d058d03accdc61e9c465b1f", "fusion_lon": 0.0}, {"rental_uris": {"ios": "https://dc.lft.to/lastmile_qr_scan", "android": "https://dc.lft.to/lastmile_qr_scan"}, "type": "electric_scooter", "name": "485ee569089cfee8e46eea2e58f50053", "is_reserved": 0, "lon": -77.04507416666667, "is_disabled": 0, "fusion_lat": 0.0, "lat": 38.892255, "bike_id": "485ee569089cfee8e46eea2e58f50053", "fusion_lon": 0.0}, {"rental_uris": {"ios": "https://dc.lft.to/lastmile_qr_scan", "android": "https://dc.lft.to/lastmile_qr_scan"}, "type": "electric_scooter", "name": "5b1a563a063b50ab0d33570fa73c850c", "is_reserved": 0, "lon": -77.0329725, "is_disabled": 0, "fusion_lat": 0.0, "lat": 38.93034183333333, "bike_id": "5b1a563a063b50ab0d33570fa73c850c", "fusion_lon": 0.0}, {"rental_uris": {"ios": "https://dc.lft.to/lastmile_qr_scan", "android": "https://dc.lft.to/lastmile_qr_scan"}, "type": "electric_scooter", "name": "22e60447d8ebd89f4b3248d0a93a4688", "is_reserved": 0, "lon": -77.04076083333334, "is_disabled": 0, "fusion_lat": 0.0, "lat": 38.91590133333333, "bike_id": "22e60447d8ebd89f4b3248d0a93a4688", "fusion_lon": 0.0}, {"rental_uris": {"ios": "https://dc.lft.to/lastmile_qr_scan", "android": "https://dc.lft.to/lastmile_qr_scan"}, "type": "electric_bike", "name": "4f99e789f39574885cc999d946d626a1", "is_reserved": 0, "lon": -76.97702966666667, "is_disabled": 0, "fusion_lat": 0.0, "lat": 38.822097, "bike_id": "4f99e789f39574885cc999d946d626a1", "fusion_lon": 0.0}, {"rental_uris": {"ios": "https://dc.lft.to/lastmile_qr_scan", "android": "https://dc.lft.to/lastmile_qr_scan"}, "type": "electric_bike", "name": "5a5e50b69ebd605a209a29014c53e9c6", "is_reserved": 0, "lon": -77.08318183333333, "is_disabled": 0, "fusion_lat": 0.0, "lat": 38.85443083333333, "bike_id": "5a5e50b69ebd605a209a29014c53e9c6", "fusion_lon": 0.0}, {"rental_uris": {"ios": "https://dc.lft.to/lastmile_qr_scan", "android": "https://dc.lft.to/lastmile_qr_scan"}, "type": "electric_scooter", "name": "54fbde9351a4634c26f33e88f93c3c5d", "is_reserved": 0, "lon": -76.93744633333333, "is_disabled": 0, "fusion_lat": 0.0, "lat": 38.89012566666667, "bike_id": "54fbde9351a4634c26f33e88f93c3c5d", "fusion_lon": 0.0}, {"rental_uris": {"ios": "https://dc.lft.to/lastmile_qr_scan", "android": "https://dc.lft.to/lastmile_qr_scan"}, "type": "electric_scooter", "name": "5b7c5860f549245506d941569606d637", "is_reserved": 0, "lon": -77.03797266666666, "is_disabled": 0, "fusion_lat": 0.0, "lat": 38.9299625, "bike_id": "5b7c5860f549245506d941569606d637", "fusion_lon": 0.0}, {"rental_uris": {"ios": "https://dc.lft.to/lastmile_qr_scan", "android": "https://dc.lft.to/lastmile_qr_scan"}, "type": "electric_scooter", "name": "e9b53d50d0cd0b138ab9ec5e1b42722b", "is_reserved": 0, "lon": -76.98839916666667, "is_disabled": 0, "fusion_lat": 0.0, "lat": 38.90039266666667, "bike_id": "e9b53d50d0cd0b138ab9ec5e1b42722b", "fusion_lon": 0.0}, {"rental_uris": {"ios": "https://dc.lft.to/lastmile_qr_scan", "android": "https://dc.lft.to/lastmile_qr_scan"}, "type": "electric_scooter", "name": "644461a6f90f88c792a9c11568303ed1", "is_reserved": 0, "lon": -77.01730983333333, "is_disabled": 0, "fusion_lat": 0.0, "lat": 38.900852, "bike_id": "644461a6f90f88c792a9c11568303ed1", "fusion_lon": 0.0}, {"rental_uris": {"ios": "https://dc.lft.to/lastmile_qr_scan", "android": "https://dc.lft.to/lastmile_qr_scan"}, "type": "electric_scooter", "name": "a00569b73e2d0ffe1426c85a493298a7", "is_reserved": 0, "lon": -76.98447716666666, "is_disabled": 0, "fusion_lat": 0.0, "lat": 38.914661833333334, "bike_id": "a00569b73e2d0ffe1426c85a493298a7", "fusion_lon": 0.0}, {"rental_uris": {"ios": "https://dc.lft.to/lastmile_qr_scan", "android": "https://dc.lft.to/lastmile_qr_scan"}, "type": "electric_scooter", "name": "c29ea8158aea7c06c5f61c70b66e7daa", "is_reserved": 0, "lon": -77.020908, "is_disabled": 0, "fusion_lat": 0.0, "lat": 38.93011833333333, "bike_id": "c29ea8158aea7c06c5f61c70b66e7daa", "fusion_lon": 0.0}, {"rental_uris": {"ios": "https://dc.lft.to/lastmile_qr_scan", "android": "https://dc.lft.to/lastmile_qr_scan"}, "type": "electric_scooter", "name": "de7ef67d4d27b23c6ab9b5f057f78a92", "is_reserved": 0, "lon": -77.04327483333333, "is_disabled": 0, "fusion_lat": 0.0, "lat": 38.93410733333333, "bike_id": "de7ef67d4d27b23c6ab9b5f057f78a92", "fusion_lon": 0.0}, {"rental_uris": {"ios": "https://dc.lft.to/lastmile_qr_scan", "android": "https://dc.lft.to/lastmile_qr_scan"}, "type": "electric_scooter", "name": "37789ac560038362b7f0f9a99ad710cb", "is_reserved": 0, "lon": -77.04058916666666, "is_disabled": 0, "fusion_lat": 0.0, "lat": 38.91764716666667, "bike_id": "37789ac560038362b7f0f9a99ad710cb", "fusion_lon": 0.0}, {"rental_uris": {"ios": "https://dc.lft.to/lastmile_qr_scan", "android": "https://dc.lft.to/lastmile_qr_scan"}, "type": "electric_scooter", "name": "059a82e9ebe05e7ba591ff4213f692cb", "is_reserved": 0, "lon": -77.04878066666667, "is_disabled": 0, "fusion_lat": 0.0, "lat": 38.910562, "bike_id": "059a82e9ebe05e7ba591ff4213f692cb", "fusion_lon": 0.0}, {"rental_uris": {"ios": "https://dc.lft.to/lastmile_qr_scan", "android": "https://dc.lft.to/lastmile_qr_scan"}, "type": "electric_scooter", "name": "7562bd311f16faabf78b9909f586118a", "is_reserved": 0, "lon": -77.04858666666667, "is_disabled": 0, "fusion_lat": 0.0, "lat": 38.912653666666664, "bike_id": "7562bd311f16faabf78b9909f586118a", "fusion_lon": 0.0}, {"rental_uris": {"ios": "https://dc.lft.to/lastmile_qr_scan", "android": "https://dc.lft.to/lastmile_qr_scan"}, "type": "electric_bike", "name": "0bd9b2397f9715bfe96f14d9d5da5c9a", "is_reserved": 0, "lon": -77.11407083333333, "is_disabled": 0, "fusion_lat": 0.0, "lat": 38.87322133333333, "bike_id": "0bd9b2397f9715bfe96f14d9d5da5c9a", "fusion_lon": 0.0}, {"rental_uris": {"ios": "https://dc.lft.to/lastmile_qr_scan", "android": "https://dc.lft.to/lastmile_qr_scan"}, "type": "electric_scooter", "name": "bf6bdb95985de4b426fde44bfca34b19", "is_reserved": 0, "lon": -77.06388133333333, "is_disabled": 0, "fusion_lat": 0.0, "lat": 38.9450435, "bike_id": "bf6bdb95985de4b426fde44bfca34b19", "fusion_lon": 0.0}, {"rental_uris": {"ios": "https://dc.lft.to/lastmile_qr_scan", "android": "https://dc.lft.to/lastmile_qr_scan"}, "type": "electric_scooter", "name": "471cf1ed173d319a8e3741598f89f7a6", "is_reserved": 0, "lon": -76.983703, "is_disabled": 0, "fusion_lat": 0.0, "lat": 38.891322, "bike_id": "471cf1ed173d319a8e3741598f89f7a6", "fusion_lon": 0.0}, {"rental_uris": {"ios": "https://dc.lft.to/lastmile_qr_scan", "android": "https://dc.lft.to/lastmile_qr_scan"}, "type": "electric_scooter", "name": "fb9d760aa407b950bbc1b67d3aeee2f1", "is_reserved": 0, "lon": -77.02301416666667, "is_disabled": 0, "fusion_lat": 0.0, "lat": 38.91753716666667, "bike_id": "fb9d760aa407b950bbc1b67d3aeee2f1", "fusion_lon": 0.0}, {"rental_uris": {"ios": "https://dc.lft.to/lastmile_qr_scan", "android": "https://dc.lft.to/lastmile_qr_scan"}, "type": "electric_scooter", "name": "e04b324be2a5889604c58f50553ae36d", "is_reserved": 0, "lon": -77.04404966666667, "is_disabled": 0, "fusion_lat": 0.0, "lat": 38.9088905, "bike_id": "e04b324be2a5889604c58f50553ae36d", "fusion_lon": 0.0}, {"rental_uris": {"ios": "https://dc.lft.to/lastmile_qr_scan", "android": "https://dc.lft.to/lastmile_qr_scan"}, "type": "electric_scooter", "name": "80418bf3889b9b70e8e17bf0eee61a14", "is_reserved": 0, "lon": -77.068492, "is_disabled": 0, "fusion_lat": 0.0, "lat": 38.917215166666665, "bike_id": "80418bf3889b9b70e8e17bf0eee61a14", "fusion_lon": 0.0}, {"rental_uris": {"ios": "https://dc.lft.to/lastmile_qr_scan", "android": "https://dc.lft.to/lastmile_qr_scan"}, "type": "electric_scooter", "name": "c4f73f49b039e7aacf7b2b081bba11c3", "is_reserved": 0, "lon": -77.02825483333334, "is_disabled": 0, "fusion_lat": 0.0, "lat": 38.902576333333336, "bike_id": "c4f73f49b039e7aacf7b2b081bba11c3", "fusion_lon": 0.0}, {"rental_uris": {"ios": "https://dc.lft.to/lastmile_qr_scan", "android": "https://dc.lft.to/lastmile_qr_scan"}, "type": "electric_scooter", "name": "d150af36fb55c729c5c1a8f218064c57", "is_reserved": 0, "lon": -76.98336366666666, "is_disabled": 0, "fusion_lat": 0.0, "lat": 38.89543066666667, "bike_id": "d150af36fb55c729c5c1a8f218064c57", "fusion_lon": 0.0}, {"rental_uris": {"ios": "https://dc.lft.to/lastmile_qr_scan", "android": "https://dc.lft.to/lastmile_qr_scan"}, "type": "electric_bike", "name": "d8df66376960587dc6afcf2a833a1725", "is_reserved": 0, "lon": -77.1128165, "is_disabled": 0, "fusion_lat": 0.0, "lat": 38.831029666666666, "bike_id": "d8df66376960587dc6afcf2a833a1725", "fusion_lon": 0.0}, {"rental_uris": {"ios": "https://dc.lft.to/lastmile_qr_scan", "android": "https://dc.lft.to/lastmile_qr_scan"}, "type": "electric_scooter", "name": "e5f8b34b7740a38c85a3c1c531a6a2c1", "is_reserved": 0, "lon": -77.02687, "is_disabled": 0, "fusion_lat": 0.0, "lat": 38.930778833333335, "bike_id": "e5f8b34b7740a38c85a3c1c531a6a2c1", "fusion_lon": 0.0}, {"rental_uris": {"ios": "https://dc.lft.to/lastmile_qr_scan", "android": "https://dc.lft.to/lastmile_qr_scan"}, "type": "electric_bike", "name": "1456aa9f6f1e30498a71875132076c17", "is_reserved": 0, "lon": -77.02009766666667, "is_disabled": 0, "fusion_lat": 0.0, "lat": 39.02621233333333, "bike_id": "1456aa9f6f1e30498a71875132076c17", "fusion_lon": 0.0}, {"rental_uris": {"ios": "https://dc.lft.to/lastmile_qr_scan", "android": "https://dc.lft.to/lastmile_qr_scan"}, "type": "electric_scooter", "name": "6634333cdab954a4bda877c319028871", "is_reserved": 0, "lon": -77.03962883333334, "is_disabled": 0, "fusion_lat": 0.0, "lat": 38.89245116666667, "bike_id": "6634333cdab954a4bda877c319028871", "fusion_lon": 0.0}, {"rental_uris": {"ios": "https://dc.lft.to/lastmile_qr_scan", "android": "https://dc.lft.to/lastmile_qr_scan"}, "type": "electric_scooter", "name": "c0e1c526a526ed7be81e41634788f34d", "is_reserved": 0, "lon": -77.02934233333333, "is_disabled": 0, "fusion_lat": 0.0, "lat": 38.898136, "bike_id": "c0e1c526a526ed7be81e41634788f34d", "fusion_lon": 0.0}, {"rental_uris": {"ios": "https://dc.lft.to/lastmile_qr_scan", "android": "https://dc.lft.to/lastmile_qr_scan"}, "type": "electric_scooter", "name": "a04970e00df9fd12a79bfaeae9bc37c2", "is_reserved": 0, "lon": -77.00820416666667, "is_disabled": 0, "fusion_lat": 0.0, "lat": 38.915600166666664, "bike_id": "a04970e00df9fd12a79bfaeae9bc37c2", "fusion_lon": 0.0}, {"rental_uris": {"ios": "https://dc.lft.to/lastmile_qr_scan", "android": "https://dc.lft.to/lastmile_qr_scan"}, "type": "electric_bike", "name": "8de4bfa9a395b874e77c8d85ca565b34", "is_reserved": 0, "lon": -76.9988035, "is_disabled": 0, "fusion_lat": 0.0, "lat": 38.907517666666664, "bike_id": "8de4bfa9a395b874e77c8d85ca565b34", "fusion_lon": 0.0}, {"rental_uris": {"ios": "https://dc.lft.to/lastmile_qr_scan", "android": "https://dc.lft.to/lastmile_qr_scan"}, "type": "electric_scooter", "name": "8d8979c6b2ac28509d96dabddfc7ab64", "is_reserved": 0, "lon": -77.06322616666667, "is_disabled": 0, "fusion_lat": 0.0, "lat": 38.913361333333334, "bike_id": "8d8979c6b2ac28509d96dabddfc7ab64", "fusion_lon": 0.0}, {"rental_uris": {"ios": "https://dc.lft.to/lastmile_qr_scan", "android": "https://dc.lft.to/lastmile_qr_scan"}, "type": "electric_scooter", "name": "e76f9e32d57b50035a3e5b25632889dd", "is_reserved": 0, "lon": -77.02183566666666, "is_disabled": 0, "fusion_lat": 0.0, "lat": 38.92916366666667, "bike_id": "e76f9e32d57b50035a3e5b25632889dd", "fusion_lon": 0.0}, {"rental_uris": {"ios": "https://dc.lft.to/lastmile_qr_scan", "android": "https://dc.lft.to/lastmile_qr_scan"}, "type": "electric_scooter", "name": "da04592723f63354ae94544ebb635ac3", "is_reserved": 0, "lon": -77.04180866666667, "is_disabled": 0, "fusion_lat": 0.0, "lat": 38.9141165, "bike_id": "da04592723f63354ae94544ebb635ac3", "fusion_lon": 0.0}, {"rental_uris": {"ios": "https://dc.lft.to/lastmile_qr_scan", "android": "https://dc.lft.to/lastmile_qr_scan"}, "type": "electric_scooter", "name": "3b3e99888b504985732aa033026b6fae", "is_reserved": 0, "lon": -76.94713783333333, "is_disabled": 0, "fusion_lat": 0.0, "lat": 38.890834, "bike_id": "3b3e99888b504985732aa033026b6fae", "fusion_lon": 0.0}, {"rental_uris": {"ios": "https://dc.lft.to/lastmile_qr_scan", "android": "https://dc.lft.to/lastmile_qr_scan"}, "type": "electric_scooter", "name": "c9dfdd52abb576d905648c7d0436f261", "is_reserved": 0, "lon": -77.03229616666667, "is_disabled": 0, "fusion_lat": 0.0, "lat": 38.917108, "bike_id": "c9dfdd52abb576d905648c7d0436f261", "fusion_lon": 0.0}, {"rental_uris": {"ios": "https://dc.lft.to/lastmile_qr_scan", "android": "https://dc.lft.to/lastmile_qr_scan"}, "type": "electric_bike", "name": "da7ad993522a3e6d5b8741d37ab9a0e5", "is_reserved": 0, "lon": -77.08196583333333, "is_disabled": 0, "fusion_lat": 0.0, "lat": 38.92206616666667, "bike_id": "da7ad993522a3e6d5b8741d37ab9a0e5", "fusion_lon": 0.0}, {"rental_uris": {"ios": "https://dc.lft.to/lastmile_qr_scan", "android": "https://dc.lft.to/lastmile_qr_scan"}, "type": "electric_scooter", "name": "94d36be625c0090065522e5769a8c67a", "is_reserved": 0, "lon": -76.98359783333333, "is_disabled": 0, "fusion_lat": 0.0, "lat": 38.88730066666667, "bike_id": "94d36be625c0090065522e5769a8c67a", "fusion_lon": 0.0}, {"rental_uris": {"ios": "https://dc.lft.to/lastmile_qr_scan", "android": "https://dc.lft.to/lastmile_qr_scan"}, "type": "electric_scooter", "name": "8d8c98dc0751d9bb2e0084a1943bd86e", "is_reserved": 0, "lon": -77.00215383333334, "is_disabled": 0, "fusion_lat": 0.0, "lat": 38.90809466666666, "bike_id": "8d8c98dc0751d9bb2e0084a1943bd86e", "fusion_lon": 0.0}, {"rental_uris": {"ios": "https://dc.lft.to/lastmile_qr_scan", "android": "https://dc.lft.to/lastmile_qr_scan"}, "type": "electric_bike", "name": "0333ad3cc295221b3fccd1cb51753a38", "is_reserved": 0, "lon": -76.95741416666667, "is_disabled": 0, "fusion_lat": 0.0, "lat": 38.888578, "bike_id": "0333ad3cc295221b3fccd1cb51753a38", "fusion_lon": 0.0}, {"rental_uris": {"ios": "https://dc.lft.to/lastmile_qr_scan", "android": "https://dc.lft.to/lastmile_qr_scan"}, "type": "electric_scooter", "name": "4adfef0bfc719215ba97d75c2fc39f8c", "is_reserved": 0, "lon": -77.00517233333333, "is_disabled": 0, "fusion_lat": 0.0, "lat": 38.896728, "bike_id": "4adfef0bfc719215ba97d75c2fc39f8c", "fusion_lon": 0.0}, {"rental_uris": {"ios": "https://dc.lft.to/lastmile_qr_scan", "android": "https://dc.lft.to/lastmile_qr_scan"}, "type": "electric_scooter", "name": "845a68103ac16de3927924722b1a36f2", "is_reserved": 0, "lon": -77.04357233333333, "is_disabled": 0, "fusion_lat": 0.0, "lat": 38.901218, "bike_id": "845a68103ac16de3927924722b1a36f2", "fusion_lon": 0.0}, {"rental_uris": {"ios": "https://dc.lft.to/lastmile_qr_scan", "android": "https://dc.lft.to/lastmile_qr_scan"}, "type": "electric_scooter", "name": "30df07f6b394c6db8d72c5f8dacc022a", "is_reserved": 0, "lon": -77.03078966666666, "is_disabled": 0, "fusion_lat": 0.0, "lat": 38.89721566666667, "bike_id": "30df07f6b394c6db8d72c5f8dacc022a", "fusion_lon": 0.0}, {"rental_uris": {"ios": "https://dc.lft.to/lastmile_qr_scan", "android": "https://dc.lft.to/lastmile_qr_scan"}, "type": "electric_scooter", "name": "416817ad8b51a2650e3acd8f26c44d0c", "is_reserved": 0, "lon": -77.02843616666667, "is_disabled": 0, "fusion_lat": 0.0, "lat": 38.90438483333333, "bike_id": "416817ad8b51a2650e3acd8f26c44d0c", "fusion_lon": 0.0}, {"rental_uris": {"ios": "https://dc.lft.to/lastmile_qr_scan", "android": "https://dc.lft.to/lastmile_qr_scan"}, "type": "electric_scooter", "name": "c3294060a01aa7e95c646c262497f6ae", "is_reserved": 0, "lon": -77.03840483333333, "is_disabled": 0, "fusion_lat": 0.0, "lat": 38.910089666666664, "bike_id": "c3294060a01aa7e95c646c262497f6ae", "fusion_lon": 0.0}, {"rental_uris": {"ios": "https://dc.lft.to/lastmile_qr_scan", "android": "https://dc.lft.to/lastmile_qr_scan"}, "type": "electric_bike", "name": "441c7d436993eeda6ba8e0b40b7b4150", "is_reserved": 0, "lon": -77.089687, "is_disabled": 0, "fusion_lat": 0.0, "lat": 38.84115366666666, "bike_id": "441c7d436993eeda6ba8e0b40b7b4150", "fusion_lon": 0.0}, {"rental_uris": {"ios": "https://dc.lft.to/lastmile_qr_scan", "android": "https://dc.lft.to/lastmile_qr_scan"}, "type": "electric_scooter", "name": "572e63881d738f59f7e8e5df71ddbaf0", "is_reserved": 0, "lon": -77.06857866666667, "is_disabled": 0, "fusion_lat": 0.0, "lat": 38.90409, "bike_id": "572e63881d738f59f7e8e5df71ddbaf0", "fusion_lon": 0.0}, {"rental_uris": {"ios": "https://dc.lft.to/lastmile_qr_scan", "android": "https://dc.lft.to/lastmile_qr_scan"}, "type": "electric_scooter", "name": "0e2247cb55e85acf95024b6ee1a2b75e", "is_reserved": 0, "lon": -77.015624, "is_disabled": 0, "fusion_lat": 0.0, "lat": 38.88497916666667, "bike_id": "0e2247cb55e85acf95024b6ee1a2b75e", "fusion_lon": 0.0}, {"rental_uris": {"ios": "https://dc.lft.to/lastmile_qr_scan", "android": "https://dc.lft.to/lastmile_qr_scan"}, "type": "electric_scooter", "name": "e682aa3dc0ae6a94cb85308d326e0173", "is_reserved": 0, "lon": -77.03514483333333, "is_disabled": 0, "fusion_lat": 0.0, "lat": 38.92208983333333, "bike_id": "e682aa3dc0ae6a94cb85308d326e0173", "fusion_lon": 0.0}, {"rental_uris": {"ios": "https://dc.lft.to/lastmile_qr_scan", "android": "https://dc.lft.to/lastmile_qr_scan"}, "type": "electric_scooter", "name": "5452f3aad6aea1f7388be3c77e1d9ae9", "is_reserved": 0, "lon": -77.02458633333333, "is_disabled": 0, "fusion_lat": 0.0, "lat": 38.93712266666667, "bike_id": "5452f3aad6aea1f7388be3c77e1d9ae9", "fusion_lon": 0.0}, {"rental_uris": {"ios": "https://dc.lft.to/lastmile_qr_scan", "android": "https://dc.lft.to/lastmile_qr_scan"}, "type": "electric_scooter", "name": "65799e43307be166d270e4778856ad64", "is_reserved": 0, "lon": -77.01746616666667, "is_disabled": 0, "fusion_lat": 0.0, "lat": 38.88734916666667, "bike_id": "65799e43307be166d270e4778856ad64", "fusion_lon": 0.0}, {"rental_uris": {"ios": "https://dc.lft.to/lastmile_qr_scan", "android": "https://dc.lft.to/lastmile_qr_scan"}, "type": "electric_scooter", "name": "2439cb4be340908abef4a9704bcc81c1", "is_reserved": 0, "lon": -77.06033383333333, "is_disabled": 0, "fusion_lat": 0.0, "lat": 38.9023095, "bike_id": "2439cb4be340908abef4a9704bcc81c1", "fusion_lon": 0.0}, {"rental_uris": {"ios": "https://dc.lft.to/lastmile_qr_scan", "android": "https://dc.lft.to/lastmile_qr_scan"}, "type": "electric_bike", "name": "43f6ff503be9b2267aedd6a9ad1f2065", "is_reserved": 0, "lon": -76.9967975, "is_disabled": 0, "fusion_lat": 0.0, "lat": 38.83818016666667, "bike_id": "43f6ff503be9b2267aedd6a9ad1f2065", "fusion_lon": 0.0}, {"rental_uris": {"ios": "https://dc.lft.to/lastmile_qr_scan", "android": "https://dc.lft.to/lastmile_qr_scan"}, "type": "electric_scooter", "name": "095d5c095451045994b81aff2fe0bbf8", "is_reserved": 0, "lon": -77.04584816666667, "is_disabled": 0, "fusion_lat": 0.0, "lat": 38.914464833333334, "bike_id": "095d5c095451045994b81aff2fe0bbf8", "fusion_lon": 0.0}, {"rental_uris": {"ios": "https://dc.lft.to/lastmile_qr_scan", "android": "https://dc.lft.to/lastmile_qr_scan"}, "type": "electric_scooter", "name": "822d8c7917146b2781266c56d38563ad", "is_reserved": 0, "lon": -77.02959633333333, "is_disabled": 0, "fusion_lat": 0.0, "lat": 38.9101165, "bike_id": "822d8c7917146b2781266c56d38563ad", "fusion_lon": 0.0}, {"rental_uris": {"ios": "https://dc.lft.to/lastmile_qr_scan", "android": "https://dc.lft.to/lastmile_qr_scan"}, "type": "electric_scooter", "name": "dcef773cdc9163e3527140266c0b63e8", "is_reserved": 0, "lon": -77.02130066666666, "is_disabled": 0, "fusion_lat": 0.0, "lat": 38.928028833333336, "bike_id": "dcef773cdc9163e3527140266c0b63e8", "fusion_lon": 0.0}, {"rental_uris": {"ios": "https://dc.lft.to/lastmile_qr_scan", "android": "https://dc.lft.to/lastmile_qr_scan"}, "type": "electric_bike", "name": "8b8e155431034ed0a9c23201bff2acb0", "is_reserved": 0, "lon": -77.01224966666666, "is_disabled": 0, "fusion_lat": 0.0, "lat": 38.95072316666667, "bike_id": "8b8e155431034ed0a9c23201bff2acb0", "fusion_lon": 0.0}, {"rental_uris": {"ios": "https://dc.lft.to/lastmile_qr_scan", "android": "https://dc.lft.to/lastmile_qr_scan"}, "type": "electric_scooter", "name": "b9c80d24ac55c8bbe98c816e8cd26689", "is_reserved": 0, "lon": -77.046697, "is_disabled": 0, "fusion_lat": 0.0, "lat": 38.9094145, "bike_id": "b9c80d24ac55c8bbe98c816e8cd26689", "fusion_lon": 0.0}, {"rental_uris": {"ios": "https://dc.lft.to/lastmile_qr_scan", "android": "https://dc.lft.to/lastmile_qr_scan"}, "type": "electric_scooter", "name": "66e1d7daa6dc1cdcbdce93b04f2070bb", "is_reserved": 0, "lon": -77.02148433333333, "is_disabled": 0, "fusion_lat": 0.0, "lat": 38.88738166666667, "bike_id": "66e1d7daa6dc1cdcbdce93b04f2070bb", "fusion_lon": 0.0}, {"rental_uris": {"ios": "https://dc.lft.to/lastmile_qr_scan", "android": "https://dc.lft.to/lastmile_qr_scan"}, "type": "electric_scooter", "name": "2664af5951df967a77d01db0c1386411", "is_reserved": 0, "lon": -77.02111383333333, "is_disabled": 0, "fusion_lat": 0.0, "lat": 38.9059985, "bike_id": "2664af5951df967a77d01db0c1386411", "fusion_lon": 0.0}, {"rental_uris": {"ios": "https://dc.lft.to/lastmile_qr_scan", "android": "https://dc.lft.to/lastmile_qr_scan"}, "type": "electric_scooter", "name": "abefefa073723fabf9598fc88fcca152", "is_reserved": 0, "lon": -77.024734, "is_disabled": 0, "fusion_lat": 0.0, "lat": 38.91812683333333, "bike_id": "abefefa073723fabf9598fc88fcca152", "fusion_lon": 0.0}, {"rental_uris": {"ios": "https://dc.lft.to/lastmile_qr_scan", "android": "https://dc.lft.to/lastmile_qr_scan"}, "type": "electric_scooter", "name": "9e494e3e9f7b832e67d01a42afa58f92", "is_reserved": 0, "lon": -76.99319033333333, "is_disabled": 0, "fusion_lat": 0.0, "lat": 38.92012966666667, "bike_id": "9e494e3e9f7b832e67d01a42afa58f92", "fusion_lon": 0.0}, {"rental_uris": {"ios": "https://dc.lft.to/lastmile_qr_scan", "android": "https://dc.lft.to/lastmile_qr_scan"}, "type": "electric_bike", "name": "18e4cecffb452cc1c7e57f2e7e6a0ef6", "is_reserved": 0, "lon": -77.03436316666667, "is_disabled": 0, "fusion_lat": 0.0, "lat": 38.92866166666667, "bike_id": "18e4cecffb452cc1c7e57f2e7e6a0ef6", "fusion_lon": 0.0}, {"rental_uris": {"ios": "https://dc.lft.to/lastmile_qr_scan", "android": "https://dc.lft.to/lastmile_qr_scan"}, "type": "electric_scooter", "name": "f640691446b7ae0cce1a23a6cc3710ce", "is_reserved": 0, "lon": -77.03145883333333, "is_disabled": 0, "fusion_lat": 0.0, "lat": 38.909682333333336, "bike_id": "f640691446b7ae0cce1a23a6cc3710ce", "fusion_lon": 0.0}, {"rental_uris": {"ios": "https://dc.lft.to/lastmile_qr_scan", "android": "https://dc.lft.to/lastmile_qr_scan"}, "type": "electric_scooter", "name": "dfd82864d0cb0b988d490d85d791d8a0", "is_reserved": 0, "lon": -76.99620883333333, "is_disabled": 0, "fusion_lat": 0.0, "lat": 38.90058616666666, "bike_id": "dfd82864d0cb0b988d490d85d791d8a0", "fusion_lon": 0.0}, {"rental_uris": {"ios": "https://dc.lft.to/lastmile_qr_scan", "android": "https://dc.lft.to/lastmile_qr_scan"}, "type": "electric_scooter", "name": "15ae4ea124f014fe443df4642499f0de", "is_reserved": 0, "lon": -77.03250233333333, "is_disabled": 0, "fusion_lat": 0.0, "lat": 38.904801, "bike_id": "15ae4ea124f014fe443df4642499f0de", "fusion_lon": 0.0}, {"rental_uris": {"ios": "https://dc.lft.to/lastmile_qr_scan", "android": "https://dc.lft.to/lastmile_qr_scan"}, "type": "electric_scooter", "name": "de44dc97a43e7b0a428fac74eff89b9c", "is_reserved": 0, "lon": -77.0285025, "is_disabled": 0, "fusion_lat": 0.0, "lat": 38.93582766666667, "bike_id": "de44dc97a43e7b0a428fac74eff89b9c", "fusion_lon": 0.0}, {"rental_uris": {"ios": "https://dc.lft.to/lastmile_qr_scan", "android": "https://dc.lft.to/lastmile_qr_scan"}, "type": "electric_scooter", "name": "cf1f2c113da13022a86ae13284428668", "is_reserved": 0, "lon": -77.031842, "is_disabled": 0, "fusion_lat": 0.0, "lat": 38.91349533333333, "bike_id": "cf1f2c113da13022a86ae13284428668", "fusion_lon": 0.0}, {"rental_uris": {"ios": "https://dc.lft.to/lastmile_qr_scan", "android": "https://dc.lft.to/lastmile_qr_scan"}, "type": "electric_scooter", "name": "df032474b9fb235925bdf0327b1d1c50", "is_reserved": 0, "lon": -76.99474183333334, "is_disabled": 0, "fusion_lat": 0.0, "lat": 38.862118333333335, "bike_id": "df032474b9fb235925bdf0327b1d1c50", "fusion_lon": 0.0}, {"rental_uris": {"ios": "https://dc.lft.to/lastmile_qr_scan", "android": "https://dc.lft.to/lastmile_qr_scan"}, "type": "electric_scooter", "name": "560f5863d299036b357918de9f684a2a", "is_reserved": 0, "lon": -76.99140933333334, "is_disabled": 0, "fusion_lat": 0.0, "lat": 38.843028833333335, "bike_id": "560f5863d299036b357918de9f684a2a", "fusion_lon": 0.0}, {"rental_uris": {"ios": "https://dc.lft.to/lastmile_qr_scan", "android": "https://dc.lft.to/lastmile_qr_scan"}, "type": "electric_scooter", "name": "0e923f66aab288ec7f27841ce8b25ae1", "is_reserved": 0, "lon": -77.00546283333334, "is_disabled": 0, "fusion_lat": 0.0, "lat": 38.876367, "bike_id": "0e923f66aab288ec7f27841ce8b25ae1", "fusion_lon": 0.0}, {"rental_uris": {"ios": "https://dc.lft.to/lastmile_qr_scan", "android": "https://dc.lft.to/lastmile_qr_scan"}, "type": "electric_scooter", "name": "83d397628addb1c08e527eac856fffcf", "is_reserved": 0, "lon": -77.03196933333334, "is_disabled": 0, "fusion_lat": 0.0, "lat": 38.913166, "bike_id": "83d397628addb1c08e527eac856fffcf", "fusion_lon": 0.0}, {"rental_uris": {"ios": "https://dc.lft.to/lastmile_qr_scan", "android": "https://dc.lft.to/lastmile_qr_scan"}, "type": "electric_scooter", "name": "fc19b0cde81cf91e9eddc4d2bae60f1d", "is_reserved": 0, "lon": -77.06628183333333, "is_disabled": 0, "fusion_lat": 0.0, "lat": 38.9051435, "bike_id": "fc19b0cde81cf91e9eddc4d2bae60f1d", "fusion_lon": 0.0}, {"rental_uris": {"ios": "https://dc.lft.to/lastmile_qr_scan", "android": "https://dc.lft.to/lastmile_qr_scan"}, "type": "electric_bike", "name": "8dfe424b00c323273840ad2c2ede7008", "is_reserved": 0, "lon": -77.123662, "is_disabled": 0, "fusion_lat": 0.0, "lat": 38.8075545, "bike_id": "8dfe424b00c323273840ad2c2ede7008", "fusion_lon": 0.0}, {"rental_uris": {"ios": "https://dc.lft.to/lastmile_qr_scan", "android": "https://dc.lft.to/lastmile_qr_scan"}, "type": "electric_scooter", "name": "e09b06921d8fde1348a005ffbdbf065e", "is_reserved": 0, "lon": -77.02298633333334, "is_disabled": 0, "fusion_lat": 0.0, "lat": 38.89855333333333, "bike_id": "e09b06921d8fde1348a005ffbdbf065e", "fusion_lon": 0.0}, {"rental_uris": {"ios": "https://dc.lft.to/lastmile_qr_scan", "android": "https://dc.lft.to/lastmile_qr_scan"}, "type": "electric_scooter", "name": "a2a32b38cad7a0310eecfa8e9146bb5d", "is_reserved": 0, "lon": -77.02508816666666, "is_disabled": 0, "fusion_lat": 0.0, "lat": 38.935436833333334, "bike_id": "a2a32b38cad7a0310eecfa8e9146bb5d", "fusion_lon": 0.0}, {"rental_uris": {"ios": "https://dc.lft.to/lastmile_qr_scan", "android": "https://dc.lft.to/lastmile_qr_scan"}, "type": "electric_scooter", "name": "efa910be7dc05e4f31eb8605409a6b35", "is_reserved": 0, "lon": -77.059201, "is_disabled": 0, "fusion_lat": 0.0, "lat": 38.902739333333336, "bike_id": "efa910be7dc05e4f31eb8605409a6b35", "fusion_lon": 0.0}, {"rental_uris": {"ios": "https://dc.lft.to/lastmile_qr_scan", "android": "https://dc.lft.to/lastmile_qr_scan"}, "type": "electric_bike", "name": "429e4e4e099d2de3cd403f0b1b2840b9", "is_reserved": 0, "lon": -77.085293, "is_disabled": 0, "fusion_lat": 0.0, "lat": 38.856468166666666, "bike_id": "429e4e4e099d2de3cd403f0b1b2840b9", "fusion_lon": 0.0}, {"rental_uris": {"ios": "https://dc.lft.to/lastmile_qr_scan", "android": "https://dc.lft.to/lastmile_qr_scan"}, "type": "electric_scooter", "name": "e85b241a480742f1d90ce1b5f4a64bb1", "is_reserved": 0, "lon": -76.98502233333333, "is_disabled": 0, "fusion_lat": 0.0, "lat": 38.879921833333334, "bike_id": "e85b241a480742f1d90ce1b5f4a64bb1", "fusion_lon": 0.0}, {"rental_uris": {"ios": "https://dc.lft.to/lastmile_qr_scan", "android": "https://dc.lft.to/lastmile_qr_scan"}, "type": "electric_scooter", "name": "013a674598d07099ce18d94a84e3b6f9", "is_reserved": 0, "lon": -77.00559933333334, "is_disabled": 0, "fusion_lat": 0.0, "lat": 38.8755175, "bike_id": "013a674598d07099ce18d94a84e3b6f9", "fusion_lon": 0.0}, {"rental_uris": {"ios": "https://dc.lft.to/lastmile_qr_scan", "android": "https://dc.lft.to/lastmile_qr_scan"}, "type": "electric_scooter", "name": "75f921de0b172217b6ebfcf674d4b82a", "is_reserved": 0, "lon": -76.97937783333333, "is_disabled": 0, "fusion_lat": 0.0, "lat": 38.906595, "bike_id": "75f921de0b172217b6ebfcf674d4b82a", "fusion_lon": 0.0}, {"rental_uris": {"ios": "https://dc.lft.to/lastmile_qr_scan", "android": "https://dc.lft.to/lastmile_qr_scan"}, "type": "electric_scooter", "name": "9da8ed8fd2a91fb815db733005a0fd73", "is_reserved": 0, "lon": -77.0362935, "is_disabled": 0, "fusion_lat": 0.0, "lat": 38.937659, "bike_id": "9da8ed8fd2a91fb815db733005a0fd73", "fusion_lon": 0.0}, {"rental_uris": {"ios": "https://dc.lft.to/lastmile_qr_scan", "android": "https://dc.lft.to/lastmile_qr_scan"}, "type": "electric_scooter", "name": "1c7ef1f911038b5b26b2e3df102d90e8", "is_reserved": 0, "lon": -77.0366655, "is_disabled": 0, "fusion_lat": 0.0, "lat": 38.932074166666666, "bike_id": "1c7ef1f911038b5b26b2e3df102d90e8", "fusion_lon": 0.0}, {"rental_uris": {"ios": "https://dc.lft.to/lastmile_qr_scan", "android": "https://dc.lft.to/lastmile_qr_scan"}, "type": "electric_scooter", "name": "58750649e867c161ae896e3d5c99867d", "is_reserved": 0, "lon": -76.986133, "is_disabled": 0, "fusion_lat": 0.0, "lat": 38.93825866666667, "bike_id": "58750649e867c161ae896e3d5c99867d", "fusion_lon": 0.0}, {"rental_uris": {"ios": "https://dc.lft.to/lastmile_qr_scan", "android": "https://dc.lft.to/lastmile_qr_scan"}, "type": "electric_scooter", "name": "e3a832e5b4579a7412b99a9455af4f69", "is_reserved": 0, "lon": -77.04685766666667, "is_disabled": 0, "fusion_lat": 0.0, "lat": 38.8974035, "bike_id": "e3a832e5b4579a7412b99a9455af4f69", "fusion_lon": 0.0}, {"rental_uris": {"ios": "https://dc.lft.to/lastmile_qr_scan", "android": "https://dc.lft.to/lastmile_qr_scan"}, "type": "electric_scooter", "name": "cb2051e52842e03bce26d2285520b470", "is_reserved": 0, "lon": -77.04657966666667, "is_disabled": 0, "fusion_lat": 0.0, "lat": 38.89339366666667, "bike_id": "cb2051e52842e03bce26d2285520b470", "fusion_lon": 0.0}, {"rental_uris": {"ios": "https://dc.lft.to/lastmile_qr_scan", "android": "https://dc.lft.to/lastmile_qr_scan"}, "type": "electric_scooter", "name": "74d4bc28babbed9a0e30ec1df22e6253", "is_reserved": 0, "lon": -76.99634533333334, "is_disabled": 0, "fusion_lat": 0.0, "lat": 38.88765466666667, "bike_id": "74d4bc28babbed9a0e30ec1df22e6253", "fusion_lon": 0.0}, {"rental_uris": {"ios": "https://dc.lft.to/lastmile_qr_scan", "android": "https://dc.lft.to/lastmile_qr_scan"}, "type": "electric_scooter", "name": "bb0fac91fc31cb415f158bbb581bdb91", "is_reserved": 0, "lon": -77.007716, "is_disabled": 0, "fusion_lat": 0.0, "lat": 38.9097305, "bike_id": "bb0fac91fc31cb415f158bbb581bdb91", "fusion_lon": 0.0}, {"rental_uris": {"ios": "https://dc.lft.to/lastmile_qr_scan", "android": "https://dc.lft.to/lastmile_qr_scan"}, "type": "electric_scooter", "name": "3b42c4d557a6b8a19bdd8da6226063e8", "is_reserved": 0, "lon": -77.021662, "is_disabled": 0, "fusion_lat": 0.0, "lat": 38.91993, "bike_id": "3b42c4d557a6b8a19bdd8da6226063e8", "fusion_lon": 0.0}, {"rental_uris": {"ios": "https://dc.lft.to/lastmile_qr_scan", "android": "https://dc.lft.to/lastmile_qr_scan"}, "type": "electric_bike", "name": "70748e678c6099b5c046db5f743d2d44", "is_reserved": 0, "lon": -76.98093116666666, "is_disabled": 0, "fusion_lat": 0.0, "lat": 38.95353133333333, "bike_id": "70748e678c6099b5c046db5f743d2d44", "fusion_lon": 0.0}, {"rental_uris": {"ios": "https://dc.lft.to/lastmile_qr_scan", "android": "https://dc.lft.to/lastmile_qr_scan"}, "type": "electric_scooter", "name": "4643cb6d1e76abb664593bb70a06dada", "is_reserved": 0, "lon": -77.047083, "is_disabled": 0, "fusion_lat": 0.0, "lat": 38.90609966666667, "bike_id": "4643cb6d1e76abb664593bb70a06dada", "fusion_lon": 0.0}, {"rental_uris": {"ios": "https://dc.lft.to/lastmile_qr_scan", "android": "https://dc.lft.to/lastmile_qr_scan"}, "type": "electric_bike", "name": "d061c2f52b21f74e0b17a99227ada47d", "is_reserved": 0, "lon": -76.99547466666667, "is_disabled": 0, "fusion_lat": 0.0, "lat": 38.831556166666665, "bike_id": "d061c2f52b21f74e0b17a99227ada47d", "fusion_lon": 0.0}, {"rental_uris": {"ios": "https://dc.lft.to/lastmile_qr_scan", "android": "https://dc.lft.to/lastmile_qr_scan"}, "type": "electric_scooter", "name": "063703173a6c116b07fe4529a8ecac4e", "is_reserved": 0, "lon": -77.015143, "is_disabled": 0, "fusion_lat": 0.0, "lat": 38.887283833333335, "bike_id": "063703173a6c116b07fe4529a8ecac4e", "fusion_lon": 0.0}, {"rental_uris": {"ios": "https://dc.lft.to/lastmile_qr_scan", "android": "https://dc.lft.to/lastmile_qr_scan"}, "type": "electric_scooter", "name": "73f92dcbdf7d134bc7f9cfc7f6e4291f", "is_reserved": 0, "lon": -77.0556585, "is_disabled": 0, "fusion_lat": 0.0, "lat": 38.89976633333333, "bike_id": "73f92dcbdf7d134bc7f9cfc7f6e4291f", "fusion_lon": 0.0}, {"rental_uris": {"ios": "https://dc.lft.to/lastmile_qr_scan", "android": "https://dc.lft.to/lastmile_qr_scan"}, "type": "electric_scooter", "name": "3fe841ec97f4b557912e0512c561eb3e", "is_reserved": 0, "lon": -77.02839183333333, "is_disabled": 0, "fusion_lat": 0.0, "lat": 38.8873155, "bike_id": "3fe841ec97f4b557912e0512c561eb3e", "fusion_lon": 0.0}, {"rental_uris": {"ios": "https://dc.lft.to/lastmile_qr_scan", "android": "https://dc.lft.to/lastmile_qr_scan"}, "type": "electric_scooter", "name": "401f271c3cb99112392e165fc61306e2", "is_reserved": 0, "lon": -77.06566316666667, "is_disabled": 0, "fusion_lat": 0.0, "lat": 38.8833645, "bike_id": "401f271c3cb99112392e165fc61306e2", "fusion_lon": 0.0}, {"rental_uris": {"ios": "https://dc.lft.to/lastmile_qr_scan", "android": "https://dc.lft.to/lastmile_qr_scan"}, "type": "electric_scooter", "name": "5bab9635d8ede8b7d4ab2a1768a775d3", "is_reserved": 0, "lon": -77.03794433333333, "is_disabled": 0, "fusion_lat": 0.0, "lat": 38.92998816666667, "bike_id": "5bab9635d8ede8b7d4ab2a1768a775d3", "fusion_lon": 0.0}, {"rental_uris": {"ios": "https://dc.lft.to/lastmile_qr_scan", "android": "https://dc.lft.to/lastmile_qr_scan"}, "type": "electric_scooter", "name": "350ff79fcbe6c179ece8721b27b00bc4", "is_reserved": 0, "lon": -77.0296135, "is_disabled": 0, "fusion_lat": 0.0, "lat": 38.916704333333335, "bike_id": "350ff79fcbe6c179ece8721b27b00bc4", "fusion_lon": 0.0}, {"rental_uris": {"ios": "https://dc.lft.to/lastmile_qr_scan", "android": "https://dc.lft.to/lastmile_qr_scan"}, "type": "electric_scooter", "name": "e333e6ba6da65fb911ead1bc18fb6e52", "is_reserved": 0, "lon": -76.99628216666666, "is_disabled": 0, "fusion_lat": 0.0, "lat": 38.877356666666664, "bike_id": "e333e6ba6da65fb911ead1bc18fb6e52", "fusion_lon": 0.0}, {"rental_uris": {"ios": "https://dc.lft.to/lastmile_qr_scan", "android": "https://dc.lft.to/lastmile_qr_scan"}, "type": "electric_scooter", "name": "5163473eac3555e361b31c50542cf6b2", "is_reserved": 0, "lon": -77.031315, "is_disabled": 0, "fusion_lat": 0.0, "lat": 38.92371283333333, "bike_id": "5163473eac3555e361b31c50542cf6b2", "fusion_lon": 0.0}, {"rental_uris": {"ios": "https://dc.lft.to/lastmile_qr_scan", "android": "https://dc.lft.to/lastmile_qr_scan"}, "type": "electric_bike", "name": "11b938dc372fd002f77d1e2f3761a26b", "is_reserved": 0, "lon": -77.052702, "is_disabled": 0, "fusion_lat": 0.0, "lat": 38.940886166666665, "bike_id": "11b938dc372fd002f77d1e2f3761a26b", "fusion_lon": 0.0}, {"rental_uris": {"ios": "https://dc.lft.to/lastmile_qr_scan", "android": "https://dc.lft.to/lastmile_qr_scan"}, "type": "electric_scooter", "name": "de31374ecbd66311479ae3a8c4ec1e8f", "is_reserved": 0, "lon": -77.04904716666667, "is_disabled": 0, "fusion_lat": 0.0, "lat": 38.8973205, "bike_id": "de31374ecbd66311479ae3a8c4ec1e8f", "fusion_lon": 0.0}, {"rental_uris": {"ios": "https://dc.lft.to/lastmile_qr_scan", "android": "https://dc.lft.to/lastmile_qr_scan"}, "type": "electric_scooter", "name": "777d34569f0ea84b04480a9824994108", "is_reserved": 0, "lon": -77.03362183333333, "is_disabled": 0, "fusion_lat": 0.0, "lat": 38.897936333333334, "bike_id": "777d34569f0ea84b04480a9824994108", "fusion_lon": 0.0}, {"rental_uris": {"ios": "https://dc.lft.to/lastmile_qr_scan", "android": "https://dc.lft.to/lastmile_qr_scan"}, "type": "electric_scooter", "name": "d49b3e73809c0b7d3d843d8bcd876965", "is_reserved": 0, "lon": -76.995034, "is_disabled": 0, "fusion_lat": 0.0, "lat": 38.8810745, "bike_id": "d49b3e73809c0b7d3d843d8bcd876965", "fusion_lon": 0.0}, {"rental_uris": {"ios": "https://dc.lft.to/lastmile_qr_scan", "android": "https://dc.lft.to/lastmile_qr_scan"}, "type": "electric_bike", "name": "aa82aa2a1edacc72b2ba02b305e370eb", "is_reserved": 0, "lon": -77.02087333333333, "is_disabled": 0, "fusion_lat": 0.0, "lat": 38.958471, "bike_id": "aa82aa2a1edacc72b2ba02b305e370eb", "fusion_lon": 0.0}, {"rental_uris": {"ios": "https://dc.lft.to/lastmile_qr_scan", "android": "https://dc.lft.to/lastmile_qr_scan"}, "type": "electric_scooter", "name": "128ce4fb36fe01ca39ef0dcf369a2382", "is_reserved": 0, "lon": -77.03393083333333, "is_disabled": 0, "fusion_lat": 0.0, "lat": 38.89975916666667, "bike_id": "128ce4fb36fe01ca39ef0dcf369a2382", "fusion_lon": 0.0}, {"rental_uris": {"ios": "https://dc.lft.to/lastmile_qr_scan", "android": "https://dc.lft.to/lastmile_qr_scan"}, "type": "electric_scooter", "name": "a60471287ccc0b690cbb7a020fa29507", "is_reserved": 0, "lon": -77.0255965, "is_disabled": 0, "fusion_lat": 0.0, "lat": 38.88742233333333, "bike_id": "a60471287ccc0b690cbb7a020fa29507", "fusion_lon": 0.0}, {"rental_uris": {"ios": "https://dc.lft.to/lastmile_qr_scan", "android": "https://dc.lft.to/lastmile_qr_scan"}, "type": "electric_scooter", "name": "440bc1594e891585cfef6b31c144cdaf", "is_reserved": 0, "lon": -76.998389, "is_disabled": 0, "fusion_lat": 0.0, "lat": 38.900666333333334, "bike_id": "440bc1594e891585cfef6b31c144cdaf", "fusion_lon": 0.0}, {"rental_uris": {"ios": "https://dc.lft.to/lastmile_qr_scan", "android": "https://dc.lft.to/lastmile_qr_scan"}, "type": "electric_scooter", "name": "20b102f9901a077a4b128eff8dfb0366", "is_reserved": 0, "lon": -77.01699183333334, "is_disabled": 0, "fusion_lat": 0.0, "lat": 38.90450766666667, "bike_id": "20b102f9901a077a4b128eff8dfb0366", "fusion_lon": 0.0}, {"rental_uris": {"ios": "https://dc.lft.to/lastmile_qr_scan", "android": "https://dc.lft.to/lastmile_qr_scan"}, "type": "electric_scooter", "name": "f2bf2d4987439e950b0f5888ce7eb3b3", "is_reserved": 0, "lon": -77.01765833333333, "is_disabled": 0, "fusion_lat": 0.0, "lat": 38.88622566666667, "bike_id": "f2bf2d4987439e950b0f5888ce7eb3b3", "fusion_lon": 0.0}, {"rental_uris": {"ios": "https://dc.lft.to/lastmile_qr_scan", "android": "https://dc.lft.to/lastmile_qr_scan"}, "type": "electric_scooter", "name": "49671285ec43061db9d4051c3a02861a", "is_reserved": 0, "lon": -77.02362866666667, "is_disabled": 0, "fusion_lat": 0.0, "lat": 38.93528416666667, "bike_id": "49671285ec43061db9d4051c3a02861a", "fusion_lon": 0.0}, {"rental_uris": {"ios": "https://dc.lft.to/lastmile_qr_scan", "android": "https://dc.lft.to/lastmile_qr_scan"}, "type": "electric_scooter", "name": "16aef854963bebbe4d524a1693d5b31d", "is_reserved": 0, "lon": -77.02777266666666, "is_disabled": 0, "fusion_lat": 0.0, "lat": 38.897328, "bike_id": "16aef854963bebbe4d524a1693d5b31d", "fusion_lon": 0.0}, {"rental_uris": {"ios": "https://dc.lft.to/lastmile_qr_scan", "android": "https://dc.lft.to/lastmile_qr_scan"}, "type": "electric_bike", "name": "7bf8526672e56a3bc14f0dde6d016633", "is_reserved": 0, "lon": -77.02744266666667, "is_disabled": 0, "fusion_lat": 0.0, "lat": 38.969354833333334, "bike_id": "7bf8526672e56a3bc14f0dde6d016633", "fusion_lon": 0.0}, {"rental_uris": {"ios": "https://dc.lft.to/lastmile_qr_scan", "android": "https://dc.lft.to/lastmile_qr_scan"}, "type": "electric_scooter", "name": "bb302e6476ad281975fd2a2ff7165106", "is_reserved": 0, "lon": -77.04985233333333, "is_disabled": 0, "fusion_lat": 0.0, "lat": 38.90058066666667, "bike_id": "bb302e6476ad281975fd2a2ff7165106", "fusion_lon": 0.0}, {"rental_uris": {"ios": "https://dc.lft.to/lastmile_qr_scan", "android": "https://dc.lft.to/lastmile_qr_scan"}, "type": "electric_bike", "name": "48d0b27641037fa615eb971b296d963d", "is_reserved": 0, "lon": -76.96089466666666, "is_disabled": 0, "fusion_lat": 0.0, "lat": 38.91857916666667, "bike_id": "48d0b27641037fa615eb971b296d963d", "fusion_lon": 0.0}, {"rental_uris": {"ios": "https://dc.lft.to/lastmile_qr_scan", "android": "https://dc.lft.to/lastmile_qr_scan"}, "type": "electric_scooter", "name": "2613f4c170869db6386012be7eda0f6a", "is_reserved": 0, "lon": -77.031974, "is_disabled": 0, "fusion_lat": 0.0, "lat": 38.91315483333333, "bike_id": "2613f4c170869db6386012be7eda0f6a", "fusion_lon": 0.0}, {"rental_uris": {"ios": "https://dc.lft.to/lastmile_qr_scan", "android": "https://dc.lft.to/lastmile_qr_scan"}, "type": "electric_scooter", "name": "ca2cf0b1d1213a71a9ef324db50338ae", "is_reserved": 0, "lon": -77.033463, "is_disabled": 0, "fusion_lat": 0.0, "lat": 38.89831683333333, "bike_id": "ca2cf0b1d1213a71a9ef324db50338ae", "fusion_lon": 0.0}, {"rental_uris": {"ios": "https://dc.lft.to/lastmile_qr_scan", "android": "https://dc.lft.to/lastmile_qr_scan"}, "type": "electric_scooter", "name": "bd845199476fa893cd49ddee2011905d", "is_reserved": 0, "lon": -77.026737, "is_disabled": 0, "fusion_lat": 0.0, "lat": 38.91701416666667, "bike_id": "bd845199476fa893cd49ddee2011905d", "fusion_lon": 0.0}, {"rental_uris": {"ios": "https://dc.lft.to/lastmile_qr_scan", "android": "https://dc.lft.to/lastmile_qr_scan"}, "type": "electric_scooter", "name": "03cfa95b57b2cfd9309ba1092f067019", "is_reserved": 0, "lon": -77.02960583333333, "is_disabled": 0, "fusion_lat": 0.0, "lat": 38.904136, "bike_id": "03cfa95b57b2cfd9309ba1092f067019", "fusion_lon": 0.0}, {"rental_uris": {"ios": "https://dc.lft.to/lastmile_qr_scan", "android": "https://dc.lft.to/lastmile_qr_scan"}, "type": "electric_scooter", "name": "ee6ac0169064a4be1f4d8187b683ff97", "is_reserved": 0, "lon": -76.957443, "is_disabled": 0, "fusion_lat": 0.0, "lat": 38.88392, "bike_id": "ee6ac0169064a4be1f4d8187b683ff97", "fusion_lon": 0.0}, {"rental_uris": {"ios": "https://dc.lft.to/lastmile_qr_scan", "android": "https://dc.lft.to/lastmile_qr_scan"}, "type": "electric_scooter", "name": "d3a71b0af573b92f54dfc064f937d728", "is_reserved": 0, "lon": -77.0628175, "is_disabled": 0, "fusion_lat": 0.0, "lat": 38.912437833333335, "bike_id": "d3a71b0af573b92f54dfc064f937d728", "fusion_lon": 0.0}, {"rental_uris": {"ios": "https://dc.lft.to/lastmile_qr_scan", "android": "https://dc.lft.to/lastmile_qr_scan"}, "type": "electric_scooter", "name": "1ac683c2351d5d62defc6122cf0de451", "is_reserved": 0, "lon": -77.02786316666666, "is_disabled": 0, "fusion_lat": 0.0, "lat": 38.900869166666666, "bike_id": "1ac683c2351d5d62defc6122cf0de451", "fusion_lon": 0.0}, {"rental_uris": {"ios": "https://dc.lft.to/lastmile_qr_scan", "android": "https://dc.lft.to/lastmile_qr_scan"}, "type": "electric_scooter", "name": "4ad162f2821dd83b8c4bf33f993707e2", "is_reserved": 0, "lon": -77.0282095, "is_disabled": 0, "fusion_lat": 0.0, "lat": 38.89909983333333, "bike_id": "4ad162f2821dd83b8c4bf33f993707e2", "fusion_lon": 0.0}, {"rental_uris": {"ios": "https://dc.lft.to/lastmile_qr_scan", "android": "https://dc.lft.to/lastmile_qr_scan"}, "type": "electric_scooter", "name": "3a705275441d5ef930b6403d526c2803", "is_reserved": 0, "lon": -77.04471133333334, "is_disabled": 0, "fusion_lat": 0.0, "lat": 38.912069, "bike_id": "3a705275441d5ef930b6403d526c2803", "fusion_lon": 0.0}, {"rental_uris": {"ios": "https://dc.lft.to/lastmile_qr_scan", "android": "https://dc.lft.to/lastmile_qr_scan"}, "type": "electric_scooter", "name": "9ecb8977461d8b5acb6b30be70d665d9", "is_reserved": 0, "lon": -77.033434, "is_disabled": 0, "fusion_lat": 0.0, "lat": 38.90284483333333, "bike_id": "9ecb8977461d8b5acb6b30be70d665d9", "fusion_lon": 0.0}, {"rental_uris": {"ios": "https://dc.lft.to/lastmile_qr_scan", "android": "https://dc.lft.to/lastmile_qr_scan"}, "type": "electric_scooter", "name": "2249376b0589b05ee2de1be19f8820ec", "is_reserved": 0, "lon": -77.04333766666667, "is_disabled": 0, "fusion_lat": 0.0, "lat": 38.91297266666667, "bike_id": "2249376b0589b05ee2de1be19f8820ec", "fusion_lon": 0.0}, {"rental_uris": {"ios": "https://dc.lft.to/lastmile_qr_scan", "android": "https://dc.lft.to/lastmile_qr_scan"}, "type": "electric_scooter", "name": "87774fd071f88c489ebbc9419344128a", "is_reserved": 0, "lon": -76.98543983333333, "is_disabled": 0, "fusion_lat": 0.0, "lat": 38.9129135, "bike_id": "87774fd071f88c489ebbc9419344128a", "fusion_lon": 0.0}, {"rental_uris": {"ios": "https://dc.lft.to/lastmile_qr_scan", "android": "https://dc.lft.to/lastmile_qr_scan"}, "type": "electric_scooter", "name": "77d1ce22a5ae2ce3e5854eaa7d938c06", "is_reserved": 0, "lon": -77.03950633333334, "is_disabled": 0, "fusion_lat": 0.0, "lat": 38.900179333333334, "bike_id": "77d1ce22a5ae2ce3e5854eaa7d938c06", "fusion_lon": 0.0}, {"rental_uris": {"ios": "https://dc.lft.to/lastmile_qr_scan", "android": "https://dc.lft.to/lastmile_qr_scan"}, "type": "electric_bike", "name": "fae060598db001044f75739f6c77805d", "is_reserved": 0, "lon": -77.00207316666666, "is_disabled": 0, "fusion_lat": 0.0, "lat": 38.98846966666667, "bike_id": "fae060598db001044f75739f6c77805d", "fusion_lon": 0.0}, {"rental_uris": {"ios": "https://dc.lft.to/lastmile_qr_scan", "android": "https://dc.lft.to/lastmile_qr_scan"}, "type": "electric_scooter", "name": "6afb176174e46bd2139c41f8dab56c98", "is_reserved": 0, "lon": -77.02302866666666, "is_disabled": 0, "fusion_lat": 0.0, "lat": 38.961340666666665, "bike_id": "6afb176174e46bd2139c41f8dab56c98", "fusion_lon": 0.0}, {"rental_uris": {"ios": "https://dc.lft.to/lastmile_qr_scan", "android": "https://dc.lft.to/lastmile_qr_scan"}, "type": "electric_scooter", "name": "d3ccfef9b449246473d3ed9550f57a20", "is_reserved": 0, "lon": -77.02969433333334, "is_disabled": 0, "fusion_lat": 0.0, "lat": 38.904118833333335, "bike_id": "d3ccfef9b449246473d3ed9550f57a20", "fusion_lon": 0.0}, {"rental_uris": {"ios": "https://dc.lft.to/lastmile_qr_scan", "android": "https://dc.lft.to/lastmile_qr_scan"}, "type": "electric_scooter", "name": "271b4195bb1380450fa0286ffdf33df8", "is_reserved": 0, "lon": -77.04292066666666, "is_disabled": 0, "fusion_lat": 0.0, "lat": 38.911053333333335, "bike_id": "271b4195bb1380450fa0286ffdf33df8", "fusion_lon": 0.0}, {"rental_uris": {"ios": "https://dc.lft.to/lastmile_qr_scan", "android": "https://dc.lft.to/lastmile_qr_scan"}, "type": "electric_scooter", "name": "8ac9c99331946fad66a0995efd94aaa5", "is_reserved": 0, "lon": -77.01390566666667, "is_disabled": 0, "fusion_lat": 0.0, "lat": 38.878918166666665, "bike_id": "8ac9c99331946fad66a0995efd94aaa5", "fusion_lon": 0.0}, {"rental_uris": {"ios": "https://dc.lft.to/lastmile_qr_scan", "android": "https://dc.lft.to/lastmile_qr_scan"}, "type": "electric_scooter", "name": "60edc5a5ba47f132ffce891aea64cb31", "is_reserved": 0, "lon": -77.00599516666666, "is_disabled": 0, "fusion_lat": 0.0, "lat": 38.875698166666666, "bike_id": "60edc5a5ba47f132ffce891aea64cb31", "fusion_lon": 0.0}, {"rental_uris": {"ios": "https://dc.lft.to/lastmile_qr_scan", "android": "https://dc.lft.to/lastmile_qr_scan"}, "type": "electric_scooter", "name": "366bbd6da2acf4e5424e3a5a71e28193", "is_reserved": 0, "lon": -77.01789566666666, "is_disabled": 0, "fusion_lat": 0.0, "lat": 38.876808833333335, "bike_id": "366bbd6da2acf4e5424e3a5a71e28193", "fusion_lon": 0.0}, {"rental_uris": {"ios": "https://dc.lft.to/lastmile_qr_scan", "android": "https://dc.lft.to/lastmile_qr_scan"}, "type": "electric_scooter", "name": "63a5f6355cc1cf230ecf6a290d125b11", "is_reserved": 0, "lon": -77.03370816666667, "is_disabled": 0, "fusion_lat": 0.0, "lat": 38.91037083333333, "bike_id": "63a5f6355cc1cf230ecf6a290d125b11", "fusion_lon": 0.0}, {"rental_uris": {"ios": "https://dc.lft.to/lastmile_qr_scan", "android": "https://dc.lft.to/lastmile_qr_scan"}, "type": "electric_bike", "name": "be4ca41506b60cfc2136229b080cfec8", "is_reserved": 0, "lon": -77.03706633333333, "is_disabled": 0, "fusion_lat": 0.0, "lat": 38.93557233333333, "bike_id": "be4ca41506b60cfc2136229b080cfec8", "fusion_lon": 0.0}, {"rental_uris": {"ios": "https://dc.lft.to/lastmile_qr_scan", "android": "https://dc.lft.to/lastmile_qr_scan"}, "type": "electric_scooter", "name": "0ffb5ee32d6f213aa1c008e37f619dbc", "is_reserved": 0, "lon": -77.02819833333334, "is_disabled": 0, "fusion_lat": 0.0, "lat": 38.95644816666667, "bike_id": "0ffb5ee32d6f213aa1c008e37f619dbc", "fusion_lon": 0.0}, {"rental_uris": {"ios": "https://dc.lft.to/lastmile_qr_scan", "android": "https://dc.lft.to/lastmile_qr_scan"}, "type": "electric_scooter", "name": "f6bd2bbe540c4a028fe6d5a50af73ac7", "is_reserved": 0, "lon": -77.053524, "is_disabled": 0, "fusion_lat": 0.0, "lat": 38.903765666666665, "bike_id": "f6bd2bbe540c4a028fe6d5a50af73ac7", "fusion_lon": 0.0}, {"rental_uris": {"ios": "https://dc.lft.to/lastmile_qr_scan", "android": "https://dc.lft.to/lastmile_qr_scan"}, "type": "electric_bike", "name": "83b18663b20ca177834a17f7f04f5da9", "is_reserved": 0, "lon": -77.09623466666666, "is_disabled": 0, "fusion_lat": 0.0, "lat": 38.952482, "bike_id": "83b18663b20ca177834a17f7f04f5da9", "fusion_lon": 0.0}, {"rental_uris": {"ios": "https://dc.lft.to/lastmile_qr_scan", "android": "https://dc.lft.to/lastmile_qr_scan"}, "type": "electric_bike", "name": "bd6d3f79595d0a0a7ccd9df3e8e894ed", "is_reserved": 0, "lon": -77.0388005, "is_disabled": 0, "fusion_lat": 0.0, "lat": 39.026217833333334, "bike_id": "bd6d3f79595d0a0a7ccd9df3e8e894ed", "fusion_lon": 0.0}, {"rental_uris": {"ios": "https://dc.lft.to/lastmile_qr_scan", "android": "https://dc.lft.to/lastmile_qr_scan"}, "type": "electric_bike", "name": "fbe1bc6a92c77b5aec5d5d5de3a272fa", "is_reserved": 0, "lon": -77.12737, "is_disabled": 0, "fusion_lat": 0.0, "lat": 38.89561883333333, "bike_id": "fbe1bc6a92c77b5aec5d5d5de3a272fa", "fusion_lon": 0.0}, {"rental_uris": {"ios": "https://dc.lft.to/lastmile_qr_scan", "android": "https://dc.lft.to/lastmile_qr_scan"}, "type": "electric_scooter", "name": "9d82710e0c57c7410c048160042851b6", "is_reserved": 0, "lon": -77.05222816666667, "is_disabled": 0, "fusion_lat": 0.0, "lat": 38.889090833333334, "bike_id": "9d82710e0c57c7410c048160042851b6", "fusion_lon": 0.0}, {"rental_uris": {"ios": "https://dc.lft.to/lastmile_qr_scan", "android": "https://dc.lft.to/lastmile_qr_scan"}, "type": "electric_scooter", "name": "96b6dff81823516b4214ab84247d7892", "is_reserved": 0, "lon": -77.02381283333334, "is_disabled": 0, "fusion_lat": 0.0, "lat": 38.891946833333336, "bike_id": "96b6dff81823516b4214ab84247d7892", "fusion_lon": 0.0}, {"rental_uris": {"ios": "https://dc.lft.to/lastmile_qr_scan", "android": "https://dc.lft.to/lastmile_qr_scan"}, "type": "electric_scooter", "name": "5dd480830d6fc8d6f023f309b8631ab4", "is_reserved": 0, "lon": -77.01172816666667, "is_disabled": 0, "fusion_lat": 0.0, "lat": 38.8964535, "bike_id": "5dd480830d6fc8d6f023f309b8631ab4", "fusion_lon": 0.0}, {"rental_uris": {"ios": "https://dc.lft.to/lastmile_qr_scan", "android": "https://dc.lft.to/lastmile_qr_scan"}, "type": "electric_scooter", "name": "f463a75252184026a7e1528b735d6574", "is_reserved": 0, "lon": -76.93186516666667, "is_disabled": 0, "fusion_lat": 0.0, "lat": 38.898748, "bike_id": "f463a75252184026a7e1528b735d6574", "fusion_lon": 0.0}, {"rental_uris": {"ios": "https://dc.lft.to/lastmile_qr_scan", "android": "https://dc.lft.to/lastmile_qr_scan"}, "type": "electric_bike", "name": "958f290c26779abf32f621f9aba3935d", "is_reserved": 0, "lon": -77.03844933333333, "is_disabled": 0, "fusion_lat": 0.0, "lat": 38.90987366666667, "bike_id": "958f290c26779abf32f621f9aba3935d", "fusion_lon": 0.0}, {"rental_uris": {"ios": "https://dc.lft.to/lastmile_qr_scan", "android": "https://dc.lft.to/lastmile_qr_scan"}, "type": "electric_scooter", "name": "7c396e3e278ce60fd1fe6a3958dcf38d", "is_reserved": 0, "lon": -77.01019783333334, "is_disabled": 0, "fusion_lat": 0.0, "lat": 38.914075833333335, "bike_id": "7c396e3e278ce60fd1fe6a3958dcf38d", "fusion_lon": 0.0}, {"rental_uris": {"ios": "https://dc.lft.to/lastmile_qr_scan", "android": "https://dc.lft.to/lastmile_qr_scan"}, "type": "electric_scooter", "name": "55dd3c2ce190756b8c521e3f55787905", "is_reserved": 0, "lon": -76.9938095, "is_disabled": 0, "fusion_lat": 0.0, "lat": 38.893366666666665, "bike_id": "55dd3c2ce190756b8c521e3f55787905", "fusion_lon": 0.0}, {"rental_uris": {"ios": "https://dc.lft.to/lastmile_qr_scan", "android": "https://dc.lft.to/lastmile_qr_scan"}, "type": "electric_scooter", "name": "f46cb52bbfa468c214da33429b9450ca", "is_reserved": 0, "lon": -77.06484983333333, "is_disabled": 0, "fusion_lat": 0.0, "lat": 38.9270395, "bike_id": "f46cb52bbfa468c214da33429b9450ca", "fusion_lon": 0.0}, {"rental_uris": {"ios": "https://dc.lft.to/lastmile_qr_scan", "android": "https://dc.lft.to/lastmile_qr_scan"}, "type": "electric_scooter", "name": "ecf368d9b16be08b3a7d8a83e45c8d71", "is_reserved": 0, "lon": -77.0355065, "is_disabled": 0, "fusion_lat": 0.0, "lat": 38.91112066666667, "bike_id": "ecf368d9b16be08b3a7d8a83e45c8d71", "fusion_lon": 0.0}, {"rental_uris": {"ios": "https://dc.lft.to/lastmile_qr_scan", "android": "https://dc.lft.to/lastmile_qr_scan"}, "type": "electric_scooter", "name": "f86f18b4154e21d4c8b561cfcfde1eb0", "is_reserved": 0, "lon": -77.020788, "is_disabled": 0, "fusion_lat": 0.0, "lat": 38.927079, "bike_id": "f86f18b4154e21d4c8b561cfcfde1eb0", "fusion_lon": 0.0}, {"rental_uris": {"ios": "https://dc.lft.to/lastmile_qr_scan", "android": "https://dc.lft.to/lastmile_qr_scan"}, "type": "electric_scooter", "name": "1241f50c641bd5e97416270411996e48", "is_reserved": 0, "lon": -77.00255933333334, "is_disabled": 0, "fusion_lat": 0.0, "lat": 38.89474583333333, "bike_id": "1241f50c641bd5e97416270411996e48", "fusion_lon": 0.0}, {"rental_uris": {"ios": "https://dc.lft.to/lastmile_qr_scan", "android": "https://dc.lft.to/lastmile_qr_scan"}, "type": "electric_scooter", "name": "7fb11bff73fa43d1223c280306371909", "is_reserved": 0, "lon": -76.98456216666666, "is_disabled": 0, "fusion_lat": 0.0, "lat": 38.900096166666664, "bike_id": "7fb11bff73fa43d1223c280306371909", "fusion_lon": 0.0}, {"rental_uris": {"ios": "https://dc.lft.to/lastmile_qr_scan", "android": "https://dc.lft.to/lastmile_qr_scan"}, "type": "electric_scooter", "name": "91a1e27938d54d0c0ed0820c0f7822b7", "is_reserved": 0, "lon": -76.99159116666667, "is_disabled": 0, "fusion_lat": 0.0, "lat": 38.88813, "bike_id": "91a1e27938d54d0c0ed0820c0f7822b7", "fusion_lon": 0.0}, {"rental_uris": {"ios": "https://dc.lft.to/lastmile_qr_scan", "android": "https://dc.lft.to/lastmile_qr_scan"}, "type": "electric_scooter", "name": "8112780c695c3ac4379b8ade65c398e9", "is_reserved": 0, "lon": -77.00074916666667, "is_disabled": 0, "fusion_lat": 0.0, "lat": 38.87435383333333, "bike_id": "8112780c695c3ac4379b8ade65c398e9", "fusion_lon": 0.0}, {"rental_uris": {"ios": "https://dc.lft.to/lastmile_qr_scan", "android": "https://dc.lft.to/lastmile_qr_scan"}, "type": "electric_scooter", "name": "165c5608bbb9601ca54c5b71f5681956", "is_reserved": 0, "lon": -77.0281795, "is_disabled": 0, "fusion_lat": 0.0, "lat": 38.950803666666665, "bike_id": "165c5608bbb9601ca54c5b71f5681956", "fusion_lon": 0.0}, {"rental_uris": {"ios": "https://dc.lft.to/lastmile_qr_scan", "android": "https://dc.lft.to/lastmile_qr_scan"}, "type": "electric_scooter", "name": "74808c0c22279385cb918a1ebabde5c6", "is_reserved": 0, "lon": -77.0207455, "is_disabled": 0, "fusion_lat": 0.0, "lat": 38.881874333333336, "bike_id": "74808c0c22279385cb918a1ebabde5c6", "fusion_lon": 0.0}, {"rental_uris": {"ios": "https://dc.lft.to/lastmile_qr_scan", "android": "https://dc.lft.to/lastmile_qr_scan"}, "type": "electric_scooter", "name": "de63a006f1333f2f0d0f0206ac0ea1f0", "is_reserved": 0, "lon": -77.02932683333333, "is_disabled": 0, "fusion_lat": 0.0, "lat": 38.90727866666667, "bike_id": "de63a006f1333f2f0d0f0206ac0ea1f0", "fusion_lon": 0.0}, {"rental_uris": {"ios": "https://dc.lft.to/lastmile_qr_scan", "android": "https://dc.lft.to/lastmile_qr_scan"}, "type": "electric_scooter", "name": "5015d9c199012b6a3694f31b7389c667", "is_reserved": 0, "lon": -77.00759583333334, "is_disabled": 0, "fusion_lat": 0.0, "lat": 38.9102275, "bike_id": "5015d9c199012b6a3694f31b7389c667", "fusion_lon": 0.0}, {"rental_uris": {"ios": "https://dc.lft.to/lastmile_qr_scan", "android": "https://dc.lft.to/lastmile_qr_scan"}, "type": "electric_scooter", "name": "669c90b5c3a9cd2f8a792865f250fe92", "is_reserved": 0, "lon": -77.01769583333333, "is_disabled": 0, "fusion_lat": 0.0, "lat": 38.87676783333333, "bike_id": "669c90b5c3a9cd2f8a792865f250fe92", "fusion_lon": 0.0}, {"rental_uris": {"ios": "https://dc.lft.to/lastmile_qr_scan", "android": "https://dc.lft.to/lastmile_qr_scan"}, "type": "electric_bike", "name": "a06d0b4f370db60679dd304cdfbabf62", "is_reserved": 0, "lon": -76.94224283333334, "is_disabled": 0, "fusion_lat": 0.0, "lat": 38.890526, "bike_id": "a06d0b4f370db60679dd304cdfbabf62", "fusion_lon": 0.0}, {"rental_uris": {"ios": "https://dc.lft.to/lastmile_qr_scan", "android": "https://dc.lft.to/lastmile_qr_scan"}, "type": "electric_scooter", "name": "44631f57d50c933fea4c2f0f0c5c81c9", "is_reserved": 0, "lon": -77.007831, "is_disabled": 0, "fusion_lat": 0.0, "lat": 38.87565983333333, "bike_id": "44631f57d50c933fea4c2f0f0c5c81c9", "fusion_lon": 0.0}, {"rental_uris": {"ios": "https://dc.lft.to/lastmile_qr_scan", "android": "https://dc.lft.to/lastmile_qr_scan"}, "type": "electric_scooter", "name": "f098af2a1dd714c266d30e47992efac4", "is_reserved": 0, "lon": -77.0418905, "is_disabled": 0, "fusion_lat": 0.0, "lat": 38.92044466666667, "bike_id": "f098af2a1dd714c266d30e47992efac4", "fusion_lon": 0.0}, {"rental_uris": {"ios": "https://dc.lft.to/lastmile_qr_scan", "android": "https://dc.lft.to/lastmile_qr_scan"}, "type": "electric_scooter", "name": "b6672744263d3d9ba83dee615a3bdcc2", "is_reserved": 0, "lon": -77.07215683333334, "is_disabled": 0, "fusion_lat": 0.0, "lat": 38.8989865, "bike_id": "b6672744263d3d9ba83dee615a3bdcc2", "fusion_lon": 0.0}, {"rental_uris": {"ios": "https://dc.lft.to/lastmile_qr_scan", "android": "https://dc.lft.to/lastmile_qr_scan"}, "type": "electric_scooter", "name": "0f10ebbd3db0b66da6b6b6e8988a33e2", "is_reserved": 0, "lon": -77.0348235, "is_disabled": 0, "fusion_lat": 0.0, "lat": 38.92054483333333, "bike_id": "0f10ebbd3db0b66da6b6b6e8988a33e2", "fusion_lon": 0.0}, {"rental_uris": {"ios": "https://dc.lft.to/lastmile_qr_scan", "android": "https://dc.lft.to/lastmile_qr_scan"}, "type": "electric_bike", "name": "1382a53aa07ea63b1e37476d8e18cb89", "is_reserved": 0, "lon": -77.06697116666666, "is_disabled": 0, "fusion_lat": 0.0, "lat": 38.8317005, "bike_id": "1382a53aa07ea63b1e37476d8e18cb89", "fusion_lon": 0.0}, {"rental_uris": {"ios": "https://dc.lft.to/lastmile_qr_scan", "android": "https://dc.lft.to/lastmile_qr_scan"}, "type": "electric_scooter", "name": "07c1fd77487cb3c258aeadda7a4e0374", "is_reserved": 0, "lon": -77.038362, "is_disabled": 0, "fusion_lat": 0.0, "lat": 38.90984733333333, "bike_id": "07c1fd77487cb3c258aeadda7a4e0374", "fusion_lon": 0.0}, {"rental_uris": {"ios": "https://dc.lft.to/lastmile_qr_scan", "android": "https://dc.lft.to/lastmile_qr_scan"}, "type": "electric_scooter", "name": "0094c93a5bcd842b8f767482661c2be2", "is_reserved": 0, "lon": -76.970341, "is_disabled": 0, "fusion_lat": 0.0, "lat": 38.87317183333333, "bike_id": "0094c93a5bcd842b8f767482661c2be2", "fusion_lon": 0.0}, {"rental_uris": {"ios": "https://dc.lft.to/lastmile_qr_scan", "android": "https://dc.lft.to/lastmile_qr_scan"}, "type": "electric_scooter", "name": "450597004b07fbb354971842df3d0b1a", "is_reserved": 0, "lon": -77.04500133333333, "is_disabled": 0, "fusion_lat": 0.0, "lat": 38.8904905, "bike_id": "450597004b07fbb354971842df3d0b1a", "fusion_lon": 0.0}, {"rental_uris": {"ios": "https://dc.lft.to/lastmile_qr_scan", "android": "https://dc.lft.to/lastmile_qr_scan"}, "type": "electric_scooter", "name": "3662023992307e665b22e70b78ea762c", "is_reserved": 0, "lon": -77.02786216666667, "is_disabled": 0, "fusion_lat": 0.0, "lat": 38.95622916666667, "bike_id": "3662023992307e665b22e70b78ea762c", "fusion_lon": 0.0}, {"rental_uris": {"ios": "https://dc.lft.to/lastmile_qr_scan", "android": "https://dc.lft.to/lastmile_qr_scan"}, "type": "electric_scooter", "name": "fd5172baf5953a9d49aaf2ecd7d42330", "is_reserved": 0, "lon": -76.99777583333334, "is_disabled": 0, "fusion_lat": 0.0, "lat": 38.92280483333333, "bike_id": "fd5172baf5953a9d49aaf2ecd7d42330", "fusion_lon": 0.0}, {"rental_uris": {"ios": "https://dc.lft.to/lastmile_qr_scan", "android": "https://dc.lft.to/lastmile_qr_scan"}, "type": "electric_scooter", "name": "e768e42a8f0139f7dd682009ab7fc404", "is_reserved": 0, "lon": -76.93741083333333, "is_disabled": 0, "fusion_lat": 0.0, "lat": 38.89005483333333, "bike_id": "e768e42a8f0139f7dd682009ab7fc404", "fusion_lon": 0.0}, {"rental_uris": {"ios": "https://dc.lft.to/lastmile_qr_scan", "android": "https://dc.lft.to/lastmile_qr_scan"}, "type": "electric_scooter", "name": "a676ea271c2278c38dd7f2b47278a7c9", "is_reserved": 0, "lon": -77.02811283333334, "is_disabled": 0, "fusion_lat": 0.0, "lat": 38.930826, "bike_id": "a676ea271c2278c38dd7f2b47278a7c9", "fusion_lon": 0.0}, {"rental_uris": {"ios": "https://dc.lft.to/lastmile_qr_scan", "android": "https://dc.lft.to/lastmile_qr_scan"}, "type": "electric_scooter", "name": "0c1883c58d60b3f4414b9e268973e463", "is_reserved": 0, "lon": -77.03012516666666, "is_disabled": 0, "fusion_lat": 0.0, "lat": 38.908933, "bike_id": "0c1883c58d60b3f4414b9e268973e463", "fusion_lon": 0.0}, {"rental_uris": {"ios": "https://dc.lft.to/lastmile_qr_scan", "android": "https://dc.lft.to/lastmile_qr_scan"}, "type": "electric_scooter", "name": "cac89a2d1a77baac4fbbffa773a42545", "is_reserved": 0, "lon": -76.93392666666666, "is_disabled": 0, "fusion_lat": 0.0, "lat": 38.899063, "bike_id": "cac89a2d1a77baac4fbbffa773a42545", "fusion_lon": 0.0}, {"rental_uris": {"ios": "https://dc.lft.to/lastmile_qr_scan", "android": "https://dc.lft.to/lastmile_qr_scan"}, "type": "electric_scooter", "name": "243721d7cca8e7d2017a32289b7f0b71", "is_reserved": 0, "lon": -76.99508533333334, "is_disabled": 0, "fusion_lat": 0.0, "lat": 38.909781, "bike_id": "243721d7cca8e7d2017a32289b7f0b71", "fusion_lon": 0.0}, {"rental_uris": {"ios": "https://dc.lft.to/lastmile_qr_scan", "android": "https://dc.lft.to/lastmile_qr_scan"}, "type": "electric_scooter", "name": "d7371427e90a58fa46977da0ebd2d330", "is_reserved": 0, "lon": -77.0297725, "is_disabled": 0, "fusion_lat": 0.0, "lat": 38.92637833333333, "bike_id": "d7371427e90a58fa46977da0ebd2d330", "fusion_lon": 0.0}, {"rental_uris": {"ios": "https://dc.lft.to/lastmile_qr_scan", "android": "https://dc.lft.to/lastmile_qr_scan"}, "type": "electric_scooter", "name": "7673b7640d4b608a83b332e2d01c3f88", "is_reserved": 0, "lon": -77.03795366666667, "is_disabled": 0, "fusion_lat": 0.0, "lat": 38.92674916666667, "bike_id": "7673b7640d4b608a83b332e2d01c3f88", "fusion_lon": 0.0}, {"rental_uris": {"ios": "https://dc.lft.to/lastmile_qr_scan", "android": "https://dc.lft.to/lastmile_qr_scan"}, "type": "electric_bike", "name": "de511a532e0bbebe0f13db60ad857872", "is_reserved": 0, "lon": -77.032803, "is_disabled": 0, "fusion_lat": 0.0, "lat": 38.880933166666665, "bike_id": "de511a532e0bbebe0f13db60ad857872", "fusion_lon": 0.0}, {"rental_uris": {"ios": "https://dc.lft.to/lastmile_qr_scan", "android": "https://dc.lft.to/lastmile_qr_scan"}, "type": "electric_scooter", "name": "38b3eb37253053ea8c9c3cd7caea258f", "is_reserved": 0, "lon": -77.01524866666666, "is_disabled": 0, "fusion_lat": 0.0, "lat": 38.8927145, "bike_id": "38b3eb37253053ea8c9c3cd7caea258f", "fusion_lon": 0.0}, {"rental_uris": {"ios": "https://dc.lft.to/lastmile_qr_scan", "android": "https://dc.lft.to/lastmile_qr_scan"}, "type": "electric_scooter", "name": "92450f446f43fea1dff575542b61bef2", "is_reserved": 0, "lon": -76.97713166666666, "is_disabled": 0, "fusion_lat": 0.0, "lat": 38.888213, "bike_id": "92450f446f43fea1dff575542b61bef2", "fusion_lon": 0.0}, {"rental_uris": {"ios": "https://dc.lft.to/lastmile_qr_scan", "android": "https://dc.lft.to/lastmile_qr_scan"}, "type": "electric_scooter", "name": "962ccb3533c1d22f5be0e81f6bbbae57", "is_reserved": 0, "lon": -77.02406633333334, "is_disabled": 0, "fusion_lat": 0.0, "lat": 38.93110466666667, "bike_id": "962ccb3533c1d22f5be0e81f6bbbae57", "fusion_lon": 0.0}, {"rental_uris": {"ios": "https://dc.lft.to/lastmile_qr_scan", "android": "https://dc.lft.to/lastmile_qr_scan"}, "type": "electric_scooter", "name": "03bbe4c6433a4285992f8f3582493550", "is_reserved": 0, "lon": -77.0179295, "is_disabled": 0, "fusion_lat": 0.0, "lat": 38.89235733333334, "bike_id": "03bbe4c6433a4285992f8f3582493550", "fusion_lon": 0.0}, {"rental_uris": {"ios": "https://dc.lft.to/lastmile_qr_scan", "android": "https://dc.lft.to/lastmile_qr_scan"}, "type": "electric_scooter", "name": "29d1028ae3d99675492d6e4c69814b69", "is_reserved": 0, "lon": -77.01654833333333, "is_disabled": 0, "fusion_lat": 0.0, "lat": 38.9420225, "bike_id": "29d1028ae3d99675492d6e4c69814b69", "fusion_lon": 0.0}, {"rental_uris": {"ios": "https://dc.lft.to/lastmile_qr_scan", "android": "https://dc.lft.to/lastmile_qr_scan"}, "type": "electric_scooter", "name": "0663e6db971deb5c7416348f6c508c32", "is_reserved": 0, "lon": -77.03212433333333, "is_disabled": 0, "fusion_lat": 0.0, "lat": 38.91425866666667, "bike_id": "0663e6db971deb5c7416348f6c508c32", "fusion_lon": 0.0}, {"rental_uris": {"ios": "https://dc.lft.to/lastmile_qr_scan", "android": "https://dc.lft.to/lastmile_qr_scan"}, "type": "electric_scooter", "name": "13432b6b98e98cb387c6f54aff2df479", "is_reserved": 0, "lon": -76.94063266666667, "is_disabled": 0, "fusion_lat": 0.0, "lat": 38.8859035, "bike_id": "13432b6b98e98cb387c6f54aff2df479", "fusion_lon": 0.0}, {"rental_uris": {"ios": "https://dc.lft.to/lastmile_qr_scan", "android": "https://dc.lft.to/lastmile_qr_scan"}, "type": "electric_scooter", "name": "55b55124ac98aaf58f7243873e7eafc7", "is_reserved": 0, "lon": -77.00831583333333, "is_disabled": 0, "fusion_lat": 0.0, "lat": 38.91363283333333, "bike_id": "55b55124ac98aaf58f7243873e7eafc7", "fusion_lon": 0.0}, {"rental_uris": {"ios": "https://dc.lft.to/lastmile_qr_scan", "android": "https://dc.lft.to/lastmile_qr_scan"}, "type": "electric_bike", "name": "2f23ee13ab603705a99d9d722aa4d0a4", "is_reserved": 0, "lon": -76.90737366666667, "is_disabled": 0, "fusion_lat": 0.0, "lat": 38.896164666666664, "bike_id": "2f23ee13ab603705a99d9d722aa4d0a4", "fusion_lon": 0.0}, {"rental_uris": {"ios": "https://dc.lft.to/lastmile_qr_scan", "android": "https://dc.lft.to/lastmile_qr_scan"}, "type": "electric_scooter", "name": "9d82e9ef0e32ab9b7b99eb031a578ea7", "is_reserved": 0, "lon": -77.0053155, "is_disabled": 0, "fusion_lat": 0.0, "lat": 38.87462716666667, "bike_id": "9d82e9ef0e32ab9b7b99eb031a578ea7", "fusion_lon": 0.0}, {"rental_uris": {"ios": "https://dc.lft.to/lastmile_qr_scan", "android": "https://dc.lft.to/lastmile_qr_scan"}, "type": "electric_scooter", "name": "d9d98aba924bc8351a98dbcef34addc0", "is_reserved": 0, "lon": -76.99032683333333, "is_disabled": 0, "fusion_lat": 0.0, "lat": 38.8844885, "bike_id": "d9d98aba924bc8351a98dbcef34addc0", "fusion_lon": 0.0}, {"rental_uris": {"ios": "https://dc.lft.to/lastmile_qr_scan", "android": "https://dc.lft.to/lastmile_qr_scan"}, "type": "electric_scooter", "name": "864bcb2f7fe5cff9ebd56204bf22618a", "is_reserved": 0, "lon": -77.04879416666667, "is_disabled": 0, "fusion_lat": 0.0, "lat": 38.916173666666666, "bike_id": "864bcb2f7fe5cff9ebd56204bf22618a", "fusion_lon": 0.0}, {"rental_uris": {"ios": "https://dc.lft.to/lastmile_qr_scan", "android": "https://dc.lft.to/lastmile_qr_scan"}, "type": "electric_scooter", "name": "c112493a62858cc19ee345bb2fe15282", "is_reserved": 0, "lon": -77.03833816666666, "is_disabled": 0, "fusion_lat": 0.0, "lat": 38.90712283333333, "bike_id": "c112493a62858cc19ee345bb2fe15282", "fusion_lon": 0.0}, {"rental_uris": {"ios": "https://dc.lft.to/lastmile_qr_scan", "android": "https://dc.lft.to/lastmile_qr_scan"}, "type": "electric_scooter", "name": "f86fbb1972a6f347e9c83cea3631f559", "is_reserved": 0, "lon": -77.0320605, "is_disabled": 0, "fusion_lat": 0.0, "lat": 38.914168333333336, "bike_id": "f86fbb1972a6f347e9c83cea3631f559", "fusion_lon": 0.0}, {"rental_uris": {"ios": "https://dc.lft.to/lastmile_qr_scan", "android": "https://dc.lft.to/lastmile_qr_scan"}, "type": "electric_scooter", "name": "8aeb6b150002daf473a137ac786e2be1", "is_reserved": 0, "lon": -77.00742966666667, "is_disabled": 0, "fusion_lat": 0.0, "lat": 38.9252655, "bike_id": "8aeb6b150002daf473a137ac786e2be1", "fusion_lon": 0.0}, {"rental_uris": {"ios": "https://dc.lft.to/lastmile_qr_scan", "android": "https://dc.lft.to/lastmile_qr_scan"}, "type": "electric_scooter", "name": "f3484ea0656419522cac7daceee51fcf", "is_reserved": 0, "lon": -77.03531883333333, "is_disabled": 0, "fusion_lat": 0.0, "lat": 38.924690166666664, "bike_id": "f3484ea0656419522cac7daceee51fcf", "fusion_lon": 0.0}, {"rental_uris": {"ios": "https://dc.lft.to/lastmile_qr_scan", "android": "https://dc.lft.to/lastmile_qr_scan"}, "type": "electric_scooter", "name": "0b51d9442347c028d2cd12c9029b8458", "is_reserved": 0, "lon": -77.032005, "is_disabled": 0, "fusion_lat": 0.0, "lat": 38.884686, "bike_id": "0b51d9442347c028d2cd12c9029b8458", "fusion_lon": 0.0}, {"rental_uris": {"ios": "https://dc.lft.to/lastmile_qr_scan", "android": "https://dc.lft.to/lastmile_qr_scan"}, "type": "electric_scooter", "name": "c423849efd8e0875f7bf5394bb7b06ec", "is_reserved": 0, "lon": -77.02971183333334, "is_disabled": 0, "fusion_lat": 0.0, "lat": 38.91677, "bike_id": "c423849efd8e0875f7bf5394bb7b06ec", "fusion_lon": 0.0}, {"rental_uris": {"ios": "https://dc.lft.to/lastmile_qr_scan", "android": "https://dc.lft.to/lastmile_qr_scan"}, "type": "electric_scooter", "name": "135c404024c51314fc122f8c38c0054a", "is_reserved": 0, "lon": -76.99233433333333, "is_disabled": 0, "fusion_lat": 0.0, "lat": 38.88752016666667, "bike_id": "135c404024c51314fc122f8c38c0054a", "fusion_lon": 0.0}, {"rental_uris": {"ios": "https://dc.lft.to/lastmile_qr_scan", "android": "https://dc.lft.to/lastmile_qr_scan"}, "type": "electric_scooter", "name": "336782050185ff120415d436c390ef35", "is_reserved": 0, "lon": -77.02634766666667, "is_disabled": 0, "fusion_lat": 0.0, "lat": 38.89995233333333, "bike_id": "336782050185ff120415d436c390ef35", "fusion_lon": 0.0}, {"rental_uris": {"ios": "https://dc.lft.to/lastmile_qr_scan", "android": "https://dc.lft.to/lastmile_qr_scan"}, "type": "electric_scooter", "name": "d8c619908e15298fda832ab171bec4b1", "is_reserved": 0, "lon": -77.01762, "is_disabled": 0, "fusion_lat": 0.0, "lat": 38.87678616666667, "bike_id": "d8c619908e15298fda832ab171bec4b1", "fusion_lon": 0.0}, {"rental_uris": {"ios": "https://dc.lft.to/lastmile_qr_scan", "android": "https://dc.lft.to/lastmile_qr_scan"}, "type": "electric_scooter", "name": "bd4b0ba7e9d48f9cf797781833b2e545", "is_reserved": 0, "lon": -77.00312983333333, "is_disabled": 0, "fusion_lat": 0.0, "lat": 38.877236833333335, "bike_id": "bd4b0ba7e9d48f9cf797781833b2e545", "fusion_lon": 0.0}, {"rental_uris": {"ios": "https://dc.lft.to/lastmile_qr_scan", "android": "https://dc.lft.to/lastmile_qr_scan"}, "type": "electric_bike", "name": "256302476919c5e94e1d9a6bd49865ec", "is_reserved": 0, "lon": -77.007598, "is_disabled": 0, "fusion_lat": 0.0, "lat": 38.99781, "bike_id": "256302476919c5e94e1d9a6bd49865ec", "fusion_lon": 0.0}, {"rental_uris": {"ios": "https://dc.lft.to/lastmile_qr_scan", "android": "https://dc.lft.to/lastmile_qr_scan"}, "type": "electric_scooter", "name": "cb381ea7d5a07701b15c87bbb63f82db", "is_reserved": 0, "lon": -77.00057366666667, "is_disabled": 0, "fusion_lat": 0.0, "lat": 38.8768055, "bike_id": "cb381ea7d5a07701b15c87bbb63f82db", "fusion_lon": 0.0}, {"rental_uris": {"ios": "https://dc.lft.to/lastmile_qr_scan", "android": "https://dc.lft.to/lastmile_qr_scan"}, "type": "electric_scooter", "name": "218b390f2d851d62bc5f23ab11b10151", "is_reserved": 0, "lon": -77.03952683333333, "is_disabled": 0, "fusion_lat": 0.0, "lat": 38.898273, "bike_id": "218b390f2d851d62bc5f23ab11b10151", "fusion_lon": 0.0}, {"rental_uris": {"ios": "https://dc.lft.to/lastmile_qr_scan", "android": "https://dc.lft.to/lastmile_qr_scan"},