{"data": {"bikes": [{"type": "electric_scooter", "rental_uris": {"ios": "https://dc.lft.to/lastmile_qr_scan", "android": "https://dc.lft.to/lastmile_qr_scan"}, "lon": -77.029689, "fusion_lon": 0.0, "is_disabled": 0, "lat": 38.91683733333333, "bike_id": "3b94f37c66681950cb18bffbfff4e9d2", "name": "3b94f37c66681950cb18bffbfff4e9d2", "is_reserved": 0, "fusion_lat": 0.0}, {"type": "electric_scooter", "rental_uris": {"ios": "https://dc.lft.to/lastmile_qr_scan", "android": "https://dc.lft.to/lastmile_qr_scan"}, "lon": -76.98728266666667, "fusion_lon": 0.0, "is_disabled": 0, "lat": 38.86707916666667, "bike_id": "5eabd5745e37a90ce06710b1dc50e6f4", "name": "5eabd5745e37a90ce06710b1dc50e6f4", "is_reserved": 0, "fusion_lat": 0.0}, {"type": "electric_scooter", "rental_uris": {"ios": "https://dc.lft.to/lastmile_qr_scan", "android": "https://dc.lft.to/lastmile_qr_scan"}, "lon": -77.02694166666667, "fusion_lon": 0.0, "is_disabled": 0, "lat": 38.906716, "bike_id": "03ce6fe23bac28b112858b3c3b0342fd", "name": "03ce6fe23bac28b112858b3c3b0342fd", "is_reserved": 0, "fusion_lat": 0.0}, {"type": "electric_scooter", "rental_uris": {"ios": "https://dc.lft.to/lastmile_qr_scan", "android": "https://dc.lft.to/lastmile_qr_scan"}, "lon": -77.0527255, "fusion_lon": 0.0, "is_disabled": 0, "lat": 38.92544216666667, "bike_id": "4874bd69f595c40a185812de2a569216", "name": "4874bd69f595c40a185812de2a569216", "is_reserved": 0, "fusion_lat": 0.0}, {"type": "electric_scooter", "rental_uris": {"ios": "https://dc.lft.to/lastmile_qr_scan", "android": "https://dc.lft.to/lastmile_qr_scan"}, "lon": -77.04512883333334, "fusion_lon": 0.0, "is_disabled": 0, "lat": 38.912728, "bike_id": "04057f55ec5cc947200a37b515a794fc", "name": "04057f55ec5cc947200a37b515a794fc", "is_reserved": 0, "fusion_lat": 0.0}, {"type": "electric_scooter", "rental_uris": {"ios": "https://dc.lft.to/lastmile_qr_scan", "android": "https://dc.lft.to/lastmile_qr_scan"}, "lon": -76.99828016666666, "fusion_lon": 0.0, "is_disabled": 0, "lat": 38.88532983333333, "bike_id": "0db0f5904d29007e9cff3b717f2f28bc", "name": "0db0f5904d29007e9cff3b717f2f28bc", "is_reserved": 0, "fusion_lat": 0.0}, {"type": "electric_bike", "rental_uris": {"ios": "https://dc.lft.to/lastmile_qr_scan", "android": "https://dc.lft.to/lastmile_qr_scan"}, "lon": -76.99353983333333, "fusion_lon": 0.0, "is_disabled": 0, "lat": 38.845011666666664, "bike_id": "d1deb8b9b9a2f0c7f6796dc7de38dbf6", "name": "d1deb8b9b9a2f0c7f6796dc7de38dbf6", "is_reserved": 0, "fusion_lat": 0.0}, {"type": "electric_scooter", "rental_uris": {"ios": "https://dc.lft.to/lastmile_qr_scan", "android": "https://dc.lft.to/lastmile_qr_scan"}, "lon": -77.02199616666667, "fusion_lon": 0.0, "is_disabled": 0, "lat": 38.91034116666667, "bike_id": "64658caf22ea78121c21b774a9b583ef", "name": "64658caf22ea78121c21b774a9b583ef", "is_reserved": 0, "fusion_lat": 0.0}, {"type": "electric_scooter", "rental_uris": {"ios": "https://dc.lft.to/lastmile_qr_scan", "android": "https://dc.lft.to/lastmile_qr_scan"}, "lon": -77.0259445, "fusion_lon": 0.0, "is_disabled": 0, "lat": 38.91409066666667, "bike_id": "f7660839f3f334a5afca2c53ce851ca7", "name": "f7660839f3f334a5afca2c53ce851ca7", "is_reserved": 0, "fusion_lat": 0.0}, {"type": "electric_scooter", "rental_uris": {"ios": "https://dc.lft.to/lastmile_qr_scan", "android": "https://dc.lft.to/lastmile_qr_scan"}, "lon": -77.041745, "fusion_lon": 0.0, "is_disabled": 0, "lat": 38.913354, "bike_id": "466ed7339a84e2fe5fe1944ba3e16fa9", "name": "466ed7339a84e2fe5fe1944ba3e16fa9", "is_reserved": 0, "fusion_lat": 0.0}, {"type": "electric_scooter", "rental_uris": {"ios": "https://dc.lft.to/lastmile_qr_scan", "android": "https://dc.lft.to/lastmile_qr_scan"}, "lon": -77.023946, "fusion_lon": 0.0, "is_disabled": 0, "lat": 38.9198175, "bike_id": "e00a87f1944d6be912f6f4c12168638a", "name": "e00a87f1944d6be912f6f4c12168638a", "is_reserved": 0, "fusion_lat": 0.0}, {"type": "electric_scooter", "rental_uris": {"ios": "https://dc.lft.to/lastmile_qr_scan", "android": "https://dc.lft.to/lastmile_qr_scan"}, "lon": -77.0326085, "fusion_lon": 0.0, "is_disabled": 0, "lat": 38.92966216666667, "bike_id": "e8a6fc3afbfeb84970d50a8513fac416", "name": "e8a6fc3afbfeb84970d50a8513fac416", "is_reserved": 0, "fusion_lat": 0.0}, {"type": "electric_scooter", "rental_uris": {"ios": "https://dc.lft.to/lastmile_qr_scan", "android": "https://dc.lft.to/lastmile_qr_scan"}, "lon": -77.02280116666667, "fusion_lon": 0.0, "is_disabled": 0, "lat": 38.92415783333333, "bike_id": "37f0081a5619a74848e7b91b63ef32a3", "name": "37f0081a5619a74848e7b91b63ef32a3", "is_reserved": 0, "fusion_lat": 0.0}, {"type": "electric_scooter", "rental_uris": {"ios": "https://dc.lft.to/lastmile_qr_scan", "android": "https://dc.lft.to/lastmile_qr_scan"}, "lon": -77.05468883333333, "fusion_lon": 0.0, "is_disabled": 0, "lat": 38.8960505, "bike_id": "059c2027ffcbf85663b5eb63131c6dc6", "name": "059c2027ffcbf85663b5eb63131c6dc6", "is_reserved": 0, "fusion_lat": 0.0}, {"type": "electric_scooter", "rental_uris": {"ios": "https://dc.lft.to/lastmile_qr_scan", "android": "https://dc.lft.to/lastmile_qr_scan"}, "lon": -77.03637816666667, "fusion_lon": 0.0, "is_disabled": 0, "lat": 38.916849166666665, "bike_id": "cea8ce698fc5a2d18cd0f51cc711e72b", "name": "cea8ce698fc5a2d18cd0f51cc711e72b", "is_reserved": 0, "fusion_lat": 0.0}, {"type": "electric_scooter", "rental_uris": {"ios": "https://dc.lft.to/lastmile_qr_scan", "android": "https://dc.lft.to/lastmile_qr_scan"}, "lon": -77.0320165, "fusion_lon": 0.0, "is_disabled": 0, "lat": 38.90103516666667, "bike_id": "6d021e608f929c8328ed99ae854d9c84", "name": "6d021e608f929c8328ed99ae854d9c84", "is_reserved": 0, "fusion_lat": 0.0}, {"type": "electric_scooter", "rental_uris": {"ios": "https://dc.lft.to/lastmile_qr_scan", "android": "https://dc.lft.to/lastmile_qr_scan"}, "lon": -77.02612533333334, "fusion_lon": 0.0, "is_disabled": 0, "lat": 38.899530666666664, "bike_id": "6ee1580b366da8cb5380577224706313", "name": "6ee1580b366da8cb5380577224706313", "is_reserved": 0, "fusion_lat": 0.0}, {"type": "electric_scooter", "rental_uris": {"ios": "https://dc.lft.to/lastmile_qr_scan", "android": "https://dc.lft.to/lastmile_qr_scan"}, "lon": -77.03856716666667, "fusion_lon": 0.0, "is_disabled": 0, "lat": 38.911680833333335, "bike_id": "9055153e5bd36f67145ecdda791e78e8", "name": "9055153e5bd36f67145ecdda791e78e8", "is_reserved": 0, "fusion_lat": 0.0}, {"type": "electric_scooter", "rental_uris": {"ios": "https://dc.lft.to/lastmile_qr_scan", "android": "https://dc.lft.to/lastmile_qr_scan"}, "lon": -77.00314733333333, "fusion_lon": 0.0, "is_disabled": 0, "lat": 38.908330666666664, "bike_id": "f4593d546ce4997ff9599a9455778d6f", "name": "f4593d546ce4997ff9599a9455778d6f", "is_reserved": 0, "fusion_lat": 0.0}, {"type": "electric_scooter", "rental_uris": {"ios": "https://dc.lft.to/lastmile_qr_scan", "android": "https://dc.lft.to/lastmile_qr_scan"}, "lon": -77.05763366666666, "fusion_lon": 0.0, "is_disabled": 0, "lat": 38.9245265, "bike_id": "535ffef2c0e1886d99a718cf6c48ecc4", "name": "535ffef2c0e1886d99a718cf6c48ecc4", "is_reserved": 0, "fusion_lat": 0.0}, {"type": "electric_scooter", "rental_uris": {"ios": "https://dc.lft.to/lastmile_qr_scan", "android": "https://dc.lft.to/lastmile_qr_scan"}, "lon": -77.03645633333333, "fusion_lon": 0.0, "is_disabled": 0, "lat": 38.9027785, "bike_id": "1802a01c79eb1ab5666b829112ddb5e4", "name": "1802a01c79eb1ab5666b829112ddb5e4", "is_reserved": 0, "fusion_lat": 0.0}, {"type": "electric_scooter", "rental_uris": {"ios": "https://dc.lft.to/lastmile_qr_scan", "android": "https://dc.lft.to/lastmile_qr_scan"}, "lon": -77.03872733333333, "fusion_lon": 0.0, "is_disabled": 0, "lat": 38.91038233333333, "bike_id": "dadd81a46bb56ce143e1184124da2bc1", "name": "dadd81a46bb56ce143e1184124da2bc1", "is_reserved": 0, "fusion_lat": 0.0}, {"type": "electric_scooter", "rental_uris": {"ios": "https://dc.lft.to/lastmile_qr_scan", "android": "https://dc.lft.to/lastmile_qr_scan"}, "lon": -77.05021483333333, "fusion_lon": 0.0, "is_disabled": 0, "lat": 38.90659766666667, "bike_id": "022c9e787c332250bb023366d3575db8", "name": "022c9e787c332250bb023366d3575db8", "is_reserved": 0, "fusion_lat": 0.0}, {"type": "electric_scooter", "rental_uris": {"ios": "https://dc.lft.to/lastmile_qr_scan", "android": "https://dc.lft.to/lastmile_qr_scan"}, "lon": -77.02614416666667, "fusion_lon": 0.0, "is_disabled": 0, "lat": 38.914074, "bike_id": "dd9dc383f4fad510ea44d5820f714a7c", "name": "dd9dc383f4fad510ea44d5820f714a7c", "is_reserved": 0, "fusion_lat": 0.0}, {"type": "electric_scooter", "rental_uris": {"ios": "https://dc.lft.to/lastmile_qr_scan", "android": "https://dc.lft.to/lastmile_qr_scan"}, "lon": -77.03157083333333, "fusion_lon": 0.0, "is_disabled": 0, "lat": 38.9279015, "bike_id": "098b893cc7bfe35158111393ea5e3744", "name": "098b893cc7bfe35158111393ea5e3744", "is_reserved": 0, "fusion_lat": 0.0}, {"type": "electric_scooter", "rental_uris": {"ios": "https://dc.lft.to/lastmile_qr_scan", "android": "https://dc.lft.to/lastmile_qr_scan"}, "lon": -77.0197395, "fusion_lon": 0.0, "is_disabled": 0, "lat": 38.90223833333334, "bike_id": "9d8b742c210c3033b4014eb05f06fcfd", "name": "9d8b742c210c3033b4014eb05f06fcfd", "is_reserved": 0, "fusion_lat": 0.0}, {"type": "electric_scooter", "rental_uris": {"ios": "https://dc.lft.to/lastmile_qr_scan", "android": "https://dc.lft.to/lastmile_qr_scan"}, "lon": -77.03176183333333, "fusion_lon": 0.0, "is_disabled": 0, "lat": 38.915511333333335, "bike_id": "3e4a2fee4bc09afe603e06179951f433", "name": "3e4a2fee4bc09afe603e06179951f433", "is_reserved": 0, "fusion_lat": 0.0}, {"type": "electric_scooter", "rental_uris": {"ios": "https://dc.lft.to/lastmile_qr_scan", "android": "https://dc.lft.to/lastmile_qr_scan"}, "lon": -77.04336983333333, "fusion_lon": 0.0, "is_disabled": 0, "lat": 38.8921695, "bike_id": "16101f1bfe1a197169aa88be132c7654", "name": "16101f1bfe1a197169aa88be132c7654", "is_reserved": 0, "fusion_lat": 0.0}, {"type": "electric_scooter", "rental_uris": {"ios": "https://dc.lft.to/lastmile_qr_scan", "android": "https://dc.lft.to/lastmile_qr_scan"}, "lon": -76.99852566666667, "fusion_lon": 0.0, "is_disabled": 0, "lat": 38.90156316666667, "bike_id": "62cab226ca2265d220251624f48846e8", "name": "62cab226ca2265d220251624f48846e8", "is_reserved": 0, "fusion_lat": 0.0}, {"type": "electric_scooter", "rental_uris": {"ios": "https://dc.lft.to/lastmile_qr_scan", "android": "https://dc.lft.to/lastmile_qr_scan"}, "lon": -77.02185566666667, "fusion_lon": 0.0, "is_disabled": 0, "lat": 38.91737783333333, "bike_id": "3a825bb4e32939c1fda5b7341dd90523", "name": "3a825bb4e32939c1fda5b7341dd90523", "is_reserved": 0, "fusion_lat": 0.0}, {"type": "electric_scooter", "rental_uris": {"ios": "https://dc.lft.to/lastmile_qr_scan", "android": "https://dc.lft.to/lastmile_qr_scan"}, "lon": -77.04510816666667, "fusion_lon": 0.0, "is_disabled": 0, "lat": 38.912819, "bike_id": "e9b2d4f20353cd5c5cbe128b030b03b3", "name": "e9b2d4f20353cd5c5cbe128b030b03b3", "is_reserved": 0, "fusion_lat": 0.0}, {"type": "electric_scooter", "rental_uris": {"ios": "https://dc.lft.to/lastmile_qr_scan", "android": "https://dc.lft.to/lastmile_qr_scan"}, "lon": -76.991429, "fusion_lon": 0.0, "is_disabled": 0, "lat": 38.859487666666666, "bike_id": "9aebd23956c597db52bba8cf6ea7d151", "name": "9aebd23956c597db52bba8cf6ea7d151", "is_reserved": 0, "fusion_lat": 0.0}, {"type": "electric_bike", "rental_uris": {"ios": "https://dc.lft.to/lastmile_qr_scan", "android": "https://dc.lft.to/lastmile_qr_scan"}, "lon": -77.02630966666666, "fusion_lon": 0.0, "is_disabled": 0, "lat": 38.962180333333336, "bike_id": "a277091a655b1496d96eb0093decf39e", "name": "a277091a655b1496d96eb0093decf39e", "is_reserved": 0, "fusion_lat": 0.0}, {"type": "electric_scooter", "rental_uris": {"ios": "https://dc.lft.to/lastmile_qr_scan", "android": "https://dc.lft.to/lastmile_qr_scan"}, "lon": -77.03206866666666, "fusion_lon": 0.0, "is_disabled": 0, "lat": 38.91744166666667, "bike_id": "271d39c059acc8870363bccbbaa0adc4", "name": "271d39c059acc8870363bccbbaa0adc4", "is_reserved": 0, "fusion_lat": 0.0}, {"type": "electric_scooter", "rental_uris": {"ios": "https://dc.lft.to/lastmile_qr_scan", "android": "https://dc.lft.to/lastmile_qr_scan"}, "lon": -77.02610866666667, "fusion_lon": 0.0, "is_disabled": 0, "lat": 38.90050733333333, "bike_id": "1d9bf54f1238118d8618a36638062d50", "name": "1d9bf54f1238118d8618a36638062d50", "is_reserved": 0, "fusion_lat": 0.0}, {"type": "electric_scooter", "rental_uris": {"ios": "https://dc.lft.to/lastmile_qr_scan", "android": "https://dc.lft.to/lastmile_qr_scan"}, "lon": -77.0365845, "fusion_lon": 0.0, "is_disabled": 0, "lat": 38.91857566666667, "bike_id": "4a3d7e6ec62bc15a9bd7c12633d26754", "name": "4a3d7e6ec62bc15a9bd7c12633d26754", "is_reserved": 0, "fusion_lat": 0.0}, {"type": "electric_scooter", "rental_uris": {"ios": "https://dc.lft.to/lastmile_qr_scan", "android": "https://dc.lft.to/lastmile_qr_scan"}, "lon": -77.0373755, "fusion_lon": 0.0, "is_disabled": 0, "lat": 38.881738166666665, "bike_id": "ba52ea526bf9e7fc5d7fc9b8b14f88e6", "name": "ba52ea526bf9e7fc5d7fc9b8b14f88e6", "is_reserved": 0, "fusion_lat": 0.0}, {"type": "electric_scooter", "rental_uris": {"ios": "https://dc.lft.to/lastmile_qr_scan", "android": "https://dc.lft.to/lastmile_qr_scan"}, "lon": -77.03199833333333, "fusion_lon": 0.0, "is_disabled": 0, "lat": 38.9181745, "bike_id": "79e9be8e9cce462e84f0c915bde52857", "name": "79e9be8e9cce462e84f0c915bde52857", "is_reserved": 0, "fusion_lat": 0.0}, {"type": "electric_bike", "rental_uris": {"ios": "https://dc.lft.to/lastmile_qr_scan", "android": "https://dc.lft.to/lastmile_qr_scan"}, "lon": -77.36096416666666, "fusion_lon": 0.0, "is_disabled": 0, "lat": 38.9395345, "bike_id": "8606b508b2f9e47c955581fbe0a7d789", "name": "8606b508b2f9e47c955581fbe0a7d789", "is_reserved": 0, "fusion_lat": 0.0}, {"type": "electric_scooter", "rental_uris": {"ios": "https://dc.lft.to/lastmile_qr_scan", "android": "https://dc.lft.to/lastmile_qr_scan"}, "lon": -76.9303965, "fusion_lon": 0.0, "is_disabled": 0, "lat": 38.89566933333333, "bike_id": "4fe13e5b14a7927099a0c78c3df1d974", "name": "4fe13e5b14a7927099a0c78c3df1d974", "is_reserved": 0, "fusion_lat": 0.0}, {"type": "electric_scooter", "rental_uris": {"ios": "https://dc.lft.to/lastmile_qr_scan", "android": "https://dc.lft.to/lastmile_qr_scan"}, "lon": -76.95001383333333, "fusion_lon": 0.0, "is_disabled": 0, "lat": 38.89389583333333, "bike_id": "46cdcc0e61a85d7dc16ae51b42335e69", "name": "46cdcc0e61a85d7dc16ae51b42335e69", "is_reserved": 0, "fusion_lat": 0.0}, {"type": "electric_scooter", "rental_uris": {"ios": "https://dc.lft.to/lastmile_qr_scan", "android": "https://dc.lft.to/lastmile_qr_scan"}, "lon": -77.032842, "fusion_lon": 0.0, "is_disabled": 0, "lat": 38.92749766666667, "bike_id": "52b81e71dc960a0b000ab40133ab57cb", "name": "52b81e71dc960a0b000ab40133ab57cb", "is_reserved": 0, "fusion_lat": 0.0}, {"type": "electric_bike", "rental_uris": {"ios": "https://dc.lft.to/lastmile_qr_scan", "android": "https://dc.lft.to/lastmile_qr_scan"}, "lon": -76.99001, "fusion_lon": 0.0, "is_disabled": 0, "lat": 38.95485216666667, "bike_id": "7cfbe622ffb39a1386050db204b2bc41", "name": "7cfbe622ffb39a1386050db204b2bc41", "is_reserved": 0, "fusion_lat": 0.0}, {"type": "electric_scooter", "rental_uris": {"ios": "https://dc.lft.to/lastmile_qr_scan", "android": "https://dc.lft.to/lastmile_qr_scan"}, "lon": -76.9334935, "fusion_lon": 0.0, "is_disabled": 0, "lat": 38.8990825, "bike_id": "6ff65c4439465444a6b59e75ae347c57", "name": "6ff65c4439465444a6b59e75ae347c57", "is_reserved": 0, "fusion_lat": 0.0}, {"type": "electric_scooter", "rental_uris": {"ios": "https://dc.lft.to/lastmile_qr_scan", "android": "https://dc.lft.to/lastmile_qr_scan"}, "lon": -77.03707483333334, "fusion_lon": 0.0, "is_disabled": 0, "lat": 38.926341, "bike_id": "7cb4421c5661a617a369ead408f30e6a", "name": "7cb4421c5661a617a369ead408f30e6a", "is_reserved": 0, "fusion_lat": 0.0}, {"type": "electric_scooter", "rental_uris": {"ios": "https://dc.lft.to/lastmile_qr_scan", "android": "https://dc.lft.to/lastmile_qr_scan"}, "lon": -77.05719866666666, "fusion_lon": 0.0, "is_disabled": 0, "lat": 38.93363016666667, "bike_id": "787d85414f595e31155d961866c0a49e", "name": "787d85414f595e31155d961866c0a49e", "is_reserved": 0, "fusion_lat": 0.0}, {"type": "electric_scooter", "rental_uris": {"ios": "https://dc.lft.to/lastmile_qr_scan", "android": "https://dc.lft.to/lastmile_qr_scan"}, "lon": -77.03895866666667, "fusion_lon": 0.0, "is_disabled": 0, "lat": 38.90952683333333, "bike_id": "fb731d34f91433bf91dc49f3858a612b", "name": "fb731d34f91433bf91dc49f3858a612b", "is_reserved": 0, "fusion_lat": 0.0}, {"type": "electric_bike", "rental_uris": {"ios": "https://dc.lft.to/lastmile_qr_scan", "android": "https://dc.lft.to/lastmile_qr_scan"}, "lon": -76.99905683333333, "fusion_lon": 0.0, "is_disabled": 0, "lat": 38.90932733333333, "bike_id": "6c302ef35b13044009c94a64d9c2a209", "name": "6c302ef35b13044009c94a64d9c2a209", "is_reserved": 0, "fusion_lat": 0.0}, {"type": "electric_bike", "rental_uris": {"ios": "https://dc.lft.to/lastmile_qr_scan", "android": "https://dc.lft.to/lastmile_qr_scan"}, "lon": -76.945981, "fusion_lon": 0.0, "is_disabled": 0, "lat": 38.9528795, "bike_id": "0f6cc2a63119dde888445627b3ddded0", "name": "0f6cc2a63119dde888445627b3ddded0", "is_reserved": 0, "fusion_lat": 0.0}, {"type": "electric_scooter", "rental_uris": {"ios": "https://dc.lft.to/lastmile_qr_scan", "android": "https://dc.lft.to/lastmile_qr_scan"}, "lon": -77.0446145, "fusion_lon": 0.0, "is_disabled": 0, "lat": 38.91113883333333, "bike_id": "f1f90b290b577b44fe0c2ae1c2d92340", "name": "f1f90b290b577b44fe0c2ae1c2d92340", "is_reserved": 0, "fusion_lat": 0.0}, {"type": "electric_scooter", "rental_uris": {"ios": "https://dc.lft.to/lastmile_qr_scan", "android": "https://dc.lft.to/lastmile_qr_scan"}, "lon": -76.972386, "fusion_lon": 0.0, "is_disabled": 0, "lat": 38.854495, "bike_id": "d45bfbe96619ab79776c49e4d6cb30d3", "name": "d45bfbe96619ab79776c49e4d6cb30d3", "is_reserved": 0, "fusion_lat": 0.0}, {"type": "electric_scooter", "rental_uris": {"ios": "https://dc.lft.to/lastmile_qr_scan", "android": "https://dc.lft.to/lastmile_qr_scan"}, "lon": -77.05027133333333, "fusion_lon": 0.0, "is_disabled": 0, "lat": 38.903133833333335, "bike_id": "45def30e8802efaac19518973a74ceca", "name": "45def30e8802efaac19518973a74ceca", "is_reserved": 0, "fusion_lat": 0.0}, {"type": "electric_scooter", "rental_uris": {"ios": "https://dc.lft.to/lastmile_qr_scan", "android": "https://dc.lft.to/lastmile_qr_scan"}, "lon": -76.9733005, "fusion_lon": 0.0, "is_disabled": 0, "lat": 38.9040845, "bike_id": "d86d04f9f6655bf6a0fc48b543ac322e", "name": "d86d04f9f6655bf6a0fc48b543ac322e", "is_reserved": 0, "fusion_lat": 0.0}, {"type": "electric_scooter", "rental_uris": {"ios": "https://dc.lft.to/lastmile_qr_scan", "android": "https://dc.lft.to/lastmile_qr_scan"}, "lon": -77.00068366666666, "fusion_lon": 0.0, "is_disabled": 0, "lat": 38.905624, "bike_id": "3ad186d95caa8940aec745a9677a4f37", "name": "3ad186d95caa8940aec745a9677a4f37", "is_reserved": 0, "fusion_lat": 0.0}, {"type": "electric_scooter", "rental_uris": {"ios": "https://dc.lft.to/lastmile_qr_scan", "android": "https://dc.lft.to/lastmile_qr_scan"}, "lon": -77.04051433333333, "fusion_lon": 0.0, "is_disabled": 0, "lat": 38.904367666666666, "bike_id": "c2473f5567f3c19c67fed1fc02df1f6b", "name": "c2473f5567f3c19c67fed1fc02df1f6b", "is_reserved": 0, "fusion_lat": 0.0}, {"type": "electric_scooter", "rental_uris": {"ios": "https://dc.lft.to/lastmile_qr_scan", "android": "https://dc.lft.to/lastmile_qr_scan"}, "lon": -77.04354, "fusion_lon": 0.0, "is_disabled": 0, "lat": 38.90233216666667, "bike_id": "121bb5ec4207a0d7ebb24a1574a4c3ce", "name": "121bb5ec4207a0d7ebb24a1574a4c3ce", "is_reserved": 0, "fusion_lat": 0.0}, {"type": "electric_scooter", "rental_uris": {"ios": "https://dc.lft.to/lastmile_qr_scan", "android": "https://dc.lft.to/lastmile_qr_scan"}, "lon": -77.006811, "fusion_lon": 0.0, "is_disabled": 0, "lat": 38.885069, "bike_id": "f6869e9b59d66f59e17fb1773e8c5acb", "name": "f6869e9b59d66f59e17fb1773e8c5acb", "is_reserved": 0, "fusion_lat": 0.0}, {"type": "electric_scooter", "rental_uris": {"ios": "https://dc.lft.to/lastmile_qr_scan", "android": "https://dc.lft.to/lastmile_qr_scan"}, "lon": -77.0208285, "fusion_lon": 0.0, "is_disabled": 0, "lat": 38.87562666666667, "bike_id": "37d33c1d94fc84860cf0a9c6e69942dd", "name": "37d33c1d94fc84860cf0a9c6e69942dd", "is_reserved": 0, "fusion_lat": 0.0}, {"type": "electric_scooter", "rental_uris": {"ios": "https://dc.lft.to/lastmile_qr_scan", "android": "https://dc.lft.to/lastmile_qr_scan"}, "lon": -77.0730605, "fusion_lon": 0.0, "is_disabled": 0, "lat": 38.921373, "bike_id": "1bb45563a4c2788fd4b645e78c598523", "name": "1bb45563a4c2788fd4b645e78c598523", "is_reserved": 0, "fusion_lat": 0.0}, {"type": "electric_scooter", "rental_uris": {"ios": "https://dc.lft.to/lastmile_qr_scan", "android": "https://dc.lft.to/lastmile_qr_scan"}, "lon": -77.04884566666667, "fusion_lon": 0.0, "is_disabled": 0, "lat": 38.9133625, "bike_id": "b1ac31043c3be8878fbcb58b4e45612e", "name": "b1ac31043c3be8878fbcb58b4e45612e", "is_reserved": 0, "fusion_lat": 0.0}, {"type": "electric_scooter", "rental_uris": {"ios": "https://dc.lft.to/lastmile_qr_scan", "android": "https://dc.lft.to/lastmile_qr_scan"}, "lon": -77.04673916666667, "fusion_lon": 0.0, "is_disabled": 0, "lat": 38.89552233333333, "bike_id": "49b9bec85c5cdffce1441accd3535b7b", "name": "49b9bec85c5cdffce1441accd3535b7b", "is_reserved": 0, "fusion_lat": 0.0}, {"type": "electric_bike", "rental_uris": {"ios": "https://dc.lft.to/lastmile_qr_scan", "android": "https://dc.lft.to/lastmile_qr_scan"}, "lon": -77.09475916666666, "fusion_lon": 0.0, "is_disabled": 0, "lat": 39.03050183333333, "bike_id": "fcbf14c074c7cdd05c82f10f1475ac23", "name": "fcbf14c074c7cdd05c82f10f1475ac23", "is_reserved": 0, "fusion_lat": 0.0}, {"type": "electric_scooter", "rental_uris": {"ios": "https://dc.lft.to/lastmile_qr_scan", "android": "https://dc.lft.to/lastmile_qr_scan"}, "lon": -77.04772683333333, "fusion_lon": 0.0, "is_disabled": 0, "lat": 38.90254983333333, "bike_id": "9a23f4d0e43a4edd7b44f5986e737b46", "name": "9a23f4d0e43a4edd7b44f5986e737b46", "is_reserved": 0, "fusion_lat": 0.0}, {"type": "electric_bike", "rental_uris": {"ios": "https://dc.lft.to/lastmile_qr_scan", "android": "https://dc.lft.to/lastmile_qr_scan"}, "lon": -77.08618716666666, "fusion_lon": 0.0, "is_disabled": 0, "lat": 38.859414666666666, "bike_id": "e620d703940fc324a7c2f310560db93b", "name": "e620d703940fc324a7c2f310560db93b", "is_reserved": 0, "fusion_lat": 0.0}, {"type": "electric_scooter", "rental_uris": {"ios": "https://dc.lft.to/lastmile_qr_scan", "android": "https://dc.lft.to/lastmile_qr_scan"}, "lon": -77.02724583333334, "fusion_lon": 0.0, "is_disabled": 0, "lat": 38.93248066666666, "bike_id": "6bf46d949e8e4d48a111e3c0ed6d4bab", "name": "6bf46d949e8e4d48a111e3c0ed6d4bab", "is_reserved": 0, "fusion_lat": 0.0}, {"type": "electric_scooter", "rental_uris": {"ios": "https://dc.lft.to/lastmile_qr_scan", "android": "https://dc.lft.to/lastmile_qr_scan"}, "lon": -77.03426116666667, "fusion_lon": 0.0, "is_disabled": 0, "lat": 38.93080833333333, "bike_id": "04ff5b86dfee09f058c35edfdf210b22", "name": "04ff5b86dfee09f058c35edfdf210b22", "is_reserved": 0, "fusion_lat": 0.0}, {"type": "electric_scooter", "rental_uris": {"ios": "https://dc.lft.to/lastmile_qr_scan", "android": "https://dc.lft.to/lastmile_qr_scan"}, "lon": -77.0374895, "fusion_lon": 0.0, "is_disabled": 0, "lat": 38.902638833333334, "bike_id": "5c706b8f65cb6355b5c296026eecf0a5", "name": "5c706b8f65cb6355b5c296026eecf0a5", "is_reserved": 0, "fusion_lat": 0.0}, {"type": "electric_scooter", "rental_uris": {"ios": "https://dc.lft.to/lastmile_qr_scan", "android": "https://dc.lft.to/lastmile_qr_scan"}, "lon": -77.04365983333334, "fusion_lon": 0.0, "is_disabled": 0, "lat": 38.933234, "bike_id": "57563af8b44e4868b448981da27b82b4", "name": "57563af8b44e4868b448981da27b82b4", "is_reserved": 0, "fusion_lat": 0.0}, {"type": "electric_scooter", "rental_uris": {"ios": "https://dc.lft.to/lastmile_qr_scan", "android": "https://dc.lft.to/lastmile_qr_scan"}, "lon": -77.04027083333334, "fusion_lon": 0.0, "is_disabled": 0, "lat": 38.92408866666667, "bike_id": "4c193732491e5178420356bb6ac7147f", "name": "4c193732491e5178420356bb6ac7147f", "is_reserved": 0, "fusion_lat": 0.0}, {"type": "electric_scooter", "rental_uris": {"ios": "https://dc.lft.to/lastmile_qr_scan", "android": "https://dc.lft.to/lastmile_qr_scan"}, "lon": -77.060513, "fusion_lon": 0.0, "is_disabled": 0, "lat": 38.9022255, "bike_id": "b4cd985ce679fab4cd28ed01550afc17", "name": "b4cd985ce679fab4cd28ed01550afc17", "is_reserved": 0, "fusion_lat": 0.0}, {"type": "electric_scooter", "rental_uris": {"ios": "https://dc.lft.to/lastmile_qr_scan", "android": "https://dc.lft.to/lastmile_qr_scan"}, "lon": -76.98072783333333, "fusion_lon": 0.0, "is_disabled": 0, "lat": 38.91950283333333, "bike_id": "0588e3421670da07c92679b8d6bedbf2", "name": "0588e3421670da07c92679b8d6bedbf2", "is_reserved": 0, "fusion_lat": 0.0}, {"type": "electric_scooter", "rental_uris": {"ios": "https://dc.lft.to/lastmile_qr_scan", "android": "https://dc.lft.to/lastmile_qr_scan"}, "lon": -77.04868933333333, "fusion_lon": 0.0, "is_disabled": 0, "lat": 38.8921505, "bike_id": "8d004a0faa6bd8e880c6493ba18dd9db", "name": "8d004a0faa6bd8e880c6493ba18dd9db", "is_reserved": 0, "fusion_lat": 0.0}, {"type": "electric_scooter", "rental_uris": {"ios": "https://dc.lft.to/lastmile_qr_scan", "android": "https://dc.lft.to/lastmile_qr_scan"}, "lon": -77.0218005, "fusion_lon": 0.0, "is_disabled": 0, "lat": 38.91566733333333, "bike_id": "85c4e1a1a05714d1dbf4725670c5fb6d", "name": "85c4e1a1a05714d1dbf4725670c5fb6d", "is_reserved": 0, "fusion_lat": 0.0}, {"type": "electric_scooter", "rental_uris": {"ios": "https://dc.lft.to/lastmile_qr_scan", "android": "https://dc.lft.to/lastmile_qr_scan"}, "lon": -77.01136166666667, "fusion_lon": 0.0, "is_disabled": 0, "lat": 38.885181, "bike_id": "bd444747bae9d657b129d5c20cc8da0a", "name": "bd444747bae9d657b129d5c20cc8da0a", "is_reserved": 0, "fusion_lat": 0.0}, {"type": "electric_scooter", "rental_uris": {"ios": "https://dc.lft.to/lastmile_qr_scan", "android": "https://dc.lft.to/lastmile_qr_scan"}, "lon": -76.97708083333333, "fusion_lon": 0.0, "is_disabled": 0, "lat": 38.9025765, "bike_id": "38d8033bfff6c7e53489878193e826d7", "name": "38d8033bfff6c7e53489878193e826d7", "is_reserved": 0, "fusion_lat": 0.0}, {"type": "electric_bike", "rental_uris": {"ios": "https://dc.lft.to/lastmile_qr_scan", "android": "https://dc.lft.to/lastmile_qr_scan"}, "lon": -76.9901915, "fusion_lon": 0.0, "is_disabled": 0, "lat": 38.954772166666665, "bike_id": "6a60b90c39d1a4c23eca9c27ad49917e", "name": "6a60b90c39d1a4c23eca9c27ad49917e", "is_reserved": 0, "fusion_lat": 0.0}, {"type": "electric_scooter", "rental_uris": {"ios": "https://dc.lft.to/lastmile_qr_scan", "android": "https://dc.lft.to/lastmile_qr_scan"}, "lon": -77.03795816666667, "fusion_lon": 0.0, "is_disabled": 0, "lat": 38.906604333333334, "bike_id": "4c818985299e89e2348bbe4765487185", "name": "4c818985299e89e2348bbe4765487185", "is_reserved": 0, "fusion_lat": 0.0}, {"type": "electric_scooter", "rental_uris": {"ios": "https://dc.lft.to/lastmile_qr_scan", "android": "https://dc.lft.to/lastmile_qr_scan"}, "lon": -77.014306, "fusion_lon": 0.0, "is_disabled": 0, "lat": 38.9145525, "bike_id": "1c97d305bf74cd9252da320bd48ca1cc", "name": "1c97d305bf74cd9252da320bd48ca1cc", "is_reserved": 0, "fusion_lat": 0.0}, {"type": "electric_scooter", "rental_uris": {"ios": "https://dc.lft.to/lastmile_qr_scan", "android": "https://dc.lft.to/lastmile_qr_scan"}, "lon": -77.02231116666667, "fusion_lon": 0.0, "is_disabled": 0, "lat": 38.912493166666664, "bike_id": "9c794d41764bc3279c7c706c90f7d60a", "name": "9c794d41764bc3279c7c706c90f7d60a", "is_reserved": 0, "fusion_lat": 0.0}, {"type": "electric_bike", "rental_uris": {"ios": "https://dc.lft.to/lastmile_qr_scan", "android": "https://dc.lft.to/lastmile_qr_scan"}, "lon": -76.96261833333334, "fusion_lon": 0.0, "is_disabled": 0, "lat": 38.88241266666667, "bike_id": "8950ff272dbb162a1d07f2ff325e8ba3", "name": "8950ff272dbb162a1d07f2ff325e8ba3", "is_reserved": 0, "fusion_lat": 0.0}, {"type": "electric_bike", "rental_uris": {"ios": "https://dc.lft.to/lastmile_qr_scan", "android": "https://dc.lft.to/lastmile_qr_scan"}, "lon": -76.93744816666667, "fusion_lon": 0.0, "is_disabled": 0, "lat": 38.89012533333333, "bike_id": "77a3ce808e0b741cfc3d5b53bae213d4", "name": "77a3ce808e0b741cfc3d5b53bae213d4", "is_reserved": 0, "fusion_lat": 0.0}, {"type": "electric_scooter", "rental_uris": {"ios": "https://dc.lft.to/lastmile_qr_scan", "android": "https://dc.lft.to/lastmile_qr_scan"}, "lon": -76.98700266666667, "fusion_lon": 0.0, "is_disabled": 0, "lat": 38.907000833333335, "bike_id": "58d2c0d67b01f16df2aa83ddacfe8d0e", "name": "58d2c0d67b01f16df2aa83ddacfe8d0e", "is_reserved": 0, "fusion_lat": 0.0}, {"type": "electric_scooter", "rental_uris": {"ios": "https://dc.lft.to/lastmile_qr_scan", "android": "https://dc.lft.to/lastmile_qr_scan"}, "lon": -77.02966033333334, "fusion_lon": 0.0, "is_disabled": 0, "lat": 38.925829, "bike_id": "2a5501aed48c26c3a4ec4df0f6037005", "name": "2a5501aed48c26c3a4ec4df0f6037005", "is_reserved": 0, "fusion_lat": 0.0}, {"type": "electric_scooter", "rental_uris": {"ios": "https://dc.lft.to/lastmile_qr_scan", "android": "https://dc.lft.to/lastmile_qr_scan"}, "lon": -77.04387233333334, "fusion_lon": 0.0, "is_disabled": 0, "lat": 38.91070166666667, "bike_id": "02ee84268d393ea0bc5ef7c5fca78a3b", "name": "02ee84268d393ea0bc5ef7c5fca78a3b", "is_reserved": 0, "fusion_lat": 0.0}, {"type": "electric_scooter", "rental_uris": {"ios": "https://dc.lft.to/lastmile_qr_scan", "android": "https://dc.lft.to/lastmile_qr_scan"}, "lon": -77.0396905, "fusion_lon": 0.0, "is_disabled": 0, "lat": 38.89632233333333, "bike_id": "bed67c8058102ae44c2cc478cc5367f5", "name": "bed67c8058102ae44c2cc478cc5367f5", "is_reserved": 0, "fusion_lat": 0.0}, {"type": "electric_bike", "rental_uris": {"ios": "https://dc.lft.to/lastmile_qr_scan", "android": "https://dc.lft.to/lastmile_qr_scan"}, "lon": -76.9783095, "fusion_lon": 0.0, "is_disabled": 0, "lat": 38.8706805, "bike_id": "6edc8019c0e28fe4103ade75ffc45ff5", "name": "6edc8019c0e28fe4103ade75ffc45ff5", "is_reserved": 0, "fusion_lat": 0.0}, {"type": "electric_scooter", "rental_uris": {"ios": "https://dc.lft.to/lastmile_qr_scan", "android": "https://dc.lft.to/lastmile_qr_scan"}, "lon": -76.954162, "fusion_lon": 0.0, "is_disabled": 0, "lat": 38.89060466666667, "bike_id": "e07e16954246e6089ea9e26b91649848", "name": "e07e16954246e6089ea9e26b91649848", "is_reserved": 0, "fusion_lat": 0.0}, {"type": "electric_scooter", "rental_uris": {"ios": "https://dc.lft.to/lastmile_qr_scan", "android": "https://dc.lft.to/lastmile_qr_scan"}, "lon": -77.032021, "fusion_lon": 0.0, "is_disabled": 0, "lat": 38.920549666666666, "bike_id": "2545320a6622a049d5f7df56edac5d86", "name": "2545320a6622a049d5f7df56edac5d86", "is_reserved": 0, "fusion_lat": 0.0}, {"type": "electric_scooter", "rental_uris": {"ios": "https://dc.lft.to/lastmile_qr_scan", "android": "https://dc.lft.to/lastmile_qr_scan"}, "lon": -77.024452, "fusion_lon": 0.0, "is_disabled": 0, "lat": 38.91877, "bike_id": "c2388e4863a998a895a44f846f24f83f", "name": "c2388e4863a998a895a44f846f24f83f", "is_reserved": 0, "fusion_lat": 0.0}, {"type": "electric_scooter", "rental_uris": {"ios": "https://dc.lft.to/lastmile_qr_scan", "android": "https://dc.lft.to/lastmile_qr_scan"}, "lon": -77.040263, "fusion_lon": 0.0, "is_disabled": 0, "lat": 38.93061383333333, "bike_id": "e0b87bd84e783b494d2609cc682f5c73", "name": "e0b87bd84e783b494d2609cc682f5c73", "is_reserved": 0, "fusion_lat": 0.0}, {"type": "electric_scooter", "rental_uris": {"ios": "https://dc.lft.to/lastmile_qr_scan", "android": "https://dc.lft.to/lastmile_qr_scan"}, "lon": -77.03520233333333, "fusion_lon": 0.0, "is_disabled": 0, "lat": 38.922479333333335, "bike_id": "f0c113769f4022ef0aa0b13b36f8dbbf", "name": "f0c113769f4022ef0aa0b13b36f8dbbf", "is_reserved": 0, "fusion_lat": 0.0}, {"type": "electric_scooter", "rental_uris": {"ios": "https://dc.lft.to/lastmile_qr_scan", "android": "https://dc.lft.to/lastmile_qr_scan"}, "lon": -77.03181333333333, "fusion_lon": 0.0, "is_disabled": 0, "lat": 38.91917183333333, "bike_id": "08541cfbc6f95bb7851e585a2fb9d9c2", "name": "08541cfbc6f95bb7851e585a2fb9d9c2", "is_reserved": 0, "fusion_lat": 0.0}, {"type": "electric_scooter", "rental_uris": {"ios": "https://dc.lft.to/lastmile_qr_scan", "android": "https://dc.lft.to/lastmile_qr_scan"}, "lon": -77.033556, "fusion_lon": 0.0, "is_disabled": 0, "lat": 38.8999945, "bike_id": "bf0ef91ee71cbc6111e89ff4f0e55eb6", "name": "bf0ef91ee71cbc6111e89ff4f0e55eb6", "is_reserved": 0, "fusion_lat": 0.0}, {"type": "electric_scooter", "rental_uris": {"ios": "https://dc.lft.to/lastmile_qr_scan", "android": "https://dc.lft.to/lastmile_qr_scan"}, "lon": -77.0321295, "fusion_lon": 0.0, "is_disabled": 0, "lat": 38.916887, "bike_id": "b7385e40161bc2833dac7f672ce725bd", "name": "b7385e40161bc2833dac7f672ce725bd", "is_reserved": 0, "fusion_lat": 0.0}, {"type": "electric_scooter", "rental_uris": {"ios": "https://dc.lft.to/lastmile_qr_scan", "android": "https://dc.lft.to/lastmile_qr_scan"}, "lon": -77.00087416666666, "fusion_lon": 0.0, "is_disabled": 0, "lat": 38.87584116666667, "bike_id": "eae553907f9e39cfc98dd648d1b802a0", "name": "eae553907f9e39cfc98dd648d1b802a0", "is_reserved": 0, "fusion_lat": 0.0}, {"type": "electric_scooter", "rental_uris": {"ios": "https://dc.lft.to/lastmile_qr_scan", "android": "https://dc.lft.to/lastmile_qr_scan"}, "lon": -77.0350925, "fusion_lon": 0.0, "is_disabled": 0, "lat": 38.92143866666667, "bike_id": "e201edbf636e47a9c8a5da9395bb0106", "name": "e201edbf636e47a9c8a5da9395bb0106", "is_reserved": 0, "fusion_lat": 0.0}, {"type": "electric_scooter", "rental_uris": {"ios": "https://dc.lft.to/lastmile_qr_scan", "android": "https://dc.lft.to/lastmile_qr_scan"}, "lon": -77.0257205, "fusion_lon": 0.0, "is_disabled": 0, "lat": 38.914069166666664, "bike_id": "9c046b57e4ad24b6e9dcc5cd433414fa", "name": "9c046b57e4ad24b6e9dcc5cd433414fa", "is_reserved": 0, "fusion_lat": 0.0}, {"type": "electric_scooter", "rental_uris": {"ios": "https://dc.lft.to/lastmile_qr_scan", "android": "https://dc.lft.to/lastmile_qr_scan"}, "lon": -77.03163383333333, "fusion_lon": 0.0, "is_disabled": 0, "lat": 38.9237125, "bike_id": "02b755cf77aaecc836d7c9096bf298a3", "name": "02b755cf77aaecc836d7c9096bf298a3", "is_reserved": 0, "fusion_lat": 0.0}, {"type": "electric_scooter", "rental_uris": {"ios": "https://dc.lft.to/lastmile_qr_scan", "android": "https://dc.lft.to/lastmile_qr_scan"}, "lon": -77.04037516666666, "fusion_lon": 0.0, "is_disabled": 0, "lat": 38.918453166666666, "bike_id": "41673ed2d4a25d4f9ecaece347b081fe", "name": "41673ed2d4a25d4f9ecaece347b081fe", "is_reserved": 0, "fusion_lat": 0.0}, {"type": "electric_scooter", "rental_uris": {"ios": "https://dc.lft.to/lastmile_qr_scan", "android": "https://dc.lft.to/lastmile_qr_scan"}, "lon": -77.0387175, "fusion_lon": 0.0, "is_disabled": 0, "lat": 38.92151966666667, "bike_id": "e1825548c1c4c78a5e666ce2d9ad5491", "name": "e1825548c1c4c78a5e666ce2d9ad5491", "is_reserved": 0, "fusion_lat": 0.0}, {"type": "electric_scooter", "rental_uris": {"ios": "https://dc.lft.to/lastmile_qr_scan", "android": "https://dc.lft.to/lastmile_qr_scan"}, "lon": -76.98374516666667, "fusion_lon": 0.0, "is_disabled": 0, "lat": 38.86106, "bike_id": "a02eb69a61902e29ac570e1c0a90d6fc", "name": "a02eb69a61902e29ac570e1c0a90d6fc", "is_reserved": 0, "fusion_lat": 0.0}, {"type": "electric_scooter", "rental_uris": {"ios": "https://dc.lft.to/lastmile_qr_scan", "android": "https://dc.lft.to/lastmile_qr_scan"}, "lon": -76.97229066666667, "fusion_lon": 0.0, "is_disabled": 0, "lat": 38.854623, "bike_id": "3da054823684859beed49fa97de62f90", "name": "3da054823684859beed49fa97de62f90", "is_reserved": 0, "fusion_lat": 0.0}, {"type": "electric_scooter", "rental_uris": {"ios": "https://dc.lft.to/lastmile_qr_scan", "android": "https://dc.lft.to/lastmile_qr_scan"}, "lon": -76.992516, "fusion_lon": 0.0, "is_disabled": 0, "lat": 38.863818, "bike_id": "4bf62d36164cbd0185d9fb83569c64de", "name": "4bf62d36164cbd0185d9fb83569c64de", "is_reserved": 0, "fusion_lat": 0.0}, {"type": "electric_scooter", "rental_uris": {"ios": "https://dc.lft.to/lastmile_qr_scan", "android": "https://dc.lft.to/lastmile_qr_scan"}, "lon": -77.02386516666667, "fusion_lon": 0.0, "is_disabled": 0, "lat": 38.90623716666666, "bike_id": "2908a63bb64febdc2bb8e19374948a43", "name": "2908a63bb64febdc2bb8e19374948a43", "is_reserved": 0, "fusion_lat": 0.0}, {"type": "electric_scooter", "rental_uris": {"ios": "https://dc.lft.to/lastmile_qr_scan", "android": "https://dc.lft.to/lastmile_qr_scan"}, "lon": -77.02693683333334, "fusion_lon": 0.0, "is_disabled": 0, "lat": 38.911253333333335, "bike_id": "03847135464f92b0fdc8621277654b97", "name": "03847135464f92b0fdc8621277654b97", "is_reserved": 0, "fusion_lat": 0.0}, {"type": "electric_scooter", "rental_uris": {"ios": "https://dc.lft.to/lastmile_qr_scan", "android": "https://dc.lft.to/lastmile_qr_scan"}, "lon": -77.0325895, "fusion_lon": 0.0, "is_disabled": 0, "lat": 38.9396855, "bike_id": "3c85fbf095a261d54cab8715a208ccab", "name": "3c85fbf095a261d54cab8715a208ccab", "is_reserved": 0, "fusion_lat": 0.0}, {"type": "electric_scooter", "rental_uris": {"ios": "https://dc.lft.to/lastmile_qr_scan", "android": "https://dc.lft.to/lastmile_qr_scan"}, "lon": -77.02192333333333, "fusion_lon": 0.0, "is_disabled": 0, "lat": 38.916594833333335, "bike_id": "a42b2841cdf9b1c050bdb5b20290fa80", "name": "a42b2841cdf9b1c050bdb5b20290fa80", "is_reserved": 0, "fusion_lat": 0.0}, {"type": "electric_scooter", "rental_uris": {"ios": "https://dc.lft.to/lastmile_qr_scan", "android": "https://dc.lft.to/lastmile_qr_scan"}, "lon": -77.03814683333333, "fusion_lon": 0.0, "is_disabled": 0, "lat": 38.909595333333336, "bike_id": "f2075fa0c2b03e6090d3b9ddf3e2567e", "name": "f2075fa0c2b03e6090d3b9ddf3e2567e", "is_reserved": 0, "fusion_lat": 0.0}, {"type": "electric_bike", "rental_uris": {"ios": "https://dc.lft.to/lastmile_qr_scan", "android": "https://dc.lft.to/lastmile_qr_scan"}, "lon": -77.06290416666667, "fusion_lon": 0.0, "is_disabled": 0, "lat": 38.90480683333333, "bike_id": "d6559d7088df1a3964d3f25b99a7c754", "name": "d6559d7088df1a3964d3f25b99a7c754", "is_reserved": 0, "fusion_lat": 0.0}, {"type": "electric_scooter", "rental_uris": {"ios": "https://dc.lft.to/lastmile_qr_scan", "android": "https://dc.lft.to/lastmile_qr_scan"}, "lon": -77.025761, "fusion_lon": 0.0, "is_disabled": 0, "lat": 38.917059333333334, "bike_id": "505b7de5a2436b8a89720fe20379826b", "name": "505b7de5a2436b8a89720fe20379826b", "is_reserved": 0, "fusion_lat": 0.0}, {"type": "electric_scooter", "rental_uris": {"ios": "https://dc.lft.to/lastmile_qr_scan", "android": "https://dc.lft.to/lastmile_qr_scan"}, "lon": -77.04310883333333, "fusion_lon": 0.0, "is_disabled": 0, "lat": 38.911069166666664, "bike_id": "580d2d927b09c538559f16541e60cc2a", "name": "580d2d927b09c538559f16541e60cc2a", "is_reserved": 0, "fusion_lat": 0.0}, {"type": "electric_scooter", "rental_uris": {"ios": "https://dc.lft.to/lastmile_qr_scan", "android": "https://dc.lft.to/lastmile_qr_scan"}, "lon": -76.98566633333333, "fusion_lon": 0.0, "is_disabled": 0, "lat": 38.8866525, "bike_id": "fdfade70869602329101adfbfa979d70", "name": "fdfade70869602329101adfbfa979d70", "is_reserved": 0, "fusion_lat": 0.0}, {"type": "electric_scooter", "rental_uris": {"ios": "https://dc.lft.to/lastmile_qr_scan", "android": "https://dc.lft.to/lastmile_qr_scan"}, "lon": -77.00497583333333, "fusion_lon": 0.0, "is_disabled": 0, "lat": 38.8969245, "bike_id": "557c9646ecf55037e4bcc690a087c795", "name": "557c9646ecf55037e4bcc690a087c795", "is_reserved": 0, "fusion_lat": 0.0}, {"type": "electric_scooter", "rental_uris": {"ios": "https://dc.lft.to/lastmile_qr_scan", "android": "https://dc.lft.to/lastmile_qr_scan"}, "lon": -77.02589733333333, "fusion_lon": 0.0, "is_disabled": 0, "lat": 38.90406866666667, "bike_id": "a6c1c70e57bd9190a0977af7e4ee2f7a", "name": "a6c1c70e57bd9190a0977af7e4ee2f7a", "is_reserved": 0, "fusion_lat": 0.0}, {"type": "electric_scooter", "rental_uris": {"ios": "https://dc.lft.to/lastmile_qr_scan", "android": "https://dc.lft.to/lastmile_qr_scan"}, "lon": -77.0158715, "fusion_lon": 0.0, "is_disabled": 0, "lat": 38.92840533333333, "bike_id": "06bfb31e024baafbd92ada09940e4956", "name": "06bfb31e024baafbd92ada09940e4956", "is_reserved": 0, "fusion_lat": 0.0}, {"type": "electric_scooter", "rental_uris": {"ios": "https://dc.lft.to/lastmile_qr_scan", "android": "https://dc.lft.to/lastmile_qr_scan"}, "lon": -77.0164105, "fusion_lon": 0.0, "is_disabled": 0, "lat": 38.903825833333336, "bike_id": "336de61d8886f7cd75158f9e3629fc97", "name": "336de61d8886f7cd75158f9e3629fc97", "is_reserved": 0, "fusion_lat": 0.0}, {"type": "electric_scooter", "rental_uris": {"ios": "https://dc.lft.to/lastmile_qr_scan", "android": "https://dc.lft.to/lastmile_qr_scan"}, "lon": -77.0251155, "fusion_lon": 0.0, "is_disabled": 0, "lat": 38.91939333333333, "bike_id": "9e8f43463a0e9318c5a9758348205ccd", "name": "9e8f43463a0e9318c5a9758348205ccd", "is_reserved": 0, "fusion_lat": 0.0}, {"type": "electric_scooter", "rental_uris": {"ios": "https://dc.lft.to/lastmile_qr_scan", "android": "https://dc.lft.to/lastmile_qr_scan"}, "lon": -77.041724, "fusion_lon": 0.0, "is_disabled": 0, "lat": 38.9183465, "bike_id": "b1c088182e9fd727c9230edd741cabbc", "name": "b1c088182e9fd727c9230edd741cabbc", "is_reserved": 0, "fusion_lat": 0.0}, {"type": "electric_scooter", "rental_uris": {"ios": "https://dc.lft.to/lastmile_qr_scan", "android": "https://dc.lft.to/lastmile_qr_scan"}, "lon": -77.03265316666666, "fusion_lon": 0.0, "is_disabled": 0, "lat": 38.93518916666667, "bike_id": "ea40304b65c3023fd753dff56d603867", "name": "ea40304b65c3023fd753dff56d603867", "is_reserved": 0, "fusion_lat": 0.0}, {"type": "electric_scooter", "rental_uris": {"ios": "https://dc.lft.to/lastmile_qr_scan", "android": "https://dc.lft.to/lastmile_qr_scan"}, "lon": -76.99551916666667, "fusion_lon": 0.0, "is_disabled": 0, "lat": 38.926537, "bike_id": "813f706b780157210050bdb965279f69", "name": "813f706b780157210050bdb965279f69", "is_reserved": 0, "fusion_lat": 0.0}, {"type": "electric_scooter", "rental_uris": {"ios": "https://dc.lft.to/lastmile_qr_scan", "android": "https://dc.lft.to/lastmile_qr_scan"}, "lon": -77.04348733333333, "fusion_lon": 0.0, "is_disabled": 0, "lat": 38.908074, "bike_id": "01f9231697c4e05dede9957fd137a648", "name": "01f9231697c4e05dede9957fd137a648", "is_reserved": 0, "fusion_lat": 0.0}, {"type": "electric_bike", "rental_uris": {"ios": "https://dc.lft.to/lastmile_qr_scan", "android": "https://dc.lft.to/lastmile_qr_scan"}, "lon": -76.98554183333333, "fusion_lon": 0.0, "is_disabled": 0, "lat": 38.852077333333334, "bike_id": "561a2d51bfb53ad16341e7b6ece43de8", "name": "561a2d51bfb53ad16341e7b6ece43de8", "is_reserved": 0, "fusion_lat": 0.0}, {"type": "electric_scooter", "rental_uris": {"ios": "https://dc.lft.to/lastmile_qr_scan", "android": "https://dc.lft.to/lastmile_qr_scan"}, "lon": -77.057616, "fusion_lon": 0.0, "is_disabled": 0, "lat": 38.92560016666667, "bike_id": "62ee8ba0179f5b163c7238ccf149a76d", "name": "62ee8ba0179f5b163c7238ccf149a76d", "is_reserved": 0, "fusion_lat": 0.0}, {"type": "electric_scooter", "rental_uris": {"ios": "https://dc.lft.to/lastmile_qr_scan", "android": "https://dc.lft.to/lastmile_qr_scan"}, "lon": -77.03277416666667, "fusion_lon": 0.0, "is_disabled": 0, "lat": 38.932473, "bike_id": "19ebaa991fd68f6a48c1a56747b80f66", "name": "19ebaa991fd68f6a48c1a56747b80f66", "is_reserved": 0, "fusion_lat": 0.0}, {"type": "electric_scooter", "rental_uris": {"ios": "https://dc.lft.to/lastmile_qr_scan", "android": "https://dc.lft.to/lastmile_qr_scan"}, "lon": -77.0043195, "fusion_lon": 0.0, "is_disabled": 0, "lat": 38.876326, "bike_id": "16b1f4c3081558b504c9b43c310f3dd8", "name": "16b1f4c3081558b504c9b43c310f3dd8", "is_reserved": 0, "fusion_lat": 0.0}, {"type": "electric_scooter", "rental_uris": {"ios": "https://dc.lft.to/lastmile_qr_scan", "android": "https://dc.lft.to/lastmile_qr_scan"}, "lon": -77.03347233333334, "fusion_lon": 0.0, "is_disabled": 0, "lat": 38.9171785, "bike_id": "272a8f270a696afd7c44c16dc60e5e7e", "name": "272a8f270a696afd7c44c16dc60e5e7e", "is_reserved": 0, "fusion_lat": 0.0}, {"type": "electric_scooter", "rental_uris": {"ios": "https://dc.lft.to/lastmile_qr_scan", "android": "https://dc.lft.to/lastmile_qr_scan"}, "lon": -77.047922, "fusion_lon": 0.0, "is_disabled": 0, "lat": 38.919273833333335, "bike_id": "7c8ae10af2d0fb5bea169cd257f6dc01", "name": "7c8ae10af2d0fb5bea169cd257f6dc01", "is_reserved": 0, "fusion_lat": 0.0}, {"type": "electric_bike", "rental_uris": {"ios": "https://dc.lft.to/lastmile_qr_scan", "android": "https://dc.lft.to/lastmile_qr_scan"}, "lon": -76.93889733333333, "fusion_lon": 0.0, "is_disabled": 0, "lat": 38.956304, "bike_id": "5ec92d3d64ca443db7589269b27fd18b", "name": "5ec92d3d64ca443db7589269b27fd18b", "is_reserved": 0, "fusion_lat": 0.0}, {"type": "electric_bike", "rental_uris": {"ios": "https://dc.lft.to/lastmile_qr_scan", "android": "https://dc.lft.to/lastmile_qr_scan"}, "lon": -76.90441233333334, "fusion_lon": 0.0, "is_disabled": 0, "lat": 38.897663, "bike_id": "0f2360e93fde6d97c9d6b4897788c717", "name": "0f2360e93fde6d97c9d6b4897788c717", "is_reserved": 0, "fusion_lat": 0.0}, {"type": "electric_scooter", "rental_uris": {"ios": "https://dc.lft.to/lastmile_qr_scan", "android": "https://dc.lft.to/lastmile_qr_scan"}, "lon": -77.0315765, "fusion_lon": 0.0, "is_disabled": 0, "lat": 38.89219083333333, "bike_id": "6d59875f0905187aa77463bab1512bd8", "name": "6d59875f0905187aa77463bab1512bd8", "is_reserved": 0, "fusion_lat": 0.0}, {"type": "electric_scooter", "rental_uris": {"ios": "https://dc.lft.to/lastmile_qr_scan", "android": "https://dc.lft.to/lastmile_qr_scan"}, "lon": -77.03847116666667, "fusion_lon": 0.0, "is_disabled": 0, "lat": 38.915975, "bike_id": "77c013c9b31a369189d840be389c068d", "name": "77c013c9b31a369189d840be389c068d", "is_reserved": 0, "fusion_lat": 0.0}, {"type": "electric_bike", "rental_uris": {"ios": "https://dc.lft.to/lastmile_qr_scan", "android": "https://dc.lft.to/lastmile_qr_scan"}, "lon": -77.09477133333333, "fusion_lon": 0.0, "is_disabled": 0, "lat": 38.807506000000004, "bike_id": "a0e242dbebe4fdb3f917aaa095086411", "name": "a0e242dbebe4fdb3f917aaa095086411", "is_reserved": 0, "fusion_lat": 0.0}, {"type": "electric_bike", "rental_uris": {"ios": "https://dc.lft.to/lastmile_qr_scan", "android": "https://dc.lft.to/lastmile_qr_scan"}, "lon": -77.129555, "fusion_lon": 0.0, "is_disabled": 0, "lat": 38.85217383333333, "bike_id": "a0b502013ba1a9cc53f3c95005341cc2", "name": "a0b502013ba1a9cc53f3c95005341cc2", "is_reserved": 0, "fusion_lat": 0.0}, {"type": "electric_bike", "rental_uris": {"ios": "https://dc.lft.to/lastmile_qr_scan", "android": "https://dc.lft.to/lastmile_qr_scan"}, "lon": -76.932307, "fusion_lon": 0.0, "is_disabled": 0, "lat": 38.865912333333334, "bike_id": "7513d198102aaab3a2c0bd45d0c56cab", "name": "7513d198102aaab3a2c0bd45d0c56cab", "is_reserved": 0, "fusion_lat": 0.0}, {"type": "electric_scooter", "rental_uris": {"ios": "https://dc.lft.to/lastmile_qr_scan", "android": "https://dc.lft.to/lastmile_qr_scan"}, "lon": -77.04011433333334, "fusion_lon": 0.0, "is_disabled": 0, "lat": 38.9099795, "bike_id": "7671baae296ead0f9a1fe706b502f3ad", "name": "7671baae296ead0f9a1fe706b502f3ad", "is_reserved": 0, "fusion_lat": 0.0}, {"type": "electric_scooter", "rental_uris": {"ios": "https://dc.lft.to/lastmile_qr_scan", "android": "https://dc.lft.to/lastmile_qr_scan"}, "lon": -77.00211533333334, "fusion_lon": 0.0, "is_disabled": 0, "lat": 38.904884833333334, "bike_id": "ae8023fbf21c1caa172411477f9c0303", "name": "ae8023fbf21c1caa172411477f9c0303", "is_reserved": 0, "fusion_lat": 0.0}, {"type": "electric_bike", "rental_uris": {"ios": "https://dc.lft.to/lastmile_qr_scan", "android": "https://dc.lft.to/lastmile_qr_scan"}, "lon": -77.02722133333333, "fusion_lon": 0.0, "is_disabled": 0, "lat": 38.901214, "bike_id": "b6918a0cace15f2bab13fabd0a2373eb", "name": "b6918a0cace15f2bab13fabd0a2373eb", "is_reserved": 0, "fusion_lat": 0.0}, {"type": "electric_scooter", "rental_uris": {"ios": "https://dc.lft.to/lastmile_qr_scan", "android": "https://dc.lft.to/lastmile_qr_scan"}, "lon": -77.0403565, "fusion_lon": 0.0, "is_disabled": 0, "lat": 38.903691, "bike_id": "82f1725fad7de552c0026165fbac83f8", "name": "82f1725fad7de552c0026165fbac83f8", "is_reserved": 0, "fusion_lat": 0.0}, {"type": "electric_scooter", "rental_uris": {"ios": "https://dc.lft.to/lastmile_qr_scan", "android": "https://dc.lft.to/lastmile_qr_scan"}, "lon": -77.04384783333333, "fusion_lon": 0.0, "is_disabled": 0, "lat": 38.933295666666666, "bike_id": "87869648a24d7dc9ac7dd8c16fe42b56", "name": "87869648a24d7dc9ac7dd8c16fe42b56", "is_reserved": 0, "fusion_lat": 0.0}, {"type": "electric_scooter", "rental_uris": {"ios": "https://dc.lft.to/lastmile_qr_scan", "android": "https://dc.lft.to/lastmile_qr_scan"}, "lon": -77.02625183333333, "fusion_lon": 0.0, "is_disabled": 0, "lat": 38.892145666666664, "bike_id": "d0b4d895ed9feb386b2c8cddb12f159f", "name": "d0b4d895ed9feb386b2c8cddb12f159f", "is_reserved": 0, "fusion_lat": 0.0}, {"type": "electric_bike", "rental_uris": {"ios": "https://dc.lft.to/lastmile_qr_scan", "android": "https://dc.lft.to/lastmile_qr_scan"}, "lon": -76.981065, "fusion_lon": 0.0, "is_disabled": 0, "lat": 38.95349, "bike_id": "dc11da206a485eb8de77151510b942a4", "name": "dc11da206a485eb8de77151510b942a4", "is_reserved": 0, "fusion_lat": 0.0}, {"type": "electric_scooter", "rental_uris": {"ios": "https://dc.lft.to/lastmile_qr_scan", "android": "https://dc.lft.to/lastmile_qr_scan"}, "lon": -77.04345133333334, "fusion_lon": 0.0, "is_disabled": 0, "lat": 38.904274666666666, "bike_id": "493c8317bebe33961e7da477c7900f0e", "name": "493c8317bebe33961e7da477c7900f0e", "is_reserved": 0, "fusion_lat": 0.0}, {"type": "electric_scooter", "rental_uris": {"ios": "https://dc.lft.to/lastmile_qr_scan", "android": "https://dc.lft.to/lastmile_qr_scan"}, "lon": -77.01538216666667, "fusion_lon": 0.0, "is_disabled": 0, "lat": 38.8853155, "bike_id": "0339996bd1daf759dba16aa1ab0339b1", "name": "0339996bd1daf759dba16aa1ab0339b1", "is_reserved": 0, "fusion_lat": 0.0}, {"type": "electric_scooter", "rental_uris": {"ios": "https://dc.lft.to/lastmile_qr_scan", "android": "https://dc.lft.to/lastmile_qr_scan"}, "lon": -77.040207, "fusion_lon": 0.0, "is_disabled": 0, "lat": 38.924458, "bike_id": "4878872fddc94792b85a366a733fbe0f", "name": "4878872fddc94792b85a366a733fbe0f", "is_reserved": 0, "fusion_lat": 0.0}, {"type": "electric_scooter", "rental_uris": {"ios": "https://dc.lft.to/lastmile_qr_scan", "android": "https://dc.lft.to/lastmile_qr_scan"}, "lon": -77.0263185, "fusion_lon": 0.0, "is_disabled": 0, "lat": 38.8921055, "bike_id": "c8159315240e707247850bc829303177", "name": "c8159315240e707247850bc829303177", "is_reserved": 0, "fusion_lat": 0.0}, {"type": "electric_scooter", "rental_uris": {"ios": "https://dc.lft.to/lastmile_qr_scan", "android": "https://dc.lft.to/lastmile_qr_scan"}, "lon": -76.99030783333333, "fusion_lon": 0.0, "is_disabled": 0, "lat": 38.865202, "bike_id": "bc642b907a7bc9a41ebe69654ab238e5", "name": "bc642b907a7bc9a41ebe69654ab238e5", "is_reserved": 0, "fusion_lat": 0.0}, {"type": "electric_scooter", "rental_uris": {"ios": "https://dc.lft.to/lastmile_qr_scan", "android": "https://dc.lft.to/lastmile_qr_scan"}, "lon": -77.02484233333334, "fusion_lon": 0.0, "is_disabled": 0, "lat": 38.91945583333333, "bike_id": "0a613297150e75b598ffeb2f390b795e", "name": "0a613297150e75b598ffeb2f390b795e", "is_reserved": 0, "fusion_lat": 0.0}, {"type": "electric_scooter", "rental_uris": {"ios": "https://dc.lft.to/lastmile_qr_scan", "android": "https://dc.lft.to/lastmile_qr_scan"}, "lon": -77.04629233333333, "fusion_lon": 0.0, "is_disabled": 0, "lat": 38.915452333333334, "bike_id": "74fde695ae1d07108cc5c2e69aecf9e5", "name": "74fde695ae1d07108cc5c2e69aecf9e5", "is_reserved": 0, "fusion_lat": 0.0}, {"type": "electric_scooter", "rental_uris": {"ios": "https://dc.lft.to/lastmile_qr_scan", "android": "https://dc.lft.to/lastmile_qr_scan"}, "lon": -77.03177316666667, "fusion_lon": 0.0, "is_disabled": 0, "lat": 38.919273, "bike_id": "956c812dacf99a63523fee63efff78a5", "name": "956c812dacf99a63523fee63efff78a5", "is_reserved": 0, "fusion_lat": 0.0}, {"type": "electric_scooter", "rental_uris": {"ios": "https://dc.lft.to/lastmile_qr_scan", "android": "https://dc.lft.to/lastmile_qr_scan"}, "lon": -77.031843, "fusion_lon": 0.0, "is_disabled": 0, "lat": 38.913950166666666, "bike_id": "8885e0b4953cf0ae58af50cc8bcae66d", "name": "8885e0b4953cf0ae58af50cc8bcae66d", "is_reserved": 0, "fusion_lat": 0.0}, {"type": "electric_scooter", "rental_uris": {"ios": "https://dc.lft.to/lastmile_qr_scan", "android": "https://dc.lft.to/lastmile_qr_scan"}, "lon": -77.06122416666666, "fusion_lon": 0.0, "is_disabled": 0, "lat": 38.90479633333333, "bike_id": "51e39e62d662217cbdc68323b853ea4e", "name": "51e39e62d662217cbdc68323b853ea4e", "is_reserved": 0, "fusion_lat": 0.0}, {"type": "electric_bike", "rental_uris": {"ios": "https://dc.lft.to/lastmile_qr_scan", "android": "https://dc.lft.to/lastmile_qr_scan"}, "lon": -77.02925833333333, "fusion_lon": 0.0, "is_disabled": 0, "lat": 38.92165766666667, "bike_id": "b021ef61b694c6cbcc955dd87d54eae8", "name": "b021ef61b694c6cbcc955dd87d54eae8", "is_reserved": 0, "fusion_lat": 0.0}, {"type": "electric_scooter", "rental_uris": {"ios": "https://dc.lft.to/lastmile_qr_scan", "android": "https://dc.lft.to/lastmile_qr_scan"}, "lon": -77.03163283333333, "fusion_lon": 0.0, "is_disabled": 0, "lat": 38.892171, "bike_id": "238273b3d3f810c453798724a3b61868", "name": "238273b3d3f810c453798724a3b61868", "is_reserved": 0, "fusion_lat": 0.0}, {"type": "electric_scooter", "rental_uris": {"ios": "https://dc.lft.to/lastmile_qr_scan", "android": "https://dc.lft.to/lastmile_qr_scan"}, "lon": -77.0486285, "fusion_lon": 0.0, "is_disabled": 0, "lat": 38.8921835, "bike_id": "4a360a1f6756cad5bca2c4db13dacf3e", "name": "4a360a1f6756cad5bca2c4db13dacf3e", "is_reserved": 0, "fusion_lat": 0.0}, {"type": "electric_scooter", "rental_uris": {"ios": "https://dc.lft.to/lastmile_qr_scan", "android": "https://dc.lft.to/lastmile_qr_scan"}, "lon": -77.03629866666667, "fusion_lon": 0.0, "is_disabled": 0, "lat": 38.93737633333333, "bike_id": "cb24ed017ab68d8b5cc9d4e1134246b5", "name": "cb24ed017ab68d8b5cc9d4e1134246b5", "is_reserved": 0, "fusion_lat": 0.0}, {"type": "electric_scooter", "rental_uris": {"ios": "https://dc.lft.to/lastmile_qr_scan", "android": "https://dc.lft.to/lastmile_qr_scan"}, "lon": -77.0317785, "fusion_lon": 0.0, "is_disabled": 0, "lat": 38.9155075, "bike_id": "afc1df9b295d8dcf7caed0416a00c386", "name": "afc1df9b295d8dcf7caed0416a00c386", "is_reserved": 0, "fusion_lat": 0.0}, {"type": "electric_scooter", "rental_uris": {"ios": "https://dc.lft.to/lastmile_qr_scan", "android": "https://dc.lft.to/lastmile_qr_scan"}, "lon": -77.0321605, "fusion_lon": 0.0, "is_disabled": 0, "lat": 38.9199555, "bike_id": "de38f68a60f39b6fa95b7fb41572fb3a", "name": "de38f68a60f39b6fa95b7fb41572fb3a", "is_reserved": 0, "fusion_lat": 0.0}, {"type": "electric_scooter", "rental_uris": {"ios": "https://dc.lft.to/lastmile_qr_scan", "android": "https://dc.lft.to/lastmile_qr_scan"}, "lon": -77.04146683333333, "fusion_lon": 0.0, "is_disabled": 0, "lat": 38.9234785, "bike_id": "33c348eb118328cef0e345f24847644d", "name": "33c348eb118328cef0e345f24847644d", "is_reserved": 0, "fusion_lat": 0.0}, {"type": "electric_scooter", "rental_uris": {"ios": "https://dc.lft.to/lastmile_qr_scan", "android": "https://dc.lft.to/lastmile_qr_scan"}, "lon": -76.97743216666667, "fusion_lon": 0.0, "is_disabled": 0, "lat": 38.868249, "bike_id": "c9956cc383429ed5ccd8e7a2c2614fc5", "name": "c9956cc383429ed5ccd8e7a2c2614fc5", "is_reserved": 0, "fusion_lat": 0.0}, {"type": "electric_scooter", "rental_uris": {"ios": "https://dc.lft.to/lastmile_qr_scan", "android": "https://dc.lft.to/lastmile_qr_scan"}, "lon": -77.03182616666666, "fusion_lon": 0.0, "is_disabled": 0, "lat": 38.89783383333334, "bike_id": "1629a5b9e8862f47ba704041b88760e4", "name": "1629a5b9e8862f47ba704041b88760e4", "is_reserved": 0, "fusion_lat": 0.0}, {"type": "electric_bike", "rental_uris": {"ios": "https://dc.lft.to/lastmile_qr_scan", "android": "https://dc.lft.to/lastmile_qr_scan"}, "lon": -77.00298816666667, "fusion_lon": 0.0, "is_disabled": 0, "lat": 38.916176, "bike_id": "5291616ca336666979fe4d68a53b17f5", "name": "5291616ca336666979fe4d68a53b17f5", "is_reserved": 0, "fusion_lat": 0.0}, {"type": "electric_scooter", "rental_uris": {"ios": "https://dc.lft.to/lastmile_qr_scan", "android": "https://dc.lft.to/lastmile_qr_scan"}, "lon": -77.04003966666667, "fusion_lon": 0.0, "is_disabled": 0, "lat": 38.9140755, "bike_id": "461e7aa240aa944c9bd1b6e42834dd2f", "name": "461e7aa240aa944c9bd1b6e42834dd2f", "is_reserved": 0, "fusion_lat": 0.0}, {"type": "electric_bike", "rental_uris": {"ios": "https://dc.lft.to/lastmile_qr_scan", "android": "https://dc.lft.to/lastmile_qr_scan"}, "lon": -76.94529633333333, "fusion_lon": 0.0, "is_disabled": 0, "lat": 38.864639333333336, "bike_id": "6d26e22de2b3d9b4776d1ce2efec3e1d", "name": "6d26e22de2b3d9b4776d1ce2efec3e1d", "is_reserved": 0, "fusion_lat": 0.0}, {"type": "electric_bike", "rental_uris": {"ios": "https://dc.lft.to/lastmile_qr_scan", "android": "https://dc.lft.to/lastmile_qr_scan"}, "lon": -77.00569216666666, "fusion_lon": 0.0, "is_disabled": 0, "lat": 38.8398245, "bike_id": "5dffa65049215b7e21ba53d1e8826de7", "name": "5dffa65049215b7e21ba53d1e8826de7", "is_reserved": 0, "fusion_lat": 0.0}, {"type": "electric_scooter", "rental_uris": {"ios": "https://dc.lft.to/lastmile_qr_scan", "android": "https://dc.lft.to/lastmile_qr_scan"}, "lon": -77.04366383333333, "fusion_lon": 0.0, "is_disabled": 0, "lat": 38.92137266666667, "bike_id": "6fc3d532dc2afc26af6e4133cd2ab776", "name": "6fc3d532dc2afc26af6e4133cd2ab776", "is_reserved": 0, "fusion_lat": 0.0}, {"type": "electric_bike", "rental_uris": {"ios": "https://dc.lft.to/lastmile_qr_scan", "android": "https://dc.lft.to/lastmile_qr_scan"}, "lon": -76.97945533333333, "fusion_lon": 0.0, "is_disabled": 0, "lat": 38.8627345, "bike_id": "7ed84a868bfcdb03dfed24e2ddd128da", "name": "7ed84a868bfcdb03dfed24e2ddd128da", "is_reserved": 0, "fusion_lat": 0.0}, {"type": "electric_scooter", "rental_uris": {"ios": "https://dc.lft.to/lastmile_qr_scan", "android": "https://dc.lft.to/lastmile_qr_scan"}, "lon": -77.02493633333333, "fusion_lon": 0.0, "is_disabled": 0, "lat": 38.9180385, "bike_id": "68fc102129a658439518aa0495588934", "name": "68fc102129a658439518aa0495588934", "is_reserved": 0, "fusion_lat": 0.0}, {"type": "electric_scooter", "rental_uris": {"ios": "https://dc.lft.to/lastmile_qr_scan", "android": "https://dc.lft.to/lastmile_qr_scan"}, "lon": -77.0347195, "fusion_lon": 0.0, "is_disabled": 0, "lat": 38.904529833333335, "bike_id": "b74e0e89abedd2fe0d42d09fdda8dc47", "name": "b74e0e89abedd2fe0d42d09fdda8dc47", "is_reserved": 0, "fusion_lat": 0.0}, {"type": "electric_bike", "rental_uris": {"ios": "https://dc.lft.to/lastmile_qr_scan", "android": "https://dc.lft.to/lastmile_qr_scan"}, "lon": -77.00197833333333, "fusion_lon": 0.0, "is_disabled": 0, "lat": 38.941524666666666, "bike_id": "0dfdfdf3f7a31e534b62e497d53aaa05", "name": "0dfdfdf3f7a31e534b62e497d53aaa05", "is_reserved": 0, "fusion_lat": 0.0}, {"type": "electric_scooter", "rental_uris": {"ios": "https://dc.lft.to/lastmile_qr_scan", "android": "https://dc.lft.to/lastmile_qr_scan"}, "lon": -77.034053, "fusion_lon": 0.0, "is_disabled": 0, "lat": 38.92041716666667, "bike_id": "3b4c7a65cb90ba7b62c65b17bd743f11", "name": "3b4c7a65cb90ba7b62c65b17bd743f11", "is_reserved": 0, "fusion_lat": 0.0}, {"type": "electric_scooter", "rental_uris": {"ios": "https://dc.lft.to/lastmile_qr_scan", "android": "https://dc.lft.to/lastmile_qr_scan"}, "lon": -76.933462, "fusion_lon": 0.0, "is_disabled": 0, "lat": 38.8881105, "bike_id": "3c71d10e413caa46c870999640ad1318", "name": "3c71d10e413caa46c870999640ad1318", "is_reserved": 0, "fusion_lat": 0.0}, {"type": "electric_scooter", "rental_uris": {"ios": "https://dc.lft.to/lastmile_qr_scan", "android": "https://dc.lft.to/lastmile_qr_scan"}, "lon": -77.0706565, "fusion_lon": 0.0, "is_disabled": 0, "lat": 38.93175016666667, "bike_id": "8fbdee3587995e1b656c6c1154480650", "name": "8fbdee3587995e1b656c6c1154480650", "is_reserved": 0, "fusion_lat": 0.0}, {"type": "electric_scooter", "rental_uris": {"ios": "https://dc.lft.to/lastmile_qr_scan", "android": "https://dc.lft.to/lastmile_qr_scan"}, "lon": -77.03209183333334, "fusion_lon": 0.0, "is_disabled": 0, "lat": 38.9089465, "bike_id": "0bd6f6a356085ecaf1863f9037e1a1ae", "name": "0bd6f6a356085ecaf1863f9037e1a1ae", "is_reserved": 0, "fusion_lat": 0.0}, {"type": "electric_scooter", "rental_uris": {"ios": "https://dc.lft.to/lastmile_qr_scan", "android": "https://dc.lft.to/lastmile_qr_scan"}, "lon": -77.03156283333334, "fusion_lon": 0.0, "is_disabled": 0, "lat": 38.89212366666667, "bike_id": "26c65d273a33756d1a084cb30fe5ffb5", "name": "26c65d273a33756d1a084cb30fe5ffb5", "is_reserved": 0, "fusion_lat": 0.0}, {"type": "electric_scooter", "rental_uris": {"ios": "https://dc.lft.to/lastmile_qr_scan", "android": "https://dc.lft.to/lastmile_qr_scan"}, "lon": -77.03773283333334, "fusion_lon": 0.0, "is_disabled": 0, "lat": 38.91688, "bike_id": "94871e8759cec6fc3032d377f5cca5a7", "name": "94871e8759cec6fc3032d377f5cca5a7", "is_reserved": 0, "fusion_lat": 0.0}, {"type": "electric_scooter", "rental_uris": {"ios": "https://dc.lft.to/lastmile_qr_scan", "android": "https://dc.lft.to/lastmile_qr_scan"}, "lon": -76.93367433333333, "fusion_lon": 0.0, "is_disabled": 0, "lat": 38.895570166666666, "bike_id": "5419ef26c8583c285449c5ff969f46c0", "name": "5419ef26c8583c285449c5ff969f46c0", "is_reserved": 0, "fusion_lat": 0.0}, {"type": "electric_scooter", "rental_uris": {"ios": "https://dc.lft.to/lastmile_qr_scan", "android": "https://dc.lft.to/lastmile_qr_scan"}, "lon": -76.98009333333333, "fusion_lon": 0.0, "is_disabled": 0, "lat": 38.85318, "bike_id": "8e7df592bea7eff49f8e8e6341058183", "name": "8e7df592bea7eff49f8e8e6341058183", "is_reserved": 0, "fusion_lat": 0.0}, {"type": "electric_bike", "rental_uris": {"ios": "https://dc.lft.to/lastmile_qr_scan", "android": "https://dc.lft.to/lastmile_qr_scan"}, "lon": -76.93890516666667, "fusion_lon": 0.0, "is_disabled": 0, "lat": 38.96468516666667, "bike_id": "cd3133806657e5950d75f080417dc0fc", "name": "cd3133806657e5950d75f080417dc0fc", "is_reserved": 0, "fusion_lat": 0.0}, {"type": "electric_scooter", "rental_uris": {"ios": "https://dc.lft.to/lastmile_qr_scan", "android": "https://dc.lft.to/lastmile_qr_scan"}, "lon": -77.02200516666667, "fusion_lon": 0.0, "is_disabled": 0, "lat": 38.911279, "bike_id": "e23e205b7cfd1a01af437996f35105fd", "name": "e23e205b7cfd1a01af437996f35105fd", "is_reserved": 0, "fusion_lat": 0.0}, {"type": "electric_scooter", "rental_uris": {"ios": "https://dc.lft.to/lastmile_qr_scan", "android": "https://dc.lft.to/lastmile_qr_scan"}, "lon": -77.032859, "fusion_lon": 0.0, "is_disabled": 0, "lat": 38.929985333333335, "bike_id": "b4b4fbf2e77894007e58c1a8c49d0f57", "name": "b4b4fbf2e77894007e58c1a8c49d0f57", "is_reserved": 0, "fusion_lat": 0.0}, {"type": "electric_scooter", "rental_uris": {"ios": "https://dc.lft.to/lastmile_qr_scan", "android": "https://dc.lft.to/lastmile_qr_scan"}, "lon": -77.0177265, "fusion_lon": 0.0, "is_disabled": 0, "lat": 38.887101, "bike_id": "e9e77c0176cb6000ee00bdacbae00bd4", "name": "e9e77c0176cb6000ee00bdacbae00bd4", "is_reserved": 0, "fusion_lat": 0.0}, {"type": "electric_scooter", "rental_uris": {"ios": "https://dc.lft.to/lastmile_qr_scan", "android": "https://dc.lft.to/lastmile_qr_scan"}, "lon": -77.03369866666667, "fusion_lon": 0.0, "is_disabled": 0, "lat": 38.89226433333333, "bike_id": "2c032f2a3043c723efe704f814d8413b", "name": "2c032f2a3043c723efe704f814d8413b", "is_reserved": 0, "fusion_lat": 0.0}, {"type": "electric_scooter", "rental_uris": {"ios": "https://dc.lft.to/lastmile_qr_scan", "android": "https://dc.lft.to/lastmile_qr_scan"}, "lon": -77.02723466666667, "fusion_lon": 0.0, "is_disabled": 0, "lat": 38.924787, "bike_id": "152a1f0a648304d60cc6803670f48b04", "name": "152a1f0a648304d60cc6803670f48b04", "is_reserved": 0, "fusion_lat": 0.0}, {"type": "electric_scooter", "rental_uris": {"ios": "https://dc.lft.to/lastmile_qr_scan", "android": "https://dc.lft.to/lastmile_qr_scan"}, "lon": -77.03499433333333, "fusion_lon": 0.0, "is_disabled": 0, "lat": 38.91549783333333, "bike_id": "657d55966f07b254d7fe335079a25f44", "name": "657d55966f07b254d7fe335079a25f44", "is_reserved": 0, "fusion_lat": 0.0}, {"type": "electric_scooter", "rental_uris": {"ios": "https://dc.lft.to/lastmile_qr_scan", "android": "https://dc.lft.to/lastmile_qr_scan"}, "lon": -77.04361466666667, "fusion_lon": 0.0, "is_disabled": 0, "lat": 38.9024, "bike_id": "b35d7a810604b188d30b6bbaf7b1f3f4", "name": "b35d7a810604b188d30b6bbaf7b1f3f4", "is_reserved": 0, "fusion_lat": 0.0}, {"type": "electric_scooter", "rental_uris": {"ios": "https://dc.lft.to/lastmile_qr_scan", "android": "https://dc.lft.to/lastmile_qr_scan"}, "lon": -77.03450333333333, "fusion_lon": 0.0, "is_disabled": 0, "lat": 38.91815616666667, "bike_id": "aab81739850c7feed1475491753658a9", "name": "aab81739850c7feed1475491753658a9", "is_reserved": 0, "fusion_lat": 0.0}, {"type": "electric_scooter", "rental_uris": {"ios": "https://dc.lft.to/lastmile_qr_scan", "android": "https://dc.lft.to/lastmile_qr_scan"}, "lon": -77.02971416666666, "fusion_lon": 0.0, "is_disabled": 0, "lat": 38.923168833333335, "bike_id": "af473862ae74b5a1bf75d58e320ead22", "name": "af473862ae74b5a1bf75d58e320ead22", "is_reserved": 0, "fusion_lat": 0.0}, {"type": "electric_scooter", "rental_uris": {"ios": "https://dc.lft.to/lastmile_qr_scan", "android": "https://dc.lft.to/lastmile_qr_scan"}, "lon": -77.0321305, "fusion_lon": 0.0, "is_disabled": 0, "lat": 38.9144775, "bike_id": "29f4f210099062ee11b75b6791e07512", "name": "29f4f210099062ee11b75b6791e07512", "is_reserved": 0, "fusion_lat": 0.0}, {"type": "electric_scooter", "rental_uris": {"ios": "https://dc.lft.to/lastmile_qr_scan", "android": "https://dc.lft.to/lastmile_qr_scan"}, "lon": -77.046832, "fusion_lon": 0.0, "is_disabled": 0, "lat": 38.91692466666667, "bike_id": "9ec116d742834bf92b0274d5282c5f7e", "name": "9ec116d742834bf92b0274d5282c5f7e", "is_reserved": 0, "fusion_lat": 0.0}, {"type": "electric_scooter", "rental_uris": {"ios": "https://dc.lft.to/lastmile_qr_scan", "android": "https://dc.lft.to/lastmile_qr_scan"}, "lon": -77.011805, "fusion_lon": 0.0, "is_disabled": 0, "lat": 38.9155685, "bike_id": "0dfdb692a52ac368ef437bea76abf871", "name": "0dfdb692a52ac368ef437bea76abf871", "is_reserved": 0, "fusion_lat": 0.0}, {"type": "electric_scooter", "rental_uris": {"ios": "https://dc.lft.to/lastmile_qr_scan", "android": "https://dc.lft.to/lastmile_qr_scan"}, "lon": -77.013721, "fusion_lon": 0.0, "is_disabled": 0, "lat": 38.89220916666667, "bike_id": "678cc0a3ddddf62e2a3123d62965e799", "name": "678cc0a3ddddf62e2a3123d62965e799", "is_reserved": 0, "fusion_lat": 0.0}, {"type": "electric_scooter", "rental_uris": {"ios": "https://dc.lft.to/lastmile_qr_scan", "android": "https://dc.lft.to/lastmile_qr_scan"}, "lon": -77.04252766666667, "fusion_lon": 0.0, "is_disabled": 0, "lat": 38.9219745, "bike_id": "fa9114efda197305efccad8494b88bad", "name": "fa9114efda197305efccad8494b88bad", "is_reserved": 0, "fusion_lat": 0.0}, {"type": "electric_scooter", "rental_uris": {"ios": "https://dc.lft.to/lastmile_qr_scan", "android": "https://dc.lft.to/lastmile_qr_scan"}, "lon": -77.02157033333333, "fusion_lon": 0.0, "is_disabled": 0, "lat": 38.92597816666667, "bike_id": "f465f8085731f44f8a47850758d5b40d", "name": "f465f8085731f44f8a47850758d5b40d", "is_reserved": 0, "fusion_lat": 0.0}, {"type": "electric_bike", "rental_uris": {"ios": "https://dc.lft.to/lastmile_qr_scan", "android": "https://dc.lft.to/lastmile_qr_scan"}, "lon": -77.04980566666667, "fusion_lon": 0.0, "is_disabled": 0, "lat": 39.062946333333336, "bike_id": "6319ccdbd9bee97b76c175a522bbf7bc", "name": "6319ccdbd9bee97b76c175a522bbf7bc", "is_reserved": 0, "fusion_lat": 0.0}, {"type": "electric_scooter", "rental_uris": {"ios": "https://dc.lft.to/lastmile_qr_scan", "android": "https://dc.lft.to/lastmile_qr_scan"}, "lon": -77.03165616666666, "fusion_lon": 0.0, "is_disabled": 0, "lat": 38.8961835, "bike_id": "0f2bb39ddee1bb260e6b65297fabd266", "name": "0f2bb39ddee1bb260e6b65297fabd266", "is_reserved": 0, "fusion_lat": 0.0}, {"type": "electric_scooter", "rental_uris": {"ios": "https://dc.lft.to/lastmile_qr_scan", "android": "https://dc.lft.to/lastmile_qr_scan"}, "lon": -77.03290233333334, "fusion_lon": 0.0, "is_disabled": 0, "lat": 38.9291715, "bike_id": "0057312c4c60e9a3cb193ca6dce6dab8", "name": "0057312c4c60e9a3cb193ca6dce6dab8", "is_reserved": 0, "fusion_lat": 0.0}, {"type": "electric_scooter", "rental_uris": {"ios": "https://dc.lft.to/lastmile_qr_scan", "android": "https://dc.lft.to/lastmile_qr_scan"}, "lon": -77.03592566666667, "fusion_lon": 0.0, "is_disabled": 0, "lat": 38.92858783333333, "bike_id": "f7d241559d095182f4958b684dc020fd", "name": "f7d241559d095182f4958b684dc020fd", "is_reserved": 0, "fusion_lat": 0.0}, {"type": "electric_scooter", "rental_uris": {"ios": "https://dc.lft.to/lastmile_qr_scan", "android": "https://dc.lft.to/lastmile_qr_scan"}, "lon": -77.0062055, "fusion_lon": 0.0, "is_disabled": 0, "lat": 38.906145333333335, "bike_id": "793ebb28bceff48cfadbc96f6f570bc4", "name": "793ebb28bceff48cfadbc96f6f570bc4", "is_reserved": 0, "fusion_lat": 0.0}, {"type": "electric_scooter", "rental_uris": {"ios": "https://dc.lft.to/lastmile_qr_scan", "android": "https://dc.lft.to/lastmile_qr_scan"}, "lon": -76.98888416666667, "fusion_lon": 0.0, "is_disabled": 0, "lat": 38.861017833333335, "bike_id": "d03d7dfbc7a0bd71d93b2390bef68524", "name": "d03d7dfbc7a0bd71d93b2390bef68524", "is_reserved": 0, "fusion_lat": 0.0}, {"type": "electric_scooter", "rental_uris": {"ios": "https://dc.lft.to/lastmile_qr_scan", "android": "https://dc.lft.to/lastmile_qr_scan"}, "lon": -77.01154416666667, "fusion_lon": 0.0, "is_disabled": 0, "lat": 38.90318516666667, "bike_id": "c4a92031577640013700221262a9af8f", "name": "c4a92031577640013700221262a9af8f", "is_reserved": 0, "fusion_lat": 0.0}, {"type": "electric_scooter", "rental_uris": {"ios": "https://dc.lft.to/lastmile_qr_scan", "android": "https://dc.lft.to/lastmile_qr_scan"}, "lon": -77.04182066666667, "fusion_lon": 0.0, "is_disabled": 0, "lat": 38.919903, "bike_id": "95c771f793ecfd00ea073ae54aa366d8", "name": "95c771f793ecfd00ea073ae54aa366d8", "is_reserved": 0, "fusion_lat": 0.0}, {"type": "electric_scooter", "rental_uris": {"ios": "https://dc.lft.to/lastmile_qr_scan", "android": "https://dc.lft.to/lastmile_qr_scan"}, "lon": -77.03149766666667, "fusion_lon": 0.0, "is_disabled": 0, "lat": 38.915584333333335, "bike_id": "8d9239f0a7d6f8a9f85eb8c38ba0697d", "name": "8d9239f0a7d6f8a9f85eb8c38ba0697d", "is_reserved": 0, "fusion_lat": 0.0}, {"type": "electric_scooter", "rental_uris": {"ios": "https://dc.lft.to/lastmile_qr_scan", "android": "https://dc.lft.to/lastmile_qr_scan"}, "lon": -77.03615416666666, "fusion_lon": 0.0, "is_disabled": 0, "lat": 38.92333983333333, "bike_id": "d5faf71241f7d8594dbad671e7f252b9", "name": "d5faf71241f7d8594dbad671e7f252b9", "is_reserved": 0, "fusion_lat": 0.0}, {"type": "electric_scooter", "rental_uris": {"ios": "https://dc.lft.to/lastmile_qr_scan", "android": "https://dc.lft.to/lastmile_qr_scan"}, "lon": -77.02513116666667, "fusion_lon": 0.0, "is_disabled": 0, "lat": 38.94620666666667, "bike_id": "4abacf29e6d9f133ff8d08fb2c02fa16", "name": "4abacf29e6d9f133ff8d08fb2c02fa16", "is_reserved": 0, "fusion_lat": 0.0}, {"type": "electric_scooter", "rental_uris": {"ios": "https://dc.lft.to/lastmile_qr_scan", "android": "https://dc.lft.to/lastmile_qr_scan"}, "lon": -77.02838616666666, "fusion_lon": 0.0, "is_disabled": 0, "lat": 38.9318735, "bike_id": "fe90a9792eae06c5530a3a43d6a6c8cf", "name": "fe90a9792eae06c5530a3a43d6a6c8cf", "is_reserved": 0, "fusion_lat": 0.0}, {"type": "electric_bike", "rental_uris": {"ios": "https://dc.lft.to/lastmile_qr_scan", "android": "https://dc.lft.to/lastmile_qr_scan"}, "lon": -77.05638016666667, "fusion_lon": 0.0, "is_disabled": 0, "lat": 38.9864425, "bike_id": "2b4628ba29c1499276051a243dbee9d9", "name": "2b4628ba29c1499276051a243dbee9d9", "is_reserved": 0, "fusion_lat": 0.0}, {"type": "electric_scooter", "rental_uris": {"ios": "https://dc.lft.to/lastmile_qr_scan", "android": "https://dc.lft.to/lastmile_qr_scan"}, "lon": -77.040172, "fusion_lon": 0.0, "is_disabled": 0, "lat": 38.918013, "bike_id": "d01474c9225fc4dee712569a6641f10a", "name": "d01474c9225fc4dee712569a6641f10a", "is_reserved": 0, "fusion_lat": 0.0}, {"type": "electric_scooter", "rental_uris": {"ios": "https://dc.lft.to/lastmile_qr_scan", "android": "https://dc.lft.to/lastmile_qr_scan"}, "lon": -77.02802483333333, "fusion_lon": 0.0, "is_disabled": 0, "lat": 38.9057015, "bike_id": "45ad772040f9a23f9ef78c4b50b92010", "name": "45ad772040f9a23f9ef78c4b50b92010", "is_reserved": 0, "fusion_lat": 0.0}, {"type": "electric_scooter", "rental_uris": {"ios": "https://dc.lft.to/lastmile_qr_scan", "android": "https://dc.lft.to/lastmile_qr_scan"}, "lon": -77.05313933333333, "fusion_lon": 0.0, "is_disabled": 0, "lat": 38.92792583333333, "bike_id": "13b67040e6b9d672bd43322cc5722699", "name": "13b67040e6b9d672bd43322cc5722699", "is_reserved": 0, "fusion_lat": 0.0}, {"type": "electric_scooter", "rental_uris": {"ios": "https://dc.lft.to/lastmile_qr_scan", "android": "https://dc.lft.to/lastmile_qr_scan"}, "lon": -77.0321195, "fusion_lon": 0.0, "is_disabled": 0, "lat": 38.9172725, "bike_id": "1e078b675c3a35fd0b9bf64d03464f25", "name": "1e078b675c3a35fd0b9bf64d03464f25", "is_reserved": 0, "fusion_lat": 0.0}, {"type": "electric_scooter", "rental_uris": {"ios": "https://dc.lft.to/lastmile_qr_scan", "android": "https://dc.lft.to/lastmile_qr_scan"}, "lon": -77.02232933333333, "fusion_lon": 0.0, "is_disabled": 0, "lat": 38.912667166666665, "bike_id": "e883571dbdf1ebf59170889cfb951b90", "name": "e883571dbdf1ebf59170889cfb951b90", "is_reserved": 0, "fusion_lat": 0.0}, {"type": "electric_scooter", "rental_uris": {"ios": "https://dc.lft.to/lastmile_qr_scan", "android": "https://dc.lft.to/lastmile_qr_scan"}, "lon": -77.02715233333333, "fusion_lon": 0.0, "is_disabled": 0, "lat": 38.907351166666665, "bike_id": "7162a82f3267f18bfe15f08fcf70e86f", "name": "7162a82f3267f18bfe15f08fcf70e86f", "is_reserved": 0, "fusion_lat": 0.0}, {"type": "electric_scooter", "rental_uris": {"ios": "https://dc.lft.to/lastmile_qr_scan", "android": "https://dc.lft.to/lastmile_qr_scan"}, "lon": -76.98925666666666, "fusion_lon": 0.0, "is_disabled": 0, "lat": 38.84077116666667, "bike_id": "5aff0b5df9850b96688e9b83bb9128dc", "name": "5aff0b5df9850b96688e9b83bb9128dc", "is_reserved": 0, "fusion_lat": 0.0}, {"type": "electric_scooter", "rental_uris": {"ios": "https://dc.lft.to/lastmile_qr_scan", "android": "https://dc.lft.to/lastmile_qr_scan"}, "lon": -77.02780933333334, "fusion_lon": 0.0, "is_disabled": 0, "lat": 38.89702833333333, "bike_id": "74c23bb0e38d81c824df8e4818b09e82", "name": "74c23bb0e38d81c824df8e4818b09e82", "is_reserved": 0, "fusion_lat": 0.0}, {"type": "electric_scooter", "rental_uris": {"ios": "https://dc.lft.to/lastmile_qr_scan", "android": "https://dc.lft.to/lastmile_qr_scan"}, "lon": -77.00386766666666, "fusion_lon": 0.0, "is_disabled": 0, "lat": 38.910554833333336, "bike_id": "9c33c6d926707ea7da99498b3b7901fc", "name": "9c33c6d926707ea7da99498b3b7901fc", "is_reserved": 0, "fusion_lat": 0.0}, {"type": "electric_scooter", "rental_uris": {"ios": "https://dc.lft.to/lastmile_qr_scan", "android": "https://dc.lft.to/lastmile_qr_scan"}, "lon": -77.02703383333333, "fusion_lon": 0.0, "is_disabled": 0, "lat": 38.92876033333334, "bike_id": "59be02a54507cbf4f63f01841336652a", "name": "59be02a54507cbf4f63f01841336652a", "is_reserved": 0, "fusion_lat": 0.0}, {"type": "electric_scooter", "rental_uris": {"ios": "https://dc.lft.to/lastmile_qr_scan", "android": "https://dc.lft.to/lastmile_qr_scan"}, "lon": -77.03727466666666, "fusion_lon": 0.0, "is_disabled": 0, "lat": 38.917069166666664, "bike_id": "96ad96189ac56c864f6f63ef7726821c", "name": "96ad96189ac56c864f6f63ef7726821c", "is_reserved": 0, "fusion_lat": 0.0}, {"type": "electric_scooter", "rental_uris": {"ios": "https://dc.lft.to/lastmile_qr_scan", "android": "https://dc.lft.to/lastmile_qr_scan"}, "lon": -77.04248, "fusion_lon": 0.0, "is_disabled": 0, "lat": 38.922126166666665, "bike_id": "89fb776620b108f82b8cb9b8b972a484", "name": "89fb776620b108f82b8cb9b8b972a484", "is_reserved": 0, "fusion_lat": 0.0}, {"type": "electric_scooter", "rental_uris": {"ios": "https://dc.lft.to/lastmile_qr_scan", "android": "https://dc.lft.to/lastmile_qr_scan"}, "lon": -77.03464716666667, "fusion_lon": 0.0, "is_disabled": 0, "lat": 38.92250966666667, "bike_id": "d54d24aeb7f05c806022d1a3474be4b2", "name": "d54d24aeb7f05c806022d1a3474be4b2", "is_reserved": 0, "fusion_lat": 0.0}, {"type": "electric_scooter", "rental_uris": {"ios": "https://dc.lft.to/lastmile_qr_scan", "android": "https://dc.lft.to/lastmile_qr_scan"}, "lon": -77.032871, "fusion_lon": 0.0, "is_disabled": 0, "lat": 38.95649316666667, "bike_id": "132253875160a9d6325d9694f75657a1", "name": "132253875160a9d6325d9694f75657a1", "is_reserved": 0, "fusion_lat": 0.0}, {"type": "electric_scooter", "rental_uris": {"ios": "https://dc.lft.to/lastmile_qr_scan", "android": "https://dc.lft.to/lastmile_qr_scan"}, "lon": -77.07048683333333, "fusion_lon": 0.0, "is_disabled": 0, "lat": 38.919236, "bike_id": "32d385a8f0ef41a1076a2f6c39bdebee", "name": "32d385a8f0ef41a1076a2f6c39bdebee", "is_reserved": 0, "fusion_lat": 0.0}, {"type": "electric_scooter", "rental_uris": {"ios": "https://dc.lft.to/lastmile_qr_scan", "android": "https://dc.lft.to/lastmile_qr_scan"}, "lon": -77.02686783333333, "fusion_lon": 0.0, "is_disabled": 0, "lat": 38.984552, "bike_id": "7ce1fd954689e48bf03eef6edda8ab63", "name": "7ce1fd954689e48bf03eef6edda8ab63", "is_reserved": 0, "fusion_lat": 0.0}, {"type": "electric_scooter", "rental_uris": {"ios": "https://dc.lft.to/lastmile_qr_scan", "android": "https://dc.lft.to/lastmile_qr_scan"}, "lon": -77.04162483333333, "fusion_lon": 0.0, "is_disabled": 0, "lat": 38.9029235, "bike_id": "e00e98ce44f5eb0407c7368cf5db554a", "name": "e00e98ce44f5eb0407c7368cf5db554a", "is_reserved": 0, "fusion_lat": 0.0}, {"type": "electric_scooter", "rental_uris": {"ios": "https://dc.lft.to/lastmile_qr_scan", "android": "https://dc.lft.to/lastmile_qr_scan"}, "lon": -77.02788066666666, "fusion_lon": 0.0, "is_disabled": 0, "lat": 38.93069783333333, "bike_id": "da486f980e0a05d2028fa7a5d3640518", "name": "da486f980e0a05d2028fa7a5d3640518", "is_reserved": 0, "fusion_lat": 0.0}, {"type": "electric_scooter", "rental_uris": {"ios": "https://dc.lft.to/lastmile_qr_scan", "android": "https://dc.lft.to/lastmile_qr_scan"}, "lon": -77.034123, "fusion_lon": 0.0, "is_disabled": 0, "lat": 38.919222166666664, "bike_id": "34de247f9b6666311f27b4d125898e3a", "name": "34de247f9b6666311f27b4d125898e3a", "is_reserved": 0, "fusion_lat": 0.0}, {"type": "electric_bike", "rental_uris": {"ios": "https://dc.lft.to/lastmile_qr_scan", "android": "https://dc.lft.to/lastmile_qr_scan"}, "lon": -76.9977305, "fusion_lon": 0.0, "is_disabled": 0, "lat": 38.837393666666664, "bike_id": "448bf116113a09273d16a24953bae5c7", "name": "448bf116113a09273d16a24953bae5c7", "is_reserved": 0, "fusion_lat": 0.0}, {"type": "electric_scooter", "rental_uris": {"ios": "https://dc.lft.to/lastmile_qr_scan", "android": "https://dc.lft.to/lastmile_qr_scan"}, "lon": -76.99007, "fusion_lon": 0.0, "is_disabled": 0, "lat": 38.86507266666667, "bike_id": "36253f339fe7400e761ffb2f3bd58543", "name": "36253f339fe7400e761ffb2f3bd58543", "is_reserved": 0, "fusion_lat": 0.0}, {"type": "electric_scooter", "rental_uris": {"ios": "https://dc.lft.to/lastmile_qr_scan", "android": "https://dc.lft.to/lastmile_qr_scan"}, "lon": -77.03663333333333, "fusion_lon": 0.0, "is_disabled": 0, "lat": 38.917304666666666, "bike_id": "9d98c0940a234dd6bd6fd925c4c138ba", "name": "9d98c0940a234dd6bd6fd925c4c138ba", "is_reserved": 0, "fusion_lat": 0.0}, {"type": "electric_scooter", "rental_uris": {"ios": "https://dc.lft.to/lastmile_qr_scan", "android": "https://dc.lft.to/lastmile_qr_scan"}, "lon": -77.02710833333333, "fusion_lon": 0.0, "is_disabled": 0, "lat": 38.90688166666666, "bike_id": "3c76d3c0c9b306cd663eac543abc5b5e", "name": "3c76d3c0c9b306cd663eac543abc5b5e", "is_reserved": 0, "fusion_lat": 0.0}, {"type": "electric_scooter", "rental_uris": {"ios": "https://dc.lft.to/lastmile_qr_scan", "android": "https://dc.lft.to/lastmile_qr_scan"}, "lon": -77.07260583333333, "fusion_lon": 0.0, "is_disabled": 0, "lat": 38.934860666666665, "bike_id": "a6a10147bc7607f2c4c0ca640130671f", "name": "a6a10147bc7607f2c4c0ca640130671f", "is_reserved": 0, "fusion_lat": 0.0}, {"type": "electric_bike", "rental_uris": {"ios": "https://dc.lft.to/lastmile_qr_scan", "android": "https://dc.lft.to/lastmile_qr_scan"}, "lon": -76.9913315, "fusion_lon": 0.0, "is_disabled": 0, "lat": 38.84637716666667, "bike_id": "644b4d1c61e2ed1cb5c723f29c1ec82c", "name": "644b4d1c61e2ed1cb5c723f29c1ec82c", "is_reserved": 0, "fusion_lat": 0.0}, {"type": "electric_scooter", "rental_uris": {"ios": "https://dc.lft.to/lastmile_qr_scan", "android": "https://dc.lft.to/lastmile_qr_scan"}, "lon": -77.043098, "fusion_lon": 0.0, "is_disabled": 0, "lat": 38.90120783333333, "bike_id": "1b58728c2dd9f4383fc246a399128cdd", "name": "1b58728c2dd9f4383fc246a399128cdd", "is_reserved": 0, "fusion_lat": 0.0}, {"type": "electric_scooter", "rental_uris": {"ios": "https://dc.lft.to/lastmile_qr_scan", "android": "https://dc.lft.to/lastmile_qr_scan"}, "lon": -77.02224116666666, "fusion_lon": 0.0, "is_disabled": 0, "lat": 38.89217883333333, "bike_id": "57201a859fdbdd0ffc4ecb97b83c97b5", "name": "57201a859fdbdd0ffc4ecb97b83c97b5", "is_reserved": 0, "fusion_lat": 0.0}, {"type": "electric_scooter", "rental_uris": {"ios": "https://dc.lft.to/lastmile_qr_scan", "android": "https://dc.lft.to/lastmile_qr_scan"}, "lon": -77.04172166666666, "fusion_lon": 0.0, "is_disabled": 0, "lat": 38.918064666666666, "bike_id": "d31209f2070769c29ea65735edecbc87", "name": "d31209f2070769c29ea65735edecbc87", "is_reserved": 0, "fusion_lat": 0.0}, {"type": "electric_scooter", "rental_uris": {"ios": "https://dc.lft.to/lastmile_qr_scan", "android": "https://dc.lft.to/lastmile_qr_scan"}, "lon": -77.03758183333333, "fusion_lon": 0.0, "is_disabled": 0, "lat": 38.929281, "bike_id": "186599613cfba13fa623d705102ee170", "name": "186599613cfba13fa623d705102ee170", "is_reserved": 0, "fusion_lat": 0.0}, {"type": "electric_scooter", "rental_uris": {"ios": "https://dc.lft.to/lastmile_qr_scan", "android": "https://dc.lft.to/lastmile_qr_scan"}, "lon": -76.99569633333333, "fusion_lon": 0.0, "is_disabled": 0, "lat": 38.892036833333336, "bike_id": "37e60e32b8a86eaa4ffc1683dbb87975", "name": "37e60e32b8a86eaa4ffc1683dbb87975", "is_reserved": 0, "fusion_lat": 0.0}, {"type": "electric_scooter", "rental_uris": {"ios": "https://dc.lft.to/lastmile_qr_scan", "android": "https://dc.lft.to/lastmile_qr_scan"}, "lon": -77.01970433333334, "fusion_lon": 0.0, "is_disabled": 0, "lat": 38.929981, "bike_id": "73bedbfc3f7fdcee49b088de691615a8", "name": "73bedbfc3f7fdcee49b088de691615a8", "is_reserved": 0, "fusion_lat": 0.0}, {"type": "electric_bike", "rental_uris": {"ios": "https://dc.lft.to/lastmile_qr_scan", "android": "https://dc.lft.to/lastmile_qr_scan"}, "lon": -77.056469, "fusion_lon": 0.0, "is_disabled": 0, "lat": 38.936814, "bike_id": "dc72d3f26440d89ce1669377cc5da157", "name": "dc72d3f26440d89ce1669377cc5da157", "is_reserved": 0, "fusion_lat": 0.0}, {"type": "electric_scooter", "rental_uris": {"ios": "https://dc.lft.to/lastmile_qr_scan", "android": "https://dc.lft.to/lastmile_qr_scan"}, "lon": -76.98176633333334, "fusion_lon": 0.0, "is_disabled": 0, "lat": 38.8567275, "bike_id": "0f52dce48003c67fec7a4265a278b912", "name": "0f52dce48003c67fec7a4265a278b912", "is_reserved": 0, "fusion_lat": 0.0}, {"type": "electric_scooter", "rental_uris": {"ios": "https://dc.lft.to/lastmile_qr_scan", "android": "https://dc.lft.to/lastmile_qr_scan"}, "lon": -77.03250266666667, "fusion_lon": 0.0, "is_disabled": 0, "lat": 38.917095, "bike_id": "b84e829ef602576872bc08f7f987c5b4", "name": "b84e829ef602576872bc08f7f987c5b4", "is_reserved": 0, "fusion_lat": 0.0}, {"type": "electric_scooter", "rental_uris": {"ios": "https://dc.lft.to/lastmile_qr_scan", "android": "https://dc.lft.to/lastmile_qr_scan"}, "lon": -76.99701483333334, "fusion_lon": 0.0, "is_disabled": 0, "lat": 38.908283833333336, "bike_id": "164d6db8fa30d0f24f879993520da540", "name": "164d6db8fa30d0f24f879993520da540", "is_reserved": 0, "fusion_lat": 0.0}, {"type": "electric_scooter", "rental_uris": {"ios": "https://dc.lft.to/lastmile_qr_scan", "android": "https://dc.lft.to/lastmile_qr_scan"}, "lon": -77.02192366666667, "fusion_lon": 0.0, "is_disabled": 0, "lat": 38.910837666666666, "bike_id": "50549e23edda1d766be6dca05be4fe6d", "name": "50549e23edda1d766be6dca05be4fe6d", "is_reserved": 0, "fusion_lat": 0.0}, {"type": "electric_scooter", "rental_uris": {"ios": "https://dc.lft.to/lastmile_qr_scan", "android": "https://dc.lft.to/lastmile_qr_scan"}, "lon": -77.03225816666667, "fusion_lon": 0.0, "is_disabled": 0, "lat": 38.92184833333334, "bike_id": "1cd12e5b3bbe0c0b9e1119248068b4f4", "name": "1cd12e5b3bbe0c0b9e1119248068b4f4", "is_reserved": 0, "fusion_lat": 0.0}, {"type": "electric_scooter", "rental_uris": {"ios": "https://dc.lft.to/lastmile_qr_scan", "android": "https://dc.lft.to/lastmile_qr_scan"}, "lon": -77.032322, "fusion_lon": 0.0, "is_disabled": 0, "lat": 38.929841, "bike_id": "d3969e472a69cd3e84e77c76b79c19fe", "name": "d3969e472a69cd3e84e77c76b79c19fe", "is_reserved": 0, "fusion_lat": 0.0}, {"type": "electric_scooter", "rental_uris": {"ios": "https://dc.lft.to/lastmile_qr_scan", "android": "https://dc.lft.to/lastmile_qr_scan"}, "lon": -77.044527, "fusion_lon": 0.0, "is_disabled": 0, "lat": 38.90565633333333, "bike_id": "4bbff77113668d6a478744c79566fd7c", "name": "4bbff77113668d6a478744c79566fd7c", "is_reserved": 0, "fusion_lat": 0.0}, {"type": "electric_scooter", "rental_uris": {"ios": "https://dc.lft.to/lastmile_qr_scan", "android": "https://dc.lft.to/lastmile_qr_scan"}, "lon": -77.00890233333334, "fusion_lon": 0.0, "is_disabled": 0, "lat": 38.912747333333336, "bike_id": "dc68ce2e8c64a54b1a860d181fbcd01c", "name": "dc68ce2e8c64a54b1a860d181fbcd01c", "is_reserved": 0, "fusion_lat": 0.0}, {"type": "electric_scooter", "rental_uris": {"ios": "https://dc.lft.to/lastmile_qr_scan", "android": "https://dc.lft.to/lastmile_qr_scan"}, "lon": -77.03892033333334, "fusion_lon": 0.0, "is_disabled": 0, "lat": 38.917029, "bike_id": "07ad8e7d11dfc112616912c74f6427aa", "name": "07ad8e7d11dfc112616912c74f6427aa", "is_reserved": 0, "fusion_lat": 0.0}, {"type": "electric_scooter", "rental_uris": {"ios": "https://dc.lft.to/lastmile_qr_scan", "android": "https://dc.lft.to/lastmile_qr_scan"}, "lon": -77.03451916666667, "fusion_lon": 0.0, "is_disabled": 0, "lat": 38.90989366666667, "bike_id": "471c888f75a3f8e6e04d48ef4ccf5470", "name": "471c888f75a3f8e6e04d48ef4ccf5470", "is_reserved": 0, "fusion_lat": 0.0}, {"type": "electric_bike", "rental_uris": {"ios": "https://dc.lft.to/lastmile_qr_scan", "android": "https://dc.lft.to/lastmile_qr_scan"}, "lon": -77.2083915, "fusion_lon": 0.0, "is_disabled": 0, "lat": 38.924693, "bike_id": "878210288940b2e9015f9f3d41fe9a94", "name": "878210288940b2e9015f9f3d41fe9a94", "is_reserved": 0, "fusion_lat": 0.0}, {"type": "electric_scooter", "rental_uris": {"ios": "https://dc.lft.to/lastmile_qr_scan", "android": "https://dc.lft.to/lastmile_qr_scan"}, "lon": -77.02321783333333, "fusion_lon": 0.0, "is_disabled": 0, "lat": 38.892204666666665, "bike_id": "70c5d27c409b5ab7d3c5b5dbbe6b38d8", "name": "70c5d27c409b5ab7d3c5b5dbbe6b38d8", "is_reserved": 0, "fusion_lat": 0.0}, {"type": "electric_scooter", "rental_uris": {"ios": "https://dc.lft.to/lastmile_qr_scan", "android": "https://dc.lft.to/lastmile_qr_scan"}, "lon": -77.0384055, "fusion_lon": 0.0, "is_disabled": 0, "lat": 38.9148025, "bike_id": "0f813330ceb5d72dc0509e57274447a8", "name": "0f813330ceb5d72dc0509e57274447a8", "is_reserved": 0, "fusion_lat": 0.0}, {"type": "electric_scooter", "rental_uris": {"ios": "https://dc.lft.to/lastmile_qr_scan", "android": "https://dc.lft.to/lastmile_qr_scan"}, "lon": -77.02131116666666, "fusion_lon": 0.0, "is_disabled": 0, "lat": 38.887403666666664, "bike_id": "c0cd9ad5863776116ce7ac465d674eb2", "name": "c0cd9ad5863776116ce7ac465d674eb2", "is_reserved": 0, "fusion_lat": 0.0}, {"type": "electric_bike", "rental_uris": {"ios": "https://dc.lft.to/lastmile_qr_scan", "android": "https://dc.lft.to/lastmile_qr_scan"}, "lon": -77.1130945, "fusion_lon": 0.0, "is_disabled": 0, "lat": 38.831671, "bike_id": "f2b1828f2b06aa86d367e694ba004564", "name": "f2b1828f2b06aa86d367e694ba004564", "is_reserved": 0, "fusion_lat": 0.0}, {"type": "electric_bike", "rental_uris": {"ios": "https://dc.lft.to/lastmile_qr_scan", "android": "https://dc.lft.to/lastmile_qr_scan"}, "lon": -77.058342, "fusion_lon": 0.0, "is_disabled": 0, "lat": 38.84252733333334, "bike_id": "af6ef97172a844f8b176acdcde1f5f31", "name": "af6ef97172a844f8b176acdcde1f5f31", "is_reserved": 0, "fusion_lat": 0.0}, {"type": "electric_scooter", "rental_uris": {"ios": "https://dc.lft.to/lastmile_qr_scan", "android": "https://dc.lft.to/lastmile_qr_scan"}, "lon": -77.04883916666667, "fusion_lon": 0.0, "is_disabled": 0, "lat": 38.889880166666664, "bike_id": "47988a8b10065f28b0927a0cf915ec72", "name": "47988a8b10065f28b0927a0cf915ec72", "is_reserved": 0, "fusion_lat": 0.0}, {"type": "electric_scooter", "rental_uris": {"ios": "https://dc.lft.to/lastmile_qr_scan", "android": "https://dc.lft.to/lastmile_qr_scan"}, "lon": -76.995049, "fusion_lon": 0.0, "is_disabled": 0, "lat": 38.88252333333333, "bike_id": "6d396c8994e472778ba4dca0c298bc2f", "name": "6d396c8994e472778ba4dca0c298bc2f", "is_reserved": 0, "fusion_lat": 0.0}, {"type": "electric_scooter", "rental_uris": {"ios": "https://dc.lft.to/lastmile_qr_scan", "android": "https://dc.lft.to/lastmile_qr_scan"}, "lon": -77.00959516666667, "fusion_lon": 0.0, "is_disabled": 0, "lat": 38.907867, "bike_id": "19d1d8b491e57d5f20467527a501ccf2", "name": "19d1d8b491e57d5f20467527a501ccf2", "is_reserved": 0, "fusion_lat": 0.0}, {"type": "electric_scooter", "rental_uris": {"ios": "https://dc.lft.to/lastmile_qr_scan", "android": "https://dc.lft.to/lastmile_qr_scan"}, "lon": -77.03344816666667, "fusion_lon": 0.0, "is_disabled": 0, "lat": 38.91711016666667, "bike_id": "003a67b85e450cb6517a9438d2d19d37", "name": "003a67b85e450cb6517a9438d2d19d37", "is_reserved": 0, "fusion_lat": 0.0}, {"type": "electric_scooter", "rental_uris": {"ios": "https://dc.lft.to/lastmile_qr_scan", "android": "https://dc.lft.to/lastmile_qr_scan"}, "lon": -77.03969816666667, "fusion_lon": 0.0, "is_disabled": 0, "lat": 38.90230433333333, "bike_id": "e6086d71a22cd7d3437bd2d9489db5da", "name": "e6086d71a22cd7d3437bd2d9489db5da", "is_reserved": 0, "fusion_lat": 0.0}, {"type": "electric_scooter", "rental_uris": {"ios": "https://dc.lft.to/lastmile_qr_scan", "android": "https://dc.lft.to/lastmile_qr_scan"}, "lon": -77.018579, "fusion_lon": 0.0, "is_disabled": 0, "lat": 38.914935, "bike_id": "e5aaa167a0a76e2738beb968e21217d2", "name": "e5aaa167a0a76e2738beb968e21217d2", "is_reserved": 0, "fusion_lat": 0.0}, {"type": "electric_scooter", "rental_uris": {"ios": "https://dc.lft.to/lastmile_qr_scan", "android": "https://dc.lft.to/lastmile_qr_scan"}, "lon": -77.04775216666667, "fusion_lon": 0.0, "is_disabled": 0, "lat": 38.9084855, "bike_id": "4bed10866611435cb9c40be346dd037c", "name": "4bed10866611435cb9c40be346dd037c", "is_reserved": 0, "fusion_lat": 0.0}, {"type": "electric_scooter", "rental_uris": {"ios": "https://dc.lft.to/lastmile_qr_scan", "android": "https://dc.lft.to/lastmile_qr_scan"}, "lon": -77.03288233333333, "fusion_lon": 0.0, "is_disabled": 0, "lat": 38.92747266666667, "bike_id": "488eb2d5b75293ffa0399f0a1a9c3e17", "name": "488eb2d5b75293ffa0399f0a1a9c3e17", "is_reserved": 0, "fusion_lat": 0.0}, {"type": "electric_scooter", "rental_uris": {"ios": "https://dc.lft.to/lastmile_qr_scan", "android": "https://dc.lft.to/lastmile_qr_scan"}, "lon": -76.97727866666666, "fusion_lon": 0.0, "is_disabled": 0, "lat": 38.87241916666667, "bike_id": "38c9513711f97b4a8769cc95da77b248", "name": "38c9513711f97b4a8769cc95da77b248", "is_reserved": 0, "fusion_lat": 0.0}, {"type": "electric_scooter", "rental_uris": {"ios": "https://dc.lft.to/lastmile_qr_scan", "android": "https://dc.lft.to/lastmile_qr_scan"}, "lon": -77.02718216666666, "fusion_lon": 0.0, "is_disabled": 0, "lat": 38.92478333333333, "bike_id": "8b61377615f945dd1d8d09c4cc5eb21d", "name": "8b61377615f945dd1d8d09c4cc5eb21d", "is_reserved": 0, "fusion_lat": 0.0}, {"type": "electric_scooter", "rental_uris": {"ios": "https://dc.lft.to/lastmile_qr_scan", "android": "https://dc.lft.to/lastmile_qr_scan"}, "lon": -76.96865616666666, "fusion_lon": 0.0, "is_disabled": 0, "lat": 38.8708225, "bike_id": "7164ce9f0edf143af8cddb5dbdf72a58", "name": "7164ce9f0edf143af8cddb5dbdf72a58", "is_reserved": 0, "fusion_lat": 0.0}, {"type": "electric_scooter", "rental_uris": {"ios": "https://dc.lft.to/lastmile_qr_scan", "android": "https://dc.lft.to/lastmile_qr_scan"}, "lon": -77.02527666666667, "fusion_lon": 0.0, "is_disabled": 0, "lat": 38.92080266666667, "bike_id": "08a12ae05328609ca0074cbf71a6d113", "name": "08a12ae05328609ca0074cbf71a6d113", "is_reserved": 0, "fusion_lat": 0.0}, {"type": "electric_scooter", "rental_uris": {"ios": "https://dc.lft.to/lastmile_qr_scan", "android": "https://dc.lft.to/lastmile_qr_scan"}, "lon": -77.01542266666667, "fusion_lon": 0.0, "is_disabled": 0, "lat": 38.89163833333333, "bike_id": "97306393edaabfef8ed6685212d26891", "name": "97306393edaabfef8ed6685212d26891", "is_reserved": 0, "fusion_lat": 0.0}, {"type": "electric_scooter", "rental_uris": {"ios": "https://dc.lft.to/lastmile_qr_scan", "android": "https://dc.lft.to/lastmile_qr_scan"}, "lon": -77.021952, "fusion_lon": 0.0, "is_disabled": 0, "lat": 38.932914833333335, "bike_id": "8c73bb5f6679cdc6e419f35de21b7fc4", "name": "8c73bb5f6679cdc6e419f35de21b7fc4", "is_reserved": 0, "fusion_lat": 0.0}, {"type": "electric_scooter", "rental_uris": {"ios": "https://dc.lft.to/lastmile_qr_scan", "android": "https://dc.lft.to/lastmile_qr_scan"}, "lon": -77.072366, "fusion_lon": 0.0, "is_disabled": 0, "lat": 38.898857, "bike_id": "e01976c3e1de3c080ad3a394ed128bde", "name": "e01976c3e1de3c080ad3a394ed128bde", "is_reserved": 0, "fusion_lat": 0.0}, {"type": "electric_scooter", "rental_uris": {"ios": "https://dc.lft.to/lastmile_qr_scan", "android": "https://dc.lft.to/lastmile_qr_scan"}, "lon": -77.045541, "fusion_lon": 0.0, "is_disabled": 0, "lat": 38.91259516666667, "bike_id": "2d89884741be2ff539e501eacb93cecb", "name": "2d89884741be2ff539e501eacb93cecb", "is_reserved": 0, "fusion_lat": 0.0}, {"type": "electric_scooter", "rental_uris": {"ios": "https://dc.lft.to/lastmile_qr_scan", "android": "https://dc.lft.to/lastmile_qr_scan"}, "lon": -77.02536433333333, "fusion_lon": 0.0, "is_disabled": 0, "lat": 38.92368783333333, "bike_id": "c3f090bc42c71a58c7deb8aaed495f0e", "name": "c3f090bc42c71a58c7deb8aaed495f0e", "is_reserved": 0, "fusion_lat": 0.0}, {"type": "electric_scooter", "rental_uris": {"ios": "https://dc.lft.to/lastmile_qr_scan", "android": "https://dc.lft.to/lastmile_qr_scan"}, "lon": -77.03438116666666, "fusion_lon": 0.0, "is_disabled": 0, "lat": 38.908061833333335, "bike_id": "0d43a164ee268d54de8b4d96c7fb0a20", "name": "0d43a164ee268d54de8b4d96c7fb0a20", "is_reserved": 0, "fusion_lat": 0.0}, {"type": "electric_scooter", "rental_uris": {"ios": "https://dc.lft.to/lastmile_qr_scan", "android": "https://dc.lft.to/lastmile_qr_scan"}, "lon": -77.02331733333334, "fusion_lon": 0.0, "is_disabled": 0, "lat": 38.922953166666666, "bike_id": "804f59a04d7636abf023a726a3a912d0", "name": "804f59a04d7636abf023a726a3a912d0", "is_reserved": 0, "fusion_lat": 0.0}, {"type": "electric_scooter", "rental_uris": {"ios": "https://dc.lft.to/lastmile_qr_scan", "android": "https://dc.lft.to/lastmile_qr_scan"}, "lon": -77.02695, "fusion_lon": 0.0, "is_disabled": 0, "lat": 38.911246, "bike_id": "7a318e9a6670cb2c955821af2c0ca69d", "name": "7a318e9a6670cb2c955821af2c0ca69d", "is_reserved": 0, "fusion_lat": 0.0}, {"type": "electric_scooter", "rental_uris": {"ios": "https://dc.lft.to/lastmile_qr_scan", "android": "https://dc.lft.to/lastmile_qr_scan"}, "lon": -76.96011883333334, "fusion_lon": 0.0, "is_disabled": 0, "lat": 38.8801425, "bike_id": "c7ef30f8503542a3d4600577d7649bd4", "name": "c7ef30f8503542a3d4600577d7649bd4", "is_reserved": 0, "fusion_lat": 0.0}, {"type": "electric_scooter", "rental_uris": {"ios": "https://dc.lft.to/lastmile_qr_scan", "android": "https://dc.lft.to/lastmile_qr_scan"}, "lon": -77.05131466666667, "fusion_lon": 0.0, "is_disabled": 0, "lat": 38.92361666666667, "bike_id": "52ae1d8b9dc662c7fd58ccf8501866be", "name": "52ae1d8b9dc662c7fd58ccf8501866be", "is_reserved": 0, "fusion_lat": 0.0}, {"type": "electric_scooter", "rental_uris": {"ios": "https://dc.lft.to/lastmile_qr_scan", "android": "https://dc.lft.to/lastmile_qr_scan"}, "lon": -77.03091083333334, "fusion_lon": 0.0, "is_disabled": 0, "lat": 38.938588, "bike_id": "69207e2b0d33b3ec787f8dca89506b2a", "name": "69207e2b0d33b3ec787f8dca89506b2a", "is_reserved": 0, "fusion_lat": 0.0}, {"type": "electric_scooter", "rental_uris": {"ios": "https://dc.lft.to/lastmile_qr_scan", "android": "https://dc.lft.to/lastmile_qr_scan"}, "lon": -76.988906, "fusion_lon": 0.0, "is_disabled": 0, "lat": 38.866462166666665, "bike_id": "c1580c6f42840d687e98d534622e4c45", "name": "c1580c6f42840d687e98d534622e4c45", "is_reserved": 0, "fusion_lat": 0.0}, {"type": "electric_scooter", "rental_uris": {"ios": "https://dc.lft.to/lastmile_qr_scan", "android": "https://dc.lft.to/lastmile_qr_scan"}, "lon": -77.02797983333333, "fusion_lon": 0.0, "is_disabled": 0, "lat": 38.89566933333333, "bike_id": "2ab3dbeb7ea061aefa7e0df9c7d2389a", "name": "2ab3dbeb7ea061aefa7e0df9c7d2389a", "is_reserved": 0, "fusion_lat": 0.0}, {"type": "electric_scooter", "rental_uris": {"ios": "https://dc.lft.to/lastmile_qr_scan", "android": "https://dc.lft.to/lastmile_qr_scan"}, "lon": -77.04237, "fusion_lon": 0.0, "is_disabled": 0, "lat": 38.92191366666667, "bike_id": "a6ad6cb4ded775af55cc15ac6212b5af", "name": "a6ad6cb4ded775af55cc15ac6212b5af", "is_reserved": 0, "fusion_lat": 0.0}, {"type": "electric_scooter", "rental_uris": {"ios": "https://dc.lft.to/lastmile_qr_scan", "android": "https://dc.lft.to/lastmile_qr_scan"}, "lon": -77.05268616666666, "fusion_lon": 0.0, "is_disabled": 0, "lat": 38.9254445, "bike_id": "4976cda61bfed91c556e34a1ff0539a0", "name": "4976cda61bfed91c556e34a1ff0539a0", "is_reserved": 0, "fusion_lat": 0.0}, {"type": "electric_scooter", "rental_uris": {"ios": "https://dc.lft.to/lastmile_qr_scan", "android": "https://dc.lft.to/lastmile_qr_scan"}, "lon": -77.07981866666667, "fusion_lon": 0.0, "is_disabled": 0, "lat": 38.91948383333333, "bike_id": "8b54c47ca5c94ce9a067986147868e00", "name": "8b54c47ca5c94ce9a067986147868e00", "is_reserved": 0, "fusion_lat": 0.0}, {"type": "electric_scooter", "rental_uris": {"ios": "https://dc.lft.to/lastmile_qr_scan", "android": "https://dc.lft.to/lastmile_qr_scan"},