{"data": {"bikes": [{"rental_uris": {"ios": "https://dc.lft.to/lastmile_qr_scan", "android": "https://dc.lft.to/lastmile_qr_scan"}, "type": "electric_scooter", "name": "f5c6b569635a76a9072cbd71ba845eaf", "is_reserved": 0, "lon": -77.0188105, "is_disabled": 0, "fusion_lat": 0.0, "lat": 38.902354833333334, "bike_id": "f5c6b569635a76a9072cbd71ba845eaf", "fusion_lon": 0.0}, {"rental_uris": {"ios": "https://dc.lft.to/lastmile_qr_scan", "android": "https://dc.lft.to/lastmile_qr_scan"}, "type": "electric_scooter", "name": "e0cfd6585b9ffe1cf0b9b86d9830a44c", "is_reserved": 0, "lon": -77.06673966666666, "is_disabled": 0, "fusion_lat": 0.0, "lat": 38.90379733333333, "bike_id": "e0cfd6585b9ffe1cf0b9b86d9830a44c", "fusion_lon": 0.0}, {"rental_uris": {"ios": "https://dc.lft.to/lastmile_qr_scan", "android": "https://dc.lft.to/lastmile_qr_scan"}, "type": "electric_scooter", "name": "656bb477bb75d37ef42de25bb89ec5a9", "is_reserved": 0, "lon": -77.04746216666666, "is_disabled": 0, "fusion_lat": 0.0, "lat": 38.917676666666665, "bike_id": "656bb477bb75d37ef42de25bb89ec5a9", "fusion_lon": 0.0}, {"rental_uris": {"ios": "https://dc.lft.to/lastmile_qr_scan", "android": "https://dc.lft.to/lastmile_qr_scan"}, "type": "electric_scooter", "name": "16b1369430c949a8d1b5696f771b4e75", "is_reserved": 0, "lon": -77.0143355, "is_disabled": 0, "fusion_lat": 0.0, "lat": 38.913127, "bike_id": "16b1369430c949a8d1b5696f771b4e75", "fusion_lon": 0.0}, {"rental_uris": {"ios": "https://dc.lft.to/lastmile_qr_scan", "android": "https://dc.lft.to/lastmile_qr_scan"}, "type": "electric_scooter", "name": "413d3770fb3d20f1973bbc04b1d69f8d", "is_reserved": 0, "lon": -77.000474, "is_disabled": 0, "fusion_lat": 0.0, "lat": 38.87923216666667, "bike_id": "413d3770fb3d20f1973bbc04b1d69f8d", "fusion_lon": 0.0}, {"rental_uris": {"ios": "https://dc.lft.to/lastmile_qr_scan", "android": "https://dc.lft.to/lastmile_qr_scan"}, "type": "electric_scooter", "name": "52f8121e61626b502240821bc1d34231", "is_reserved": 0, "lon": -77.026352, "is_disabled": 0, "fusion_lat": 0.0, "lat": 38.924774666666664, "bike_id": "52f8121e61626b502240821bc1d34231", "fusion_lon": 0.0}, {"rental_uris": {"ios": "https://dc.lft.to/lastmile_qr_scan", "android": "https://dc.lft.to/lastmile_qr_scan"}, "type": "electric_scooter", "name": "2f0e44c98c96b7d65f13018d791d90b3", "is_reserved": 0, "lon": -77.027062, "is_disabled": 0, "fusion_lat": 0.0, "lat": 38.9176435, "bike_id": "2f0e44c98c96b7d65f13018d791d90b3", "fusion_lon": 0.0}, {"rental_uris": {"ios": "https://dc.lft.to/lastmile_qr_scan", "android": "https://dc.lft.to/lastmile_qr_scan"}, "type": "electric_bike", "name": "d5470e62988a4783f3d704226ea5d15e", "is_reserved": 0, "lon": -76.91805066666667, "is_disabled": 0, "fusion_lat": 0.0, "lat": 38.999995, "bike_id": "d5470e62988a4783f3d704226ea5d15e", "fusion_lon": 0.0}, {"rental_uris": {"ios": "https://dc.lft.to/lastmile_qr_scan", "android": "https://dc.lft.to/lastmile_qr_scan"}, "type": "electric_scooter", "name": "75b11110f7b7e2756a75af3cce6f4a6f", "is_reserved": 0, "lon": -77.04365333333334, "is_disabled": 0, "fusion_lat": 0.0, "lat": 38.922411333333336, "bike_id": "75b11110f7b7e2756a75af3cce6f4a6f", "fusion_lon": 0.0}, {"rental_uris": {"ios": "https://dc.lft.to/lastmile_qr_scan", "android": "https://dc.lft.to/lastmile_qr_scan"}, "type": "electric_scooter", "name": "fdf5befe8fb0957fed75efb0b4495315", "is_reserved": 0, "lon": -77.041725, "is_disabled": 0, "fusion_lat": 0.0, "lat": 38.9119675, "bike_id": "fdf5befe8fb0957fed75efb0b4495315", "fusion_lon": 0.0}, {"rental_uris": {"ios": "https://dc.lft.to/lastmile_qr_scan", "android": "https://dc.lft.to/lastmile_qr_scan"}, "type": "electric_scooter", "name": "3c2ff39964cb947475776f31cb2e5bad", "is_reserved": 0, "lon": -77.03848316666667, "is_disabled": 0, "fusion_lat": 0.0, "lat": 38.926435166666664, "bike_id": "3c2ff39964cb947475776f31cb2e5bad", "fusion_lon": 0.0}, {"rental_uris": {"ios": "https://dc.lft.to/lastmile_qr_scan", "android": "https://dc.lft.to/lastmile_qr_scan"}, "type": "electric_scooter", "name": "5de1cfb0f9d89e336bd1f27a3a532c35", "is_reserved": 0, "lon": -77.01799866666667, "is_disabled": 0, "fusion_lat": 0.0, "lat": 38.886315, "bike_id": "5de1cfb0f9d89e336bd1f27a3a532c35", "fusion_lon": 0.0}, {"rental_uris": {"ios": "https://dc.lft.to/lastmile_qr_scan", "android": "https://dc.lft.to/lastmile_qr_scan"}, "type": "electric_scooter", "name": "13f16d73bf3caa8482620d7d20d70416", "is_reserved": 0, "lon": -77.0062635, "is_disabled": 0, "fusion_lat": 0.0, "lat": 38.87174533333334, "bike_id": "13f16d73bf3caa8482620d7d20d70416", "fusion_lon": 0.0}, {"rental_uris": {"ios": "https://dc.lft.to/lastmile_qr_scan", "android": "https://dc.lft.to/lastmile_qr_scan"}, "type": "electric_bike", "name": "ae4e1a3a583b28740b52afd7edf9e584", "is_reserved": 0, "lon": -77.1323275, "is_disabled": 0, "fusion_lat": 0.0, "lat": 38.804505666666664, "bike_id": "ae4e1a3a583b28740b52afd7edf9e584", "fusion_lon": 0.0}, {"rental_uris": {"ios": "https://dc.lft.to/lastmile_qr_scan", "android": "https://dc.lft.to/lastmile_qr_scan"}, "type": "electric_bike", "name": "cff69ba0fce3e2e5f74910c99de87e78", "is_reserved": 0, "lon": -76.98341916666666, "is_disabled": 0, "fusion_lat": 0.0, "lat": 38.8625705, "bike_id": "cff69ba0fce3e2e5f74910c99de87e78", "fusion_lon": 0.0}, {"rental_uris": {"ios": "https://dc.lft.to/lastmile_qr_scan", "android": "https://dc.lft.to/lastmile_qr_scan"}, "type": "electric_scooter", "name": "68f8484805aec5e45778e905594175e9", "is_reserved": 0, "lon": -77.026922, "is_disabled": 0, "fusion_lat": 0.0, "lat": 38.9084185, "bike_id": "68f8484805aec5e45778e905594175e9", "fusion_lon": 0.0}, {"rental_uris": {"ios": "https://dc.lft.to/lastmile_qr_scan", "android": "https://dc.lft.to/lastmile_qr_scan"}, "type": "electric_scooter", "name": "6e441400778b0705f0cc68151bbec19d", "is_reserved": 0, "lon": -77.040558, "is_disabled": 0, "fusion_lat": 0.0, "lat": 38.930083833333335, "bike_id": "6e441400778b0705f0cc68151bbec19d", "fusion_lon": 0.0}, {"rental_uris": {"ios": "https://dc.lft.to/lastmile_qr_scan", "android": "https://dc.lft.to/lastmile_qr_scan"}, "type": "electric_scooter", "name": "b38d74b2f1df025528aaaa576787cc19", "is_reserved": 0, "lon": -77.054248, "is_disabled": 0, "fusion_lat": 0.0, "lat": 38.9285405, "bike_id": "b38d74b2f1df025528aaaa576787cc19", "fusion_lon": 0.0}, {"rental_uris": {"ios": "https://dc.lft.to/lastmile_qr_scan", "android": "https://dc.lft.to/lastmile_qr_scan"}, "type": "electric_scooter", "name": "16458d6a770c043af195845d88eb0f88", "is_reserved": 0, "lon": -77.07164466666667, "is_disabled": 0, "fusion_lat": 0.0, "lat": 38.907751166666664, "bike_id": "16458d6a770c043af195845d88eb0f88", "fusion_lon": 0.0}, {"rental_uris": {"ios": "https://dc.lft.to/lastmile_qr_scan", "android": "https://dc.lft.to/lastmile_qr_scan"}, "type": "electric_scooter", "name": "6fb5c8bcb7571184915c9f3e2003a86d", "is_reserved": 0, "lon": -77.04345666666667, "is_disabled": 0, "fusion_lat": 0.0, "lat": 38.90837416666667, "bike_id": "6fb5c8bcb7571184915c9f3e2003a86d", "fusion_lon": 0.0}, {"rental_uris": {"ios": "https://dc.lft.to/lastmile_qr_scan", "android": "https://dc.lft.to/lastmile_qr_scan"}, "type": "electric_scooter", "name": "9cde48fa32c5d4f07d291bb378d7adc5", "is_reserved": 0, "lon": -77.02661, "is_disabled": 0, "fusion_lat": 0.0, "lat": 38.9248405, "bike_id": "9cde48fa32c5d4f07d291bb378d7adc5", "fusion_lon": 0.0}, {"rental_uris": {"ios": "https://dc.lft.to/lastmile_qr_scan", "android": "https://dc.lft.to/lastmile_qr_scan"}, "type": "electric_scooter", "name": "200e55c8d7c69a47b76b55f6538e5935", "is_reserved": 0, "lon": -77.01780566666666, "is_disabled": 0, "fusion_lat": 0.0, "lat": 38.92062216666667, "bike_id": "200e55c8d7c69a47b76b55f6538e5935", "fusion_lon": 0.0}, {"rental_uris": {"ios": "https://dc.lft.to/lastmile_qr_scan", "android": "https://dc.lft.to/lastmile_qr_scan"}, "type": "electric_scooter", "name": "6cebefe655c0d80d6b6d949030ad2f65", "is_reserved": 0, "lon": -77.02697283333333, "is_disabled": 0, "fusion_lat": 0.0, "lat": 38.9259585, "bike_id": "6cebefe655c0d80d6b6d949030ad2f65", "fusion_lon": 0.0}, {"rental_uris": {"ios": "https://dc.lft.to/lastmile_qr_scan", "android": "https://dc.lft.to/lastmile_qr_scan"}, "type": "electric_scooter", "name": "95b68841cc211e92d4e766feabdaa49d", "is_reserved": 0, "lon": -77.026792, "is_disabled": 0, "fusion_lat": 0.0, "lat": 38.924782666666665, "bike_id": "95b68841cc211e92d4e766feabdaa49d", "fusion_lon": 0.0}, {"rental_uris": {"ios": "https://dc.lft.to/lastmile_qr_scan", "android": "https://dc.lft.to/lastmile_qr_scan"}, "type": "electric_scooter", "name": "af8d18d65c4232afe0b1ee777761e47a", "is_reserved": 0, "lon": -77.04138816666666, "is_disabled": 0, "fusion_lat": 0.0, "lat": 38.905634, "bike_id": "af8d18d65c4232afe0b1ee777761e47a", "fusion_lon": 0.0}, {"rental_uris": {"ios": "https://dc.lft.to/lastmile_qr_scan", "android": "https://dc.lft.to/lastmile_qr_scan"}, "type": "electric_scooter", "name": "f161c56a4f105bbcd9ef74e7c1dee279", "is_reserved": 0, "lon": -77.0489585, "is_disabled": 0, "fusion_lat": 0.0, "lat": 38.91940183333333, "bike_id": "f161c56a4f105bbcd9ef74e7c1dee279", "fusion_lon": 0.0}, {"rental_uris": {"ios": "https://dc.lft.to/lastmile_qr_scan", "android": "https://dc.lft.to/lastmile_qr_scan"}, "type": "electric_scooter", "name": "aa9b3381a92f4208a0243869422b026b", "is_reserved": 0, "lon": -77.02978983333334, "is_disabled": 0, "fusion_lat": 0.0, "lat": 38.92198116666667, "bike_id": "aa9b3381a92f4208a0243869422b026b", "fusion_lon": 0.0}, {"rental_uris": {"ios": "https://dc.lft.to/lastmile_qr_scan", "android": "https://dc.lft.to/lastmile_qr_scan"}, "type": "electric_scooter", "name": "b209127b7b50cb909c7527a6955ee1a0", "is_reserved": 0, "lon": -77.03231983333333, "is_disabled": 0, "fusion_lat": 0.0, "lat": 38.92886683333333, "bike_id": "b209127b7b50cb909c7527a6955ee1a0", "fusion_lon": 0.0}, {"rental_uris": {"ios": "https://dc.lft.to/lastmile_qr_scan", "android": "https://dc.lft.to/lastmile_qr_scan"}, "type": "electric_scooter", "name": "90fce47d248b3be06727fc2ae71b389d", "is_reserved": 0, "lon": -76.98534833333333, "is_disabled": 0, "fusion_lat": 0.0, "lat": 38.85854583333333, "bike_id": "90fce47d248b3be06727fc2ae71b389d", "fusion_lon": 0.0}, {"rental_uris": {"ios": "https://dc.lft.to/lastmile_qr_scan", "android": "https://dc.lft.to/lastmile_qr_scan"}, "type": "electric_scooter", "name": "de457b50706e7886dc5f7aee638c66c1", "is_reserved": 0, "lon": -77.0230095, "is_disabled": 0, "fusion_lat": 0.0, "lat": 38.898598, "bike_id": "de457b50706e7886dc5f7aee638c66c1", "fusion_lon": 0.0}, {"rental_uris": {"ios": "https://dc.lft.to/lastmile_qr_scan", "android": "https://dc.lft.to/lastmile_qr_scan"}, "type": "electric_scooter", "name": "02db0dbccfbc07de89a46e02b6654e96", "is_reserved": 0, "lon": -77.031504, "is_disabled": 0, "fusion_lat": 0.0, "lat": 38.9058905, "bike_id": "02db0dbccfbc07de89a46e02b6654e96", "fusion_lon": 0.0}, {"rental_uris": {"ios": "https://dc.lft.to/lastmile_qr_scan", "android": "https://dc.lft.to/lastmile_qr_scan"}, "type": "electric_scooter", "name": "9736fe517e995def2504c66286dd7c6e", "is_reserved": 0, "lon": -77.045146, "is_disabled": 0, "fusion_lat": 0.0, "lat": 38.911201, "bike_id": "9736fe517e995def2504c66286dd7c6e", "fusion_lon": 0.0}, {"rental_uris": {"ios": "https://dc.lft.to/lastmile_qr_scan", "android": "https://dc.lft.to/lastmile_qr_scan"}, "type": "electric_scooter", "name": "9148816b35d7b73f03decddf73f66352", "is_reserved": 0, "lon": -77.0031085, "is_disabled": 0, "fusion_lat": 0.0, "lat": 38.876802, "bike_id": "9148816b35d7b73f03decddf73f66352", "fusion_lon": 0.0}, {"rental_uris": {"ios": "https://dc.lft.to/lastmile_qr_scan", "android": "https://dc.lft.to/lastmile_qr_scan"}, "type": "electric_scooter", "name": "f0d11588d75c712223f4ace52c97cd58", "is_reserved": 0, "lon": -77.03451016666666, "is_disabled": 0, "fusion_lat": 0.0, "lat": 38.907311, "bike_id": "f0d11588d75c712223f4ace52c97cd58", "fusion_lon": 0.0}, {"rental_uris": {"ios": "https://dc.lft.to/lastmile_qr_scan", "android": "https://dc.lft.to/lastmile_qr_scan"}, "type": "electric_scooter", "name": "71a489cda362e016a9aa20e0d1206372", "is_reserved": 0, "lon": -77.00276683333334, "is_disabled": 0, "fusion_lat": 0.0, "lat": 38.887661666666666, "bike_id": "71a489cda362e016a9aa20e0d1206372", "fusion_lon": 0.0}, {"rental_uris": {"ios": "https://dc.lft.to/lastmile_qr_scan", "android": "https://dc.lft.to/lastmile_qr_scan"}, "type": "electric_scooter", "name": "6883d01b87e20485b250692030d1b649", "is_reserved": 0, "lon": -77.03184933333333, "is_disabled": 0, "fusion_lat": 0.0, "lat": 38.929115833333334, "bike_id": "6883d01b87e20485b250692030d1b649", "fusion_lon": 0.0}, {"rental_uris": {"ios": "https://dc.lft.to/lastmile_qr_scan", "android": "https://dc.lft.to/lastmile_qr_scan"}, "type": "electric_scooter", "name": "ee5c661e58045e6a630657eb3b4ecd28", "is_reserved": 0, "lon": -77.0021615, "is_disabled": 0, "fusion_lat": 0.0, "lat": 38.894469666666666, "bike_id": "ee5c661e58045e6a630657eb3b4ecd28", "fusion_lon": 0.0}, {"rental_uris": {"ios": "https://dc.lft.to/lastmile_qr_scan", "android": "https://dc.lft.to/lastmile_qr_scan"}, "type": "electric_bike", "name": "f2bcd27c54b1b5e17d329f2616011902", "is_reserved": 0, "lon": -77.10077816666667, "is_disabled": 0, "fusion_lat": 0.0, "lat": 38.85738533333333, "bike_id": "f2bcd27c54b1b5e17d329f2616011902", "fusion_lon": 0.0}, {"rental_uris": {"ios": "https://dc.lft.to/lastmile_qr_scan", "android": "https://dc.lft.to/lastmile_qr_scan"}, "type": "electric_bike", "name": "d401e474d042c042d4d9b53e1e0f23cb", "is_reserved": 0, "lon": -76.9731685, "is_disabled": 0, "fusion_lat": 0.0, "lat": 38.86508583333333, "bike_id": "d401e474d042c042d4d9b53e1e0f23cb", "fusion_lon": 0.0}, {"rental_uris": {"ios": "https://dc.lft.to/lastmile_qr_scan", "android": "https://dc.lft.to/lastmile_qr_scan"}, "type": "electric_scooter", "name": "08fe3ad943e06ee417dc706d59526da8", "is_reserved": 0, "lon": -77.03379433333333, "is_disabled": 0, "fusion_lat": 0.0, "lat": 38.938640666666664, "bike_id": "08fe3ad943e06ee417dc706d59526da8", "fusion_lon": 0.0}, {"rental_uris": {"ios": "https://dc.lft.to/lastmile_qr_scan", "android": "https://dc.lft.to/lastmile_qr_scan"}, "type": "electric_scooter", "name": "9bcd26219ea77ab5434801a1b8cb8ac4", "is_reserved": 0, "lon": -77.04457616666667, "is_disabled": 0, "fusion_lat": 0.0, "lat": 38.916006333333335, "bike_id": "9bcd26219ea77ab5434801a1b8cb8ac4", "fusion_lon": 0.0}, {"rental_uris": {"ios": "https://dc.lft.to/lastmile_qr_scan", "android": "https://dc.lft.to/lastmile_qr_scan"}, "type": "electric_scooter", "name": "033d6ca63f6925061d39f3a4bb4bb454", "is_reserved": 0, "lon": -77.00066333333334, "is_disabled": 0, "fusion_lat": 0.0, "lat": 38.876918333333336, "bike_id": "033d6ca63f6925061d39f3a4bb4bb454", "fusion_lon": 0.0}, {"rental_uris": {"ios": "https://dc.lft.to/lastmile_qr_scan", "android": "https://dc.lft.to/lastmile_qr_scan"}, "type": "electric_scooter", "name": "0d125c52b03b4aa50cd51943b5d996a4", "is_reserved": 0, "lon": -77.03451833333334, "is_disabled": 0, "fusion_lat": 0.0, "lat": 38.907309166666664, "bike_id": "0d125c52b03b4aa50cd51943b5d996a4", "fusion_lon": 0.0}, {"rental_uris": {"ios": "https://dc.lft.to/lastmile_qr_scan", "android": "https://dc.lft.to/lastmile_qr_scan"}, "type": "electric_scooter", "name": "ced81cc19ffc169886d7e172f0f32e6b", "is_reserved": 0, "lon": -77.05722666666666, "is_disabled": 0, "fusion_lat": 0.0, "lat": 38.933604833333334, "bike_id": "ced81cc19ffc169886d7e172f0f32e6b", "fusion_lon": 0.0}, {"rental_uris": {"ios": "https://dc.lft.to/lastmile_qr_scan", "android": "https://dc.lft.to/lastmile_qr_scan"}, "type": "electric_scooter", "name": "86e3aaa4a15c32889cc4bac7a94d6973", "is_reserved": 0, "lon": -77.02859066666667, "is_disabled": 0, "fusion_lat": 0.0, "lat": 38.912522, "bike_id": "86e3aaa4a15c32889cc4bac7a94d6973", "fusion_lon": 0.0}, {"rental_uris": {"ios": "https://dc.lft.to/lastmile_qr_scan", "android": "https://dc.lft.to/lastmile_qr_scan"}, "type": "electric_scooter", "name": "826115bb1a365c6beadc3ef20ae88a08", "is_reserved": 0, "lon": -77.037852, "is_disabled": 0, "fusion_lat": 0.0, "lat": 38.93602383333333, "bike_id": "826115bb1a365c6beadc3ef20ae88a08", "fusion_lon": 0.0}, {"rental_uris": {"ios": "https://dc.lft.to/lastmile_qr_scan", "android": "https://dc.lft.to/lastmile_qr_scan"}, "type": "electric_scooter", "name": "e20d742b682ae8a0b59cdb1405eea927", "is_reserved": 0, "lon": -77.0179575, "is_disabled": 0, "fusion_lat": 0.0, "lat": 38.9038135, "bike_id": "e20d742b682ae8a0b59cdb1405eea927", "fusion_lon": 0.0}, {"rental_uris": {"ios": "https://dc.lft.to/lastmile_qr_scan", "android": "https://dc.lft.to/lastmile_qr_scan"}, "type": "electric_scooter", "name": "44d492c64115be89771a8194f4df472a", "is_reserved": 0, "lon": -77.03191933333333, "is_disabled": 0, "fusion_lat": 0.0, "lat": 38.9069915, "bike_id": "44d492c64115be89771a8194f4df472a", "fusion_lon": 0.0}, {"rental_uris": {"ios": "https://dc.lft.to/lastmile_qr_scan", "android": "https://dc.lft.to/lastmile_qr_scan"}, "type": "electric_scooter", "name": "1bc9891759ace5c2c64e12df27b0012e", "is_reserved": 0, "lon": -77.06344816666666, "is_disabled": 0, "fusion_lat": 0.0, "lat": 38.943635666666665, "bike_id": "1bc9891759ace5c2c64e12df27b0012e", "fusion_lon": 0.0}, {"rental_uris": {"ios": "https://dc.lft.to/lastmile_qr_scan", "android": "https://dc.lft.to/lastmile_qr_scan"}, "type": "electric_scooter", "name": "4b11659ddc21556882b4b6d6637e81d1", "is_reserved": 0, "lon": -77.0091295, "is_disabled": 0, "fusion_lat": 0.0, "lat": 38.91240283333333, "bike_id": "4b11659ddc21556882b4b6d6637e81d1", "fusion_lon": 0.0}, {"rental_uris": {"ios": "https://dc.lft.to/lastmile_qr_scan", "android": "https://dc.lft.to/lastmile_qr_scan"}, "type": "electric_scooter", "name": "ada4016f1df5436c319744832791f236", "is_reserved": 0, "lon": -77.01230666666666, "is_disabled": 0, "fusion_lat": 0.0, "lat": 38.915793666666666, "bike_id": "ada4016f1df5436c319744832791f236", "fusion_lon": 0.0}, {"rental_uris": {"ios": "https://dc.lft.to/lastmile_qr_scan", "android": "https://dc.lft.to/lastmile_qr_scan"}, "type": "electric_scooter", "name": "da58a3c2eb76cd69c669af6825d6ba31", "is_reserved": 0, "lon": -77.018288, "is_disabled": 0, "fusion_lat": 0.0, "lat": 38.905100833333336, "bike_id": "da58a3c2eb76cd69c669af6825d6ba31", "fusion_lon": 0.0}, {"rental_uris": {"ios": "https://dc.lft.to/lastmile_qr_scan", "android": "https://dc.lft.to/lastmile_qr_scan"}, "type": "electric_scooter", "name": "2275e0a55ad1a90b6b555184d609c5b7", "is_reserved": 0, "lon": -77.03499983333333, "is_disabled": 0, "fusion_lat": 0.0, "lat": 38.915536833333334, "bike_id": "2275e0a55ad1a90b6b555184d609c5b7", "fusion_lon": 0.0}, {"rental_uris": {"ios": "https://dc.lft.to/lastmile_qr_scan", "android": "https://dc.lft.to/lastmile_qr_scan"}, "type": "electric_scooter", "name": "8a2524bd36b2cbf6cec03d30e4a78860", "is_reserved": 0, "lon": -77.01015233333334, "is_disabled": 0, "fusion_lat": 0.0, "lat": 38.91254566666667, "bike_id": "8a2524bd36b2cbf6cec03d30e4a78860", "fusion_lon": 0.0}, {"rental_uris": {"ios": "https://dc.lft.to/lastmile_qr_scan", "android": "https://dc.lft.to/lastmile_qr_scan"}, "type": "electric_scooter", "name": "5ba16f042716025f52f76eaf533f2919", "is_reserved": 0, "lon": -77.02693283333333, "is_disabled": 0, "fusion_lat": 0.0, "lat": 38.908418, "bike_id": "5ba16f042716025f52f76eaf533f2919", "fusion_lon": 0.0}, {"rental_uris": {"ios": "https://dc.lft.to/lastmile_qr_scan", "android": "https://dc.lft.to/lastmile_qr_scan"}, "type": "electric_scooter", "name": "0cf0b1a150b8e12d83ce90d0608cae32", "is_reserved": 0, "lon": -77.04731816666667, "is_disabled": 0, "fusion_lat": 0.0, "lat": 38.8955335, "bike_id": "0cf0b1a150b8e12d83ce90d0608cae32", "fusion_lon": 0.0}, {"rental_uris": {"ios": "https://dc.lft.to/lastmile_qr_scan", "android": "https://dc.lft.to/lastmile_qr_scan"}, "type": "electric_scooter", "name": "b7a370dc0ce5c72bf955b69cb5f91e1f", "is_reserved": 0, "lon": -77.03777016666666, "is_disabled": 0, "fusion_lat": 0.0, "lat": 38.92338566666667, "bike_id": "b7a370dc0ce5c72bf955b69cb5f91e1f", "fusion_lon": 0.0}, {"rental_uris": {"ios": "https://dc.lft.to/lastmile_qr_scan", "android": "https://dc.lft.to/lastmile_qr_scan"}, "type": "electric_scooter", "name": "52f7927e26eef38be5dba49706340cab", "is_reserved": 0, "lon": -77.025755, "is_disabled": 0, "fusion_lat": 0.0, "lat": 38.88717466666667, "bike_id": "52f7927e26eef38be5dba49706340cab", "fusion_lon": 0.0}, {"rental_uris": {"ios": "https://dc.lft.to/lastmile_qr_scan", "android": "https://dc.lft.to/lastmile_qr_scan"}, "type": "electric_scooter", "name": "a89ed82a420b3e3b4694d35628c61924", "is_reserved": 0, "lon": -77.03652483333333, "is_disabled": 0, "fusion_lat": 0.0, "lat": 38.92279083333333, "bike_id": "a89ed82a420b3e3b4694d35628c61924", "fusion_lon": 0.0}, {"rental_uris": {"ios": "https://dc.lft.to/lastmile_qr_scan", "android": "https://dc.lft.to/lastmile_qr_scan"}, "type": "electric_scooter", "name": "1bc4965faac99885c48932adafcfb146", "is_reserved": 0, "lon": -76.9704215, "is_disabled": 0, "fusion_lat": 0.0, "lat": 38.873218333333334, "bike_id": "1bc4965faac99885c48932adafcfb146", "fusion_lon": 0.0}, {"rental_uris": {"ios": "https://dc.lft.to/lastmile_qr_scan", "android": "https://dc.lft.to/lastmile_qr_scan"}, "type": "electric_scooter", "name": "a539f2e8b4794c3ddcadb62222653eb3", "is_reserved": 0, "lon": -77.02905883333334, "is_disabled": 0, "fusion_lat": 0.0, "lat": 38.94042066666667, "bike_id": "a539f2e8b4794c3ddcadb62222653eb3", "fusion_lon": 0.0}, {"rental_uris": {"ios": "https://dc.lft.to/lastmile_qr_scan", "android": "https://dc.lft.to/lastmile_qr_scan"}, "type": "electric_scooter", "name": "b55164b0eb0495f38c62c8e06ec7f0fa", "is_reserved": 0, "lon": -77.03240133333334, "is_disabled": 0, "fusion_lat": 0.0, "lat": 38.91034283333333, "bike_id": "b55164b0eb0495f38c62c8e06ec7f0fa", "fusion_lon": 0.0}, {"rental_uris": {"ios": "https://dc.lft.to/lastmile_qr_scan", "android": "https://dc.lft.to/lastmile_qr_scan"}, "type": "electric_scooter", "name": "701e033e4d59d9653407f93434646012", "is_reserved": 0, "lon": -77.02185466666667, "is_disabled": 0, "fusion_lat": 0.0, "lat": 38.89493083333333, "bike_id": "701e033e4d59d9653407f93434646012", "fusion_lon": 0.0}, {"rental_uris": {"ios": "https://dc.lft.to/lastmile_qr_scan", "android": "https://dc.lft.to/lastmile_qr_scan"}, "type": "electric_scooter", "name": "f833334e55d6c2bff8113f9ab4ad544f", "is_reserved": 0, "lon": -77.03539866666667, "is_disabled": 0, "fusion_lat": 0.0, "lat": 38.923953166666664, "bike_id": "f833334e55d6c2bff8113f9ab4ad544f", "fusion_lon": 0.0}, {"rental_uris": {"ios": "https://dc.lft.to/lastmile_qr_scan", "android": "https://dc.lft.to/lastmile_qr_scan"}, "type": "electric_scooter", "name": "a2a532dff070f0380a72bdea912dfea8", "is_reserved": 0, "lon": -77.02054666666666, "is_disabled": 0, "fusion_lat": 0.0, "lat": 38.90852433333333, "bike_id": "a2a532dff070f0380a72bdea912dfea8", "fusion_lon": 0.0}, {"rental_uris": {"ios": "https://dc.lft.to/lastmile_qr_scan", "android": "https://dc.lft.to/lastmile_qr_scan"}, "type": "electric_scooter", "name": "be5eae841d1abffe379d844019c377ef", "is_reserved": 0, "lon": -77.00872833333334, "is_disabled": 0, "fusion_lat": 0.0, "lat": 38.915531, "bike_id": "be5eae841d1abffe379d844019c377ef", "fusion_lon": 0.0}, {"rental_uris": {"ios": "https://dc.lft.to/lastmile_qr_scan", "android": "https://dc.lft.to/lastmile_qr_scan"}, "type": "electric_scooter", "name": "c8eaf84c033b4c97b3fc90b463bf64d7", "is_reserved": 0, "lon": -77.03853083333334, "is_disabled": 0, "fusion_lat": 0.0, "lat": 38.908766666666665, "bike_id": "c8eaf84c033b4c97b3fc90b463bf64d7", "fusion_lon": 0.0}, {"rental_uris": {"ios": "https://dc.lft.to/lastmile_qr_scan", "android": "https://dc.lft.to/lastmile_qr_scan"}, "type": "electric_scooter", "name": "13e5f3bc5573a476086a7b8f87333e75", "is_reserved": 0, "lon": -77.01875166666666, "is_disabled": 0, "fusion_lat": 0.0, "lat": 38.93057616666667, "bike_id": "13e5f3bc5573a476086a7b8f87333e75", "fusion_lon": 0.0}, {"rental_uris": {"ios": "https://dc.lft.to/lastmile_qr_scan", "android": "https://dc.lft.to/lastmile_qr_scan"}, "type": "electric_scooter", "name": "c64b0c4b0388b51bed656b0af7585503", "is_reserved": 0, "lon": -76.93736283333334, "is_disabled": 0, "fusion_lat": 0.0, "lat": 38.890079, "bike_id": "c64b0c4b0388b51bed656b0af7585503", "fusion_lon": 0.0}, {"rental_uris": {"ios": "https://dc.lft.to/lastmile_qr_scan", "android": "https://dc.lft.to/lastmile_qr_scan"}, "type": "electric_scooter", "name": "a3b45e777726a2aa81bd00b961770cc3", "is_reserved": 0, "lon": -77.03119083333333, "is_disabled": 0, "fusion_lat": 0.0, "lat": 38.90568716666667, "bike_id": "a3b45e777726a2aa81bd00b961770cc3", "fusion_lon": 0.0}, {"rental_uris": {"ios": "https://dc.lft.to/lastmile_qr_scan", "android": "https://dc.lft.to/lastmile_qr_scan"}, "type": "electric_scooter", "name": "5b3cb6491d6df49bfde7bffdb97611d4", "is_reserved": 0, "lon": -77.05328266666666, "is_disabled": 0, "fusion_lat": 0.0, "lat": 38.90249416666666, "bike_id": "5b3cb6491d6df49bfde7bffdb97611d4", "fusion_lon": 0.0}, {"rental_uris": {"ios": "https://dc.lft.to/lastmile_qr_scan", "android": "https://dc.lft.to/lastmile_qr_scan"}, "type": "electric_scooter", "name": "a87a14e38ec51f2dd75bb47777de5b06", "is_reserved": 0, "lon": -77.041556, "is_disabled": 0, "fusion_lat": 0.0, "lat": 38.90371716666667, "bike_id": "a87a14e38ec51f2dd75bb47777de5b06", "fusion_lon": 0.0}, {"rental_uris": {"ios": "https://dc.lft.to/lastmile_qr_scan", "android": "https://dc.lft.to/lastmile_qr_scan"}, "type": "electric_scooter", "name": "5fdc23eae30db5bd394e7758b90c603c", "is_reserved": 0, "lon": -77.02273733333334, "is_disabled": 0, "fusion_lat": 0.0, "lat": 38.924238, "bike_id": "5fdc23eae30db5bd394e7758b90c603c", "fusion_lon": 0.0}, {"rental_uris": {"ios": "https://dc.lft.to/lastmile_qr_scan", "android": "https://dc.lft.to/lastmile_qr_scan"}, "type": "electric_bike", "name": "683fe7d9d781f981a33077c6741a87ec", "is_reserved": 0, "lon": -77.066944, "is_disabled": 0, "fusion_lat": 0.0, "lat": 38.83171633333333, "bike_id": "683fe7d9d781f981a33077c6741a87ec", "fusion_lon": 0.0}, {"rental_uris": {"ios": "https://dc.lft.to/lastmile_qr_scan", "android": "https://dc.lft.to/lastmile_qr_scan"}, "type": "electric_scooter", "name": "a2c745605c5026402d0414faf6935b73", "is_reserved": 0, "lon": -77.01762966666666, "is_disabled": 0, "fusion_lat": 0.0, "lat": 38.87686383333333, "bike_id": "a2c745605c5026402d0414faf6935b73", "fusion_lon": 0.0}, {"rental_uris": {"ios": "https://dc.lft.to/lastmile_qr_scan", "android": "https://dc.lft.to/lastmile_qr_scan"}, "type": "electric_scooter", "name": "468dbdf3d3e871b0ed7956be4d0ca75e", "is_reserved": 0, "lon": -77.00780233333333, "is_disabled": 0, "fusion_lat": 0.0, "lat": 38.878424833333334, "bike_id": "468dbdf3d3e871b0ed7956be4d0ca75e", "fusion_lon": 0.0}, {"rental_uris": {"ios": "https://dc.lft.to/lastmile_qr_scan", "android": "https://dc.lft.to/lastmile_qr_scan"}, "type": "electric_scooter", "name": "0bbf12daa3cde9933d1469fbf18cb61c", "is_reserved": 0, "lon": -77.027931, "is_disabled": 0, "fusion_lat": 0.0, "lat": 38.95607366666667, "bike_id": "0bbf12daa3cde9933d1469fbf18cb61c", "fusion_lon": 0.0}, {"rental_uris": {"ios": "https://dc.lft.to/lastmile_qr_scan", "android": "https://dc.lft.to/lastmile_qr_scan"}, "type": "electric_scooter", "name": "bf7f350f7af9c5f721efb01207b194b3", "is_reserved": 0, "lon": -77.04337266666667, "is_disabled": 0, "fusion_lat": 0.0, "lat": 38.922286166666666, "bike_id": "bf7f350f7af9c5f721efb01207b194b3", "fusion_lon": 0.0}, {"rental_uris": {"ios": "https://dc.lft.to/lastmile_qr_scan", "android": "https://dc.lft.to/lastmile_qr_scan"}, "type": "electric_bike", "name": "1ffb39742d9cb96a2e77fe14b8d7c98f", "is_reserved": 0, "lon": -76.96259816666667, "is_disabled": 0, "fusion_lat": 0.0, "lat": 38.882449, "bike_id": "1ffb39742d9cb96a2e77fe14b8d7c98f", "fusion_lon": 0.0}, {"rental_uris": {"ios": "https://dc.lft.to/lastmile_qr_scan", "android": "https://dc.lft.to/lastmile_qr_scan"}, "type": "electric_scooter", "name": "c2e49554f1c0fdde936e51055182bd8b", "is_reserved": 0, "lon": -77.061739, "is_disabled": 0, "fusion_lat": 0.0, "lat": 38.9026845, "bike_id": "c2e49554f1c0fdde936e51055182bd8b", "fusion_lon": 0.0}, {"rental_uris": {"ios": "https://dc.lft.to/lastmile_qr_scan", "android": "https://dc.lft.to/lastmile_qr_scan"}, "type": "electric_scooter", "name": "21b6a157a82cf837943439f44ce8f820", "is_reserved": 0, "lon": -76.9771955, "is_disabled": 0, "fusion_lat": 0.0, "lat": 38.88819766666667, "bike_id": "21b6a157a82cf837943439f44ce8f820", "fusion_lon": 0.0}, {"rental_uris": {"ios": "https://dc.lft.to/lastmile_qr_scan", "android": "https://dc.lft.to/lastmile_qr_scan"}, "type": "electric_scooter", "name": "6b6d09cbd597b5f1c9c22e442a7f7829", "is_reserved": 0, "lon": -77.02275383333334, "is_disabled": 0, "fusion_lat": 0.0, "lat": 38.91838033333333, "bike_id": "6b6d09cbd597b5f1c9c22e442a7f7829", "fusion_lon": 0.0}, {"rental_uris": {"ios": "https://dc.lft.to/lastmile_qr_scan", "android": "https://dc.lft.to/lastmile_qr_scan"}, "type": "electric_scooter", "name": "37ddc2130d223c536051710aba7b4bef", "is_reserved": 0, "lon": -76.99754933333334, "is_disabled": 0, "fusion_lat": 0.0, "lat": 38.8850565, "bike_id": "37ddc2130d223c536051710aba7b4bef", "fusion_lon": 0.0}, {"rental_uris": {"ios": "https://dc.lft.to/lastmile_qr_scan", "android": "https://dc.lft.to/lastmile_qr_scan"}, "type": "electric_scooter", "name": "c94ea24d0b9680d48194e0ae58d082f9", "is_reserved": 0, "lon": -77.03429883333334, "is_disabled": 0, "fusion_lat": 0.0, "lat": 38.92742616666666, "bike_id": "c94ea24d0b9680d48194e0ae58d082f9", "fusion_lon": 0.0}, {"rental_uris": {"ios": "https://dc.lft.to/lastmile_qr_scan", "android": "https://dc.lft.to/lastmile_qr_scan"}, "type": "electric_scooter", "name": "631d510b9844b05dcaa74e53247dd004", "is_reserved": 0, "lon": -77.028129, "is_disabled": 0, "fusion_lat": 0.0, "lat": 38.90914466666667, "bike_id": "631d510b9844b05dcaa74e53247dd004", "fusion_lon": 0.0}, {"rental_uris": {"ios": "https://dc.lft.to/lastmile_qr_scan", "android": "https://dc.lft.to/lastmile_qr_scan"}, "type": "electric_scooter", "name": "8bb8856d39b933f9364c8d9662ce88e4", "is_reserved": 0, "lon": -77.043321, "is_disabled": 0, "fusion_lat": 0.0, "lat": 38.907419166666664, "bike_id": "8bb8856d39b933f9364c8d9662ce88e4", "fusion_lon": 0.0}, {"rental_uris": {"ios": "https://dc.lft.to/lastmile_qr_scan", "android": "https://dc.lft.to/lastmile_qr_scan"}, "type": "electric_scooter", "name": "e4e583e58ae8819c08526959c5fc7f71", "is_reserved": 0, "lon": -76.9485815, "is_disabled": 0, "fusion_lat": 0.0, "lat": 38.89566283333333, "bike_id": "e4e583e58ae8819c08526959c5fc7f71", "fusion_lon": 0.0}, {"rental_uris": {"ios": "https://dc.lft.to/lastmile_qr_scan", "android": "https://dc.lft.to/lastmile_qr_scan"}, "type": "electric_scooter", "name": "24e52690ddc101895d36cae51b749ca6", "is_reserved": 0, "lon": -77.065207, "is_disabled": 0, "fusion_lat": 0.0, "lat": 38.91113383333333, "bike_id": "24e52690ddc101895d36cae51b749ca6", "fusion_lon": 0.0}, {"rental_uris": {"ios": "https://dc.lft.to/lastmile_qr_scan", "android": "https://dc.lft.to/lastmile_qr_scan"}, "type": "electric_scooter", "name": "d372b4cadc1cd9ec9aeb8a79d1e10fbe", "is_reserved": 0, "lon": -77.03461266666666, "is_disabled": 0, "fusion_lat": 0.0, "lat": 38.90278716666667, "bike_id": "d372b4cadc1cd9ec9aeb8a79d1e10fbe", "fusion_lon": 0.0}, {"rental_uris": {"ios": "https://dc.lft.to/lastmile_qr_scan", "android": "https://dc.lft.to/lastmile_qr_scan"}, "type": "electric_scooter", "name": "70ea97ad465e55fc071f827689012c50", "is_reserved": 0, "lon": -77.03851633333333, "is_disabled": 0, "fusion_lat": 0.0, "lat": 38.915428, "bike_id": "70ea97ad465e55fc071f827689012c50", "fusion_lon": 0.0}, {"rental_uris": {"ios": "https://dc.lft.to/lastmile_qr_scan", "android": "https://dc.lft.to/lastmile_qr_scan"}, "type": "electric_bike", "name": "bf7598d5924c27cb7460df0c04cad129", "is_reserved": 0, "lon": -76.9615275, "is_disabled": 0, "fusion_lat": 0.0, "lat": 38.856181666666664, "bike_id": "bf7598d5924c27cb7460df0c04cad129", "fusion_lon": 0.0}, {"rental_uris": {"ios": "https://dc.lft.to/lastmile_qr_scan", "android": "https://dc.lft.to/lastmile_qr_scan"}, "type": "electric_scooter", "name": "5fea6a1738336c8c7208ddc99c6e3810", "is_reserved": 0, "lon": -77.042863, "is_disabled": 0, "fusion_lat": 0.0, "lat": 38.9064805, "bike_id": "5fea6a1738336c8c7208ddc99c6e3810", "fusion_lon": 0.0}, {"rental_uris": {"ios": "https://dc.lft.to/lastmile_qr_scan", "android": "https://dc.lft.to/lastmile_qr_scan"}, "type": "electric_scooter", "name": "2a516c9a739a60b1b30a302de563a5d0", "is_reserved": 0, "lon": -77.04097883333333, "is_disabled": 0, "fusion_lat": 0.0, "lat": 38.92530716666667, "bike_id": "2a516c9a739a60b1b30a302de563a5d0", "fusion_lon": 0.0}, {"rental_uris": {"ios": "https://dc.lft.to/lastmile_qr_scan", "android": "https://dc.lft.to/lastmile_qr_scan"}, "type": "electric_scooter", "name": "5d6932ca835d4da68900f9a3fec6d601", "is_reserved": 0, "lon": -77.02204383333333, "is_disabled": 0, "fusion_lat": 0.0, "lat": 38.95155233333333, "bike_id": "5d6932ca835d4da68900f9a3fec6d601", "fusion_lon": 0.0}, {"rental_uris": {"ios": "https://dc.lft.to/lastmile_qr_scan", "android": "https://dc.lft.to/lastmile_qr_scan"}, "type": "electric_scooter", "name": "2efc41e515a12d1d63e17720ad4ac323", "is_reserved": 0, "lon": -77.05816, "is_disabled": 0, "fusion_lat": 0.0, "lat": 38.9351935, "bike_id": "2efc41e515a12d1d63e17720ad4ac323", "fusion_lon": 0.0}, {"rental_uris": {"ios": "https://dc.lft.to/lastmile_qr_scan", "android": "https://dc.lft.to/lastmile_qr_scan"}, "type": "electric_scooter", "name": "ddd093e0d94a0b6074000043fce3117f", "is_reserved": 0, "lon": -77.04387016666666, "is_disabled": 0, "fusion_lat": 0.0, "lat": 38.920363333333334, "bike_id": "ddd093e0d94a0b6074000043fce3117f", "fusion_lon": 0.0}, {"rental_uris": {"ios": "https://dc.lft.to/lastmile_qr_scan", "android": "https://dc.lft.to/lastmile_qr_scan"}, "type": "electric_scooter", "name": "9cd73dde32dd92b9f6fd6dea68bcb374", "is_reserved": 0, "lon": -77.01826216666667, "is_disabled": 0, "fusion_lat": 0.0, "lat": 38.922518333333336, "bike_id": "9cd73dde32dd92b9f6fd6dea68bcb374", "fusion_lon": 0.0}, {"rental_uris": {"ios": "https://dc.lft.to/lastmile_qr_scan", "android": "https://dc.lft.to/lastmile_qr_scan"}, "type": "electric_scooter", "name": "cfff6b54c903b5b2623daaa9575c2cd7", "is_reserved": 0, "lon": -77.03854066666666, "is_disabled": 0, "fusion_lat": 0.0, "lat": 38.916612, "bike_id": "cfff6b54c903b5b2623daaa9575c2cd7", "fusion_lon": 0.0}, {"rental_uris": {"ios": "https://dc.lft.to/lastmile_qr_scan", "android": "https://dc.lft.to/lastmile_qr_scan"}, "type": "electric_scooter", "name": "d205a107d67777dfcfa58cb680c19207", "is_reserved": 0, "lon": -76.92922716666666, "is_disabled": 0, "fusion_lat": 0.0, "lat": 38.8927185, "bike_id": "d205a107d67777dfcfa58cb680c19207", "fusion_lon": 0.0}, {"rental_uris": {"ios": "https://dc.lft.to/lastmile_qr_scan", "android": "https://dc.lft.to/lastmile_qr_scan"}, "type": "electric_scooter", "name": "cd1109f6bb6bd23b2bea985bd32bd84d", "is_reserved": 0, "lon": -77.03868966666667, "is_disabled": 0, "fusion_lat": 0.0, "lat": 38.932299666666665, "bike_id": "cd1109f6bb6bd23b2bea985bd32bd84d", "fusion_lon": 0.0}, {"rental_uris": {"ios": "https://dc.lft.to/lastmile_qr_scan", "android": "https://dc.lft.to/lastmile_qr_scan"}, "type": "electric_scooter", "name": "2476cf607371f6196b3c4e5118f85a21", "is_reserved": 0, "lon": -77.02110366666666, "is_disabled": 0, "fusion_lat": 0.0, "lat": 38.9094065, "bike_id": "2476cf607371f6196b3c4e5118f85a21", "fusion_lon": 0.0}, {"rental_uris": {"ios": "https://dc.lft.to/lastmile_qr_scan", "android": "https://dc.lft.to/lastmile_qr_scan"}, "type": "electric_scooter", "name": "d2e7384050e7abb7a31f47e69bd0e0ce", "is_reserved": 0, "lon": -76.97210066666666, "is_disabled": 0, "fusion_lat": 0.0, "lat": 38.917179833333336, "bike_id": "d2e7384050e7abb7a31f47e69bd0e0ce", "fusion_lon": 0.0}, {"rental_uris": {"ios": "https://dc.lft.to/lastmile_qr_scan", "android": "https://dc.lft.to/lastmile_qr_scan"}, "type": "electric_scooter", "name": "9a743657c8515396a7ef98799091d2b4", "is_reserved": 0, "lon": -77.08636266666667, "is_disabled": 0, "fusion_lat": 0.0, "lat": 38.93827483333333, "bike_id": "9a743657c8515396a7ef98799091d2b4", "fusion_lon": 0.0}, {"rental_uris": {"ios": "https://dc.lft.to/lastmile_qr_scan", "android": "https://dc.lft.to/lastmile_qr_scan"}, "type": "electric_scooter", "name": "392a5fddfb4534bd1ba8e3fff4c01da7", "is_reserved": 0, "lon": -77.0146835, "is_disabled": 0, "fusion_lat": 0.0, "lat": 38.87940483333333, "bike_id": "392a5fddfb4534bd1ba8e3fff4c01da7", "fusion_lon": 0.0}, {"rental_uris": {"ios": "https://dc.lft.to/lastmile_qr_scan", "android": "https://dc.lft.to/lastmile_qr_scan"}, "type": "electric_scooter", "name": "9f590fcf56bf805dc657cc95d37a2aad", "is_reserved": 0, "lon": -77.04224533333333, "is_disabled": 0, "fusion_lat": 0.0, "lat": 38.9216765, "bike_id": "9f590fcf56bf805dc657cc95d37a2aad", "fusion_lon": 0.0}, {"rental_uris": {"ios": "https://dc.lft.to/lastmile_qr_scan", "android": "https://dc.lft.to/lastmile_qr_scan"}, "type": "electric_bike", "name": "58e7135edb3fd073b71acaf70b30799e", "is_reserved": 0, "lon": -77.08562566666667, "is_disabled": 0, "fusion_lat": 0.0, "lat": 38.87422083333333, "bike_id": "58e7135edb3fd073b71acaf70b30799e", "fusion_lon": 0.0}, {"rental_uris": {"ios": "https://dc.lft.to/lastmile_qr_scan", "android": "https://dc.lft.to/lastmile_qr_scan"}, "type": "electric_scooter", "name": "640bb7306c6906b521e4f9cdc2e7607a", "is_reserved": 0, "lon": -77.026081, "is_disabled": 0, "fusion_lat": 0.0, "lat": 38.901026, "bike_id": "640bb7306c6906b521e4f9cdc2e7607a", "fusion_lon": 0.0}, {"rental_uris": {"ios": "https://dc.lft.to/lastmile_qr_scan", "android": "https://dc.lft.to/lastmile_qr_scan"}, "type": "electric_bike", "name": "c31059bb29535fb9e3804e975ea48b09", "is_reserved": 0, "lon": -77.09453033333334, "is_disabled": 0, "fusion_lat": 0.0, "lat": 38.80752, "bike_id": "c31059bb29535fb9e3804e975ea48b09", "fusion_lon": 0.0}, {"rental_uris": {"ios": "https://dc.lft.to/lastmile_qr_scan", "android": "https://dc.lft.to/lastmile_qr_scan"}, "type": "electric_scooter", "name": "7172d3b64723c9fcdc61d43d56c3b310", "is_reserved": 0, "lon": -77.01983233333333, "is_disabled": 0, "fusion_lat": 0.0, "lat": 38.905036833333334, "bike_id": "7172d3b64723c9fcdc61d43d56c3b310", "fusion_lon": 0.0}, {"rental_uris": {"ios": "https://dc.lft.to/lastmile_qr_scan", "android": "https://dc.lft.to/lastmile_qr_scan"}, "type": "electric_scooter", "name": "5b183d8ab44c5cf2034c95765e2741a6", "is_reserved": 0, "lon": -77.04409433333333, "is_disabled": 0, "fusion_lat": 0.0, "lat": 38.89593033333333, "bike_id": "5b183d8ab44c5cf2034c95765e2741a6", "fusion_lon": 0.0}, {"rental_uris": {"ios": "https://dc.lft.to/lastmile_qr_scan", "android": "https://dc.lft.to/lastmile_qr_scan"}, "type": "electric_scooter", "name": "281fe88b5d4809471f7c1c32023c197d", "is_reserved": 0, "lon": -77.018991, "is_disabled": 0, "fusion_lat": 0.0, "lat": 38.8746445, "bike_id": "281fe88b5d4809471f7c1c32023c197d", "fusion_lon": 0.0}, {"rental_uris": {"ios": "https://dc.lft.to/lastmile_qr_scan", "android": "https://dc.lft.to/lastmile_qr_scan"}, "type": "electric_scooter", "name": "9cc5ce3f2c806494b108ad35d5a442e8", "is_reserved": 0, "lon": -77.006476, "is_disabled": 0, "fusion_lat": 0.0, "lat": 38.91249716666667, "bike_id": "9cc5ce3f2c806494b108ad35d5a442e8", "fusion_lon": 0.0}, {"rental_uris": {"ios": "https://dc.lft.to/lastmile_qr_scan", "android": "https://dc.lft.to/lastmile_qr_scan"}, "type": "electric_bike", "name": "04e445009b458f979de4d3db25eb7512", "is_reserved": 0, "lon": -76.9805765, "is_disabled": 0, "fusion_lat": 0.0, "lat": 38.972522833333336, "bike_id": "04e445009b458f979de4d3db25eb7512", "fusion_lon": 0.0}, {"rental_uris": {"ios": "https://dc.lft.to/lastmile_qr_scan", "android": "https://dc.lft.to/lastmile_qr_scan"}, "type": "electric_scooter", "name": "44896699b93048cdd7a5b2ea79127a0f", "is_reserved": 0, "lon": -77.0398665, "is_disabled": 0, "fusion_lat": 0.0, "lat": 38.934036666666664, "bike_id": "44896699b93048cdd7a5b2ea79127a0f", "fusion_lon": 0.0}, {"rental_uris": {"ios": "https://dc.lft.to/lastmile_qr_scan", "android": "https://dc.lft.to/lastmile_qr_scan"}, "type": "electric_bike", "name": "8c781e91f63f28bfc584fb73663b6c69", "is_reserved": 0, "lon": -77.00398933333334, "is_disabled": 0, "fusion_lat": 0.0, "lat": 38.921232333333336, "bike_id": "8c781e91f63f28bfc584fb73663b6c69", "fusion_lon": 0.0}, {"rental_uris": {"ios": "https://dc.lft.to/lastmile_qr_scan", "android": "https://dc.lft.to/lastmile_qr_scan"}, "type": "electric_scooter", "name": "3777a133c5f589f2ee9f29471ba3939b", "is_reserved": 0, "lon": -77.02958533333333, "is_disabled": 0, "fusion_lat": 0.0, "lat": 38.932502166666666, "bike_id": "3777a133c5f589f2ee9f29471ba3939b", "fusion_lon": 0.0}, {"rental_uris": {"ios": "https://dc.lft.to/lastmile_qr_scan", "android": "https://dc.lft.to/lastmile_qr_scan"}, "type": "electric_scooter", "name": "56616fec0861a7ab136e6086f2b82c12", "is_reserved": 0, "lon": -77.03679933333333, "is_disabled": 0, "fusion_lat": 0.0, "lat": 38.939282666666664, "bike_id": "56616fec0861a7ab136e6086f2b82c12", "fusion_lon": 0.0}, {"rental_uris": {"ios": "https://dc.lft.to/lastmile_qr_scan", "android": "https://dc.lft.to/lastmile_qr_scan"}, "type": "electric_scooter", "name": "0c042f38f8c4aac3abf8dec0d0db5c2e", "is_reserved": 0, "lon": -77.00482266666667, "is_disabled": 0, "fusion_lat": 0.0, "lat": 38.87458133333333, "bike_id": "0c042f38f8c4aac3abf8dec0d0db5c2e", "fusion_lon": 0.0}, {"rental_uris": {"ios": "https://dc.lft.to/lastmile_qr_scan", "android": "https://dc.lft.to/lastmile_qr_scan"}, "type": "electric_scooter", "name": "8a0afbcbcc2b7489b7812b7c24fcaf52", "is_reserved": 0, "lon": -77.02427133333333, "is_disabled": 0, "fusion_lat": 0.0, "lat": 38.915643833333334, "bike_id": "8a0afbcbcc2b7489b7812b7c24fcaf52", "fusion_lon": 0.0}, {"rental_uris": {"ios": "https://dc.lft.to/lastmile_qr_scan", "android": "https://dc.lft.to/lastmile_qr_scan"}, "type": "electric_scooter", "name": "3283b12d0128c34c62f8e878d5fb9c22", "is_reserved": 0, "lon": -77.02411433333333, "is_disabled": 0, "fusion_lat": 0.0, "lat": 38.945129, "bike_id": "3283b12d0128c34c62f8e878d5fb9c22", "fusion_lon": 0.0}, {"rental_uris": {"ios": "https://dc.lft.to/lastmile_qr_scan", "android": "https://dc.lft.to/lastmile_qr_scan"}, "type": "electric_scooter", "name": "f20bd5e03c710840167e205b6471c759", "is_reserved": 0, "lon": -77.0591245, "is_disabled": 0, "fusion_lat": 0.0, "lat": 38.905055, "bike_id": "f20bd5e03c710840167e205b6471c759", "fusion_lon": 0.0}, {"rental_uris": {"ios": "https://dc.lft.to/lastmile_qr_scan", "android": "https://dc.lft.to/lastmile_qr_scan"}, "type": "electric_scooter", "name": "0f960ccbccc8d3f853e1601733ae21bd", "is_reserved": 0, "lon": -77.0200405, "is_disabled": 0, "fusion_lat": 0.0, "lat": 38.88137433333333, "bike_id": "0f960ccbccc8d3f853e1601733ae21bd", "fusion_lon": 0.0}, {"rental_uris": {"ios": "https://dc.lft.to/lastmile_qr_scan", "android": "https://dc.lft.to/lastmile_qr_scan"}, "type": "electric_scooter", "name": "8e66ba7b24b7652b2c039a7d42c8ad0f", "is_reserved": 0, "lon": -77.03645, "is_disabled": 0, "fusion_lat": 0.0, "lat": 38.910473, "bike_id": "8e66ba7b24b7652b2c039a7d42c8ad0f", "fusion_lon": 0.0}, {"rental_uris": {"ios": "https://dc.lft.to/lastmile_qr_scan", "android": "https://dc.lft.to/lastmile_qr_scan"}, "type": "electric_scooter", "name": "8600cfb7a8639c6003688a3cc82bc1e3", "is_reserved": 0, "lon": -77.0422615, "is_disabled": 0, "fusion_lat": 0.0, "lat": 38.9110865, "bike_id": "8600cfb7a8639c6003688a3cc82bc1e3", "fusion_lon": 0.0}, {"rental_uris": {"ios": "https://dc.lft.to/lastmile_qr_scan", "android": "https://dc.lft.to/lastmile_qr_scan"}, "type": "electric_scooter", "name": "f90c37c677c89ca5353b464663732519", "is_reserved": 0, "lon": -77.00380116666666, "is_disabled": 0, "fusion_lat": 0.0, "lat": 38.879448333333336, "bike_id": "f90c37c677c89ca5353b464663732519", "fusion_lon": 0.0}, {"rental_uris": {"ios": "https://dc.lft.to/lastmile_qr_scan", "android": "https://dc.lft.to/lastmile_qr_scan"}, "type": "electric_bike", "name": "bf1cd6a5799630604a7b933d44e12378", "is_reserved": 0, "lon": -77.00405483333333, "is_disabled": 0, "fusion_lat": 0.0, "lat": 38.985246, "bike_id": "bf1cd6a5799630604a7b933d44e12378", "fusion_lon": 0.0}, {"rental_uris": {"ios": "https://dc.lft.to/lastmile_qr_scan", "android": "https://dc.lft.to/lastmile_qr_scan"}, "type": "electric_scooter", "name": "e44152e6b009a56a9f1547f73409f392", "is_reserved": 0, "lon": -77.0108285, "is_disabled": 0, "fusion_lat": 0.0, "lat": 38.911221166666664, "bike_id": "e44152e6b009a56a9f1547f73409f392", "fusion_lon": 0.0}, {"rental_uris": {"ios": "https://dc.lft.to/lastmile_qr_scan", "android": "https://dc.lft.to/lastmile_qr_scan"}, "type": "electric_scooter", "name": "95a2fc21de2f5d156222a2d8edb8373f", "is_reserved": 0, "lon": -77.0059485, "is_disabled": 0, "fusion_lat": 0.0, "lat": 38.905466, "bike_id": "95a2fc21de2f5d156222a2d8edb8373f", "fusion_lon": 0.0}, {"rental_uris": {"ios": "https://dc.lft.to/lastmile_qr_scan", "android": "https://dc.lft.to/lastmile_qr_scan"}, "type": "electric_scooter", "name": "e4c14b16dafd603a14871006319b29fc", "is_reserved": 0, "lon": -77.0572295, "is_disabled": 0, "fusion_lat": 0.0, "lat": 38.93355733333333, "bike_id": "e4c14b16dafd603a14871006319b29fc", "fusion_lon": 0.0}, {"rental_uris": {"ios": "https://dc.lft.to/lastmile_qr_scan", "android": "https://dc.lft.to/lastmile_qr_scan"}, "type": "electric_scooter", "name": "3fc6b5d790c8124d5bbab2cb27991c61", "is_reserved": 0, "lon": -77.04374333333334, "is_disabled": 0, "fusion_lat": 0.0, "lat": 38.93497133333334, "bike_id": "3fc6b5d790c8124d5bbab2cb27991c61", "fusion_lon": 0.0}, {"rental_uris": {"ios": "https://dc.lft.to/lastmile_qr_scan", "android": "https://dc.lft.to/lastmile_qr_scan"}, "type": "electric_scooter", "name": "15454d92b6ad48840c834f20cedb3308", "is_reserved": 0, "lon": -77.03293083333334, "is_disabled": 0, "fusion_lat": 0.0, "lat": 38.917112, "bike_id": "15454d92b6ad48840c834f20cedb3308", "fusion_lon": 0.0}, {"rental_uris": {"ios": "https://dc.lft.to/lastmile_qr_scan", "android": "https://dc.lft.to/lastmile_qr_scan"}, "type": "electric_scooter", "name": "8b10ccc5f4773db5e22705831d1a77b7", "is_reserved": 0, "lon": -77.049146, "is_disabled": 0, "fusion_lat": 0.0, "lat": 38.90065966666667, "bike_id": "8b10ccc5f4773db5e22705831d1a77b7", "fusion_lon": 0.0}, {"rental_uris": {"ios": "https://dc.lft.to/lastmile_qr_scan", "android": "https://dc.lft.to/lastmile_qr_scan"}, "type": "electric_bike", "name": "26e46934251a2f966ad8adf9de62b30b", "is_reserved": 0, "lon": -76.99912666666667, "is_disabled": 0, "fusion_lat": 0.0, "lat": 38.8644635, "bike_id": "26e46934251a2f966ad8adf9de62b30b", "fusion_lon": 0.0}, {"rental_uris": {"ios": "https://dc.lft.to/lastmile_qr_scan", "android": "https://dc.lft.to/lastmile_qr_scan"}, "type": "electric_scooter", "name": "29d1ba734c31b50502f2b8b4d4f067ae", "is_reserved": 0, "lon": -77.02095233333333, "is_disabled": 0, "fusion_lat": 0.0, "lat": 38.9430755, "bike_id": "29d1ba734c31b50502f2b8b4d4f067ae", "fusion_lon": 0.0}, {"rental_uris": {"ios": "https://dc.lft.to/lastmile_qr_scan", "android": "https://dc.lft.to/lastmile_qr_scan"}, "type": "electric_scooter", "name": "7c733ec6fbeaf0981470ced82cf05d8d", "is_reserved": 0, "lon": -77.00241783333334, "is_disabled": 0, "fusion_lat": 0.0, "lat": 38.90800466666666, "bike_id": "7c733ec6fbeaf0981470ced82cf05d8d", "fusion_lon": 0.0}, {"rental_uris": {"ios": "https://dc.lft.to/lastmile_qr_scan", "android": "https://dc.lft.to/lastmile_qr_scan"}, "type": "electric_scooter", "name": "9668dc77da7220b5ef27a4d3c40e3b99", "is_reserved": 0, "lon": -77.00200116666667, "is_disabled": 0, "fusion_lat": 0.0, "lat": 38.90046, "bike_id": "9668dc77da7220b5ef27a4d3c40e3b99", "fusion_lon": 0.0}, {"rental_uris": {"ios": "https://dc.lft.to/lastmile_qr_scan", "android": "https://dc.lft.to/lastmile_qr_scan"}, "type": "electric_scooter", "name": "34f4d31307a6356a162acd8100731c58", "is_reserved": 0, "lon": -76.99356433333334, "is_disabled": 0, "fusion_lat": 0.0, "lat": 38.88266083333333, "bike_id": "34f4d31307a6356a162acd8100731c58", "fusion_lon": 0.0}, {"rental_uris": {"ios": "https://dc.lft.to/lastmile_qr_scan", "android": "https://dc.lft.to/lastmile_qr_scan"}, "type": "electric_scooter", "name": "44dc75438d227d7cc12523b148ca60f7", "is_reserved": 0, "lon": -77.0313995, "is_disabled": 0, "fusion_lat": 0.0, "lat": 38.90632266666667, "bike_id": "44dc75438d227d7cc12523b148ca60f7", "fusion_lon": 0.0}, {"rental_uris": {"ios": "https://dc.lft.to/lastmile_qr_scan", "android": "https://dc.lft.to/lastmile_qr_scan"}, "type": "electric_scooter", "name": "32585c8290c90b2c7c004c0a5d923819", "is_reserved": 0, "lon": -77.031482, "is_disabled": 0, "fusion_lat": 0.0, "lat": 38.902596, "bike_id": "32585c8290c90b2c7c004c0a5d923819", "fusion_lon": 0.0}, {"rental_uris": {"ios": "https://dc.lft.to/lastmile_qr_scan", "android": "https://dc.lft.to/lastmile_qr_scan"}, "type": "electric_scooter", "name": "0b4fa980f62b1867028aa1b89d9f02c4", "is_reserved": 0, "lon": -77.02946016666667, "is_disabled": 0, "fusion_lat": 0.0, "lat": 38.904996833333335, "bike_id": "0b4fa980f62b1867028aa1b89d9f02c4", "fusion_lon": 0.0}, {"rental_uris": {"ios": "https://dc.lft.to/lastmile_qr_scan", "android": "https://dc.lft.to/lastmile_qr_scan"}, "type": "electric_bike", "name": "b6dcb5bf53ab5cb17ed16bb3d6c58a6c", "is_reserved": 0, "lon": -77.05121916666667, "is_disabled": 0, "fusion_lat": 0.0, "lat": 38.8593045, "bike_id": "b6dcb5bf53ab5cb17ed16bb3d6c58a6c", "fusion_lon": 0.0}, {"rental_uris": {"ios": "https://dc.lft.to/lastmile_qr_scan", "android": "https://dc.lft.to/lastmile_qr_scan"}, "type": "electric_scooter", "name": "686a54b5bddc01e90b42480cc5bcd4ef", "is_reserved": 0, "lon": -77.04355483333333, "is_disabled": 0, "fusion_lat": 0.0, "lat": 38.911222, "bike_id": "686a54b5bddc01e90b42480cc5bcd4ef", "fusion_lon": 0.0}, {"rental_uris": {"ios": "https://dc.lft.to/lastmile_qr_scan", "android": "https://dc.lft.to/lastmile_qr_scan"}, "type": "electric_scooter", "name": "3095436467d2e2e5a106e860eba23b53", "is_reserved": 0, "lon": -77.01642383333333, "is_disabled": 0, "fusion_lat": 0.0, "lat": 38.9036515, "bike_id": "3095436467d2e2e5a106e860eba23b53", "fusion_lon": 0.0}, {"rental_uris": {"ios": "https://dc.lft.to/lastmile_qr_scan", "android": "https://dc.lft.to/lastmile_qr_scan"}, "type": "electric_scooter", "name": "f75dbe02994ffd3e7498dd0b24f24c4f", "is_reserved": 0, "lon": -76.94717083333333, "is_disabled": 0, "fusion_lat": 0.0, "lat": 38.89083566666667, "bike_id": "f75dbe02994ffd3e7498dd0b24f24c4f", "fusion_lon": 0.0}, {"rental_uris": {"ios": "https://dc.lft.to/lastmile_qr_scan", "android": "https://dc.lft.to/lastmile_qr_scan"}, "type": "electric_bike", "name": "cde2d3d3dbac82a21eec197f270cc7d2", "is_reserved": 0, "lon": -76.95742266666667, "is_disabled": 0, "fusion_lat": 0.0, "lat": 38.88856883333333, "bike_id": "cde2d3d3dbac82a21eec197f270cc7d2", "fusion_lon": 0.0}, {"rental_uris": {"ios": "https://dc.lft.to/lastmile_qr_scan", "android": "https://dc.lft.to/lastmile_qr_scan"}, "type": "electric_scooter", "name": "8181ca46f4e239f046b7f19317e0a4d6", "is_reserved": 0, "lon": -77.0055675, "is_disabled": 0, "fusion_lat": 0.0, "lat": 38.90931, "bike_id": "8181ca46f4e239f046b7f19317e0a4d6", "fusion_lon": 0.0}, {"rental_uris": {"ios": "https://dc.lft.to/lastmile_qr_scan", "android": "https://dc.lft.to/lastmile_qr_scan"}, "type": "electric_scooter", "name": "e8700b003c34e7de63b6c7bdf3b527c5", "is_reserved": 0, "lon": -76.99414566666667, "is_disabled": 0, "fusion_lat": 0.0, "lat": 38.877873666666666, "bike_id": "e8700b003c34e7de63b6c7bdf3b527c5", "fusion_lon": 0.0}, {"rental_uris": {"ios": "https://dc.lft.to/lastmile_qr_scan", "android": "https://dc.lft.to/lastmile_qr_scan"}, "type": "electric_scooter", "name": "da75e03def5db269e003f5ca8f81a62c", "is_reserved": 0, "lon": -77.03474916666667, "is_disabled": 0, "fusion_lat": 0.0, "lat": 38.930233666666666, "bike_id": "da75e03def5db269e003f5ca8f81a62c", "fusion_lon": 0.0}, {"rental_uris": {"ios": "https://dc.lft.to/lastmile_qr_scan", "android": "https://dc.lft.to/lastmile_qr_scan"}, "type": "electric_bike", "name": "fa0c143a16ae20500a23b4e56b186141", "is_reserved": 0, "lon": -76.9030345, "is_disabled": 0, "fusion_lat": 0.0, "lat": 39.00288783333333, "bike_id": "fa0c143a16ae20500a23b4e56b186141", "fusion_lon": 0.0}, {"rental_uris": {"ios": "https://dc.lft.to/lastmile_qr_scan", "android": "https://dc.lft.to/lastmile_qr_scan"}, "type": "electric_scooter", "name": "5b565238bb3ce2d446b8dafe0249e0b2", "is_reserved": 0, "lon": -77.02872766666667, "is_disabled": 0, "fusion_lat": 0.0, "lat": 38.90737033333333, "bike_id": "5b565238bb3ce2d446b8dafe0249e0b2", "fusion_lon": 0.0}, {"rental_uris": {"ios": "https://dc.lft.to/lastmile_qr_scan", "android": "https://dc.lft.to/lastmile_qr_scan"}, "type": "electric_scooter", "name": "7e19fd7c21fb3067ec017d2a03b056a5", "is_reserved": 0, "lon": -77.00873, "is_disabled": 0, "fusion_lat": 0.0, "lat": 38.912515166666665, "bike_id": "7e19fd7c21fb3067ec017d2a03b056a5", "fusion_lon": 0.0}, {"rental_uris": {"ios": "https://dc.lft.to/lastmile_qr_scan", "android": "https://dc.lft.to/lastmile_qr_scan"}, "type": "electric_scooter", "name": "4086b1c63b200d556eafa71bf1b648d3", "is_reserved": 0, "lon": -77.03515483333334, "is_disabled": 0, "fusion_lat": 0.0, "lat": 38.9221685, "bike_id": "4086b1c63b200d556eafa71bf1b648d3", "fusion_lon": 0.0}, {"rental_uris": {"ios": "https://dc.lft.to/lastmile_qr_scan", "android": "https://dc.lft.to/lastmile_qr_scan"}, "type": "electric_scooter", "name": "bff2e6f7fe2ee46b15a44807e2255c29", "is_reserved": 0, "lon": -76.99843483333333, "is_disabled": 0, "fusion_lat": 0.0, "lat": 38.902999666666666, "bike_id": "bff2e6f7fe2ee46b15a44807e2255c29", "fusion_lon": 0.0}, {"rental_uris": {"ios": "https://dc.lft.to/lastmile_qr_scan", "android": "https://dc.lft.to/lastmile_qr_scan"}, "type": "electric_scooter", "name": "6540a66db0325c1020e30995bb4e3d9a", "is_reserved": 0, "lon": -77.05060616666667, "is_disabled": 0, "fusion_lat": 0.0, "lat": 38.9235795, "bike_id": "6540a66db0325c1020e30995bb4e3d9a", "fusion_lon": 0.0}, {"rental_uris": {"ios": "https://dc.lft.to/lastmile_qr_scan", "android": "https://dc.lft.to/lastmile_qr_scan"}, "type": "electric_scooter", "name": "b75ed673c9f326c341314c1d25d7c775", "is_reserved": 0, "lon": -77.037285, "is_disabled": 0, "fusion_lat": 0.0, "lat": 38.926374333333335, "bike_id": "b75ed673c9f326c341314c1d25d7c775", "fusion_lon": 0.0}, {"rental_uris": {"ios": "https://dc.lft.to/lastmile_qr_scan", "android": "https://dc.lft.to/lastmile_qr_scan"}, "type": "electric_scooter", "name": "83ae06d9415035a882cf9fd28c02bbc4", "is_reserved": 0, "lon": -77.03365366666667, "is_disabled": 0, "fusion_lat": 0.0, "lat": 38.911122166666665, "bike_id": "83ae06d9415035a882cf9fd28c02bbc4", "fusion_lon": 0.0}, {"rental_uris": {"ios": "https://dc.lft.to/lastmile_qr_scan", "android": "https://dc.lft.to/lastmile_qr_scan"}, "type": "electric_bike", "name": "158886f1ac618f811d3c0c7e28398982", "is_reserved": 0, "lon": -77.05138833333334, "is_disabled": 0, "fusion_lat": 0.0, "lat": 38.84473533333333, "bike_id": "158886f1ac618f811d3c0c7e28398982", "fusion_lon": 0.0}, {"rental_uris": {"ios": "https://dc.lft.to/lastmile_qr_scan", "android": "https://dc.lft.to/lastmile_qr_scan"}, "type": "electric_scooter", "name": "6aa05fc7b88c68de98903c76d047fa26", "is_reserved": 0, "lon": -77.04518766666666, "is_disabled": 0, "fusion_lat": 0.0, "lat": 38.9231845, "bike_id": "6aa05fc7b88c68de98903c76d047fa26", "fusion_lon": 0.0}, {"rental_uris": {"ios": "https://dc.lft.to/lastmile_qr_scan", "android": "https://dc.lft.to/lastmile_qr_scan"}, "type": "electric_scooter", "name": "cf5702e5ac5a690aee3501a75e44122d", "is_reserved": 0, "lon": -77.0280915, "is_disabled": 0, "fusion_lat": 0.0, "lat": 38.89909683333333, "bike_id": "cf5702e5ac5a690aee3501a75e44122d", "fusion_lon": 0.0}, {"rental_uris": {"ios": "https://dc.lft.to/lastmile_qr_scan", "android": "https://dc.lft.to/lastmile_qr_scan"}, "type": "electric_scooter", "name": "cd23a52c74eb8e002ee4315068fd1b6f", "is_reserved": 0, "lon": -77.0628335, "is_disabled": 0, "fusion_lat": 0.0, "lat": 38.912435, "bike_id": "cd23a52c74eb8e002ee4315068fd1b6f", "fusion_lon": 0.0}, {"rental_uris": {"ios": "https://dc.lft.to/lastmile_qr_scan", "android": "https://dc.lft.to/lastmile_qr_scan"}, "type": "electric_scooter", "name": "7c06b9a315c71889b3ed3fc32852a956", "is_reserved": 0, "lon": -77.03868433333334, "is_disabled": 0, "fusion_lat": 0.0, "lat": 38.92150433333333, "bike_id": "7c06b9a315c71889b3ed3fc32852a956", "fusion_lon": 0.0}, {"rental_uris": {"ios": "https://dc.lft.to/lastmile_qr_scan", "android": "https://dc.lft.to/lastmile_qr_scan"}, "type": "electric_scooter", "name": "d2bc16c2da44dc882daf639b83c0f432", "is_reserved": 0, "lon": -77.033356, "is_disabled": 0, "fusion_lat": 0.0, "lat": 38.91915066666667, "bike_id": "d2bc16c2da44dc882daf639b83c0f432", "fusion_lon": 0.0}, {"rental_uris": {"ios": "https://dc.lft.to/lastmile_qr_scan", "android": "https://dc.lft.to/lastmile_qr_scan"}, "type": "electric_scooter", "name": "2737d927da56493370c6d28171a412d9", "is_reserved": 0, "lon": -77.0436835, "is_disabled": 0, "fusion_lat": 0.0, "lat": 38.892234333333334, "bike_id": "2737d927da56493370c6d28171a412d9", "fusion_lon": 0.0}, {"rental_uris": {"ios": "https://dc.lft.to/lastmile_qr_scan", "android": "https://dc.lft.to/lastmile_qr_scan"}, "type": "electric_scooter", "name": "c77f35ca7685cf5ee5b577f05d08d705", "is_reserved": 0, "lon": -77.0344095, "is_disabled": 0, "fusion_lat": 0.0, "lat": 38.918028666666665, "bike_id": "c77f35ca7685cf5ee5b577f05d08d705", "fusion_lon": 0.0}, {"rental_uris": {"ios": "https://dc.lft.to/lastmile_qr_scan", "android": "https://dc.lft.to/lastmile_qr_scan"}, "type": "electric_scooter", "name": "3eda9b4e38818db009c7d0d3754963cd", "is_reserved": 0, "lon": -77.02109566666667, "is_disabled": 0, "fusion_lat": 0.0, "lat": 38.926891833333336, "bike_id": "3eda9b4e38818db009c7d0d3754963cd", "fusion_lon": 0.0}, {"rental_uris": {"ios": "https://dc.lft.to/lastmile_qr_scan", "android": "https://dc.lft.to/lastmile_qr_scan"}, "type": "electric_scooter", "name": "f7436bdffe8a8f1729944b8907e0c219", "is_reserved": 0, "lon": -77.0260645, "is_disabled": 0, "fusion_lat": 0.0, "lat": 38.9241075, "bike_id": "f7436bdffe8a8f1729944b8907e0c219", "fusion_lon": 0.0}, {"rental_uris": {"ios": "https://dc.lft.to/lastmile_qr_scan", "android": "https://dc.lft.to/lastmile_qr_scan"}, "type": "electric_scooter", "name": "17df7cf960510612eb28181a153f55d0", "is_reserved": 0, "lon": -76.98540566666667, "is_disabled": 0, "fusion_lat": 0.0, "lat": 38.912883, "bike_id": "17df7cf960510612eb28181a153f55d0", "fusion_lon": 0.0}, {"rental_uris": {"ios": "https://dc.lft.to/lastmile_qr_scan", "android": "https://dc.lft.to/lastmile_qr_scan"}, "type": "electric_scooter", "name": "86ed35f45ab73d4da403b7f5d4994f4e", "is_reserved": 0, "lon": -77.02944233333334, "is_disabled": 0, "fusion_lat": 0.0, "lat": 38.904155333333335, "bike_id": "86ed35f45ab73d4da403b7f5d4994f4e", "fusion_lon": 0.0}, {"rental_uris": {"ios": "https://dc.lft.to/lastmile_qr_scan", "android": "https://dc.lft.to/lastmile_qr_scan"}, "type": "electric_scooter", "name": "7959af729904941921c2fb692bbfc0a2", "is_reserved": 0, "lon": -77.04599766666666, "is_disabled": 0, "fusion_lat": 0.0, "lat": 38.92331433333333, "bike_id": "7959af729904941921c2fb692bbfc0a2", "fusion_lon": 0.0}, {"rental_uris": {"ios": "https://dc.lft.to/lastmile_qr_scan", "android": "https://dc.lft.to/lastmile_qr_scan"}, "type": "electric_scooter", "name": "d950b8469dcdb24378d72de7d4715466", "is_reserved": 0, "lon": -77.03240983333333, "is_disabled": 0, "fusion_lat": 0.0, "lat": 38.904431833333334, "bike_id": "d950b8469dcdb24378d72de7d4715466", "fusion_lon": 0.0}, {"rental_uris": {"ios": "https://dc.lft.to/lastmile_qr_scan", "android": "https://dc.lft.to/lastmile_qr_scan"}, "type": "electric_scooter", "name": "1b79cff53029fcd7c767c9501b3e87d7", "is_reserved": 0, "lon": -77.06613233333333, "is_disabled": 0, "fusion_lat": 0.0, "lat": 38.91105983333333, "bike_id": "1b79cff53029fcd7c767c9501b3e87d7", "fusion_lon": 0.0}, {"rental_uris": {"ios": "https://dc.lft.to/lastmile_qr_scan", "android": "https://dc.lft.to/lastmile_qr_scan"}, "type": "electric_scooter", "name": "6a719fb941191990a77495db6a82ecde", "is_reserved": 0, "lon": -77.04752783333333, "is_disabled": 0, "fusion_lat": 0.0, "lat": 38.895906, "bike_id": "6a719fb941191990a77495db6a82ecde", "fusion_lon": 0.0}, {"rental_uris": {"ios": "https://dc.lft.to/lastmile_qr_scan", "android": "https://dc.lft.to/lastmile_qr_scan"}, "type": "electric_bike", "name": "2439a8801fd42ffe39a3fea47d757b15", "is_reserved": 0, "lon": -76.9991625, "is_disabled": 0, "fusion_lat": 0.0, "lat": 38.99466183333333, "bike_id": "2439a8801fd42ffe39a3fea47d757b15", "fusion_lon": 0.0}, {"rental_uris": {"ios": "https://dc.lft.to/lastmile_qr_scan", "android": "https://dc.lft.to/lastmile_qr_scan"}, "type": "electric_scooter", "name": "0c8af75f91832544d49234e8923a9049", "is_reserved": 0, "lon": -77.05122583333333, "is_disabled": 0, "fusion_lat": 0.0, "lat": 38.92533933333333, "bike_id": "0c8af75f91832544d49234e8923a9049", "fusion_lon": 0.0}, {"rental_uris": {"ios": "https://dc.lft.to/lastmile_qr_scan", "android": "https://dc.lft.to/lastmile_qr_scan"}, "type": "electric_scooter", "name": "636f988a26b2363c98273a60bad8c979", "is_reserved": 0, "lon": -77.0466695, "is_disabled": 0, "fusion_lat": 0.0, "lat": 38.892856, "bike_id": "636f988a26b2363c98273a60bad8c979", "fusion_lon": 0.0}, {"rental_uris": {"ios": "https://dc.lft.to/lastmile_qr_scan", "android": "https://dc.lft.to/lastmile_qr_scan"}, "type": "electric_scooter", "name": "0029744c3cff9ff5655933c9ffdd1e78", "is_reserved": 0, "lon": -77.01748383333333, "is_disabled": 0, "fusion_lat": 0.0, "lat": 38.91415683333334, "bike_id": "0029744c3cff9ff5655933c9ffdd1e78", "fusion_lon": 0.0}, {"rental_uris": {"ios": "https://dc.lft.to/lastmile_qr_scan", "android": "https://dc.lft.to/lastmile_qr_scan"}, "type": "electric_scooter", "name": "f8cdaaaae60f7c1814972111ef17bcf1", "is_reserved": 0, "lon": -77.06862916666667, "is_disabled": 0, "fusion_lat": 0.0, "lat": 38.952833, "bike_id": "f8cdaaaae60f7c1814972111ef17bcf1", "fusion_lon": 0.0}, {"rental_uris": {"ios": "https://dc.lft.to/lastmile_qr_scan", "android": "https://dc.lft.to/lastmile_qr_scan"}, "type": "electric_scooter", "name": "9d3cec1a040f61a2afcb7a4954d5e523", "is_reserved": 0, "lon": -77.04168016666667, "is_disabled": 0, "fusion_lat": 0.0, "lat": 38.91106883333333, "bike_id": "9d3cec1a040f61a2afcb7a4954d5e523", "fusion_lon": 0.0}, {"rental_uris": {"ios": "https://dc.lft.to/lastmile_qr_scan", "android": "https://dc.lft.to/lastmile_qr_scan"}, "type": "electric_scooter", "name": "865dba85ad4500a7f597e2a7082fba73", "is_reserved": 0, "lon": -76.99483733333334, "is_disabled": 0, "fusion_lat": 0.0, "lat": 38.899711333333336, "bike_id": "865dba85ad4500a7f597e2a7082fba73", "fusion_lon": 0.0}, {"rental_uris": {"ios": "https://dc.lft.to/lastmile_qr_scan", "android": "https://dc.lft.to/lastmile_qr_scan"}, "type": "electric_scooter", "name": "2a30e0a725a875b24f6c61f512f91624", "is_reserved": 0, "lon": -77.02006866666666, "is_disabled": 0, "fusion_lat": 0.0, "lat": 38.928047, "bike_id": "2a30e0a725a875b24f6c61f512f91624", "fusion_lon": 0.0}, {"rental_uris": {"ios": "https://dc.lft.to/lastmile_qr_scan", "android": "https://dc.lft.to/lastmile_qr_scan"}, "type": "electric_bike", "name": "cf722f7289e03b1a46a675b9ec1355c0", "is_reserved": 0, "lon": -77.10288633333333, "is_disabled": 0, "fusion_lat": 0.0, "lat": 38.85254166666667, "bike_id": "cf722f7289e03b1a46a675b9ec1355c0", "fusion_lon": 0.0}, {"rental_uris": {"ios": "https://dc.lft.to/lastmile_qr_scan", "android": "https://dc.lft.to/lastmile_qr_scan"}, "type": "electric_scooter", "name": "c8df1aa245a46dd4d7322f262a599456", "is_reserved": 0, "lon": -77.01499716666666, "is_disabled": 0, "fusion_lat": 0.0, "lat": 38.906536833333334, "bike_id": "c8df1aa245a46dd4d7322f262a599456", "fusion_lon": 0.0}, {"rental_uris": {"ios": "https://dc.lft.to/lastmile_qr_scan", "android": "https://dc.lft.to/lastmile_qr_scan"}, "type": "electric_scooter", "name": "2ed54178ec3736fd2f507a37cd9696b4", "is_reserved": 0, "lon": -77.00574266666666, "is_disabled": 0, "fusion_lat": 0.0, "lat": 38.87680133333333, "bike_id": "2ed54178ec3736fd2f507a37cd9696b4", "fusion_lon": 0.0}, {"rental_uris": {"ios": "https://dc.lft.to/lastmile_qr_scan", "android": "https://dc.lft.to/lastmile_qr_scan"}, "type": "electric_scooter", "name": "87e8f44867dddc587769031409103301", "is_reserved": 0, "lon": -77.03406316666667, "is_disabled": 0, "fusion_lat": 0.0, "lat": 38.90142266666667, "bike_id": "87e8f44867dddc587769031409103301", "fusion_lon": 0.0}, {"rental_uris": {"ios": "https://dc.lft.to/lastmile_qr_scan", "android": "https://dc.lft.to/lastmile_qr_scan"}, "type": "electric_scooter", "name": "5025ec18a0bc3b5445588805fedffbb0", "is_reserved": 0, "lon": -76.92300883333333, "is_disabled": 0, "fusion_lat": 0.0, "lat": 38.89383083333333, "bike_id": "5025ec18a0bc3b5445588805fedffbb0", "fusion_lon": 0.0}, {"rental_uris": {"ios": "https://dc.lft.to/lastmile_qr_scan", "android": "https://dc.lft.to/lastmile_qr_scan"}, "type": "electric_scooter", "name": "1e75ac0d5640d8422619a95811429484", "is_reserved": 0, "lon": -77.019892, "is_disabled": 0, "fusion_lat": 0.0, "lat": 38.93051633333333, "bike_id": "1e75ac0d5640d8422619a95811429484", "fusion_lon": 0.0}, {"rental_uris": {"ios": "https://dc.lft.to/lastmile_qr_scan", "android": "https://dc.lft.to/lastmile_qr_scan"}, "type": "electric_scooter", "name": "38607823dc374c3a591d6e06b8aaa498", "is_reserved": 0, "lon": -77.02584483333334, "is_disabled": 0, "fusion_lat": 0.0, "lat": 38.906931, "bike_id": "38607823dc374c3a591d6e06b8aaa498", "fusion_lon": 0.0}, {"rental_uris": {"ios": "https://dc.lft.to/lastmile_qr_scan", "android": "https://dc.lft.to/lastmile_qr_scan"}, "type": "electric_scooter", "name": "35418fb874381f54d63ec2da9dd019bc", "is_reserved": 0, "lon": -77.02564066666666, "is_disabled": 0, "fusion_lat": 0.0, "lat": 38.94842883333333, "bike_id": "35418fb874381f54d63ec2da9dd019bc", "fusion_lon": 0.0}, {"rental_uris": {"ios": "https://dc.lft.to/lastmile_qr_scan", "android": "https://dc.lft.to/lastmile_qr_scan"}, "type": "electric_scooter", "name": "e3d5fddb6f6999d43057b7597ed291ae", "is_reserved": 0, "lon": -76.9864755, "is_disabled": 0, "fusion_lat": 0.0, "lat": 38.90540133333333, "bike_id": "e3d5fddb6f6999d43057b7597ed291ae", "fusion_lon": 0.0}, {"rental_uris": {"ios": "https://dc.lft.to/lastmile_qr_scan", "android": "https://dc.lft.to/lastmile_qr_scan"}, "type": "electric_scooter", "name": "4afe01208e61c1db44b1bba6bba0490f", "is_reserved": 0, "lon": -76.942825, "is_disabled": 0, "fusion_lat": 0.0, "lat": 38.901627166666664, "bike_id": "4afe01208e61c1db44b1bba6bba0490f", "fusion_lon": 0.0}, {"rental_uris": {"ios": "https://dc.lft.to/lastmile_qr_scan", "android": "https://dc.lft.to/lastmile_qr_scan"}, "type": "electric_scooter", "name": "47f2a022609506c0204cb3ba533183ad", "is_reserved": 0, "lon": -77.016408, "is_disabled": 0, "fusion_lat": 0.0, "lat": 38.90369616666667, "bike_id": "47f2a022609506c0204cb3ba533183ad", "fusion_lon": 0.0}, {"rental_uris": {"ios": "https://dc.lft.to/lastmile_qr_scan", "android": "https://dc.lft.to/lastmile_qr_scan"}, "type": "electric_scooter", "name": "7393f36bf298ae9a70e7eb9bd2ac7d53", "is_reserved": 0, "lon": -77.02643816666667, "is_disabled": 0, "fusion_lat": 0.0, "lat": 38.930979666666666, "bike_id": "7393f36bf298ae9a70e7eb9bd2ac7d53", "fusion_lon": 0.0}, {"rental_uris": {"ios": "https://dc.lft.to/lastmile_qr_scan", "android": "https://dc.lft.to/lastmile_qr_scan"}, "type": "electric_bike", "name": "7c80be0ec947f76f2aa5103e43c5f164", "is_reserved": 0, "lon": -77.231742, "is_disabled": 0, "fusion_lat": 0.0, "lat": 38.9289665, "bike_id": "7c80be0ec947f76f2aa5103e43c5f164", "fusion_lon": 0.0}, {"rental_uris": {"ios": "https://dc.lft.to/lastmile_qr_scan", "android": "https://dc.lft.to/lastmile_qr_scan"}, "type": "electric_bike", "name": "7d553dd06fb01b2b30b80e0025311800", "is_reserved": 0, "lon": -77.02461533333333, "is_disabled": 0, "fusion_lat": 0.0, "lat": 38.932958166666666, "bike_id": "7d553dd06fb01b2b30b80e0025311800", "fusion_lon": 0.0}, {"rental_uris": {"ios": "https://dc.lft.to/lastmile_qr_scan", "android": "https://dc.lft.to/lastmile_qr_scan"}, "type": "electric_scooter", "name": "966d2242400cdf4745f3de6d0d547472", "is_reserved": 0, "lon": -77.03207266666666, "is_disabled": 0, "fusion_lat": 0.0, "lat": 38.9218695, "bike_id": "966d2242400cdf4745f3de6d0d547472", "fusion_lon": 0.0}, {"rental_uris": {"ios": "https://dc.lft.to/lastmile_qr_scan", "android": "https://dc.lft.to/lastmile_qr_scan"}, "type": "electric_bike", "name": "221b46bc23e75334d28ff4777ee823b7", "is_reserved": 0, "lon": -76.97929966666666, "is_disabled": 0, "fusion_lat": 0.0, "lat": 38.91999, "bike_id": "221b46bc23e75334d28ff4777ee823b7", "fusion_lon": 0.0}, {"rental_uris": {"ios": "https://dc.lft.to/lastmile_qr_scan", "android": "https://dc.lft.to/lastmile_qr_scan"}, "type": "electric_scooter", "name": "384de76ca34cfed3cdb6a5e1e098928f", "is_reserved": 0, "lon": -77.011983, "is_disabled": 0, "fusion_lat": 0.0, "lat": 38.9002205, "bike_id": "384de76ca34cfed3cdb6a5e1e098928f", "fusion_lon": 0.0}, {"rental_uris": {"ios": "https://dc.lft.to/lastmile_qr_scan", "android": "https://dc.lft.to/lastmile_qr_scan"}, "type": "electric_scooter", "name": "33636c2912736360be2755d4fb44ad86", "is_reserved": 0, "lon": -77.02821333333333, "is_disabled": 0, "fusion_lat": 0.0, "lat": 38.892403, "bike_id": "33636c2912736360be2755d4fb44ad86", "fusion_lon": 0.0}, {"rental_uris": {"ios": "https://dc.lft.to/lastmile_qr_scan", "android": "https://dc.lft.to/lastmile_qr_scan"}, "type": "electric_scooter", "name": "abe97d2195b3902fb43407d24c4d521c", "is_reserved": 0, "lon": -77.03279866666666, "is_disabled": 0, "fusion_lat": 0.0, "lat": 38.919956, "bike_id": "abe97d2195b3902fb43407d24c4d521c", "fusion_lon": 0.0}, {"rental_uris": {"ios": "https://dc.lft.to/lastmile_qr_scan", "android": "https://dc.lft.to/lastmile_qr_scan"}, "type": "electric_scooter", "name": "93d68873be36d3adba7b14da56a0a74c", "is_reserved": 0, "lon": -77.04527066666667, "is_disabled": 0, "fusion_lat": 0.0, "lat": 38.919191166666664, "bike_id": "93d68873be36d3adba7b14da56a0a74c", "fusion_lon": 0.0}, {"rental_uris": {"ios": "https://dc.lft.to/lastmile_qr_scan", "android": "https://dc.lft.to/lastmile_qr_scan"}, "type": "electric_scooter", "name": "6d9d416a5fb7d67a5ad071bdd790ef1f", "is_reserved": 0, "lon": -77.03267533333333, "is_disabled": 0, "fusion_lat": 0.0, "lat": 38.9102515, "bike_id": "6d9d416a5fb7d67a5ad071bdd790ef1f", "fusion_lon": 0.0}, {"rental_uris": {"ios": "https://dc.lft.to/lastmile_qr_scan", "android": "https://dc.lft.to/lastmile_qr_scan"}, "type": "electric_scooter", "name": "2db2e94799eac8028578191c191fcfcb", "is_reserved": 0, "lon": -77.0390585, "is_disabled": 0, "fusion_lat": 0.0, "lat": 38.91422416666666, "bike_id": "2db2e94799eac8028578191c191fcfcb", "fusion_lon": 0.0}, {"rental_uris": {"ios": "https://dc.lft.to/lastmile_qr_scan", "android": "https://dc.lft.to/lastmile_qr_scan"}, "type": "electric_scooter", "name": "42acc142cf78ecccccf5ff9e00b981e4", "is_reserved": 0, "lon": -77.031905, "is_disabled": 0, "fusion_lat": 0.0, "lat": 38.918224333333335, "bike_id": "42acc142cf78ecccccf5ff9e00b981e4", "fusion_lon": 0.0}, {"rental_uris": {"ios": "https://dc.lft.to/lastmile_qr_scan", "android": "https://dc.lft.to/lastmile_qr_scan"}, "type": "electric_scooter", "name": "133abc70bd1421f0084e7bfabd0ede14", "is_reserved": 0, "lon": -77.03636583333333, "is_disabled": 0, "fusion_lat": 0.0, "lat": 38.92595583333333, "bike_id": "133abc70bd1421f0084e7bfabd0ede14", "fusion_lon": 0.0}, {"rental_uris": {"ios": "https://dc.lft.to/lastmile_qr_scan", "android": "https://dc.lft.to/lastmile_qr_scan"}, "type": "electric_scooter", "name": "ef40a7dba6beb789a2d59232134f73c1", "is_reserved": 0, "lon": -77.04369933333334, "is_disabled": 0, "fusion_lat": 0.0, "lat": 38.9314825, "bike_id": "ef40a7dba6beb789a2d59232134f73c1", "fusion_lon": 0.0}, {"rental_uris": {"ios": "https://dc.lft.to/lastmile_qr_scan", "android": "https://dc.lft.to/lastmile_qr_scan"}, "type": "electric_scooter", "name": "8e917890813f7f45c6be6ce9d85b1d70", "is_reserved": 0, "lon": -77.056367, "is_disabled": 0, "fusion_lat": 0.0, "lat": 38.9359545, "bike_id": "8e917890813f7f45c6be6ce9d85b1d70", "fusion_lon": 0.0}, {"rental_uris": {"ios": "https://dc.lft.to/lastmile_qr_scan", "android": "https://dc.lft.to/lastmile_qr_scan"}, "type": "electric_scooter", "name": "4c1f89a7f402e59c2428340aadeaef91", "is_reserved": 0, "lon": -77.01432316666667, "is_disabled": 0, "fusion_lat": 0.0, "lat": 38.887450666666666, "bike_id": "4c1f89a7f402e59c2428340aadeaef91", "fusion_lon": 0.0}, {"rental_uris": {"ios": "https://dc.lft.to/lastmile_qr_scan", "android": "https://dc.lft.to/lastmile_qr_scan"}, "type": "electric_scooter", "name": "334c6f033b58284c88b4d416f86b8e82", "is_reserved": 0, "lon": -76.94862216666667, "is_disabled": 0, "fusion_lat": 0.0, "lat": 38.89478666666667, "bike_id": "334c6f033b58284c88b4d416f86b8e82", "fusion_lon": 0.0}, {"rental_uris": {"ios": "https://dc.lft.to/lastmile_qr_scan", "android": "https://dc.lft.to/lastmile_qr_scan"}, "type": "electric_scooter", "name": "774a067e913d237f3eed64371c8fea22", "is_reserved": 0, "lon": -77.02971766666667, "is_disabled": 0, "fusion_lat": 0.0, "lat": 38.92331033333333, "bike_id": "774a067e913d237f3eed64371c8fea22", "fusion_lon": 0.0}, {"rental_uris": {"ios": "https://dc.lft.to/lastmile_qr_scan", "android": "https://dc.lft.to/lastmile_qr_scan"}, "type": "electric_scooter", "name": "3e5ca43a12b3c72dc6f1c36b5229837d", "is_reserved": 0, "lon": -77.0318135, "is_disabled": 0, "fusion_lat": 0.0, "lat": 38.9199175, "bike_id": "3e5ca43a12b3c72dc6f1c36b5229837d", "fusion_lon": 0.0}, {"rental_uris": {"ios": "https://dc.lft.to/lastmile_qr_scan", "android": "https://dc.lft.to/lastmile_qr_scan"}, "type": "electric_scooter", "name": "2b8c586ae04cc04fd3d97a26d59f338a", "is_reserved": 0, "lon": -77.0089415, "is_disabled": 0, "fusion_lat": 0.0, "lat": 38.923306333333336, "bike_id": "2b8c586ae04cc04fd3d97a26d59f338a", "fusion_lon": 0.0}, {"rental_uris": {"ios": "https://dc.lft.to/lastmile_qr_scan", "android": "https://dc.lft.to/lastmile_qr_scan"}, "type": "electric_scooter", "name": "2390f1accaaf39ddbcfaf3092903f01b", "is_reserved": 0, "lon": -77.00565533333334, "is_disabled": 0, "fusion_lat": 0.0, "lat": 38.876664833333336, "bike_id": "2390f1accaaf39ddbcfaf3092903f01b", "fusion_lon": 0.0}, {"rental_uris": {"ios": "https://dc.lft.to/lastmile_qr_scan", "android": "https://dc.lft.to/lastmile_qr_scan"}, "type": "electric_scooter", "name": "46c200e7079035f7bcaaf48afe40e358", "is_reserved": 0, "lon": -77.02940833333334, "is_disabled": 0, "fusion_lat": 0.0, "lat": 38.907229666666666, "bike_id": "46c200e7079035f7bcaaf48afe40e358", "fusion_lon": 0.0}, {"rental_uris": {"ios": "https://dc.lft.to/lastmile_qr_scan", "android": "https://dc.lft.to/lastmile_qr_scan"}, "type": "electric_scooter", "name": "84036c8000319ba45842eec8dd049bfd", "is_reserved": 0, "lon": -77.02070816666667, "is_disabled": 0, "fusion_lat": 0.0, "lat": 38.931209333333335, "bike_id": "84036c8000319ba45842eec8dd049bfd", "fusion_lon": 0.0}, {"rental_uris": {"ios": "https://dc.lft.to/lastmile_qr_scan", "android": "https://dc.lft.to/lastmile_qr_scan"}, "type": "electric_scooter", "name": "fbc4f554ed00c7740163f14ac3b78a9b", "is_reserved": 0, "lon": -77.03500483333333, "is_disabled": 0, "fusion_lat": 0.0, "lat": 38.911872, "bike_id": "fbc4f554ed00c7740163f14ac3b78a9b", "fusion_lon": 0.0}, {"rental_uris": {"ios": "https://dc.lft.to/lastmile_qr_scan", "android": "https://dc.lft.to/lastmile_qr_scan"}, "type": "electric_scooter", "name": "f83f3cb77909be46dc610e443db57a1c", "is_reserved": 0, "lon": -77.0211295, "is_disabled": 0, "fusion_lat": 0.0, "lat": 38.9141505, "bike_id": "f83f3cb77909be46dc610e443db57a1c", "fusion_lon": 0.0}, {"rental_uris": {"ios": "https://dc.lft.to/lastmile_qr_scan", "android": "https://dc.lft.to/lastmile_qr_scan"}, "type": "electric_scooter", "name": "91c6e4aaf574639c2d42eddc65cf625e", "is_reserved": 0, "lon": -76.99888066666666, "is_disabled": 0, "fusion_lat": 0.0, "lat": 38.952969, "bike_id": "91c6e4aaf574639c2d42eddc65cf625e", "fusion_lon": 0.0}, {"rental_uris": {"ios": "https://dc.lft.to/lastmile_qr_scan", "android": "https://dc.lft.to/lastmile_qr_scan"}, "type": "electric_scooter", "name": "4ae5572e5c65da4bc40d7d1cfe51de94", "is_reserved": 0, "lon": -77.023696, "is_disabled": 0, "fusion_lat": 0.0, "lat": 38.90219116666667, "bike_id": "4ae5572e5c65da4bc40d7d1cfe51de94", "fusion_lon": 0.0}, {"rental_uris": {"ios": "https://dc.lft.to/lastmile_qr_scan", "android": "https://dc.lft.to/lastmile_qr_scan"}, "type": "electric_scooter", "name": "15eaae2388e31c6a70132ab40cb9a604", "is_reserved": 0, "lon": -77.02871166666667, "is_disabled": 0, "fusion_lat": 0.0, "lat": 38.90300416666667, "bike_id": "15eaae2388e31c6a70132ab40cb9a604", "fusion_lon": 0.0}, {"rental_uris": {"ios": "https://dc.lft.to/lastmile_qr_scan", "android": "https://dc.lft.to/lastmile_qr_scan"}, "type": "electric_scooter", "name": "e5cdd05dc8776b8563955e92adf42a4c", "is_reserved": 0, "lon": -77.04648033333334, "is_disabled": 0, "fusion_lat": 0.0, "lat": 38.896585, "bike_id": "e5cdd05dc8776b8563955e92adf42a4c", "fusion_lon": 0.0}, {"rental_uris": {"ios": "https://dc.lft.to/lastmile_qr_scan", "android": "https://dc.lft.to/lastmile_qr_scan"}, "type": "electric_scooter", "name": "8d91c028def172852d1ed25554b4413c", "is_reserved": 0, "lon": -77.0268025, "is_disabled": 0, "fusion_lat": 0.0, "lat": 38.90530566666666, "bike_id": "8d91c028def172852d1ed25554b4413c", "fusion_lon": 0.0}, {"rental_uris": {"ios": "https://dc.lft.to/lastmile_qr_scan", "android": "https://dc.lft.to/lastmile_qr_scan"}, "type": "electric_scooter", "name": "82d30ccc15de50760cb03e91e815a29d", "is_reserved": 0, "lon": -77.046306, "is_disabled": 0, "fusion_lat": 0.0, "lat": 38.906655666666666, "bike_id": "82d30ccc15de50760cb03e91e815a29d", "fusion_lon": 0.0}, {"rental_uris": {"ios": "https://dc.lft.to/lastmile_qr_scan", "android": "https://dc.lft.to/lastmile_qr_scan"}, "type": "electric_scooter", "name": "95a415efaed03c73cb92a39c7f83288a", "is_reserved": 0, "lon": -77.03258933333333, "is_disabled": 0, "fusion_lat": 0.0, "lat": 38.936321, "bike_id": "95a415efaed03c73cb92a39c7f83288a", "fusion_lon": 0.0}, {"rental_uris": {"ios": "https://dc.lft.to/lastmile_qr_scan", "android": "https://dc.lft.to/lastmile_qr_scan"}, "type": "electric_bike", "name": "f5a50f73b90ea1d651fa6dd4c5c1795b", "is_reserved": 0, "lon": -77.0202655, "is_disabled": 0, "fusion_lat": 0.0, "lat": 38.96559883333333, "bike_id": "f5a50f73b90ea1d651fa6dd4c5c1795b", "fusion_lon": 0.0}, {"rental_uris": {"ios": "https://dc.lft.to/lastmile_qr_scan", "android": "https://dc.lft.to/lastmile_qr_scan"}, "type": "electric_bike", "name": "895458291d4cb409596c65f04dcdf841", "is_reserved": 0, "lon": -76.98262833333334, "is_disabled": 0, "fusion_lat": 0.0, "lat": 38.846767, "bike_id": "895458291d4cb409596c65f04dcdf841", "fusion_lon": 0.0}, {"rental_uris": {"ios": "https://dc.lft.to/lastmile_qr_scan", "android": "https://dc.lft.to/lastmile_qr_scan"}, "type": "electric_scooter", "name": "03736d3cec99f37422a5cf098ed18291", "is_reserved": 0, "lon": -77.0055575, "is_disabled": 0, "fusion_lat": 0.0, "lat": 38.8789865, "bike_id": "03736d3cec99f37422a5cf098ed18291", "fusion_lon": 0.0}, {"rental_uris": {"ios": "https://dc.lft.to/lastmile_qr_scan", "android": "https://dc.lft.to/lastmile_qr_scan"}, "type": "electric_scooter", "name": "56773648a0c23807597574ce56551785", "is_reserved": 0, "lon": -77.037542, "is_disabled": 0, "fusion_lat": 0.0, "lat": 38.936022333333334, "bike_id": "56773648a0c23807597574ce56551785", "fusion_lon": 0.0}, {"rental_uris": {"ios": "https://dc.lft.to/lastmile_qr_scan", "android": "https://dc.lft.to/lastmile_qr_scan"}, "type": "electric_scooter", "name": "43a4c8945cbc97f0e085deb147d0cf24", "is_reserved": 0, "lon": -77.01436333333334, "is_disabled": 0, "fusion_lat": 0.0, "lat": 38.902342166666664, "bike_id": "43a4c8945cbc97f0e085deb147d0cf24", "fusion_lon": 0.0}, {"rental_uris": {"ios": "https://dc.lft.to/lastmile_qr_scan", "android": "https://dc.lft.to/lastmile_qr_scan"}, "type": "electric_scooter", "name": "923c6cdc2c5e421fee7c73f50485929d", "is_reserved": 0, "lon": -77.02302116666667, "is_disabled": 0, "fusion_lat": 0.0, "lat": 38.961289666666666, "bike_id": "923c6cdc2c5e421fee7c73f50485929d", "fusion_lon": 0.0}, {"rental_uris": {"ios": "https://dc.lft.to/lastmile_qr_scan", "android": "https://dc.lft.to/lastmile_qr_scan"}, "type": "electric_scooter", "name": "d0ea33ab3d45b8ae79f14f94117b9c1a", "is_reserved": 0, "lon": -77.044412, "is_disabled": 0, "fusion_lat": 0.0, "lat": 38.89734883333333, "bike_id": "d0ea33ab3d45b8ae79f14f94117b9c1a", "fusion_lon": 0.0}, {"rental_uris": {"ios": "https://dc.lft.to/lastmile_qr_scan", "android": "https://dc.lft.to/lastmile_qr_scan"}, "type": "electric_scooter", "name": "6d2438a44e86f24fee13257fa08c648f", "is_reserved": 0, "lon": -77.03335883333334, "is_disabled": 0, "fusion_lat": 0.0, "lat": 38.90233633333333, "bike_id": "6d2438a44e86f24fee13257fa08c648f", "fusion_lon": 0.0}, {"rental_uris": {"ios": "https://dc.lft.to/lastmile_qr_scan", "android": "https://dc.lft.to/lastmile_qr_scan"}, "type": "electric_scooter", "name": "633b206556ceed7839cbf9cdb4f71bc3", "is_reserved": 0, "lon": -77.03451283333334, "is_disabled": 0, "fusion_lat": 0.0, "lat": 38.90841533333333, "bike_id": "633b206556ceed7839cbf9cdb4f71bc3", "fusion_lon": 0.0}, {"rental_uris": {"ios": "https://dc.lft.to/lastmile_qr_scan", "android": "https://dc.lft.to/lastmile_qr_scan"}, "type": "electric_scooter", "name": "882ca5b9f54b1c9c75f4d35fe5a6fac3", "is_reserved": 0, "lon": -77.033792, "is_disabled": 0, "fusion_lat": 0.0, "lat": 38.910345, "bike_id": "882ca5b9f54b1c9c75f4d35fe5a6fac3", "fusion_lon": 0.0}, {"rental_uris": {"ios": "https://dc.lft.to/lastmile_qr_scan", "android": "https://dc.lft.to/lastmile_qr_scan"}, "type": "electric_bike", "name": "a8d0b9befb34d0d882a5014bdc5e2cc8", "is_reserved": 0, "lon": -77.00208216666667, "is_disabled": 0, "fusion_lat": 0.0, "lat": 38.988550333333336, "bike_id": "a8d0b9befb34d0d882a5014bdc5e2cc8", "fusion_lon": 0.0}, {"rental_uris": {"ios": "https://dc.lft.to/lastmile_qr_scan", "android": "https://dc.lft.to/lastmile_qr_scan"}, "type": "electric_scooter", "name": "f8182f55141ec3c11f00a63e8a748195", "is_reserved": 0, "lon": -77.0057225, "is_disabled": 0, "fusion_lat": 0.0, "lat": 38.87571333333333, "bike_id": "f8182f55141ec3c11f00a63e8a748195", "fusion_lon": 0.0}, {"rental_uris": {"ios": "https://dc.lft.to/lastmile_qr_scan", "android": "https://dc.lft.to/lastmile_qr_scan"}, "type": "electric_scooter", "name": "0ae8349d5f5a69fcbb42f7ec4bcb0220", "is_reserved": 0, "lon": -77.028213, "is_disabled": 0, "fusion_lat": 0.0, "lat": 38.9564305, "bike_id": "0ae8349d5f5a69fcbb42f7ec4bcb0220", "fusion_lon": 0.0}, {"rental_uris": {"ios": "https://dc.lft.to/lastmile_qr_scan", "android": "https://dc.lft.to/lastmile_qr_scan"}, "type": "electric_scooter", "name": "15d22f540f988b5a756f48aefdc177bd", "is_reserved": 0, "lon": -77.03712283333333, "is_disabled": 0, "fusion_lat": 0.0, "lat": 38.928318833333336, "bike_id": "15d22f540f988b5a756f48aefdc177bd", "fusion_lon": 0.0}, {"rental_uris": {"ios": "https://dc.lft.to/lastmile_qr_scan", "android": "https://dc.lft.to/lastmile_qr_scan"}, "type": "electric_scooter", "name": "e241cad65ccd2d4a4ce53ea22e2ab396", "is_reserved": 0, "lon": -77.0297805, "is_disabled": 0, "fusion_lat": 0.0, "lat": 38.924489333333334, "bike_id": "e241cad65ccd2d4a4ce53ea22e2ab396", "fusion_lon": 0.0}, {"rental_uris": {"ios": "https://dc.lft.to/lastmile_qr_scan", "android": "https://dc.lft.to/lastmile_qr_scan"}, "type": "electric_scooter", "name": "238cd332e3707010fe8dcc8351a79d16", "is_reserved": 0, "lon": -77.035361, "is_disabled": 0, "fusion_lat": 0.0, "lat": 38.923823166666665, "bike_id": "238cd332e3707010fe8dcc8351a79d16", "fusion_lon": 0.0}, {"rental_uris": {"ios": "https://dc.lft.to/lastmile_qr_scan", "android": "https://dc.lft.to/lastmile_qr_scan"}, "type": "electric_bike", "name": "501d71ba40405a4c192123ac34b1d2f5", "is_reserved": 0, "lon": -77.04266883333334, "is_disabled": 0, "fusion_lat": 0.0, "lat": 38.8490755, "bike_id": "501d71ba40405a4c192123ac34b1d2f5", "fusion_lon": 0.0}, {"rental_uris": {"ios": "https://dc.lft.to/lastmile_qr_scan", "android": "https://dc.lft.to/lastmile_qr_scan"}, "type": "electric_scooter", "name": "b6038876955221847810f252ef72b776", "is_reserved": 0, "lon": -77.03289466666666, "is_disabled": 0, "fusion_lat": 0.0, "lat": 38.924578333333336, "bike_id": "b6038876955221847810f252ef72b776", "fusion_lon": 0.0}, {"rental_uris": {"ios": "https://dc.lft.to/lastmile_qr_scan", "android": "https://dc.lft.to/lastmile_qr_scan"}, "type": "electric_scooter", "name": "6873d6c2f5d5edbc6d23ec484f92e41f", "is_reserved": 0, "lon": -77.04324316666667, "is_disabled": 0, "fusion_lat": 0.0, "lat": 38.906448833333336, "bike_id": "6873d6c2f5d5edbc6d23ec484f92e41f", "fusion_lon": 0.0}, {"rental_uris": {"ios": "https://dc.lft.to/lastmile_qr_scan", "android": "https://dc.lft.to/lastmile_qr_scan"}, "type": "electric_scooter", "name": "47cab51418b96daed317bb2ce1a9bed4", "is_reserved": 0, "lon": -77.02691566666667, "is_disabled": 0, "fusion_lat": 0.0, "lat": 38.9115, "bike_id": "47cab51418b96daed317bb2ce1a9bed4", "fusion_lon": 0.0}, {"rental_uris": {"ios": "https://dc.lft.to/lastmile_qr_scan", "android": "https://dc.lft.to/lastmile_qr_scan"}, "type": "electric_scooter", "name": "ba4b9da5a8b5549c46ad1027dc1808d6", "is_reserved": 0, "lon": -77.02119483333334, "is_disabled": 0, "fusion_lat": 0.0, "lat": 38.91325283333333, "bike_id": "ba4b9da5a8b5549c46ad1027dc1808d6", "fusion_lon": 0.0}, {"rental_uris": {"ios": "https://dc.lft.to/lastmile_qr_scan", "android": "https://dc.lft.to/lastmile_qr_scan"}, "type": "electric_scooter", "name": "e57354aef64402ba8c6226af0da28761", "is_reserved": 0, "lon": -76.99125933333333, "is_disabled": 0, "fusion_lat": 0.0, "lat": 38.90010733333333, "bike_id": "e57354aef64402ba8c6226af0da28761", "fusion_lon": 0.0}, {"rental_uris": {"ios": "https://dc.lft.to/lastmile_qr_scan", "android": "https://dc.lft.to/lastmile_qr_scan"}, "type": "electric_scooter", "name": "a25e94268e8f5a35314a523e61239962", "is_reserved": 0, "lon": -76.965572, "is_disabled": 0, "fusion_lat": 0.0, "lat": 38.91844183333333, "bike_id": "a25e94268e8f5a35314a523e61239962", "fusion_lon": 0.0}, {"rental_uris": {"ios": "https://dc.lft.to/lastmile_qr_scan", "android": "https://dc.lft.to/lastmile_qr_scan"}, "type": "electric_scooter", "name": "07c3ccc0b0d0d70c5be953433d5a40c8", "is_reserved": 0, "lon": -77.0230165, "is_disabled": 0, "fusion_lat": 0.0, "lat": 38.89867016666667, "bike_id": "07c3ccc0b0d0d70c5be953433d5a40c8", "fusion_lon": 0.0}, {"rental_uris": {"ios": "https://dc.lft.to/lastmile_qr_scan", "android": "https://dc.lft.to/lastmile_qr_scan"}, "type": "electric_scooter", "name": "ada7b649f3adbfbf5f6f315264892e63", "is_reserved": 0, "lon": -77.03801283333334, "is_disabled": 0, "fusion_lat": 0.0, "lat": 38.9249985, "bike_id": "ada7b649f3adbfbf5f6f315264892e63", "fusion_lon": 0.0}, {"rental_uris": {"ios": "https://dc.lft.to/lastmile_qr_scan", "android": "https://dc.lft.to/lastmile_qr_scan"}, "type": "electric_scooter", "name": "ce5f00e0eb4ddfd2bfede104d74008c8", "is_reserved": 0, "lon": -77.05597566666667, "is_disabled": 0, "fusion_lat": 0.0, "lat": 38.89424183333333, "bike_id": "ce5f00e0eb4ddfd2bfede104d74008c8", "fusion_lon": 0.0}, {"rental_uris": {"ios": "https://dc.lft.to/lastmile_qr_scan", "android": "https://dc.lft.to/lastmile_qr_scan"}, "type": "electric_scooter", "name": "b581e36fe5c4e99db0e963d224ab06c1", "is_reserved": 0, "lon": -77.03549283333334, "is_disabled": 0, "fusion_lat": 0.0, "lat": 38.917099666666665, "bike_id": "b581e36fe5c4e99db0e963d224ab06c1", "fusion_lon": 0.0}, {"rental_uris": {"ios": "https://dc.lft.to/lastmile_qr_scan", "android": "https://dc.lft.to/lastmile_qr_scan"}, "type": "electric_scooter", "name": "1d5b0175626ac5f48a8e0987ef65faee", "is_reserved": 0, "lon": -77.07869433333333, "is_disabled": 0, "fusion_lat": 0.0, "lat": 38.931562, "bike_id": "1d5b0175626ac5f48a8e0987ef65faee", "fusion_lon": 0.0}, {"rental_uris": {"ios": "https://dc.lft.to/lastmile_qr_scan", "android": "https://dc.lft.to/lastmile_qr_scan"}, "type": "electric_scooter", "name": "e422d8ea911779b015789fd6f4ac19c5", "is_reserved": 0, "lon": -77.02980866666667, "is_disabled": 0, "fusion_lat": 0.0, "lat": 38.92361566666666, "bike_id": "e422d8ea911779b015789fd6f4ac19c5", "fusion_lon": 0.0}, {"rental_uris": {"ios": "https://dc.lft.to/lastmile_qr_scan", "android": "https://dc.lft.to/lastmile_qr_scan"}, "type": "electric_bike", "name": "72cec00fea99d7f22f01dd96d4ccad9a", "is_reserved": 0, "lon": -77.09618433333333, "is_disabled": 0, "fusion_lat": 0.0, "lat": 38.974389333333335, "bike_id": "72cec00fea99d7f22f01dd96d4ccad9a", "fusion_lon": 0.0}, {"rental_uris": {"ios": "https://dc.lft.to/lastmile_qr_scan", "android": "https://dc.lft.to/lastmile_qr_scan"}, "type": "electric_scooter", "name": "46252e5d5af18790feef7fef9f7fcc06", "is_reserved": 0, "lon": -77.01907483333333, "is_disabled": 0, "fusion_lat": 0.0, "lat": 38.905759, "bike_id": "46252e5d5af18790feef7fef9f7fcc06", "fusion_lon": 0.0}, {"rental_uris": {"ios": "https://dc.lft.to/lastmile_qr_scan", "android": "https://dc.lft.to/lastmile_qr_scan"}, "type": "electric_bike", "name": "a32c9873d3ad0433fccd59268474f88e", "is_reserved": 0, "lon": -76.93325433333334, "is_disabled": 0, "fusion_lat": 0.0, "lat": 38.95151516666667, "bike_id": "a32c9873d3ad0433fccd59268474f88e", "fusion_lon": 0.0}, {"rental_uris": {"ios": "https://dc.lft.to/lastmile_qr_scan", "android": "https://dc.lft.to/lastmile_qr_scan"}, "type": "electric_scooter", "name": "2e63c78ced9b7d2d78be3fc4da7581b8", "is_reserved": 0, "lon": -77.04008966666666, "is_disabled": 0, "fusion_lat": 0.0, "lat": 38.92251983333333, "bike_id": "2e63c78ced9b7d2d78be3fc4da7581b8", "fusion_lon": 0.0}, {"rental_uris": {"ios": "https://dc.lft.to/lastmile_qr_scan", "android": "https://dc.lft.to/lastmile_qr_scan"}, "type": "electric_scooter", "name": "00e762788f2b9926068c9512d91485e9", "is_reserved": 0, "lon": -77.00955916666666, "is_disabled": 0, "fusion_lat": 0.0, "lat": 38.874608, "bike_id": "00e762788f2b9926068c9512d91485e9", "fusion_lon": 0.0}, {"rental_uris": {"ios": "https://dc.lft.to/lastmile_qr_scan", "android": "https://dc.lft.to/lastmile_qr_scan"}, "type": "electric_scooter", "name": "6e9efcc2c4c9bde7866bd3b9116f030d", "is_reserved": 0, "lon": -77.00508316666667, "is_disabled": 0, "fusion_lat": 0.0, "lat": 38.8785625, "bike_id": "6e9efcc2c4c9bde7866bd3b9116f030d", "fusion_lon": 0.0}, {"rental_uris": {"ios": "https://dc.lft.to/lastmile_qr_scan", "android": "https://dc.lft.to/lastmile_qr_scan"}, "type": "electric_scooter", "name": "6c1202a434ef94616b2805400129ad37", "is_reserved": 0, "lon": -77.057437, "is_disabled": 0, "fusion_lat": 0.0, "lat": 38.930343666666666, "bike_id": "6c1202a434ef94616b2805400129ad37", "fusion_lon": 0.0}, {"rental_uris": {"ios": "https://dc.lft.to/lastmile_qr_scan", "android": "https://dc.lft.to/lastmile_qr_scan"}, "type": "electric_bike", "name": "9f82763b1a2a9f62ac52c777b9271ef3", "is_reserved": 0, "lon": -77.02379383333333, "is_disabled": 0, "fusion_lat": 0.0, "lat": 38.919623666666666, "bike_id": "9f82763b1a2a9f62ac52c777b9271ef3", "fusion_lon": 0.0}, {"rental_uris": {"ios": "https://dc.lft.to/lastmile_qr_scan", "android": "https://dc.lft.to/lastmile_qr_scan"}, "type": "electric_scooter", "name": "25655b168bc3102e5f3aa9f9c4e263e7", "is_reserved": 0, "lon": -77.040988, "is_disabled": 0, "fusion_lat": 0.0, "lat": 38.927107666666664, "bike_id": "25655b168bc3102e5f3aa9f9c4e263e7", "fusion_lon": 0.0}, {"rental_uris": {"ios": "https://dc.lft.to/lastmile_qr_scan", "android": "https://dc.lft.to/lastmile_qr_scan"}, "type": "electric_scooter", "name": "8820237d15f7e6dd0be8500568ef5510", "is_reserved": 0, "lon": -77.034206, "is_disabled": 0, "fusion_lat": 0.0, "lat": 38.90098833333333, "bike_id": "8820237d15f7e6dd0be8500568ef5510", "fusion_lon": 0.0}, {"rental_uris": {"ios": "https://dc.lft.to/lastmile_qr_scan", "android": "https://dc.lft.to/lastmile_qr_scan"}, "type": "electric_scooter", "name": "41bb2e4e7722f57c3aacf99a6c38ccfd", "is_reserved": 0, "lon": -77.0217945, "is_disabled": 0, "fusion_lat": 0.0, "lat": 38.894875166666665, "bike_id": "41bb2e4e7722f57c3aacf99a6c38ccfd", "fusion_lon": 0.0}, {"rental_uris": {"ios": "https://dc.lft.to/lastmile_qr_scan", "android": "https://dc.lft.to/lastmile_qr_scan"}, "type": "electric_scooter", "name": "134e9bfb30eeaf4ccb49ec267c7b9534", "is_reserved": 0, "lon": -77.05617916666667, "is_disabled": 0, "fusion_lat": 0.0, "lat": 38.906825, "bike_id": "134e9bfb30eeaf4ccb49ec267c7b9534", "fusion_lon": 0.0}, {"rental_uris": {"ios": "https://dc.lft.to/lastmile_qr_scan", "android": "https://dc.lft.to/lastmile_qr_scan"}, "type": "electric_scooter", "name": "f17433f8ed79e2862cd36d954fec4261", "is_reserved": 0, "lon": -77.03819766666666, "is_disabled": 0, "fusion_lat": 0.0, "lat": 38.909617, "bike_id": "f17433f8ed79e2862cd36d954fec4261", "fusion_lon": 0.0}, {"rental_uris": {"ios": "https://dc.lft.to/lastmile_qr_scan", "android": "https://dc.lft.to/lastmile_qr_scan"}, "type": "electric_scooter", "name": "d2966ec0bfa640a3c0ca623a28b7c7cd", "is_reserved": 0, "lon": -77.01220766666667, "is_disabled": 0, "fusion_lat": 0.0, "lat": 38.867191166666665, "bike_id": "d2966ec0bfa640a3c0ca623a28b7c7cd", "fusion_lon": 0.0}, {"rental_uris": {"ios": "https://dc.lft.to/lastmile_qr_scan", "android": "https://dc.lft.to/lastmile_qr_scan"}, "type": "electric_bike", "name": "3a08064040bf2fe1da930bfc6f2467f4", "is_reserved": 0, "lon": -76.90733816666666, "is_disabled": 0, "fusion_lat": 0.0, "lat": 38.896168833333334, "bike_id": "3a08064040bf2fe1da930bfc6f2467f4", "fusion_lon": 0.0}, {"rental_uris": {"ios": "https://dc.lft.to/lastmile_qr_scan", "android": "https://dc.lft.to/lastmile_qr_scan"}, "type": "electric_scooter", "name": "8e251706ef3f55e221256800330e6c5b", "is_reserved": 0, "lon": -76.99221233333333, "is_disabled": 0, "fusion_lat": 0.0, "lat": 38.887480333333336, "bike_id": "8e251706ef3f55e221256800330e6c5b", "fusion_lon": 0.0}, {"rental_uris": {"ios": "https://dc.lft.to/lastmile_qr_scan", "android": "https://dc.lft.to/lastmile_qr_scan"}, "type": "electric_scooter", "name": "af1bc2b59311be42258c8e299f71df0b", "is_reserved": 0, "lon": -77.03193766666666, "is_disabled": 0, "fusion_lat": 0.0, "lat": 38.88480416666667, "bike_id": "af1bc2b59311be42258c8e299f71df0b", "fusion_lon": 0.0}, {"rental_uris": {"ios": "https://dc.lft.to/lastmile_qr_scan", "android": "https://dc.lft.to/lastmile_qr_scan"}, "type": "electric_scooter", "name": "b3a962a41ad59c0bd69beff1d587256f", "is_reserved": 0, "lon": -77.03258266666667, "is_disabled": 0, "fusion_lat": 0.0, "lat": 38.933753, "bike_id": "b3a962a41ad59c0bd69beff1d587256f", "fusion_lon": 0.0}, {"rental_uris": {"ios": "https://dc.lft.to/lastmile_qr_scan", "android": "https://dc.lft.to/lastmile_qr_scan"}, "type": "electric_scooter", "name": "62bae4d37d1717226a45b56add25d333", "is_reserved": 0, "lon": -77.0475525, "is_disabled": 0, "fusion_lat": 0.0, "lat": 38.9409125, "bike_id": "62bae4d37d1717226a45b56add25d333", "fusion_lon": 0.0}, {"rental_uris": {"ios": "https://dc.lft.to/lastmile_qr_scan", "android": "https://dc.lft.to/lastmile_qr_scan"}, "type": "electric_scooter", "name": "f7c72a47a6474da8536aa1f54b2d8e6f", "is_reserved": 0, "lon": -77.03667883333334, "is_disabled": 0, "fusion_lat": 0.0, "lat": 38.92372966666667, "bike_id": "f7c72a47a6474da8536aa1f54b2d8e6f", "fusion_lon": 0.0}, {"rental_uris": {"ios": "https://dc.lft.to/lastmile_qr_scan", "android": "https://dc.lft.to/lastmile_qr_scan"}, "type": "electric_scooter", "name": "6708714836967ce63d961085bf92ceef", "is_reserved": 0, "lon": -76.99912033333334, "is_disabled": 0, "fusion_lat": 0.0, "lat": 38.92460833333333, "bike_id": "6708714836967ce63d961085bf92ceef", "fusion_lon": 0.0}, {"rental_uris": {"ios": "https://dc.lft.to/lastmile_qr_scan", "android": "https://dc.lft.to/lastmile_qr_scan"}, "type": "electric_scooter", "name": "c63a9fa5db4247a06b8ab2c864864a9c", "is_reserved": 0, "lon": -77.00842033333333, "is_disabled": 0, "fusion_lat": 0.0, "lat": 38.91369383333333, "bike_id": "c63a9fa5db4247a06b8ab2c864864a9c", "fusion_lon": 0.0}, {"rental_uris": {"ios": "https://dc.lft.to/lastmile_qr_scan", "android": "https://dc.lft.to/lastmile_qr_scan"}, "type": "electric_scooter", "name": "6edd8cb0967fa1e820e8abecb2081580", "is_reserved": 0, "lon": -76.98699466666666, "is_disabled": 0, "fusion_lat": 0.0, "lat": 38.90698783333333, "bike_id": "6edd8cb0967fa1e820e8abecb2081580", "fusion_lon": 0.0}, {"rental_uris": {"ios": "https://dc.lft.to/lastmile_qr_scan", "android": "https://dc.lft.to/lastmile_qr_scan"}, "type": "electric_scooter", "name": "eee6d107e9c4abf1ec29ca20e98beb7d", "is_reserved": 0, "lon": -77.04015666666666, "is_disabled": 0, "fusion_lat": 0.0, "lat": 38.921665, "bike_id": "eee6d107e9c4abf1ec29ca20e98beb7d", "fusion_lon": 0.0}, {"rental_uris": {"ios": "https://dc.lft.to/lastmile_qr_scan", "android": "https://dc.lft.to/lastmile_qr_scan"}, "type": "electric_scooter", "name": "3ce134a3b31f7cb6f3ef586d4bfb8f81", "is_reserved": 0, "lon": -77.02180916666667, "is_disabled": 0, "fusion_lat": 0.0, "lat": 38.92911466666666, "bike_id": "3ce134a3b31f7cb6f3ef586d4bfb8f81", "fusion_lon": 0.0}, {"rental_uris": {"ios": "https://dc.lft.to/lastmile_qr_scan", "android": "https://dc.lft.to/lastmile_qr_scan"}, "type": "electric_scooter", "name": "d673dbf19b269314bd5f2de2c80b27ee", "is_reserved": 0, "lon": -77.03075283333334, "is_disabled": 0, "fusion_lat": 0.0, "lat": 38.9237945, "bike_id": "d673dbf19b269314bd5f2de2c80b27ee", "fusion_lon": 0.0}, {"rental_uris": {"ios": "https://dc.lft.to/lastmile_qr_scan", "android": "https://dc.lft.to/lastmile_qr_scan"}, "type": "electric_scooter", "name": "7d267503fe2bf4434fc24d304dbbf573", "is_reserved": 0, "lon": -77.00204316666667, "is_disabled": 0, "fusion_lat": 0.0, "lat": 38.9004585, "bike_id": "7d267503fe2bf4434fc24d304dbbf573", "fusion_lon": 0.0}, {"rental_uris": {"ios": "https://dc.lft.to/lastmile_qr_scan", "android": "https://dc.lft.to/lastmile_qr_scan"}, "type": "electric_scooter", "name": "e93f3819e0c527201c6034a1e297741e", "is_reserved": 0, "lon": -77.0877845, "is_disabled": 0, "fusion_lat": 0.0, "lat": 38.93561283333333, "bike_id": "e93f3819e0c527201c6034a1e297741e", "fusion_lon": 0.0}, {"rental_uris": {"ios": "https://dc.lft.to/lastmile_qr_scan", "android": "https://dc.lft.to/lastmile_qr_scan"}, "type": "electric_bike", "name": "b632fd7734488656d16108adcb4a3453", "is_reserved": 0, "lon": -76.9936615, "is_disabled": 0, "fusion_lat": 0.0, "lat": 38.9273605, "bike_id": "b632fd7734488656d16108adcb4a3453", "fusion_lon": 0.0}, {"rental_uris": {"ios": "https://dc.lft.to/lastmile_qr_scan", "android": "https://dc.lft.to/lastmile_qr_scan"}, "type": "electric_scooter", "name": "419dd0a4c5510c5a3b838130be4c6c51", "is_reserved": 0, "lon": -77.063188, "is_disabled": 0, "fusion_lat": 0.0, "lat": 38.913354166666664, "bike_id": "419dd0a4c5510c5a3b838130be4c6c51", "fusion_lon": 0.0}, {"rental_uris": {"ios": "https://dc.lft.to/lastmile_qr_scan", "android": "https://dc.lft.to/lastmile_qr_scan"},