{"data": {"bikes": [{"is_reserved": 0, "type": "electric_scooter", "fusion_lat": 0.0, "is_disabled": 0, "rental_uris": {"ios": "https://dc.lft.to/lastmile_qr_scan", "android": "https://dc.lft.to/lastmile_qr_scan"}, "bike_id": "a7144e91899870898960a805dcc459d8", "lat": 38.87832366666667, "name": "a7144e91899870898960a805dcc459d8", "lon": -77.00872333333334, "fusion_lon": 0.0}, {"is_reserved": 0, "type": "electric_scooter", "fusion_lat": 0.0, "is_disabled": 0, "rental_uris": {"ios": "https://dc.lft.to/lastmile_qr_scan", "android": "https://dc.lft.to/lastmile_qr_scan"}, "bike_id": "dfb00356f85dca3925dda772c8c6ab5d", "lat": 38.89612366666667, "name": "dfb00356f85dca3925dda772c8c6ab5d", "lon": -77.010845, "fusion_lon": 0.0}, {"is_reserved": 0, "type": "electric_scooter", "fusion_lat": 0.0, "is_disabled": 0, "rental_uris": {"ios": "https://dc.lft.to/lastmile_qr_scan", "android": "https://dc.lft.to/lastmile_qr_scan"}, "bike_id": "2b04110510097fca0fdb4c097bc38342", "lat": 38.93229733333333, "name": "2b04110510097fca0fdb4c097bc38342", "lon": -77.02961983333333, "fusion_lon": 0.0}, {"is_reserved": 0, "type": "electric_scooter", "fusion_lat": 0.0, "is_disabled": 0, "rental_uris": {"ios": "https://dc.lft.to/lastmile_qr_scan", "android": "https://dc.lft.to/lastmile_qr_scan"}, "bike_id": "952f3f8f76f34c62c71b05ec14a7837a", "lat": 38.919676, "name": "952f3f8f76f34c62c71b05ec14a7837a", "lon": -77.0318695, "fusion_lon": 0.0}, {"is_reserved": 0, "type": "electric_scooter", "fusion_lat": 0.0, "is_disabled": 0, "rental_uris": {"ios": "https://dc.lft.to/lastmile_qr_scan", "android": "https://dc.lft.to/lastmile_qr_scan"}, "bike_id": "5368c1f80ca7756f81b69213f0b5550b", "lat": 38.8969465, "name": "5368c1f80ca7756f81b69213f0b5550b", "lon": -77.0049455, "fusion_lon": 0.0}, {"is_reserved": 0, "type": "electric_bike", "fusion_lat": 0.0, "is_disabled": 0, "rental_uris": {"ios": "https://dc.lft.to/lastmile_qr_scan", "android": "https://dc.lft.to/lastmile_qr_scan"}, "bike_id": "1daefaa43234bf564416cb5b1cae65a4", "lat": 38.81938566666667, "name": "1daefaa43234bf564416cb5b1cae65a4", "lon": -77.0020485, "fusion_lon": 0.0}, {"is_reserved": 0, "type": "electric_scooter", "fusion_lat": 0.0, "is_disabled": 0, "rental_uris": {"ios": "https://dc.lft.to/lastmile_qr_scan", "android": "https://dc.lft.to/lastmile_qr_scan"}, "bike_id": "f85ad040674ed52a293590f8c1b46dbb", "lat": 38.891978333333334, "name": "f85ad040674ed52a293590f8c1b46dbb", "lon": -76.99863216666667, "fusion_lon": 0.0}, {"is_reserved": 0, "type": "electric_scooter", "fusion_lat": 0.0, "is_disabled": 0, "rental_uris": {"ios": "https://dc.lft.to/lastmile_qr_scan", "android": "https://dc.lft.to/lastmile_qr_scan"}, "bike_id": "5d0206287c7a3c2c3519dd53f05fee21", "lat": 38.924539333333335, "name": "5d0206287c7a3c2c3519dd53f05fee21", "lon": -77.020381, "fusion_lon": 0.0}, {"is_reserved": 0, "type": "electric_scooter", "fusion_lat": 0.0, "is_disabled": 0, "rental_uris": {"ios": "https://dc.lft.to/lastmile_qr_scan", "android": "https://dc.lft.to/lastmile_qr_scan"}, "bike_id": "bcf3469710eb0af9d6edf51ceb5b7c13", "lat": 38.944655166666664, "name": "bcf3469710eb0af9d6edf51ceb5b7c13", "lon": -77.00657483333333, "fusion_lon": 0.0}, {"is_reserved": 0, "type": "electric_scooter", "fusion_lat": 0.0, "is_disabled": 0, "rental_uris": {"ios": "https://dc.lft.to/lastmile_qr_scan", "android": "https://dc.lft.to/lastmile_qr_scan"}, "bike_id": "67175abbd0612b9d946c1ea2cbfde34c", "lat": 38.897112166666666, "name": "67175abbd0612b9d946c1ea2cbfde34c", "lon": -77.01312166666666, "fusion_lon": 0.0}, {"is_reserved": 0, "type": "electric_scooter", "fusion_lat": 0.0, "is_disabled": 0, "rental_uris": {"ios": "https://dc.lft.to/lastmile_qr_scan", "android": "https://dc.lft.to/lastmile_qr_scan"}, "bike_id": "4c9ec235991b8622d1165b22839be22c", "lat": 38.90788416666667, "name": "4c9ec235991b8622d1165b22839be22c", "lon": -77.00195433333333, "fusion_lon": 0.0}, {"is_reserved": 0, "type": "electric_scooter", "fusion_lat": 0.0, "is_disabled": 0, "rental_uris": {"ios": "https://dc.lft.to/lastmile_qr_scan", "android": "https://dc.lft.to/lastmile_qr_scan"}, "bike_id": "d20dc25b18fe248bdceb9f63526545d8", "lat": 38.898214, "name": "d20dc25b18fe248bdceb9f63526545d8", "lon": -76.99836016666667, "fusion_lon": 0.0}, {"is_reserved": 0, "type": "electric_scooter", "fusion_lat": 0.0, "is_disabled": 0, "rental_uris": {"ios": "https://dc.lft.to/lastmile_qr_scan", "android": "https://dc.lft.to/lastmile_qr_scan"}, "bike_id": "3c05a3bb6da4dc7dc1984947d60738a9", "lat": 38.926395666666664, "name": "3c05a3bb6da4dc7dc1984947d60738a9", "lon": -77.03834783333333, "fusion_lon": 0.0}, {"is_reserved": 0, "type": "electric_scooter", "fusion_lat": 0.0, "is_disabled": 0, "rental_uris": {"ios": "https://dc.lft.to/lastmile_qr_scan", "android": "https://dc.lft.to/lastmile_qr_scan"}, "bike_id": "178234b8f32037c98f8c30d83b574de1", "lat": 38.919025500000004, "name": "178234b8f32037c98f8c30d83b574de1", "lon": -77.000494, "fusion_lon": 0.0}, {"is_reserved": 0, "type": "electric_scooter", "fusion_lat": 0.0, "is_disabled": 0, "rental_uris": {"ios": "https://dc.lft.to/lastmile_qr_scan", "android": "https://dc.lft.to/lastmile_qr_scan"}, "bike_id": "5d30288224e0ea114385ebe1cae1faed", "lat": 38.901380333333336, "name": "5d30288224e0ea114385ebe1cae1faed", "lon": -77.041936, "fusion_lon": 0.0}, {"is_reserved": 0, "type": "electric_bike", "fusion_lat": 0.0, "is_disabled": 0, "rental_uris": {"ios": "https://dc.lft.to/lastmile_qr_scan", "android": "https://dc.lft.to/lastmile_qr_scan"}, "bike_id": "9229ecb3ddb5c86bcc2417ab5355398b", "lat": 38.86815883333333, "name": "9229ecb3ddb5c86bcc2417ab5355398b", "lon": -76.98030933333334, "fusion_lon": 0.0}, {"is_reserved": 0, "type": "electric_scooter", "fusion_lat": 0.0, "is_disabled": 0, "rental_uris": {"ios": "https://dc.lft.to/lastmile_qr_scan", "android": "https://dc.lft.to/lastmile_qr_scan"}, "bike_id": "24941b78fed891f789335da83517ef92", "lat": 38.9550145, "name": "24941b78fed891f789335da83517ef92", "lon": -77.06995533333334, "fusion_lon": 0.0}, {"is_reserved": 0, "type": "electric_scooter", "fusion_lat": 0.0, "is_disabled": 0, "rental_uris": {"ios": "https://dc.lft.to/lastmile_qr_scan", "android": "https://dc.lft.to/lastmile_qr_scan"}, "bike_id": "31f9e348071361045866ab793ae7b59d", "lat": 38.92338183333333, "name": "31f9e348071361045866ab793ae7b59d", "lon": -76.98489933333333, "fusion_lon": 0.0}, {"is_reserved": 0, "type": "electric_scooter", "fusion_lat": 0.0, "is_disabled": 0, "rental_uris": {"ios": "https://dc.lft.to/lastmile_qr_scan", "android": "https://dc.lft.to/lastmile_qr_scan"}, "bike_id": "999f464cd7a9c914356df6510f6bd69b", "lat": 38.908675, "name": "999f464cd7a9c914356df6510f6bd69b", "lon": -77.04053333333333, "fusion_lon": 0.0}, {"is_reserved": 0, "type": "electric_scooter", "fusion_lat": 0.0, "is_disabled": 0, "rental_uris": {"ios": "https://dc.lft.to/lastmile_qr_scan", "android": "https://dc.lft.to/lastmile_qr_scan"}, "bike_id": "74c6f234b7ae10c840038b33a1b4e854", "lat": 38.923498, "name": "74c6f234b7ae10c840038b33a1b4e854", "lon": -77.03654966666667, "fusion_lon": 0.0}, {"is_reserved": 0, "type": "electric_scooter", "fusion_lat": 0.0, "is_disabled": 0, "rental_uris": {"ios": "https://dc.lft.to/lastmile_qr_scan", "android": "https://dc.lft.to/lastmile_qr_scan"}, "bike_id": "2154d2a1eecf1bd504fec99745ed2bc4", "lat": 38.916673833333334, "name": "2154d2a1eecf1bd504fec99745ed2bc4", "lon": -77.02685583333333, "fusion_lon": 0.0}, {"is_reserved": 0, "type": "electric_scooter", "fusion_lat": 0.0, "is_disabled": 0, "rental_uris": {"ios": "https://dc.lft.to/lastmile_qr_scan", "android": "https://dc.lft.to/lastmile_qr_scan"}, "bike_id": "d8b4eae6e593b4fbde05c706b70e9b85", "lat": 38.943045166666664, "name": "d8b4eae6e593b4fbde05c706b70e9b85", "lon": -77.025299, "fusion_lon": 0.0}, {"is_reserved": 0, "type": "electric_scooter", "fusion_lat": 0.0, "is_disabled": 0, "rental_uris": {"ios": "https://dc.lft.to/lastmile_qr_scan", "android": "https://dc.lft.to/lastmile_qr_scan"}, "bike_id": "0cd8f3156f616a5e01ca94203abac8d2", "lat": 38.91685666666667, "name": "0cd8f3156f616a5e01ca94203abac8d2", "lon": -77.03213466666666, "fusion_lon": 0.0}, {"is_reserved": 0, "type": "electric_scooter", "fusion_lat": 0.0, "is_disabled": 0, "rental_uris": {"ios": "https://dc.lft.to/lastmile_qr_scan", "android": "https://dc.lft.to/lastmile_qr_scan"}, "bike_id": "8aabe1b4fc65bb7c59c45a570ac54375", "lat": 38.9057745, "name": "8aabe1b4fc65bb7c59c45a570ac54375", "lon": -77.0057735, "fusion_lon": 0.0}, {"is_reserved": 0, "type": "electric_scooter", "fusion_lat": 0.0, "is_disabled": 0, "rental_uris": {"ios": "https://dc.lft.to/lastmile_qr_scan", "android": "https://dc.lft.to/lastmile_qr_scan"}, "bike_id": "5af4104f43c5fd87b4d43a653f9f53cc", "lat": 38.9195915, "name": "5af4104f43c5fd87b4d43a653f9f53cc", "lon": -77.0239415, "fusion_lon": 0.0}, {"is_reserved": 0, "type": "electric_scooter", "fusion_lat": 0.0, "is_disabled": 0, "rental_uris": {"ios": "https://dc.lft.to/lastmile_qr_scan", "android": "https://dc.lft.to/lastmile_qr_scan"}, "bike_id": "8abe60386fb7e7dce130e45b94e69eae", "lat": 38.9000895, "name": "8abe60386fb7e7dce130e45b94e69eae", "lon": -77.0067655, "fusion_lon": 0.0}, {"is_reserved": 0, "type": "electric_scooter", "fusion_lat": 0.0, "is_disabled": 0, "rental_uris": {"ios": "https://dc.lft.to/lastmile_qr_scan", "android": "https://dc.lft.to/lastmile_qr_scan"}, "bike_id": "574156bb35f99a7fc6c45f8cddd58945", "lat": 38.896757666666666, "name": "574156bb35f99a7fc6c45f8cddd58945", "lon": -76.93210316666666, "fusion_lon": 0.0}, {"is_reserved": 0, "type": "electric_scooter", "fusion_lat": 0.0, "is_disabled": 0, "rental_uris": {"ios": "https://dc.lft.to/lastmile_qr_scan", "android": "https://dc.lft.to/lastmile_qr_scan"}, "bike_id": "0f39e2660ffb82468e21355ecd06c671", "lat": 38.91807383333333, "name": "0f39e2660ffb82468e21355ecd06c671", "lon": -77.0333405, "fusion_lon": 0.0}, {"is_reserved": 0, "type": "electric_scooter", "fusion_lat": 0.0, "is_disabled": 0, "rental_uris": {"ios": "https://dc.lft.to/lastmile_qr_scan", "android": "https://dc.lft.to/lastmile_qr_scan"}, "bike_id": "54540a635245cadc735f99973a943aeb", "lat": 38.9218415, "name": "54540a635245cadc735f99973a943aeb", "lon": -77.02087466666667, "fusion_lon": 0.0}, {"is_reserved": 0, "type": "electric_scooter", "fusion_lat": 0.0, "is_disabled": 0, "rental_uris": {"ios": "https://dc.lft.to/lastmile_qr_scan", "android": "https://dc.lft.to/lastmile_qr_scan"}, "bike_id": "3e7e6167a9fc7bb2f2f43cfd5d92de92", "lat": 38.907898, "name": "3e7e6167a9fc7bb2f2f43cfd5d92de92", "lon": -77.009619, "fusion_lon": 0.0}, {"is_reserved": 0, "type": "electric_scooter", "fusion_lat": 0.0, "is_disabled": 0, "rental_uris": {"ios": "https://dc.lft.to/lastmile_qr_scan", "android": "https://dc.lft.to/lastmile_qr_scan"}, "bike_id": "796bf887a1699fa5837c0813df4b4fe9", "lat": 38.909318666666664, "name": "796bf887a1699fa5837c0813df4b4fe9", "lon": -76.9989835, "fusion_lon": 0.0}, {"is_reserved": 0, "type": "electric_scooter", "fusion_lat": 0.0, "is_disabled": 0, "rental_uris": {"ios": "https://dc.lft.to/lastmile_qr_scan", "android": "https://dc.lft.to/lastmile_qr_scan"}, "bike_id": "492258d18a77c27aee4faccfd3234f7e", "lat": 38.87919616666667, "name": "492258d18a77c27aee4faccfd3234f7e", "lon": -77.00606983333333, "fusion_lon": 0.0}, {"is_reserved": 0, "type": "electric_scooter", "fusion_lat": 0.0, "is_disabled": 0, "rental_uris": {"ios": "https://dc.lft.to/lastmile_qr_scan", "android": "https://dc.lft.to/lastmile_qr_scan"}, "bike_id": "8afc1c12fd5b3b53d3cb75092cc1f16d", "lat": 38.9342415, "name": "8afc1c12fd5b3b53d3cb75092cc1f16d", "lon": -77.032847, "fusion_lon": 0.0}, {"is_reserved": 0, "type": "electric_scooter", "fusion_lat": 0.0, "is_disabled": 0, "rental_uris": {"ios": "https://dc.lft.to/lastmile_qr_scan", "android": "https://dc.lft.to/lastmile_qr_scan"}, "bike_id": "92bf32534a6df379d522a8d97c30ae6b", "lat": 38.88732783333333, "name": "92bf32534a6df379d522a8d97c30ae6b", "lon": -76.98379883333334, "fusion_lon": 0.0}, {"is_reserved": 0, "type": "electric_scooter", "fusion_lat": 0.0, "is_disabled": 0, "rental_uris": {"ios": "https://dc.lft.to/lastmile_qr_scan", "android": "https://dc.lft.to/lastmile_qr_scan"}, "bike_id": "77cd742586fe753b5fc0a09949b9c187", "lat": 38.95628383333333, "name": "77cd742586fe753b5fc0a09949b9c187", "lon": -77.02238816666667, "fusion_lon": 0.0}, {"is_reserved": 0, "type": "electric_scooter", "fusion_lat": 0.0, "is_disabled": 0, "rental_uris": {"ios": "https://dc.lft.to/lastmile_qr_scan", "android": "https://dc.lft.to/lastmile_qr_scan"}, "bike_id": "7e879455af1bae48c5204826de21a5ff", "lat": 38.899605666666666, "name": "7e879455af1bae48c5204826de21a5ff", "lon": -77.0475615, "fusion_lon": 0.0}, {"is_reserved": 0, "type": "electric_bike", "fusion_lat": 0.0, "is_disabled": 0, "rental_uris": {"ios": "https://dc.lft.to/lastmile_qr_scan", "android": "https://dc.lft.to/lastmile_qr_scan"}, "bike_id": "f24ad759dbd6a31b4e9bb94de437a0d9", "lat": 39.010624666666665, "name": "f24ad759dbd6a31b4e9bb94de437a0d9", "lon": -76.92240483333333, "fusion_lon": 0.0}, {"is_reserved": 0, "type": "electric_scooter", "fusion_lat": 0.0, "is_disabled": 0, "rental_uris": {"ios": "https://dc.lft.to/lastmile_qr_scan", "android": "https://dc.lft.to/lastmile_qr_scan"}, "bike_id": "80562da77105da95ae66ff5fff2d76d3", "lat": 38.90181316666666, "name": "80562da77105da95ae66ff5fff2d76d3", "lon": -76.98838166666667, "fusion_lon": 0.0}, {"is_reserved": 0, "type": "electric_scooter", "fusion_lat": 0.0, "is_disabled": 0, "rental_uris": {"ios": "https://dc.lft.to/lastmile_qr_scan", "android": "https://dc.lft.to/lastmile_qr_scan"}, "bike_id": "4ed0d5a26083ff96207a2bc818c2fee2", "lat": 38.9073465, "name": "4ed0d5a26083ff96207a2bc818c2fee2", "lon": -77.04775233333334, "fusion_lon": 0.0}, {"is_reserved": 0, "type": "electric_scooter", "fusion_lat": 0.0, "is_disabled": 0, "rental_uris": {"ios": "https://dc.lft.to/lastmile_qr_scan", "android": "https://dc.lft.to/lastmile_qr_scan"}, "bike_id": "354e97c2ae00d9668178a5b780c09c61", "lat": 38.931287166666664, "name": "354e97c2ae00d9668178a5b780c09c61", "lon": -77.02197416666667, "fusion_lon": 0.0}, {"is_reserved": 0, "type": "electric_scooter", "fusion_lat": 0.0, "is_disabled": 0, "rental_uris": {"ios": "https://dc.lft.to/lastmile_qr_scan", "android": "https://dc.lft.to/lastmile_qr_scan"}, "bike_id": "c50c5522d2b8b89a17feaedd3305243b", "lat": 38.905771, "name": "c50c5522d2b8b89a17feaedd3305243b", "lon": -77.00582616666667, "fusion_lon": 0.0}, {"is_reserved": 0, "type": "electric_scooter", "fusion_lat": 0.0, "is_disabled": 0, "rental_uris": {"ios": "https://dc.lft.to/lastmile_qr_scan", "android": "https://dc.lft.to/lastmile_qr_scan"}, "bike_id": "ebaa06bbd426bd80bad01c8cd0b0d6f1", "lat": 38.9186715, "name": "ebaa06bbd426bd80bad01c8cd0b0d6f1", "lon": -77.015339, "fusion_lon": 0.0}, {"is_reserved": 0, "type": "electric_scooter", "fusion_lat": 0.0, "is_disabled": 0, "rental_uris": {"ios": "https://dc.lft.to/lastmile_qr_scan", "android": "https://dc.lft.to/lastmile_qr_scan"}, "bike_id": "bc0de479af7c80f7b8d98140da5cdbe6", "lat": 38.87372216666667, "name": "bc0de479af7c80f7b8d98140da5cdbe6", "lon": -77.00186666666667, "fusion_lon": 0.0}, {"is_reserved": 0, "type": "electric_scooter", "fusion_lat": 0.0, "is_disabled": 0, "rental_uris": {"ios": "https://dc.lft.to/lastmile_qr_scan", "android": "https://dc.lft.to/lastmile_qr_scan"}, "bike_id": "9cc236fb8085ed4e41d997c463c2f757", "lat": 38.92238966666667, "name": "9cc236fb8085ed4e41d997c463c2f757", "lon": -77.03660583333334, "fusion_lon": 0.0}, {"is_reserved": 0, "type": "electric_scooter", "fusion_lat": 0.0, "is_disabled": 0, "rental_uris": {"ios": "https://dc.lft.to/lastmile_qr_scan", "android": "https://dc.lft.to/lastmile_qr_scan"}, "bike_id": "14b90b17198f8a6de963d515c2a58026", "lat": 38.878439166666666, "name": "14b90b17198f8a6de963d515c2a58026", "lon": -76.93124016666667, "fusion_lon": 0.0}, {"is_reserved": 0, "type": "electric_scooter", "fusion_lat": 0.0, "is_disabled": 0, "rental_uris": {"ios": "https://dc.lft.to/lastmile_qr_scan", "android": "https://dc.lft.to/lastmile_qr_scan"}, "bike_id": "1ed1dc0dd637ca847878b817a36d814a", "lat": 38.88583283333333, "name": "1ed1dc0dd637ca847878b817a36d814a", "lon": -77.01229583333334, "fusion_lon": 0.0}, {"is_reserved": 0, "type": "electric_scooter", "fusion_lat": 0.0, "is_disabled": 0, "rental_uris": {"ios": "https://dc.lft.to/lastmile_qr_scan", "android": "https://dc.lft.to/lastmile_qr_scan"}, "bike_id": "bcd8425d20758052f3dfb04c0d9cb5ee", "lat": 38.90069583333333, "name": "bcd8425d20758052f3dfb04c0d9cb5ee", "lon": -77.01338616666666, "fusion_lon": 0.0}, {"is_reserved": 0, "type": "electric_scooter", "fusion_lat": 0.0, "is_disabled": 0, "rental_uris": {"ios": "https://dc.lft.to/lastmile_qr_scan", "android": "https://dc.lft.to/lastmile_qr_scan"}, "bike_id": "d040e951f7b35460a6465b546f0c4d61", "lat": 38.91048033333333, "name": "d040e951f7b35460a6465b546f0c4d61", "lon": -77.01026683333333, "fusion_lon": 0.0}, {"is_reserved": 0, "type": "electric_scooter", "fusion_lat": 0.0, "is_disabled": 0, "rental_uris": {"ios": "https://dc.lft.to/lastmile_qr_scan", "android": "https://dc.lft.to/lastmile_qr_scan"}, "bike_id": "f8cb2b0aac71d21a8c3a7734537ebdb2", "lat": 38.92901883333333, "name": "f8cb2b0aac71d21a8c3a7734537ebdb2", "lon": -77.023497, "fusion_lon": 0.0}, {"is_reserved": 0, "type": "electric_scooter", "fusion_lat": 0.0, "is_disabled": 0, "rental_uris": {"ios": "https://dc.lft.to/lastmile_qr_scan", "android": "https://dc.lft.to/lastmile_qr_scan"}, "bike_id": "63faaba2049e513f8ef17a35307ffcd4", "lat": 38.9169085, "name": "63faaba2049e513f8ef17a35307ffcd4", "lon": -77.03969183333334, "fusion_lon": 0.0}, {"is_reserved": 0, "type": "electric_bike", "fusion_lat": 0.0, "is_disabled": 0, "rental_uris": {"ios": "https://dc.lft.to/lastmile_qr_scan", "android": "https://dc.lft.to/lastmile_qr_scan"}, "bike_id": "e3c3069ebc61a70308f4f3a10533c214", "lat": 38.9303455, "name": "e3c3069ebc61a70308f4f3a10533c214", "lon": -77.05568133333334, "fusion_lon": 0.0}, {"is_reserved": 0, "type": "electric_scooter", "fusion_lat": 0.0, "is_disabled": 0, "rental_uris": {"ios": "https://dc.lft.to/lastmile_qr_scan", "android": "https://dc.lft.to/lastmile_qr_scan"}, "bike_id": "6aef9ea12d6822343763295a7f089bdd", "lat": 38.9115985, "name": "6aef9ea12d6822343763295a7f089bdd", "lon": -77.0448405, "fusion_lon": 0.0}, {"is_reserved": 0, "type": "electric_bike", "fusion_lat": 0.0, "is_disabled": 0, "rental_uris": {"ios": "https://dc.lft.to/lastmile_qr_scan", "android": "https://dc.lft.to/lastmile_qr_scan"}, "bike_id": "2a4d1c37d41b209772227a9852106ce0", "lat": 38.865627333333336, "name": "2a4d1c37d41b209772227a9852106ce0", "lon": -76.97478033333333, "fusion_lon": 0.0}, {"is_reserved": 0, "type": "electric_bike", "fusion_lat": 0.0, "is_disabled": 0, "rental_uris": {"ios": "https://dc.lft.to/lastmile_qr_scan", "android": "https://dc.lft.to/lastmile_qr_scan"}, "bike_id": "4d1bfcb30452c7f9a1f10338cde1022c", "lat": 38.82429116666667, "name": "4d1bfcb30452c7f9a1f10338cde1022c", "lon": -77.12042133333334, "fusion_lon": 0.0}, {"is_reserved": 0, "type": "electric_scooter", "fusion_lat": 0.0, "is_disabled": 0, "rental_uris": {"ios": "https://dc.lft.to/lastmile_qr_scan", "android": "https://dc.lft.to/lastmile_qr_scan"}, "bike_id": "ece68394c71e7c23c3d1267f0eeb40b0", "lat": 38.90009033333333, "name": "ece68394c71e7c23c3d1267f0eeb40b0", "lon": -77.00394316666667, "fusion_lon": 0.0}, {"is_reserved": 0, "type": "electric_scooter", "fusion_lat": 0.0, "is_disabled": 0, "rental_uris": {"ios": "https://dc.lft.to/lastmile_qr_scan", "android": "https://dc.lft.to/lastmile_qr_scan"}, "bike_id": "4cd040cae53a17aa43d44ef8d8db065c", "lat": 38.892093833333334, "name": "4cd040cae53a17aa43d44ef8d8db065c", "lon": -76.96120766666667, "fusion_lon": 0.0}, {"is_reserved": 0, "type": "electric_bike", "fusion_lat": 0.0, "is_disabled": 0, "rental_uris": {"ios": "https://dc.lft.to/lastmile_qr_scan", "android": "https://dc.lft.to/lastmile_qr_scan"}, "bike_id": "cf7884266ed74aa6218c9869f5d89d62", "lat": 38.99831133333333, "name": "cf7884266ed74aa6218c9869f5d89d62", "lon": -76.99728583333334, "fusion_lon": 0.0}, {"is_reserved": 0, "type": "electric_scooter", "fusion_lat": 0.0, "is_disabled": 0, "rental_uris": {"ios": "https://dc.lft.to/lastmile_qr_scan", "android": "https://dc.lft.to/lastmile_qr_scan"}, "bike_id": "42fc6d483a7754ec8f4907ca27323163", "lat": 38.95959533333333, "name": "42fc6d483a7754ec8f4907ca27323163", "lon": -77.03317166666666, "fusion_lon": 0.0}, {"is_reserved": 0, "type": "electric_scooter", "fusion_lat": 0.0, "is_disabled": 0, "rental_uris": {"ios": "https://dc.lft.to/lastmile_qr_scan", "android": "https://dc.lft.to/lastmile_qr_scan"}, "bike_id": "5ac012917fc0dd9143cf69d1c26db804", "lat": 38.912756, "name": "5ac012917fc0dd9143cf69d1c26db804", "lon": -77.0466765, "fusion_lon": 0.0}, {"is_reserved": 0, "type": "electric_scooter", "fusion_lat": 0.0, "is_disabled": 0, "rental_uris": {"ios": "https://dc.lft.to/lastmile_qr_scan", "android": "https://dc.lft.to/lastmile_qr_scan"}, "bike_id": "f609b56f5bc314d8104d51ebc6663ff8", "lat": 38.883833833333334, "name": "f609b56f5bc314d8104d51ebc6663ff8", "lon": -77.04604833333333, "fusion_lon": 0.0}, {"is_reserved": 0, "type": "electric_scooter", "fusion_lat": 0.0, "is_disabled": 0, "rental_uris": {"ios": "https://dc.lft.to/lastmile_qr_scan", "android": "https://dc.lft.to/lastmile_qr_scan"}, "bike_id": "08eca074b13926ec933976c50eb8c54d", "lat": 38.911876166666666, "name": "08eca074b13926ec933976c50eb8c54d", "lon": -77.01774616666667, "fusion_lon": 0.0}, {"is_reserved": 0, "type": "electric_bike", "fusion_lat": 0.0, "is_disabled": 0, "rental_uris": {"ios": "https://dc.lft.to/lastmile_qr_scan", "android": "https://dc.lft.to/lastmile_qr_scan"}, "bike_id": "91ec2c4ecf5d10f7515c84ca182ea459", "lat": 38.944049166666666, "name": "91ec2c4ecf5d10f7515c84ca182ea459", "lon": -77.02180883333334, "fusion_lon": 0.0}, {"is_reserved": 0, "type": "electric_scooter", "fusion_lat": 0.0, "is_disabled": 0, "rental_uris": {"ios": "https://dc.lft.to/lastmile_qr_scan", "android": "https://dc.lft.to/lastmile_qr_scan"}, "bike_id": "49e4794174b74f62f6e27d4095b49c84", "lat": 38.928892833333336, "name": "49e4794174b74f62f6e27d4095b49c84", "lon": -77.03872483333333, "fusion_lon": 0.0}, {"is_reserved": 0, "type": "electric_scooter", "fusion_lat": 0.0, "is_disabled": 0, "rental_uris": {"ios": "https://dc.lft.to/lastmile_qr_scan", "android": "https://dc.lft.to/lastmile_qr_scan"}, "bike_id": "dbcac7ec032044f5b9dac5cb7dffa204", "lat": 38.902742333333336, "name": "dbcac7ec032044f5b9dac5cb7dffa204", "lon": -77.03384733333333, "fusion_lon": 0.0}, {"is_reserved": 0, "type": "electric_scooter", "fusion_lat": 0.0, "is_disabled": 0, "rental_uris": {"ios": "https://dc.lft.to/lastmile_qr_scan", "android": "https://dc.lft.to/lastmile_qr_scan"}, "bike_id": "f54fa8280efa7cf5711f878e8e360356", "lat": 38.91028766666667, "name": "f54fa8280efa7cf5711f878e8e360356", "lon": -77.03839933333333, "fusion_lon": 0.0}, {"is_reserved": 0, "type": "electric_scooter", "fusion_lat": 0.0, "is_disabled": 0, "rental_uris": {"ios": "https://dc.lft.to/lastmile_qr_scan", "android": "https://dc.lft.to/lastmile_qr_scan"}, "bike_id": "6e478b084962213040287de08ef72c88", "lat": 38.92195733333333, "name": "6e478b084962213040287de08ef72c88", "lon": -77.04329083333333, "fusion_lon": 0.0}, {"is_reserved": 0, "type": "electric_scooter", "fusion_lat": 0.0, "is_disabled": 0, "rental_uris": {"ios": "https://dc.lft.to/lastmile_qr_scan", "android": "https://dc.lft.to/lastmile_qr_scan"}, "bike_id": "836c8ec3c977d6ffb8a2c35b97eb57e3", "lat": 38.916029, "name": "836c8ec3c977d6ffb8a2c35b97eb57e3", "lon": -77.032109, "fusion_lon": 0.0}, {"is_reserved": 0, "type": "electric_scooter", "fusion_lat": 0.0, "is_disabled": 0, "rental_uris": {"ios": "https://dc.lft.to/lastmile_qr_scan", "android": "https://dc.lft.to/lastmile_qr_scan"}, "bike_id": "7b73f329ff8fa8d681005a44e3bf8c23", "lat": 38.93093833333333, "name": "7b73f329ff8fa8d681005a44e3bf8c23", "lon": -77.0343635, "fusion_lon": 0.0}, {"is_reserved": 0, "type": "electric_bike", "fusion_lat": 0.0, "is_disabled": 0, "rental_uris": {"ios": "https://dc.lft.to/lastmile_qr_scan", "android": "https://dc.lft.to/lastmile_qr_scan"}, "bike_id": "57a69b470a6cc0586c1191572a4e05f7", "lat": 38.98282, "name": "57a69b470a6cc0586c1191572a4e05f7", "lon": -76.976372, "fusion_lon": 0.0}, {"is_reserved": 0, "type": "electric_scooter", "fusion_lat": 0.0, "is_disabled": 0, "rental_uris": {"ios": "https://dc.lft.to/lastmile_qr_scan", "android": "https://dc.lft.to/lastmile_qr_scan"}, "bike_id": "c743fd21caac80efd2446ecd55268fd6", "lat": 38.921798333333335, "name": "c743fd21caac80efd2446ecd55268fd6", "lon": -77.04004783333333, "fusion_lon": 0.0}, {"is_reserved": 0, "type": "electric_scooter", "fusion_lat": 0.0, "is_disabled": 0, "rental_uris": {"ios": "https://dc.lft.to/lastmile_qr_scan", "android": "https://dc.lft.to/lastmile_qr_scan"}, "bike_id": "d55fa902a0f6c4d1fd6c1c4c1e63121f", "lat": 38.918273666666664, "name": "d55fa902a0f6c4d1fd6c1c4c1e63121f", "lon": -77.02418566666667, "fusion_lon": 0.0}, {"is_reserved": 0, "type": "electric_scooter", "fusion_lat": 0.0, "is_disabled": 0, "rental_uris": {"ios": "https://dc.lft.to/lastmile_qr_scan", "android": "https://dc.lft.to/lastmile_qr_scan"}, "bike_id": "84cb02fe0ef82038d997f7fd302b2a79", "lat": 38.919374166666664, "name": "84cb02fe0ef82038d997f7fd302b2a79", "lon": -77.03205766666666, "fusion_lon": 0.0}, {"is_reserved": 0, "type": "electric_scooter", "fusion_lat": 0.0, "is_disabled": 0, "rental_uris": {"ios": "https://dc.lft.to/lastmile_qr_scan", "android": "https://dc.lft.to/lastmile_qr_scan"}, "bike_id": "3ddb512af733130074f9d6f48872813b", "lat": 38.90484816666667, "name": "3ddb512af733130074f9d6f48872813b", "lon": -77.03555566666667, "fusion_lon": 0.0}, {"is_reserved": 0, "type": "electric_scooter", "fusion_lat": 0.0, "is_disabled": 0, "rental_uris": {"ios": "https://dc.lft.to/lastmile_qr_scan", "android": "https://dc.lft.to/lastmile_qr_scan"}, "bike_id": "2d791d0c56821a08815dcf5b4074b8be", "lat": 38.9360215, "name": "2d791d0c56821a08815dcf5b4074b8be", "lon": -77.05590983333333, "fusion_lon": 0.0}, {"is_reserved": 0, "type": "electric_scooter", "fusion_lat": 0.0, "is_disabled": 0, "rental_uris": {"ios": "https://dc.lft.to/lastmile_qr_scan", "android": "https://dc.lft.to/lastmile_qr_scan"}, "bike_id": "fbfcaf4dcad1c64eb11f039e93e6a47e", "lat": 38.9183605, "name": "fbfcaf4dcad1c64eb11f039e93e6a47e", "lon": -77.02706016666667, "fusion_lon": 0.0}, {"is_reserved": 0, "type": "electric_bike", "fusion_lat": 0.0, "is_disabled": 0, "rental_uris": {"ios": "https://dc.lft.to/lastmile_qr_scan", "android": "https://dc.lft.to/lastmile_qr_scan"}, "bike_id": "446f5737de0a25e1d906264af0ed6c85", "lat": 38.8773355, "name": "446f5737de0a25e1d906264af0ed6c85", "lon": -77.118483, "fusion_lon": 0.0}, {"is_reserved": 0, "type": "electric_scooter", "fusion_lat": 0.0, "is_disabled": 0, "rental_uris": {"ios": "https://dc.lft.to/lastmile_qr_scan", "android": "https://dc.lft.to/lastmile_qr_scan"}, "bike_id": "ae11000ec8fcb0739022164bc41dff31", "lat": 38.921528, "name": "ae11000ec8fcb0739022164bc41dff31", "lon": -77.03507716666667, "fusion_lon": 0.0}, {"is_reserved": 0, "type": "electric_scooter", "fusion_lat": 0.0, "is_disabled": 0, "rental_uris": {"ios": "https://dc.lft.to/lastmile_qr_scan", "android": "https://dc.lft.to/lastmile_qr_scan"}, "bike_id": "11308c46f87d4391da51448f4b4f8639", "lat": 38.89746733333333, "name": "11308c46f87d4391da51448f4b4f8639", "lon": -77.02813216666667, "fusion_lon": 0.0}, {"is_reserved": 0, "type": "electric_scooter", "fusion_lat": 0.0, "is_disabled": 0, "rental_uris": {"ios": "https://dc.lft.to/lastmile_qr_scan", "android": "https://dc.lft.to/lastmile_qr_scan"}, "bike_id": "b9afd84d72dbca9a292746095df38cf4", "lat": 38.902447333333335, "name": "b9afd84d72dbca9a292746095df38cf4", "lon": -77.02008116666667, "fusion_lon": 0.0}, {"is_reserved": 0, "type": "electric_scooter", "fusion_lat": 0.0, "is_disabled": 0, "rental_uris": {"ios": "https://dc.lft.to/lastmile_qr_scan", "android": "https://dc.lft.to/lastmile_qr_scan"}, "bike_id": "810406389f46ab123067487d893e3ade", "lat": 38.901180833333335, "name": "810406389f46ab123067487d893e3ade", "lon": -77.03445133333334, "fusion_lon": 0.0}, {"is_reserved": 0, "type": "electric_scooter", "fusion_lat": 0.0, "is_disabled": 0, "rental_uris": {"ios": "https://dc.lft.to/lastmile_qr_scan", "android": "https://dc.lft.to/lastmile_qr_scan"}, "bike_id": "08c16b1a425fb0b5abe3e0f718546d05", "lat": 38.901359666666664, "name": "08c16b1a425fb0b5abe3e0f718546d05", "lon": -77.01816383333333, "fusion_lon": 0.0}, {"is_reserved": 0, "type": "electric_bike", "fusion_lat": 0.0, "is_disabled": 0, "rental_uris": {"ios": "https://dc.lft.to/lastmile_qr_scan", "android": "https://dc.lft.to/lastmile_qr_scan"}, "bike_id": "2c0dc854c97c23c0170768bc28fe52ab", "lat": 38.9069465, "name": "2c0dc854c97c23c0170768bc28fe52ab", "lon": -76.95250566666667, "fusion_lon": 0.0}, {"is_reserved": 0, "type": "electric_scooter", "fusion_lat": 0.0, "is_disabled": 0, "rental_uris": {"ios": "https://dc.lft.to/lastmile_qr_scan", "android": "https://dc.lft.to/lastmile_qr_scan"}, "bike_id": "2b281a5c5071144b036a43e2004adfa8", "lat": 38.9661895, "name": "2b281a5c5071144b036a43e2004adfa8", "lon": -77.02002183333333, "fusion_lon": 0.0}, {"is_reserved": 0, "type": "electric_scooter", "fusion_lat": 0.0, "is_disabled": 0, "rental_uris": {"ios": "https://dc.lft.to/lastmile_qr_scan", "android": "https://dc.lft.to/lastmile_qr_scan"}, "bike_id": "46e6b443e4c871fc3d6e6e2bf4146e2a", "lat": 38.917366, "name": "46e6b443e4c871fc3d6e6e2bf4146e2a", "lon": -77.0360995, "fusion_lon": 0.0}, {"is_reserved": 0, "type": "electric_scooter", "fusion_lat": 0.0, "is_disabled": 0, "rental_uris": {"ios": "https://dc.lft.to/lastmile_qr_scan", "android": "https://dc.lft.to/lastmile_qr_scan"}, "bike_id": "e6bd71902374433c49bbdda057ba3925", "lat": 38.89220516666666, "name": "e6bd71902374433c49bbdda057ba3925", "lon": -77.04642133333333, "fusion_lon": 0.0}, {"is_reserved": 0, "type": "electric_bike", "fusion_lat": 0.0, "is_disabled": 0, "rental_uris": {"ios": "https://dc.lft.to/lastmile_qr_scan", "android": "https://dc.lft.to/lastmile_qr_scan"}, "bike_id": "1daca8af8854445a3fc3eefea49de407", "lat": 38.8655595, "name": "1daca8af8854445a3fc3eefea49de407", "lon": -76.94158966666667, "fusion_lon": 0.0}, {"is_reserved": 0, "type": "electric_scooter", "fusion_lat": 0.0, "is_disabled": 0, "rental_uris": {"ios": "https://dc.lft.to/lastmile_qr_scan", "android": "https://dc.lft.to/lastmile_qr_scan"}, "bike_id": "cfd82905ecff4d2a67d4fd449aa78322", "lat": 38.912485333333336, "name": "cfd82905ecff4d2a67d4fd449aa78322", "lon": -76.98671666666667, "fusion_lon": 0.0}, {"is_reserved": 0, "type": "electric_scooter", "fusion_lat": 0.0, "is_disabled": 0, "rental_uris": {"ios": "https://dc.lft.to/lastmile_qr_scan", "android": "https://dc.lft.to/lastmile_qr_scan"}, "bike_id": "d1e928e953cf2e54158b075d7b634265", "lat": 38.9107455, "name": "d1e928e953cf2e54158b075d7b634265", "lon": -77.01608883333333, "fusion_lon": 0.0}, {"is_reserved": 0, "type": "electric_scooter", "fusion_lat": 0.0, "is_disabled": 0, "rental_uris": {"ios": "https://dc.lft.to/lastmile_qr_scan", "android": "https://dc.lft.to/lastmile_qr_scan"}, "bike_id": "157bc7c871c8ff40fe343fd15bfccb16", "lat": 38.897768666666664, "name": "157bc7c871c8ff40fe343fd15bfccb16", "lon": -77.04790466666667, "fusion_lon": 0.0}, {"is_reserved": 0, "type": "electric_scooter", "fusion_lat": 0.0, "is_disabled": 0, "rental_uris": {"ios": "https://dc.lft.to/lastmile_qr_scan", "android": "https://dc.lft.to/lastmile_qr_scan"}, "bike_id": "645f71aa4b1b213e2c4d52d9aff91bc9", "lat": 38.918243, "name": "645f71aa4b1b213e2c4d52d9aff91bc9", "lon": -77.02416583333333, "fusion_lon": 0.0}, {"is_reserved": 0, "type": "electric_scooter", "fusion_lat": 0.0, "is_disabled": 0, "rental_uris": {"ios": "https://dc.lft.to/lastmile_qr_scan", "android": "https://dc.lft.to/lastmile_qr_scan"}, "bike_id": "c48bb3c9b662900235ff8743b82d3260", "lat": 38.92181183333334, "name": "c48bb3c9b662900235ff8743b82d3260", "lon": -77.0459795, "fusion_lon": 0.0}, {"is_reserved": 0, "type": "electric_bike", "fusion_lat": 0.0, "is_disabled": 0, "rental_uris": {"ios": "https://dc.lft.to/lastmile_qr_scan", "android": "https://dc.lft.to/lastmile_qr_scan"}, "bike_id": "770dca1bac3e8b715788be94863e485f", "lat": 38.81328, "name": "770dca1bac3e8b715788be94863e485f", "lon": -77.05093333333333, "fusion_lon": 0.0}, {"is_reserved": 0, "type": "electric_scooter", "fusion_lat": 0.0, "is_disabled": 0, "rental_uris": {"ios": "https://dc.lft.to/lastmile_qr_scan", "android": "https://dc.lft.to/lastmile_qr_scan"}, "bike_id": "14bf45c32628833771b2bcd89f48a34f", "lat": 38.901440666666666, "name": "14bf45c32628833771b2bcd89f48a34f", "lon": -76.931575, "fusion_lon": 0.0}, {"is_reserved": 0, "type": "electric_scooter", "fusion_lat": 0.0, "is_disabled": 0, "rental_uris": {"ios": "https://dc.lft.to/lastmile_qr_scan", "android": "https://dc.lft.to/lastmile_qr_scan"}, "bike_id": "e7ed41eb75fef58c31824c01db5bf87f", "lat": 38.92179633333333, "name": "e7ed41eb75fef58c31824c01db5bf87f", "lon": -77.03836466666667, "fusion_lon": 0.0}, {"is_reserved": 0, "type": "electric_scooter", "fusion_lat": 0.0, "is_disabled": 0, "rental_uris": {"ios": "https://dc.lft.to/lastmile_qr_scan", "android": "https://dc.lft.to/lastmile_qr_scan"}, "bike_id": "e8d993eccf0206b0d35b3030b552db16", "lat": 38.88362133333333, "name": "e8d993eccf0206b0d35b3030b552db16", "lon": -76.957676, "fusion_lon": 0.0}, {"is_reserved": 0, "type": "electric_scooter", "fusion_lat": 0.0, "is_disabled": 0, "rental_uris": {"ios": "https://dc.lft.to/lastmile_qr_scan", "android": "https://dc.lft.to/lastmile_qr_scan"}, "bike_id": "97ffc1d2bac3efeb7eaa8f3283f26abb", "lat": 38.90273166666667, "name": "97ffc1d2bac3efeb7eaa8f3283f26abb", "lon": -77.02012416666666, "fusion_lon": 0.0}, {"is_reserved": 0, "type": "electric_scooter", "fusion_lat": 0.0, "is_disabled": 0, "rental_uris": {"ios": "https://dc.lft.to/lastmile_qr_scan", "android": "https://dc.lft.to/lastmile_qr_scan"}, "bike_id": "8f44a2fbd3bda103fcf4a7c20e5555d9", "lat": 38.91945966666667, "name": "8f44a2fbd3bda103fcf4a7c20e5555d9", "lon": -77.01393, "fusion_lon": 0.0}, {"is_reserved": 0, "type": "electric_bike", "fusion_lat": 0.0, "is_disabled": 0, "rental_uris": {"ios": "https://dc.lft.to/lastmile_qr_scan", "android": "https://dc.lft.to/lastmile_qr_scan"}, "bike_id": "214624cc245ce45193d528c627a259c1", "lat": 38.860112, "name": "214624cc245ce45193d528c627a259c1", "lon": -77.06529366666666, "fusion_lon": 0.0}, {"is_reserved": 0, "type": "electric_scooter", "fusion_lat": 0.0, "is_disabled": 0, "rental_uris": {"ios": "https://dc.lft.to/lastmile_qr_scan", "android": "https://dc.lft.to/lastmile_qr_scan"}, "bike_id": "8dd320dcbb1866e0bcb608e6b35822cf", "lat": 38.938466, "name": "8dd320dcbb1866e0bcb608e6b35822cf", "lon": -77.01951433333333, "fusion_lon": 0.0}, {"is_reserved": 0, "type": "electric_scooter", "fusion_lat": 0.0, "is_disabled": 0, "rental_uris": {"ios": "https://dc.lft.to/lastmile_qr_scan", "android": "https://dc.lft.to/lastmile_qr_scan"}, "bike_id": "4aa8a668d9bc2245d4ae2cb99c7a706d", "lat": 38.89727466666667, "name": "4aa8a668d9bc2245d4ae2cb99c7a706d", "lon": -77.01914483333333, "fusion_lon": 0.0}, {"is_reserved": 0, "type": "electric_scooter", "fusion_lat": 0.0, "is_disabled": 0, "rental_uris": {"ios": "https://dc.lft.to/lastmile_qr_scan", "android": "https://dc.lft.to/lastmile_qr_scan"}, "bike_id": "872505f558a3674c98b4fb371a0d81ca", "lat": 38.899659, "name": "872505f558a3674c98b4fb371a0d81ca", "lon": -77.01999266666667, "fusion_lon": 0.0}, {"is_reserved": 0, "type": "electric_scooter", "fusion_lat": 0.0, "is_disabled": 0, "rental_uris": {"ios": "https://dc.lft.to/lastmile_qr_scan", "android": "https://dc.lft.to/lastmile_qr_scan"}, "bike_id": "720f015035581b8c0fad3eba1c5a340b", "lat": 38.89670433333333, "name": "720f015035581b8c0fad3eba1c5a340b", "lon": -76.93211766666667, "fusion_lon": 0.0}, {"is_reserved": 0, "type": "electric_scooter", "fusion_lat": 0.0, "is_disabled": 0, "rental_uris": {"ios": "https://dc.lft.to/lastmile_qr_scan", "android": "https://dc.lft.to/lastmile_qr_scan"}, "bike_id": "fcb869fb167bef840ee935eadf98edb3", "lat": 38.872129666666666, "name": "fcb869fb167bef840ee935eadf98edb3", "lon": -76.97838916666667, "fusion_lon": 0.0}, {"is_reserved": 0, "type": "electric_scooter", "fusion_lat": 0.0, "is_disabled": 0, "rental_uris": {"ios": "https://dc.lft.to/lastmile_qr_scan", "android": "https://dc.lft.to/lastmile_qr_scan"}, "bike_id": "aa030f83194c7b1954c3266749f3cc88", "lat": 38.90510333333334, "name": "aa030f83194c7b1954c3266749f3cc88", "lon": -76.9519325, "fusion_lon": 0.0}, {"is_reserved": 0, "type": "electric_scooter", "fusion_lat": 0.0, "is_disabled": 0, "rental_uris": {"ios": "https://dc.lft.to/lastmile_qr_scan", "android": "https://dc.lft.to/lastmile_qr_scan"}, "bike_id": "81e8d9e584d256eab27d7d01c4bd43f7", "lat": 38.88309616666667, "name": "81e8d9e584d256eab27d7d01c4bd43f7", "lon": -76.9936995, "fusion_lon": 0.0}, {"is_reserved": 0, "type": "electric_scooter", "fusion_lat": 0.0, "is_disabled": 0, "rental_uris": {"ios": "https://dc.lft.to/lastmile_qr_scan", "android": "https://dc.lft.to/lastmile_qr_scan"}, "bike_id": "baddcf3f792901d4f0b51a88b04fe9a3", "lat": 38.89060883333333, "name": "baddcf3f792901d4f0b51a88b04fe9a3", "lon": -76.99195966666667, "fusion_lon": 0.0}, {"is_reserved": 0, "type": "electric_scooter", "fusion_lat": 0.0, "is_disabled": 0, "rental_uris": {"ios": "https://dc.lft.to/lastmile_qr_scan", "android": "https://dc.lft.to/lastmile_qr_scan"}, "bike_id": "2c6970019fb531bf71534930676eb22b", "lat": 38.90182266666667, "name": "2c6970019fb531bf71534930676eb22b", "lon": -76.97669833333333, "fusion_lon": 0.0}, {"is_reserved": 0, "type": "electric_scooter", "fusion_lat": 0.0, "is_disabled": 0, "rental_uris": {"ios": "https://dc.lft.to/lastmile_qr_scan", "android": "https://dc.lft.to/lastmile_qr_scan"}, "bike_id": "68cceb9c78a6c2fcc4352384ac473729", "lat": 38.92418283333333, "name": "68cceb9c78a6c2fcc4352384ac473729", "lon": -77.05755216666667, "fusion_lon": 0.0}, {"is_reserved": 0, "type": "electric_scooter", "fusion_lat": 0.0, "is_disabled": 0, "rental_uris": {"ios": "https://dc.lft.to/lastmile_qr_scan", "android": "https://dc.lft.to/lastmile_qr_scan"}, "bike_id": "e1a426feeda51069e82a551356e3dfbf", "lat": 38.92607783333333, "name": "e1a426feeda51069e82a551356e3dfbf", "lon": -77.02413216666666, "fusion_lon": 0.0}, {"is_reserved": 0, "type": "electric_scooter", "fusion_lat": 0.0, "is_disabled": 0, "rental_uris": {"ios": "https://dc.lft.to/lastmile_qr_scan", "android": "https://dc.lft.to/lastmile_qr_scan"}, "bike_id": "87dedd12f7303dae05e3ab2618d9f3e0", "lat": 38.88713666666666, "name": "87dedd12f7303dae05e3ab2618d9f3e0", "lon": -76.9838, "fusion_lon": 0.0}, {"is_reserved": 0, "type": "electric_scooter", "fusion_lat": 0.0, "is_disabled": 0, "rental_uris": {"ios": "https://dc.lft.to/lastmile_qr_scan", "android": "https://dc.lft.to/lastmile_qr_scan"}, "bike_id": "79c07309b4f3375f40466914c77e2392", "lat": 38.876935833333334, "name": "79c07309b4f3375f40466914c77e2392", "lon": -76.99627533333333, "fusion_lon": 0.0}, {"is_reserved": 0, "type": "electric_scooter", "fusion_lat": 0.0, "is_disabled": 0, "rental_uris": {"ios": "https://dc.lft.to/lastmile_qr_scan", "android": "https://dc.lft.to/lastmile_qr_scan"}, "bike_id": "070b1d7166de69b7737787e55c198e92", "lat": 38.916756666666664, "name": "070b1d7166de69b7737787e55c198e92", "lon": -77.01579733333334, "fusion_lon": 0.0}, {"is_reserved": 0, "type": "electric_bike", "fusion_lat": 0.0, "is_disabled": 0, "rental_uris": {"ios": "https://dc.lft.to/lastmile_qr_scan", "android": "https://dc.lft.to/lastmile_qr_scan"}, "bike_id": "166d473964eba7dd2126260f6a7ff9f8", "lat": 38.84619333333333, "name": "166d473964eba7dd2126260f6a7ff9f8", "lon": -76.9784055, "fusion_lon": 0.0}, {"is_reserved": 0, "type": "electric_scooter", "fusion_lat": 0.0, "is_disabled": 0, "rental_uris": {"ios": "https://dc.lft.to/lastmile_qr_scan", "android": "https://dc.lft.to/lastmile_qr_scan"}, "bike_id": "4dc3f9e6756795e123967182810cb84a", "lat": 38.932326, "name": "4dc3f9e6756795e123967182810cb84a", "lon": -77.02962633333334, "fusion_lon": 0.0}, {"is_reserved": 0, "type": "electric_scooter", "fusion_lat": 0.0, "is_disabled": 0, "rental_uris": {"ios": "https://dc.lft.to/lastmile_qr_scan", "android": "https://dc.lft.to/lastmile_qr_scan"}, "bike_id": "1b467c0c087055118551d32bbf6d0db5", "lat": 38.924758833333335, "name": "1b467c0c087055118551d32bbf6d0db5", "lon": -77.022215, "fusion_lon": 0.0}, {"is_reserved": 0, "type": "electric_scooter", "fusion_lat": 0.0, "is_disabled": 0, "rental_uris": {"ios": "https://dc.lft.to/lastmile_qr_scan", "android": "https://dc.lft.to/lastmile_qr_scan"}, "bike_id": "9578726c99f6926b5aac1fa6994f549e", "lat": 38.905060166666665, "name": "9578726c99f6926b5aac1fa6994f549e", "lon": -76.9918415, "fusion_lon": 0.0}, {"is_reserved": 0, "type": "electric_scooter", "fusion_lat": 0.0, "is_disabled": 0, "rental_uris": {"ios": "https://dc.lft.to/lastmile_qr_scan", "android": "https://dc.lft.to/lastmile_qr_scan"}, "bike_id": "e7150bd2d43e681eeb7b0d29edb8cba1", "lat": 38.925878166666664, "name": "e7150bd2d43e681eeb7b0d29edb8cba1", "lon": -77.024941, "fusion_lon": 0.0}, {"is_reserved": 0, "type": "electric_scooter", "fusion_lat": 0.0, "is_disabled": 0, "rental_uris": {"ios": "https://dc.lft.to/lastmile_qr_scan", "android": "https://dc.lft.to/lastmile_qr_scan"}, "bike_id": "9bd085e6222a12c757f7406f083705a0", "lat": 38.904055166666666, "name": "9bd085e6222a12c757f7406f083705a0", "lon": -77.0403585, "fusion_lon": 0.0}, {"is_reserved": 0, "type": "electric_scooter", "fusion_lat": 0.0, "is_disabled": 0, "rental_uris": {"ios": "https://dc.lft.to/lastmile_qr_scan", "android": "https://dc.lft.to/lastmile_qr_scan"}, "bike_id": "17f1309521375e9af362a1dd2dd7735b", "lat": 38.8857515, "name": "17f1309521375e9af362a1dd2dd7735b", "lon": -77.01208166666666, "fusion_lon": 0.0}, {"is_reserved": 0, "type": "electric_scooter", "fusion_lat": 0.0, "is_disabled": 0, "rental_uris": {"ios": "https://dc.lft.to/lastmile_qr_scan", "android": "https://dc.lft.to/lastmile_qr_scan"}, "bike_id": "58552d0d0bfa4f1d113621d4729b3d23", "lat": 38.908143333333335, "name": "58552d0d0bfa4f1d113621d4729b3d23", "lon": -77.08423283333333, "fusion_lon": 0.0}, {"is_reserved": 0, "type": "electric_scooter", "fusion_lat": 0.0, "is_disabled": 0, "rental_uris": {"ios": "https://dc.lft.to/lastmile_qr_scan", "android": "https://dc.lft.to/lastmile_qr_scan"}, "bike_id": "02fdaa5330a2255a52e7d51833f01341", "lat": 38.91562183333333, "name": "02fdaa5330a2255a52e7d51833f01341", "lon": -77.0325605, "fusion_lon": 0.0}, {"is_reserved": 0, "type": "electric_scooter", "fusion_lat": 0.0, "is_disabled": 0, "rental_uris": {"ios": "https://dc.lft.to/lastmile_qr_scan", "android": "https://dc.lft.to/lastmile_qr_scan"}, "bike_id": "7c86acc23c7abc7dfecf11a416db052e", "lat": 38.9351065, "name": "7c86acc23c7abc7dfecf11a416db052e", "lon": -77.0367505, "fusion_lon": 0.0}, {"is_reserved": 0, "type": "electric_scooter", "fusion_lat": 0.0, "is_disabled": 0, "rental_uris": {"ios": "https://dc.lft.to/lastmile_qr_scan", "android": "https://dc.lft.to/lastmile_qr_scan"}, "bike_id": "fe1aac29393f978684be5aa72a591717", "lat": 38.91552883333333, "name": "fe1aac29393f978684be5aa72a591717", "lon": -76.98508833333334, "fusion_lon": 0.0}, {"is_reserved": 0, "type": "electric_scooter", "fusion_lat": 0.0, "is_disabled": 0, "rental_uris": {"ios": "https://dc.lft.to/lastmile_qr_scan", "android": "https://dc.lft.to/lastmile_qr_scan"}, "bike_id": "42d3f603fa8ef8029d97b059b28bfd7e", "lat": 38.923520333333336, "name": "42d3f603fa8ef8029d97b059b28bfd7e", "lon": -77.04339016666667, "fusion_lon": 0.0}, {"is_reserved": 0, "type": "electric_scooter", "fusion_lat": 0.0, "is_disabled": 0, "rental_uris": {"ios": "https://dc.lft.to/lastmile_qr_scan", "android": "https://dc.lft.to/lastmile_qr_scan"}, "bike_id": "c67035cdf8138dc0fe515bc6ec062ce7", "lat": 38.8871315, "name": "c67035cdf8138dc0fe515bc6ec062ce7", "lon": -76.98344783333333, "fusion_lon": 0.0}, {"is_reserved": 0, "type": "electric_scooter", "fusion_lat": 0.0, "is_disabled": 0, "rental_uris": {"ios": "https://dc.lft.to/lastmile_qr_scan", "android": "https://dc.lft.to/lastmile_qr_scan"}, "bike_id": "8a47ae0c8e4ab28fa19f763df0ef0256", "lat": 38.907923, "name": "8a47ae0c8e4ab28fa19f763df0ef0256", "lon": -77.002025, "fusion_lon": 0.0}, {"is_reserved": 0, "type": "electric_bike", "fusion_lat": 0.0, "is_disabled": 0, "rental_uris": {"ios": "https://dc.lft.to/lastmile_qr_scan", "android": "https://dc.lft.to/lastmile_qr_scan"}, "bike_id": "fa389e4373017394004b02c61fa0353b", "lat": 39.0229855, "name": "fa389e4373017394004b02c61fa0353b", "lon": -77.02103416666667, "fusion_lon": 0.0}, {"is_reserved": 0, "type": "electric_bike", "fusion_lat": 0.0, "is_disabled": 0, "rental_uris": {"ios": "https://dc.lft.to/lastmile_qr_scan", "android": "https://dc.lft.to/lastmile_qr_scan"}, "bike_id": "0d1ceca01f10f4fc7cebe7c4ea050efa", "lat": 38.974765166666664, "name": "0d1ceca01f10f4fc7cebe7c4ea050efa", "lon": -76.98672516666667, "fusion_lon": 0.0}, {"is_reserved": 0, "type": "electric_scooter", "fusion_lat": 0.0, "is_disabled": 0, "rental_uris": {"ios": "https://dc.lft.to/lastmile_qr_scan", "android": "https://dc.lft.to/lastmile_qr_scan"}, "bike_id": "08f7a08d0c460ce8cc687a26122a3cfa", "lat": 38.912192, "name": "08f7a08d0c460ce8cc687a26122a3cfa", "lon": -77.03838566666667, "fusion_lon": 0.0}, {"is_reserved": 0, "type": "electric_scooter", "fusion_lat": 0.0, "is_disabled": 0, "rental_uris": {"ios": "https://dc.lft.to/lastmile_qr_scan", "android": "https://dc.lft.to/lastmile_qr_scan"}, "bike_id": "41a84aeef879ffd9f00b11742edd6efa", "lat": 38.8996015, "name": "41a84aeef879ffd9f00b11742edd6efa", "lon": -77.047506, "fusion_lon": 0.0}, {"is_reserved": 0, "type": "electric_scooter", "fusion_lat": 0.0, "is_disabled": 0, "rental_uris": {"ios": "https://dc.lft.to/lastmile_qr_scan", "android": "https://dc.lft.to/lastmile_qr_scan"}, "bike_id": "ccbdf6aa79e16bf791f6113c47dd1d19", "lat": 38.883693666666666, "name": "ccbdf6aa79e16bf791f6113c47dd1d19", "lon": -76.99517166666666, "fusion_lon": 0.0}, {"is_reserved": 0, "type": "electric_bike", "fusion_lat": 0.0, "is_disabled": 0, "rental_uris": {"ios": "https://dc.lft.to/lastmile_qr_scan", "android": "https://dc.lft.to/lastmile_qr_scan"}, "bike_id": "0e7f67bf3e18669efec17e831f4ba7b2", "lat": 38.8942505, "name": "0e7f67bf3e18669efec17e831f4ba7b2", "lon": -77.09446583333333, "fusion_lon": 0.0}, {"is_reserved": 0, "type": "electric_scooter", "fusion_lat": 0.0, "is_disabled": 0, "rental_uris": {"ios": "https://dc.lft.to/lastmile_qr_scan", "android": "https://dc.lft.to/lastmile_qr_scan"}, "bike_id": "5ade4bcd0beaa1cc113100e601063cce", "lat": 38.906601333333334, "name": "5ade4bcd0beaa1cc113100e601063cce", "lon": -77.01620316666667, "fusion_lon": 0.0}, {"is_reserved": 0, "type": "electric_bike", "fusion_lat": 0.0, "is_disabled": 0, "rental_uris": {"ios": "https://dc.lft.to/lastmile_qr_scan", "android": "https://dc.lft.to/lastmile_qr_scan"}, "bike_id": "f21197e96dd0a18ec62999c4614c00cc", "lat": 38.98241466666666, "name": "f21197e96dd0a18ec62999c4614c00cc", "lon": -77.095512, "fusion_lon": 0.0}, {"is_reserved": 0, "type": "electric_bike", "fusion_lat": 0.0, "is_disabled": 0, "rental_uris": {"ios": "https://dc.lft.to/lastmile_qr_scan", "android": "https://dc.lft.to/lastmile_qr_scan"}, "bike_id": "209659c343d9a582b5614cab7929ee0e", "lat": 38.84091983333333, "name": "209659c343d9a582b5614cab7929ee0e", "lon": -76.97029316666666, "fusion_lon": 0.0}, {"is_reserved": 0, "type": "electric_scooter", "fusion_lat": 0.0, "is_disabled": 0, "rental_uris": {"ios": "https://dc.lft.to/lastmile_qr_scan", "android": "https://dc.lft.to/lastmile_qr_scan"}, "bike_id": "b7e8aa5ede4b33c517f07671743cd498", "lat": 38.89842566666667, "name": "b7e8aa5ede4b33c517f07671743cd498", "lon": -77.01883266666667, "fusion_lon": 0.0}, {"is_reserved": 0, "type": "electric_scooter", "fusion_lat": 0.0, "is_disabled": 0, "rental_uris": {"ios": "https://dc.lft.to/lastmile_qr_scan", "android": "https://dc.lft.to/lastmile_qr_scan"}, "bike_id": "f112727af1f8cab34ec79cbc17635ab3", "lat": 38.9361495, "name": "f112727af1f8cab34ec79cbc17635ab3", "lon": -77.05590483333333, "fusion_lon": 0.0}, {"is_reserved": 0, "type": "electric_scooter", "fusion_lat": 0.0, "is_disabled": 0, "rental_uris": {"ios": "https://dc.lft.to/lastmile_qr_scan", "android": "https://dc.lft.to/lastmile_qr_scan"}, "bike_id": "877f45fceb92d94cf3d88592cc0e486c", "lat": 38.92137783333333, "name": "877f45fceb92d94cf3d88592cc0e486c", "lon": -77.04422816666667, "fusion_lon": 0.0}, {"is_reserved": 0, "type": "electric_scooter", "fusion_lat": 0.0, "is_disabled": 0, "rental_uris": {"ios": "https://dc.lft.to/lastmile_qr_scan", "android": "https://dc.lft.to/lastmile_qr_scan"}, "bike_id": "a9e6ce7632dafa747218c44905c7e5dd", "lat": 38.90363083333333, "name": "a9e6ce7632dafa747218c44905c7e5dd", "lon": -77.00748266666666, "fusion_lon": 0.0}, {"is_reserved": 0, "type": "electric_scooter", "fusion_lat": 0.0, "is_disabled": 0, "rental_uris": {"ios": "https://dc.lft.to/lastmile_qr_scan", "android": "https://dc.lft.to/lastmile_qr_scan"}, "bike_id": "b6e522ef1f8e4536b64af4453a368502", "lat": 38.903582166666666, "name": "b6e522ef1f8e4536b64af4453a368502", "lon": -77.06007133333334, "fusion_lon": 0.0}, {"is_reserved": 0, "type": "electric_scooter", "fusion_lat": 0.0, "is_disabled": 0, "rental_uris": {"ios": "https://dc.lft.to/lastmile_qr_scan", "android": "https://dc.lft.to/lastmile_qr_scan"}, "bike_id": "0a681bfd19dc3a7c08875f0d4255cbd4", "lat": 38.8993655, "name": "0a681bfd19dc3a7c08875f0d4255cbd4", "lon": -77.05399233333333, "fusion_lon": 0.0}, {"is_reserved": 0, "type": "electric_bike", "fusion_lat": 0.0, "is_disabled": 0, "rental_uris": {"ios": "https://dc.lft.to/lastmile_qr_scan", "android": "https://dc.lft.to/lastmile_qr_scan"}, "bike_id": "992f4f0b0c222889870c28e9fd0aa168", "lat": 38.838691, "name": "992f4f0b0c222889870c28e9fd0aa168", "lon": -76.99699383333333, "fusion_lon": 0.0}, {"is_reserved": 0, "type": "electric_bike", "fusion_lat": 0.0, "is_disabled": 0, "rental_uris": {"ios": "https://dc.lft.to/lastmile_qr_scan", "android": "https://dc.lft.to/lastmile_qr_scan"}, "bike_id": "a4133ef380be657090a353349e471e57", "lat": 38.9037345, "name": "a4133ef380be657090a353349e471e57", "lon": -76.93746816666666, "fusion_lon": 0.0}, {"is_reserved": 0, "type": "electric_scooter", "fusion_lat": 0.0, "is_disabled": 0, "rental_uris": {"ios": "https://dc.lft.to/lastmile_qr_scan", "android": "https://dc.lft.to/lastmile_qr_scan"}, "bike_id": "9225f73fabfe302258197e858935ec60", "lat": 38.8852945, "name": "9225f73fabfe302258197e858935ec60", "lon": -76.980581, "fusion_lon": 0.0}, {"is_reserved": 0, "type": "electric_scooter", "fusion_lat": 0.0, "is_disabled": 0, "rental_uris": {"ios": "https://dc.lft.to/lastmile_qr_scan", "android": "https://dc.lft.to/lastmile_qr_scan"}, "bike_id": "c93a13e0c2dcefece05f8ca442cb384a", "lat": 38.934832, "name": "c93a13e0c2dcefece05f8ca442cb384a", "lon": -77.03638933333333, "fusion_lon": 0.0}, {"is_reserved": 0, "type": "electric_scooter", "fusion_lat": 0.0, "is_disabled": 0, "rental_uris": {"ios": "https://dc.lft.to/lastmile_qr_scan", "android": "https://dc.lft.to/lastmile_qr_scan"}, "bike_id": "36775e5376998e213a5e6aec94e35f37", "lat": 38.9156245, "name": "36775e5376998e213a5e6aec94e35f37", "lon": -77.04090133333334, "fusion_lon": 0.0}, {"is_reserved": 0, "type": "electric_scooter", "fusion_lat": 0.0, "is_disabled": 0, "rental_uris": {"ios": "https://dc.lft.to/lastmile_qr_scan", "android": "https://dc.lft.to/lastmile_qr_scan"}, "bike_id": "db5ab41084d6df13750e36cb1ecd3171", "lat": 38.906443333333335, "name": "db5ab41084d6df13750e36cb1ecd3171", "lon": -77.018478, "fusion_lon": 0.0}, {"is_reserved": 0, "type": "electric_scooter", "fusion_lat": 0.0, "is_disabled": 0, "rental_uris": {"ios": "https://dc.lft.to/lastmile_qr_scan", "android": "https://dc.lft.to/lastmile_qr_scan"}, "bike_id": "af047d7ab027d6c277e8c1572889967c", "lat": 38.90333283333333, "name": "af047d7ab027d6c277e8c1572889967c", "lon": -77.02621616666667, "fusion_lon": 0.0}, {"is_reserved": 0, "type": "electric_scooter", "fusion_lat": 0.0, "is_disabled": 0, "rental_uris": {"ios": "https://dc.lft.to/lastmile_qr_scan", "android": "https://dc.lft.to/lastmile_qr_scan"}, "bike_id": "861c0e72fbe3bdad1877f29aca802769", "lat": 38.935680833333336, "name": "861c0e72fbe3bdad1877f29aca802769", "lon": -77.02853616666667, "fusion_lon": 0.0}, {"is_reserved": 0, "type": "electric_bike", "fusion_lat": 0.0, "is_disabled": 0, "rental_uris": {"ios": "https://dc.lft.to/lastmile_qr_scan", "android": "https://dc.lft.to/lastmile_qr_scan"}, "bike_id": "a425f95cc5a4e40a3c2c4555a985e4b4", "lat": 39.003829833333334, "name": "a425f95cc5a4e40a3c2c4555a985e4b4", "lon": -77.0128365, "fusion_lon": 0.0}, {"is_reserved": 0, "type": "electric_scooter", "fusion_lat": 0.0, "is_disabled": 0, "rental_uris": {"ios": "https://dc.lft.to/lastmile_qr_scan", "android": "https://dc.lft.to/lastmile_qr_scan"}, "bike_id": "ec609d20fb68b9ae2f0023dc9ac357a7", "lat": 38.89225783333333, "name": "ec609d20fb68b9ae2f0023dc9ac357a7", "lon": -77.0448715, "fusion_lon": 0.0}, {"is_reserved": 0, "type": "electric_scooter", "fusion_lat": 0.0, "is_disabled": 0, "rental_uris": {"ios": "https://dc.lft.to/lastmile_qr_scan", "android": "https://dc.lft.to/lastmile_qr_scan"}, "bike_id": "ac2aed794689229cb90a3f908d88855c", "lat": 38.898670333333335, "name": "ac2aed794689229cb90a3f908d88855c", "lon": -76.94635233333334, "fusion_lon": 0.0}, {"is_reserved": 0, "type": "electric_scooter", "fusion_lat": 0.0, "is_disabled": 0, "rental_uris": {"ios": "https://dc.lft.to/lastmile_qr_scan", "android": "https://dc.lft.to/lastmile_qr_scan"}, "bike_id": "5031809feb0334bf653a1b632e6cacaa", "lat": 38.896697333333336, "name": "5031809feb0334bf653a1b632e6cacaa", "lon": -77.05029416666666, "fusion_lon": 0.0}, {"is_reserved": 0, "type": "electric_scooter", "fusion_lat": 0.0, "is_disabled": 0, "rental_uris": {"ios": "https://dc.lft.to/lastmile_qr_scan", "android": "https://dc.lft.to/lastmile_qr_scan"}, "bike_id": "45de3b6ad83f31bbc7198fb6cb0ba1ae", "lat": 38.870662833333334, "name": "45de3b6ad83f31bbc7198fb6cb0ba1ae", "lon": -76.97943166666667, "fusion_lon": 0.0}, {"is_reserved": 0, "type": "electric_scooter", "fusion_lat": 0.0, "is_disabled": 0, "rental_uris": {"ios": "https://dc.lft.to/lastmile_qr_scan", "android": "https://dc.lft.to/lastmile_qr_scan"}, "bike_id": "e3331a86188104e3fa4fe83e39d1df0a", "lat": 38.917083166666664, "name": "e3331a86188104e3fa4fe83e39d1df0a", "lon": -77.02767266666666, "fusion_lon": 0.0}, {"is_reserved": 0, "type": "electric_scooter", "fusion_lat": 0.0, "is_disabled": 0, "rental_uris": {"ios": "https://dc.lft.to/lastmile_qr_scan", "android": "https://dc.lft.to/lastmile_qr_scan"}, "bike_id": "06871314509650051ff3c75532fd463a", "lat": 38.89749833333333, "name": "06871314509650051ff3c75532fd463a", "lon": -77.04813766666666, "fusion_lon": 0.0}, {"is_reserved": 0, "type": "electric_scooter", "fusion_lat": 0.0, "is_disabled": 0, "rental_uris": {"ios": "https://dc.lft.to/lastmile_qr_scan", "android": "https://dc.lft.to/lastmile_qr_scan"}, "bike_id": "f1d2efb2079525dbe3e982156f445261", "lat": 38.907494166666666, "name": "f1d2efb2079525dbe3e982156f445261", "lon": -77.04474516666667, "fusion_lon": 0.0}, {"is_reserved": 0, "type": "electric_bike", "fusion_lat": 0.0, "is_disabled": 0, "rental_uris": {"ios": "https://dc.lft.to/lastmile_qr_scan", "android": "https://dc.lft.to/lastmile_qr_scan"}, "bike_id": "146e1c35c6fa1278175e3480ff5fa1b7", "lat": 38.830654, "name": "146e1c35c6fa1278175e3480ff5fa1b7", "lon": -77.040801, "fusion_lon": 0.0}, {"is_reserved": 0, "type": "electric_scooter", "fusion_lat": 0.0, "is_disabled": 0, "rental_uris": {"ios": "https://dc.lft.to/lastmile_qr_scan", "android": "https://dc.lft.to/lastmile_qr_scan"}, "bike_id": "5cb04e436d0d74c951a6ea7406434863", "lat": 38.93530883333333, "name": "5cb04e436d0d74c951a6ea7406434863", "lon": -77.03477566666666, "fusion_lon": 0.0}, {"is_reserved": 0, "type": "electric_scooter", "fusion_lat": 0.0, "is_disabled": 0, "rental_uris": {"ios": "https://dc.lft.to/lastmile_qr_scan", "android": "https://dc.lft.to/lastmile_qr_scan"}, "bike_id": "d44968d7e1c768eb85c7f698d79d4cdc", "lat": 38.89832366666667, "name": "d44968d7e1c768eb85c7f698d79d4cdc", "lon": -76.9463385, "fusion_lon": 0.0}, {"is_reserved": 0, "type": "electric_scooter", "fusion_lat": 0.0, "is_disabled": 0, "rental_uris": {"ios": "https://dc.lft.to/lastmile_qr_scan", "android": "https://dc.lft.to/lastmile_qr_scan"}, "bike_id": "dfde9273a24a7812fc79eb9baccc6c2e", "lat": 38.90626183333333, "name": "dfde9273a24a7812fc79eb9baccc6c2e", "lon": -77.02970916666666, "fusion_lon": 0.0}, {"is_reserved": 0, "type": "electric_scooter", "fusion_lat": 0.0, "is_disabled": 0, "rental_uris": {"ios": "https://dc.lft.to/lastmile_qr_scan", "android": "https://dc.lft.to/lastmile_qr_scan"}, "bike_id": "11a904b226f1e11152e99e22662182b5", "lat": 38.900403, "name": "11a904b226f1e11152e99e22662182b5", "lon": -77.03293166666667, "fusion_lon": 0.0}, {"is_reserved": 0, "type": "electric_scooter", "fusion_lat": 0.0, "is_disabled": 0, "rental_uris": {"ios": "https://dc.lft.to/lastmile_qr_scan", "android": "https://dc.lft.to/lastmile_qr_scan"}, "bike_id": "03176b899f73a726ad2f8d515d498808", "lat": 38.90470116666667, "name": "03176b899f73a726ad2f8d515d498808", "lon": -77.017252, "fusion_lon": 0.0}, {"is_reserved": 0, "type": "electric_scooter", "fusion_lat": 0.0, "is_disabled": 0, "rental_uris": {"ios": "https://dc.lft.to/lastmile_qr_scan", "android": "https://dc.lft.to/lastmile_qr_scan"}, "bike_id": "d3146a5ab4aad54baf13e0aee662b90f", "lat": 38.92053583333333, "name": "d3146a5ab4aad54baf13e0aee662b90f", "lon": -77.04041283333333, "fusion_lon": 0.0}, {"is_reserved": 0, "type": "electric_scooter", "fusion_lat": 0.0, "is_disabled": 0, "rental_uris": {"ios": "https://dc.lft.to/lastmile_qr_scan", "android": "https://dc.lft.to/lastmile_qr_scan"}, "bike_id": "e95948c92ea4116d91b171e1a592efa2", "lat": 38.936599666666666, "name": "e95948c92ea4116d91b171e1a592efa2", "lon": -77.06607716666667, "fusion_lon": 0.0}, {"is_reserved": 0, "type": "electric_scooter", "fusion_lat": 0.0, "is_disabled": 0, "rental_uris": {"ios": "https://dc.lft.to/lastmile_qr_scan", "android": "https://dc.lft.to/lastmile_qr_scan"}, "bike_id": "708581e0bb9e310cdbaa1016d5d2c030", "lat": 38.88711966666666, "name": "708581e0bb9e310cdbaa1016d5d2c030", "lon": -76.98383516666667, "fusion_lon": 0.0}, {"is_reserved": 0, "type": "electric_scooter", "fusion_lat": 0.0, "is_disabled": 0, "rental_uris": {"ios": "https://dc.lft.to/lastmile_qr_scan", "android": "https://dc.lft.to/lastmile_qr_scan"}, "bike_id": "32e13d6d7543a9ccc365ba147f4fa513", "lat": 38.906841666666665, "name": "32e13d6d7543a9ccc365ba147f4fa513", "lon": -77.01015866666667, "fusion_lon": 0.0}, {"is_reserved": 0, "type": "electric_scooter", "fusion_lat": 0.0, "is_disabled": 0, "rental_uris": {"ios": "https://dc.lft.to/lastmile_qr_scan", "android": "https://dc.lft.to/lastmile_qr_scan"}, "bike_id": "c5a183a9cb9bc73083337f8de3c3c33b", "lat": 38.92550833333333, "name": "c5a183a9cb9bc73083337f8de3c3c33b", "lon": -77.00324866666666, "fusion_lon": 0.0}, {"is_reserved": 0, "type": "electric_scooter", "fusion_lat": 0.0, "is_disabled": 0, "rental_uris": {"ios": "https://dc.lft.to/lastmile_qr_scan", "android": "https://dc.lft.to/lastmile_qr_scan"}, "bike_id": "e56ff427042f3ce10b6614bb6b8ddad9", "lat": 38.930057833333336, "name": "e56ff427042f3ce10b6614bb6b8ddad9", "lon": -77.0377875, "fusion_lon": 0.0}, {"is_reserved": 0, "type": "electric_scooter", "fusion_lat": 0.0, "is_disabled": 0, "rental_uris": {"ios": "https://dc.lft.to/lastmile_qr_scan", "android": "https://dc.lft.to/lastmile_qr_scan"}, "bike_id": "e4fae868a95afe6278ea2c0726ecb74f", "lat": 38.90249683333333, "name": "e4fae868a95afe6278ea2c0726ecb74f", "lon": -77.01992, "fusion_lon": 0.0}, {"is_reserved": 0, "type": "electric_scooter", "fusion_lat": 0.0, "is_disabled": 0, "rental_uris": {"ios": "https://dc.lft.to/lastmile_qr_scan", "android": "https://dc.lft.to/lastmile_qr_scan"}, "bike_id": "f859a388343a603e3cb1d013ea7b5158", "lat": 38.907777333333335, "name": "f859a388343a603e3cb1d013ea7b5158", "lon": -77.07254016666667, "fusion_lon": 0.0}, {"is_reserved": 0, "type": "electric_scooter", "fusion_lat": 0.0, "is_disabled": 0, "rental_uris": {"ios": "https://dc.lft.to/lastmile_qr_scan", "android": "https://dc.lft.to/lastmile_qr_scan"}, "bike_id": "ca5d975cfd7961949fe035e3653c8037", "lat": 38.90253416666667, "name": "ca5d975cfd7961949fe035e3653c8037", "lon": -76.97701916666666, "fusion_lon": 0.0}, {"is_reserved": 0, "type": "electric_scooter", "fusion_lat": 0.0, "is_disabled": 0, "rental_uris": {"ios": "https://dc.lft.to/lastmile_qr_scan", "android": "https://dc.lft.to/lastmile_qr_scan"}, "bike_id": "ad2f89b5ae2fcd29f3d238a4443d2b64", "lat": 38.89221083333333, "name": "ad2f89b5ae2fcd29f3d238a4443d2b64", "lon": -77.04637283333334, "fusion_lon": 0.0}, {"is_reserved": 0, "type": "electric_scooter", "fusion_lat": 0.0, "is_disabled": 0, "rental_uris": {"ios": "https://dc.lft.to/lastmile_qr_scan", "android": "https://dc.lft.to/lastmile_qr_scan"}, "bike_id": "009ea16811f26ae227ea792501fff44e", "lat": 38.91109, "name": "009ea16811f26ae227ea792501fff44e", "lon": -77.0384395, "fusion_lon": 0.0}, {"is_reserved": 0, "type": "electric_bike", "fusion_lat": 0.0, "is_disabled": 0, "rental_uris": {"ios": "https://dc.lft.to/lastmile_qr_scan", "android": "https://dc.lft.to/lastmile_qr_scan"}, "bike_id": "ecfd1382575c7bb2c1cd836c9a41e571", "lat": 38.89617966666667, "name": "ecfd1382575c7bb2c1cd836c9a41e571", "lon": -76.90746083333333, "fusion_lon": 0.0}, {"is_reserved": 0, "type": "electric_scooter", "fusion_lat": 0.0, "is_disabled": 0, "rental_uris": {"ios": "https://dc.lft.to/lastmile_qr_scan", "android": "https://dc.lft.to/lastmile_qr_scan"}, "bike_id": "3ce788cf431cf3936974750e409fd834", "lat": 38.902723333333334, "name": "3ce788cf431cf3936974750e409fd834", "lon": -77.03459566666666, "fusion_lon": 0.0}, {"is_reserved": 0, "type": "electric_scooter", "fusion_lat": 0.0, "is_disabled": 0, "rental_uris": {"ios": "https://dc.lft.to/lastmile_qr_scan", "android": "https://dc.lft.to/lastmile_qr_scan"}, "bike_id": "aedb2faae44ecce1e5714249c6fd828b", "lat": 38.90157683333334, "name": "aedb2faae44ecce1e5714249c6fd828b", "lon": -77.02237483333333, "fusion_lon": 0.0}, {"is_reserved": 0, "type": "electric_scooter", "fusion_lat": 0.0, "is_disabled": 0, "rental_uris": {"ios": "https://dc.lft.to/lastmile_qr_scan", "android": "https://dc.lft.to/lastmile_qr_scan"}, "bike_id": "a600e465a6be1da7c72601ae28dd1877", "lat": 38.88779433333333, "name": "a600e465a6be1da7c72601ae28dd1877", "lon": -77.03336266666666, "fusion_lon": 0.0}, {"is_reserved": 0, "type": "electric_scooter", "fusion_lat": 0.0, "is_disabled": 0, "rental_uris": {"ios": "https://dc.lft.to/lastmile_qr_scan", "android": "https://dc.lft.to/lastmile_qr_scan"}, "bike_id": "0e969b9b0390b9420e9a371f4225d398", "lat": 38.957562333333335, "name": "0e969b9b0390b9420e9a371f4225d398", "lon": -77.022085, "fusion_lon": 0.0}, {"is_reserved": 0, "type": "electric_scooter", "fusion_lat": 0.0, "is_disabled": 0, "rental_uris": {"ios": "https://dc.lft.to/lastmile_qr_scan", "android": "https://dc.lft.to/lastmile_qr_scan"}, "bike_id": "3fa3a4dff56872745e245592895ec26a", "lat": 38.885340666666664, "name": "3fa3a4dff56872745e245592895ec26a", "lon": -76.98057716666666, "fusion_lon": 0.0}, {"is_reserved": 0, "type": "electric_scooter", "fusion_lat": 0.0, "is_disabled": 0, "rental_uris": {"ios": "https://dc.lft.to/lastmile_qr_scan", "android": "https://dc.lft.to/lastmile_qr_scan"}, "bike_id": "7d942b9b4067a7a2689e0c2a1c8873b3", "lat": 38.9217165, "name": "7d942b9b4067a7a2689e0c2a1c8873b3", "lon": -77.04016883333334, "fusion_lon": 0.0}, {"is_reserved": 0, "type": "electric_scooter", "fusion_lat": 0.0, "is_disabled": 0, "rental_uris": {"ios": "https://dc.lft.to/lastmile_qr_scan", "android": "https://dc.lft.to/lastmile_qr_scan"}, "bike_id": "7d13b5f82ac9e9b36306a9842dbb1fe7", "lat": 38.904719166666666, "name": "7d13b5f82ac9e9b36306a9842dbb1fe7", "lon": -77.05323366666667, "fusion_lon": 0.0}, {"is_reserved": 0, "type": "electric_scooter", "fusion_lat": 0.0, "is_disabled": 0, "rental_uris": {"ios": "https://dc.lft.to/lastmile_qr_scan", "android": "https://dc.lft.to/lastmile_qr_scan"}, "bike_id": "4df7f308f0a4a8b4b9cb67b3787e634b", "lat": 38.8985485, "name": "4df7f308f0a4a8b4b9cb67b3787e634b", "lon": -77.0393065, "fusion_lon": 0.0}, {"is_reserved": 0, "type": "electric_scooter", "fusion_lat": 0.0, "is_disabled": 0, "rental_uris": {"ios": "https://dc.lft.to/lastmile_qr_scan", "android": "https://dc.lft.to/lastmile_qr_scan"}, "bike_id": "98ea34d7511dec0f6a3a0676e0501301", "lat": 38.924161166666664, "name": "98ea34d7511dec0f6a3a0676e0501301", "lon": -77.0200625, "fusion_lon": 0.0}, {"is_reserved": 0, "type": "electric_scooter", "fusion_lat": 0.0, "is_disabled": 0, "rental_uris": {"ios": "https://dc.lft.to/lastmile_qr_scan", "android": "https://dc.lft.to/lastmile_qr_scan"}, "bike_id": "b31f2a47365523a4e5d270466d6eff1d", "lat": 38.8851405, "name": "b31f2a47365523a4e5d270466d6eff1d", "lon": -76.9244155, "fusion_lon": 0.0}, {"is_reserved": 0, "type": "electric_scooter", "fusion_lat": 0.0, "is_disabled": 0, "rental_uris": {"ios": "https://dc.lft.to/lastmile_qr_scan", "android": "https://dc.lft.to/lastmile_qr_scan"}, "bike_id": "b62c0ae62084d2d8e34d226d1bae3504", "lat": 38.9211035, "name": "b62c0ae62084d2d8e34d226d1bae3504", "lon": -77.04576933333334, "fusion_lon": 0.0}, {"is_reserved": 0, "type": "electric_scooter", "fusion_lat": 0.0, "is_disabled": 0, "rental_uris": {"ios": "https://dc.lft.to/lastmile_qr_scan", "android": "https://dc.lft.to/lastmile_qr_scan"}, "bike_id": "65953a19fdf93ecc998aa5cf954cf231", "lat": 38.89723266666667, "name": "65953a19fdf93ecc998aa5cf954cf231", "lon": -77.0415155, "fusion_lon": 0.0}, {"is_reserved": 0, "type": "electric_scooter", "fusion_lat": 0.0, "is_disabled": 0, "rental_uris": {"ios": "https://dc.lft.to/lastmile_qr_scan", "android": "https://dc.lft.to/lastmile_qr_scan"}, "bike_id": "3812bbd6c36ec44c8c5f68efb18d1098", "lat": 38.8783535, "name": "3812bbd6c36ec44c8c5f68efb18d1098", "lon": -77.0058595, "fusion_lon": 0.0}, {"is_reserved": 0, "type": "electric_scooter", "fusion_lat": 0.0, "is_disabled": 0, "rental_uris": {"ios": "https://dc.lft.to/lastmile_qr_scan", "android": "https://dc.lft.to/lastmile_qr_scan"}, "bike_id": "91e91f582b16866c59dfde9c60db90b6", "lat": 38.897270666666664, "name": "91e91f582b16866c59dfde9c60db90b6", "lon": -77.02161583333333, "fusion_lon": 0.0}, {"is_reserved": 0, "type": "electric_scooter", "fusion_lat": 0.0, "is_disabled": 0, "rental_uris": {"ios": "https://dc.lft.to/lastmile_qr_scan", "android": "https://dc.lft.to/lastmile_qr_scan"}, "bike_id": "2bc0044d44d0ac35a382b34b9f95b573", "lat": 38.92061616666667, "name": "2bc0044d44d0ac35a382b34b9f95b573", "lon": -77.04402916666666, "fusion_lon": 0.0}, {"is_reserved": 0, "type": "electric_scooter", "fusion_lat": 0.0, "is_disabled": 0, "rental_uris": {"ios": "https://dc.lft.to/lastmile_qr_scan", "android": "https://dc.lft.to/lastmile_qr_scan"}, "bike_id": "7b8394418613af9eb565dde79fd0374e", "lat": 38.9201405, "name": "7b8394418613af9eb565dde79fd0374e", "lon": -77.07153316666667, "fusion_lon": 0.0}, {"is_reserved": 0, "type": "electric_scooter", "fusion_lat": 0.0, "is_disabled": 0, "rental_uris": {"ios": "https://dc.lft.to/lastmile_qr_scan", "android": "https://dc.lft.to/lastmile_qr_scan"}, "bike_id": "a74fbcb992c71801dcef8851e192d9bd", "lat": 38.92045983333333, "name": "a74fbcb992c71801dcef8851e192d9bd", "lon": -77.01671016666667, "fusion_lon": 0.0}, {"is_reserved": 0, "type": "electric_scooter", "fusion_lat": 0.0, "is_disabled": 0, "rental_uris": {"ios": "https://dc.lft.to/lastmile_qr_scan", "android": "https://dc.lft.to/lastmile_qr_scan"}, "bike_id": "40fd79d3697e0cc2f48d01150c918030", "lat": 38.927147, "name": "40fd79d3697e0cc2f48d01150c918030", "lon": -77.040506, "fusion_lon": 0.0}, {"is_reserved": 0, "type": "electric_scooter", "fusion_lat": 0.0, "is_disabled": 0, "rental_uris": {"ios": "https://dc.lft.to/lastmile_qr_scan", "android": "https://dc.lft.to/lastmile_qr_scan"}, "bike_id": "05a12ccb45b3c4358af2bce2fe69f94a", "lat": 38.904441166666665, "name": "05a12ccb45b3c4358af2bce2fe69f94a", "lon": -76.981574, "fusion_lon": 0.0}, {"is_reserved": 0, "type": "electric_scooter", "fusion_lat": 0.0, "is_disabled": 0, "rental_uris": {"ios": "https://dc.lft.to/lastmile_qr_scan", "android": "https://dc.lft.to/lastmile_qr_scan"}, "bike_id": "ab341def3ae53459ce0795a46b2838b0", "lat": 38.92021366666667, "name": "ab341def3ae53459ce0795a46b2838b0", "lon": -77.0170165, "fusion_lon": 0.0}, {"is_reserved": 0, "type": "electric_scooter", "fusion_lat": 0.0, "is_disabled": 0, "rental_uris": {"ios": "https://dc.lft.to/lastmile_qr_scan", "android": "https://dc.lft.to/lastmile_qr_scan"}, "bike_id": "d238ca0069f3611ffee45af6b74709a2", "lat": 38.92023866666667, "name": "d238ca0069f3611ffee45af6b74709a2", "lon": -77.0397295, "fusion_lon": 0.0}, {"is_reserved": 0, "type": "electric_scooter", "fusion_lat": 0.0, "is_disabled": 0, "rental_uris": {"ios": "https://dc.lft.to/lastmile_qr_scan", "android": "https://dc.lft.to/lastmile_qr_scan"}, "bike_id": "6f81167ce5b668a115dfe919df1fda98", "lat": 38.8988135, "name": "6f81167ce5b668a115dfe919df1fda98", "lon": -77.03312666666666, "fusion_lon": 0.0}, {"is_reserved": 0, "type": "electric_scooter", "fusion_lat": 0.0, "is_disabled": 0, "rental_uris": {"ios": "https://dc.lft.to/lastmile_qr_scan", "android": "https://dc.lft.to/lastmile_qr_scan"}, "bike_id": "2b7da18295e1813ac361a78e621a1667", "lat": 38.95632533333333, "name": "2b7da18295e1813ac361a78e621a1667", "lon": -77.02212466666667, "fusion_lon": 0.0}, {"is_reserved": 0, "type": "electric_scooter", "fusion_lat": 0.0, "is_disabled": 0, "rental_uris": {"ios": "https://dc.lft.to/lastmile_qr_scan", "android": "https://dc.lft.to/lastmile_qr_scan"}, "bike_id": "45968beb5b0947d91ac654fb285b3e20", "lat": 38.93037, "name": "45968beb5b0947d91ac654fb285b3e20", "lon": -77.038101, "fusion_lon": 0.0}, {"is_reserved": 0, "type": "electric_scooter", "fusion_lat": 0.0, "is_disabled": 0, "rental_uris": {"ios": "https://dc.lft.to/lastmile_qr_scan", "android": "https://dc.lft.to/lastmile_qr_scan"}, "bike_id": "52dbcc17edaf67d7c2dce22f8b265dac", "lat": 38.88990483333333, "name": "52dbcc17edaf67d7c2dce22f8b265dac", "lon": -77.00077133333333, "fusion_lon": 0.0}, {"is_reserved": 0, "type": "electric_scooter", "fusion_lat": 0.0, "is_disabled": 0, "rental_uris": {"ios": "https://dc.lft.to/lastmile_qr_scan", "android": "https://dc.lft.to/lastmile_qr_scan"}, "bike_id": "49745a4233ca6b9172ccc04363572212", "lat": 38.9078945, "name": "49745a4233ca6b9172ccc04363572212", "lon": -77.0020115, "fusion_lon": 0.0}, {"is_reserved": 0, "type": "electric_bike", "fusion_lat": 0.0, "is_disabled": 0, "rental_uris": {"ios": "https://dc.lft.to/lastmile_qr_scan", "android": "https://dc.lft.to/lastmile_qr_scan"}, "bike_id": "ae0032717954601e5787aa130093f46d", "lat": 38.83271583333333, "name": "ae0032717954601e5787aa130093f46d", "lon": -77.0836825, "fusion_lon": 0.0}, {"is_reserved": 0, "type": "electric_scooter", "fusion_lat": 0.0, "is_disabled": 0, "rental_uris": {"ios": "https://dc.lft.to/lastmile_qr_scan", "android": "https://dc.lft.to/lastmile_qr_scan"}, "bike_id": "4f1497377af7a178c1359f2c53d24cb7", "lat": 38.9169095, "name": "4f1497377af7a178c1359f2c53d24cb7", "lon": -77.02479666666666, "fusion_lon": 0.0}, {"is_reserved": 0, "type": "electric_scooter", "fusion_lat": 0.0, "is_disabled": 0, "rental_uris": {"ios": "https://dc.lft.to/lastmile_qr_scan", "android": "https://dc.lft.to/lastmile_qr_scan"}, "bike_id": "dc9703dd2eac768875bc3b052868cb63", "lat": 38.9057095, "name": "dc9703dd2eac768875bc3b052868cb63", "lon": -77.005691, "fusion_lon": 0.0}, {"is_reserved": 0, "type": "electric_scooter", "fusion_lat": 0.0, "is_disabled": 0, "rental_uris": {"ios": "https://dc.lft.to/lastmile_qr_scan", "android": "https://dc.lft.to/lastmile_qr_scan"}, "bike_id": "4bf4c2413675792ad2a2bd4613acca12", "lat": 38.89905133333333, "name": "4bf4c2413675792ad2a2bd4613acca12", "lon": -77.04998233333333, "fusion_lon": 0.0}, {"is_reserved": 0, "type": "electric_scooter", "fusion_lat": 0.0, "is_disabled": 0, "rental_uris": {"ios": "https://dc.lft.to/lastmile_qr_scan", "android": "https://dc.lft.to/lastmile_qr_scan"}, "bike_id": "11e48ded927b1e30b9ed044069050521", "lat": 38.93861066666667, "name": "11e48ded927b1e30b9ed044069050521", "lon": -77.07237266666667, "fusion_lon": 0.0}, {"is_reserved": 0, "type": "electric_bike", "fusion_lat": 0.0, "is_disabled": 0, "rental_uris": {"ios": "https://dc.lft.to/lastmile_qr_scan", "android": "https://dc.lft.to/lastmile_qr_scan"}, "bike_id": "1dc00ae2733872d4254007eccfe82fed", "lat": 39.08474616666667, "name": "1dc00ae2733872d4254007eccfe82fed", "lon": -76.95067883333333, "fusion_lon": 0.0}, {"is_reserved": 0, "type": "electric_scooter", "fusion_lat": 0.0, "is_disabled": 0, "rental_uris": {"ios": "https://dc.lft.to/lastmile_qr_scan", "android": "https://dc.lft.to/lastmile_qr_scan"}, "bike_id": "0ea0c3f6b43c708fd8fe349f240e03c3", "lat": 38.93480183333333, "name": "0ea0c3f6b43c708fd8fe349f240e03c3", "lon": -77.05791183333334, "fusion_lon": 0.0}, {"is_reserved": 0, "type": "electric_scooter", "fusion_lat": 0.0, "is_disabled": 0, "rental_uris": {"ios": "https://dc.lft.to/lastmile_qr_scan", "android": "https://dc.lft.to/lastmile_qr_scan"}, "bike_id": "60d6ab1831941983709ad48db9292b35", "lat": 38.94084183333333, "name": "60d6ab1831941983709ad48db9292b35", "lon": -77.02721983333333, "fusion_lon": 0.0}, {"is_reserved": 0, "type": "electric_scooter", "fusion_lat": 0.0, "is_disabled": 0, "rental_uris": {"ios": "https://dc.lft.to/lastmile_qr_scan", "android": "https://dc.lft.to/lastmile_qr_scan"}, "bike_id": "505a57fdbfb3764f30191a9ab7cc1f03", "lat": 38.9206545, "name": "505a57fdbfb3764f30191a9ab7cc1f03", "lon": -77.04232233333333, "fusion_lon": 0.0}, {"is_reserved": 0, "type": "electric_scooter", "fusion_lat": 0.0, "is_disabled": 0, "rental_uris": {"ios": "https://dc.lft.to/lastmile_qr_scan", "android": "https://dc.lft.to/lastmile_qr_scan"}, "bike_id": "3668030e82b60a64eb2eff25e1b60201", "lat": 38.90501583333333, "name": "3668030e82b60a64eb2eff25e1b60201", "lon": -77.0282375, "fusion_lon": 0.0}, {"is_reserved": 0, "type": "electric_scooter", "fusion_lat": 0.0, "is_disabled": 0, "rental_uris": {"ios": "https://dc.lft.to/lastmile_qr_scan", "android": "https://dc.lft.to/lastmile_qr_scan"}, "bike_id": "6ffe54fa4980c41a2fa56c0319ae0c73", "lat": 38.878822666666665, "name": "6ffe54fa4980c41a2fa56c0319ae0c73", "lon": -77.0005565, "fusion_lon": 0.0}, {"is_reserved": 0, "type": "electric_scooter", "fusion_lat": 0.0, "is_disabled": 0, "rental_uris": {"ios": "https://dc.lft.to/lastmile_qr_scan", "android": "https://dc.lft.to/lastmile_qr_scan"}, "bike_id": "f5cf5f469c4eb72504fb9a8eba3635c5", "lat": 38.92473233333333, "name": "f5cf5f469c4eb72504fb9a8eba3635c5", "lon": -77.02217283333333, "fusion_lon": 0.0}, {"is_reserved": 0, "type": "electric_scooter", "fusion_lat": 0.0, "is_disabled": 0, "rental_uris": {"ios": "https://dc.lft.to/lastmile_qr_scan", "android": "https://dc.lft.to/lastmile_qr_scan"}, "bike_id": "7dfbb525e5faed81f88b435403e4ba70", "lat": 38.900492666666665, "name": "7dfbb525e5faed81f88b435403e4ba70", "lon": -77.01685016666667, "fusion_lon": 0.0}, {"is_reserved": 0, "type": "electric_scooter", "fusion_lat": 0.0, "is_disabled": 0, "rental_uris": {"ios": "https://dc.lft.to/lastmile_qr_scan", "android": "https://dc.lft.to/lastmile_qr_scan"}, "bike_id": "46592798c2d372ffbff8471e7f466492", "lat": 38.86496266666666, "name": "46592798c2d372ffbff8471e7f466492", "lon": -76.97727766666667, "fusion_lon": 0.0}, {"is_reserved": 0, "type": "electric_scooter", "fusion_lat": 0.0, "is_disabled": 0, "rental_uris": {"ios": "https://dc.lft.to/lastmile_qr_scan", "android": "https://dc.lft.to/lastmile_qr_scan"}, "bike_id": "23f72f69fb6ff9813838bc9accade02d", "lat": 38.899561166666665, "name": "23f72f69fb6ff9813838bc9accade02d", "lon": -76.92632583333334, "fusion_lon": 0.0}, {"is_reserved": 0, "type": "electric_scooter", "fusion_lat": 0.0, "is_disabled": 0, "rental_uris": {"ios": "https://dc.lft.to/lastmile_qr_scan", "android": "https://dc.lft.to/lastmile_qr_scan"}, "bike_id": "3c22cda745c57e5e9e07198ba9833621", "lat": 38.893149, "name": "3c22cda745c57e5e9e07198ba9833621", "lon": -77.01994, "fusion_lon": 0.0}, {"is_reserved": 0, "type": "electric_scooter", "fusion_lat": 0.0, "is_disabled": 0, "rental_uris": {"ios": "https://dc.lft.to/lastmile_qr_scan", "android": "https://dc.lft.to/lastmile_qr_scan"}, "bike_id": "f4f24899be1a6e612ed4bb9d0adf01f1", "lat": 38.930002, "name": "f4f24899be1a6e612ed4bb9d0adf01f1", "lon": -77.038013, "fusion_lon": 0.0}, {"is_reserved": 0, "type": "electric_bike", "fusion_lat": 0.0, "is_disabled": 0, "rental_uris": {"ios": "https://dc.lft.to/lastmile_qr_scan", "android": "https://dc.lft.to/lastmile_qr_scan"}, "bike_id": "929234173234afd7ea7d77f4d22f007a", "lat": 39.02519433333333, "name": "929234173234afd7ea7d77f4d22f007a", "lon": -77.019667, "fusion_lon": 0.0}, {"is_reserved": 0, "type": "electric_scooter", "fusion_lat": 0.0, "is_disabled": 0, "rental_uris": {"ios": "https://dc.lft.to/lastmile_qr_scan", "android": "https://dc.lft.to/lastmile_qr_scan"}, "bike_id": "e144cb10c82efadabf7b9adbc3db6a37", "lat": 38.91983883333333, "name": "e144cb10c82efadabf7b9adbc3db6a37", "lon": -77.02365316666666, "fusion_lon": 0.0}, {"is_reserved": 0, "type": "electric_scooter", "fusion_lat": 0.0, "is_disabled": 0, "rental_uris": {"ios": "https://dc.lft.to/lastmile_qr_scan", "android": "https://dc.lft.to/lastmile_qr_scan"}, "bike_id": "34b2539888c4a460fb4b8a46b1bd3672", "lat": 38.899565333333335, "name": "34b2539888c4a460fb4b8a46b1bd3672", "lon": -77.01436383333333, "fusion_lon": 0.0}, {"is_reserved": 0, "type": "electric_scooter", "fusion_lat": 0.0, "is_disabled": 0, "rental_uris": {"ios": "https://dc.lft.to/lastmile_qr_scan", "android": "https://dc.lft.to/lastmile_qr_scan"}, "bike_id": "6567629d8d955fb6f62ff9c3a9ffc581", "lat": 38.92651933333333, "name": "6567629d8d955fb6f62ff9c3a9ffc581", "lon": -77.024309, "fusion_lon": 0.0}, {"is_reserved": 0, "type": "electric_scooter", "fusion_lat": 0.0, "is_disabled": 0, "rental_uris": {"ios": "https://dc.lft.to/lastmile_qr_scan", "android": "https://dc.lft.to/lastmile_qr_scan"}, "bike_id": "4afb11bf6e76e83b2d36885d0c96daba", "lat": 38.91329866666667, "name": "4afb11bf6e76e83b2d36885d0c96daba", "lon": -77.0304725, "fusion_lon": 0.0}, {"is_reserved": 0, "type": "electric_scooter", "fusion_lat": 0.0, "is_disabled": 0, "rental_uris": {"ios": "https://dc.lft.to/lastmile_qr_scan", "android": "https://dc.lft.to/lastmile_qr_scan"}, "bike_id": "aae138a2e70d85ddd8220f4303e9347b", "lat": 38.92072983333333, "name": "aae138a2e70d85ddd8220f4303e9347b", "lon": -77.02395216666666, "fusion_lon": 0.0}, {"is_reserved": 0, "type": "electric_scooter", "fusion_lat": 0.0, "is_disabled": 0, "rental_uris": {"ios": "https://dc.lft.to/lastmile_qr_scan", "android": "https://dc.lft.to/lastmile_qr_scan"}, "bike_id": "a4b53ed6f9dda3ce9782c114d9e7dd12", "lat": 38.9289295, "name": "a4b53ed6f9dda3ce9782c114d9e7dd12", "lon": -77.03213533333333, "fusion_lon": 0.0}, {"is_reserved": 0, "type": "electric_scooter", "fusion_lat": 0.0, "is_disabled": 0, "rental_uris": {"ios": "https://dc.lft.to/lastmile_qr_scan", "android": "https://dc.lft.to/lastmile_qr_scan"}, "bike_id": "9c853cacdc3d79b86131a519e3d7c36a", "lat": 38.92071116666666, "name": "9c853cacdc3d79b86131a519e3d7c36a", "lon": -77.02407533333333, "fusion_lon": 0.0}, {"is_reserved": 0, "type": "electric_scooter", "fusion_lat": 0.0, "is_disabled": 0, "rental_uris": {"ios": "https://dc.lft.to/lastmile_qr_scan", "android": "https://dc.lft.to/lastmile_qr_scan"}, "bike_id": "57ea6590ef76eda7a028108bac5c2872", "lat": 38.92972833333334, "name": "57ea6590ef76eda7a028108bac5c2872", "lon": -77.02789066666666, "fusion_lon": 0.0}, {"is_reserved": 0, "type": "electric_scooter", "fusion_lat": 0.0, "is_disabled": 0, "rental_uris": {"ios": "https://dc.lft.to/lastmile_qr_scan", "android": "https://dc.lft.to/lastmile_qr_scan"}, "bike_id": "8f8d49c308bd1c543a77de01cc0a932b", "lat": 38.91685116666667, "name": "8f8d49c308bd1c543a77de01cc0a932b", "lon": -77.02896116666666, "fusion_lon": 0.0}, {"is_reserved": 0, "type": "electric_scooter", "fusion_lat": 0.0, "is_disabled": 0, "rental_uris": {"ios": "https://dc.lft.to/lastmile_qr_scan", "android": "https://dc.lft.to/lastmile_qr_scan"}, "bike_id": "d31668667b793846cae874965273ec05", "lat": 38.92062516666667, "name": "d31668667b793846cae874965273ec05", "lon": -77.02507683333333, "fusion_lon": 0.0}, {"is_reserved": 0, "type": "electric_scooter", "fusion_lat": 0.0, "is_disabled": 0, "rental_uris": {"ios": "https://dc.lft.to/lastmile_qr_scan", "android": "https://dc.lft.to/lastmile_qr_scan"}, "bike_id": "94ac87bf4227767d02fcb1a92122b5ba", "lat": 38.92377316666666, "name": "94ac87bf4227767d02fcb1a92122b5ba", "lon": -77.03078583333334, "fusion_lon": 0.0}, {"is_reserved": 0, "type": "electric_scooter", "fusion_lat": 0.0, "is_disabled": 0, "rental_uris": {"ios": "https://dc.lft.to/lastmile_qr_scan", "android": "https://dc.lft.to/lastmile_qr_scan"}, "bike_id": "f631eaf6bbcb48a304b0e7f3e832df2a", "lat": 38.907816333333336, "name": "f631eaf6bbcb48a304b0e7f3e832df2a", "lon": -77.0725645, "fusion_lon": 0.0}, {"is_reserved": 0, "type": "electric_scooter", "fusion_lat": 0.0, "is_disabled": 0, "rental_uris": {"ios": "https://dc.lft.to/lastmile_qr_scan", "android": "https://dc.lft.to/lastmile_qr_scan"}, "bike_id": "e9edae74ca6f19dbaa935d3d2b3430ea", "lat": 38.9154345, "name": "e9edae74ca6f19dbaa935d3d2b3430ea", "lon": -77.0297275, "fusion_lon": 0.0}, {"is_reserved": 0, "type": "electric_scooter", "fusion_lat": 0.0, "is_disabled": 0, "rental_uris": {"ios": "https://dc.lft.to/lastmile_qr_scan", "android": "https://dc.lft.to/lastmile_qr_scan"}, "bike_id": "e2c54a7d124ff85258a289f41508e53f", "lat": 38.9428005, "name": "e2c54a7d124ff85258a289f41508e53f", "lon": -77.0767065, "fusion_lon": 0.0}, {"is_reserved": 0, "type": "electric_scooter", "fusion_lat": 0.0, "is_disabled": 0, "rental_uris": {"ios": "https://dc.lft.to/lastmile_qr_scan", "android": "https://dc.lft.to/lastmile_qr_scan"}, "bike_id": "36679136844913440e44a41937e1dd7e", "lat": 38.904890333333334, "name": "36679136844913440e44a41937e1dd7e", "lon": -77.04324283333334, "fusion_lon": 0.0}, {"is_reserved": 0, "type": "electric_scooter", "fusion_lat": 0.0, "is_disabled": 0, "rental_uris": {"ios": "https://dc.lft.to/lastmile_qr_scan", "android": "https://dc.lft.to/lastmile_qr_scan"}, "bike_id": "b77c7b8968d02fa80420730a0c8873c7", "lat": 38.873719, "name": "b77c7b8968d02fa80420730a0c8873c7", "lon": -77.00123916666666, "fusion_lon": 0.0}, {"is_reserved": 0, "type": "electric_scooter", "fusion_lat": 0.0, "is_disabled": 0, "rental_uris": {"ios": "https://dc.lft.to/lastmile_qr_scan", "android": "https://dc.lft.to/lastmile_qr_scan"}, "bike_id": "196ee9713f9e01c3df7c3d989c2acafd", "lat": 38.94463566666667, "name": "196ee9713f9e01c3df7c3d989c2acafd", "lon": -77.00657983333333, "fusion_lon": 0.0}, {"is_reserved": 0, "type": "electric_scooter", "fusion_lat": 0.0, "is_disabled": 0, "rental_uris": {"ios": "https://dc.lft.to/lastmile_qr_scan", "android": "https://dc.lft.to/lastmile_qr_scan"}, "bike_id": "de8540c0d2038ee52ab4c9277c0c59de", "lat": 38.912185666666666, "name": "de8540c0d2038ee52ab4c9277c0c59de", "lon": -77.00663216666666, "fusion_lon": 0.0}, {"is_reserved": 0, "type": "electric_scooter", "fusion_lat": 0.0, "is_disabled": 0, "rental_uris": {"ios": "https://dc.lft.to/lastmile_qr_scan", "android": "https://dc.lft.to/lastmile_qr_scan"}, "bike_id": "7d37f15aa553e3c0fe0b9140f2825e05", "lat": 38.9205515, "name": "7d37f15aa553e3c0fe0b9140f2825e05", "lon": -77.033954, "fusion_lon": 0.0}, {"is_reserved": 0, "type": "electric_scooter", "fusion_lat": 0.0, "is_disabled": 0, "rental_uris": {"ios": "https://dc.lft.to/lastmile_qr_scan", "android": "https://dc.lft.to/lastmile_qr_scan"}, "bike_id": "81ffef68b4dc1a975695558819a27e27", "lat": 38.90270116666667, "name": "81ffef68b4dc1a975695558819a27e27", "lon": -76.98980616666667, "fusion_lon": 0.0}, {"is_reserved": 0, "type": "electric_scooter", "fusion_lat": 0.0, "is_disabled": 0, "rental_uris": {"ios": "https://dc.lft.to/lastmile_qr_scan", "android": "https://dc.lft.to/lastmile_qr_scan"}, "bike_id": "5201ea3b8dd94a5860aa3b5050500384", "lat": 38.92366766666667, "name": "5201ea3b8dd94a5860aa3b5050500384", "lon": -77.07282733333334, "fusion_lon": 0.0}, {"is_reserved": 0, "type": "electric_scooter", "fusion_lat": 0.0, "is_disabled": 0, "rental_uris": {"ios": "https://dc.lft.to/lastmile_qr_scan", "android": "https://dc.lft.to/lastmile_qr_scan"}, "bike_id": "c54ff7083792cde26b9ea1e1f7e04a97", "lat": 38.93541, "name": "c54ff7083792cde26b9ea1e1f7e04a97", "lon": -77.05748533333333, "fusion_lon": 0.0}, {"is_reserved": 0, "type": "electric_scooter", "fusion_lat": 0.0, "is_disabled": 0, "rental_uris": {"ios": "https://dc.lft.to/lastmile_qr_scan", "android": "https://dc.lft.to/lastmile_qr_scan"}, "bike_id": "98533d0f5de52f32dc89013af3462707", "lat": 38.887033333333335, "name": "98533d0f5de52f32dc89013af3462707", "lon": -77.000635, "fusion_lon": 0.0}, {"is_reserved": 0, "type": "electric_scooter", "fusion_lat": 0.0, "is_disabled": 0, "rental_uris": {"ios": "https://dc.lft.to/lastmile_qr_scan", "android": "https://dc.lft.to/lastmile_qr_scan"}, "bike_id": "09e9f5d647d10a4fb1d05ffb914468fb", "lat": 38.91555116666667, "name": "09e9f5d647d10a4fb1d05ffb914468fb", "lon": -77.04126783333334, "fusion_lon": 0.0}, {"is_reserved": 0, "type": "electric_bike", "fusion_lat": 0.0, "is_disabled": 0, "rental_uris": {"ios": "https://dc.lft.to/lastmile_qr_scan", "android": "https://dc.lft.to/lastmile_qr_scan"}, "bike_id": "59686c38a6484d7455c22cc1b2fb3636", "lat": 38.9677965, "name": "59686c38a6484d7455c22cc1b2fb3636", "lon": -76.9964185, "fusion_lon": 0.0}, {"is_reserved": 0, "type": "electric_scooter", "fusion_lat": 0.0, "is_disabled": 0, "rental_uris": {"ios": "https://dc.lft.to/lastmile_qr_scan", "android": "https://dc.lft.to/lastmile_qr_scan"}, "bike_id": "23b33f48ce23daadc63a7840ef66da71", "lat": 38.8792135, "name": "23b33f48ce23daadc63a7840ef66da71", "lon": -77.01332966666666, "fusion_lon": 0.0}, {"is_reserved": 0, "type": "electric_scooter", "fusion_lat": 0.0, "is_disabled": 0, "rental_uris": {"ios": "https://dc.lft.to/lastmile_qr_scan", "android": "https://dc.lft.to/lastmile_qr_scan"}, "bike_id": "b77e8c017583a200a40a79c415540162", "lat": 38.900133333333336, "name": "b77e8c017583a200a40a79c415540162", "lon": -77.01180683333334, "fusion_lon": 0.0}, {"is_reserved": 0, "type": "electric_scooter", "fusion_lat": 0.0, "is_disabled": 0, "rental_uris": {"ios": "https://dc.lft.to/lastmile_qr_scan", "android": "https://dc.lft.to/lastmile_qr_scan"}, "bike_id": "885911c37a4b067470b302580e9d784b", "lat": 38.915699833333335, "name": "885911c37a4b067470b302580e9d784b", "lon": -77.01995966666667, "fusion_lon": 0.0}, {"is_reserved": 0, "type": "electric_bike", "fusion_lat": 0.0, "is_disabled": 0, "rental_uris": {"ios": "https://dc.lft.to/lastmile_qr_scan", "android": "https://dc.lft.to/lastmile_qr_scan"}, "bike_id": "ff141da65e754cacef3f4aa4403ca86b", "lat": 38.90385216666667, "name": "ff141da65e754cacef3f4aa4403ca86b", "lon": -76.93747516666667, "fusion_lon": 0.0}, {"is_reserved": 0, "type": "electric_scooter", "fusion_lat": 0.0, "is_disabled": 0, "rental_uris": {"ios": "https://dc.lft.to/lastmile_qr_scan", "android": "https://dc.lft.to/lastmile_qr_scan"}, "bike_id": "68068c590dd5de41b76587e6d2ffe687", "lat": 38.89471566666667, "name": "68068c590dd5de41b76587e6d2ffe687", "lon": -77.02731066666666, "fusion_lon": 0.0}, {"is_reserved": 0, "type": "electric_scooter", "fusion_lat": 0.0, "is_disabled": 0, "rental_uris": {"ios": "https://dc.lft.to/lastmile_qr_scan", "android": "https://dc.lft.to/lastmile_qr_scan"}, "bike_id": "95568259751b5fa09495ed04255143a4", "lat": 38.91919216666667, "name": "95568259751b5fa09495ed04255143a4", "lon": -77.03182066666666, "fusion_lon": 0.0}, {"is_reserved": 0, "type": "electric_scooter", "fusion_lat": 0.0, "is_disabled": 0, "rental_uris": {"ios": "https://dc.lft.to/lastmile_qr_scan", "android": "https://dc.lft.to/lastmile_qr_scan"}, "bike_id": "7be880d5da98baaeb37479a576e1d41f", "lat": 38.892253, "name": "7be880d5da98baaeb37479a576e1d41f", "lon": -77.04484916666667, "fusion_lon": 0.0}, {"is_reserved": 0, "type": "electric_scooter", "fusion_lat": 0.0, "is_disabled": 0, "rental_uris": {"ios": "https://dc.lft.to/lastmile_qr_scan", "android": "https://dc.lft.to/lastmile_qr_scan"}, "bike_id": "d504cf81ca76e4e2c4a1e9aa90e18c14", "lat": 38.911199833333335, "name": "d504cf81ca76e4e2c4a1e9aa90e18c14", "lon": -77.00490866666667, "fusion_lon": 0.0}, {"is_reserved": 0, "type": "electric_scooter", "fusion_lat": 0.0, "is_disabled": 0, "rental_uris": {"ios": "https://dc.lft.to/lastmile_qr_scan", "android": "https://dc.lft.to/lastmile_qr_scan"}, "bike_id": "54f2270458e19360637aa5f6551543c8", "lat": 38.92036233333333, "name": "54f2270458e19360637aa5f6551543c8", "lon": -77.041785, "fusion_lon": 0.0}, {"is_reserved": 0, "type": "electric_scooter", "fusion_lat": 0.0, "is_disabled": 0, "rental_uris": {"ios": "https://dc.lft.to/lastmile_qr_scan", "android": "https://dc.lft.to/lastmile_qr_scan"}, "bike_id": "8f490534e923a9a9edec5fc460a5035c", "lat": 38.924815, "name": "8f490534e923a9a9edec5fc460a5035c", "lon": -77.025513, "fusion_lon": 0.0}, {"is_reserved": 0, "type": "electric_scooter", "fusion_lat": 0.0, "is_disabled": 0, "rental_uris": {"ios": "https://dc.lft.to/lastmile_qr_scan", "android": "https://dc.lft.to/lastmile_qr_scan"}, "bike_id": "c40d7bfabfdd0ca4e46377e7a31b454e", "lat": 38.919836833333335, "name": "c40d7bfabfdd0ca4e46377e7a31b454e", "lon": -77.071078, "fusion_lon": 0.0}, {"is_reserved": 0, "type": "electric_scooter", "fusion_lat": 0.0, "is_disabled": 0, "rental_uris": {"ios": "https://dc.lft.to/lastmile_qr_scan", "android": "https://dc.lft.to/lastmile_qr_scan"}, "bike_id": "4e029c366183fea74ae734af666f09b4", "lat": 38.928258, "name": "4e029c366183fea74ae734af666f09b4", "lon": -77.02151183333334, "fusion_lon": 0.0}, {"is_reserved": 0, "type": "electric_scooter", "fusion_lat": 0.0, "is_disabled": 0, "rental_uris": {"ios": "https://dc.lft.to/lastmile_qr_scan", "android": "https://dc.lft.to/lastmile_qr_scan"}, "bike_id": "41cb64b02769fbe15f6c78bd0c295a10", "lat": 38.91255866666667, "name": "41cb64b02769fbe15f6c78bd0c295a10", "lon": -77.03875966666666, "fusion_lon": 0.0}, {"is_reserved": 0, "type": "electric_scooter", "fusion_lat": 0.0, "is_disabled": 0, "rental_uris": {"ios": "https://dc.lft.to/lastmile_qr_scan", "android": "https://dc.lft.to/lastmile_qr_scan"}, "bike_id": "4007398dae3b03c847775d50bfd35163", "lat": 38.9159345, "name": "4007398dae3b03c847775d50bfd35163", "lon": -76.98386183333334, "fusion_lon": 0.0}, {"is_reserved": 0, "type": "electric_scooter", "fusion_lat": 0.0, "is_disabled": 0, "rental_uris": {"ios": "https://dc.lft.to/lastmile_qr_scan", "android": "https://dc.lft.to/lastmile_qr_scan"}, "bike_id": "57c5de29c58e02fde9278ba353e5d742", "lat": 38.93978533333333, "name": "57c5de29c58e02fde9278ba353e5d742", "lon": -77.02872333333333, "fusion_lon": 0.0}, {"is_reserved": 0, "type": "electric_bike", "fusion_lat": 0.0, "is_disabled": 0, "rental_uris": {"ios": "https://dc.lft.to/lastmile_qr_scan", "android": "https://dc.lft.to/lastmile_qr_scan"}, "bike_id": "5c546cc5495491e37b620d9ccf7ef873", "lat": 38.882804666666665, "name": "5c546cc5495491e37b620d9ccf7ef873", "lon": -76.9323335, "fusion_lon": 0.0}, {"is_reserved": 0, "type": "electric_bike", "fusion_lat": 0.0, "is_disabled": 0, "rental_uris": {"ios": "https://dc.lft.to/lastmile_qr_scan", "android": "https://dc.lft.to/lastmile_qr_scan"}, "bike_id": "f06ff0e4ca6b8741f36cb2889faeb777", "lat": 38.87952683333334, "name": "f06ff0e4ca6b8741f36cb2889faeb777", "lon": -76.93190466666667, "fusion_lon": 0.0}, {"is_reserved": 0, "type": "electric_scooter", "fusion_lat": 0.0, "is_disabled": 0, "rental_uris": {"ios": "https://dc.lft.to/lastmile_qr_scan", "android": "https://dc.lft.to/lastmile_qr_scan"}, "bike_id": "a666ac4f5a62c03da6acf076bf7f749f", "lat": 38.907722, "name": "a666ac4f5a62c03da6acf076bf7f749f", "lon": -77.01893383333334, "fusion_lon": 0.0}, {"is_reserved": 0, "type": "electric_scooter", "fusion_lat": 0.0, "is_disabled": 0, "rental_uris": {"ios": "https://dc.lft.to/lastmile_qr_scan", "android": "https://dc.lft.to/lastmile_qr_scan"}, "bike_id": "ab22a93b4bc17e2d97258d85c9d4e4ea", "lat": 38.90385083333334, "name": "ab22a93b4bc17e2d97258d85c9d4e4ea", "lon": -77.01775433333333, "fusion_lon": 0.0}, {"is_reserved": 0, "type": "electric_scooter", "fusion_lat": 0.0, "is_disabled": 0, "rental_uris": {"ios": "https://dc.lft.to/lastmile_qr_scan", "android": "https://dc.lft.to/lastmile_qr_scan"}, "bike_id": "aa5474846638f1ee03275b115257b6ef", "lat": 38.902809500000004, "name": "aa5474846638f1ee03275b115257b6ef", "lon": -77.06184283333333, "fusion_lon": 0.0}, {"is_reserved": 0, "type": "electric_scooter", "fusion_lat": 0.0, "is_disabled": 0, "rental_uris": {"ios": "https://dc.lft.to/lastmile_qr_scan", "android": "https://dc.lft.to/lastmile_qr_scan"}, "bike_id": "0f16c6368687bafcbe1c56ad7eb976bc", "lat": 38.92036366666667, "name": "0f16c6368687bafcbe1c56ad7eb976bc", "lon": -77.0408995, "fusion_lon": 0.0}, {"is_reserved": 0, "type": "electric_scooter", "fusion_lat": 0.0, "is_disabled": 0, "rental_uris": {"ios": "https://dc.lft.to/lastmile_qr_scan", "android": "https://dc.lft.to/lastmile_qr_scan"}, "bike_id": "c66e2fcb6f5127881cc603a9cb054f42", "lat": 38.90785733333333, "name": "c66e2fcb6f5127881cc603a9cb054f42", "lon": -76.98328566666666, "fusion_lon": 0.0}, {"is_reserved": 0, "type": "electric_scooter", "fusion_lat": 0.0, "is_disabled": 0, "rental_uris": {"ios": "https://dc.lft.to/lastmile_qr_scan", "android": "https://dc.lft.to/lastmile_qr_scan"}, "bike_id": "a0a29f873bc1c8c723414b4811975f8c", "lat": 38.9151925, "name": "a0a29f873bc1c8c723414b4811975f8c", "lon": -77.07275316666667, "fusion_lon": 0.0}, {"is_reserved": 0, "type": "electric_scooter", "fusion_lat": 0.0, "is_disabled": 0, "rental_uris": {"ios": "https://dc.lft.to/lastmile_qr_scan", "android": "https://dc.lft.to/lastmile_qr_scan"}, "bike_id": "3b4d13d66ec7dfaa6c4073aeea3bb597", "lat": 38.907876333333334, "name": "3b4d13d66ec7dfaa6c4073aeea3bb597", "lon": -77.0435195, "fusion_lon": 0.0}, {"is_reserved": 0, "type": "electric_scooter", "fusion_lat": 0.0, "is_disabled": 0, "rental_uris": {"ios": "https://dc.lft.to/lastmile_qr_scan", "android": "https://dc.lft.to/lastmile_qr_scan"}, "bike_id": "cb335780bb423be1dd9e1f6efa78337c", "lat": 38.92361416666667, "name": "cb335780bb423be1dd9e1f6efa78337c", "lon": -77.04320483333333, "fusion_lon": 0.0}, {"is_reserved": 0, "type": "electric_bike", "fusion_lat": 0.0, "is_disabled": 0, "rental_uris": {"ios": "https://dc.lft.to/lastmile_qr_scan", "android": "https://dc.lft.to/lastmile_qr_scan"}, "bike_id": "1299f5140b7abeece464def798894a19", "lat": 38.888747, "name": "1299f5140b7abeece464def798894a19", "lon": -76.95698383333334, "fusion_lon": 0.0}, {"is_reserved": 0, "type": "electric_scooter", "fusion_lat": 0.0, "is_disabled": 0, "rental_uris": {"ios": "https://dc.lft.to/lastmile_qr_scan", "android": "https://dc.lft.to/lastmile_qr_scan"}, "bike_id": "7fb6bf35628303abe440699ea77d9439", "lat": 38.92100766666667, "name": "7fb6bf35628303abe440699ea77d9439", "lon": -77.03706416666667, "fusion_lon": 0.0}, {"is_reserved": 0, "type": "electric_scooter", "fusion_lat": 0.0, "is_disabled": 0, "rental_uris": {"ios": "https://dc.lft.to/lastmile_qr_scan", "android": "https://dc.lft.to/lastmile_qr_scan"}, "bike_id": "6626b7c1fda47943ab82f5da01abe5d7", "lat": 38.91415466666667, "name": "6626b7c1fda47943ab82f5da01abe5d7", "lon": -77.03748666666667, "fusion_lon": 0.0}, {"is_reserved": 0, "type": "electric_scooter", "fusion_lat": 0.0, "is_disabled": 0, "rental_uris": {"ios": "https://dc.lft.to/lastmile_qr_scan", "android": "https://dc.lft.to/lastmile_qr_scan"}, "bike_id": "a326e15cded9ad0acada7993d1ce937c", "lat": 38.9251, "name": "a326e15cded9ad0acada7993d1ce937c", "lon": -77.03223566666666, "fusion_lon": 0.0}, {"is_reserved": 0, "type": "electric_scooter", "fusion_lat": 0.0, "is_disabled": 0, "rental_uris": {"ios": "https://dc.lft.to/lastmile_qr_scan", "android": "https://dc.lft.to/lastmile_qr_scan"}, "bike_id": "44a32d5e34e47c998f8819546e854077", "lat": 38.896085666666664, "name": "44a32d5e34e47c998f8819546e854077", "lon": -77.026627, "fusion_lon": 0.0}, {"is_reserved": 0, "type": "electric_bike", "fusion_lat": 0.0, "is_disabled": 0, "rental_uris": {"ios": "https://dc.lft.to/lastmile_qr_scan", "android": "https://dc.lft.to/lastmile_qr_scan"}, "bike_id": "e3ea64050afa956cb5dee98776fddacc", "lat": 38.983675166666664, "name": "e3ea64050afa956cb5dee98776fddacc", "lon": -76.98851683333334, "fusion_lon": 0.0}, {"is_reserved": 0, "type": "electric_scooter", "fusion_lat": 0.0, "is_disabled": 0, "rental_uris": {"ios": "https://dc.lft.to/lastmile_qr_scan", "android": "https://dc.lft.to/lastmile_qr_scan"}, "bike_id": "3f3eb0b84af9b3bff0b9180edc751fcd", "lat": 38.954327666666664, "name": "3f3eb0b84af9b3bff0b9180edc751fcd", "lon": -77.01850833333333, "fusion_lon": 0.0}, {"is_reserved": 0, "type": "electric_bike", "fusion_lat": 0.0, "is_disabled": 0, "rental_uris": {"ios": "https://dc.lft.to/lastmile_qr_scan", "android": "https://dc.lft.to/lastmile_qr_scan"}, "bike_id": "dcee0752f4031b0745a22f489a971ad8", "lat": 38.867517, "name": "dcee0752f4031b0745a22f489a971ad8", "lon": -76.94537966666667, "fusion_lon": 0.0}, {"is_reserved": 0, "type": "electric_scooter", "fusion_lat": 0.0, "is_disabled": 0, "rental_uris": {"ios": "https://dc.lft.to/lastmile_qr_scan", "android": "https://dc.lft.to/lastmile_qr_scan"}, "bike_id": "4e56197edd8a6d551d93645478fd2cfc", "lat": 38.905606166666665, "name": "4e56197edd8a6d551d93645478fd2cfc", "lon": -77.02657866666667, "fusion_lon": 0.0}, {"is_reserved": 0, "type": "electric_scooter", "fusion_lat": 0.0, "is_disabled": 0, "rental_uris": {"ios": "https://dc.lft.to/lastmile_qr_scan", "android": "https://dc.lft.to/lastmile_qr_scan"}, "bike_id": "50fd911e23ab2c71da4480aaa0151a9f", "lat": 38.915543, "name": "50fd911e23ab2c71da4480aaa0151a9f", "lon": -77.02137633333334, "fusion_lon": 0.0}, {"is_reserved": 0, "type": "electric_scooter", "fusion_lat": 0.0, "is_disabled": 0, "rental_uris": {"ios": "https://dc.lft.to/lastmile_qr_scan", "android": "https://dc.lft.to/lastmile_qr_scan"}, "bike_id": "dd1c2a0e5639687b76b7c91be81e8fa4", "lat": 38.8955385, "name": "dd1c2a0e5639687b76b7c91be81e8fa4", "lon": -77.00914533333334, "fusion_lon": 0.0}, {"is_reserved": 0, "type": "electric_scooter", "fusion_lat": 0.0, "is_disabled": 0, "rental_uris": {"ios": "https://dc.lft.to/lastmile_qr_scan", "android": "https://dc.lft.to/lastmile_qr_scan"}, "bike_id": "9f67e8d0dc9e5f9a51b1f6bc7da75e27", "lat": 38.8843015, "name": "9f67e8d0dc9e5f9a51b1f6bc7da75e27", "lon": -77.0303755, "fusion_lon": 0.0}, {"is_reserved": 0, "type": "electric_scooter", "fusion_lat": 0.0, "is_disabled": 0, "rental_uris": {"ios": "https://dc.lft.to/lastmile_qr_scan", "android": "https://dc.lft.to/lastmile_qr_scan"}, "bike_id": "6a19c7d4b2e952882eb7acea26ec653a", "lat": 38.887770833333335, "name": "6a19c7d4b2e952882eb7acea26ec653a", "lon": -76.93263083333333, "fusion_lon": 0.0},