{"data": {"bikes": [{"is_reserved": 0, "type": "electric_scooter", "fusion_lat": 0.0, "is_disabled": 0, "rental_uris": {"ios": "https://dc.lft.to/lastmile_qr_scan", "android": "https://dc.lft.to/lastmile_qr_scan"}, "bike_id": "3cdaab7db6eb6136df8b634e0dbe4792", "lat": 38.9076495, "name": "3cdaab7db6eb6136df8b634e0dbe4792", "lon": -77.00043916666667, "fusion_lon": 0.0}, {"is_reserved": 0, "type": "electric_scooter", "fusion_lat": 0.0, "is_disabled": 0, "rental_uris": {"ios": "https://dc.lft.to/lastmile_qr_scan", "android": "https://dc.lft.to/lastmile_qr_scan"}, "bike_id": "d6a100547ac9854e9c6a37022f19e75d", "lat": 38.89249933333333, "name": "d6a100547ac9854e9c6a37022f19e75d", "lon": -77.01822433333334, "fusion_lon": 0.0}, {"is_reserved": 0, "type": "electric_scooter", "fusion_lat": 0.0, "is_disabled": 0, "rental_uris": {"ios": "https://dc.lft.to/lastmile_qr_scan", "android": "https://dc.lft.to/lastmile_qr_scan"}, "bike_id": "473c705a04930824400691f34769e558", "lat": 38.92074616666667, "name": "473c705a04930824400691f34769e558", "lon": -77.02511733333333, "fusion_lon": 0.0}, {"is_reserved": 0, "type": "electric_scooter", "fusion_lat": 0.0, "is_disabled": 0, "rental_uris": {"ios": "https://dc.lft.to/lastmile_qr_scan", "android": "https://dc.lft.to/lastmile_qr_scan"}, "bike_id": "0323194e92f8186092523fa863503c25", "lat": 38.90335683333333, "name": "0323194e92f8186092523fa863503c25", "lon": -76.97588233333333, "fusion_lon": 0.0}, {"is_reserved": 0, "type": "electric_scooter", "fusion_lat": 0.0, "is_disabled": 0, "rental_uris": {"ios": "https://dc.lft.to/lastmile_qr_scan", "android": "https://dc.lft.to/lastmile_qr_scan"}, "bike_id": "0f4f23e97eb8e4d380d99b5c1c8f87ae", "lat": 38.9096055, "name": "0f4f23e97eb8e4d380d99b5c1c8f87ae", "lon": -77.01388683333333, "fusion_lon": 0.0}, {"is_reserved": 0, "type": "electric_scooter", "fusion_lat": 0.0, "is_disabled": 0, "rental_uris": {"ios": "https://dc.lft.to/lastmile_qr_scan", "android": "https://dc.lft.to/lastmile_qr_scan"}, "bike_id": "bad15da295b4355dee0c27c3b1215beb", "lat": 38.89909216666667, "name": "bad15da295b4355dee0c27c3b1215beb", "lon": -77.04012083333333, "fusion_lon": 0.0}, {"is_reserved": 0, "type": "electric_scooter", "fusion_lat": 0.0, "is_disabled": 0, "rental_uris": {"ios": "https://dc.lft.to/lastmile_qr_scan", "android": "https://dc.lft.to/lastmile_qr_scan"}, "bike_id": "57b29386352f1cffb11a34a2e776640e", "lat": 38.933471, "name": "57b29386352f1cffb11a34a2e776640e", "lon": -76.9943875, "fusion_lon": 0.0}, {"is_reserved": 0, "type": "electric_scooter", "fusion_lat": 0.0, "is_disabled": 0, "rental_uris": {"ios": "https://dc.lft.to/lastmile_qr_scan", "android": "https://dc.lft.to/lastmile_qr_scan"}, "bike_id": "fdbd7cefe65e512287747a5220678d20", "lat": 38.8992425, "name": "fdbd7cefe65e512287747a5220678d20", "lon": -77.0034005, "fusion_lon": 0.0}, {"is_reserved": 0, "type": "electric_scooter", "fusion_lat": 0.0, "is_disabled": 0, "rental_uris": {"ios": "https://dc.lft.to/lastmile_qr_scan", "android": "https://dc.lft.to/lastmile_qr_scan"}, "bike_id": "1b1cf879f3b44b975f801456f6552d1f", "lat": 38.8992425, "name": "1b1cf879f3b44b975f801456f6552d1f", "lon": -77.03213533333333, "fusion_lon": 0.0}, {"is_reserved": 0, "type": "electric_scooter", "fusion_lat": 0.0, "is_disabled": 0, "rental_uris": {"ios": "https://dc.lft.to/lastmile_qr_scan", "android": "https://dc.lft.to/lastmile_qr_scan"}, "bike_id": "bbd4a7934189bc1daa61d7409398b39c", "lat": 38.882691333333334, "name": "bbd4a7934189bc1daa61d7409398b39c", "lon": -76.9952265, "fusion_lon": 0.0}, {"is_reserved": 0, "type": "electric_bike", "fusion_lat": 0.0, "is_disabled": 0, "rental_uris": {"ios": "https://dc.lft.to/lastmile_qr_scan", "android": "https://dc.lft.to/lastmile_qr_scan"}, "bike_id": "80306bd8e61eed98a6b369d845fabfd7", "lat": 39.026470833333335, "name": "80306bd8e61eed98a6b369d845fabfd7", "lon": -77.03684, "fusion_lon": 0.0}, {"is_reserved": 0, "type": "electric_scooter", "fusion_lat": 0.0, "is_disabled": 0, "rental_uris": {"ios": "https://dc.lft.to/lastmile_qr_scan", "android": "https://dc.lft.to/lastmile_qr_scan"}, "bike_id": "42b0ac89f3d63a6ebe8e6bc262344529", "lat": 38.90416466666667, "name": "42b0ac89f3d63a6ebe8e6bc262344529", "lon": -77.03264333333334, "fusion_lon": 0.0}, {"is_reserved": 0, "type": "electric_scooter", "fusion_lat": 0.0, "is_disabled": 0, "rental_uris": {"ios": "https://dc.lft.to/lastmile_qr_scan", "android": "https://dc.lft.to/lastmile_qr_scan"}, "bike_id": "ba8232422752c96a7829a9b39d886a9b", "lat": 38.91710166666667, "name": "ba8232422752c96a7829a9b39d886a9b", "lon": -77.02954016666666, "fusion_lon": 0.0}, {"is_reserved": 0, "type": "electric_scooter", "fusion_lat": 0.0, "is_disabled": 0, "rental_uris": {"ios": "https://dc.lft.to/lastmile_qr_scan", "android": "https://dc.lft.to/lastmile_qr_scan"}, "bike_id": "89dd5cf59a806303f5d8080a00728617", "lat": 38.908659, "name": "89dd5cf59a806303f5d8080a00728617", "lon": -77.02358983333333, "fusion_lon": 0.0}, {"is_reserved": 0, "type": "electric_scooter", "fusion_lat": 0.0, "is_disabled": 0, "rental_uris": {"ios": "https://dc.lft.to/lastmile_qr_scan", "android": "https://dc.lft.to/lastmile_qr_scan"}, "bike_id": "50d5a10b6c46bff37c16569f75fb8325", "lat": 38.91702633333333, "name": "50d5a10b6c46bff37c16569f75fb8325", "lon": -77.0333365, "fusion_lon": 0.0}, {"is_reserved": 0, "type": "electric_scooter", "fusion_lat": 0.0, "is_disabled": 0, "rental_uris": {"ios": "https://dc.lft.to/lastmile_qr_scan", "android": "https://dc.lft.to/lastmile_qr_scan"}, "bike_id": "752c8ba2ecc867ba9d74bf05fce2806e", "lat": 38.9220065, "name": "752c8ba2ecc867ba9d74bf05fce2806e", "lon": -77.02046166666666, "fusion_lon": 0.0}, {"is_reserved": 0, "type": "electric_scooter", "fusion_lat": 0.0, "is_disabled": 0, "rental_uris": {"ios": "https://dc.lft.to/lastmile_qr_scan", "android": "https://dc.lft.to/lastmile_qr_scan"}, "bike_id": "095b1df88bc0d6eb9d6a74cfd58f8fc5", "lat": 38.897459166666664, "name": "095b1df88bc0d6eb9d6a74cfd58f8fc5", "lon": -76.9961155, "fusion_lon": 0.0}, {"is_reserved": 0, "type": "electric_scooter", "fusion_lat": 0.0, "is_disabled": 0, "rental_uris": {"ios": "https://dc.lft.to/lastmile_qr_scan", "android": "https://dc.lft.to/lastmile_qr_scan"}, "bike_id": "9e6332b88414254f84c1ddabab2ca234", "lat": 38.9276335, "name": "9e6332b88414254f84c1ddabab2ca234", "lon": -77.05268916666667, "fusion_lon": 0.0}, {"is_reserved": 0, "type": "electric_scooter", "fusion_lat": 0.0, "is_disabled": 0, "rental_uris": {"ios": "https://dc.lft.to/lastmile_qr_scan", "android": "https://dc.lft.to/lastmile_qr_scan"}, "bike_id": "49acdb827db04ca53872ffff36838176", "lat": 38.880509833333335, "name": "49acdb827db04ca53872ffff36838176", "lon": -77.01763466666667, "fusion_lon": 0.0}, {"is_reserved": 0, "type": "electric_scooter", "fusion_lat": 0.0, "is_disabled": 0, "rental_uris": {"ios": "https://dc.lft.to/lastmile_qr_scan", "android": "https://dc.lft.to/lastmile_qr_scan"}, "bike_id": "3640e27302150cdbdc3e1adb1c65885a", "lat": 38.88449983333334, "name": "3640e27302150cdbdc3e1adb1c65885a", "lon": -77.02333633333333, "fusion_lon": 0.0}, {"is_reserved": 0, "type": "electric_scooter", "fusion_lat": 0.0, "is_disabled": 0, "rental_uris": {"ios": "https://dc.lft.to/lastmile_qr_scan", "android": "https://dc.lft.to/lastmile_qr_scan"}, "bike_id": "fbff992c5cf76db0fe1fcd334415292d", "lat": 38.886221166666665, "name": "fbff992c5cf76db0fe1fcd334415292d", "lon": -76.926342, "fusion_lon": 0.0}, {"is_reserved": 0, "type": "electric_scooter", "fusion_lat": 0.0, "is_disabled": 0, "rental_uris": {"ios": "https://dc.lft.to/lastmile_qr_scan", "android": "https://dc.lft.to/lastmile_qr_scan"}, "bike_id": "f3c97b41e16e13175ed7a2614b5b5b7a", "lat": 38.92986666666667, "name": "f3c97b41e16e13175ed7a2614b5b5b7a", "lon": -77.0550555, "fusion_lon": 0.0}, {"is_reserved": 0, "type": "electric_scooter", "fusion_lat": 0.0, "is_disabled": 0, "rental_uris": {"ios": "https://dc.lft.to/lastmile_qr_scan", "android": "https://dc.lft.to/lastmile_qr_scan"}, "bike_id": "bb17187bb11eb7ba0aeb2b20c11077b7", "lat": 38.91938716666667, "name": "bb17187bb11eb7ba0aeb2b20c11077b7", "lon": -76.99953366666666, "fusion_lon": 0.0}, {"is_reserved": 0, "type": "electric_scooter", "fusion_lat": 0.0, "is_disabled": 0, "rental_uris": {"ios": "https://dc.lft.to/lastmile_qr_scan", "android": "https://dc.lft.to/lastmile_qr_scan"}, "bike_id": "9c5462d594f7ab918f408a5b9275f757", "lat": 38.95591133333333, "name": "9c5462d594f7ab918f408a5b9275f757", "lon": -77.01784466666666, "fusion_lon": 0.0}, {"is_reserved": 0, "type": "electric_scooter", "fusion_lat": 0.0, "is_disabled": 0, "rental_uris": {"ios": "https://dc.lft.to/lastmile_qr_scan", "android": "https://dc.lft.to/lastmile_qr_scan"}, "bike_id": "e7f7865065671df09600b99013dad873", "lat": 38.9346685, "name": "e7f7865065671df09600b99013dad873", "lon": -77.02770516666666, "fusion_lon": 0.0}, {"is_reserved": 0, "type": "electric_scooter", "fusion_lat": 0.0, "is_disabled": 0, "rental_uris": {"ios": "https://dc.lft.to/lastmile_qr_scan", "android": "https://dc.lft.to/lastmile_qr_scan"}, "bike_id": "7e166c69b1d89dba5f8872b0ad19b50b", "lat": 38.9051335, "name": "7e166c69b1d89dba5f8872b0ad19b50b", "lon": -76.9520245, "fusion_lon": 0.0}, {"is_reserved": 0, "type": "electric_scooter", "fusion_lat": 0.0, "is_disabled": 0, "rental_uris": {"ios": "https://dc.lft.to/lastmile_qr_scan", "android": "https://dc.lft.to/lastmile_qr_scan"}, "bike_id": "a84ec01d5e9cebbec53ee4234c0e89b7", "lat": 38.8737095, "name": "a84ec01d5e9cebbec53ee4234c0e89b7", "lon": -77.00132533333333, "fusion_lon": 0.0}, {"is_reserved": 0, "type": "electric_scooter", "fusion_lat": 0.0, "is_disabled": 0, "rental_uris": {"ios": "https://dc.lft.to/lastmile_qr_scan", "android": "https://dc.lft.to/lastmile_qr_scan"}, "bike_id": "dbdd9a5cdab486eaf42bd319db8a9ce7", "lat": 38.8784195, "name": "dbdd9a5cdab486eaf42bd319db8a9ce7", "lon": -77.00848316666666, "fusion_lon": 0.0}, {"is_reserved": 0, "type": "electric_scooter", "fusion_lat": 0.0, "is_disabled": 0, "rental_uris": {"ios": "https://dc.lft.to/lastmile_qr_scan", "android": "https://dc.lft.to/lastmile_qr_scan"}, "bike_id": "ab4b8d25eb28eaf496585258395129f7", "lat": 38.91569116666667, "name": "ab4b8d25eb28eaf496585258395129f7", "lon": -77.0094075, "fusion_lon": 0.0}, {"is_reserved": 0, "type": "electric_scooter", "fusion_lat": 0.0, "is_disabled": 0, "rental_uris": {"ios": "https://dc.lft.to/lastmile_qr_scan", "android": "https://dc.lft.to/lastmile_qr_scan"}, "bike_id": "af3c5450993bde7b02875986d634296f", "lat": 38.88527116666667, "name": "af3c5450993bde7b02875986d634296f", "lon": -76.996119, "fusion_lon": 0.0}, {"is_reserved": 0, "type": "electric_scooter", "fusion_lat": 0.0, "is_disabled": 0, "rental_uris": {"ios": "https://dc.lft.to/lastmile_qr_scan", "android": "https://dc.lft.to/lastmile_qr_scan"}, "bike_id": "043caf3407513457c0884736928ebcd8", "lat": 38.918428666666664, "name": "043caf3407513457c0884736928ebcd8", "lon": -77.0244035, "fusion_lon": 0.0}, {"is_reserved": 0, "type": "electric_bike", "fusion_lat": 0.0, "is_disabled": 0, "rental_uris": {"ios": "https://dc.lft.to/lastmile_qr_scan", "android": "https://dc.lft.to/lastmile_qr_scan"}, "bike_id": "6382243860d2f04fe279210bb880b830", "lat": 38.877438, "name": "6382243860d2f04fe279210bb880b830", "lon": -77.14873033333333, "fusion_lon": 0.0}, {"is_reserved": 0, "type": "electric_scooter", "fusion_lat": 0.0, "is_disabled": 0, "rental_uris": {"ios": "https://dc.lft.to/lastmile_qr_scan", "android": "https://dc.lft.to/lastmile_qr_scan"}, "bike_id": "4f17570231b7646b7eab776b809dbd0c", "lat": 38.92971333333333, "name": "4f17570231b7646b7eab776b809dbd0c", "lon": -77.02344633333334, "fusion_lon": 0.0}, {"is_reserved": 0, "type": "electric_bike", "fusion_lat": 0.0, "is_disabled": 0, "rental_uris": {"ios": "https://dc.lft.to/lastmile_qr_scan", "android": "https://dc.lft.to/lastmile_qr_scan"}, "bike_id": "81221360674eda5639201230a3f65d09", "lat": 38.911744, "name": "81221360674eda5639201230a3f65d09", "lon": -77.0027825, "fusion_lon": 0.0}, {"is_reserved": 0, "type": "electric_scooter", "fusion_lat": 0.0, "is_disabled": 0, "rental_uris": {"ios": "https://dc.lft.to/lastmile_qr_scan", "android": "https://dc.lft.to/lastmile_qr_scan"}, "bike_id": "c04d57de43337f6d14183622df64c7f1", "lat": 38.909598833333334, "name": "c04d57de43337f6d14183622df64c7f1", "lon": -77.03423466666666, "fusion_lon": 0.0}, {"is_reserved": 0, "type": "electric_scooter", "fusion_lat": 0.0, "is_disabled": 0, "rental_uris": {"ios": "https://dc.lft.to/lastmile_qr_scan", "android": "https://dc.lft.to/lastmile_qr_scan"}, "bike_id": "41286966a7b72972ab9c09448d08cfd7", "lat": 38.88103566666667, "name": "41286966a7b72972ab9c09448d08cfd7", "lon": -77.01237266666666, "fusion_lon": 0.0}, {"is_reserved": 0, "type": "electric_bike", "fusion_lat": 0.0, "is_disabled": 0, "rental_uris": {"ios": "https://dc.lft.to/lastmile_qr_scan", "android": "https://dc.lft.to/lastmile_qr_scan"}, "bike_id": "2b8b6ef96e2225605bec633357ac2e0d", "lat": 39.005346, "name": "2b8b6ef96e2225605bec633357ac2e0d", "lon": -77.10402033333334, "fusion_lon": 0.0}, {"is_reserved": 0, "type": "electric_bike", "fusion_lat": 0.0, "is_disabled": 0, "rental_uris": {"ios": "https://dc.lft.to/lastmile_qr_scan", "android": "https://dc.lft.to/lastmile_qr_scan"}, "bike_id": "f590f949d4b81733640056924bd85595", "lat": 38.865131, "name": "f590f949d4b81733640056924bd85595", "lon": -76.9734025, "fusion_lon": 0.0}, {"is_reserved": 0, "type": "electric_scooter", "fusion_lat": 0.0, "is_disabled": 0, "rental_uris": {"ios": "https://dc.lft.to/lastmile_qr_scan", "android": "https://dc.lft.to/lastmile_qr_scan"}, "bike_id": "5af77b28eac2447733333f86c399fd4e", "lat": 38.8769835, "name": "5af77b28eac2447733333f86c399fd4e", "lon": -76.99624, "fusion_lon": 0.0}, {"is_reserved": 0, "type": "electric_bike", "fusion_lat": 0.0, "is_disabled": 0, "rental_uris": {"ios": "https://dc.lft.to/lastmile_qr_scan", "android": "https://dc.lft.to/lastmile_qr_scan"}, "bike_id": "7bd6e2992187195e4cb944c344e9f7bb", "lat": 38.844763666666665, "name": "7bd6e2992187195e4cb944c344e9f7bb", "lon": -76.99586483333333, "fusion_lon": 0.0}, {"is_reserved": 0, "type": "electric_scooter", "fusion_lat": 0.0, "is_disabled": 0, "rental_uris": {"ios": "https://dc.lft.to/lastmile_qr_scan", "android": "https://dc.lft.to/lastmile_qr_scan"}, "bike_id": "0be4682598d1d22d8d2251c3107215e4", "lat": 38.92112633333333, "name": "0be4682598d1d22d8d2251c3107215e4", "lon": -77.045685, "fusion_lon": 0.0}, {"is_reserved": 0, "type": "electric_scooter", "fusion_lat": 0.0, "is_disabled": 0, "rental_uris": {"ios": "https://dc.lft.to/lastmile_qr_scan", "android": "https://dc.lft.to/lastmile_qr_scan"}, "bike_id": "3f032733c6707823ab06274a10bd7168", "lat": 38.904449666666665, "name": "3f032733c6707823ab06274a10bd7168", "lon": -77.03264016666667, "fusion_lon": 0.0}, {"is_reserved": 0, "type": "electric_scooter", "fusion_lat": 0.0, "is_disabled": 0, "rental_uris": {"ios": "https://dc.lft.to/lastmile_qr_scan", "android": "https://dc.lft.to/lastmile_qr_scan"}, "bike_id": "3ea82ad9823e1824ab10d82243193556", "lat": 38.90176316666667, "name": "3ea82ad9823e1824ab10d82243193556", "lon": -77.050664, "fusion_lon": 0.0}, {"is_reserved": 0, "type": "electric_scooter", "fusion_lat": 0.0, "is_disabled": 0, "rental_uris": {"ios": "https://dc.lft.to/lastmile_qr_scan", "android": "https://dc.lft.to/lastmile_qr_scan"}, "bike_id": "4472401a235da92ed01723cec127b188", "lat": 38.9194395, "name": "4472401a235da92ed01723cec127b188", "lon": -77.03198166666667, "fusion_lon": 0.0}, {"is_reserved": 0, "type": "electric_bike", "fusion_lat": 0.0, "is_disabled": 0, "rental_uris": {"ios": "https://dc.lft.to/lastmile_qr_scan", "android": "https://dc.lft.to/lastmile_qr_scan"}, "bike_id": "778e83e0b586cd90e3ab83d120c055cb", "lat": 38.8811575, "name": "778e83e0b586cd90e3ab83d120c055cb", "lon": -77.01671716666667, "fusion_lon": 0.0}, {"is_reserved": 0, "type": "electric_scooter", "fusion_lat": 0.0, "is_disabled": 0, "rental_uris": {"ios": "https://dc.lft.to/lastmile_qr_scan", "android": "https://dc.lft.to/lastmile_qr_scan"}, "bike_id": "9b733a48d67e5e0f2e1b49cccf656ddf", "lat": 38.922897166666665, "name": "9b733a48d67e5e0f2e1b49cccf656ddf", "lon": -77.03658233333333, "fusion_lon": 0.0}, {"is_reserved": 0, "type": "electric_scooter", "fusion_lat": 0.0, "is_disabled": 0, "rental_uris": {"ios": "https://dc.lft.to/lastmile_qr_scan", "android": "https://dc.lft.to/lastmile_qr_scan"}, "bike_id": "8d81c4ba0ed898a3299beb30cbc48923", "lat": 38.938767, "name": "8d81c4ba0ed898a3299beb30cbc48923", "lon": -77.029583, "fusion_lon": 0.0}, {"is_reserved": 0, "type": "electric_scooter", "fusion_lat": 0.0, "is_disabled": 0, "rental_uris": {"ios": "https://dc.lft.to/lastmile_qr_scan", "android": "https://dc.lft.to/lastmile_qr_scan"}, "bike_id": "46515594d646fe3b36fc90744c01c2df", "lat": 38.881798333333336, "name": "46515594d646fe3b36fc90744c01c2df", "lon": -76.925426, "fusion_lon": 0.0}, {"is_reserved": 0, "type": "electric_scooter", "fusion_lat": 0.0, "is_disabled": 0, "rental_uris": {"ios": "https://dc.lft.to/lastmile_qr_scan", "android": "https://dc.lft.to/lastmile_qr_scan"}, "bike_id": "131a097f64d207f87ed2e369e9a3307d", "lat": 38.905396, "name": "131a097f64d207f87ed2e369e9a3307d", "lon": -77.05699483333333, "fusion_lon": 0.0}, {"is_reserved": 0, "type": "electric_scooter", "fusion_lat": 0.0, "is_disabled": 0, "rental_uris": {"ios": "https://dc.lft.to/lastmile_qr_scan", "android": "https://dc.lft.to/lastmile_qr_scan"}, "bike_id": "ee0c7c123c788eadd6075bb2180c88d3", "lat": 38.90011466666667, "name": "ee0c7c123c788eadd6075bb2180c88d3", "lon": -76.9823355, "fusion_lon": 0.0}, {"is_reserved": 0, "type": "electric_scooter", "fusion_lat": 0.0, "is_disabled": 0, "rental_uris": {"ios": "https://dc.lft.to/lastmile_qr_scan", "android": "https://dc.lft.to/lastmile_qr_scan"}, "bike_id": "96158849d18480c607ffcfa508e539e8", "lat": 38.8936995, "name": "96158849d18480c607ffcfa508e539e8", "lon": -77.04474383333333, "fusion_lon": 0.0}, {"is_reserved": 0, "type": "electric_scooter", "fusion_lat": 0.0, "is_disabled": 0, "rental_uris": {"ios": "https://dc.lft.to/lastmile_qr_scan", "android": "https://dc.lft.to/lastmile_qr_scan"}, "bike_id": "c26427bee8fa00ca6ddb6b984a2e29ea", "lat": 38.875747, "name": "c26427bee8fa00ca6ddb6b984a2e29ea", "lon": -77.0060475, "fusion_lon": 0.0}, {"is_reserved": 0, "type": "electric_scooter", "fusion_lat": 0.0, "is_disabled": 0, "rental_uris": {"ios": "https://dc.lft.to/lastmile_qr_scan", "android": "https://dc.lft.to/lastmile_qr_scan"}, "bike_id": "422a5b611975294a4853da81eba84c88", "lat": 38.912548666666666, "name": "422a5b611975294a4853da81eba84c88", "lon": -77.0479375, "fusion_lon": 0.0}, {"is_reserved": 0, "type": "electric_bike", "fusion_lat": 0.0, "is_disabled": 0, "rental_uris": {"ios": "https://dc.lft.to/lastmile_qr_scan", "android": "https://dc.lft.to/lastmile_qr_scan"}, "bike_id": "f753e901fa1460e6becf0c4c189db4c7", "lat": 39.00449416666667, "name": "f753e901fa1460e6becf0c4c189db4c7", "lon": -76.90117566666666, "fusion_lon": 0.0}, {"is_reserved": 0, "type": "electric_scooter", "fusion_lat": 0.0, "is_disabled": 0, "rental_uris": {"ios": "https://dc.lft.to/lastmile_qr_scan", "android": "https://dc.lft.to/lastmile_qr_scan"}, "bike_id": "02907d8ed62ce8016f18e88d2806b6fd", "lat": 38.936424333333335, "name": "02907d8ed62ce8016f18e88d2806b6fd", "lon": -77.021334, "fusion_lon": 0.0}, {"is_reserved": 0, "type": "electric_scooter", "fusion_lat": 0.0, "is_disabled": 0, "rental_uris": {"ios": "https://dc.lft.to/lastmile_qr_scan", "android": "https://dc.lft.to/lastmile_qr_scan"}, "bike_id": "e00408e4d40f7adcb78fc44e6e418065", "lat": 38.9398375, "name": "e00408e4d40f7adcb78fc44e6e418065", "lon": -77.01907666666666, "fusion_lon": 0.0}, {"is_reserved": 0, "type": "electric_scooter", "fusion_lat": 0.0, "is_disabled": 0, "rental_uris": {"ios": "https://dc.lft.to/lastmile_qr_scan", "android": "https://dc.lft.to/lastmile_qr_scan"}, "bike_id": "7a7fa1e54c84870c75a6953753f92699", "lat": 38.939706, "name": "7a7fa1e54c84870c75a6953753f92699", "lon": -77.0325015, "fusion_lon": 0.0}, {"is_reserved": 0, "type": "electric_bike", "fusion_lat": 0.0, "is_disabled": 0, "rental_uris": {"ios": "https://dc.lft.to/lastmile_qr_scan", "android": "https://dc.lft.to/lastmile_qr_scan"}, "bike_id": "dccb96d3553e1f991557a624d9752e9b", "lat": 38.903998666666666, "name": "dccb96d3553e1f991557a624d9752e9b", "lon": -77.05128766666667, "fusion_lon": 0.0}, {"is_reserved": 0, "type": "electric_scooter", "fusion_lat": 0.0, "is_disabled": 0, "rental_uris": {"ios": "https://dc.lft.to/lastmile_qr_scan", "android": "https://dc.lft.to/lastmile_qr_scan"}, "bike_id": "9074162edb5e698252d5d271f584f26b", "lat": 38.92616533333333, "name": "9074162edb5e698252d5d271f584f26b", "lon": -77.0215925, "fusion_lon": 0.0}, {"is_reserved": 0, "type": "electric_scooter", "fusion_lat": 0.0, "is_disabled": 0, "rental_uris": {"ios": "https://dc.lft.to/lastmile_qr_scan", "android": "https://dc.lft.to/lastmile_qr_scan"}, "bike_id": "a47ad428b641b5dcef0b4c633eeb00b9", "lat": 38.89852233333333, "name": "a47ad428b641b5dcef0b4c633eeb00b9", "lon": -77.02211516666667, "fusion_lon": 0.0}, {"is_reserved": 0, "type": "electric_scooter", "fusion_lat": 0.0, "is_disabled": 0, "rental_uris": {"ios": "https://dc.lft.to/lastmile_qr_scan", "android": "https://dc.lft.to/lastmile_qr_scan"}, "bike_id": "c6ec44265cca5cf0c7699f35beddca45", "lat": 38.95743783333333, "name": "c6ec44265cca5cf0c7699f35beddca45", "lon": -77.02323983333334, "fusion_lon": 0.0}, {"is_reserved": 0, "type": "electric_bike", "fusion_lat": 0.0, "is_disabled": 0, "rental_uris": {"ios": "https://dc.lft.to/lastmile_qr_scan", "android": "https://dc.lft.to/lastmile_qr_scan"}, "bike_id": "230bf36b8c61e7c9fd7d04d36c06a821", "lat": 38.9416925, "name": "230bf36b8c61e7c9fd7d04d36c06a821", "lon": -76.994109, "fusion_lon": 0.0}, {"is_reserved": 0, "type": "electric_scooter", "fusion_lat": 0.0, "is_disabled": 0, "rental_uris": {"ios": "https://dc.lft.to/lastmile_qr_scan", "android": "https://dc.lft.to/lastmile_qr_scan"}, "bike_id": "2aa95965b7ce4aa10ee9827515b40215", "lat": 38.902849333333336, "name": "2aa95965b7ce4aa10ee9827515b40215", "lon": -77.033509, "fusion_lon": 0.0}, {"is_reserved": 0, "type": "electric_scooter", "fusion_lat": 0.0, "is_disabled": 0, "rental_uris": {"ios": "https://dc.lft.to/lastmile_qr_scan", "android": "https://dc.lft.to/lastmile_qr_scan"}, "bike_id": "0366e2c2ca8b74b0effe1059fd43163d", "lat": 38.9215595, "name": "0366e2c2ca8b74b0effe1059fd43163d", "lon": -77.03379183333334, "fusion_lon": 0.0}, {"is_reserved": 0, "type": "electric_bike", "fusion_lat": 0.0, "is_disabled": 0, "rental_uris": {"ios": "https://dc.lft.to/lastmile_qr_scan", "android": "https://dc.lft.to/lastmile_qr_scan"}, "bike_id": "845d6f988b5b6f0e6670b356261c6df0", "lat": 38.998319333333335, "name": "845d6f988b5b6f0e6670b356261c6df0", "lon": -76.99726683333333, "fusion_lon": 0.0}, {"is_reserved": 0, "type": "electric_scooter", "fusion_lat": 0.0, "is_disabled": 0, "rental_uris": {"ios": "https://dc.lft.to/lastmile_qr_scan", "android": "https://dc.lft.to/lastmile_qr_scan"}, "bike_id": "fd80022a6a6c7ea432199d60379042a1", "lat": 38.9207715, "name": "fd80022a6a6c7ea432199d60379042a1", "lon": -77.023161, "fusion_lon": 0.0}, {"is_reserved": 0, "type": "electric_scooter", "fusion_lat": 0.0, "is_disabled": 0, "rental_uris": {"ios": "https://dc.lft.to/lastmile_qr_scan", "android": "https://dc.lft.to/lastmile_qr_scan"}, "bike_id": "d7bda3ee0010dee654c096564c939e7c", "lat": 38.883854166666666, "name": "d7bda3ee0010dee654c096564c939e7c", "lon": -77.04607916666667, "fusion_lon": 0.0}, {"is_reserved": 0, "type": "electric_scooter", "fusion_lat": 0.0, "is_disabled": 0, "rental_uris": {"ios": "https://dc.lft.to/lastmile_qr_scan", "android": "https://dc.lft.to/lastmile_qr_scan"}, "bike_id": "bda714f558b17ae856d79b530e1c5ad0", "lat": 38.92889816666667, "name": "bda714f558b17ae856d79b530e1c5ad0", "lon": -77.03875016666667, "fusion_lon": 0.0}, {"is_reserved": 0, "type": "electric_scooter", "fusion_lat": 0.0, "is_disabled": 0, "rental_uris": {"ios": "https://dc.lft.to/lastmile_qr_scan", "android": "https://dc.lft.to/lastmile_qr_scan"}, "bike_id": "5f0e2d3a4c751c82db2de92303c38174", "lat": 38.9595875, "name": "5f0e2d3a4c751c82db2de92303c38174", "lon": -77.03320883333333, "fusion_lon": 0.0}, {"is_reserved": 0, "type": "electric_bike", "fusion_lat": 0.0, "is_disabled": 0, "rental_uris": {"ios": "https://dc.lft.to/lastmile_qr_scan", "android": "https://dc.lft.to/lastmile_qr_scan"}, "bike_id": "b5d79df3fa45120ed2012d9bcc37b0c0", "lat": 38.87571666666667, "name": "b5d79df3fa45120ed2012d9bcc37b0c0", "lon": -77.04705283333334, "fusion_lon": 0.0}, {"is_reserved": 0, "type": "electric_scooter", "fusion_lat": 0.0, "is_disabled": 0, "rental_uris": {"ios": "https://dc.lft.to/lastmile_qr_scan", "android": "https://dc.lft.to/lastmile_qr_scan"}, "bike_id": "cfbdd1dfa92336ade682395279164aac", "lat": 38.912802666666664, "name": "cfbdd1dfa92336ade682395279164aac", "lon": -77.04666633333333, "fusion_lon": 0.0}, {"is_reserved": 0, "type": "electric_scooter", "fusion_lat": 0.0, "is_disabled": 0, "rental_uris": {"ios": "https://dc.lft.to/lastmile_qr_scan", "android": "https://dc.lft.to/lastmile_qr_scan"}, "bike_id": "39cb7343543b4e03a9b012d708020303", "lat": 38.911932, "name": "39cb7343543b4e03a9b012d708020303", "lon": -77.01761683333334, "fusion_lon": 0.0}, {"is_reserved": 0, "type": "electric_scooter", "fusion_lat": 0.0, "is_disabled": 0, "rental_uris": {"ios": "https://dc.lft.to/lastmile_qr_scan", "android": "https://dc.lft.to/lastmile_qr_scan"}, "bike_id": "d79b21860815c1f188e9439160301ca7", "lat": 38.892103666666664, "name": "d79b21860815c1f188e9439160301ca7", "lon": -76.96120383333333, "fusion_lon": 0.0}, {"is_reserved": 0, "type": "electric_scooter", "fusion_lat": 0.0, "is_disabled": 0, "rental_uris": {"ios": "https://dc.lft.to/lastmile_qr_scan", "android": "https://dc.lft.to/lastmile_qr_scan"}, "bike_id": "48ad80c2b6d26ef38b119d694f5ca18c", "lat": 38.94841066666667, "name": "48ad80c2b6d26ef38b119d694f5ca18c", "lon": -77.02711866666667, "fusion_lon": 0.0}, {"is_reserved": 0, "type": "electric_scooter", "fusion_lat": 0.0, "is_disabled": 0, "rental_uris": {"ios": "https://dc.lft.to/lastmile_qr_scan", "android": "https://dc.lft.to/lastmile_qr_scan"}, "bike_id": "bd36788c5abbd3ddb3bb2a2c233239b9", "lat": 38.9148025, "name": "bd36788c5abbd3ddb3bb2a2c233239b9", "lon": -77.03211266666666, "fusion_lon": 0.0}, {"is_reserved": 0, "type": "electric_scooter", "fusion_lat": 0.0, "is_disabled": 0, "rental_uris": {"ios": "https://dc.lft.to/lastmile_qr_scan", "android": "https://dc.lft.to/lastmile_qr_scan"}, "bike_id": "f12de9403f217e9f24ff206f8fa20d52", "lat": 38.90131266666667, "name": "f12de9403f217e9f24ff206f8fa20d52", "lon": -77.01609666666667, "fusion_lon": 0.0}, {"is_reserved": 0, "type": "electric_scooter", "fusion_lat": 0.0, "is_disabled": 0, "rental_uris": {"ios": "https://dc.lft.to/lastmile_qr_scan", "android": "https://dc.lft.to/lastmile_qr_scan"}, "bike_id": "14b227258ea62fb9dcc0accd0e895b87", "lat": 38.891953, "name": "14b227258ea62fb9dcc0accd0e895b87", "lon": -77.022397, "fusion_lon": 0.0}, {"is_reserved": 0, "type": "electric_scooter", "fusion_lat": 0.0, "is_disabled": 0, "rental_uris": {"ios": "https://dc.lft.to/lastmile_qr_scan", "android": "https://dc.lft.to/lastmile_qr_scan"}, "bike_id": "bcfbdb6eb9ee72770b3436855f52211e", "lat": 38.920783166666666, "name": "bcfbdb6eb9ee72770b3436855f52211e", "lon": -77.02511283333334, "fusion_lon": 0.0}, {"is_reserved": 0, "type": "electric_scooter", "fusion_lat": 0.0, "is_disabled": 0, "rental_uris": {"ios": "https://dc.lft.to/lastmile_qr_scan", "android": "https://dc.lft.to/lastmile_qr_scan"}, "bike_id": "72a69b0860593de6653dcdba4a1fb8ed", "lat": 38.9051985, "name": "72a69b0860593de6653dcdba4a1fb8ed", "lon": -77.00045383333334, "fusion_lon": 0.0}, {"is_reserved": 0, "type": "electric_scooter", "fusion_lat": 0.0, "is_disabled": 0, "rental_uris": {"ios": "https://dc.lft.to/lastmile_qr_scan", "android": "https://dc.lft.to/lastmile_qr_scan"}, "bike_id": "4d9d596744a020e73ae48d148005b114", "lat": 38.901364666666666, "name": "4d9d596744a020e73ae48d148005b114", "lon": -77.01760766666666, "fusion_lon": 0.0}, {"is_reserved": 0, "type": "electric_scooter", "fusion_lat": 0.0, "is_disabled": 0, "rental_uris": {"ios": "https://dc.lft.to/lastmile_qr_scan", "android": "https://dc.lft.to/lastmile_qr_scan"}, "bike_id": "d521124b3b07243e61d95ada2971e8e3", "lat": 38.90606616666667, "name": "d521124b3b07243e61d95ada2971e8e3", "lon": -77.06296383333333, "fusion_lon": 0.0}, {"is_reserved": 0, "type": "electric_scooter", "fusion_lat": 0.0, "is_disabled": 0, "rental_uris": {"ios": "https://dc.lft.to/lastmile_qr_scan", "android": "https://dc.lft.to/lastmile_qr_scan"}, "bike_id": "fb2734540f768dab101f0cc35d8219b0", "lat": 38.922398333333334, "name": "fb2734540f768dab101f0cc35d8219b0", "lon": -76.98846333333333, "fusion_lon": 0.0}, {"is_reserved": 0, "type": "electric_bike", "fusion_lat": 0.0, "is_disabled": 0, "rental_uris": {"ios": "https://dc.lft.to/lastmile_qr_scan", "android": "https://dc.lft.to/lastmile_qr_scan"}, "bike_id": "1a55d1d2cf5858d04acee96ea3b7e00c", "lat": 38.91014066666666, "name": "1a55d1d2cf5858d04acee96ea3b7e00c", "lon": -77.0442885, "fusion_lon": 0.0}, {"is_reserved": 0, "type": "electric_scooter", "fusion_lat": 0.0, "is_disabled": 0, "rental_uris": {"ios": "https://dc.lft.to/lastmile_qr_scan", "android": "https://dc.lft.to/lastmile_qr_scan"}, "bike_id": "43d8bdc339dca5755463d8eef9a9ffd5", "lat": 38.92375, "name": "43d8bdc339dca5755463d8eef9a9ffd5", "lon": -77.027472, "fusion_lon": 0.0}, {"is_reserved": 0, "type": "electric_scooter", "fusion_lat": 0.0, "is_disabled": 0, "rental_uris": {"ios": "https://dc.lft.to/lastmile_qr_scan", "android": "https://dc.lft.to/lastmile_qr_scan"}, "bike_id": "214703cdc190f8b0eea5208041e2ad45", "lat": 38.9008545, "name": "214703cdc190f8b0eea5208041e2ad45", "lon": -77.01846933333333, "fusion_lon": 0.0}, {"is_reserved": 0, "type": "electric_scooter", "fusion_lat": 0.0, "is_disabled": 0, "rental_uris": {"ios": "https://dc.lft.to/lastmile_qr_scan", "android": "https://dc.lft.to/lastmile_qr_scan"}, "bike_id": "9bdaa83d3e5fb3fc980cbfbc363e9e3e", "lat": 38.905885, "name": "9bdaa83d3e5fb3fc980cbfbc363e9e3e", "lon": -77.07277133333334, "fusion_lon": 0.0}, {"is_reserved": 0, "type": "electric_bike", "fusion_lat": 0.0, "is_disabled": 0, "rental_uris": {"ios": "https://dc.lft.to/lastmile_qr_scan", "android": "https://dc.lft.to/lastmile_qr_scan"}, "bike_id": "d02f4fb6f7b34aee4a278998d330df62", "lat": 38.933567, "name": "d02f4fb6f7b34aee4a278998d330df62", "lon": -77.09714333333334, "fusion_lon": 0.0}, {"is_reserved": 0, "type": "electric_bike", "fusion_lat": 0.0, "is_disabled": 0, "rental_uris": {"ios": "https://dc.lft.to/lastmile_qr_scan", "android": "https://dc.lft.to/lastmile_qr_scan"}, "bike_id": "5ade6fd4475049aa34a474c236ae4c3b", "lat": 38.9023685, "name": "5ade6fd4475049aa34a474c236ae4c3b", "lon": -77.059093, "fusion_lon": 0.0}, {"is_reserved": 0, "type": "electric_scooter", "fusion_lat": 0.0, "is_disabled": 0, "rental_uris": {"ios": "https://dc.lft.to/lastmile_qr_scan", "android": "https://dc.lft.to/lastmile_qr_scan"}, "bike_id": "361d863fdaa0ef9bc10c3004a406e6af", "lat": 38.93118033333333, "name": "361d863fdaa0ef9bc10c3004a406e6af", "lon": -77.0234435, "fusion_lon": 0.0}, {"is_reserved": 0, "type": "electric_scooter", "fusion_lat": 0.0, "is_disabled": 0, "rental_uris": {"ios": "https://dc.lft.to/lastmile_qr_scan", "android": "https://dc.lft.to/lastmile_qr_scan"}, "bike_id": "9634b897a4037f33367d1a483e309a0c", "lat": 38.88609533333333, "name": "9634b897a4037f33367d1a483e309a0c", "lon": -77.00337266666666, "fusion_lon": 0.0}, {"is_reserved": 0, "type": "electric_scooter", "fusion_lat": 0.0, "is_disabled": 0, "rental_uris": {"ios": "https://dc.lft.to/lastmile_qr_scan", "android": "https://dc.lft.to/lastmile_qr_scan"}, "bike_id": "79ae36b349c053aa9f849171b739b509", "lat": 38.87679583333333, "name": "79ae36b349c053aa9f849171b739b509", "lon": -77.00328716666667, "fusion_lon": 0.0}, {"is_reserved": 0, "type": "electric_scooter", "fusion_lat": 0.0, "is_disabled": 0, "rental_uris": {"ios": "https://dc.lft.to/lastmile_qr_scan", "android": "https://dc.lft.to/lastmile_qr_scan"}, "bike_id": "d36857b232a3b77fc17d8a8259b7a6eb", "lat": 38.927933, "name": "d36857b232a3b77fc17d8a8259b7a6eb", "lon": -77.03152033333333, "fusion_lon": 0.0}, {"is_reserved": 0, "type": "electric_scooter", "fusion_lat": 0.0, "is_disabled": 0, "rental_uris": {"ios": "https://dc.lft.to/lastmile_qr_scan", "android": "https://dc.lft.to/lastmile_qr_scan"}, "bike_id": "6397a1d7168603aa43393e446136dd04", "lat": 38.87860333333333, "name": "6397a1d7168603aa43393e446136dd04", "lon": -77.01773183333333, "fusion_lon": 0.0}, {"is_reserved": 0, "type": "electric_scooter", "fusion_lat": 0.0, "is_disabled": 0, "rental_uris": {"ios": "https://dc.lft.to/lastmile_qr_scan", "android": "https://dc.lft.to/lastmile_qr_scan"}, "bike_id": "e61dfb940dcc3202a8d2651d02041307", "lat": 38.8942785, "name": "e61dfb940dcc3202a8d2651d02041307", "lon": -77.04483516666667, "fusion_lon": 0.0}, {"is_reserved": 0, "type": "electric_scooter", "fusion_lat": 0.0, "is_disabled": 0, "rental_uris": {"ios": "https://dc.lft.to/lastmile_qr_scan", "android": "https://dc.lft.to/lastmile_qr_scan"}, "bike_id": "092615acf2ff174527ac6c9f986d2e18", "lat": 38.910524833333334, "name": "092615acf2ff174527ac6c9f986d2e18", "lon": -77.04353783333333, "fusion_lon": 0.0}, {"is_reserved": 0, "type": "electric_scooter", "fusion_lat": 0.0, "is_disabled": 0, "rental_uris": {"ios": "https://dc.lft.to/lastmile_qr_scan", "android": "https://dc.lft.to/lastmile_qr_scan"}, "bike_id": "261674257bcddc46d093ff41e930bf94", "lat": 38.898758666666666, "name": "261674257bcddc46d093ff41e930bf94", "lon": -77.04662283333333, "fusion_lon": 0.0}, {"is_reserved": 0, "type": "electric_scooter", "fusion_lat": 0.0, "is_disabled": 0, "rental_uris": {"ios": "https://dc.lft.to/lastmile_qr_scan", "android": "https://dc.lft.to/lastmile_qr_scan"}, "bike_id": "17a2a91330888fdfd8be8027d8cd4eb1", "lat": 38.895076833333334, "name": "17a2a91330888fdfd8be8027d8cd4eb1", "lon": -77.02303516666667, "fusion_lon": 0.0}, {"is_reserved": 0, "type": "electric_scooter", "fusion_lat": 0.0, "is_disabled": 0, "rental_uris": {"ios": "https://dc.lft.to/lastmile_qr_scan", "android": "https://dc.lft.to/lastmile_qr_scan"}, "bike_id": "046d15848934a4d2002e00bbe65b0a99", "lat": 38.93589083333333, "name": "046d15848934a4d2002e00bbe65b0a99", "lon": -77.07431666666666, "fusion_lon": 0.0}, {"is_reserved": 0, "type": "electric_scooter", "fusion_lat": 0.0, "is_disabled": 0, "rental_uris": {"ios": "https://dc.lft.to/lastmile_qr_scan", "android": "https://dc.lft.to/lastmile_qr_scan"}, "bike_id": "0f3260fa7cbf05895a5ae2da1f1c460f", "lat": 38.893428, "name": "0f3260fa7cbf05895a5ae2da1f1c460f", "lon": -76.985565, "fusion_lon": 0.0}, {"is_reserved": 0, "type": "electric_scooter", "fusion_lat": 0.0, "is_disabled": 0, "rental_uris": {"ios": "https://dc.lft.to/lastmile_qr_scan", "android": "https://dc.lft.to/lastmile_qr_scan"}, "bike_id": "fdbb3c8dc90e8923eee49e8e7a023fc5", "lat": 38.92800016666666, "name": "fdbb3c8dc90e8923eee49e8e7a023fc5", "lon": -77.03700316666666, "fusion_lon": 0.0}, {"is_reserved": 0, "type": "electric_scooter", "fusion_lat": 0.0, "is_disabled": 0, "rental_uris": {"ios": "https://dc.lft.to/lastmile_qr_scan", "android": "https://dc.lft.to/lastmile_qr_scan"}, "bike_id": "e8a515c752bf023a34b667be8344bdce", "lat": 38.8773945, "name": "e8a515c752bf023a34b667be8344bdce", "lon": -77.005984, "fusion_lon": 0.0}, {"is_reserved": 0, "type": "electric_scooter", "fusion_lat": 0.0, "is_disabled": 0, "rental_uris": {"ios": "https://dc.lft.to/lastmile_qr_scan", "android": "https://dc.lft.to/lastmile_qr_scan"}, "bike_id": "c3ea387ddd625e274ce069e1b5fd34d3", "lat": 38.91882783333333, "name": "c3ea387ddd625e274ce069e1b5fd34d3", "lon": -77.035541, "fusion_lon": 0.0}, {"is_reserved": 0, "type": "electric_scooter", "fusion_lat": 0.0, "is_disabled": 0, "rental_uris": {"ios": "https://dc.lft.to/lastmile_qr_scan", "android": "https://dc.lft.to/lastmile_qr_scan"}, "bike_id": "7c6ae66924359d90ee7c4c06c9fb114a", "lat": 38.9076185, "name": "7c6ae66924359d90ee7c4c06c9fb114a", "lon": -77.03076516666667, "fusion_lon": 0.0}, {"is_reserved": 0, "type": "electric_scooter", "fusion_lat": 0.0, "is_disabled": 0, "rental_uris": {"ios": "https://dc.lft.to/lastmile_qr_scan", "android": "https://dc.lft.to/lastmile_qr_scan"}, "bike_id": "802bbcfe7f2d0ae6bb40a1b4d1f665c7", "lat": 38.90115483333334, "name": "802bbcfe7f2d0ae6bb40a1b4d1f665c7", "lon": -77.034413, "fusion_lon": 0.0}, {"is_reserved": 0, "type": "electric_scooter", "fusion_lat": 0.0, "is_disabled": 0, "rental_uris": {"ios": "https://dc.lft.to/lastmile_qr_scan", "android": "https://dc.lft.to/lastmile_qr_scan"}, "bike_id": "92228422340a9bd2e63e904abf609996", "lat": 38.90242, "name": "92228422340a9bd2e63e904abf609996", "lon": -77.020118, "fusion_lon": 0.0}, {"is_reserved": 0, "type": "electric_scooter", "fusion_lat": 0.0, "is_disabled": 0, "rental_uris": {"ios": "https://dc.lft.to/lastmile_qr_scan", "android": "https://dc.lft.to/lastmile_qr_scan"}, "bike_id": "619354f7d472da9d9cf7afbfaf187f90", "lat": 38.9361565, "name": "619354f7d472da9d9cf7afbfaf187f90", "lon": -77.055847, "fusion_lon": 0.0}, {"is_reserved": 0, "type": "electric_bike", "fusion_lat": 0.0, "is_disabled": 0, "rental_uris": {"ios": "https://dc.lft.to/lastmile_qr_scan", "android": "https://dc.lft.to/lastmile_qr_scan"}, "bike_id": "6c748f35443c3819ad874cc0f94ffd29", "lat": 38.9828215, "name": "6c748f35443c3819ad874cc0f94ffd29", "lon": -76.97637416666667, "fusion_lon": 0.0}, {"is_reserved": 0, "type": "electric_scooter", "fusion_lat": 0.0, "is_disabled": 0, "rental_uris": {"ios": "https://dc.lft.to/lastmile_qr_scan", "android": "https://dc.lft.to/lastmile_qr_scan"}, "bike_id": "0b08d66bfb870ed2997afb97817a5903", "lat": 38.925642, "name": "0b08d66bfb870ed2997afb97817a5903", "lon": -77.03772566666666, "fusion_lon": 0.0}, {"is_reserved": 0, "type": "electric_scooter", "fusion_lat": 0.0, "is_disabled": 0, "rental_uris": {"ios": "https://dc.lft.to/lastmile_qr_scan", "android": "https://dc.lft.to/lastmile_qr_scan"}, "bike_id": "d29a0d0cb3420bc4e4825c64567b8012", "lat": 38.930899, "name": "d29a0d0cb3420bc4e4825c64567b8012", "lon": -77.034447, "fusion_lon": 0.0}, {"is_reserved": 0, "type": "electric_scooter", "fusion_lat": 0.0, "is_disabled": 0, "rental_uris": {"ios": "https://dc.lft.to/lastmile_qr_scan", "android": "https://dc.lft.to/lastmile_qr_scan"}, "bike_id": "c15707631d8a6b2993faea82124db65b", "lat": 38.892235, "name": "c15707631d8a6b2993faea82124db65b", "lon": -77.02215483333333, "fusion_lon": 0.0}, {"is_reserved": 0, "type": "electric_bike", "fusion_lat": 0.0, "is_disabled": 0, "rental_uris": {"ios": "https://dc.lft.to/lastmile_qr_scan", "android": "https://dc.lft.to/lastmile_qr_scan"}, "bike_id": "c2d85120fd6268bcb9c08e44117d0575", "lat": 38.910503, "name": "c2d85120fd6268bcb9c08e44117d0575", "lon": -77.05919416666667, "fusion_lon": 0.0}, {"is_reserved": 0, "type": "electric_scooter", "fusion_lat": 0.0, "is_disabled": 0, "rental_uris": {"ios": "https://dc.lft.to/lastmile_qr_scan", "android": "https://dc.lft.to/lastmile_qr_scan"}, "bike_id": "606c233f81d78a999d472ff2fe0e14bc", "lat": 38.91639, "name": "606c233f81d78a999d472ff2fe0e14bc", "lon": -77.032027, "fusion_lon": 0.0}, {"is_reserved": 0, "type": "electric_scooter", "fusion_lat": 0.0, "is_disabled": 0, "rental_uris": {"ios": "https://dc.lft.to/lastmile_qr_scan", "android": "https://dc.lft.to/lastmile_qr_scan"}, "bike_id": "7d2eb84769f3d92ef7876cc56179240e", "lat": 38.90721033333333, "name": "7d2eb84769f3d92ef7876cc56179240e", "lon": -77.03344833333334, "fusion_lon": 0.0}, {"is_reserved": 0, "type": "electric_bike", "fusion_lat": 0.0, "is_disabled": 0, "rental_uris": {"ios": "https://dc.lft.to/lastmile_qr_scan", "android": "https://dc.lft.to/lastmile_qr_scan"}, "bike_id": "08e1629b8a05b11cfad87fbc0998055d", "lat": 38.8957515, "name": "08e1629b8a05b11cfad87fbc0998055d", "lon": -77.0217665, "fusion_lon": 0.0}, {"is_reserved": 0, "type": "electric_scooter", "fusion_lat": 0.0, "is_disabled": 0, "rental_uris": {"ios": "https://dc.lft.to/lastmile_qr_scan", "android": "https://dc.lft.to/lastmile_qr_scan"}, "bike_id": "6cadbcf2519cce0e6f98f32666c96bbd", "lat": 38.93686266666667, "name": "6cadbcf2519cce0e6f98f32666c96bbd", "lon": -77.05629216666667, "fusion_lon": 0.0}, {"is_reserved": 0, "type": "electric_scooter", "fusion_lat": 0.0, "is_disabled": 0, "rental_uris": {"ios": "https://dc.lft.to/lastmile_qr_scan", "android": "https://dc.lft.to/lastmile_qr_scan"}, "bike_id": "6a463a4a49dd4c0f1a472f99e21ea6b5", "lat": 38.916041666666665, "name": "6a463a4a49dd4c0f1a472f99e21ea6b5", "lon": -77.03225566666667, "fusion_lon": 0.0}, {"is_reserved": 0, "type": "electric_scooter", "fusion_lat": 0.0, "is_disabled": 0, "rental_uris": {"ios": "https://dc.lft.to/lastmile_qr_scan", "android": "https://dc.lft.to/lastmile_qr_scan"}, "bike_id": "3c9703347284bd7b580c62b63bc76ebb", "lat": 38.923649, "name": "3c9703347284bd7b580c62b63bc76ebb", "lon": -77.05071983333333, "fusion_lon": 0.0}, {"is_reserved": 0, "type": "electric_scooter", "fusion_lat": 0.0, "is_disabled": 0, "rental_uris": {"ios": "https://dc.lft.to/lastmile_qr_scan", "android": "https://dc.lft.to/lastmile_qr_scan"}, "bike_id": "9300830acf2a93ee2a53aa5d3669b396", "lat": 38.916969333333334, "name": "9300830acf2a93ee2a53aa5d3669b396", "lon": -77.0271715, "fusion_lon": 0.0}, {"is_reserved": 0, "type": "electric_scooter", "fusion_lat": 0.0, "is_disabled": 0, "rental_uris": {"ios": "https://dc.lft.to/lastmile_qr_scan", "android": "https://dc.lft.to/lastmile_qr_scan"}, "bike_id": "6af91edcdbd3512f2780b2bcd6f2ec13", "lat": 38.9201665, "name": "6af91edcdbd3512f2780b2bcd6f2ec13", "lon": -77.03121683333333, "fusion_lon": 0.0}, {"is_reserved": 0, "type": "electric_scooter", "fusion_lat": 0.0, "is_disabled": 0, "rental_uris": {"ios": "https://dc.lft.to/lastmile_qr_scan", "android": "https://dc.lft.to/lastmile_qr_scan"}, "bike_id": "44c914ac0f6698ef63f39661f20bdd14", "lat": 38.8936635, "name": "44c914ac0f6698ef63f39661f20bdd14", "lon": -76.94109233333333, "fusion_lon": 0.0}, {"is_reserved": 0, "type": "electric_bike", "fusion_lat": 0.0, "is_disabled": 0, "rental_uris": {"ios": "https://dc.lft.to/lastmile_qr_scan", "android": "https://dc.lft.to/lastmile_qr_scan"}, "bike_id": "63f7d31a10e2e693f99a041018d8f180", "lat": 39.000038833333335, "name": "63f7d31a10e2e693f99a041018d8f180", "lon": -76.9181095, "fusion_lon": 0.0}, {"is_reserved": 0, "type": "electric_scooter", "fusion_lat": 0.0, "is_disabled": 0, "rental_uris": {"ios": "https://dc.lft.to/lastmile_qr_scan", "android": "https://dc.lft.to/lastmile_qr_scan"}, "bike_id": "d8dad78f38078d668d718c503928949f", "lat": 38.90409, "name": "d8dad78f38078d668d718c503928949f", "lon": -77.03277166666666, "fusion_lon": 0.0}, {"is_reserved": 0, "type": "electric_scooter", "fusion_lat": 0.0, "is_disabled": 0, "rental_uris": {"ios": "https://dc.lft.to/lastmile_qr_scan", "android": "https://dc.lft.to/lastmile_qr_scan"}, "bike_id": "c436e5951969e66a2ecfbd5ed3da9ba7", "lat": 38.892315833333335, "name": "c436e5951969e66a2ecfbd5ed3da9ba7", "lon": -77.05000066666666, "fusion_lon": 0.0}, {"is_reserved": 0, "type": "electric_scooter", "fusion_lat": 0.0, "is_disabled": 0, "rental_uris": {"ios": "https://dc.lft.to/lastmile_qr_scan", "android": "https://dc.lft.to/lastmile_qr_scan"}, "bike_id": "b3ff93691abf642739ff718a9d9f0116", "lat": 38.92179566666667, "name": "b3ff93691abf642739ff718a9d9f0116", "lon": -77.043538, "fusion_lon": 0.0}, {"is_reserved": 0, "type": "electric_bike", "fusion_lat": 0.0, "is_disabled": 0, "rental_uris": {"ios": "https://dc.lft.to/lastmile_qr_scan", "android": "https://dc.lft.to/lastmile_qr_scan"}, "bike_id": "c6b912094a54ac2ba1e3475e157990d1", "lat": 38.915898166666665, "name": "c6b912094a54ac2ba1e3475e157990d1", "lon": -77.06634566666666, "fusion_lon": 0.0}, {"is_reserved": 0, "type": "electric_scooter", "fusion_lat": 0.0, "is_disabled": 0, "rental_uris": {"ios": "https://dc.lft.to/lastmile_qr_scan", "android": "https://dc.lft.to/lastmile_qr_scan"}, "bike_id": "7435777c9b2d98cb51b6fde28b9fcfd9", "lat": 38.91934366666667, "name": "7435777c9b2d98cb51b6fde28b9fcfd9", "lon": -77.0449475, "fusion_lon": 0.0}, {"is_reserved": 0, "type": "electric_scooter", "fusion_lat": 0.0, "is_disabled": 0, "rental_uris": {"ios": "https://dc.lft.to/lastmile_qr_scan", "android": "https://dc.lft.to/lastmile_qr_scan"}, "bike_id": "474681603db4df8e5b0df6240d44c73b", "lat": 38.914417666666665, "name": "474681603db4df8e5b0df6240d44c73b", "lon": -77.00347933333333, "fusion_lon": 0.0}, {"is_reserved": 0, "type": "electric_scooter", "fusion_lat": 0.0, "is_disabled": 0, "rental_uris": {"ios": "https://dc.lft.to/lastmile_qr_scan", "android": "https://dc.lft.to/lastmile_qr_scan"}, "bike_id": "0299b1d98d078f631f8f6c293345bae9", "lat": 38.90607766666667, "name": "0299b1d98d078f631f8f6c293345bae9", "lon": -77.0584185, "fusion_lon": 0.0}, {"is_reserved": 0, "type": "electric_bike", "fusion_lat": 0.0, "is_disabled": 0, "rental_uris": {"ios": "https://dc.lft.to/lastmile_qr_scan", "android": "https://dc.lft.to/lastmile_qr_scan"}, "bike_id": "2317cddaa846037f32b1eb115a01665e", "lat": 38.8074255, "name": "2317cddaa846037f32b1eb115a01665e", "lon": -77.09687216666667, "fusion_lon": 0.0}, {"is_reserved": 0, "type": "electric_scooter", "fusion_lat": 0.0, "is_disabled": 0, "rental_uris": {"ios": "https://dc.lft.to/lastmile_qr_scan", "android": "https://dc.lft.to/lastmile_qr_scan"}, "bike_id": "af392907503bfe904f34b6a8caa35923", "lat": 38.895500166666665, "name": "af392907503bfe904f34b6a8caa35923", "lon": -76.98334433333333, "fusion_lon": 0.0}, {"is_reserved": 0, "type": "electric_bike", "fusion_lat": 0.0, "is_disabled": 0, "rental_uris": {"ios": "https://dc.lft.to/lastmile_qr_scan", "android": "https://dc.lft.to/lastmile_qr_scan"}, "bike_id": "b2568ce4b6de223e5e9801f6ab63f910", "lat": 38.87179533333333, "name": "b2568ce4b6de223e5e9801f6ab63f910", "lon": -77.23392366666667, "fusion_lon": 0.0}, {"is_reserved": 0, "type": "electric_scooter", "fusion_lat": 0.0, "is_disabled": 0, "rental_uris": {"ios": "https://dc.lft.to/lastmile_qr_scan", "android": "https://dc.lft.to/lastmile_qr_scan"}, "bike_id": "c29fe69fff010ac9df6d82b5f4c5e1c9", "lat": 38.942046500000004, "name": "c29fe69fff010ac9df6d82b5f4c5e1c9", "lon": -77.01336716666667, "fusion_lon": 0.0}, {"is_reserved": 0, "type": "electric_scooter", "fusion_lat": 0.0, "is_disabled": 0, "rental_uris": {"ios": "https://dc.lft.to/lastmile_qr_scan", "android": "https://dc.lft.to/lastmile_qr_scan"}, "bike_id": "b166e0ec977a595d73b413b3410b7066", "lat": 38.902001, "name": "b166e0ec977a595d73b413b3410b7066", "lon": -77.00062666666666, "fusion_lon": 0.0}, {"is_reserved": 0, "type": "electric_scooter", "fusion_lat": 0.0, "is_disabled": 0, "rental_uris": {"ios": "https://dc.lft.to/lastmile_qr_scan", "android": "https://dc.lft.to/lastmile_qr_scan"}, "bike_id": "e5cc661aa39b9fd23bb7854af0024865", "lat": 38.9249815, "name": "e5cc661aa39b9fd23bb7854af0024865", "lon": -77.04344733333333, "fusion_lon": 0.0}, {"is_reserved": 0, "type": "electric_scooter", "fusion_lat": 0.0, "is_disabled": 0, "rental_uris": {"ios": "https://dc.lft.to/lastmile_qr_scan", "android": "https://dc.lft.to/lastmile_qr_scan"}, "bike_id": "0c7a5486124c144da14e1e2068b49b32", "lat": 38.907825833333334, "name": "0c7a5486124c144da14e1e2068b49b32", "lon": -77.07255716666667, "fusion_lon": 0.0}, {"is_reserved": 0, "type": "electric_scooter", "fusion_lat": 0.0, "is_disabled": 0, "rental_uris": {"ios": "https://dc.lft.to/lastmile_qr_scan", "android": "https://dc.lft.to/lastmile_qr_scan"}, "bike_id": "2bb39ca66914d87970a7c5a4bf1bd5cd", "lat": 38.88716433333333, "name": "2bb39ca66914d87970a7c5a4bf1bd5cd", "lon": -76.983383, "fusion_lon": 0.0}, {"is_reserved": 0, "type": "electric_scooter", "fusion_lat": 0.0, "is_disabled": 0, "rental_uris": {"ios": "https://dc.lft.to/lastmile_qr_scan", "android": "https://dc.lft.to/lastmile_qr_scan"}, "bike_id": "b213a460b0d0f8f331c2641337b8e092", "lat": 38.9288865, "name": "b213a460b0d0f8f331c2641337b8e092", "lon": -77.03731533333334, "fusion_lon": 0.0}, {"is_reserved": 0, "type": "electric_scooter", "fusion_lat": 0.0, "is_disabled": 0, "rental_uris": {"ios": "https://dc.lft.to/lastmile_qr_scan", "android": "https://dc.lft.to/lastmile_qr_scan"}, "bike_id": "bbf316ff09352195ba9168b29814a723", "lat": 38.89211866666667, "name": "bbf316ff09352195ba9168b29814a723", "lon": -77.025483, "fusion_lon": 0.0}, {"is_reserved": 0, "type": "electric_scooter", "fusion_lat": 0.0, "is_disabled": 0, "rental_uris": {"ios": "https://dc.lft.to/lastmile_qr_scan", "android": "https://dc.lft.to/lastmile_qr_scan"}, "bike_id": "60fae2371733b0c39def500c3e3a240d", "lat": 38.897813166666666, "name": "60fae2371733b0c39def500c3e3a240d", "lon": -77.05013633333333, "fusion_lon": 0.0}, {"is_reserved": 0, "type": "electric_scooter", "fusion_lat": 0.0, "is_disabled": 0, "rental_uris": {"ios": "https://dc.lft.to/lastmile_qr_scan", "android": "https://dc.lft.to/lastmile_qr_scan"}, "bike_id": "a2f5e127805a551db8652788cb4e2bca", "lat": 38.8766295, "name": "a2f5e127805a551db8652788cb4e2bca", "lon": -77.00404566666667, "fusion_lon": 0.0}, {"is_reserved": 0, "type": "electric_scooter", "fusion_lat": 0.0, "is_disabled": 0, "rental_uris": {"ios": "https://dc.lft.to/lastmile_qr_scan", "android": "https://dc.lft.to/lastmile_qr_scan"}, "bike_id": "1f79a2174df34600849d3c1b473a926f", "lat": 38.90235033333333, "name": "1f79a2174df34600849d3c1b473a926f", "lon": -77.00060216666667, "fusion_lon": 0.0}, {"is_reserved": 0, "type": "electric_scooter", "fusion_lat": 0.0, "is_disabled": 0, "rental_uris": {"ios": "https://dc.lft.to/lastmile_qr_scan", "android": "https://dc.lft.to/lastmile_qr_scan"}, "bike_id": "ffcf45a96a06b5010e114d8e10df8d4c", "lat": 38.924133, "name": "ffcf45a96a06b5010e114d8e10df8d4c", "lon": -77.0212665, "fusion_lon": 0.0}, {"is_reserved": 0, "type": "electric_scooter", "fusion_lat": 0.0, "is_disabled": 0, "rental_uris": {"ios": "https://dc.lft.to/lastmile_qr_scan", "android": "https://dc.lft.to/lastmile_qr_scan"}, "bike_id": "a0588dd68969b417c518a0b6227e9494", "lat": 38.876986333333335, "name": "a0588dd68969b417c518a0b6227e9494", "lon": -77.01741583333333, "fusion_lon": 0.0}, {"is_reserved": 0, "type": "electric_bike", "fusion_lat": 0.0, "is_disabled": 0, "rental_uris": {"ios": "https://dc.lft.to/lastmile_qr_scan", "android": "https://dc.lft.to/lastmile_qr_scan"}, "bike_id": "111e2b3bc3dffc8a33c1d126cbba28fc", "lat": 38.81338083333333, "name": "111e2b3bc3dffc8a33c1d126cbba28fc", "lon": -77.05114183333333, "fusion_lon": 0.0}, {"is_reserved": 0, "type": "electric_scooter", "fusion_lat": 0.0, "is_disabled": 0, "rental_uris": {"ios": "https://dc.lft.to/lastmile_qr_scan", "android": "https://dc.lft.to/lastmile_qr_scan"}, "bike_id": "17d0bce33800fd30d630a249fafb565d", "lat": 38.94820766666667, "name": "17d0bce33800fd30d630a249fafb565d", "lon": -77.026153, "fusion_lon": 0.0}, {"is_reserved": 0, "type": "electric_scooter", "fusion_lat": 0.0, "is_disabled": 0, "rental_uris": {"ios": "https://dc.lft.to/lastmile_qr_scan", "android": "https://dc.lft.to/lastmile_qr_scan"}, "bike_id": "89fa8dc97ee08a1b7381ba1a6db0e8a1", "lat": 38.899224833333335, "name": "89fa8dc97ee08a1b7381ba1a6db0e8a1", "lon": -77.03222166666667, "fusion_lon": 0.0}, {"is_reserved": 0, "type": "electric_scooter", "fusion_lat": 0.0, "is_disabled": 0, "rental_uris": {"ios": "https://dc.lft.to/lastmile_qr_scan", "android": "https://dc.lft.to/lastmile_qr_scan"}, "bike_id": "6ec22a365213adb6f3ff287a15d6ee1a", "lat": 38.89991766666667, "name": "6ec22a365213adb6f3ff287a15d6ee1a", "lon": -77.044967, "fusion_lon": 0.0}, {"is_reserved": 0, "type": "electric_scooter", "fusion_lat": 0.0, "is_disabled": 0, "rental_uris": {"ios": "https://dc.lft.to/lastmile_qr_scan", "android": "https://dc.lft.to/lastmile_qr_scan"}, "bike_id": "944b6378dd1c305234d579be28bf9f66", "lat": 38.891991833333336, "name": "944b6378dd1c305234d579be28bf9f66", "lon": -77.01546183333333, "fusion_lon": 0.0}, {"is_reserved": 0, "type": "electric_scooter", "fusion_lat": 0.0, "is_disabled": 0, "rental_uris": {"ios": "https://dc.lft.to/lastmile_qr_scan", "android": "https://dc.lft.to/lastmile_qr_scan"}, "bike_id": "c96514909c829a92711e2f8581e82f29", "lat": 38.9038305, "name": "c96514909c829a92711e2f8581e82f29", "lon": -77.01643066666666, "fusion_lon": 0.0}, {"is_reserved": 0, "type": "electric_scooter", "fusion_lat": 0.0, "is_disabled": 0, "rental_uris": {"ios": "https://dc.lft.to/lastmile_qr_scan", "android": "https://dc.lft.to/lastmile_qr_scan"}, "bike_id": "5e2e65ca6d24e4bf5dc1743b2eba2454", "lat": 38.907702, "name": "5e2e65ca6d24e4bf5dc1743b2eba2454", "lon": -77.0189365, "fusion_lon": 0.0}, {"is_reserved": 0, "type": "electric_bike", "fusion_lat": 0.0, "is_disabled": 0, "rental_uris": {"ios": "https://dc.lft.to/lastmile_qr_scan", "android": "https://dc.lft.to/lastmile_qr_scan"}, "bike_id": "8ae9fe73f5ddeb212685f9d9bebf1185", "lat": 38.879577166666664, "name": "8ae9fe73f5ddeb212685f9d9bebf1185", "lon": -76.9319175, "fusion_lon": 0.0}, {"is_reserved": 0, "type": "electric_bike", "fusion_lat": 0.0, "is_disabled": 0, "rental_uris": {"ios": "https://dc.lft.to/lastmile_qr_scan", "android": "https://dc.lft.to/lastmile_qr_scan"}, "bike_id": "824d86bdf34f36b894fbbf259eb63275", "lat": 38.88876233333333, "name": "824d86bdf34f36b894fbbf259eb63275", "lon": -76.95697966666667, "fusion_lon": 0.0}, {"is_reserved": 0, "type": "electric_scooter", "fusion_lat": 0.0, "is_disabled": 0, "rental_uris": {"ios": "https://dc.lft.to/lastmile_qr_scan", "android": "https://dc.lft.to/lastmile_qr_scan"}, "bike_id": "286b89822b0635b24aefdadaf6c7ee5b", "lat": 38.92360466666667, "name": "286b89822b0635b24aefdadaf6c7ee5b", "lon": -77.0430965, "fusion_lon": 0.0}, {"is_reserved": 0, "type": "electric_scooter", "fusion_lat": 0.0, "is_disabled": 0, "rental_uris": {"ios": "https://dc.lft.to/lastmile_qr_scan", "android": "https://dc.lft.to/lastmile_qr_scan"}, "bike_id": "6b76e735299b47d08020f835af273893", "lat": 38.920376, "name": "6b76e735299b47d08020f835af273893", "lon": -77.04091983333333, "fusion_lon": 0.0}, {"is_reserved": 0, "type": "electric_scooter", "fusion_lat": 0.0, "is_disabled": 0, "rental_uris": {"ios": "https://dc.lft.to/lastmile_qr_scan", "android": "https://dc.lft.to/lastmile_qr_scan"}, "bike_id": "d5838038124842e40adae2397458b5d3", "lat": 38.9086975, "name": "d5838038124842e40adae2397458b5d3", "lon": -77.076444, "fusion_lon": 0.0}, {"is_reserved": 0, "type": "electric_scooter", "fusion_lat": 0.0, "is_disabled": 0, "rental_uris": {"ios": "https://dc.lft.to/lastmile_qr_scan", "android": "https://dc.lft.to/lastmile_qr_scan"}, "bike_id": "5e93dd5427092243619c4939bbf18075", "lat": 38.902581, "name": "5e93dd5427092243619c4939bbf18075", "lon": -77.06173216666667, "fusion_lon": 0.0}, {"is_reserved": 0, "type": "electric_scooter", "fusion_lat": 0.0, "is_disabled": 0, "rental_uris": {"ios": "https://dc.lft.to/lastmile_qr_scan", "android": "https://dc.lft.to/lastmile_qr_scan"}, "bike_id": "71a7c63e0b5f3719049d536f417459fa", "lat": 38.907896666666666, "name": "71a7c63e0b5f3719049d536f417459fa", "lon": -77.04336166666667, "fusion_lon": 0.0}, {"is_reserved": 0, "type": "electric_bike", "fusion_lat": 0.0, "is_disabled": 0, "rental_uris": {"ios": "https://dc.lft.to/lastmile_qr_scan", "android": "https://dc.lft.to/lastmile_qr_scan"}, "bike_id": "d25772dccfdffd91e56fd20f03748782", "lat": 38.87671016666667, "name": "d25772dccfdffd91e56fd20f03748782", "lon": -77.020887, "fusion_lon": 0.0}, {"is_reserved": 0, "type": "electric_bike", "fusion_lat": 0.0, "is_disabled": 0, "rental_uris": {"ios": "https://dc.lft.to/lastmile_qr_scan", "android": "https://dc.lft.to/lastmile_qr_scan"}, "bike_id": "5a86f4f06ad5d11219ee0f1f133668ec", "lat": 38.87581216666667, "name": "5a86f4f06ad5d11219ee0f1f133668ec", "lon": -77.2341245, "fusion_lon": 0.0}, {"is_reserved": 0, "type": "electric_scooter", "fusion_lat": 0.0, "is_disabled": 0, "rental_uris": {"ios": "https://dc.lft.to/lastmile_qr_scan", "android": "https://dc.lft.to/lastmile_qr_scan"}, "bike_id": "8a0a11dc37135a4148ba2f04add2bfbc", "lat": 38.9244265, "name": "8a0a11dc37135a4148ba2f04add2bfbc", "lon": -77.0424095, "fusion_lon": 0.0}, {"is_reserved": 0, "type": "electric_scooter", "fusion_lat": 0.0, "is_disabled": 0, "rental_uris": {"ios": "https://dc.lft.to/lastmile_qr_scan", "android": "https://dc.lft.to/lastmile_qr_scan"}, "bike_id": "213a58f88e360fc4c189db7d904cd69a", "lat": 38.916032, "name": "213a58f88e360fc4c189db7d904cd69a", "lon": -77.02296233333334, "fusion_lon": 0.0}, {"is_reserved": 0, "type": "electric_scooter", "fusion_lat": 0.0, "is_disabled": 0, "rental_uris": {"ios": "https://dc.lft.to/lastmile_qr_scan", "android": "https://dc.lft.to/lastmile_qr_scan"}, "bike_id": "0f9f5fb022a019bc5212b4eac551d19f", "lat": 38.89328316666667, "name": "0f9f5fb022a019bc5212b4eac551d19f", "lon": -76.93929116666666, "fusion_lon": 0.0}, {"is_reserved": 0, "type": "electric_scooter", "fusion_lat": 0.0, "is_disabled": 0, "rental_uris": {"ios": "https://dc.lft.to/lastmile_qr_scan", "android": "https://dc.lft.to/lastmile_qr_scan"}, "bike_id": "40022ab113a15df45c80e77b3b15ff56", "lat": 38.89219216666667, "name": "40022ab113a15df45c80e77b3b15ff56", "lon": -77.03161683333333, "fusion_lon": 0.0}, {"is_reserved": 0, "type": "electric_scooter", "fusion_lat": 0.0, "is_disabled": 0, "rental_uris": {"ios": "https://dc.lft.to/lastmile_qr_scan", "android": "https://dc.lft.to/lastmile_qr_scan"}, "bike_id": "23c2b5845b057730efcf96b18bb9a5a4", "lat": 38.8707315, "name": "23c2b5845b057730efcf96b18bb9a5a4", "lon": -76.98129516666667, "fusion_lon": 0.0}, {"is_reserved": 0, "type": "electric_scooter", "fusion_lat": 0.0, "is_disabled": 0, "rental_uris": {"ios": "https://dc.lft.to/lastmile_qr_scan", "android": "https://dc.lft.to/lastmile_qr_scan"}, "bike_id": "2337d22f9553d1d140d7c4cd19c6be05", "lat": 38.908520833333334, "name": "2337d22f9553d1d140d7c4cd19c6be05", "lon": -77.02461683333334, "fusion_lon": 0.0}, {"is_reserved": 0, "type": "electric_scooter", "fusion_lat": 0.0, "is_disabled": 0, "rental_uris": {"ios": "https://dc.lft.to/lastmile_qr_scan", "android": "https://dc.lft.to/lastmile_qr_scan"}, "bike_id": "30fd6b9141caaf3c3ca8775cd9dc5d36", "lat": 38.89485066666667, "name": "30fd6b9141caaf3c3ca8775cd9dc5d36", "lon": -76.94868866666667, "fusion_lon": 0.0}, {"is_reserved": 0, "type": "electric_scooter", "fusion_lat": 0.0, "is_disabled": 0, "rental_uris": {"ios": "https://dc.lft.to/lastmile_qr_scan", "android": "https://dc.lft.to/lastmile_qr_scan"}, "bike_id": "f6770a40c675acd0376f702819f0152c", "lat": 38.917636333333334, "name": "f6770a40c675acd0376f702819f0152c", "lon": -77.00454266666667, "fusion_lon": 0.0}, {"is_reserved": 0, "type": "electric_scooter", "fusion_lat": 0.0, "is_disabled": 0, "rental_uris": {"ios": "https://dc.lft.to/lastmile_qr_scan", "android": "https://dc.lft.to/lastmile_qr_scan"}, "bike_id": "5673244c87b7bf8991051e698e77491b", "lat": 38.89841066666666, "name": "5673244c87b7bf8991051e698e77491b", "lon": -76.98821416666667, "fusion_lon": 0.0}, {"is_reserved": 0, "type": "electric_scooter", "fusion_lat": 0.0, "is_disabled": 0, "rental_uris": {"ios": "https://dc.lft.to/lastmile_qr_scan", "android": "https://dc.lft.to/lastmile_qr_scan"}, "bike_id": "1fe87aba8d3cc036a1d8f2444d378623", "lat": 38.9261045, "name": "1fe87aba8d3cc036a1d8f2444d378623", "lon": -77.0241335, "fusion_lon": 0.0}, {"is_reserved": 0, "type": "electric_scooter", "fusion_lat": 0.0, "is_disabled": 0, "rental_uris": {"ios": "https://dc.lft.to/lastmile_qr_scan", "android": "https://dc.lft.to/lastmile_qr_scan"}, "bike_id": "2dacc33258e8281caf5786ca99c71376", "lat": 38.89007616666667, "name": "2dacc33258e8281caf5786ca99c71376", "lon": -76.93742916666666, "fusion_lon": 0.0}, {"is_reserved": 0, "type": "electric_scooter", "fusion_lat": 0.0, "is_disabled": 0, "rental_uris": {"ios": "https://dc.lft.to/lastmile_qr_scan", "android": "https://dc.lft.to/lastmile_qr_scan"}, "bike_id": "d27f54f32601a5a2ce8c455fde810808", "lat": 38.88713716666667, "name": "d27f54f32601a5a2ce8c455fde810808", "lon": -76.98380616666667, "fusion_lon": 0.0}, {"is_reserved": 0, "type": "electric_scooter", "fusion_lat": 0.0, "is_disabled": 0, "rental_uris": {"ios": "https://dc.lft.to/lastmile_qr_scan", "android": "https://dc.lft.to/lastmile_qr_scan"}, "bike_id": "3aaad09a2e046ea3a31f180f22a13181", "lat": 38.916781666666665, "name": "3aaad09a2e046ea3a31f180f22a13181", "lon": -77.01575383333333, "fusion_lon": 0.0}, {"is_reserved": 0, "type": "electric_scooter", "fusion_lat": 0.0, "is_disabled": 0, "rental_uris": {"ios": "https://dc.lft.to/lastmile_qr_scan", "android": "https://dc.lft.to/lastmile_qr_scan"}, "bike_id": "141c329cfce9427002da94a2ceed69db", "lat": 38.901883166666664, "name": "141c329cfce9427002da94a2ceed69db", "lon": -76.976767, "fusion_lon": 0.0}, {"is_reserved": 0, "type": "electric_scooter", "fusion_lat": 0.0, "is_disabled": 0, "rental_uris": {"ios": "https://dc.lft.to/lastmile_qr_scan", "android": "https://dc.lft.to/lastmile_qr_scan"}, "bike_id": "d71721a7a1fbf4ec693b207d0d88ef76", "lat": 38.87693566666667, "name": "d71721a7a1fbf4ec693b207d0d88ef76", "lon": -76.99627666666666, "fusion_lon": 0.0}, {"is_reserved": 0, "type": "electric_scooter", "fusion_lat": 0.0, "is_disabled": 0, "rental_uris": {"ios": "https://dc.lft.to/lastmile_qr_scan", "android": "https://dc.lft.to/lastmile_qr_scan"}, "bike_id": "a988a7b8562c2f3484655cb8a918c8f8", "lat": 38.9184775, "name": "a988a7b8562c2f3484655cb8a918c8f8", "lon": -77.041702, "fusion_lon": 0.0}, {"is_reserved": 0, "type": "electric_scooter", "fusion_lat": 0.0, "is_disabled": 0, "rental_uris": {"ios": "https://dc.lft.to/lastmile_qr_scan", "android": "https://dc.lft.to/lastmile_qr_scan"}, "bike_id": "e2a1abb00841b5587eb8e6c1ee87701f", "lat": 38.898391, "name": "e2a1abb00841b5587eb8e6c1ee87701f", "lon": -77.0278785, "fusion_lon": 0.0}, {"is_reserved": 0, "type": "electric_scooter", "fusion_lat": 0.0, "is_disabled": 0, "rental_uris": {"ios": "https://dc.lft.to/lastmile_qr_scan", "android": "https://dc.lft.to/lastmile_qr_scan"}, "bike_id": "16a823d5a4c1c52874e0660dabc3540a", "lat": 38.875742, "name": "16a823d5a4c1c52874e0660dabc3540a", "lon": -77.00611066666667, "fusion_lon": 0.0}, {"is_reserved": 0, "type": "electric_scooter", "fusion_lat": 0.0, "is_disabled": 0, "rental_uris": {"ios": "https://dc.lft.to/lastmile_qr_scan", "android": "https://dc.lft.to/lastmile_qr_scan"}, "bike_id": "6e5a5e5084efe0704819611b9f3ee12f", "lat": 38.93243783333333, "name": "6e5a5e5084efe0704819611b9f3ee12f", "lon": -77.04079466666667, "fusion_lon": 0.0}, {"is_reserved": 0, "type": "electric_scooter", "fusion_lat": 0.0, "is_disabled": 0, "rental_uris": {"ios": "https://dc.lft.to/lastmile_qr_scan", "android": "https://dc.lft.to/lastmile_qr_scan"}, "bike_id": "6e38f194190d4f1b1ca1864a1b73104a", "lat": 38.89954083333333, "name": "6e38f194190d4f1b1ca1864a1b73104a", "lon": -77.04748766666667, "fusion_lon": 0.0}, {"is_reserved": 0, "type": "electric_scooter", "fusion_lat": 0.0, "is_disabled": 0, "rental_uris": {"ios": "https://dc.lft.to/lastmile_qr_scan", "android": "https://dc.lft.to/lastmile_qr_scan"}, "bike_id": "4172db572746cd677f6631e70bd5af3e", "lat": 38.881066, "name": "4172db572746cd677f6631e70bd5af3e", "lon": -76.98771116666667, "fusion_lon": 0.0}, {"is_reserved": 0, "type": "electric_scooter", "fusion_lat": 0.0, "is_disabled": 0, "rental_uris": {"ios": "https://dc.lft.to/lastmile_qr_scan", "android": "https://dc.lft.to/lastmile_qr_scan"}, "bike_id": "1d85801d8c3e1847f8ef03bde3e67bc9", "lat": 38.90643883333333, "name": "1d85801d8c3e1847f8ef03bde3e67bc9", "lon": -77.01872083333333, "fusion_lon": 0.0}, {"is_reserved": 0, "type": "electric_scooter", "fusion_lat": 0.0, "is_disabled": 0, "rental_uris": {"ios": "https://dc.lft.to/lastmile_qr_scan", "android": "https://dc.lft.to/lastmile_qr_scan"}, "bike_id": "60d1d6287bc17c69291c189ce0050559", "lat": 38.895021166666666, "name": "60d1d6287bc17c69291c189ce0050559", "lon": -77.02305183333333, "fusion_lon": 0.0}, {"is_reserved": 0, "type": "electric_scooter", "fusion_lat": 0.0, "is_disabled": 0, "rental_uris": {"ios": "https://dc.lft.to/lastmile_qr_scan", "android": "https://dc.lft.to/lastmile_qr_scan"}, "bike_id": "c74aa6e97a8c81dd0e99ef12c27cdd60", "lat": 38.920646166666664, "name": "c74aa6e97a8c81dd0e99ef12c27cdd60", "lon": -77.04400183333334, "fusion_lon": 0.0}, {"is_reserved": 0, "type": "electric_scooter", "fusion_lat": 0.0, "is_disabled": 0, "rental_uris": {"ios": "https://dc.lft.to/lastmile_qr_scan", "android": "https://dc.lft.to/lastmile_qr_scan"}, "bike_id": "f44aaf1f7ed588e5713e948ac43ec136", "lat": 38.920479666666665, "name": "f44aaf1f7ed588e5713e948ac43ec136", "lon": -77.02606716666666, "fusion_lon": 0.0}, {"is_reserved": 0, "type": "electric_scooter", "fusion_lat": 0.0, "is_disabled": 0, "rental_uris": {"ios": "https://dc.lft.to/lastmile_qr_scan", "android": "https://dc.lft.to/lastmile_qr_scan"}, "bike_id": "d8a2bf417debd6326218c4ca122a8b71", "lat": 38.88730233333333, "name": "d8a2bf417debd6326218c4ca122a8b71", "lon": -76.98377166666667, "fusion_lon": 0.0}, {"is_reserved": 0, "type": "electric_scooter", "fusion_lat": 0.0, "is_disabled": 0, "rental_uris": {"ios": "https://dc.lft.to/lastmile_qr_scan", "android": "https://dc.lft.to/lastmile_qr_scan"}, "bike_id": "47e373f46aed6282bb957a2e43dc82de", "lat": 38.929888, "name": "47e373f46aed6282bb957a2e43dc82de", "lon": -77.034732, "fusion_lon": 0.0}, {"is_reserved": 0, "type": "electric_scooter", "fusion_lat": 0.0, "is_disabled": 0, "rental_uris": {"ios": "https://dc.lft.to/lastmile_qr_scan", "android": "https://dc.lft.to/lastmile_qr_scan"}, "bike_id": "c894524da3a4014e63c2e2e22671d36f", "lat": 38.898557833333335, "name": "c894524da3a4014e63c2e2e22671d36f", "lon": -76.99493283333334, "fusion_lon": 0.0}, {"is_reserved": 0, "type": "electric_scooter", "fusion_lat": 0.0, "is_disabled": 0, "rental_uris": {"ios": "https://dc.lft.to/lastmile_qr_scan", "android": "https://dc.lft.to/lastmile_qr_scan"}, "bike_id": "aa0bf50768ec18941135331b64335729", "lat": 38.9237495, "name": "aa0bf50768ec18941135331b64335729", "lon": -77.02923966666667, "fusion_lon": 0.0}, {"is_reserved": 0, "type": "electric_scooter", "fusion_lat": 0.0, "is_disabled": 0, "rental_uris": {"ios": "https://dc.lft.to/lastmile_qr_scan", "android": "https://dc.lft.to/lastmile_qr_scan"}, "bike_id": "6381532653b28d74762dd93c4b7934db", "lat": 38.905766, "name": "6381532653b28d74762dd93c4b7934db", "lon": -77.02759466666667, "fusion_lon": 0.0}, {"is_reserved": 0, "type": "electric_scooter", "fusion_lat": 0.0, "is_disabled": 0, "rental_uris": {"ios": "https://dc.lft.to/lastmile_qr_scan", "android": "https://dc.lft.to/lastmile_qr_scan"}, "bike_id": "6ba78007a257c34850b05bc810309680", "lat": 38.896739333333336, "name": "6ba78007a257c34850b05bc810309680", "lon": -76.9491445, "fusion_lon": 0.0}, {"is_reserved": 0, "type": "electric_scooter", "fusion_lat": 0.0, "is_disabled": 0, "rental_uris": {"ios": "https://dc.lft.to/lastmile_qr_scan", "android": "https://dc.lft.to/lastmile_qr_scan"}, "bike_id": "8f47bac26d5e6c2b1de191e5ead7295c", "lat": 38.921485, "name": "8f47bac26d5e6c2b1de191e5ead7295c", "lon": -77.04587233333334, "fusion_lon": 0.0}, {"is_reserved": 0, "type": "electric_scooter", "fusion_lat": 0.0, "is_disabled": 0, "rental_uris": {"ios": "https://dc.lft.to/lastmile_qr_scan", "android": "https://dc.lft.to/lastmile_qr_scan"}, "bike_id": "b9c386e5140a5b18bed8415be4a13026", "lat": 38.88611383333333, "name": "b9c386e5140a5b18bed8415be4a13026", "lon": -77.02200916666666, "fusion_lon": 0.0}, {"is_reserved": 0, "type": "electric_scooter", "fusion_lat": 0.0, "is_disabled": 0, "rental_uris": {"ios": "https://dc.lft.to/lastmile_qr_scan", "android": "https://dc.lft.to/lastmile_qr_scan"}, "bike_id": "c09e2d204857514f8b6791f77781ae92", "lat": 38.90302766666667, "name": "c09e2d204857514f8b6791f77781ae92", "lon": -76.99838183333334, "fusion_lon": 0.0}, {"is_reserved": 0, "type": "electric_scooter", "fusion_lat": 0.0, "is_disabled": 0, "rental_uris": {"ios": "https://dc.lft.to/lastmile_qr_scan", "android": "https://dc.lft.to/lastmile_qr_scan"}, "bike_id": "8b0f79957a1e060c8e3ff2b0bd0ff33f", "lat": 38.894645, "name": "8b0f79957a1e060c8e3ff2b0bd0ff33f", "lon": -77.02211516666667, "fusion_lon": 0.0}, {"is_reserved": 0, "type": "electric_scooter", "fusion_lat": 0.0, "is_disabled": 0, "rental_uris": {"ios": "https://dc.lft.to/lastmile_qr_scan", "android": "https://dc.lft.to/lastmile_qr_scan"}, "bike_id": "49d8d61508159bb759aed7fefb23e8a4", "lat": 38.872884666666664, "name": "49d8d61508159bb759aed7fefb23e8a4", "lon": -77.009883, "fusion_lon": 0.0}, {"is_reserved": 0, "type": "electric_scooter", "fusion_lat": 0.0, "is_disabled": 0, "rental_uris": {"ios": "https://dc.lft.to/lastmile_qr_scan", "android": "https://dc.lft.to/lastmile_qr_scan"}, "bike_id": "d8864a39caeb5faab24c632ac0bbe25f", "lat": 38.905108, "name": "d8864a39caeb5faab24c632ac0bbe25f", "lon": -77.06013383333334, "fusion_lon": 0.0}, {"is_reserved": 0, "type": "electric_scooter", "fusion_lat": 0.0, "is_disabled": 0, "rental_uris": {"ios": "https://dc.lft.to/lastmile_qr_scan", "android": "https://dc.lft.to/lastmile_qr_scan"}, "bike_id": "ec9a4aab5aafe869715e53af5a1832eb", "lat": 38.887141166666666, "name": "ec9a4aab5aafe869715e53af5a1832eb", "lon": -76.98381066666667, "fusion_lon": 0.0}, {"is_reserved": 0, "type": "electric_scooter", "fusion_lat": 0.0, "is_disabled": 0, "rental_uris": {"ios": "https://dc.lft.to/lastmile_qr_scan", "android": "https://dc.lft.to/lastmile_qr_scan"}, "bike_id": "d067904fbb41e640ae688a17f2fce704", "lat": 38.9366035, "name": "d067904fbb41e640ae688a17f2fce704", "lon": -77.06607833333334, "fusion_lon": 0.0}, {"is_reserved": 0, "type": "electric_scooter", "fusion_lat": 0.0, "is_disabled": 0, "rental_uris": {"ios": "https://dc.lft.to/lastmile_qr_scan", "android": "https://dc.lft.to/lastmile_qr_scan"}, "bike_id": "8d963b2c7a93cdd7cbe04097f213e6c6", "lat": 38.92050866666666, "name": "8d963b2c7a93cdd7cbe04097f213e6c6", "lon": -77.04040183333333, "fusion_lon": 0.0}, {"is_reserved": 0, "type": "electric_scooter", "fusion_lat": 0.0, "is_disabled": 0, "rental_uris": {"ios": "https://dc.lft.to/lastmile_qr_scan", "android": "https://dc.lft.to/lastmile_qr_scan"}, "bike_id": "5e4a1ac3b2fe5705d39702740bd43ecf", "lat": 38.900499333333336, "name": "5e4a1ac3b2fe5705d39702740bd43ecf", "lon": -77.02946033333333, "fusion_lon": 0.0}, {"is_reserved": 0, "type": "electric_scooter", "fusion_lat": 0.0, "is_disabled": 0, "rental_uris": {"ios": "https://dc.lft.to/lastmile_qr_scan", "android": "https://dc.lft.to/lastmile_qr_scan"}, "bike_id": "0c6b1721a7f1ddb8ddf4362dcdd009a3", "lat": 38.925526833333336, "name": "0c6b1721a7f1ddb8ddf4362dcdd009a3", "lon": -77.00322883333334, "fusion_lon": 0.0}, {"is_reserved": 0, "type": "electric_scooter", "fusion_lat": 0.0, "is_disabled": 0, "rental_uris": {"ios": "https://dc.lft.to/lastmile_qr_scan", "android": "https://dc.lft.to/lastmile_qr_scan"}, "bike_id": "c2d7a9f304d05471879b3818e430cf15", "lat": 38.89976466666667, "name": "c2d7a9f304d05471879b3818e430cf15", "lon": -77.01931316666666, "fusion_lon": 0.0}, {"is_reserved": 0, "type": "electric_scooter", "fusion_lat": 0.0, "is_disabled": 0, "rental_uris": {"ios": "https://dc.lft.to/lastmile_qr_scan", "android": "https://dc.lft.to/lastmile_qr_scan"}, "bike_id": "60490069232faab2bd2494cab7d1bc24", "lat": 38.9046265, "name": "60490069232faab2bd2494cab7d1bc24", "lon": -77.01714483333333, "fusion_lon": 0.0}, {"is_reserved": 0, "type": "electric_scooter", "fusion_lat": 0.0, "is_disabled": 0, "rental_uris": {"ios": "https://dc.lft.to/lastmile_qr_scan", "android": "https://dc.lft.to/lastmile_qr_scan"}, "bike_id": "dfbb84580b50662ca47d26586cb0958b", "lat": 38.930048, "name": "dfbb84580b50662ca47d26586cb0958b", "lon": -77.03775666666667, "fusion_lon": 0.0}, {"is_reserved": 0, "type": "electric_scooter", "fusion_lat": 0.0, "is_disabled": 0, "rental_uris": {"ios": "https://dc.lft.to/lastmile_qr_scan", "android": "https://dc.lft.to/lastmile_qr_scan"}, "bike_id": "90295cf123f1acfdca710f0fbff5b70f", "lat": 38.920422, "name": "90295cf123f1acfdca710f0fbff5b70f", "lon": -77.025935, "fusion_lon": 0.0}, {"is_reserved": 0, "type": "electric_scooter", "fusion_lat": 0.0, "is_disabled": 0, "rental_uris": {"ios": "https://dc.lft.to/lastmile_qr_scan", "android": "https://dc.lft.to/lastmile_qr_scan"}, "bike_id": "539019c62ab813b2b3369d6c3cee1c58", "lat": 38.9234015, "name": "539019c62ab813b2b3369d6c3cee1c58", "lon": -77.03510366666667, "fusion_lon": 0.0}, {"is_reserved": 0, "type": "electric_scooter", "fusion_lat": 0.0, "is_disabled": 0, "rental_uris": {"ios": "https://dc.lft.to/lastmile_qr_scan", "android": "https://dc.lft.to/lastmile_qr_scan"}, "bike_id": "c09aaad1a2503b955cb80edbc9568be2", "lat": 38.9270645, "name": "c09aaad1a2503b955cb80edbc9568be2", "lon": -77.0208215, "fusion_lon": 0.0}, {"is_reserved": 0, "type": "electric_scooter", "fusion_lat": 0.0, "is_disabled": 0, "rental_uris": {"ios": "https://dc.lft.to/lastmile_qr_scan", "android": "https://dc.lft.to/lastmile_qr_scan"}, "bike_id": "93504d8f85f48712e8331a7f386e3ff5", "lat": 38.909628, "name": "93504d8f85f48712e8331a7f386e3ff5", "lon": -77.022874, "fusion_lon": 0.0}, {"is_reserved": 0, "type": "electric_scooter", "fusion_lat": 0.0, "is_disabled": 0, "rental_uris": {"ios": "https://dc.lft.to/lastmile_qr_scan", "android": "https://dc.lft.to/lastmile_qr_scan"}, "bike_id": "8825475f10b274c3b8aa40a334144e62", "lat": 38.927534333333334, "name": "8825475f10b274c3b8aa40a334144e62", "lon": -77.0215085, "fusion_lon": 0.0}, {"is_reserved": 0, "type": "electric_scooter", "fusion_lat": 0.0, "is_disabled": 0, "rental_uris": {"ios": "https://dc.lft.to/lastmile_qr_scan", "android": "https://dc.lft.to/lastmile_qr_scan"}, "bike_id": "8b92874bcc615eebaa24548eeb477161", "lat": 38.89671366666666, "name": "8b92874bcc615eebaa24548eeb477161", "lon": -77.04330066666667, "fusion_lon": 0.0}, {"is_reserved": 0, "type": "electric_scooter", "fusion_lat": 0.0, "is_disabled": 0, "rental_uris": {"ios": "https://dc.lft.to/lastmile_qr_scan", "android": "https://dc.lft.to/lastmile_qr_scan"}, "bike_id": "06fd73cf0e8c47a0468a4022c1e42390", "lat": 38.87173816666667, "name": "06fd73cf0e8c47a0468a4022c1e42390", "lon": -77.00625516666666, "fusion_lon": 0.0}, {"is_reserved": 0, "type": "electric_scooter", "fusion_lat": 0.0, "is_disabled": 0, "rental_uris": {"ios": "https://dc.lft.to/lastmile_qr_scan", "android": "https://dc.lft.to/lastmile_qr_scan"}, "bike_id": "fdc72b1ed6a0cd26b12fbd84a9efc730", "lat": 38.9002475, "name": "fdc72b1ed6a0cd26b12fbd84a9efc730", "lon": -77.0451235, "fusion_lon": 0.0}, {"is_reserved": 0, "type": "electric_scooter", "fusion_lat": 0.0, "is_disabled": 0, "rental_uris": {"ios": "https://dc.lft.to/lastmile_qr_scan", "android": "https://dc.lft.to/lastmile_qr_scan"}, "bike_id": "2ff617f9c8e47e26f2e54c2830199b5e", "lat": 38.891986333333335, "name": "2ff617f9c8e47e26f2e54c2830199b5e", "lon": -77.01550466666667, "fusion_lon": 0.0}, {"is_reserved": 0, "type": "electric_scooter", "fusion_lat": 0.0, "is_disabled": 0, "rental_uris": {"ios": "https://dc.lft.to/lastmile_qr_scan", "android": "https://dc.lft.to/lastmile_qr_scan"}, "bike_id": "093fbae3c9abbb7588b156e3d40980db", "lat": 38.91484483333333, "name": "093fbae3c9abbb7588b156e3d40980db", "lon": -77.02185166666666, "fusion_lon": 0.0}, {"is_reserved": 0, "type": "electric_scooter", "fusion_lat": 0.0, "is_disabled": 0, "rental_uris": {"ios": "https://dc.lft.to/lastmile_qr_scan", "android": "https://dc.lft.to/lastmile_qr_scan"}, "bike_id": "71a6a275561ca7daa20ab2189206e904", "lat": 38.92242616666667, "name": "71a6a275561ca7daa20ab2189206e904", "lon": -77.0366525, "fusion_lon": 0.0}, {"is_reserved": 0, "type": "electric_scooter", "fusion_lat": 0.0, "is_disabled": 0, "rental_uris": {"ios": "https://dc.lft.to/lastmile_qr_scan", "android": "https://dc.lft.to/lastmile_qr_scan"}, "bike_id": "826c3152754a536e9a9cfaf2126a08d0", "lat": 38.9104595, "name": "826c3152754a536e9a9cfaf2126a08d0", "lon": -76.99801616666667, "fusion_lon": 0.0}, {"is_reserved": 0, "type": "electric_scooter", "fusion_lat": 0.0, "is_disabled": 0, "rental_uris": {"ios": "https://dc.lft.to/lastmile_qr_scan", "android": "https://dc.lft.to/lastmile_qr_scan"}, "bike_id": "c0a97f3042d279c0fa8612e5e88bfeda", "lat": 38.8985335, "name": "c0a97f3042d279c0fa8612e5e88bfeda", "lon": -77.02290916666666, "fusion_lon": 0.0}, {"is_reserved": 0, "type": "electric_bike", "fusion_lat": 0.0, "is_disabled": 0, "rental_uris": {"ios": "https://dc.lft.to/lastmile_qr_scan", "android": "https://dc.lft.to/lastmile_qr_scan"}, "bike_id": "3a8826aefa9112cc2bb5e1e6b948663b", "lat": 38.835877833333335, "name": "3a8826aefa9112cc2bb5e1e6b948663b", "lon": -76.990221, "fusion_lon": 0.0}, {"is_reserved": 0, "type": "electric_bike", "fusion_lat": 0.0, "is_disabled": 0, "rental_uris": {"ios": "https://dc.lft.to/lastmile_qr_scan", "android": "https://dc.lft.to/lastmile_qr_scan"}, "bike_id": "a069b40134b0ee03f09a843ee44ca4ae", "lat": 38.82212, "name": "a069b40134b0ee03f09a843ee44ca4ae", "lon": -76.97700616666667, "fusion_lon": 0.0}, {"is_reserved": 0, "type": "electric_scooter", "fusion_lat": 0.0, "is_disabled": 0, "rental_uris": {"ios": "https://dc.lft.to/lastmile_qr_scan", "android": "https://dc.lft.to/lastmile_qr_scan"}, "bike_id": "3ac12b4ec3912d74b1572d6496bba37b", "lat": 38.9169865, "name": "3ac12b4ec3912d74b1572d6496bba37b", "lon": -77.05297333333333, "fusion_lon": 0.0}, {"is_reserved": 0, "type": "electric_scooter", "fusion_lat": 0.0, "is_disabled": 0, "rental_uris": {"ios": "https://dc.lft.to/lastmile_qr_scan", "android": "https://dc.lft.to/lastmile_qr_scan"}, "bike_id": "b8ba4ca8434e7fc3d1a7a4b47ac8276c", "lat": 38.917384, "name": "b8ba4ca8434e7fc3d1a7a4b47ac8276c", "lon": -77.06849466666667, "fusion_lon": 0.0}, {"is_reserved": 0, "type": "electric_scooter", "fusion_lat": 0.0, "is_disabled": 0, "rental_uris": {"ios": "https://dc.lft.to/lastmile_qr_scan", "android": "https://dc.lft.to/lastmile_qr_scan"}, "bike_id": "04b03f47bae146b0a20ab8e1732ecbc2", "lat": 38.9133495, "name": "04b03f47bae146b0a20ab8e1732ecbc2", "lon": -77.03847466666667, "fusion_lon": 0.0}, {"is_reserved": 0, "type": "electric_scooter", "fusion_lat": 0.0, "is_disabled": 0, "rental_uris": {"ios": "https://dc.lft.to/lastmile_qr_scan", "android": "https://dc.lft.to/lastmile_qr_scan"}, "bike_id": "d5d39ad20b4ecc2ff62b6d04935d3094", "lat": 38.89665883333333, "name": "d5d39ad20b4ecc2ff62b6d04935d3094", "lon": -77.04333166666666, "fusion_lon": 0.0}, {"is_reserved": 0, "type": "electric_scooter", "fusion_lat": 0.0, "is_disabled": 0, "rental_uris": {"ios": "https://dc.lft.to/lastmile_qr_scan", "android": "https://dc.lft.to/lastmile_qr_scan"}, "bike_id": "f1754c5dcd40da205805ad839e8a80af", "lat": 38.90963033333333, "name": "f1754c5dcd40da205805ad839e8a80af", "lon": -77.02281483333333, "fusion_lon": 0.0}, {"is_reserved": 0, "type": "electric_scooter", "fusion_lat": 0.0, "is_disabled": 0, "rental_uris": {"ios": "https://dc.lft.to/lastmile_qr_scan", "android": "https://dc.lft.to/lastmile_qr_scan"}, "bike_id": "73468d07e6fcf308f09b264313e6b977", "lat": 38.929474, "name": "73468d07e6fcf308f09b264313e6b977", "lon": -77.03292433333333, "fusion_lon": 0.0}, {"is_reserved": 0, "type": "electric_scooter", "fusion_lat": 0.0, "is_disabled": 0, "rental_uris": {"ios": "https://dc.lft.to/lastmile_qr_scan", "android": "https://dc.lft.to/lastmile_qr_scan"}, "bike_id": "61e74edf5b0a801e3eec88409212b64e", "lat": 38.91550183333333, "name": "61e74edf5b0a801e3eec88409212b64e", "lon": -77.012635, "fusion_lon": 0.0}, {"is_reserved": 0, "type": "electric_bike", "fusion_lat": 0.0, "is_disabled": 0, "rental_uris": {"ios": "https://dc.lft.to/lastmile_qr_scan", "android": "https://dc.lft.to/lastmile_qr_scan"}, "bike_id": "f92cb559cc3309501cb5df472e808da8", "lat": 38.88505716666667, "name": "f92cb559cc3309501cb5df472e808da8", "lon": -77.00063, "fusion_lon": 0.0}, {"is_reserved": 0, "type": "electric_scooter", "fusion_lat": 0.0, "is_disabled": 0, "rental_uris": {"ios": "https://dc.lft.to/lastmile_qr_scan", "android": "https://dc.lft.to/lastmile_qr_scan"}, "bike_id": "eb02b205671ad39bb530a1b6452a84f1", "lat": 38.901729833333334, "name": "eb02b205671ad39bb530a1b6452a84f1", "lon": -76.9806745, "fusion_lon": 0.0}, {"is_reserved": 0, "type": "electric_scooter", "fusion_lat": 0.0, "is_disabled": 0, "rental_uris": {"ios": "https://dc.lft.to/lastmile_qr_scan", "android": "https://dc.lft.to/lastmile_qr_scan"}, "bike_id": "182ead563bb5710e385dd03b25d2f5d5", "lat": 38.919867333333336, "name": "182ead563bb5710e385dd03b25d2f5d5", "lon": -77.04175733333334, "fusion_lon": 0.0}, {"is_reserved": 0, "type": "electric_scooter", "fusion_lat": 0.0, "is_disabled": 0, "rental_uris": {"ios": "https://dc.lft.to/lastmile_qr_scan", "android": "https://dc.lft.to/lastmile_qr_scan"}, "bike_id": "9cf0704d506c1c37862f925686a01a9e", "lat": 38.90283516666667, "name": "9cf0704d506c1c37862f925686a01a9e", "lon": -77.04880616666667, "fusion_lon": 0.0}, {"is_reserved": 0, "type": "electric_scooter", "fusion_lat": 0.0, "is_disabled": 0, "rental_uris": {"ios": "https://dc.lft.to/lastmile_qr_scan", "android": "https://dc.lft.to/lastmile_qr_scan"}, "bike_id": "e9d5bc56ee91ecb2f803c8fafe8e6356", "lat": 38.924632, "name": "e9d5bc56ee91ecb2f803c8fafe8e6356", "lon": -77.052244, "fusion_lon": 0.0}, {"is_reserved": 0, "type": "electric_scooter", "fusion_lat": 0.0, "is_disabled": 0, "rental_uris": {"ios": "https://dc.lft.to/lastmile_qr_scan", "android": "https://dc.lft.to/lastmile_qr_scan"}, "bike_id": "07c24cdc82f05132fdffc3a5ad5f541d", "lat": 38.90316333333333, "name": "07c24cdc82f05132fdffc3a5ad5f541d", "lon": -77.02827083333334, "fusion_lon": 0.0}, {"is_reserved": 0, "type": "electric_scooter", "fusion_lat": 0.0, "is_disabled": 0, "rental_uris": {"ios": "https://dc.lft.to/lastmile_qr_scan", "android": "https://dc.lft.to/lastmile_qr_scan"}, "bike_id": "a69efa55df695482a1ead7aec01aff7e", "lat": 38.893212, "name": "a69efa55df695482a1ead7aec01aff7e", "lon": -77.0259875, "fusion_lon": 0.0}, {"is_reserved": 0, "type": "electric_scooter", "fusion_lat": 0.0, "is_disabled": 0, "rental_uris": {"ios": "https://dc.lft.to/lastmile_qr_scan", "android": "https://dc.lft.to/lastmile_qr_scan"}, "bike_id": "7b2e80a3cda3b8a519811cc05994e2b4", "lat": 38.923359, "name": "7b2e80a3cda3b8a519811cc05994e2b4", "lon": -77.042999, "fusion_lon": 0.0}, {"is_reserved": 0, "type": "electric_scooter", "fusion_lat": 0.0, "is_disabled": 0, "rental_uris": {"ios": "https://dc.lft.to/lastmile_qr_scan", "android": "https://dc.lft.to/lastmile_qr_scan"}, "bike_id": "aa3ce3d11f9355dd52cfdc2c991c0bb5", "lat": 38.917407, "name": "aa3ce3d11f9355dd52cfdc2c991c0bb5", "lon": -77.021142, "fusion_lon": 0.0}, {"is_reserved": 0, "type": "electric_scooter", "fusion_lat": 0.0, "is_disabled": 0, "rental_uris": {"ios": "https://dc.lft.to/lastmile_qr_scan", "android": "https://dc.lft.to/lastmile_qr_scan"}, "bike_id": "e9db34936616b7bcd5dcd3a37523de51", "lat": 38.90486716666667, "name": "e9db34936616b7bcd5dcd3a37523de51", "lon": -76.94960233333333, "fusion_lon": 0.0}, {"is_reserved": 0, "type": "electric_scooter", "fusion_lat": 0.0, "is_disabled": 0, "rental_uris": {"ios": "https://dc.lft.to/lastmile_qr_scan", "android": "https://dc.lft.to/lastmile_qr_scan"}, "bike_id": "8e03fbc6758d09fafde2befbe7f9eb9b", "lat": 38.968031333333336, "name": "8e03fbc6758d09fafde2befbe7f9eb9b", "lon": -77.02558233333333, "fusion_lon": 0.0}, {"is_reserved": 0, "type": "electric_scooter", "fusion_lat": 0.0, "is_disabled": 0, "rental_uris": {"ios": "https://dc.lft.to/lastmile_qr_scan", "android": "https://dc.lft.to/lastmile_qr_scan"}, "bike_id": "e93e2f98d939be208ba285921871cc06", "lat": 38.926681, "name": "e93e2f98d939be208ba285921871cc06", "lon": -76.9954055, "fusion_lon": 0.0}, {"is_reserved": 0, "type": "electric_scooter", "fusion_lat": 0.0, "is_disabled": 0, "rental_uris": {"ios": "https://dc.lft.to/lastmile_qr_scan", "android": "https://dc.lft.to/lastmile_qr_scan"}, "bike_id": "7eefa1d3d75be62c2c47f61024a33494", "lat": 38.9006815, "name": "7eefa1d3d75be62c2c47f61024a33494", "lon": -77.045305, "fusion_lon": 0.0}, {"is_reserved": 0, "type": "electric_scooter", "fusion_lat": 0.0, "is_disabled": 0, "rental_uris": {"ios": "https://dc.lft.to/lastmile_qr_scan", "android": "https://dc.lft.to/lastmile_qr_scan"}, "bike_id": "ca6155212b679c87db77c7014181546d", "lat": 38.93599366666667, "name": "ca6155212b679c87db77c7014181546d", "lon": -77.037602, "fusion_lon": 0.0}, {"is_reserved": 0, "type": "electric_scooter", "fusion_lat": 0.0, "is_disabled": 0, "rental_uris": {"ios": "https://dc.lft.to/lastmile_qr_scan", "android": "https://dc.lft.to/lastmile_qr_scan"}, "bike_id": "4f1d26478ef33b45bbc36fd8be650aea", "lat": 38.89634616666667, "name": "4f1d26478ef33b45bbc36fd8be650aea", "lon": -77.02854833333333, "fusion_lon": 0.0}, {"is_reserved": 0, "type": "electric_scooter", "fusion_lat": 0.0, "is_disabled": 0, "rental_uris": {"ios": "https://dc.lft.to/lastmile_qr_scan", "android": "https://dc.lft.to/lastmile_qr_scan"}, "bike_id": "63daa58bce98d937ec2392f54f523ec3", "lat": 38.91656716666667, "name": "63daa58bce98d937ec2392f54f523ec3", "lon": -77.01028916666667, "fusion_lon": 0.0}, {"is_reserved": 0, "type": "electric_bike", "fusion_lat": 0.0, "is_disabled": 0, "rental_uris": {"ios": "https://dc.lft.to/lastmile_qr_scan", "android": "https://dc.lft.to/lastmile_qr_scan"}, "bike_id": "306e28d68257a45ba836442e4a1e6810", "lat": 38.80979716666667, "name": "306e28d68257a45ba836442e4a1e6810", "lon": -77.07659866666667, "fusion_lon": 0.0}, {"is_reserved": 0, "type": "electric_scooter", "fusion_lat": 0.0, "is_disabled": 0, "rental_uris": {"ios": "https://dc.lft.to/lastmile_qr_scan", "android": "https://dc.lft.to/lastmile_qr_scan"}, "bike_id": "c451ffa2f0aa14cc395853105d6976a7", "lat": 38.92005266666666, "name": "c451ffa2f0aa14cc395853105d6976a7", "lon": -77.04168283333334, "fusion_lon": 0.0}, {"is_reserved": 0, "type": "electric_scooter", "fusion_lat": 0.0, "is_disabled": 0, "rental_uris": {"ios": "https://dc.lft.to/lastmile_qr_scan", "android": "https://dc.lft.to/lastmile_qr_scan"}, "bike_id": "dba32ce708d74fb1aa470cfbb30a4911", "lat": 38.944865666666665, "name": "dba32ce708d74fb1aa470cfbb30a4911", "lon": -77.09499933333333, "fusion_lon": 0.0}, {"is_reserved": 0, "type": "electric_scooter", "fusion_lat": 0.0, "is_disabled": 0, "rental_uris": {"ios": "https://dc.lft.to/lastmile_qr_scan", "android": "https://dc.lft.to/lastmile_qr_scan"}, "bike_id": "5ac49e54fc542e78147d8fbcf2803f53", "lat": 38.898258, "name": "5ac49e54fc542e78147d8fbcf2803f53", "lon": -76.9300385, "fusion_lon": 0.0}, {"is_reserved": 0, "type": "electric_bike", "fusion_lat": 0.0, "is_disabled": 0, "rental_uris": {"ios": "https://dc.lft.to/lastmile_qr_scan", "android": "https://dc.lft.to/lastmile_qr_scan"}, "bike_id": "854a50a2d1696322edd1a1a337c01729", "lat": 38.88308683333333, "name": "854a50a2d1696322edd1a1a337c01729", "lon": -77.00197083333333, "fusion_lon": 0.0}, {"is_reserved": 0, "type": "electric_scooter", "fusion_lat": 0.0, "is_disabled": 0, "rental_uris": {"ios": "https://dc.lft.to/lastmile_qr_scan", "android": "https://dc.lft.to/lastmile_qr_scan"}, "bike_id": "c043fec564302e2b2daea7f6106ea94a", "lat": 38.90839, "name": "c043fec564302e2b2daea7f6106ea94a", "lon": -76.99702433333333, "fusion_lon": 0.0}, {"is_reserved": 0, "type": "electric_scooter", "fusion_lat": 0.0, "is_disabled": 0, "rental_uris": {"ios": "https://dc.lft.to/lastmile_qr_scan", "android": "https://dc.lft.to/lastmile_qr_scan"}, "bike_id": "fc636f200c8915b8bf74b7f69eb272f1", "lat": 38.8885995, "name": "fc636f200c8915b8bf74b7f69eb272f1", "lon": -76.97734266666667, "fusion_lon": 0.0}, {"is_reserved": 0, "type": "electric_scooter", "fusion_lat": 0.0, "is_disabled": 0, "rental_uris": {"ios": "https://dc.lft.to/lastmile_qr_scan", "android": "https://dc.lft.to/lastmile_qr_scan"}, "bike_id": "39e4f0cf27e005fee7f2b8c6d2886e9a", "lat": 38.897782666666664, "name": "39e4f0cf27e005fee7f2b8c6d2886e9a", "lon": -77.047778, "fusion_lon": 0.0}, {"is_reserved": 0, "type": "electric_scooter", "fusion_lat": 0.0, "is_disabled": 0, "rental_uris": {"ios": "https://dc.lft.to/lastmile_qr_scan", "android": "https://dc.lft.to/lastmile_qr_scan"}, "bike_id": "026802b68f9da975bc68ed687d39569d", "lat": 38.92211916666667, "name": "026802b68f9da975bc68ed687d39569d", "lon": -77.042392, "fusion_lon": 0.0}, {"is_reserved": 0, "type": "electric_scooter", "fusion_lat": 0.0, "is_disabled": 0, "rental_uris": {"ios": "https://dc.lft.to/lastmile_qr_scan", "android": "https://dc.lft.to/lastmile_qr_scan"}, "bike_id": "8df9e92f68fb3c9b23ee5ba48c603e6d", "lat": 38.924202333333334, "name": "8df9e92f68fb3c9b23ee5ba48c603e6d", "lon": -77.02039433333333, "fusion_lon": 0.0}, {"is_reserved": 0, "type": "electric_scooter", "fusion_lat": 0.0, "is_disabled": 0, "rental_uris": {"ios": "https://dc.lft.to/lastmile_qr_scan", "android": "https://dc.lft.to/lastmile_qr_scan"}, "bike_id": "2ddebb54a6220f37507eadd2f638b4cb", "lat": 38.920601166666664, "name": "2ddebb54a6220f37507eadd2f638b4cb", "lon": -77.043966, "fusion_lon": 0.0}, {"is_reserved": 0, "type": "electric_bike", "fusion_lat": 0.0, "is_disabled": 0, "rental_uris": {"ios": "https://dc.lft.to/lastmile_qr_scan", "android": "https://dc.lft.to/lastmile_qr_scan"}, "bike_id": "d0bb6d73463df5568b7c5a98cf81b890", "lat": 38.87767916666667, "name": "d0bb6d73463df5568b7c5a98cf81b890", "lon": -77.0105035, "fusion_lon": 0.0}, {"is_reserved": 0, "type": "electric_scooter", "fusion_lat": 0.0, "is_disabled": 0, "rental_uris": {"ios": "https://dc.lft.to/lastmile_qr_scan", "android": "https://dc.lft.to/lastmile_qr_scan"}, "bike_id": "06d950399cca41faf6f424b7f1013570", "lat": 38.9201405, "name": "06d950399cca41faf6f424b7f1013570", "lon": -77.071355, "fusion_lon": 0.0}, {"is_reserved": 0, "type": "electric_scooter", "fusion_lat": 0.0, "is_disabled": 0, "rental_uris": {"ios": "https://dc.lft.to/lastmile_qr_scan", "android": "https://dc.lft.to/lastmile_qr_scan"}, "bike_id": "c9960c4fa4c6aa739195fe24fb1f3dd5", "lat": 38.920715, "name": "c9960c4fa4c6aa739195fe24fb1f3dd5", "lon": -77.025147, "fusion_lon": 0.0}, {"is_reserved": 0, "type": "electric_scooter", "fusion_lat": 0.0, "is_disabled": 0, "rental_uris": {"ios": "https://dc.lft.to/lastmile_qr_scan", "android": "https://dc.lft.to/lastmile_qr_scan"}, "bike_id": "d7439788b04c868c042068399019b507", "lat": 38.92110133333333, "name": "d7439788b04c868c042068399019b507", "lon": -77.045695, "fusion_lon": 0.0}, {"is_reserved": 0, "type": "electric_scooter", "fusion_lat": 0.0, "is_disabled": 0, "rental_uris": {"ios": "https://dc.lft.to/lastmile_qr_scan", "android": "https://dc.lft.to/lastmile_qr_scan"}, "bike_id": "438bd6a917b10d053c924a77b907f1bb", "lat": 38.89730333333333, "name": "438bd6a917b10d053c924a77b907f1bb", "lon": -77.041526, "fusion_lon": 0.0}, {"is_reserved": 0, "type": "electric_scooter", "fusion_lat": 0.0, "is_disabled": 0, "rental_uris": {"ios": "https://dc.lft.to/lastmile_qr_scan", "android": "https://dc.lft.to/lastmile_qr_scan"}, "bike_id": "ef7ba6f0c5c57c51973f65d1d4d06647", "lat": 38.87855966666667, "name": "ef7ba6f0c5c57c51973f65d1d4d06647", "lon": -77.00561066666667, "fusion_lon": 0.0}, {"is_reserved": 0, "type": "electric_scooter", "fusion_lat": 0.0, "is_disabled": 0, "rental_uris": {"ios": "https://dc.lft.to/lastmile_qr_scan", "android": "https://dc.lft.to/lastmile_qr_scan"}, "bike_id": "907f45b4834a2e03790c13094d0dbe91", "lat": 38.909718833333336, "name": "907f45b4834a2e03790c13094d0dbe91", "lon": -77.02205083333334, "fusion_lon": 0.0}, {"is_reserved": 0, "type": "electric_scooter", "fusion_lat": 0.0, "is_disabled": 0, "rental_uris": {"ios": "https://dc.lft.to/lastmile_qr_scan", "android": "https://dc.lft.to/lastmile_qr_scan"}, "bike_id": "e48270f06cedbeda0c513d9737b61748", "lat": 38.923344666666665, "name": "e48270f06cedbeda0c513d9737b61748", "lon": -77.04300516666666, "fusion_lon": 0.0}, {"is_reserved": 0, "type": "electric_bike", "fusion_lat": 0.0, "is_disabled": 0, "rental_uris": {"ios": "https://dc.lft.to/lastmile_qr_scan", "android": "https://dc.lft.to/lastmile_qr_scan"}, "bike_id": "73718bd4ee41da12d80c08f47ff2dfd5", "lat": 38.907344, "name": "73718bd4ee41da12d80c08f47ff2dfd5", "lon": -77.06293416666666, "fusion_lon": 0.0}, {"is_reserved": 0, "type": "electric_scooter", "fusion_lat": 0.0, "is_disabled": 0, "rental_uris": {"ios": "https://dc.lft.to/lastmile_qr_scan", "android": "https://dc.lft.to/lastmile_qr_scan"}, "bike_id": "6f7e044bdcc05fb97affd9683776ec5e", "lat": 38.9232065, "name": "6f7e044bdcc05fb97affd9683776ec5e", "lon": -77.01952533333333, "fusion_lon": 0.0}, {"is_reserved": 0, "type": "electric_scooter", "fusion_lat": 0.0, "is_disabled": 0, "rental_uris": {"ios": "https://dc.lft.to/lastmile_qr_scan", "android": "https://dc.lft.to/lastmile_qr_scan"}, "bike_id": "c9f133161da2443729dd38205a87e439", "lat": 38.91709383333333, "name": "c9f133161da2443729dd38205a87e439", "lon": -77.0349945, "fusion_lon": 0.0}, {"is_reserved": 0, "type": "electric_scooter", "fusion_lat": 0.0, "is_disabled": 0, "rental_uris": {"ios": "https://dc.lft.to/lastmile_qr_scan", "android": "https://dc.lft.to/lastmile_qr_scan"}, "bike_id": "be79750f478708407f8198b30be22b19", "lat": 38.917111166666665, "name": "be79750f478708407f8198b30be22b19", "lon": -77.02409916666667, "fusion_lon": 0.0}, {"is_reserved": 0, "type": "electric_scooter", "fusion_lat": 0.0, "is_disabled": 0, "rental_uris": {"ios": "https://dc.lft.to/lastmile_qr_scan", "android": "https://dc.lft.to/lastmile_qr_scan"}, "bike_id": "d9bdbe2bd1269b9b9ad8bea21770820d", "lat": 38.923203, "name": "d9bdbe2bd1269b9b9ad8bea21770820d", "lon": -77.0450865, "fusion_lon": 0.0}, {"is_reserved": 0, "type": "electric_scooter", "fusion_lat": 0.0, "is_disabled": 0, "rental_uris": {"ios": "https://dc.lft.to/lastmile_qr_scan", "android": "https://dc.lft.to/lastmile_qr_scan"}, "bike_id": "40fa5f0a1750822cabc7a94a2a187b6a", "lat": 38.91308266666667, "name": "40fa5f0a1750822cabc7a94a2a187b6a", "lon": -77.02029666666667, "fusion_lon": 0.0}, {"is_reserved": 0, "type": "electric_scooter", "fusion_lat": 0.0, "is_disabled": 0, "rental_uris": {"ios": "https://dc.lft.to/lastmile_qr_scan", "android": "https://dc.lft.to/lastmile_qr_scan"}, "bike_id": "7acd95139de020f4da7ab03c8e3e0dde", "lat": 38.921039666666665, "name": "7acd95139de020f4da7ab03c8e3e0dde", "lon": -77.03043716666667, "fusion_lon": 0.0}, {"is_reserved": 0, "type": "electric_scooter", "fusion_lat": 0.0, "is_disabled": 0, "rental_uris": {"ios": "https://dc.lft.to/lastmile_qr_scan", "android": "https://dc.lft.to/lastmile_qr_scan"}, "bike_id": "62d5f1d444281aa541d8f68e7e48184e", "lat": 38.909667, "name": "62d5f1d444281aa541d8f68e7e48184e", "lon": -77.04822416666667, "fusion_lon": 0.0}, {"is_reserved": 0, "type": "electric_scooter", "fusion_lat": 0.0, "is_disabled": 0, "rental_uris": {"ios": "https://dc.lft.to/lastmile_qr_scan", "android": "https://dc.lft.to/lastmile_qr_scan"}, "bike_id": "a5d60f47741b2c36afa7494ead2ad8f2", "lat": 38.91711933333333, "name": "a5d60f47741b2c36afa7494ead2ad8f2", "lon": -77.02408333333334, "fusion_lon": 0.0}, {"is_reserved": 0, "type": "electric_bike", "fusion_lat": 0.0, "is_disabled": 0, "rental_uris": {"ios": "https://dc.lft.to/lastmile_qr_scan", "android": "https://dc.lft.to/lastmile_qr_scan"}, "bike_id": "fa3a9a8845cb942d25d77c0ae5456429", "lat": 38.95241733333334, "name": "fa3a9a8845cb942d25d77c0ae5456429", "lon": -76.98245333333334, "fusion_lon": 0.0}, {"is_reserved": 0, "type": "electric_scooter", "fusion_lat": 0.0, "is_disabled": 0, "rental_uris": {"ios": "https://dc.lft.to/lastmile_qr_scan", "android": "https://dc.lft.to/lastmile_qr_scan"}, "bike_id": "09859877ce7b149bfe04017c30915c30", "lat": 38.92058133333333, "name": "09859877ce7b149bfe04017c30915c30", "lon": -77.02300116666666, "fusion_lon": 0.0}, {"is_reserved": 0, "type": "electric_bike", "fusion_lat": 0.0, "is_disabled": 0, "rental_uris": {"ios": "https://dc.lft.to/lastmile_qr_scan", "android": "https://dc.lft.to/lastmile_qr_scan"}, "bike_id": "97486dfebc66d5299504a6e8b7413a34", "lat": 38.95888566666667, "name": "97486dfebc66d5299504a6e8b7413a34", "lon": -76.97062133333333, "fusion_lon": 0.0}, {"is_reserved": 0, "type": "electric_scooter", "fusion_lat": 0.0, "is_disabled": 0, "rental_uris": {"ios": "https://dc.lft.to/lastmile_qr_scan", "android": "https://dc.lft.to/lastmile_qr_scan"}, "bike_id": "4ea54d43fbcbea7683ec3150f2c9e9a0", "lat": 38.920770166666664, "name": "4ea54d43fbcbea7683ec3150f2c9e9a0", "lon": -77.02421333333334, "fusion_lon": 0.0}, {"is_reserved": 0, "type": "electric_scooter", "fusion_lat": 0.0, "is_disabled": 0, "rental_uris": {"ios": "https://dc.lft.to/lastmile_qr_scan", "android": "https://dc.lft.to/lastmile_qr_scan"}, "bike_id": "a9b0cdba25961bab40df058e795e8f4a", "lat": 38.927899333333336, "name": "a9b0cdba25961bab40df058e795e8f4a", "lon": -77.02131816666666, "fusion_lon": 0.0}, {"is_reserved": 0, "type": "electric_scooter", "fusion_lat": 0.0, "is_disabled": 0, "rental_uris": {"ios": "https://dc.lft.to/lastmile_qr_scan", "android": "https://dc.lft.to/lastmile_qr_scan"}, "bike_id": "b79596ef7598aff05a4f4e228c0e017b", "lat": 38.9060945, "name": "b79596ef7598aff05a4f4e228c0e017b", "lon": -77.06301233333333, "fusion_lon": 0.0}, {"is_reserved": 0, "type": "electric_scooter", "fusion_lat": 0.0, "is_disabled": 0, "rental_uris": {"ios": "https://dc.lft.to/lastmile_qr_scan", "android": "https://dc.lft.to/lastmile_qr_scan"}, "bike_id": "9f2ea84e1e0615adb0cd8bad1fce1f08", "lat": 38.89979666666667, "name": "9f2ea84e1e0615adb0cd8bad1fce1f08", "lon": -77.00936783333333, "fusion_lon": 0.0}, {"is_reserved": 0, "type": "electric_scooter", "fusion_lat": 0.0, "is_disabled": 0, "rental_uris": {"ios": "https://dc.lft.to/lastmile_qr_scan", "android": "https://dc.lft.to/lastmile_qr_scan"}, "bike_id": "dbc9e0cb4a76e2592d4ea51cb2a2bb69", "lat": 38.89232233333333, "name": "dbc9e0cb4a76e2592d4ea51cb2a2bb69", "lon": -77.02581166666667, "fusion_lon": 0.0}, {"is_reserved": 0, "type": "electric_scooter", "fusion_lat": 0.0, "is_disabled": 0, "rental_uris": {"ios": "https://dc.lft.to/lastmile_qr_scan", "android": "https://dc.lft.to/lastmile_qr_scan"}, "bike_id": "341c694dcdea94cc78af7e604f7bbeac", "lat": 38.901516, "name": "341c694dcdea94cc78af7e604f7bbeac", "lon": -77.01512366666667, "fusion_lon": 0.0}, {"is_reserved": 0, "type": "electric_scooter", "fusion_lat": 0.0, "is_disabled": 0, "rental_uris": {"ios": "https://dc.lft.to/lastmile_qr_scan", "android": "https://dc.lft.to/lastmile_qr_scan"}, "bike_id": "acfe208eae3285244ec74fac1d743cd3", "lat": 38.90642016666666, "name": "acfe208eae3285244ec74fac1d743cd3", "lon": -77.02479233333334, "fusion_lon": 0.0}, {"is_reserved": 0, "type": "electric_scooter", "fusion_lat": 0.0, "is_disabled": 0, "rental_uris": {"ios": "https://dc.lft.to/lastmile_qr_scan", "android": "https://dc.lft.to/lastmile_qr_scan"}, "bike_id": "ec1d171ea131febe63290e530e2a3c77", "lat": 38.9204825, "name": "ec1d171ea131febe63290e530e2a3c77", "lon": -77.0260675, "fusion_lon": 0.0}, {"is_reserved": 0, "type": "electric_scooter", "fusion_lat": 0.0, "is_disabled": 0, "rental_uris": {"ios": "https://dc.lft.to/lastmile_qr_scan", "android": "https://dc.lft.to/lastmile_qr_scan"}, "bike_id": "ba05369f395dacba93f3e113ccbab594", "lat": 38.92136883333333, "name": "ba05369f395dacba93f3e113ccbab594", "lon": -77.0040245, "fusion_lon": 0.0}, {"is_reserved": 0, "type": "electric_scooter", "fusion_lat": 0.0, "is_disabled": 0, "rental_uris": {"ios": "https://dc.lft.to/lastmile_qr_scan", "android": "https://dc.lft.to/lastmile_qr_scan"}, "bike_id": "96361451d5fdb8ed9554fc65d1a696f8", "lat": 38.90392833333333, "name": "96361451d5fdb8ed9554fc65d1a696f8", "lon": -76.990069, "fusion_lon": 0.0},