{"data": {"bikes": [{"type": "electric_scooter", "name": "00d000401acc7dcf97902b7c4ef4c4fb", "fusion_lat": 0.0, "fusion_lon": 0.0, "lon": -76.94665033333334, "is_disabled": 0, "bike_id": "00d000401acc7dcf97902b7c4ef4c4fb", "is_reserved": 0, "rental_uris": {"android": "https://dc.lft.to/lastmile_qr_scan", "ios": "https://dc.lft.to/lastmile_qr_scan"}, "lat": 38.898690333333334}, {"type": "electric_scooter", "name": "4decb92f2a577af4176b48b30899d8e8", "fusion_lat": 0.0, "fusion_lon": 0.0, "lon": -76.9326035, "is_disabled": 0, "bike_id": "4decb92f2a577af4176b48b30899d8e8", "is_reserved": 0, "rental_uris": {"android": "https://dc.lft.to/lastmile_qr_scan", "ios": "https://dc.lft.to/lastmile_qr_scan"}, "lat": 38.887431666666664}, {"type": "electric_scooter", "name": "43f18d0d1145dda7ded690ba759419d1", "fusion_lat": 0.0, "fusion_lon": 0.0, "lon": -77.03858883333334, "is_disabled": 0, "bike_id": "43f18d0d1145dda7ded690ba759419d1", "is_reserved": 0, "rental_uris": {"android": "https://dc.lft.to/lastmile_qr_scan", "ios": "https://dc.lft.to/lastmile_qr_scan"}, "lat": 38.911724166666666}, {"type": "electric_scooter", "name": "3a1a3ee540405853083feb31a25f4a39", "fusion_lat": 0.0, "fusion_lon": 0.0, "lon": -77.024453, "is_disabled": 0, "bike_id": "3a1a3ee540405853083feb31a25f4a39", "is_reserved": 0, "rental_uris": {"android": "https://dc.lft.to/lastmile_qr_scan", "ios": "https://dc.lft.to/lastmile_qr_scan"}, "lat": 38.94978583333334}, {"type": "electric_bike", "name": "d7e7cfd04173e6c01e73b49301e3e5c6", "fusion_lat": 0.0, "fusion_lon": 0.0, "lon": -77.02958133333334, "is_disabled": 0, "bike_id": "d7e7cfd04173e6c01e73b49301e3e5c6", "is_reserved": 0, "rental_uris": {"android": "https://dc.lft.to/lastmile_qr_scan", "ios": "https://dc.lft.to/lastmile_qr_scan"}, "lat": 38.92732633333333}, {"type": "electric_scooter", "name": "3528cd365b39a82e59c4100cbb888953", "fusion_lat": 0.0, "fusion_lon": 0.0, "lon": -77.00884983333333, "is_disabled": 0, "bike_id": "3528cd365b39a82e59c4100cbb888953", "is_reserved": 0, "rental_uris": {"android": "https://dc.lft.to/lastmile_qr_scan", "ios": "https://dc.lft.to/lastmile_qr_scan"}, "lat": 38.89597666666667}, {"type": "electric_scooter", "name": "f55ede94b0d705e991d841dd043166f9", "fusion_lat": 0.0, "fusion_lon": 0.0, "lon": -77.03316116666667, "is_disabled": 0, "bike_id": "f55ede94b0d705e991d841dd043166f9", "is_reserved": 0, "rental_uris": {"android": "https://dc.lft.to/lastmile_qr_scan", "ios": "https://dc.lft.to/lastmile_qr_scan"}, "lat": 38.915678}, {"type": "electric_scooter", "name": "9fcfca2ee8bc72aeb78288ba66e03d36", "fusion_lat": 0.0, "fusion_lon": 0.0, "lon": -77.02413616666666, "is_disabled": 0, "bike_id": "9fcfca2ee8bc72aeb78288ba66e03d36", "is_reserved": 0, "rental_uris": {"android": "https://dc.lft.to/lastmile_qr_scan", "ios": "https://dc.lft.to/lastmile_qr_scan"}, "lat": 38.897201833333334}, {"type": "electric_scooter", "name": "6941e78c2aa40edf550b18b3e1ee69a4", "fusion_lat": 0.0, "fusion_lon": 0.0, "lon": -77.04010183333334, "is_disabled": 0, "bike_id": "6941e78c2aa40edf550b18b3e1ee69a4", "is_reserved": 0, "rental_uris": {"android": "https://dc.lft.to/lastmile_qr_scan", "ios": "https://dc.lft.to/lastmile_qr_scan"}, "lat": 38.92227066666667}, {"type": "electric_scooter", "name": "7231b035f35976f4d3dd0205a064ac5e", "fusion_lat": 0.0, "fusion_lon": 0.0, "lon": -77.01998433333333, "is_disabled": 0, "bike_id": "7231b035f35976f4d3dd0205a064ac5e", "is_reserved": 0, "rental_uris": {"android": "https://dc.lft.to/lastmile_qr_scan", "ios": "https://dc.lft.to/lastmile_qr_scan"}, "lat": 38.91178716666667}, {"type": "electric_scooter", "name": "d629d6fc23070220a9e6be91b3183c1b", "fusion_lat": 0.0, "fusion_lon": 0.0, "lon": -77.02778066666667, "is_disabled": 0, "bike_id": "d629d6fc23070220a9e6be91b3183c1b", "is_reserved": 0, "rental_uris": {"android": "https://dc.lft.to/lastmile_qr_scan", "ios": "https://dc.lft.to/lastmile_qr_scan"}, "lat": 38.9306545}, {"type": "electric_scooter", "name": "eb761d1a9608520b9538ef781519046f", "fusion_lat": 0.0, "fusion_lon": 0.0, "lon": -77.05171633333333, "is_disabled": 0, "bike_id": "eb761d1a9608520b9538ef781519046f", "is_reserved": 0, "rental_uris": {"android": "https://dc.lft.to/lastmile_qr_scan", "ios": "https://dc.lft.to/lastmile_qr_scan"}, "lat": 38.90244966666667}, {"type": "electric_scooter", "name": "d1fcce763f807ede658c7a323097b22b", "fusion_lat": 0.0, "fusion_lon": 0.0, "lon": -77.04081616666667, "is_disabled": 0, "bike_id": "d1fcce763f807ede658c7a323097b22b", "is_reserved": 0, "rental_uris": {"android": "https://dc.lft.to/lastmile_qr_scan", "ios": "https://dc.lft.to/lastmile_qr_scan"}, "lat": 38.920294166666665}, {"type": "electric_scooter", "name": "4654c9784ffc454a54b8c1782b9769be", "fusion_lat": 0.0, "fusion_lon": 0.0, "lon": -77.03906733333334, "is_disabled": 0, "bike_id": "4654c9784ffc454a54b8c1782b9769be", "is_reserved": 0, "rental_uris": {"android": "https://dc.lft.to/lastmile_qr_scan", "ios": "https://dc.lft.to/lastmile_qr_scan"}, "lat": 38.914216333333336}, {"type": "electric_scooter", "name": "a81586448db426da146684966c05047a", "fusion_lat": 0.0, "fusion_lon": 0.0, "lon": -77.03976083333333, "is_disabled": 0, "bike_id": "a81586448db426da146684966c05047a", "is_reserved": 0, "rental_uris": {"android": "https://dc.lft.to/lastmile_qr_scan", "ios": "https://dc.lft.to/lastmile_qr_scan"}, "lat": 38.898979}, {"type": "electric_scooter", "name": "6326151fe4570656e25475908b677edf", "fusion_lat": 0.0, "fusion_lon": 0.0, "lon": -77.0410495, "is_disabled": 0, "bike_id": "6326151fe4570656e25475908b677edf", "is_reserved": 0, "rental_uris": {"android": "https://dc.lft.to/lastmile_qr_scan", "ios": "https://dc.lft.to/lastmile_qr_scan"}, "lat": 38.92075216666667}, {"type": "electric_scooter", "name": "46a84d48c29433ebd473b543936505fd", "fusion_lat": 0.0, "fusion_lon": 0.0, "lon": -77.02769783333333, "is_disabled": 0, "bike_id": "46a84d48c29433ebd473b543936505fd", "is_reserved": 0, "rental_uris": {"android": "https://dc.lft.to/lastmile_qr_scan", "ios": "https://dc.lft.to/lastmile_qr_scan"}, "lat": 38.9658095}, {"type": "electric_scooter", "name": "05b38332ce8e6399975409c4d4648a53", "fusion_lat": 0.0, "fusion_lon": 0.0, "lon": -77.0228475, "is_disabled": 0, "bike_id": "05b38332ce8e6399975409c4d4648a53", "is_reserved": 0, "rental_uris": {"android": "https://dc.lft.to/lastmile_qr_scan", "ios": "https://dc.lft.to/lastmile_qr_scan"}, "lat": 38.92685616666667}, {"type": "electric_scooter", "name": "fae4008e5e3845cd004987f13d2f4d64", "fusion_lat": 0.0, "fusion_lon": 0.0, "lon": -77.01337083333334, "is_disabled": 0, "bike_id": "fae4008e5e3845cd004987f13d2f4d64", "is_reserved": 0, "rental_uris": {"android": "https://dc.lft.to/lastmile_qr_scan", "ios": "https://dc.lft.to/lastmile_qr_scan"}, "lat": 38.88123183333333}, {"type": "electric_scooter", "name": "fe4545e19956c76660589246a7830180", "fusion_lat": 0.0, "fusion_lon": 0.0, "lon": -77.04361416666667, "is_disabled": 0, "bike_id": "fe4545e19956c76660589246a7830180", "is_reserved": 0, "rental_uris": {"android": "https://dc.lft.to/lastmile_qr_scan", "ios": "https://dc.lft.to/lastmile_qr_scan"}, "lat": 38.904677666666664}, {"type": "electric_scooter", "name": "45476b3099bf39f83ad1371a19d17b2b", "fusion_lat": 0.0, "fusion_lon": 0.0, "lon": -77.023013, "is_disabled": 0, "bike_id": "45476b3099bf39f83ad1371a19d17b2b", "is_reserved": 0, "rental_uris": {"android": "https://dc.lft.to/lastmile_qr_scan", "ios": "https://dc.lft.to/lastmile_qr_scan"}, "lat": 38.920851166666665}, {"type": "electric_scooter", "name": "7fa69b9e5b75221b59d139745b316c2d", "fusion_lat": 0.0, "fusion_lon": 0.0, "lon": -77.02574916666667, "is_disabled": 0, "bike_id": "7fa69b9e5b75221b59d139745b316c2d", "is_reserved": 0, "rental_uris": {"android": "https://dc.lft.to/lastmile_qr_scan", "ios": "https://dc.lft.to/lastmile_qr_scan"}, "lat": 38.94200583333333}, {"type": "electric_bike", "name": "0b29ccf944dc73b9527c2b6a446a04d2", "fusion_lat": 0.0, "fusion_lon": 0.0, "lon": -77.09564416666667, "is_disabled": 0, "bike_id": "0b29ccf944dc73b9527c2b6a446a04d2", "is_reserved": 0, "rental_uris": {"android": "https://dc.lft.to/lastmile_qr_scan", "ios": "https://dc.lft.to/lastmile_qr_scan"}, "lat": 38.85881216666667}, {"type": "electric_scooter", "name": "ef02eee870d3e2749a58778aee27a493", "fusion_lat": 0.0, "fusion_lon": 0.0, "lon": -76.976518, "is_disabled": 0, "bike_id": "ef02eee870d3e2749a58778aee27a493", "is_reserved": 0, "rental_uris": {"android": "https://dc.lft.to/lastmile_qr_scan", "ios": "https://dc.lft.to/lastmile_qr_scan"}, "lat": 38.9036065}, {"type": "electric_scooter", "name": "356e6941a532ec814eb088a58d94301d", "fusion_lat": 0.0, "fusion_lon": 0.0, "lon": -77.03501733333333, "is_disabled": 0, "bike_id": "356e6941a532ec814eb088a58d94301d", "is_reserved": 0, "rental_uris": {"android": "https://dc.lft.to/lastmile_qr_scan", "ios": "https://dc.lft.to/lastmile_qr_scan"}, "lat": 38.9214805}, {"type": "electric_scooter", "name": "b95831a41b70927fb33c04ecfd8b92a1", "fusion_lat": 0.0, "fusion_lon": 0.0, "lon": -77.03257033333334, "is_disabled": 0, "bike_id": "b95831a41b70927fb33c04ecfd8b92a1", "is_reserved": 0, "rental_uris": {"android": "https://dc.lft.to/lastmile_qr_scan", "ios": "https://dc.lft.to/lastmile_qr_scan"}, "lat": 38.933012}, {"type": "electric_scooter", "name": "4376fd14ae072111540c664f9b7220bd", "fusion_lat": 0.0, "fusion_lon": 0.0, "lon": -77.05145233333333, "is_disabled": 0, "bike_id": "4376fd14ae072111540c664f9b7220bd", "is_reserved": 0, "rental_uris": {"android": "https://dc.lft.to/lastmile_qr_scan", "ios": "https://dc.lft.to/lastmile_qr_scan"}, "lat": 38.89863}, {"type": "electric_scooter", "name": "2533964d92ba081db641095d7238b135", "fusion_lat": 0.0, "fusion_lon": 0.0, "lon": -77.03421383333334, "is_disabled": 0, "bike_id": "2533964d92ba081db641095d7238b135", "is_reserved": 0, "rental_uris": {"android": "https://dc.lft.to/lastmile_qr_scan", "ios": "https://dc.lft.to/lastmile_qr_scan"}, "lat": 38.906371}, {"type": "electric_bike", "name": "4a949bd0151f933106a41d50a51ef778", "fusion_lat": 0.0, "fusion_lon": 0.0, "lon": -77.0781625, "is_disabled": 0, "bike_id": "4a949bd0151f933106a41d50a51ef778", "is_reserved": 0, "rental_uris": {"android": "https://dc.lft.to/lastmile_qr_scan", "ios": "https://dc.lft.to/lastmile_qr_scan"}, "lat": 38.89521033333333}, {"type": "electric_scooter", "name": "64a8218c6c35553f937bb3d07dc8fb57", "fusion_lat": 0.0, "fusion_lon": 0.0, "lon": -77.0160905, "is_disabled": 0, "bike_id": "64a8218c6c35553f937bb3d07dc8fb57", "is_reserved": 0, "rental_uris": {"android": "https://dc.lft.to/lastmile_qr_scan", "ios": "https://dc.lft.to/lastmile_qr_scan"}, "lat": 38.90959483333334}, {"type": "electric_scooter", "name": "7190ba08296921ec049a3750e524c248", "fusion_lat": 0.0, "fusion_lon": 0.0, "lon": -77.000589, "is_disabled": 0, "bike_id": "7190ba08296921ec049a3750e524c248", "is_reserved": 0, "rental_uris": {"android": "https://dc.lft.to/lastmile_qr_scan", "ios": "https://dc.lft.to/lastmile_qr_scan"}, "lat": 38.873772}, {"type": "electric_scooter", "name": "81336ab37a7a692f57be64ff1b88c1b7", "fusion_lat": 0.0, "fusion_lon": 0.0, "lon": -77.03210366666667, "is_disabled": 0, "bike_id": "81336ab37a7a692f57be64ff1b88c1b7", "is_reserved": 0, "rental_uris": {"android": "https://dc.lft.to/lastmile_qr_scan", "ios": "https://dc.lft.to/lastmile_qr_scan"}, "lat": 38.9072885}, {"type": "electric_scooter", "name": "ca0d2201344ad8060f584ed86d688302", "fusion_lat": 0.0, "fusion_lon": 0.0, "lon": -77.00200283333334, "is_disabled": 0, "bike_id": "ca0d2201344ad8060f584ed86d688302", "is_reserved": 0, "rental_uris": {"android": "https://dc.lft.to/lastmile_qr_scan", "ios": "https://dc.lft.to/lastmile_qr_scan"}, "lat": 38.893421833333335}, {"type": "electric_scooter", "name": "1a4f5da947f60cab17094cd06534074a", "fusion_lat": 0.0, "fusion_lon": 0.0, "lon": -76.98369933333333, "is_disabled": 0, "bike_id": "1a4f5da947f60cab17094cd06534074a", "is_reserved": 0, "rental_uris": {"android": "https://dc.lft.to/lastmile_qr_scan", "ios": "https://dc.lft.to/lastmile_qr_scan"}, "lat": 38.892641166666664}, {"type": "electric_scooter", "name": "4211a5b31d8fdec09c77e0c3e083f3d3", "fusion_lat": 0.0, "fusion_lon": 0.0, "lon": -76.99846766666667, "is_disabled": 0, "bike_id": "4211a5b31d8fdec09c77e0c3e083f3d3", "is_reserved": 0, "rental_uris": {"android": "https://dc.lft.to/lastmile_qr_scan", "ios": "https://dc.lft.to/lastmile_qr_scan"}, "lat": 38.90060733333333}, {"type": "electric_scooter", "name": "2535ab7179cfda45dfe7039d5f39847e", "fusion_lat": 0.0, "fusion_lon": 0.0, "lon": -77.023513, "is_disabled": 0, "bike_id": "2535ab7179cfda45dfe7039d5f39847e", "is_reserved": 0, "rental_uris": {"android": "https://dc.lft.to/lastmile_qr_scan", "ios": "https://dc.lft.to/lastmile_qr_scan"}, "lat": 38.942013}, {"type": "electric_scooter", "name": "f3be1f63ee41af4bf394eeca0638c518", "fusion_lat": 0.0, "fusion_lon": 0.0, "lon": -77.00040916666667, "is_disabled": 0, "bike_id": "f3be1f63ee41af4bf394eeca0638c518", "is_reserved": 0, "rental_uris": {"android": "https://dc.lft.to/lastmile_qr_scan", "ios": "https://dc.lft.to/lastmile_qr_scan"}, "lat": 38.90010316666667}, {"type": "electric_scooter", "name": "7761cc100b68403026b477ba7d77f816", "fusion_lat": 0.0, "fusion_lon": 0.0, "lon": -76.98494366666667, "is_disabled": 0, "bike_id": "7761cc100b68403026b477ba7d77f816", "is_reserved": 0, "rental_uris": {"android": "https://dc.lft.to/lastmile_qr_scan", "ios": "https://dc.lft.to/lastmile_qr_scan"}, "lat": 38.90362483333333}, {"type": "electric_scooter", "name": "daa6a1c94fa3847e06455b1e18667f83", "fusion_lat": 0.0, "fusion_lon": 0.0, "lon": -77.04153616666666, "is_disabled": 0, "bike_id": "daa6a1c94fa3847e06455b1e18667f83", "is_reserved": 0, "rental_uris": {"android": "https://dc.lft.to/lastmile_qr_scan", "ios": "https://dc.lft.to/lastmile_qr_scan"}, "lat": 38.91547466666667}, {"type": "electric_scooter", "name": "9135c91b9a64d1d32849e4a8edbf945b", "fusion_lat": 0.0, "fusion_lon": 0.0, "lon": -77.005847, "is_disabled": 0, "bike_id": "9135c91b9a64d1d32849e4a8edbf945b", "is_reserved": 0, "rental_uris": {"android": "https://dc.lft.to/lastmile_qr_scan", "ios": "https://dc.lft.to/lastmile_qr_scan"}, "lat": 38.906842}, {"type": "electric_scooter", "name": "bb85c738f205f9476b8442831539cee1", "fusion_lat": 0.0, "fusion_lon": 0.0, "lon": -77.00555816666666, "is_disabled": 0, "bike_id": "bb85c738f205f9476b8442831539cee1", "is_reserved": 0, "rental_uris": {"android": "https://dc.lft.to/lastmile_qr_scan", "ios": "https://dc.lft.to/lastmile_qr_scan"}, "lat": 38.91817116666667}, {"type": "electric_scooter", "name": "0503d0f3525cf3ae2580c5669e2b4c6a", "fusion_lat": 0.0, "fusion_lon": 0.0, "lon": -76.92893716666667, "is_disabled": 0, "bike_id": "0503d0f3525cf3ae2580c5669e2b4c6a", "is_reserved": 0, "rental_uris": {"android": "https://dc.lft.to/lastmile_qr_scan", "ios": "https://dc.lft.to/lastmile_qr_scan"}, "lat": 38.87945}, {"type": "electric_bike", "name": "3ac9a8e3691a76e11b16cec61362af6c", "fusion_lat": 0.0, "fusion_lon": 0.0, "lon": -76.96054466666666, "is_disabled": 0, "bike_id": "3ac9a8e3691a76e11b16cec61362af6c", "is_reserved": 0, "rental_uris": {"android": "https://dc.lft.to/lastmile_qr_scan", "ios": "https://dc.lft.to/lastmile_qr_scan"}, "lat": 38.884064333333335}, {"type": "electric_scooter", "name": "7c05fdb2787eecd6cc88024841b408b7", "fusion_lat": 0.0, "fusion_lon": 0.0, "lon": -77.00548516666667, "is_disabled": 0, "bike_id": "7c05fdb2787eecd6cc88024841b408b7", "is_reserved": 0, "rental_uris": {"android": "https://dc.lft.to/lastmile_qr_scan", "ios": "https://dc.lft.to/lastmile_qr_scan"}, "lat": 38.876430666666664}, {"type": "electric_scooter", "name": "28c19ad49cc700d1ac4304a87b572249", "fusion_lat": 0.0, "fusion_lon": 0.0, "lon": -77.00611666666667, "is_disabled": 0, "bike_id": "28c19ad49cc700d1ac4304a87b572249", "is_reserved": 0, "rental_uris": {"android": "https://dc.lft.to/lastmile_qr_scan", "ios": "https://dc.lft.to/lastmile_qr_scan"}, "lat": 38.905688833333336}, {"type": "electric_scooter", "name": "d82b7a136b99b53fd9e1093b5db19945", "fusion_lat": 0.0, "fusion_lon": 0.0, "lon": -77.02514633333334, "is_disabled": 0, "bike_id": "d82b7a136b99b53fd9e1093b5db19945", "is_reserved": 0, "rental_uris": {"android": "https://dc.lft.to/lastmile_qr_scan", "ios": "https://dc.lft.to/lastmile_qr_scan"}, "lat": 38.9355215}, {"type": "electric_bike", "name": "ed77101620640c97fba6009f6da1b83e", "fusion_lat": 0.0, "fusion_lon": 0.0, "lon": -77.12674866666667, "is_disabled": 0, "bike_id": "ed77101620640c97fba6009f6da1b83e", "is_reserved": 0, "rental_uris": {"android": "https://dc.lft.to/lastmile_qr_scan", "ios": "https://dc.lft.to/lastmile_qr_scan"}, "lat": 38.8191905}, {"type": "electric_scooter", "name": "39509e7fb4bc8bac581f6657271a522b", "fusion_lat": 0.0, "fusion_lon": 0.0, "lon": -77.0344515, "is_disabled": 0, "bike_id": "39509e7fb4bc8bac581f6657271a522b", "is_reserved": 0, "rental_uris": {"android": "https://dc.lft.to/lastmile_qr_scan", "ios": "https://dc.lft.to/lastmile_qr_scan"}, "lat": 38.909615333333335}, {"type": "electric_bike", "name": "3018e3996a6910aea317399fcd3ee714", "fusion_lat": 0.0, "fusion_lon": 0.0, "lon": -77.08529, "is_disabled": 0, "bike_id": "3018e3996a6910aea317399fcd3ee714", "is_reserved": 0, "rental_uris": {"android": "https://dc.lft.to/lastmile_qr_scan", "ios": "https://dc.lft.to/lastmile_qr_scan"}, "lat": 38.8564865}, {"type": "electric_scooter", "name": "4b559e241b8333fcbd22fb43a9a28ceb", "fusion_lat": 0.0, "fusion_lon": 0.0, "lon": -77.03208383333333, "is_disabled": 0, "bike_id": "4b559e241b8333fcbd22fb43a9a28ceb", "is_reserved": 0, "rental_uris": {"android": "https://dc.lft.to/lastmile_qr_scan", "ios": "https://dc.lft.to/lastmile_qr_scan"}, "lat": 38.9131195}, {"type": "electric_scooter", "name": "78891cbcd5a4a9d05909bd330882a0e8", "fusion_lat": 0.0, "fusion_lon": 0.0, "lon": -77.04399616666667, "is_disabled": 0, "bike_id": "78891cbcd5a4a9d05909bd330882a0e8", "is_reserved": 0, "rental_uris": {"android": "https://dc.lft.to/lastmile_qr_scan", "ios": "https://dc.lft.to/lastmile_qr_scan"}, "lat": 38.920636333333334}, {"type": "electric_scooter", "name": "f355572f91f5530ec0ac9d12d99946f7", "fusion_lat": 0.0, "fusion_lon": 0.0, "lon": -77.0326415, "is_disabled": 0, "bike_id": "f355572f91f5530ec0ac9d12d99946f7", "is_reserved": 0, "rental_uris": {"android": "https://dc.lft.to/lastmile_qr_scan", "ios": "https://dc.lft.to/lastmile_qr_scan"}, "lat": 38.933035}, {"type": "electric_scooter", "name": "4ebbc362b212620e9096815e7dcbbcb6", "fusion_lat": 0.0, "fusion_lon": 0.0, "lon": -77.04180633333333, "is_disabled": 0, "bike_id": "4ebbc362b212620e9096815e7dcbbcb6", "is_reserved": 0, "rental_uris": {"android": "https://dc.lft.to/lastmile_qr_scan", "ios": "https://dc.lft.to/lastmile_qr_scan"}, "lat": 38.919801666666665}, {"type": "electric_scooter", "name": "578c0611e0a12d3a19a6d85fdb8821e1", "fusion_lat": 0.0, "fusion_lon": 0.0, "lon": -77.0098565, "is_disabled": 0, "bike_id": "578c0611e0a12d3a19a6d85fdb8821e1", "is_reserved": 0, "rental_uris": {"android": "https://dc.lft.to/lastmile_qr_scan", "ios": "https://dc.lft.to/lastmile_qr_scan"}, "lat": 38.87290183333333}, {"type": "electric_scooter", "name": "1ddbcf108d93b4fcaf8093fb518c967b", "fusion_lat": 0.0, "fusion_lon": 0.0, "lon": -77.05223066666667, "is_disabled": 0, "bike_id": "1ddbcf108d93b4fcaf8093fb518c967b", "is_reserved": 0, "rental_uris": {"android": "https://dc.lft.to/lastmile_qr_scan", "ios": "https://dc.lft.to/lastmile_qr_scan"}, "lat": 38.899534}, {"type": "electric_scooter", "name": "a6bfd90a82462c1805c1772d185e8497", "fusion_lat": 0.0, "fusion_lon": 0.0, "lon": -77.03449066666667, "is_disabled": 0, "bike_id": "a6bfd90a82462c1805c1772d185e8497", "is_reserved": 0, "rental_uris": {"android": "https://dc.lft.to/lastmile_qr_scan", "ios": "https://dc.lft.to/lastmile_qr_scan"}, "lat": 38.92218483333333}, {"type": "electric_bike", "name": "a23786531b43290611e590f39c5621bf", "fusion_lat": 0.0, "fusion_lon": 0.0, "lon": -77.10613, "is_disabled": 0, "bike_id": "a23786531b43290611e590f39c5621bf", "is_reserved": 0, "rental_uris": {"android": "https://dc.lft.to/lastmile_qr_scan", "ios": "https://dc.lft.to/lastmile_qr_scan"}, "lat": 38.837283166666666}, {"type": "electric_scooter", "name": "1dd4d48b9f0373feda46d63c7611cc57", "fusion_lat": 0.0, "fusion_lon": 0.0, "lon": -77.034525, "is_disabled": 0, "bike_id": "1dd4d48b9f0373feda46d63c7611cc57", "is_reserved": 0, "rental_uris": {"android": "https://dc.lft.to/lastmile_qr_scan", "ios": "https://dc.lft.to/lastmile_qr_scan"}, "lat": 38.9206355}, {"type": "electric_scooter", "name": "f5df267cc7ed46dc8cec91865bfb2ae7", "fusion_lat": 0.0, "fusion_lon": 0.0, "lon": -77.03521016666667, "is_disabled": 0, "bike_id": "f5df267cc7ed46dc8cec91865bfb2ae7", "is_reserved": 0, "rental_uris": {"android": "https://dc.lft.to/lastmile_qr_scan", "ios": "https://dc.lft.to/lastmile_qr_scan"}, "lat": 38.9234805}, {"type": "electric_scooter", "name": "d3c99f6fb360d81dfc4c97d0137c0f47", "fusion_lat": 0.0, "fusion_lon": 0.0, "lon": -77.00594383333333, "is_disabled": 0, "bike_id": "d3c99f6fb360d81dfc4c97d0137c0f47", "is_reserved": 0, "rental_uris": {"android": "https://dc.lft.to/lastmile_qr_scan", "ios": "https://dc.lft.to/lastmile_qr_scan"}, "lat": 38.905674166666664}, {"type": "electric_scooter", "name": "888e35d9bdb5b881947d5d83cc81a662", "fusion_lat": 0.0, "fusion_lon": 0.0, "lon": -77.036612, "is_disabled": 0, "bike_id": "888e35d9bdb5b881947d5d83cc81a662", "is_reserved": 0, "rental_uris": {"android": "https://dc.lft.to/lastmile_qr_scan", "ios": "https://dc.lft.to/lastmile_qr_scan"}, "lat": 38.921197166666666}, {"type": "electric_bike", "name": "d11b06ef75820babc1d9c85e36d26603", "fusion_lat": 0.0, "fusion_lon": 0.0, "lon": -76.999985, "is_disabled": 0, "bike_id": "d11b06ef75820babc1d9c85e36d26603", "is_reserved": 0, "rental_uris": {"android": "https://dc.lft.to/lastmile_qr_scan", "ios": "https://dc.lft.to/lastmile_qr_scan"}, "lat": 38.923882666666664}, {"type": "electric_scooter", "name": "50d0ac246b96b8daeea87daeac7925c8", "fusion_lat": 0.0, "fusion_lon": 0.0, "lon": -77.0174145, "is_disabled": 0, "bike_id": "50d0ac246b96b8daeea87daeac7925c8", "is_reserved": 0, "rental_uris": {"android": "https://dc.lft.to/lastmile_qr_scan", "ios": "https://dc.lft.to/lastmile_qr_scan"}, "lat": 38.91242966666667}, {"type": "electric_bike", "name": "282a7640c50f7d35124f5e179a167f7a", "fusion_lat": 0.0, "fusion_lon": 0.0, "lon": -76.94165616666666, "is_disabled": 0, "bike_id": "282a7640c50f7d35124f5e179a167f7a", "is_reserved": 0, "rental_uris": {"android": "https://dc.lft.to/lastmile_qr_scan", "ios": "https://dc.lft.to/lastmile_qr_scan"}, "lat": 38.86551883333333}, {"type": "electric_scooter", "name": "1aa966b9e5052ce093f102ff5f7b6e69", "fusion_lat": 0.0, "fusion_lon": 0.0, "lon": -77.01844266666667, "is_disabled": 0, "bike_id": "1aa966b9e5052ce093f102ff5f7b6e69", "is_reserved": 0, "rental_uris": {"android": "https://dc.lft.to/lastmile_qr_scan", "ios": "https://dc.lft.to/lastmile_qr_scan"}, "lat": 38.909612833333334}, {"type": "electric_scooter", "name": "3ea661541115d72144a30ac33b8cd4d9", "fusion_lat": 0.0, "fusion_lon": 0.0, "lon": -76.983404, "is_disabled": 0, "bike_id": "3ea661541115d72144a30ac33b8cd4d9", "is_reserved": 0, "rental_uris": {"android": "https://dc.lft.to/lastmile_qr_scan", "ios": "https://dc.lft.to/lastmile_qr_scan"}, "lat": 38.90094583333333}, {"type": "electric_scooter", "name": "bfb68c4f5ea58a9249b984f04765a48c", "fusion_lat": 0.0, "fusion_lon": 0.0, "lon": -77.04163716666666, "is_disabled": 0, "bike_id": "bfb68c4f5ea58a9249b984f04765a48c", "is_reserved": 0, "rental_uris": {"android": "https://dc.lft.to/lastmile_qr_scan", "ios": "https://dc.lft.to/lastmile_qr_scan"}, "lat": 38.90137816666667}, {"type": "electric_bike", "name": "335f1d438533ae4461b24656067aebf9", "fusion_lat": 0.0, "fusion_lon": 0.0, "lon": -77.021623, "is_disabled": 0, "bike_id": "335f1d438533ae4461b24656067aebf9", "is_reserved": 0, "rental_uris": {"android": "https://dc.lft.to/lastmile_qr_scan", "ios": "https://dc.lft.to/lastmile_qr_scan"}, "lat": 38.895738333333334}, {"type": "electric_scooter", "name": "7157c6b933eea90bf21fa41a6a4a8891", "fusion_lat": 0.0, "fusion_lon": 0.0, "lon": -77.02492283333333, "is_disabled": 0, "bike_id": "7157c6b933eea90bf21fa41a6a4a8891", "is_reserved": 0, "rental_uris": {"android": "https://dc.lft.to/lastmile_qr_scan", "ios": "https://dc.lft.to/lastmile_qr_scan"}, "lat": 38.905680333333336}, {"type": "electric_scooter", "name": "b98e8cf5fc18b31c3f68a4b0abfcd837", "fusion_lat": 0.0, "fusion_lon": 0.0, "lon": -77.0259095, "is_disabled": 0, "bike_id": "b98e8cf5fc18b31c3f68a4b0abfcd837", "is_reserved": 0, "rental_uris": {"android": "https://dc.lft.to/lastmile_qr_scan", "ios": "https://dc.lft.to/lastmile_qr_scan"}, "lat": 38.9035085}, {"type": "electric_scooter", "name": "d87615fe79151813d1267710fb0bfd43", "fusion_lat": 0.0, "fusion_lon": 0.0, "lon": -77.0106855, "is_disabled": 0, "bike_id": "d87615fe79151813d1267710fb0bfd43", "is_reserved": 0, "rental_uris": {"android": "https://dc.lft.to/lastmile_qr_scan", "ios": "https://dc.lft.to/lastmile_qr_scan"}, "lat": 38.918155166666665}, {"type": "electric_scooter", "name": "5653459563beec2f2504558505f679d1", "fusion_lat": 0.0, "fusion_lon": 0.0, "lon": -77.04767, "is_disabled": 0, "bike_id": "5653459563beec2f2504558505f679d1", "is_reserved": 0, "rental_uris": {"android": "https://dc.lft.to/lastmile_qr_scan", "ios": "https://dc.lft.to/lastmile_qr_scan"}, "lat": 38.91750833333333}, {"type": "electric_scooter", "name": "fd06b0a5c384953331023c3e8feb07f4", "fusion_lat": 0.0, "fusion_lon": 0.0, "lon": -77.060353, "is_disabled": 0, "bike_id": "fd06b0a5c384953331023c3e8feb07f4", "is_reserved": 0, "rental_uris": {"android": "https://dc.lft.to/lastmile_qr_scan", "ios": "https://dc.lft.to/lastmile_qr_scan"}, "lat": 38.90241833333333}, {"type": "electric_bike", "name": "a98a54d3b16dc5860dca5e2a79fc7546", "fusion_lat": 0.0, "fusion_lon": 0.0, "lon": -76.9948265, "is_disabled": 0, "bike_id": "a98a54d3b16dc5860dca5e2a79fc7546", "is_reserved": 0, "rental_uris": {"android": "https://dc.lft.to/lastmile_qr_scan", "ios": "https://dc.lft.to/lastmile_qr_scan"}, "lat": 38.93832533333333}, {"type": "electric_scooter", "name": "305d35615fc04c3b090a41b5596bbda7", "fusion_lat": 0.0, "fusion_lon": 0.0, "lon": -77.04022433333333, "is_disabled": 0, "bike_id": "305d35615fc04c3b090a41b5596bbda7", "is_reserved": 0, "rental_uris": {"android": "https://dc.lft.to/lastmile_qr_scan", "ios": "https://dc.lft.to/lastmile_qr_scan"}, "lat": 38.899479666666664}, {"type": "electric_scooter", "name": "b34974a0372b07d46747fca618d7f1ca", "fusion_lat": 0.0, "fusion_lon": 0.0, "lon": -77.02958133333334, "is_disabled": 0, "bike_id": "b34974a0372b07d46747fca618d7f1ca", "is_reserved": 0, "rental_uris": {"android": "https://dc.lft.to/lastmile_qr_scan", "ios": "https://dc.lft.to/lastmile_qr_scan"}, "lat": 38.91676183333333}, {"type": "electric_scooter", "name": "9a34e360f2289be93a0aea5f651d664a", "fusion_lat": 0.0, "fusion_lon": 0.0, "lon": -76.98338583333333, "is_disabled": 0, "bike_id": "9a34e360f2289be93a0aea5f651d664a", "is_reserved": 0, "rental_uris": {"android": "https://dc.lft.to/lastmile_qr_scan", "ios": "https://dc.lft.to/lastmile_qr_scan"}, "lat": 38.89544}, {"type": "electric_scooter", "name": "77125f65ac2601c3570d27a9cdd00147", "fusion_lat": 0.0, "fusion_lon": 0.0, "lon": -77.04555716666667, "is_disabled": 0, "bike_id": "77125f65ac2601c3570d27a9cdd00147", "is_reserved": 0, "rental_uris": {"android": "https://dc.lft.to/lastmile_qr_scan", "ios": "https://dc.lft.to/lastmile_qr_scan"}, "lat": 38.90389166666667}, {"type": "electric_scooter", "name": "88cc5fcbdf37d1981d5236580f90192f", "fusion_lat": 0.0, "fusion_lon": 0.0, "lon": -77.05082183333333, "is_disabled": 0, "bike_id": "88cc5fcbdf37d1981d5236580f90192f", "is_reserved": 0, "rental_uris": {"android": "https://dc.lft.to/lastmile_qr_scan", "ios": "https://dc.lft.to/lastmile_qr_scan"}, "lat": 38.903777833333336}, {"type": "electric_scooter", "name": "691cc6c456909be873884ba9a23a6df4", "fusion_lat": 0.0, "fusion_lon": 0.0, "lon": -77.00050733333333, "is_disabled": 0, "bike_id": "691cc6c456909be873884ba9a23a6df4", "is_reserved": 0, "rental_uris": {"android": "https://dc.lft.to/lastmile_qr_scan", "ios": "https://dc.lft.to/lastmile_qr_scan"}, "lat": 38.878812}, {"type": "electric_scooter", "name": "e95f7cd2ab362667f7607f0203892e47", "fusion_lat": 0.0, "fusion_lon": 0.0, "lon": -77.01225683333334, "is_disabled": 0, "bike_id": "e95f7cd2ab362667f7607f0203892e47", "is_reserved": 0, "rental_uris": {"android": "https://dc.lft.to/lastmile_qr_scan", "ios": "https://dc.lft.to/lastmile_qr_scan"}, "lat": 38.91549283333333}, {"type": "electric_scooter", "name": "4dc08f151e9acd0d8e0f583571fa4f50", "fusion_lat": 0.0, "fusion_lon": 0.0, "lon": -77.03670116666666, "is_disabled": 0, "bike_id": "4dc08f151e9acd0d8e0f583571fa4f50", "is_reserved": 0, "rental_uris": {"android": "https://dc.lft.to/lastmile_qr_scan", "ios": "https://dc.lft.to/lastmile_qr_scan"}, "lat": 38.9181625}, {"type": "electric_scooter", "name": "fcd20f0f8535d28af141f838b67481a5", "fusion_lat": 0.0, "fusion_lon": 0.0, "lon": -77.02580066666667, "is_disabled": 0, "bike_id": "fcd20f0f8535d28af141f838b67481a5", "is_reserved": 0, "rental_uris": {"android": "https://dc.lft.to/lastmile_qr_scan", "ios": "https://dc.lft.to/lastmile_qr_scan"}, "lat": 38.92525066666666}, {"type": "electric_scooter", "name": "59b3058fd13d6087c00f8e831ee5e8d7", "fusion_lat": 0.0, "fusion_lon": 0.0, "lon": -77.00753716666667, "is_disabled": 0, "bike_id": "59b3058fd13d6087c00f8e831ee5e8d7", "is_reserved": 0, "rental_uris": {"android": "https://dc.lft.to/lastmile_qr_scan", "ios": "https://dc.lft.to/lastmile_qr_scan"}, "lat": 38.907450833333336}, {"type": "electric_scooter", "name": "e4b4da998de2ad22733b77a972e6357e", "fusion_lat": 0.0, "fusion_lon": 0.0, "lon": -77.00566583333334, "is_disabled": 0, "bike_id": "e4b4da998de2ad22733b77a972e6357e", "is_reserved": 0, "rental_uris": {"android": "https://dc.lft.to/lastmile_qr_scan", "ios": "https://dc.lft.to/lastmile_qr_scan"}, "lat": 38.905632833333335}, {"type": "electric_scooter", "name": "f8e4e28ff0923e54f41f600900d533fa", "fusion_lat": 0.0, "fusion_lon": 0.0, "lon": -77.03129183333333, "is_disabled": 0, "bike_id": "f8e4e28ff0923e54f41f600900d533fa", "is_reserved": 0, "rental_uris": {"android": "https://dc.lft.to/lastmile_qr_scan", "ios": "https://dc.lft.to/lastmile_qr_scan"}, "lat": 38.923711833333336}, {"type": "electric_scooter", "name": "09ef071681d9ca8245c11e8bc7176952", "fusion_lat": 0.0, "fusion_lon": 0.0, "lon": -77.03877433333334, "is_disabled": 0, "bike_id": "09ef071681d9ca8245c11e8bc7176952", "is_reserved": 0, "rental_uris": {"android": "https://dc.lft.to/lastmile_qr_scan", "ios": "https://dc.lft.to/lastmile_qr_scan"}, "lat": 38.9014295}, {"type": "electric_scooter", "name": "c0fb3327c332df8ec4f97dd3dd095b5c", "fusion_lat": 0.0, "fusion_lon": 0.0, "lon": -77.02645216666667, "is_disabled": 0, "bike_id": "c0fb3327c332df8ec4f97dd3dd095b5c", "is_reserved": 0, "rental_uris": {"android": "https://dc.lft.to/lastmile_qr_scan", "ios": "https://dc.lft.to/lastmile_qr_scan"}, "lat": 38.93099566666667}, {"type": "electric_scooter", "name": "6e6829f577ee038862b6d205eea21b17", "fusion_lat": 0.0, "fusion_lon": 0.0, "lon": -77.01869366666666, "is_disabled": 0, "bike_id": "6e6829f577ee038862b6d205eea21b17", "is_reserved": 0, "rental_uris": {"android": "https://dc.lft.to/lastmile_qr_scan", "ios": "https://dc.lft.to/lastmile_qr_scan"}, "lat": 38.951521166666666}, {"type": "electric_bike", "name": "08fd53e27023eff235adb05be95ecd76", "fusion_lat": 0.0, "fusion_lon": 0.0, "lon": -77.03756616666666, "is_disabled": 0, "bike_id": "08fd53e27023eff235adb05be95ecd76", "is_reserved": 0, "rental_uris": {"android": "https://dc.lft.to/lastmile_qr_scan", "ios": "https://dc.lft.to/lastmile_qr_scan"}, "lat": 38.93968}, {"type": "electric_scooter", "name": "b5dda31d590ab36cca9804528eefb910", "fusion_lat": 0.0, "fusion_lon": 0.0, "lon": -77.02102516666666, "is_disabled": 0, "bike_id": "b5dda31d590ab36cca9804528eefb910", "is_reserved": 0, "rental_uris": {"android": "https://dc.lft.to/lastmile_qr_scan", "ios": "https://dc.lft.to/lastmile_qr_scan"}, "lat": 38.916380833333335}, {"type": "electric_scooter", "name": "a4c9569e3175b16b400610145d1fbbde", "fusion_lat": 0.0, "fusion_lon": 0.0, "lon": -77.022946, "is_disabled": 0, "bike_id": "a4c9569e3175b16b400610145d1fbbde", "is_reserved": 0, "rental_uris": {"android": "https://dc.lft.to/lastmile_qr_scan", "ios": "https://dc.lft.to/lastmile_qr_scan"}, "lat": 38.91617433333333}, {"type": "electric_bike", "name": "d9d2e107fb3d334989fcc27356d25e3d", "fusion_lat": 0.0, "fusion_lon": 0.0, "lon": -76.98057983333334, "is_disabled": 0, "bike_id": "d9d2e107fb3d334989fcc27356d25e3d", "is_reserved": 0, "rental_uris": {"android": "https://dc.lft.to/lastmile_qr_scan", "ios": "https://dc.lft.to/lastmile_qr_scan"}, "lat": 38.972524166666666}, {"type": "electric_scooter", "name": "15a8876b132c89654aec0f4596534038", "fusion_lat": 0.0, "fusion_lon": 0.0, "lon": -77.02402883333333, "is_disabled": 0, "bike_id": "15a8876b132c89654aec0f4596534038", "is_reserved": 0, "rental_uris": {"android": "https://dc.lft.to/lastmile_qr_scan", "ios": "https://dc.lft.to/lastmile_qr_scan"}, "lat": 38.920845666666665}, {"type": "electric_scooter", "name": "af5929a9fa26f33eed6761572aa47dff", "fusion_lat": 0.0, "fusion_lon": 0.0, "lon": -77.039854, "is_disabled": 0, "bike_id": "af5929a9fa26f33eed6761572aa47dff", "is_reserved": 0, "rental_uris": {"android": "https://dc.lft.to/lastmile_qr_scan", "ios": "https://dc.lft.to/lastmile_qr_scan"}, "lat": 38.934017833333336}, {"type": "electric_scooter", "name": "f07b40ab72de1e2b6e87ab906fc7e97d", "fusion_lat": 0.0, "fusion_lon": 0.0, "lon": -77.03961633333333, "is_disabled": 0, "bike_id": "f07b40ab72de1e2b6e87ab906fc7e97d", "is_reserved": 0, "rental_uris": {"android": "https://dc.lft.to/lastmile_qr_scan", "ios": "https://dc.lft.to/lastmile_qr_scan"}, "lat": 38.892497166666665}, {"type": "electric_scooter", "name": "199f46f456cf769d50263d53dc5bf0fe", "fusion_lat": 0.0, "fusion_lon": 0.0, "lon": -76.99030516666667, "is_disabled": 0, "bike_id": "199f46f456cf769d50263d53dc5bf0fe", "is_reserved": 0, "rental_uris": {"android": "https://dc.lft.to/lastmile_qr_scan", "ios": "https://dc.lft.to/lastmile_qr_scan"}, "lat": 38.89134983333334}, {"type": "electric_scooter", "name": "0ae33ec88a74eb4cd0c43f35c6d412f1", "fusion_lat": 0.0, "fusion_lon": 0.0, "lon": -77.006993, "is_disabled": 0, "bike_id": "0ae33ec88a74eb4cd0c43f35c6d412f1", "is_reserved": 0, "rental_uris": {"android": "https://dc.lft.to/lastmile_qr_scan", "ios": "https://dc.lft.to/lastmile_qr_scan"}, "lat": 38.905583666666665}, {"type": "electric_scooter", "name": "9c890f93af6d33780fa2c39aaca8385d", "fusion_lat": 0.0, "fusion_lon": 0.0, "lon": -77.00482033333333, "is_disabled": 0, "bike_id": "9c890f93af6d33780fa2c39aaca8385d", "is_reserved": 0, "rental_uris": {"android": "https://dc.lft.to/lastmile_qr_scan", "ios": "https://dc.lft.to/lastmile_qr_scan"}, "lat": 38.874614}, {"type": "electric_scooter", "name": "0d39b5c374c0ba9269dab468bed6d821", "fusion_lat": 0.0, "fusion_lon": 0.0, "lon": -77.04156733333333, "is_disabled": 0, "bike_id": "0d39b5c374c0ba9269dab468bed6d821", "is_reserved": 0, "rental_uris": {"android": "https://dc.lft.to/lastmile_qr_scan", "ios": "https://dc.lft.to/lastmile_qr_scan"}, "lat": 38.91545933333333}, {"type": "electric_scooter", "name": "450ee0b9b78d2492f35d104bd464446a", "fusion_lat": 0.0, "fusion_lon": 0.0, "lon": -77.0369015, "is_disabled": 0, "bike_id": "450ee0b9b78d2492f35d104bd464446a", "is_reserved": 0, "rental_uris": {"android": "https://dc.lft.to/lastmile_qr_scan", "ios": "https://dc.lft.to/lastmile_qr_scan"}, "lat": 38.93929466666667}, {"type": "electric_scooter", "name": "e844531e6fceebed547868c412a2165c", "fusion_lat": 0.0, "fusion_lon": 0.0, "lon": -77.01136583333333, "is_disabled": 0, "bike_id": "e844531e6fceebed547868c412a2165c", "is_reserved": 0, "rental_uris": {"android": "https://dc.lft.to/lastmile_qr_scan", "ios": "https://dc.lft.to/lastmile_qr_scan"}, "lat": 38.91714066666667}, {"type": "electric_scooter", "name": "48f2ee216e397485e85bc51cc8475a11", "fusion_lat": 0.0, "fusion_lon": 0.0, "lon": -76.99857133333333, "is_disabled": 0, "bike_id": "48f2ee216e397485e85bc51cc8475a11", "is_reserved": 0, "rental_uris": {"android": "https://dc.lft.to/lastmile_qr_scan", "ios": "https://dc.lft.to/lastmile_qr_scan"}, "lat": 38.9033175}, {"type": "electric_scooter", "name": "412901e7066c83adfa73f20211f58f76", "fusion_lat": 0.0, "fusion_lon": 0.0, "lon": -77.04658483333333, "is_disabled": 0, "bike_id": "412901e7066c83adfa73f20211f58f76", "is_reserved": 0, "rental_uris": {"android": "https://dc.lft.to/lastmile_qr_scan", "ios": "https://dc.lft.to/lastmile_qr_scan"}, "lat": 38.89742316666667}, {"type": "electric_scooter", "name": "1759df9ca8d100bf8f5f35a19e4397e9", "fusion_lat": 0.0, "fusion_lon": 0.0, "lon": -76.998457, "is_disabled": 0, "bike_id": "1759df9ca8d100bf8f5f35a19e4397e9", "is_reserved": 0, "rental_uris": {"android": "https://dc.lft.to/lastmile_qr_scan", "ios": "https://dc.lft.to/lastmile_qr_scan"}, "lat": 38.90648083333333}, {"type": "electric_scooter", "name": "9ddc7e37d18be37b0d0312999cfe2b47", "fusion_lat": 0.0, "fusion_lon": 0.0, "lon": -77.00212566666667, "is_disabled": 0, "bike_id": "9ddc7e37d18be37b0d0312999cfe2b47", "is_reserved": 0, "rental_uris": {"android": "https://dc.lft.to/lastmile_qr_scan", "ios": "https://dc.lft.to/lastmile_qr_scan"}, "lat": 38.91462216666667}, {"type": "electric_scooter", "name": "0eba3d9ef26c12c992d2f2aa8f76397d", "fusion_lat": 0.0, "fusion_lon": 0.0, "lon": -77.05994416666667, "is_disabled": 0, "bike_id": "0eba3d9ef26c12c992d2f2aa8f76397d", "is_reserved": 0, "rental_uris": {"android": "https://dc.lft.to/lastmile_qr_scan", "ios": "https://dc.lft.to/lastmile_qr_scan"}, "lat": 38.93822083333333}, {"type": "electric_bike", "name": "5005916cd71289317893692862af0d35", "fusion_lat": 0.0, "fusion_lon": 0.0, "lon": -76.90305983333333, "is_disabled": 0, "bike_id": "5005916cd71289317893692862af0d35", "is_reserved": 0, "rental_uris": {"android": "https://dc.lft.to/lastmile_qr_scan", "ios": "https://dc.lft.to/lastmile_qr_scan"}, "lat": 39.002916666666664}, {"type": "electric_bike", "name": "5b9de277300174a4afff5361c728090b", "fusion_lat": 0.0, "fusion_lon": 0.0, "lon": -77.03427216666667, "is_disabled": 0, "bike_id": "5b9de277300174a4afff5361c728090b", "is_reserved": 0, "rental_uris": {"android": "https://dc.lft.to/lastmile_qr_scan", "ios": "https://dc.lft.to/lastmile_qr_scan"}, "lat": 38.96620166666666}, {"type": "electric_scooter", "name": "2cb0e9afb8920b07eccdb8b1fd09341d", "fusion_lat": 0.0, "fusion_lon": 0.0, "lon": -77.04154816666667, "is_disabled": 0, "bike_id": "2cb0e9afb8920b07eccdb8b1fd09341d", "is_reserved": 0, "rental_uris": {"android": "https://dc.lft.to/lastmile_qr_scan", "ios": "https://dc.lft.to/lastmile_qr_scan"}, "lat": 38.92355633333333}, {"type": "electric_scooter", "name": "4242eeec4962b52ef1ff067d536c31fe", "fusion_lat": 0.0, "fusion_lon": 0.0, "lon": -77.03660983333333, "is_disabled": 0, "bike_id": "4242eeec4962b52ef1ff067d536c31fe", "is_reserved": 0, "rental_uris": {"android": "https://dc.lft.to/lastmile_qr_scan", "ios": "https://dc.lft.to/lastmile_qr_scan"}, "lat": 38.92123483333334}, {"type": "electric_scooter", "name": "e9e45014fe0b438f806d4872c875580f", "fusion_lat": 0.0, "fusion_lon": 0.0, "lon": -76.9940965, "is_disabled": 0, "bike_id": "e9e45014fe0b438f806d4872c875580f", "is_reserved": 0, "rental_uris": {"android": "https://dc.lft.to/lastmile_qr_scan", "ios": "https://dc.lft.to/lastmile_qr_scan"}, "lat": 38.8779165}, {"type": "electric_bike", "name": "76e237e42227d65df87398aa81459e05", "fusion_lat": 0.0, "fusion_lon": 0.0, "lon": -76.96322883333333, "is_disabled": 0, "bike_id": "76e237e42227d65df87398aa81459e05", "is_reserved": 0, "rental_uris": {"android": "https://dc.lft.to/lastmile_qr_scan", "ios": "https://dc.lft.to/lastmile_qr_scan"}, "lat": 38.938949666666666}, {"type": "electric_scooter", "name": "6216a1762d21b1ed15ad15d8bbd1cb89", "fusion_lat": 0.0, "fusion_lon": 0.0, "lon": -77.036432, "is_disabled": 0, "bike_id": "6216a1762d21b1ed15ad15d8bbd1cb89", "is_reserved": 0, "rental_uris": {"android": "https://dc.lft.to/lastmile_qr_scan", "ios": "https://dc.lft.to/lastmile_qr_scan"}, "lat": 38.91734916666667}, {"type": "electric_scooter", "name": "ba890675a61415cc0ad82b7c540c47f1", "fusion_lat": 0.0, "fusion_lon": 0.0, "lon": -77.02077133333333, "is_disabled": 0, "bike_id": "ba890675a61415cc0ad82b7c540c47f1", "is_reserved": 0, "rental_uris": {"android": "https://dc.lft.to/lastmile_qr_scan", "ios": "https://dc.lft.to/lastmile_qr_scan"}, "lat": 38.9302455}, {"type": "electric_scooter", "name": "0f6a500c2906bfaece06484354354be7", "fusion_lat": 0.0, "fusion_lon": 0.0, "lon": -76.99559366666666, "is_disabled": 0, "bike_id": "0f6a500c2906bfaece06484354354be7", "is_reserved": 0, "rental_uris": {"android": "https://dc.lft.to/lastmile_qr_scan", "ios": "https://dc.lft.to/lastmile_qr_scan"}, "lat": 38.903671833333334}, {"type": "electric_bike", "name": "4dba00cd007c2d3bbe58e30471923e91", "fusion_lat": 0.0, "fusion_lon": 0.0, "lon": -76.97538983333334, "is_disabled": 0, "bike_id": "4dba00cd007c2d3bbe58e30471923e91", "is_reserved": 0, "rental_uris": {"android": "https://dc.lft.to/lastmile_qr_scan", "ios": "https://dc.lft.to/lastmile_qr_scan"}, "lat": 38.90329966666667}, {"type": "electric_bike", "name": "ebb1317be68713866e65145b76b5c9ea", "fusion_lat": 0.0, "fusion_lon": 0.0, "lon": -77.00377866666666, "is_disabled": 0, "bike_id": "ebb1317be68713866e65145b76b5c9ea", "is_reserved": 0, "rental_uris": {"android": "https://dc.lft.to/lastmile_qr_scan", "ios": "https://dc.lft.to/lastmile_qr_scan"}, "lat": 38.836061666666666}, {"type": "electric_scooter", "name": "17fff6eebc3c420188b6b60590ed2911", "fusion_lat": 0.0, "fusion_lon": 0.0, "lon": -76.99028733333333, "is_disabled": 0, "bike_id": "17fff6eebc3c420188b6b60590ed2911", "is_reserved": 0, "rental_uris": {"android": "https://dc.lft.to/lastmile_qr_scan", "ios": "https://dc.lft.to/lastmile_qr_scan"}, "lat": 38.88873533333334}, {"type": "electric_scooter", "name": "54a0b6ccfdbe1b61dc0e7851ad5cbfe9", "fusion_lat": 0.0, "fusion_lon": 0.0, "lon": -77.00213033333333, "is_disabled": 0, "bike_id": "54a0b6ccfdbe1b61dc0e7851ad5cbfe9", "is_reserved": 0, "rental_uris": {"android": "https://dc.lft.to/lastmile_qr_scan", "ios": "https://dc.lft.to/lastmile_qr_scan"}, "lat": 38.91104833333333}, {"type": "electric_scooter", "name": "1cb2922e8544d6877d1ea8e784b3a373", "fusion_lat": 0.0, "fusion_lon": 0.0, "lon": -77.0498135, "is_disabled": 0, "bike_id": "1cb2922e8544d6877d1ea8e784b3a373", "is_reserved": 0, "rental_uris": {"android": "https://dc.lft.to/lastmile_qr_scan", "ios": "https://dc.lft.to/lastmile_qr_scan"}, "lat": 38.901245333333335}, {"type": "electric_scooter", "name": "4e360955b601bd766729bf8f9eea4f50", "fusion_lat": 0.0, "fusion_lon": 0.0, "lon": -77.03504133333334, "is_disabled": 0, "bike_id": "4e360955b601bd766729bf8f9eea4f50", "is_reserved": 0, "rental_uris": {"android": "https://dc.lft.to/lastmile_qr_scan", "ios": "https://dc.lft.to/lastmile_qr_scan"}, "lat": 38.92149766666667}, {"type": "electric_scooter", "name": "a02924cb064e5ced6d0a2cd72daf0f58", "fusion_lat": 0.0, "fusion_lon": 0.0, "lon": -76.99841766666667, "is_disabled": 0, "bike_id": "a02924cb064e5ced6d0a2cd72daf0f58", "is_reserved": 0, "rental_uris": {"android": "https://dc.lft.to/lastmile_qr_scan", "ios": "https://dc.lft.to/lastmile_qr_scan"}, "lat": 38.9006595}, {"type": "electric_scooter", "name": "c0fd8dad9a1609a9000d5b158f582464", "fusion_lat": 0.0, "fusion_lon": 0.0, "lon": -77.03732533333333, "is_disabled": 0, "bike_id": "c0fd8dad9a1609a9000d5b158f582464", "is_reserved": 0, "rental_uris": {"android": "https://dc.lft.to/lastmile_qr_scan", "ios": "https://dc.lft.to/lastmile_qr_scan"}, "lat": 38.920313666666665}, {"type": "electric_scooter", "name": "24092beb0fca50f3f8ba3ea352c6d804", "fusion_lat": 0.0, "fusion_lon": 0.0, "lon": -77.0344035, "is_disabled": 0, "bike_id": "24092beb0fca50f3f8ba3ea352c6d804", "is_reserved": 0, "rental_uris": {"android": "https://dc.lft.to/lastmile_qr_scan", "ios": "https://dc.lft.to/lastmile_qr_scan"}, "lat": 38.9179655}, {"type": "electric_scooter", "name": "cf0f0294f860b87f02ea328f481d6693", "fusion_lat": 0.0, "fusion_lon": 0.0, "lon": -77.013835, "is_disabled": 0, "bike_id": "cf0f0294f860b87f02ea328f481d6693", "is_reserved": 0, "rental_uris": {"android": "https://dc.lft.to/lastmile_qr_scan", "ios": "https://dc.lft.to/lastmile_qr_scan"}, "lat": 38.876051333333336}, {"type": "electric_scooter", "name": "d6aaae505f8f46443b8d8cd1dfbbcdb9", "fusion_lat": 0.0, "fusion_lon": 0.0, "lon": -76.99348733333333, "is_disabled": 0, "bike_id": "d6aaae505f8f46443b8d8cd1dfbbcdb9", "is_reserved": 0, "rental_uris": {"android": "https://dc.lft.to/lastmile_qr_scan", "ios": "https://dc.lft.to/lastmile_qr_scan"}, "lat": 38.90010766666666}, {"type": "electric_bike", "name": "1eff1275f6afc3a8c5087f91b5340012", "fusion_lat": 0.0, "fusion_lon": 0.0, "lon": -77.028565, "is_disabled": 0, "bike_id": "1eff1275f6afc3a8c5087f91b5340012", "is_reserved": 0, "rental_uris": {"android": "https://dc.lft.to/lastmile_qr_scan", "ios": "https://dc.lft.to/lastmile_qr_scan"}, "lat": 38.937543}, {"type": "electric_scooter", "name": "67a98f6a003c0cdd61bc5bc7c198df8c", "fusion_lat": 0.0, "fusion_lon": 0.0, "lon": -77.0184735, "is_disabled": 0, "bike_id": "67a98f6a003c0cdd61bc5bc7c198df8c", "is_reserved": 0, "rental_uris": {"android": "https://dc.lft.to/lastmile_qr_scan", "ios": "https://dc.lft.to/lastmile_qr_scan"}, "lat": 38.9150375}, {"type": "electric_scooter", "name": "5ca096741d893857435066c4d144cd70", "fusion_lat": 0.0, "fusion_lon": 0.0, "lon": -77.0277615, "is_disabled": 0, "bike_id": "5ca096741d893857435066c4d144cd70", "is_reserved": 0, "rental_uris": {"android": "https://dc.lft.to/lastmile_qr_scan", "ios": "https://dc.lft.to/lastmile_qr_scan"}, "lat": 38.89939583333334}, {"type": "electric_scooter", "name": "864e96017a0b7485cfa807a074af09cb", "fusion_lat": 0.0, "fusion_lon": 0.0, "lon": -77.02798783333333, "is_disabled": 0, "bike_id": "864e96017a0b7485cfa807a074af09cb", "is_reserved": 0, "rental_uris": {"android": "https://dc.lft.to/lastmile_qr_scan", "ios": "https://dc.lft.to/lastmile_qr_scan"}, "lat": 38.8990955}, {"type": "electric_scooter", "name": "bc460e8276736ce7a2ab2fbbc9f208f5", "fusion_lat": 0.0, "fusion_lon": 0.0, "lon": -77.03348116666666, "is_disabled": 0, "bike_id": "bc460e8276736ce7a2ab2fbbc9f208f5", "is_reserved": 0, "rental_uris": {"android": "https://dc.lft.to/lastmile_qr_scan", "ios": "https://dc.lft.to/lastmile_qr_scan"}, "lat": 38.902866333333336}, {"type": "electric_scooter", "name": "e2ec54cc2d009c4a6c5d5358356fca99", "fusion_lat": 0.0, "fusion_lon": 0.0, "lon": -77.04876183333333, "is_disabled": 0, "bike_id": "e2ec54cc2d009c4a6c5d5358356fca99", "is_reserved": 0, "rental_uris": {"android": "https://dc.lft.to/lastmile_qr_scan", "ios": "https://dc.lft.to/lastmile_qr_scan"}, "lat": 38.892377333333336}, {"type": "electric_scooter", "name": "8b57c6a3d82cd61bcbb4ba06d8c2edf9", "fusion_lat": 0.0, "fusion_lon": 0.0, "lon": -77.03354533333334, "is_disabled": 0, "bike_id": "8b57c6a3d82cd61bcbb4ba06d8c2edf9", "is_reserved": 0, "rental_uris": {"android": "https://dc.lft.to/lastmile_qr_scan", "ios": "https://dc.lft.to/lastmile_qr_scan"}, "lat": 38.898276333333335}, {"type": "electric_scooter", "name": "a11d313b3bf0ed9295270aa5270bbc6e", "fusion_lat": 0.0, "fusion_lon": 0.0, "lon": -77.02765516666666, "is_disabled": 0, "bike_id": "a11d313b3bf0ed9295270aa5270bbc6e", "is_reserved": 0, "rental_uris": {"android": "https://dc.lft.to/lastmile_qr_scan", "ios": "https://dc.lft.to/lastmile_qr_scan"}, "lat": 38.9346065}, {"type": "electric_scooter", "name": "fdb86ba3af06a19bb0ddd61dce2f8fd0", "fusion_lat": 0.0, "fusion_lon": 0.0, "lon": -76.985387, "is_disabled": 0, "bike_id": "fdb86ba3af06a19bb0ddd61dce2f8fd0", "is_reserved": 0, "rental_uris": {"android": "https://dc.lft.to/lastmile_qr_scan", "ios": "https://dc.lft.to/lastmile_qr_scan"}, "lat": 38.912897666666666}, {"type": "electric_scooter", "name": "ecbe79e68d38eb85b14049b257af413f", "fusion_lat": 0.0, "fusion_lon": 0.0, "lon": -77.02279783333333, "is_disabled": 0, "bike_id": "ecbe79e68d38eb85b14049b257af413f", "is_reserved": 0, "rental_uris": {"android": "https://dc.lft.to/lastmile_qr_scan", "ios": "https://dc.lft.to/lastmile_qr_scan"}, "lat": 38.92686916666667}, {"type": "electric_scooter", "name": "7608b0e72b7775d700cd3668fc6884c5", "fusion_lat": 0.0, "fusion_lon": 0.0, "lon": -77.04331933333333, "is_disabled": 0, "bike_id": "7608b0e72b7775d700cd3668fc6884c5", "is_reserved": 0, "rental_uris": {"android": "https://dc.lft.to/lastmile_qr_scan", "ios": "https://dc.lft.to/lastmile_qr_scan"}, "lat": 38.91308733333334}, {"type": "electric_scooter", "name": "eb2cba2c9e0acc5bccc9396b8bb1d9ea", "fusion_lat": 0.0, "fusion_lon": 0.0, "lon": -77.03201, "is_disabled": 0, "bike_id": "eb2cba2c9e0acc5bccc9396b8bb1d9ea", "is_reserved": 0, "rental_uris": {"android": "https://dc.lft.to/lastmile_qr_scan", "ios": "https://dc.lft.to/lastmile_qr_scan"}, "lat": 38.913107333333336}, {"type": "electric_scooter", "name": "01943fbd0e7773b0bc9102d4a7ca0ebb", "fusion_lat": 0.0, "fusion_lon": 0.0, "lon": -76.98406183333333, "is_disabled": 0, "bike_id": "01943fbd0e7773b0bc9102d4a7ca0ebb", "is_reserved": 0, "rental_uris": {"android": "https://dc.lft.to/lastmile_qr_scan", "ios": "https://dc.lft.to/lastmile_qr_scan"}, "lat": 38.860598333333336}, {"type": "electric_scooter", "name": "e509bd6c0a881fed7548f26fb4eb81aa", "fusion_lat": 0.0, "fusion_lon": 0.0, "lon": -77.0277075, "is_disabled": 0, "bike_id": "e509bd6c0a881fed7548f26fb4eb81aa", "is_reserved": 0, "rental_uris": {"android": "https://dc.lft.to/lastmile_qr_scan", "ios": "https://dc.lft.to/lastmile_qr_scan"}, "lat": 38.901220333333335}, {"type": "electric_scooter", "name": "e7f2902a778c5a482d3d618809d1dac4", "fusion_lat": 0.0, "fusion_lon": 0.0, "lon": -77.0319725, "is_disabled": 0, "bike_id": "e7f2902a778c5a482d3d618809d1dac4", "is_reserved": 0, "rental_uris": {"android": "https://dc.lft.to/lastmile_qr_scan", "ios": "https://dc.lft.to/lastmile_qr_scan"}, "lat": 38.9156415}, {"type": "electric_scooter", "name": "73a44f12c42f53591c9146bd9f82eae1", "fusion_lat": 0.0, "fusion_lon": 0.0, "lon": -77.01222416666667, "is_disabled": 0, "bike_id": "73a44f12c42f53591c9146bd9f82eae1", "is_reserved": 0, "rental_uris": {"android": "https://dc.lft.to/lastmile_qr_scan", "ios": "https://dc.lft.to/lastmile_qr_scan"}, "lat": 38.915444}, {"type": "electric_scooter", "name": "723ef2671cd0724330a40904a5a8e3cf", "fusion_lat": 0.0, "fusion_lon": 0.0, "lon": -77.01222633333333, "is_disabled": 0, "bike_id": "723ef2671cd0724330a40904a5a8e3cf", "is_reserved": 0, "rental_uris": {"android": "https://dc.lft.to/lastmile_qr_scan", "ios": "https://dc.lft.to/lastmile_qr_scan"}, "lat": 38.915472666666666}, {"type": "electric_scooter", "name": "93b55f01c2929af278f2051ea00f98eb", "fusion_lat": 0.0, "fusion_lon": 0.0, "lon": -76.9971985, "is_disabled": 0, "bike_id": "93b55f01c2929af278f2051ea00f98eb", "is_reserved": 0, "rental_uris": {"android": "https://dc.lft.to/lastmile_qr_scan", "ios": "https://dc.lft.to/lastmile_qr_scan"}, "lat": 38.845412833333334}, {"type": "electric_scooter", "name": "1714af7ee6b784bb2843de94b5fc38f5", "fusion_lat": 0.0, "fusion_lon": 0.0, "lon": -77.03605366666666, "is_disabled": 0, "bike_id": "1714af7ee6b784bb2843de94b5fc38f5", "is_reserved": 0, "rental_uris": {"android": "https://dc.lft.to/lastmile_qr_scan", "ios": "https://dc.lft.to/lastmile_qr_scan"}, "lat": 38.9315735}, {"type": "electric_scooter", "name": "5b0a361b80cf5be76deacf4ce2faeea7", "fusion_lat": 0.0, "fusion_lon": 0.0, "lon": -77.00329016666667, "is_disabled": 0, "bike_id": "5b0a361b80cf5be76deacf4ce2faeea7", "is_reserved": 0, "rental_uris": {"android": "https://dc.lft.to/lastmile_qr_scan", "ios": "https://dc.lft.to/lastmile_qr_scan"}, "lat": 38.87724083333333}, {"type": "electric_scooter", "name": "2ae98dea4a80294b24d4e6c20a12f351", "fusion_lat": 0.0, "fusion_lon": 0.0, "lon": -77.0203615, "is_disabled": 0, "bike_id": "2ae98dea4a80294b24d4e6c20a12f351", "is_reserved": 0, "rental_uris": {"android": "https://dc.lft.to/lastmile_qr_scan", "ios": "https://dc.lft.to/lastmile_qr_scan"}, "lat": 38.92336816666667}, {"type": "electric_scooter", "name": "6dbcff929caa1d6cd871c12cebd03c6a", "fusion_lat": 0.0, "fusion_lon": 0.0, "lon": -77.03305916666666, "is_disabled": 0, "bike_id": "6dbcff929caa1d6cd871c12cebd03c6a", "is_reserved": 0, "rental_uris": {"android": "https://dc.lft.to/lastmile_qr_scan", "ios": "https://dc.lft.to/lastmile_qr_scan"}, "lat": 38.927480833333334}, {"type": "electric_scooter", "name": "92c228caf9bfd0652610a5c2de47480a", "fusion_lat": 0.0, "fusion_lon": 0.0, "lon": -77.04871033333333, "is_disabled": 0, "bike_id": "92c228caf9bfd0652610a5c2de47480a", "is_reserved": 0, "rental_uris": {"android": "https://dc.lft.to/lastmile_qr_scan", "ios": "https://dc.lft.to/lastmile_qr_scan"}, "lat": 38.9065}, {"type": "electric_scooter", "name": "1923e7d8c003736518667ffca58b3e8a", "fusion_lat": 0.0, "fusion_lon": 0.0, "lon": -77.08184366666667, "is_disabled": 0, "bike_id": "1923e7d8c003736518667ffca58b3e8a", "is_reserved": 0, "rental_uris": {"android": "https://dc.lft.to/lastmile_qr_scan", "ios": "https://dc.lft.to/lastmile_qr_scan"}, "lat": 38.8912575}, {"type": "electric_bike", "name": "0fb54e651454d3906cf218ed6e6c6b15", "fusion_lat": 0.0, "fusion_lon": 0.0, "lon": -77.04078216666667, "is_disabled": 0, "bike_id": "0fb54e651454d3906cf218ed6e6c6b15", "is_reserved": 0, "rental_uris": {"android": "https://dc.lft.to/lastmile_qr_scan", "ios": "https://dc.lft.to/lastmile_qr_scan"}, "lat": 38.8306395}, {"type": "electric_scooter", "name": "55d158b1369a7f9b38e6d60baaead14a", "fusion_lat": 0.0, "fusion_lon": 0.0, "lon": -77.0344895, "is_disabled": 0, "bike_id": "55d158b1369a7f9b38e6d60baaead14a", "is_reserved": 0, "rental_uris": {"android": "https://dc.lft.to/lastmile_qr_scan", "ios": "https://dc.lft.to/lastmile_qr_scan"}, "lat": 38.91029416666667}, {"type": "electric_scooter", "name": "f070670732fb43c452db515cb0d56953", "fusion_lat": 0.0, "fusion_lon": 0.0, "lon": -77.0581115, "is_disabled": 0, "bike_id": "f070670732fb43c452db515cb0d56953", "is_reserved": 0, "rental_uris": {"android": "https://dc.lft.to/lastmile_qr_scan", "ios": "https://dc.lft.to/lastmile_qr_scan"}, "lat": 38.929065666666666}, {"type": "electric_scooter", "name": "043c881511ddc57337512a399b819260", "fusion_lat": 0.0, "fusion_lon": 0.0, "lon": -77.01891866666666, "is_disabled": 0, "bike_id": "043c881511ddc57337512a399b819260", "is_reserved": 0, "rental_uris": {"android": "https://dc.lft.to/lastmile_qr_scan", "ios": "https://dc.lft.to/lastmile_qr_scan"}, "lat": 38.8974725}, {"type": "electric_scooter", "name": "ca25fffe86c55fd77acce86c7bef8265", "fusion_lat": 0.0, "fusion_lon": 0.0, "lon": -77.01301466666666, "is_disabled": 0, "bike_id": "ca25fffe86c55fd77acce86c7bef8265", "is_reserved": 0, "rental_uris": {"android": "https://dc.lft.to/lastmile_qr_scan", "ios": "https://dc.lft.to/lastmile_qr_scan"}, "lat": 38.8777775}, {"type": "electric_scooter", "name": "3ebb93fcc68587af40fc814aeaacedd7", "fusion_lat": 0.0, "fusion_lon": 0.0, "lon": -77.0208875, "is_disabled": 0, "bike_id": "3ebb93fcc68587af40fc814aeaacedd7", "is_reserved": 0, "rental_uris": {"android": "https://dc.lft.to/lastmile_qr_scan", "ios": "https://dc.lft.to/lastmile_qr_scan"}, "lat": 38.927036666666666}, {"type": "electric_scooter", "name": "ce72625ef64225acfa9a1c981de46e85", "fusion_lat": 0.0, "fusion_lon": 0.0, "lon": -77.0176485, "is_disabled": 0, "bike_id": "ce72625ef64225acfa9a1c981de46e85", "is_reserved": 0, "rental_uris": {"android": "https://dc.lft.to/lastmile_qr_scan", "ios": "https://dc.lft.to/lastmile_qr_scan"}, "lat": 38.900295666666665}, {"type": "electric_scooter", "name": "244501f890538b7da5b78c5064d69f9a", "fusion_lat": 0.0, "fusion_lon": 0.0, "lon": -77.00390533333334, "is_disabled": 0, "bike_id": "244501f890538b7da5b78c5064d69f9a", "is_reserved": 0, "rental_uris": {"android": "https://dc.lft.to/lastmile_qr_scan", "ios": "https://dc.lft.to/lastmile_qr_scan"}, "lat": 38.879244666666665}, {"type": "electric_scooter", "name": "3a826ad7153b4a7bc1452b3b3781da4a", "fusion_lat": 0.0, "fusion_lon": 0.0, "lon": -77.03262166666667, "is_disabled": 0, "bike_id": "3a826ad7153b4a7bc1452b3b3781da4a", "is_reserved": 0, "rental_uris": {"android": "https://dc.lft.to/lastmile_qr_scan", "ios": "https://dc.lft.to/lastmile_qr_scan"}, "lat": 38.9330875}, {"type": "electric_scooter", "name": "6f292f7bfe5cb9f9a7925039e30dd421", "fusion_lat": 0.0, "fusion_lon": 0.0, "lon": -77.01458733333334, "is_disabled": 0, "bike_id": "6f292f7bfe5cb9f9a7925039e30dd421", "is_reserved": 0, "rental_uris": {"android": "https://dc.lft.to/lastmile_qr_scan", "ios": "https://dc.lft.to/lastmile_qr_scan"}, "lat": 38.91771583333333}, {"type": "electric_scooter", "name": "2c1cd37a806515180e4307c232bdaeac", "fusion_lat": 0.0, "fusion_lon": 0.0, "lon": -77.04525883333334, "is_disabled": 0, "bike_id": "2c1cd37a806515180e4307c232bdaeac", "is_reserved": 0, "rental_uris": {"android": "https://dc.lft.to/lastmile_qr_scan", "ios": "https://dc.lft.to/lastmile_qr_scan"}, "lat": 38.918212}, {"type": "electric_scooter", "name": "bcf58e5c4d7cd6e71aa1194cb352e0ef", "fusion_lat": 0.0, "fusion_lon": 0.0, "lon": -77.03262966666667, "is_disabled": 0, "bike_id": "bcf58e5c4d7cd6e71aa1194cb352e0ef", "is_reserved": 0, "rental_uris": {"android": "https://dc.lft.to/lastmile_qr_scan", "ios": "https://dc.lft.to/lastmile_qr_scan"}, "lat": 38.937341}, {"type": "electric_scooter", "name": "c7f68e43a3edb6d25b480afe4b781f8a", "fusion_lat": 0.0, "fusion_lon": 0.0, "lon": -77.05307, "is_disabled": 0, "bike_id": "c7f68e43a3edb6d25b480afe4b781f8a", "is_reserved": 0, "rental_uris": {"android": "https://dc.lft.to/lastmile_qr_scan", "ios": "https://dc.lft.to/lastmile_qr_scan"}, "lat": 38.90257033333334}, {"type": "electric_scooter", "name": "0bc4ef795549f5a4b30517de5224474a", "fusion_lat": 0.0, "fusion_lon": 0.0, "lon": -77.029529, "is_disabled": 0, "bike_id": "0bc4ef795549f5a4b30517de5224474a", "is_reserved": 0, "rental_uris": {"android": "https://dc.lft.to/lastmile_qr_scan", "ios": "https://dc.lft.to/lastmile_qr_scan"}, "lat": 38.91683366666667}, {"type": "electric_scooter", "name": "790b907436e181e0a2d1452fe0a00220", "fusion_lat": 0.0, "fusion_lon": 0.0, "lon": -77.05972566666667, "is_disabled": 0, "bike_id": "790b907436e181e0a2d1452fe0a00220", "is_reserved": 0, "rental_uris": {"android": "https://dc.lft.to/lastmile_qr_scan", "ios": "https://dc.lft.to/lastmile_qr_scan"}, "lat": 38.9283705}, {"type": "electric_bike", "name": "807b73948aa8b065001961499099fece", "fusion_lat": 0.0, "fusion_lon": 0.0, "lon": -76.999141, "is_disabled": 0, "bike_id": "807b73948aa8b065001961499099fece", "is_reserved": 0, "rental_uris": {"android": "https://dc.lft.to/lastmile_qr_scan", "ios": "https://dc.lft.to/lastmile_qr_scan"}, "lat": 38.864471333333334}, {"type": "electric_scooter", "name": "6bb5f1c29a94b0d99a66a39ceff5b723", "fusion_lat": 0.0, "fusion_lon": 0.0, "lon": -76.93389883333333, "is_disabled": 0, "bike_id": "6bb5f1c29a94b0d99a66a39ceff5b723", "is_reserved": 0, "rental_uris": {"android": "https://dc.lft.to/lastmile_qr_scan", "ios": "https://dc.lft.to/lastmile_qr_scan"}, "lat": 38.89908783333333}, {"type": "electric_scooter", "name": "f2b777ea36c85a3d7f831bc5e7b2d177", "fusion_lat": 0.0, "fusion_lon": 0.0, "lon": -77.03170766666666, "is_disabled": 0, "bike_id": "f2b777ea36c85a3d7f831bc5e7b2d177", "is_reserved": 0, "rental_uris": {"android": "https://dc.lft.to/lastmile_qr_scan", "ios": "https://dc.lft.to/lastmile_qr_scan"}, "lat": 38.928688333333334}, {"type": "electric_scooter", "name": "0d5e3f005fc2dc9ec823a7a43e70c71e", "fusion_lat": 0.0, "fusion_lon": 0.0, "lon": -77.02029933333333, "is_disabled": 0, "bike_id": "0d5e3f005fc2dc9ec823a7a43e70c71e", "is_reserved": 0, "rental_uris": {"android": "https://dc.lft.to/lastmile_qr_scan", "ios": "https://dc.lft.to/lastmile_qr_scan"}, "lat": 38.93408016666667}, {"type": "electric_scooter", "name": "4bbe2df896d680999fe27dc513a5b75d", "fusion_lat": 0.0, "fusion_lon": 0.0, "lon": -77.0349535, "is_disabled": 0, "bike_id": "4bbe2df896d680999fe27dc513a5b75d", "is_reserved": 0, "rental_uris": {"android": "https://dc.lft.to/lastmile_qr_scan", "ios": "https://dc.lft.to/lastmile_qr_scan"}, "lat": 38.9234}, {"type": "electric_bike", "name": "20502134f0673ce27a08e295d1fe0787", "fusion_lat": 0.0, "fusion_lon": 0.0, "lon": -77.004167, "is_disabled": 0, "bike_id": "20502134f0673ce27a08e295d1fe0787", "is_reserved": 0, "rental_uris": {"android": "https://dc.lft.to/lastmile_qr_scan", "ios": "https://dc.lft.to/lastmile_qr_scan"}, "lat": 38.985237833333336}, {"type": "electric_scooter", "name": "b3148c4a021093e4647fadf8e09855ea", "fusion_lat": 0.0, "fusion_lon": 0.0, "lon": -77.03449483333333, "is_disabled": 0, "bike_id": "b3148c4a021093e4647fadf8e09855ea", "is_reserved": 0, "rental_uris": {"android": "https://dc.lft.to/lastmile_qr_scan", "ios": "https://dc.lft.to/lastmile_qr_scan"}, "lat": 38.907172333333335}, {"type": "electric_bike", "name": "1388d1601f8742c5dc3b7e2b4aa3ffe0", "fusion_lat": 0.0, "fusion_lon": 0.0, "lon": -77.13228666666667, "is_disabled": 0, "bike_id": "1388d1601f8742c5dc3b7e2b4aa3ffe0", "is_reserved": 0, "rental_uris": {"android": "https://dc.lft.to/lastmile_qr_scan", "ios": "https://dc.lft.to/lastmile_qr_scan"}, "lat": 38.804460666666664}, {"type": "electric_scooter", "name": "a2bc4b8d6d7b293e6359eb1b1f2191d8", "fusion_lat": 0.0, "fusion_lon": 0.0, "lon": -77.01579183333334, "is_disabled": 0, "bike_id": "a2bc4b8d6d7b293e6359eb1b1f2191d8", "is_reserved": 0, "rental_uris": {"android": "https://dc.lft.to/lastmile_qr_scan", "ios": "https://dc.lft.to/lastmile_qr_scan"}, "lat": 38.876194}, {"type": "electric_scooter", "name": "5f8c9fce4496b2d838918f2ad9e4c789", "fusion_lat": 0.0, "fusion_lon": 0.0, "lon": -77.03456233333333, "is_disabled": 0, "bike_id": "5f8c9fce4496b2d838918f2ad9e4c789", "is_reserved": 0, "rental_uris": {"android": "https://dc.lft.to/lastmile_qr_scan", "ios": "https://dc.lft.to/lastmile_qr_scan"}, "lat": 38.917200666666666}, {"type": "electric_scooter", "name": "7543679bd21888cff6a2dfeff907ef3f", "fusion_lat": 0.0, "fusion_lon": 0.0, "lon": -77.05513816666667, "is_disabled": 0, "bike_id": "7543679bd21888cff6a2dfeff907ef3f", "is_reserved": 0, "rental_uris": {"android": "https://dc.lft.to/lastmile_qr_scan", "ios": "https://dc.lft.to/lastmile_qr_scan"}, "lat": 38.928416166666665}, {"type": "electric_bike", "name": "5d33191f8136b45b7fe4438bb01d6b08", "fusion_lat": 0.0, "fusion_lon": 0.0, "lon": -77.024274, "is_disabled": 0, "bike_id": "5d33191f8136b45b7fe4438bb01d6b08", "is_reserved": 0, "rental_uris": {"android": "https://dc.lft.to/lastmile_qr_scan", "ios": "https://dc.lft.to/lastmile_qr_scan"}, "lat": 38.99117566666666}, {"type": "electric_bike", "name": "f85099b11bb0192a986e68daeed14e06", "fusion_lat": 0.0, "fusion_lon": 0.0, "lon": -77.06532466666667, "is_disabled": 0, "bike_id": "f85099b11bb0192a986e68daeed14e06", "is_reserved": 0, "rental_uris": {"android": "https://dc.lft.to/lastmile_qr_scan", "ios": "https://dc.lft.to/lastmile_qr_scan"}, "lat": 38.992292666666664}, {"type": "electric_scooter", "name": "01f840eb44f7780908d9106bc3b38694", "fusion_lat": 0.0, "fusion_lon": 0.0, "lon": -77.0122725, "is_disabled": 0, "bike_id": "01f840eb44f7780908d9106bc3b38694", "is_reserved": 0, "rental_uris": {"android": "https://dc.lft.to/lastmile_qr_scan", "ios": "https://dc.lft.to/lastmile_qr_scan"}, "lat": 38.9140245}, {"type": "electric_bike", "name": "912883b362ab4a1fe238c7e71b1518e8", "fusion_lat": 0.0, "fusion_lon": 0.0, "lon": -77.0013115, "is_disabled": 0, "bike_id": "912883b362ab4a1fe238c7e71b1518e8", "is_reserved": 0, "rental_uris": {"android": "https://dc.lft.to/lastmile_qr_scan", "ios": "https://dc.lft.to/lastmile_qr_scan"}, "lat": 38.925541833333334}, {"type": "electric_scooter", "name": "e87f85e0f8a5a33c27931904dcb6a470", "fusion_lat": 0.0, "fusion_lon": 0.0, "lon": -77.03073083333334, "is_disabled": 0, "bike_id": "e87f85e0f8a5a33c27931904dcb6a470", "is_reserved": 0, "rental_uris": {"android": "https://dc.lft.to/lastmile_qr_scan", "ios": "https://dc.lft.to/lastmile_qr_scan"}, "lat": 38.9224895}, {"type": "electric_scooter", "name": "f64107d98a9f336a846a41a2b938329e", "fusion_lat": 0.0, "fusion_lon": 0.0, "lon": -77.04346366666667, "is_disabled": 0, "bike_id": "f64107d98a9f336a846a41a2b938329e", "is_reserved": 0, "rental_uris": {"android": "https://dc.lft.to/lastmile_qr_scan", "ios": "https://dc.lft.to/lastmile_qr_scan"}, "lat": 38.921653166666665}, {"type": "electric_scooter", "name": "ce40af400632be0054d462052d8567fb", "fusion_lat": 0.0, "fusion_lon": 0.0, "lon": -77.04175633333334, "is_disabled": 0, "bike_id": "ce40af400632be0054d462052d8567fb", "is_reserved": 0, "rental_uris": {"android": "https://dc.lft.to/lastmile_qr_scan", "ios": "https://dc.lft.to/lastmile_qr_scan"}, "lat": 38.915501666666664}, {"type": "electric_scooter", "name": "b5199097cd75d7704bda3cf6c91ce32d", "fusion_lat": 0.0, "fusion_lon": 0.0, "lon": -76.98099383333333, "is_disabled": 0, "bike_id": "b5199097cd75d7704bda3cf6c91ce32d", "is_reserved": 0, "rental_uris": {"android": "https://dc.lft.to/lastmile_qr_scan", "ios": "https://dc.lft.to/lastmile_qr_scan"}, "lat": 38.85719233333333}, {"type": "electric_scooter", "name": "9878619f0e540d4c5e890414b9a63890", "fusion_lat": 0.0, "fusion_lon": 0.0, "lon": -76.99106033333334, "is_disabled": 0, "bike_id": "9878619f0e540d4c5e890414b9a63890", "is_reserved": 0, "rental_uris": {"android": "https://dc.lft.to/lastmile_qr_scan", "ios": "https://dc.lft.to/lastmile_qr_scan"}, "lat": 38.85720366666666}, {"type": "electric_scooter", "name": "8ee0129dbe4971bb73f8cffdd05c244e", "fusion_lat": 0.0, "fusion_lon": 0.0, "lon": -77.04254883333333, "is_disabled": 0, "bike_id": "8ee0129dbe4971bb73f8cffdd05c244e", "is_reserved": 0, "rental_uris": {"android": "https://dc.lft.to/lastmile_qr_scan", "ios": "https://dc.lft.to/lastmile_qr_scan"}, "lat": 38.91964466666667}, {"type": "electric_scooter", "name": "1716b2cdbf730e98139794cfecddd087", "fusion_lat": 0.0, "fusion_lon": 0.0, "lon": -77.05134333333334, "is_disabled": 0, "bike_id": "1716b2cdbf730e98139794cfecddd087", "is_reserved": 0, "rental_uris": {"android": "https://dc.lft.to/lastmile_qr_scan", "ios": "https://dc.lft.to/lastmile_qr_scan"}, "lat": 38.923620166666666}, {"type": "electric_scooter", "name": "607e7c837f87d1f0cea465197b698335", "fusion_lat": 0.0, "fusion_lon": 0.0, "lon": -77.03433283333334, "is_disabled": 0, "bike_id": "607e7c837f87d1f0cea465197b698335", "is_reserved": 0, "rental_uris": {"android": "https://dc.lft.to/lastmile_qr_scan", "ios": "https://dc.lft.to/lastmile_qr_scan"}, "lat": 38.90236983333333}, {"type": "electric_scooter", "name": "d310b60516025d37eeb641266896d0ad", "fusion_lat": 0.0, "fusion_lon": 0.0, "lon": -77.00593366666666, "is_disabled": 0, "bike_id": "d310b60516025d37eeb641266896d0ad", "is_reserved": 0, "rental_uris": {"android": "https://dc.lft.to/lastmile_qr_scan", "ios": "https://dc.lft.to/lastmile_qr_scan"}, "lat": 38.905654}, {"type": "electric_scooter", "name": "b4df2a961e3c44dcbba0ac56a71a0316", "fusion_lat": 0.0, "fusion_lon": 0.0, "lon": -77.04332233333334, "is_disabled": 0, "bike_id": "b4df2a961e3c44dcbba0ac56a71a0316", "is_reserved": 0, "rental_uris": {"android": "https://dc.lft.to/lastmile_qr_scan", "ios": "https://dc.lft.to/lastmile_qr_scan"}, "lat": 38.92223383333334}, {"type": "electric_scooter", "name": "0b1ac4511bf11cb82d131ab15d6d2727", "fusion_lat": 0.0, "fusion_lon": 0.0, "lon": -76.9963055, "is_disabled": 0, "bike_id": "0b1ac4511bf11cb82d131ab15d6d2727", "is_reserved": 0, "rental_uris": {"android": "https://dc.lft.to/lastmile_qr_scan", "ios": "https://dc.lft.to/lastmile_qr_scan"}, "lat": 38.90533083333333}, {"type": "electric_scooter", "name": "6b13f008b536caaa7f42bb0dd0237015", "fusion_lat": 0.0, "fusion_lon": 0.0, "lon": -77.034074, "is_disabled": 0, "bike_id": "6b13f008b536caaa7f42bb0dd0237015", "is_reserved": 0, "rental_uris": {"android": "https://dc.lft.to/lastmile_qr_scan", "ios": "https://dc.lft.to/lastmile_qr_scan"}, "lat": 38.925519333333334}, {"type": "electric_scooter", "name": "49f4f4ed48c1a59545a6cb5c758335ec", "fusion_lat": 0.0, "fusion_lon": 0.0, "lon": -77.03262283333333, "is_disabled": 0, "bike_id": "49f4f4ed48c1a59545a6cb5c758335ec", "is_reserved": 0, "rental_uris": {"android": "https://dc.lft.to/lastmile_qr_scan", "ios": "https://dc.lft.to/lastmile_qr_scan"}, "lat": 38.91981083333334}, {"type": "electric_scooter", "name": "c203698a4e494aa6cd319d6f92c64e67", "fusion_lat": 0.0, "fusion_lon": 0.0, "lon": -77.03526216666667, "is_disabled": 0, "bike_id": "c203698a4e494aa6cd319d6f92c64e67", "is_reserved": 0, "rental_uris": {"android": "https://dc.lft.to/lastmile_qr_scan", "ios": "https://dc.lft.to/lastmile_qr_scan"}, "lat": 38.9345925}, {"type": "electric_scooter", "name": "8aaa3e0eecdb5a19e259c825eea890f3", "fusion_lat": 0.0, "fusion_lon": 0.0, "lon": -77.02384483333333, "is_disabled": 0, "bike_id": "8aaa3e0eecdb5a19e259c825eea890f3", "is_reserved": 0, "rental_uris": {"android": "https://dc.lft.to/lastmile_qr_scan", "ios": "https://dc.lft.to/lastmile_qr_scan"}, "lat": 38.90961333333333}, {"type": "electric_scooter", "name": "9f9c347269518c9859894c1188426581", "fusion_lat": 0.0, "fusion_lon": 0.0, "lon": -77.02958066666666, "is_disabled": 0, "bike_id": "9f9c347269518c9859894c1188426581", "is_reserved": 0, "rental_uris": {"android": "https://dc.lft.to/lastmile_qr_scan", "ios": "https://dc.lft.to/lastmile_qr_scan"}, "lat": 38.9072915}, {"type": "electric_scooter", "name": "7895cb837427e8ce78c016892664d44a", "fusion_lat": 0.0, "fusion_lon": 0.0, "lon": -77.051313, "is_disabled": 0, "bike_id": "7895cb837427e8ce78c016892664d44a", "is_reserved": 0, "rental_uris": {"android": "https://dc.lft.to/lastmile_qr_scan", "ios": "https://dc.lft.to/lastmile_qr_scan"}, "lat": 38.90542966666667}, {"type": "electric_scooter", "name": "693d252466a41a61c7bff5ba6a6bad61", "fusion_lat": 0.0, "fusion_lon": 0.0, "lon": -77.02492316666667, "is_disabled": 0, "bike_id": "693d252466a41a61c7bff5ba6a6bad61", "is_reserved": 0, "rental_uris": {"android": "https://dc.lft.to/lastmile_qr_scan", "ios": "https://dc.lft.to/lastmile_qr_scan"}, "lat": 38.941854}, {"type": "electric_scooter", "name": "fae04652627c9cb9e18dc6eaffd0159d", "fusion_lat": 0.0, "fusion_lon": 0.0, "lon": -77.02707333333333, "is_disabled": 0, "bike_id": "fae04652627c9cb9e18dc6eaffd0159d", "is_reserved": 0, "rental_uris": {"android": "https://dc.lft.to/lastmile_qr_scan", "ios": "https://dc.lft.to/lastmile_qr_scan"}, "lat": 38.90458116666667}, {"type": "electric_scooter", "name": "8785608fd8e485d23e356c64ce7a1335", "fusion_lat": 0.0, "fusion_lon": 0.0, "lon": -77.02581116666667, "is_disabled": 0, "bike_id": "8785608fd8e485d23e356c64ce7a1335", "is_reserved": 0, "rental_uris": {"android": "https://dc.lft.to/lastmile_qr_scan", "ios": "https://dc.lft.to/lastmile_qr_scan"}, "lat": 38.9251635}, {"type": "electric_scooter", "name": "75fa2e00125c5e0d18990a43fff35af6", "fusion_lat": 0.0, "fusion_lon": 0.0, "lon": -77.03428333333333, "is_disabled": 0, "bike_id": "75fa2e00125c5e0d18990a43fff35af6", "is_reserved": 0, "rental_uris": {"android": "https://dc.lft.to/lastmile_qr_scan", "ios": "https://dc.lft.to/lastmile_qr_scan"}, "lat": 38.9273305}, {"type": "electric_bike", "name": "6a586a8f88d93c4854abd0ccb74be71d", "fusion_lat": 0.0, "fusion_lon": 0.0, "lon": -77.01217066666666, "is_disabled": 0, "bike_id": "6a586a8f88d93c4854abd0ccb74be71d", "is_reserved": 0, "rental_uris": {"android": "https://dc.lft.to/lastmile_qr_scan", "ios": "https://dc.lft.to/lastmile_qr_scan"}, "lat": 38.90062833333333}, {"type": "electric_scooter", "name": "7d9bc1653ececbed6554f589de16b1dd", "fusion_lat": 0.0, "fusion_lon": 0.0, "lon": -77.0402365, "is_disabled": 0, "bike_id": "7d9bc1653ececbed6554f589de16b1dd", "is_reserved": 0, "rental_uris": {"android": "https://dc.lft.to/lastmile_qr_scan", "ios": "https://dc.lft.to/lastmile_qr_scan"}, "lat": 38.921700333333334}, {"type": "electric_scooter", "name": "0c1bb0006fa4e7d3946dd135507709fc", "fusion_lat": 0.0, "fusion_lon": 0.0, "lon": -77.0517975, "is_disabled": 0, "bike_id": "0c1bb0006fa4e7d3946dd135507709fc", "is_reserved": 0, "rental_uris": {"android": "https://dc.lft.to/lastmile_qr_scan", "ios": "https://dc.lft.to/lastmile_qr_scan"}, "lat": 38.90309083333333}, {"type": "electric_scooter", "name": "546ea5f41b86697bd8c1035edd1a596b", "fusion_lat": 0.0, "fusion_lon": 0.0, "lon": -77.03570683333334, "is_disabled": 0, "bike_id": "546ea5f41b86697bd8c1035edd1a596b", "is_reserved": 0, "rental_uris": {"android": "https://dc.lft.to/lastmile_qr_scan", "ios": "https://dc.lft.to/lastmile_qr_scan"}, "lat": 38.9181445}, {"type": "electric_scooter", "name": "f01d5eb8d5b8dc2324115a7fd9dcb1f8", "fusion_lat": 0.0, "fusion_lon": 0.0, "lon": -77.03446266666667, "is_disabled": 0, "bike_id": "f01d5eb8d5b8dc2324115a7fd9dcb1f8", "is_reserved": 0, "rental_uris": {"android": "https://dc.lft.to/lastmile_qr_scan", "ios": "https://dc.lft.to/lastmile_qr_scan"}, "lat": 38.90833}, {"type": "electric_scooter", "name": "f4f0a6bbf2bc2201783472a3413072c1", "fusion_lat": 0.0, "fusion_lon": 0.0, "lon": -77.03228383333334, "is_disabled": 0, "bike_id": "f4f0a6bbf2bc2201783472a3413072c1", "is_reserved": 0, "rental_uris": {"android": "https://dc.lft.to/lastmile_qr_scan", "ios": "https://dc.lft.to/lastmile_qr_scan"}, "lat": 38.925492}, {"type": "electric_scooter", "name": "6403abd4d02628b81f98777804fc13a4", "fusion_lat": 0.0, "fusion_lon": 0.0, "lon": -77.064286, "is_disabled": 0, "bike_id": "6403abd4d02628b81f98777804fc13a4", "is_reserved": 0, "rental_uris": {"android": "https://dc.lft.to/lastmile_qr_scan", "ios": "https://dc.lft.to/lastmile_qr_scan"}, "lat": 38.935618833333336}, {"type": "electric_bike", "name": "d74852c7d6b23a1105c061e0969a1e27", "fusion_lat": 0.0, "fusion_lon": 0.0, "lon": -76.97553816666667, "is_disabled": 0, "bike_id": "d74852c7d6b23a1105c061e0969a1e27", "is_reserved": 0, "rental_uris": {"android": "https://dc.lft.to/lastmile_qr_scan", "ios": "https://dc.lft.to/lastmile_qr_scan"}, "lat": 38.90422366666667}, {"type": "electric_scooter", "name": "2fdc6403cfff65f43dda245b4c15cec3", "fusion_lat": 0.0, "fusion_lon": 0.0, "lon": -77.03208266666667, "is_disabled": 0, "bike_id": "2fdc6403cfff65f43dda245b4c15cec3", "is_reserved": 0, "rental_uris": {"android": "https://dc.lft.to/lastmile_qr_scan", "ios": "https://dc.lft.to/lastmile_qr_scan"}, "lat": 38.9183755}, {"type": "electric_scooter", "name": "fc78c7ce7ed35f1b33cadd336c9a7204", "fusion_lat": 0.0, "fusion_lon": 0.0, "lon": -76.9335675, "is_disabled": 0, "bike_id": "fc78c7ce7ed35f1b33cadd336c9a7204", "is_reserved": 0, "rental_uris": {"android": "https://dc.lft.to/lastmile_qr_scan", "ios": "https://dc.lft.to/lastmile_qr_scan"}, "lat": 38.89906116666667}, {"type": "electric_scooter", "name": "7b640e084b808211b0c39f3fb1e57ab3", "fusion_lat": 0.0, "fusion_lon": 0.0, "lon": -76.99947133333333, "is_disabled": 0, "bike_id": "7b640e084b808211b0c39f3fb1e57ab3", "is_reserved": 0, "rental_uris": {"android": "https://dc.lft.to/lastmile_qr_scan", "ios": "https://dc.lft.to/lastmile_qr_scan"}, "lat": 38.890853666666665}, {"type": "electric_scooter", "name": "21fb459eb4b544d7c348c71b4aca4e29", "fusion_lat": 0.0, "fusion_lon": 0.0, "lon": -77.00155483333333, "is_disabled": 0, "bike_id": "21fb459eb4b544d7c348c71b4aca4e29", "is_reserved": 0, "rental_uris": {"android": "https://dc.lft.to/lastmile_qr_scan", "ios": "https://dc.lft.to/lastmile_qr_scan"}, "lat": 38.82134033333333}, {"type": "electric_scooter", "name": "f474b1fb9bada49fec67509959bed6ea", "fusion_lat": 0.0, "fusion_lon": 0.0, "lon": -77.02960216666666, "is_disabled": 0, "bike_id": "f474b1fb9bada49fec67509959bed6ea", "is_reserved": 0, "rental_uris": {"android": "https://dc.lft.to/lastmile_qr_scan", "ios": "https://dc.lft.to/lastmile_qr_scan"}, "lat": 38.916319}, {"type": "electric_bike", "name": "e32a332d7a4fe13496e8a326af23ad6a", "fusion_lat": 0.0, "fusion_lon": 0.0, "lon": -76.95157733333333, "is_disabled": 0, "bike_id": "e32a332d7a4fe13496e8a326af23ad6a", "is_reserved": 0, "rental_uris": {"android": "https://dc.lft.to/lastmile_qr_scan", "ios": "https://dc.lft.to/lastmile_qr_scan"}, "lat": 39.08436116666667}, {"type": "electric_scooter", "name": "d6e2af8217d3fb43930e1457d42145a9", "fusion_lat": 0.0, "fusion_lon": 0.0, "lon": -77.0390565, "is_disabled": 0, "bike_id": "d6e2af8217d3fb43930e1457d42145a9", "is_reserved": 0, "rental_uris": {"android": "https://dc.lft.to/lastmile_qr_scan", "ios": "https://dc.lft.to/lastmile_qr_scan"}, "lat": 38.9141735}, {"type": "electric_bike", "name": "ff78dabd8fa1bc603b642fcdd1383292", "fusion_lat": 0.0, "fusion_lon": 0.0, "lon": -77.07770933333333, "is_disabled": 0, "bike_id": "ff78dabd8fa1bc603b642fcdd1383292", "is_reserved": 0, "rental_uris": {"android": "https://dc.lft.to/lastmile_qr_scan", "ios": "https://dc.lft.to/lastmile_qr_scan"}, "lat": 38.930454166666664}, {"type": "electric_scooter", "name": "97f6e552476d3663c5b0678a288a3e4e", "fusion_lat": 0.0, "fusion_lon": 0.0, "lon": -77.01723583333333, "is_disabled": 0, "bike_id": "97f6e552476d3663c5b0678a288a3e4e", "is_reserved": 0, "rental_uris": {"android": "https://dc.lft.to/lastmile_qr_scan", "ios": "https://dc.lft.to/lastmile_qr_scan"}, "lat": 38.8922775}, {"type": "electric_scooter", "name": "9c3ba95a3e21590d23ef827ee1ae0476", "fusion_lat": 0.0, "fusion_lon": 0.0, "lon": -77.03048583333333, "is_disabled": 0, "bike_id": "9c3ba95a3e21590d23ef827ee1ae0476", "is_reserved": 0, "rental_uris": {"android": "https://dc.lft.to/lastmile_qr_scan", "ios": "https://dc.lft.to/lastmile_qr_scan"}, "lat": 38.898435166666665}, {"type": "electric_scooter", "name": "71aaf78a5f460fc3dbdc09fb99a57e44", "fusion_lat": 0.0, "fusion_lon": 0.0, "lon": -77.02952533333334, "is_disabled": 0, "bike_id": "71aaf78a5f460fc3dbdc09fb99a57e44", "is_reserved": 0, "rental_uris": {"android": "https://dc.lft.to/lastmile_qr_scan", "ios": "https://dc.lft.to/lastmile_qr_scan"}, "lat": 38.89836966666667}, {"type": "electric_scooter", "name": "57889cc6204299fb9e6dd323bc0bc6db", "fusion_lat": 0.0, "fusion_lon": 0.0, "lon": -77.0138195, "is_disabled": 0, "bike_id": "57889cc6204299fb9e6dd323bc0bc6db", "is_reserved": 0, "rental_uris": {"android": "https://dc.lft.to/lastmile_qr_scan", "ios": "https://dc.lft.to/lastmile_qr_scan"}, "lat": 38.91948716666667}, {"type": "electric_scooter", "name": "595fded4693a5aeaebe2ad14df4291d5", "fusion_lat": 0.0, "fusion_lon": 0.0, "lon": -77.044798, "is_disabled": 0, "bike_id": "595fded4693a5aeaebe2ad14df4291d5", "is_reserved": 0, "rental_uris": {"android": "https://dc.lft.to/lastmile_qr_scan", "ios": "https://dc.lft.to/lastmile_qr_scan"}, "lat": 38.91942816666667}, {"type": "electric_scooter", "name": "4551d73c01cb73656bdd551616943a68", "fusion_lat": 0.0, "fusion_lon": 0.0, "lon": -77.02812866666666, "is_disabled": 0, "bike_id": "4551d73c01cb73656bdd551616943a68", "is_reserved": 0, "rental_uris": {"android": "https://dc.lft.to/lastmile_qr_scan", "ios": "https://dc.lft.to/lastmile_qr_scan"}, "lat": 38.90931666666667}, {"type": "electric_scooter", "name": "a3c6af71065f421ce68d71ea0b81cf2a", "fusion_lat": 0.0, "fusion_lon": 0.0, "lon": -77.02790533333334, "is_disabled": 0, "bike_id": "a3c6af71065f421ce68d71ea0b81cf2a", "is_reserved": 0, "rental_uris": {"android": "https://dc.lft.to/lastmile_qr_scan", "ios": "https://dc.lft.to/lastmile_qr_scan"}, "lat": 38.89646166666667}, {"type": "electric_scooter", "name": "5d930298041aaa18aea97c12925fd5b9", "fusion_lat": 0.0, "fusion_lon": 0.0, "lon": -77.0269115, "is_disabled": 0, "bike_id": "5d930298041aaa18aea97c12925fd5b9", "is_reserved": 0, "rental_uris": {"android": "https://dc.lft.to/lastmile_qr_scan", "ios": "https://dc.lft.to/lastmile_qr_scan"}, "lat": 38.90057383333333}, {"type": "electric_scooter", "name": "0791ba5fde30f014fcea666ce7c4c683", "fusion_lat": 0.0, "fusion_lon": 0.0, "lon": -77.0326235, "is_disabled": 0, "bike_id": "0791ba5fde30f014fcea666ce7c4c683", "is_reserved": 0, "rental_uris": {"android": "https://dc.lft.to/lastmile_qr_scan", "ios": "https://dc.lft.to/lastmile_qr_scan"}, "lat": 38.9139925}, {"type": "electric_bike", "name": "91704c2944e5f183673700bebbfaf8c8", "fusion_lat": 0.0, "fusion_lon": 0.0, "lon": -77.03495383333333, "is_disabled": 0, "bike_id": "91704c2944e5f183673700bebbfaf8c8", "is_reserved": 0, "rental_uris": {"android": "https://dc.lft.to/lastmile_qr_scan", "ios": "https://dc.lft.to/lastmile_qr_scan"}, "lat": 38.931613166666665}, {"type": "electric_scooter", "name": "01d7b19f24ee2e2996b19a9476d82519", "fusion_lat": 0.0, "fusion_lon": 0.0, "lon": -77.04235416666667, "is_disabled": 0, "bike_id": "01d7b19f24ee2e2996b19a9476d82519", "is_reserved": 0, "rental_uris": {"android": "https://dc.lft.to/lastmile_qr_scan", "ios": "https://dc.lft.to/lastmile_qr_scan"}, "lat": 38.911198666666664}, {"type": "electric_scooter", "name": "26346ec91a15745a0b586adbfb5441b5", "fusion_lat": 0.0, "fusion_lon": 0.0, "lon": -77.02562483333334, "is_disabled": 0, "bike_id": "26346ec91a15745a0b586adbfb5441b5", "is_reserved": 0, "rental_uris": {"android": "https://dc.lft.to/lastmile_qr_scan", "ios": "https://dc.lft.to/lastmile_qr_scan"}, "lat": 38.887533166666664}, {"type": "electric_scooter", "name": "1fe0d0c37f1423f13a1443a22c71af40", "fusion_lat": 0.0, "fusion_lon": 0.0, "lon": -77.029768, "is_disabled": 0, "bike_id": "1fe0d0c37f1423f13a1443a22c71af40", "is_reserved": 0, "rental_uris": {"android": "https://dc.lft.to/lastmile_qr_scan", "ios": "https://dc.lft.to/lastmile_qr_scan"}, "lat": 38.90545266666667}, {"type": "electric_scooter", "name": "908d4dde55e4646ae877b9ee29002911", "fusion_lat": 0.0, "fusion_lon": 0.0, "lon": -77.026464, "is_disabled": 0, "bike_id": "908d4dde55e4646ae877b9ee29002911", "is_reserved": 0, "rental_uris": {"android": "https://dc.lft.to/lastmile_qr_scan", "ios": "https://dc.lft.to/lastmile_qr_scan"}, "lat": 38.9042125}, {"type": "electric_scooter", "name": "d2c9208ffc27f61e5555f40bb8e5652b", "fusion_lat": 0.0, "fusion_lon": 0.0, "lon": -77.04229, "is_disabled": 0, "bike_id": "d2c9208ffc27f61e5555f40bb8e5652b", "is_reserved": 0, "rental_uris": {"android": "https://dc.lft.to/lastmile_qr_scan", "ios": "https://dc.lft.to/lastmile_qr_scan"}, "lat": 38.921716333333336}, {"type": "electric_scooter", "name": "9f01d5adab5aa94913283293cb4e39b8", "fusion_lat": 0.0, "fusion_lon": 0.0, "lon": -77.01875983333333, "is_disabled": 0, "bike_id": "9f01d5adab5aa94913283293cb4e39b8", "is_reserved": 0, "rental_uris": {"android": "https://dc.lft.to/lastmile_qr_scan", "ios": "https://dc.lft.to/lastmile_qr_scan"}, "lat": 38.91417933333334}, {"type": "electric_scooter", "name": "325d6885a3138eabd37df70340cc006f", "fusion_lat": 0.0, "fusion_lon": 0.0, "lon": -77.026944, "is_disabled": 0, "bike_id": "325d6885a3138eabd37df70340cc006f", "is_reserved": 0, "rental_uris": {"android": "https://dc.lft.to/lastmile_qr_scan", "ios": "https://dc.lft.to/lastmile_qr_scan"}, "lat": 38.92325666666667}, {"type": "electric_scooter", "name": "20565eae7a5a68037bb2728eac5b5e61", "fusion_lat": 0.0, "fusion_lon": 0.0, "lon": -77.0633285, "is_disabled": 0, "bike_id": "20565eae7a5a68037bb2728eac5b5e61", "is_reserved": 0, "rental_uris": {"android": "https://dc.lft.to/lastmile_qr_scan", "ios": "https://dc.lft.to/lastmile_qr_scan"}, "lat": 38.9215005}, {"type": "electric_scooter", "name": "0226cda2f35140e3bd953b658a1328e0", "fusion_lat": 0.0, "fusion_lon": 0.0, "lon": -77.04029583333333, "is_disabled": 0, "bike_id": "0226cda2f35140e3bd953b658a1328e0", "is_reserved": 0, "rental_uris": {"android": "https://dc.lft.to/lastmile_qr_scan", "ios": "https://dc.lft.to/lastmile_qr_scan"}, "lat": 38.91804583333333}, {"type": "electric_scooter", "name": "0adb30d98229a7ba51a14396bf259510", "fusion_lat": 0.0, "fusion_lon": 0.0, "lon": -77.04186483333334, "is_disabled": 0, "bike_id": "0adb30d98229a7ba51a14396bf259510", "is_reserved": 0, "rental_uris": {"android": "https://dc.lft.to/lastmile_qr_scan", "ios": "https://dc.lft.to/lastmile_qr_scan"}, "lat": 38.91818166666667}, {"type": "electric_scooter", "name": "1dd183c67a155a6d401df308f6463047", "fusion_lat": 0.0, "fusion_lon": 0.0, "lon": -77.02732783333333, "is_disabled": 0, "bike_id": "1dd183c67a155a6d401df308f6463047", "is_reserved": 0, "rental_uris": {"android": "https://dc.lft.to/lastmile_qr_scan", "ios": "https://dc.lft.to/lastmile_qr_scan"}, "lat": 38.9248155}, {"type": "electric_bike", "name": "d5aabd200ddfad350b05869f4f387d3c", "fusion_lat": 0.0, "fusion_lon": 0.0, "lon": -77.08986316666666, "is_disabled": 0, "bike_id": "d5aabd200ddfad350b05869f4f387d3c", "is_reserved": 0, "rental_uris": {"android": "https://dc.lft.to/lastmile_qr_scan", "ios": "https://dc.lft.to/lastmile_qr_scan"}, "lat": 38.91176933333333}, {"type": "electric_bike", "name": "3be155c0a2a0e36f346ccb7742c75334", "fusion_lat": 0.0, "fusion_lon": 0.0, "lon": -77.08672866666667, "is_disabled": 0, "bike_id": "3be155c0a2a0e36f346ccb7742c75334", "is_reserved": 0, "rental_uris": {"android": "https://dc.lft.to/lastmile_qr_scan", "ios": "https://dc.lft.to/lastmile_qr_scan"}, "lat": 38.86258133333333}, {"type": "electric_scooter", "name": "a26b28155c13bf0d411c77b803dd72b2", "fusion_lat": 0.0, "fusion_lon": 0.0, "lon": -76.992577, "is_disabled": 0, "bike_id": "a26b28155c13bf0d411c77b803dd72b2", "is_reserved": 0, "rental_uris": {"android": "https://dc.lft.to/lastmile_qr_scan", "ios": "https://dc.lft.to/lastmile_qr_scan"}, "lat": 38.908340833333334}, {"type": "electric_bike", "name": "005ab891df012a577476c393842110e5", "fusion_lat": 0.0, "fusion_lon": 0.0, "lon": -76.98635283333333, "is_disabled": 0, "bike_id": "005ab891df012a577476c393842110e5", "is_reserved": 0, "rental_uris": {"android": "https://dc.lft.to/lastmile_qr_scan", "ios": "https://dc.lft.to/lastmile_qr_scan"}, "lat": 38.93686183333333}, {"type": "electric_scooter", "name": "efd993bec877ee021528b24e230b0ebf", "fusion_lat": 0.0, "fusion_lon": 0.0, "lon": -77.02937166666666, "is_disabled": 0, "bike_id": "efd993bec877ee021528b24e230b0ebf", "is_reserved": 0, "rental_uris": {"android": "https://dc.lft.to/lastmile_qr_scan", "ios": "https://dc.lft.to/lastmile_qr_scan"}, "lat": 38.907242833333335}, {"type": "electric_scooter", "name": "a4fde260b97829ae614d2ff92575242f", "fusion_lat": 0.0, "fusion_lon": 0.0, "lon": -77.052854, "is_disabled": 0, "bike_id": "a4fde260b97829ae614d2ff92575242f", "is_reserved": 0, "rental_uris": {"android": "https://dc.lft.to/lastmile_qr_scan", "ios": "https://dc.lft.to/lastmile_qr_scan"}, "lat": 38.9033865}, {"type": "electric_scooter", "name": "a2eb746c4df560e80fc7afdbcc90fc5f", "fusion_lat": 0.0, "fusion_lon": 0.0, "lon": -77.03337016666667, "is_disabled": 0, "bike_id": "a2eb746c4df560e80fc7afdbcc90fc5f", "is_reserved": 0, "rental_uris": {"android": "https://dc.lft.to/lastmile_qr_scan", "ios": "https://dc.lft.to/lastmile_qr_scan"}, "lat": 38.930343666666666}, {"type": "electric_scooter", "name": "9b27639551aee22f225290801f7ac327", "fusion_lat": 0.0, "fusion_lon": 0.0, "lon": -77.0613405, "is_disabled": 0, "bike_id": "9b27639551aee22f225290801f7ac327", "is_reserved": 0, "rental_uris": {"android": "https://dc.lft.to/lastmile_qr_scan", "ios": "https://dc.lft.to/lastmile_qr_scan"}, "lat": 38.94306666666667}, {"type": "electric_scooter", "name": "3e4df2e2e81fca1ee40c0c5a9d184ee8", "fusion_lat": 0.0, "fusion_lon": 0.0, "lon": -77.00750483333333, "is_disabled": 0, "bike_id": "3e4df2e2e81fca1ee40c0c5a9d184ee8", "is_reserved": 0, "rental_uris": {"android": "https://dc.lft.to/lastmile_qr_scan", "ios": "https://dc.lft.to/lastmile_qr_scan"}, "lat": 38.90472483333333}, {"type": "electric_scooter", "name": "92b98fa1490eebefdfa0a31c6818511c", "fusion_lat": 0.0, "fusion_lon": 0.0, "lon": -77.03377916666666, "is_disabled": 0, "bike_id": "92b98fa1490eebefdfa0a31c6818511c", "is_reserved": 0, "rental_uris": {"android": "https://dc.lft.to/lastmile_qr_scan", "ios": "https://dc.lft.to/lastmile_qr_scan"}, "lat": 38.899671833333336}, {"type": "electric_scooter", "name": "706e9b8383d553449c736548df13377d", "fusion_lat": 0.0, "fusion_lon": 0.0, "lon": -77.02692933333333, "is_disabled": 0, "bike_id": "706e9b8383d553449c736548df13377d", "is_reserved": 0, "rental_uris": {"android": "https://dc.lft.to/lastmile_qr_scan", "ios": "https://dc.lft.to/lastmile_qr_scan"}, "lat": 38.90669183333333}, {"type": "electric_scooter", "name": "4d73e4b1dfa976a06ad922aff7bbcf9c", "fusion_lat": 0.0, "fusion_lon": 0.0, "lon": -77.02300683333333, "is_disabled": 0, "bike_id": "4d73e4b1dfa976a06ad922aff7bbcf9c", "is_reserved": 0, "rental_uris": {"android": "https://dc.lft.to/lastmile_qr_scan", "ios": "https://dc.lft.to/lastmile_qr_scan"}, "lat": 38.901517166666665}, {"type": "electric_scooter", "name": "be166da2bffb3a5b5e208df70d791f03", "fusion_lat": 0.0, "fusion_lon": 0.0, "lon": -77.0418565, "is_disabled": 0, "bike_id": "be166da2bffb3a5b5e208df70d791f03", "is_reserved": 0, "rental_uris": {"android": "https://dc.lft.to/lastmile_qr_scan", "ios": "https://dc.lft.to/lastmile_qr_scan"}, "lat": 38.92328966666667}, {"type": "electric_scooter", "name": "70efd5bfea51e3df50c90e9161bd3484", "fusion_lat": 0.0, "fusion_lon": 0.0, "lon": -76.98338733333334, "is_disabled": 0, "bike_id": "70efd5bfea51e3df50c90e9161bd3484", "is_reserved": 0, "rental_uris": {"android": "https://dc.lft.to/lastmile_qr_scan", "ios": "https://dc.lft.to/lastmile_qr_scan"}, "lat": 38.900879}, {"type": "electric_scooter", "name": "f05de50f852c5dab48934d8632f47166", "fusion_lat": 0.0, "fusion_lon": 0.0, "lon": -77.01714716666666, "is_disabled": 0, "bike_id": "f05de50f852c5dab48934d8632f47166", "is_reserved": 0, "rental_uris": {"android": "https://dc.lft.to/lastmile_qr_scan", "ios": "https://dc.lft.to/lastmile_qr_scan"}, "lat": 38.91107016666667}, {"type": "electric_scooter", "name": "f971979c6e6a061f177568ba424ed1be", "fusion_lat": 0.0, "fusion_lon": 0.0, "lon": -77.01373533333333, "is_disabled": 0, "bike_id": "f971979c6e6a061f177568ba424ed1be", "is_reserved": 0, "rental_uris": {"android": "https://dc.lft.to/lastmile_qr_scan", "ios": "https://dc.lft.to/lastmile_qr_scan"}, "lat": 38.89913283333333}, {"type": "electric_scooter", "name": "5ac508e556c58ba72b9cfaf7fc3f0866", "fusion_lat": 0.0, "fusion_lon": 0.0, "lon": -77.01921266666666, "is_disabled": 0, "bike_id": "5ac508e556c58ba72b9cfaf7fc3f0866", "is_reserved": 0, "rental_uris": {"android": "https://dc.lft.to/lastmile_qr_scan", "ios": "https://dc.lft.to/lastmile_qr_scan"}, "lat": 38.92871816666667}, {"type": "electric_scooter", "name": "d9499565434c364b83090baf098ba0f3", "fusion_lat": 0.0, "fusion_lon": 0.0, "lon": -77.0238605, "is_disabled": 0, "bike_id": "d9499565434c364b83090baf098ba0f3", "is_reserved": 0, "rental_uris": {"android": "https://dc.lft.to/lastmile_qr_scan", "ios": "https://dc.lft.to/lastmile_qr_scan"}, "lat": 38.903421}, {"type": "electric_scooter", "name": "ed3d6b4e2bc1a084a1bec2aa1f7cbedb", "fusion_lat": 0.0, "fusion_lon": 0.0, "lon": -77.01113266666667, "is_disabled": 0, "bike_id": "ed3d6b4e2bc1a084a1bec2aa1f7cbedb", "is_reserved": 0, "rental_uris": {"android": "https://dc.lft.to/lastmile_qr_scan", "ios": "https://dc.lft.to/lastmile_qr_scan"}, "lat": 38.909674833333334}, {"type": "electric_scooter", "name": "87aa99c522b036dd495e29260013aeaa", "fusion_lat": 0.0, "fusion_lon": 0.0, "lon": -77.04802166666667, "is_disabled": 0, "bike_id": "87aa99c522b036dd495e29260013aeaa", "is_reserved": 0, "rental_uris": {"android": "https://dc.lft.to/lastmile_qr_scan", "ios": "https://dc.lft.to/lastmile_qr_scan"}, "lat": 38.91914966666667}, {"type": "electric_scooter", "name": "ffe62d60d61c0fbf42423d8752ce9098", "fusion_lat": 0.0, "fusion_lon": 0.0, "lon": -77.0316045, "is_disabled": 0, "bike_id": "ffe62d60d61c0fbf42423d8752ce9098", "is_reserved": 0, "rental_uris": {"android": "https://dc.lft.to/lastmile_qr_scan", "ios": "https://dc.lft.to/lastmile_qr_scan"}, "lat": 38.9593325}, {"type": "electric_scooter", "name": "994b025ac84025d887081f7cf62d40bc", "fusion_lat": 0.0, "fusion_lon": 0.0, "lon": -77.0228805, "is_disabled": 0, "bike_id": "994b025ac84025d887081f7cf62d40bc", "is_reserved": 0, "rental_uris": {"android": "https://dc.lft.to/lastmile_qr_scan", "ios": "https://dc.lft.to/lastmile_qr_scan"}, "lat": 38.91746366666667}, {"type": "electric_scooter", "name": "3ac175a886fc39886eabdfb2003c9864", "fusion_lat": 0.0, "fusion_lon": 0.0, "lon": -77.03957116666666, "is_disabled": 0, "bike_id": "3ac175a886fc39886eabdfb2003c9864", "is_reserved": 0, "rental_uris": {"android": "https://dc.lft.to/lastmile_qr_scan", "ios": "https://dc.lft.to/lastmile_qr_scan"}, "lat": 38.89248683333334}, {"type": "electric_scooter", "name": "1e04311d2f4e0ff51fb34c84491293fc", "fusion_lat": 0.0, "fusion_lon": 0.0, "lon": -77.03630666666666, "is_disabled": 0, "bike_id": "1e04311d2f4e0ff51fb34c84491293fc", "is_reserved": 0, "rental_uris": {"android": "https://dc.lft.to/lastmile_qr_scan", "ios": "https://dc.lft.to/lastmile_qr_scan"}, "lat": 38.9259285}, {"type": "electric_scooter", "name": "2129254d36140bacbc69c3d0f23ee4fb", "fusion_lat": 0.0, "fusion_lon": 0.0, "lon": -77.0257025, "is_disabled": 0, "bike_id": "2129254d36140bacbc69c3d0f23ee4fb", "is_reserved": 0, "rental_uris": {"android": "https://dc.lft.to/lastmile_qr_scan", "ios": "https://dc.lft.to/lastmile_qr_scan"}, "lat": 38.942}, {"type": "electric_scooter", "name": "8ba80e774d26f4cd888e182bd3c1f91b", "fusion_lat": 0.0, "fusion_lon": 0.0, "lon": -77.01844333333334, "is_disabled": 0, "bike_id": "8ba80e774d26f4cd888e182bd3c1f91b", "is_reserved": 0, "rental_uris": {"android": "https://dc.lft.to/lastmile_qr_scan", "ios": "https://dc.lft.to/lastmile_qr_scan"}, "lat": 38.909562666666666}, {"type": "electric_scooter", "name": "f6a2a14baaa8760afbe8d4d191b65930", "fusion_lat": 0.0, "fusion_lon": 0.0, "lon": -77.03271183333334, "is_disabled": 0, "bike_id": "f6a2a14baaa8760afbe8d4d191b65930", "is_reserved": 0, "rental_uris": {"android": "https://dc.lft.to/lastmile_qr_scan", "ios": "https://dc.lft.to/lastmile_qr_scan"}, "lat": 38.91994833333333}, {"type": "electric_scooter", "name": "b930948167ac4e160de17469fd2f37b6", "fusion_lat": 0.0, "fusion_lon": 0.0, "lon": -77.038483, "is_disabled": 0, "bike_id": "b930948167ac4e160de17469fd2f37b6", "is_reserved": 0, "rental_uris": {"android": "https://dc.lft.to/lastmile_qr_scan", "ios": "https://dc.lft.to/lastmile_qr_scan"}, "lat": 38.91664383333333}, {"type": "electric_scooter", "name": "564824a315b7163f2cbb1824a80b52a8", "fusion_lat": 0.0, "fusion_lon": 0.0, "lon": -77.0121245, "is_disabled": 0, "bike_id": "564824a315b7163f2cbb1824a80b52a8", "is_reserved": 0, "rental_uris": {"android": "https://dc.lft.to/lastmile_qr_scan", "ios": "https://dc.lft.to/lastmile_qr_scan"}, "lat": 38.918204833333334}, {"type": "electric_scooter", "name": "b3d9acb073e5e95f7ff1740b875f75e9", "fusion_lat": 0.0, "fusion_lon": 0.0, "lon": -77.02556483333333, "is_disabled": 0, "bike_id": "b3d9acb073e5e95f7ff1740b875f75e9", "is_reserved": 0, "rental_uris": {"android": "https://dc.lft.to/lastmile_qr_scan", "ios": "https://dc.lft.to/lastmile_qr_scan"}, "lat": 38.920934}, {"type": "electric_scooter", "name": "dd13c5317dcb86b4c1db6ee309e94f97", "fusion_lat": 0.0, "fusion_lon": 0.0, "lon": -77.03628983333333, "is_disabled": 0, "bike_id": "dd13c5317dcb86b4c1db6ee309e94f97", "is_reserved": 0, "rental_uris": {"android": "https://dc.lft.to/lastmile_qr_scan", "ios": "https://dc.lft.to/lastmile_qr_scan"}, "lat": 38.936847666666665}, {"type": "electric_scooter", "name": "8d52ebcf3ad13d5e3bfe83efac4f215f", "fusion_lat": 0.0, "fusion_lon": 0.0, "lon": -77.03962083333333, "is_disabled": 0, "bike_id": "8d52ebcf3ad13d5e3bfe83efac4f215f", "is_reserved": 0, "rental_uris": {"android": "https://dc.lft.to/lastmile_qr_scan", "ios": "https://dc.lft.to/lastmile_qr_scan"}, "lat": 38.93331}, {"type": "electric_scooter", "name": "b631a4bf9d9b2d7f1820990c29b7bdef", "fusion_lat": 0.0, "fusion_lon": 0.0, "lon": -77.05916583333334, "is_disabled": 0, "bike_id": "b631a4bf9d9b2d7f1820990c29b7bdef", "is_reserved": 0, "rental_uris": {"android": "https://dc.lft.to/lastmile_qr_scan", "ios": "https://dc.lft.to/lastmile_qr_scan"}, "lat": 38.902683333333336}, {"type": "electric_scooter", "name": "b38ae1d60c34f445bb8fe6a076de3f36", "fusion_lat": 0.0, "fusion_lon": 0.0, "lon": -77.0786675, "is_disabled": 0, "bike_id": "b38ae1d60c34f445bb8fe6a076de3f36", "is_reserved": 0, "rental_uris": {"android": "https://dc.lft.to/lastmile_qr_scan", "ios": "https://dc.lft.to/lastmile_qr_scan"}, "lat": 38.92462666666667}, {"type": "electric_scooter", "name": "b6c09985498c1b27803851326b013a14", "fusion_lat": 0.0, "fusion_lon": 0.0, "lon": -77.02601683333333, "is_disabled": 0, "bike_id": "b6c09985498c1b27803851326b013a14", "is_reserved": 0, "rental_uris": {"android": "https://dc.lft.to/lastmile_qr_scan", "ios": "https://dc.lft.to/lastmile_qr_scan"}, "lat": 38.91835666666667}, {"type": "electric_scooter", "name": "d6bc3e8c8c8a7057449bb4585e5e8704", "fusion_lat": 0.0, "fusion_lon": 0.0, "lon": -77.04506866666667, "is_disabled": 0, "bike_id": "d6bc3e8c8c8a7057449bb4585e5e8704", "is_reserved": 0, "rental_uris": {"android": "https://dc.lft.to/lastmile_qr_scan", "ios": "https://dc.lft.to/lastmile_qr_scan"}, "lat": 38.912732}, {"type": "electric_scooter", "name": "018d261774422ef5e5d975f7e9a007a2", "fusion_lat": 0.0, "fusion_lon": 0.0, "lon": -77.02229166666666, "is_disabled": 0, "bike_id": "018d261774422ef5e5d975f7e9a007a2", "is_reserved": 0, "rental_uris": {"android": "https://dc.lft.to/lastmile_qr_scan", "ios": "https://dc.lft.to/lastmile_qr_scan"}, "lat": 38.912682833333335}, {"type": "electric_scooter", "name": "b9ee329004b13583f9bb50e0e7c01ee0", "fusion_lat": 0.0, "fusion_lon": 0.0, "lon": -77.03190233333333, "is_disabled": 0, "bike_id": "b9ee329004b13583f9bb50e0e7c01ee0", "is_reserved": 0, "rental_uris": {"android": "https://dc.lft.to/lastmile_qr_scan", "ios": "https://dc.lft.to/lastmile_qr_scan"}, "lat": 38.9134545}, {"type": "electric_scooter", "name": "5a4d88d4b923aec77da57595b5fd0b33", "fusion_lat": 0.0, "fusion_lon": 0.0, "lon": -76.97133633333334, "is_disabled": 0, "bike_id": "5a4d88d4b923aec77da57595b5fd0b33", "is_reserved": 0, "rental_uris": {"android": "https://dc.lft.to/lastmile_qr_scan", "ios": "https://dc.lft.to/lastmile_qr_scan"}, "lat": 38.8786475}, {"type": "electric_scooter", "name": "f917f0dbf7a34502676ac93c161d2cf4", "fusion_lat": 0.0, "fusion_lon": 0.0, "lon": -77.068189, "is_disabled": 0, "bike_id": "f917f0dbf7a34502676ac93c161d2cf4", "is_reserved": 0, "rental_uris": {"android": "https://dc.lft.to/lastmile_qr_scan", "ios": "https://dc.lft.to/lastmile_qr_scan"}, "lat": 38.916633166666664}, {"type": "electric_scooter", "name": "7a8c860b102a6f5d1ffea2bbb9c72416", "fusion_lat": 0.0, "fusion_lon": 0.0, "lon": -77.0487585, "is_disabled": 0, "bike_id": "7a8c860b102a6f5d1ffea2bbb9c72416", "is_reserved": 0, "rental_uris": {"android": "https://dc.lft.to/lastmile_qr_scan", "ios": "https://dc.lft.to/lastmile_qr_scan"}, "lat": 38.89238866666667}, {"type": "electric_scooter", "name": "9a2f60c6417eda5df00aab10274a52f6", "fusion_lat": 0.0, "fusion_lon": 0.0, "lon": -76.98399083333334, "is_disabled": 0, "bike_id": "9a2f60c6417eda5df00aab10274a52f6", "is_reserved": 0, "rental_uris": {"android": "https://dc.lft.to/lastmile_qr_scan", "ios": "https://dc.lft.to/lastmile_qr_scan"}, "lat": 38.90508233333333}, {"type": "electric_scooter", "name": "fcda011c3b42ec16982f265064932859", "fusion_lat": 0.0, "fusion_lon": 0.0, "lon": -77.01999266666667, "is_disabled": 0, "bike_id": "fcda011c3b42ec16982f265064932859", "is_reserved": 0, "rental_uris": {"android": "https://dc.lft.to/lastmile_qr_scan", "ios": "https://dc.lft.to/lastmile_qr_scan"}, "lat": 38.876043833333334},