{"data": {"bikes": [{"name": "0399986baf35244c6540b9d0a683025c", "is_disabled": 0, "lat": 38.93770933333333, "rental_uris": {"ios": "https://dc.lft.to/lastmile_qr_scan", "android": "https://dc.lft.to/lastmile_qr_scan"}, "bike_id": "0399986baf35244c6540b9d0a683025c", "type": "electric_scooter", "lon": -77.03268233333333, "is_reserved": 0, "fusion_lat": 0.0, "fusion_lon": 0.0}, {"name": "a8e3a3170dc72772255694bf17cb3fae", "is_disabled": 0, "lat": 38.920874833333336, "rental_uris": {"ios": "https://dc.lft.to/lastmile_qr_scan", "android": "https://dc.lft.to/lastmile_qr_scan"}, "bike_id": "a8e3a3170dc72772255694bf17cb3fae", "type": "electric_scooter", "lon": -77.02512, "is_reserved": 0, "fusion_lat": 0.0, "fusion_lon": 0.0}, {"name": "6ab9b1027fb40aeea672423cfaef2f58", "is_disabled": 0, "lat": 38.919929333333336, "rental_uris": {"ios": "https://dc.lft.to/lastmile_qr_scan", "android": "https://dc.lft.to/lastmile_qr_scan"}, "bike_id": "6ab9b1027fb40aeea672423cfaef2f58", "type": "electric_scooter", "lon": -77.032863, "is_reserved": 0, "fusion_lat": 0.0, "fusion_lon": 0.0}, {"name": "7b6f6c5efcec9ce008aba1f6debd63d4", "is_disabled": 0, "lat": 38.91553666666667, "rental_uris": {"ios": "https://dc.lft.to/lastmile_qr_scan", "android": "https://dc.lft.to/lastmile_qr_scan"}, "bike_id": "7b6f6c5efcec9ce008aba1f6debd63d4", "type": "electric_scooter", "lon": -77.01053566666667, "is_reserved": 0, "fusion_lat": 0.0, "fusion_lon": 0.0}, {"name": "f867be3aec38856839b26e32083c8d72", "is_disabled": 0, "lat": 38.915466333333335, "rental_uris": {"ios": "https://dc.lft.to/lastmile_qr_scan", "android": "https://dc.lft.to/lastmile_qr_scan"}, "bike_id": "f867be3aec38856839b26e32083c8d72", "type": "electric_scooter", "lon": -77.03858483333333, "is_reserved": 0, "fusion_lat": 0.0, "fusion_lon": 0.0}, {"name": "0e37dd73153df609d4b5a45444b66ee9", "is_disabled": 0, "lat": 38.902835, "rental_uris": {"ios": "https://dc.lft.to/lastmile_qr_scan", "android": "https://dc.lft.to/lastmile_qr_scan"}, "bike_id": "0e37dd73153df609d4b5a45444b66ee9", "type": "electric_scooter", "lon": -77.00601816666666, "is_reserved": 0, "fusion_lat": 0.0, "fusion_lon": 0.0}, {"name": "713c58258a4b54e18757cc1a87429fd7", "is_disabled": 0, "lat": 38.911868, "rental_uris": {"ios": "https://dc.lft.to/lastmile_qr_scan", "android": "https://dc.lft.to/lastmile_qr_scan"}, "bike_id": "713c58258a4b54e18757cc1a87429fd7", "type": "electric_scooter", "lon": -77.0320415, "is_reserved": 0, "fusion_lat": 0.0, "fusion_lon": 0.0}, {"name": "db747eca4ff4d5fe0e274469e95c59a9", "is_disabled": 0, "lat": 38.907687833333334, "rental_uris": {"ios": "https://dc.lft.to/lastmile_qr_scan", "android": "https://dc.lft.to/lastmile_qr_scan"}, "bike_id": "db747eca4ff4d5fe0e274469e95c59a9", "type": "electric_scooter", "lon": -77.03211916666666, "is_reserved": 0, "fusion_lat": 0.0, "fusion_lon": 0.0}, {"name": "26dbe13028d02d717e34b3a1cd9c45da", "is_disabled": 0, "lat": 38.998377166666664, "rental_uris": {"ios": "https://dc.lft.to/lastmile_qr_scan", "android": "https://dc.lft.to/lastmile_qr_scan"}, "bike_id": "26dbe13028d02d717e34b3a1cd9c45da", "type": "electric_bike", "lon": -77.0265925, "is_reserved": 0, "fusion_lat": 0.0, "fusion_lon": 0.0}, {"name": "7f63c3efb3bd203d0678f996901c30e6", "is_disabled": 0, "lat": 38.90578033333333, "rental_uris": {"ios": "https://dc.lft.to/lastmile_qr_scan", "android": "https://dc.lft.to/lastmile_qr_scan"}, "bike_id": "7f63c3efb3bd203d0678f996901c30e6", "type": "electric_scooter", "lon": -77.04617933333333, "is_reserved": 0, "fusion_lat": 0.0, "fusion_lon": 0.0}, {"name": "9024450e609113874be756ec9788727a", "is_disabled": 0, "lat": 38.88723666666667, "rental_uris": {"ios": "https://dc.lft.to/lastmile_qr_scan", "android": "https://dc.lft.to/lastmile_qr_scan"}, "bike_id": "9024450e609113874be756ec9788727a", "type": "electric_scooter", "lon": -77.00325066666667, "is_reserved": 0, "fusion_lat": 0.0, "fusion_lon": 0.0}, {"name": "fe2f44e27a34c961f54ac517cbcdebe9", "is_disabled": 0, "lat": 38.920779, "rental_uris": {"ios": "https://dc.lft.to/lastmile_qr_scan", "android": "https://dc.lft.to/lastmile_qr_scan"}, "bike_id": "fe2f44e27a34c961f54ac517cbcdebe9", "type": "electric_bike", "lon": -76.98949916666666, "is_reserved": 0, "fusion_lat": 0.0, "fusion_lon": 0.0}, {"name": "81cf74e40e70c9750e746341d9134e91", "is_disabled": 0, "lat": 38.900149666666664, "rental_uris": {"ios": "https://dc.lft.to/lastmile_qr_scan", "android": "https://dc.lft.to/lastmile_qr_scan"}, "bike_id": "81cf74e40e70c9750e746341d9134e91", "type": "electric_scooter", "lon": -77.01193816666667, "is_reserved": 0, "fusion_lat": 0.0, "fusion_lon": 0.0}, {"name": "40965353bee491a7890a195d8afaa115", "is_disabled": 0, "lat": 38.90969833333333, "rental_uris": {"ios": "https://dc.lft.to/lastmile_qr_scan", "android": "https://dc.lft.to/lastmile_qr_scan"}, "bike_id": "40965353bee491a7890a195d8afaa115", "type": "electric_scooter", "lon": -77.02686, "is_reserved": 0, "fusion_lat": 0.0, "fusion_lon": 0.0}, {"name": "a1d343e3fcc1a5506e4aa9f044b270fd", "is_disabled": 0, "lat": 38.86041733333333, "rental_uris": {"ios": "https://dc.lft.to/lastmile_qr_scan", "android": "https://dc.lft.to/lastmile_qr_scan"}, "bike_id": "a1d343e3fcc1a5506e4aa9f044b270fd", "type": "electric_scooter", "lon": -77.003452, "is_reserved": 0, "fusion_lat": 0.0, "fusion_lon": 0.0}, {"name": "2d8bbb52132297ea966c049e8ac39da1", "is_disabled": 0, "lat": 38.885373, "rental_uris": {"ios": "https://dc.lft.to/lastmile_qr_scan", "android": "https://dc.lft.to/lastmile_qr_scan"}, "bike_id": "2d8bbb52132297ea966c049e8ac39da1", "type": "electric_scooter", "lon": -76.97888866666666, "is_reserved": 0, "fusion_lat": 0.0, "fusion_lon": 0.0}, {"name": "b60f119506173c23cd6ea5c6e612904d", "is_disabled": 0, "lat": 38.88740816666667, "rental_uris": {"ios": "https://dc.lft.to/lastmile_qr_scan", "android": "https://dc.lft.to/lastmile_qr_scan"}, "bike_id": "b60f119506173c23cd6ea5c6e612904d", "type": "electric_scooter", "lon": -77.01786633333333, "is_reserved": 0, "fusion_lat": 0.0, "fusion_lon": 0.0}, {"name": "f52fb1b96ced1f8ee0d624e2e93c872f", "is_disabled": 0, "lat": 38.922451, "rental_uris": {"ios": "https://dc.lft.to/lastmile_qr_scan", "android": "https://dc.lft.to/lastmile_qr_scan"}, "bike_id": "f52fb1b96ced1f8ee0d624e2e93c872f", "type": "electric_scooter", "lon": -77.0195305, "is_reserved": 0, "fusion_lat": 0.0, "fusion_lon": 0.0}, {"name": "38c89e349249e55c2ead4fb41a671c45", "is_disabled": 0, "lat": 38.90172783333333, "rental_uris": {"ios": "https://dc.lft.to/lastmile_qr_scan", "android": "https://dc.lft.to/lastmile_qr_scan"}, "bike_id": "38c89e349249e55c2ead4fb41a671c45", "type": "electric_scooter", "lon": -77.02498266666667, "is_reserved": 0, "fusion_lat": 0.0, "fusion_lon": 0.0}, {"name": "740e268b042fbd29cd3824adfb6d0358", "is_disabled": 0, "lat": 38.900616666666664, "rental_uris": {"ios": "https://dc.lft.to/lastmile_qr_scan", "android": "https://dc.lft.to/lastmile_qr_scan"}, "bike_id": "740e268b042fbd29cd3824adfb6d0358", "type": "electric_scooter", "lon": -76.9338685, "is_reserved": 0, "fusion_lat": 0.0, "fusion_lon": 0.0}, {"name": "0d90c21665ae7059c6f21f89a7445325", "is_disabled": 0, "lat": 38.88113166666667, "rental_uris": {"ios": "https://dc.lft.to/lastmile_qr_scan", "android": "https://dc.lft.to/lastmile_qr_scan"}, "bike_id": "0d90c21665ae7059c6f21f89a7445325", "type": "electric_bike", "lon": -76.9871085, "is_reserved": 0, "fusion_lat": 0.0, "fusion_lon": 0.0}, {"name": "758080549cef5a0690b7d69cee427fbc", "is_disabled": 0, "lat": 38.89707416666667, "rental_uris": {"ios": "https://dc.lft.to/lastmile_qr_scan", "android": "https://dc.lft.to/lastmile_qr_scan"}, "bike_id": "758080549cef5a0690b7d69cee427fbc", "type": "electric_scooter", "lon": -77.02740333333334, "is_reserved": 0, "fusion_lat": 0.0, "fusion_lon": 0.0}, {"name": "bf28f3ef86cba54077e855bbfd9b100b", "is_disabled": 0, "lat": 38.90509216666667, "rental_uris": {"ios": "https://dc.lft.to/lastmile_qr_scan", "android": "https://dc.lft.to/lastmile_qr_scan"}, "bike_id": "bf28f3ef86cba54077e855bbfd9b100b", "type": "electric_scooter", "lon": -77.04822216666666, "is_reserved": 0, "fusion_lat": 0.0, "fusion_lon": 0.0}, {"name": "d8c07c140ce2d054ccb883a7e785f3a2", "is_disabled": 0, "lat": 38.90223566666667, "rental_uris": {"ios": "https://dc.lft.to/lastmile_qr_scan", "android": "https://dc.lft.to/lastmile_qr_scan"}, "bike_id": "d8c07c140ce2d054ccb883a7e785f3a2", "type": "electric_scooter", "lon": -77.0161425, "is_reserved": 0, "fusion_lat": 0.0, "fusion_lon": 0.0}, {"name": "ad5c94acff78419383b4a091986ef5e5", "is_disabled": 0, "lat": 38.87659933333333, "rental_uris": {"ios": "https://dc.lft.to/lastmile_qr_scan", "android": "https://dc.lft.to/lastmile_qr_scan"}, "bike_id": "ad5c94acff78419383b4a091986ef5e5", "type": "electric_scooter", "lon": -77.00083283333333, "is_reserved": 0, "fusion_lat": 0.0, "fusion_lon": 0.0}, {"name": "4fb015eaa92585cddc4ebd3caf803019", "is_disabled": 0, "lat": 38.90387883333333, "rental_uris": {"ios": "https://dc.lft.to/lastmile_qr_scan", "android": "https://dc.lft.to/lastmile_qr_scan"}, "bike_id": "4fb015eaa92585cddc4ebd3caf803019", "type": "electric_scooter", "lon": -77.03208233333334, "is_reserved": 0, "fusion_lat": 0.0, "fusion_lon": 0.0}, {"name": "ba092efd0bcd190d4d864667a67e854a", "is_disabled": 0, "lat": 38.917495833333334, "rental_uris": {"ios": "https://dc.lft.to/lastmile_qr_scan", "android": "https://dc.lft.to/lastmile_qr_scan"}, "bike_id": "ba092efd0bcd190d4d864667a67e854a", "type": "electric_scooter", "lon": -77.04167466666667, "is_reserved": 0, "fusion_lat": 0.0, "fusion_lon": 0.0}, {"name": "2632eb508b9af15fb13470aa51e6a9c5", "is_disabled": 0, "lat": 38.90727283333333, "rental_uris": {"ios": "https://dc.lft.to/lastmile_qr_scan", "android": "https://dc.lft.to/lastmile_qr_scan"}, "bike_id": "2632eb508b9af15fb13470aa51e6a9c5", "type": "electric_scooter", "lon": -77.04321416666667, "is_reserved": 0, "fusion_lat": 0.0, "fusion_lon": 0.0}, {"name": "6083d50e5d21b6f5235f1e98d1dcb843", "is_disabled": 0, "lat": 38.896485166666665, "rental_uris": {"ios": "https://dc.lft.to/lastmile_qr_scan", "android": "https://dc.lft.to/lastmile_qr_scan"}, "bike_id": "6083d50e5d21b6f5235f1e98d1dcb843", "type": "electric_scooter", "lon": -77.0259555, "is_reserved": 0, "fusion_lat": 0.0, "fusion_lon": 0.0}, {"name": "b039c9af37b89bca5887d04641c81650", "is_disabled": 0, "lat": 38.903946833333336, "rental_uris": {"ios": "https://dc.lft.to/lastmile_qr_scan", "android": "https://dc.lft.to/lastmile_qr_scan"}, "bike_id": "b039c9af37b89bca5887d04641c81650", "type": "electric_scooter", "lon": -77.04309033333334, "is_reserved": 0, "fusion_lat": 0.0, "fusion_lon": 0.0}, {"name": "01456c42226eaa5f0940f847f76f2e75", "is_disabled": 0, "lat": 38.92372833333334, "rental_uris": {"ios": "https://dc.lft.to/lastmile_qr_scan", "android": "https://dc.lft.to/lastmile_qr_scan"}, "bike_id": "01456c42226eaa5f0940f847f76f2e75", "type": "electric_scooter", "lon": -77.03523016666666, "is_reserved": 0, "fusion_lat": 0.0, "fusion_lon": 0.0}, {"name": "0b90d7d1abab1b9d8cc0b07f52797f05", "is_disabled": 0, "lat": 38.877545833333336, "rental_uris": {"ios": "https://dc.lft.to/lastmile_qr_scan", "android": "https://dc.lft.to/lastmile_qr_scan"}, "bike_id": "0b90d7d1abab1b9d8cc0b07f52797f05", "type": "electric_scooter", "lon": -77.00595233333334, "is_reserved": 0, "fusion_lat": 0.0, "fusion_lon": 0.0}, {"name": "3efe1f52f3849bd455599627653913c1", "is_disabled": 0, "lat": 38.9214775, "rental_uris": {"ios": "https://dc.lft.to/lastmile_qr_scan", "android": "https://dc.lft.to/lastmile_qr_scan"}, "bike_id": "3efe1f52f3849bd455599627653913c1", "type": "electric_scooter", "lon": -76.993573, "is_reserved": 0, "fusion_lat": 0.0, "fusion_lon": 0.0}, {"name": "1ee8221a8ae13052b0fc8aa05de2255e", "is_disabled": 0, "lat": 38.9031455, "rental_uris": {"ios": "https://dc.lft.to/lastmile_qr_scan", "android": "https://dc.lft.to/lastmile_qr_scan"}, "bike_id": "1ee8221a8ae13052b0fc8aa05de2255e", "type": "electric_scooter", "lon": -77.0417765, "is_reserved": 0, "fusion_lat": 0.0, "fusion_lon": 0.0}, {"name": "4892a2e2c434380609be9442ab5f49f4", "is_disabled": 0, "lat": 38.89831, "rental_uris": {"ios": "https://dc.lft.to/lastmile_qr_scan", "android": "https://dc.lft.to/lastmile_qr_scan"}, "bike_id": "4892a2e2c434380609be9442ab5f49f4", "type": "electric_scooter", "lon": -76.946365, "is_reserved": 0, "fusion_lat": 0.0, "fusion_lon": 0.0}, {"name": "65da16b98d3d6cfb06cc691afc2f46bf", "is_disabled": 0, "lat": 38.892240666666666, "rental_uris": {"ios": "https://dc.lft.to/lastmile_qr_scan", "android": "https://dc.lft.to/lastmile_qr_scan"}, "bike_id": "65da16b98d3d6cfb06cc691afc2f46bf", "type": "electric_scooter", "lon": -77.03221466666666, "is_reserved": 0, "fusion_lat": 0.0, "fusion_lon": 0.0}, {"name": "31ae4784a484ae3ba26dce7505536389", "is_disabled": 0, "lat": 38.923655833333335, "rental_uris": {"ios": "https://dc.lft.to/lastmile_qr_scan", "android": "https://dc.lft.to/lastmile_qr_scan"}, "bike_id": "31ae4784a484ae3ba26dce7505536389", "type": "electric_scooter", "lon": -77.02969316666666, "is_reserved": 0, "fusion_lat": 0.0, "fusion_lon": 0.0}, {"name": "1dcca486c733a8223017de2278143a9b", "is_disabled": 0, "lat": 38.902786666666664, "rental_uris": {"ios": "https://dc.lft.to/lastmile_qr_scan", "android": "https://dc.lft.to/lastmile_qr_scan"}, "bike_id": "1dcca486c733a8223017de2278143a9b", "type": "electric_scooter", "lon": -77.0365385, "is_reserved": 0, "fusion_lat": 0.0, "fusion_lon": 0.0}, {"name": "c2f3597f01e9185738b308f5f00ad337", "is_disabled": 0, "lat": 38.92289866666667, "rental_uris": {"ios": "https://dc.lft.to/lastmile_qr_scan", "android": "https://dc.lft.to/lastmile_qr_scan"}, "bike_id": "c2f3597f01e9185738b308f5f00ad337", "type": "electric_scooter", "lon": -77.04150416666667, "is_reserved": 0, "fusion_lat": 0.0, "fusion_lon": 0.0}, {"name": "f2d78834e92d44ee7dea2528c0bf0d27", "is_disabled": 0, "lat": 38.844228, "rental_uris": {"ios": "https://dc.lft.to/lastmile_qr_scan", "android": "https://dc.lft.to/lastmile_qr_scan"}, "bike_id": "f2d78834e92d44ee7dea2528c0bf0d27", "type": "electric_scooter", "lon": -76.9978365, "is_reserved": 0, "fusion_lat": 0.0, "fusion_lon": 0.0}, {"name": "ade642309cafc8c0acfedbd404e003c1", "is_disabled": 0, "lat": 38.931305333333334, "rental_uris": {"ios": "https://dc.lft.to/lastmile_qr_scan", "android": "https://dc.lft.to/lastmile_qr_scan"}, "bike_id": "ade642309cafc8c0acfedbd404e003c1", "type": "electric_scooter", "lon": -77.03663, "is_reserved": 0, "fusion_lat": 0.0, "fusion_lon": 0.0}, {"name": "e2227961d4a339d90b78bd1dbfa3adc9", "is_disabled": 0, "lat": 38.892371, "rental_uris": {"ios": "https://dc.lft.to/lastmile_qr_scan", "android": "https://dc.lft.to/lastmile_qr_scan"}, "bike_id": "e2227961d4a339d90b78bd1dbfa3adc9", "type": "electric_scooter", "lon": -77.03187183333333, "is_reserved": 0, "fusion_lat": 0.0, "fusion_lon": 0.0}, {"name": "bca5c2011ea565d07e43b6fbcdaf71d2", "is_disabled": 0, "lat": 38.877023666666666, "rental_uris": {"ios": "https://dc.lft.to/lastmile_qr_scan", "android": "https://dc.lft.to/lastmile_qr_scan"}, "bike_id": "bca5c2011ea565d07e43b6fbcdaf71d2", "type": "electric_scooter", "lon": -77.0073255, "is_reserved": 0, "fusion_lat": 0.0, "fusion_lon": 0.0}, {"name": "af2f4e98b546807950060c72af09bc28", "is_disabled": 0, "lat": 38.9348065, "rental_uris": {"ios": "https://dc.lft.to/lastmile_qr_scan", "android": "https://dc.lft.to/lastmile_qr_scan"}, "bike_id": "af2f4e98b546807950060c72af09bc28", "type": "electric_scooter", "lon": -77.07266333333334, "is_reserved": 0, "fusion_lat": 0.0, "fusion_lon": 0.0}, {"name": "b03079fd8279443c7eb77a69ff63a5c8", "is_disabled": 0, "lat": 38.8975595, "rental_uris": {"ios": "https://dc.lft.to/lastmile_qr_scan", "android": "https://dc.lft.to/lastmile_qr_scan"}, "bike_id": "b03079fd8279443c7eb77a69ff63a5c8", "type": "electric_scooter", "lon": -77.02217316666666, "is_reserved": 0, "fusion_lat": 0.0, "fusion_lon": 0.0}, {"name": "84d6fde8b9c2a4a1afd35a5de87032cf", "is_disabled": 0, "lat": 38.8786885, "rental_uris": {"ios": "https://dc.lft.to/lastmile_qr_scan", "android": "https://dc.lft.to/lastmile_qr_scan"}, "bike_id": "84d6fde8b9c2a4a1afd35a5de87032cf", "type": "electric_scooter", "lon": -76.9996005, "is_reserved": 0, "fusion_lat": 0.0, "fusion_lon": 0.0}, {"name": "a994cf1e27d2b913a255d04610bb8b77", "is_disabled": 0, "lat": 38.912471333333336, "rental_uris": {"ios": "https://dc.lft.to/lastmile_qr_scan", "android": "https://dc.lft.to/lastmile_qr_scan"}, "bike_id": "a994cf1e27d2b913a255d04610bb8b77", "type": "electric_scooter", "lon": -77.03158833333333, "is_reserved": 0, "fusion_lat": 0.0, "fusion_lon": 0.0}, {"name": "72bd2770efa7a0b2085e6a6c75d98877", "is_disabled": 0, "lat": 38.9613165, "rental_uris": {"ios": "https://dc.lft.to/lastmile_qr_scan", "android": "https://dc.lft.to/lastmile_qr_scan"}, "bike_id": "72bd2770efa7a0b2085e6a6c75d98877", "type": "electric_scooter", "lon": -77.00974416666666, "is_reserved": 0, "fusion_lat": 0.0, "fusion_lon": 0.0}, {"name": "d597e122197637afaa18b9d9f69a2cf2", "is_disabled": 0, "lat": 38.9247945, "rental_uris": {"ios": "https://dc.lft.to/lastmile_qr_scan", "android": "https://dc.lft.to/lastmile_qr_scan"}, "bike_id": "d597e122197637afaa18b9d9f69a2cf2", "type": "electric_scooter", "lon": -77.02596683333333, "is_reserved": 0, "fusion_lat": 0.0, "fusion_lon": 0.0}, {"name": "97396a314c6e4aa229195061662f429d", "is_disabled": 0, "lat": 38.911295833333334, "rental_uris": {"ios": "https://dc.lft.to/lastmile_qr_scan", "android": "https://dc.lft.to/lastmile_qr_scan"}, "bike_id": "97396a314c6e4aa229195061662f429d", "type": "electric_scooter", "lon": -77.06538466666667, "is_reserved": 0, "fusion_lat": 0.0, "fusion_lon": 0.0}, {"name": "a7531f00c1403fd8f93ec017989902a4", "is_disabled": 0, "lat": 38.89775733333333, "rental_uris": {"ios": "https://dc.lft.to/lastmile_qr_scan", "android": "https://dc.lft.to/lastmile_qr_scan"}, "bike_id": "a7531f00c1403fd8f93ec017989902a4", "type": "electric_bike", "lon": -77.02739366666667, "is_reserved": 0, "fusion_lat": 0.0, "fusion_lon": 0.0}, {"name": "7a051a8ce966f75c449757975fb3b535", "is_disabled": 0, "lat": 38.90285266666667, "rental_uris": {"ios": "https://dc.lft.to/lastmile_qr_scan", "android": "https://dc.lft.to/lastmile_qr_scan"}, "bike_id": "7a051a8ce966f75c449757975fb3b535", "type": "electric_scooter", "lon": -77.04626033333334, "is_reserved": 0, "fusion_lat": 0.0, "fusion_lon": 0.0}, {"name": "7c554e8e60eb13e048301e65205ce1e3", "is_disabled": 0, "lat": 38.905552166666666, "rental_uris": {"ios": "https://dc.lft.to/lastmile_qr_scan", "android": "https://dc.lft.to/lastmile_qr_scan"}, "bike_id": "7c554e8e60eb13e048301e65205ce1e3", "type": "electric_scooter", "lon": -77.00593083333334, "is_reserved": 0, "fusion_lat": 0.0, "fusion_lon": 0.0}, {"name": "a86b8d1120980d2466415b965e9e4892", "is_disabled": 0, "lat": 38.9122285, "rental_uris": {"ios": "https://dc.lft.to/lastmile_qr_scan", "android": "https://dc.lft.to/lastmile_qr_scan"}, "bike_id": "a86b8d1120980d2466415b965e9e4892", "type": "electric_scooter", "lon": -77.03203083333334, "is_reserved": 0, "fusion_lat": 0.0, "fusion_lon": 0.0}, {"name": "dc9538fb0121045c0165d05a7297afea", "is_disabled": 0, "lat": 38.8861485, "rental_uris": {"ios": "https://dc.lft.to/lastmile_qr_scan", "android": "https://dc.lft.to/lastmile_qr_scan"}, "bike_id": "dc9538fb0121045c0165d05a7297afea", "type": "electric_scooter", "lon": -76.99542166666667, "is_reserved": 0, "fusion_lat": 0.0, "fusion_lon": 0.0}, {"name": "cec2f3f759d14d5e34ab81fa443de41a", "is_disabled": 0, "lat": 38.903051833333336, "rental_uris": {"ios": "https://dc.lft.to/lastmile_qr_scan", "android": "https://dc.lft.to/lastmile_qr_scan"}, "bike_id": "cec2f3f759d14d5e34ab81fa443de41a", "type": "electric_scooter", "lon": -77.04882216666667, "is_reserved": 0, "fusion_lat": 0.0, "fusion_lon": 0.0}, {"name": "465917d610d492dcfd44eca972545c40", "is_disabled": 0, "lat": 38.905323833333334, "rental_uris": {"ios": "https://dc.lft.to/lastmile_qr_scan", "android": "https://dc.lft.to/lastmile_qr_scan"}, "bike_id": "465917d610d492dcfd44eca972545c40", "type": "electric_scooter", "lon": -77.065198, "is_reserved": 0, "fusion_lat": 0.0, "fusion_lon": 0.0}, {"name": "d96b280da44df2f5b73cf76573ac6b63", "is_disabled": 0, "lat": 38.884086333333336, "rental_uris": {"ios": "https://dc.lft.to/lastmile_qr_scan", "android": "https://dc.lft.to/lastmile_qr_scan"}, "bike_id": "d96b280da44df2f5b73cf76573ac6b63", "type": "electric_scooter", "lon": -76.94215133333333, "is_reserved": 0, "fusion_lat": 0.0, "fusion_lon": 0.0}, {"name": "6e007701a25c35439f3fb55dc7a065c1", "is_disabled": 0, "lat": 38.923412666666664, "rental_uris": {"ios": "https://dc.lft.to/lastmile_qr_scan", "android": "https://dc.lft.to/lastmile_qr_scan"}, "bike_id": "6e007701a25c35439f3fb55dc7a065c1", "type": "electric_scooter", "lon": -77.05172983333334, "is_reserved": 0, "fusion_lat": 0.0, "fusion_lon": 0.0}, {"name": "b5defea470d2b922c8c208c7e849d74f", "is_disabled": 0, "lat": 38.87553, "rental_uris": {"ios": "https://dc.lft.to/lastmile_qr_scan", "android": "https://dc.lft.to/lastmile_qr_scan"}, "bike_id": "b5defea470d2b922c8c208c7e849d74f", "type": "electric_scooter", "lon": -77.00588683333334, "is_reserved": 0, "fusion_lat": 0.0, "fusion_lon": 0.0}, {"name": "9c729a46caba465a42ed3247f3f6023a", "is_disabled": 0, "lat": 38.88726916666667, "rental_uris": {"ios": "https://dc.lft.to/lastmile_qr_scan", "android": "https://dc.lft.to/lastmile_qr_scan"}, "bike_id": "9c729a46caba465a42ed3247f3f6023a", "type": "electric_scooter", "lon": -76.98361133333333, "is_reserved": 0, "fusion_lat": 0.0, "fusion_lon": 0.0}, {"name": "cb9ac458934feedf0c64ab04ce964ac2", "is_disabled": 0, "lat": 38.90041316666667, "rental_uris": {"ios": "https://dc.lft.to/lastmile_qr_scan", "android": "https://dc.lft.to/lastmile_qr_scan"}, "bike_id": "cb9ac458934feedf0c64ab04ce964ac2", "type": "electric_scooter", "lon": -77.025974, "is_reserved": 0, "fusion_lat": 0.0, "fusion_lon": 0.0}, {"name": "21fa921b028c602720ec89415b2cca29", "is_disabled": 0, "lat": 38.927028166666666, "rental_uris": {"ios": "https://dc.lft.to/lastmile_qr_scan", "android": "https://dc.lft.to/lastmile_qr_scan"}, "bike_id": "21fa921b028c602720ec89415b2cca29", "type": "electric_bike", "lon": -77.07344666666667, "is_reserved": 0, "fusion_lat": 0.0, "fusion_lon": 0.0}, {"name": "251814f6cab921cf4918d249975658ef", "is_disabled": 0, "lat": 38.89526433333333, "rental_uris": {"ios": "https://dc.lft.to/lastmile_qr_scan", "android": "https://dc.lft.to/lastmile_qr_scan"}, "bike_id": "251814f6cab921cf4918d249975658ef", "type": "electric_scooter", "lon": -77.044845, "is_reserved": 0, "fusion_lat": 0.0, "fusion_lon": 0.0}, {"name": "e0619a5df0bf477b68c5b953cdeae177", "is_disabled": 0, "lat": 38.91953216666667, "rental_uris": {"ios": "https://dc.lft.to/lastmile_qr_scan", "android": "https://dc.lft.to/lastmile_qr_scan"}, "bike_id": "e0619a5df0bf477b68c5b953cdeae177", "type": "electric_scooter", "lon": -77.02383666666667, "is_reserved": 0, "fusion_lat": 0.0, "fusion_lon": 0.0}, {"name": "ed142379bb152707e9b051d2d9307d99", "is_disabled": 0, "lat": 38.863165, "rental_uris": {"ios": "https://dc.lft.to/lastmile_qr_scan", "android": "https://dc.lft.to/lastmile_qr_scan"}, "bike_id": "ed142379bb152707e9b051d2d9307d99", "type": "electric_bike", "lon": -76.9871235, "is_reserved": 0, "fusion_lat": 0.0, "fusion_lon": 0.0}, {"name": "9e1f398db593a10d2b8c6e796635abfa", "is_disabled": 0, "lat": 38.898588333333336, "rental_uris": {"ios": "https://dc.lft.to/lastmile_qr_scan", "android": "https://dc.lft.to/lastmile_qr_scan"}, "bike_id": "9e1f398db593a10d2b8c6e796635abfa", "type": "electric_scooter", "lon": -77.029787, "is_reserved": 0, "fusion_lat": 0.0, "fusion_lon": 0.0}, {"name": "0678512712758d1dce332340c0b3c11d", "is_disabled": 0, "lat": 38.95482116666667, "rental_uris": {"ios": "https://dc.lft.to/lastmile_qr_scan", "android": "https://dc.lft.to/lastmile_qr_scan"}, "bike_id": "0678512712758d1dce332340c0b3c11d", "type": "electric_bike", "lon": -77.02673533333333, "is_reserved": 0, "fusion_lat": 0.0, "fusion_lon": 0.0}, {"name": "91645ccafcab37edb5b2ed257ac370c8", "is_disabled": 0, "lat": 38.9025785, "rental_uris": {"ios": "https://dc.lft.to/lastmile_qr_scan", "android": "https://dc.lft.to/lastmile_qr_scan"}, "bike_id": "91645ccafcab37edb5b2ed257ac370c8", "type": "electric_scooter", "lon": -77.01878566666667, "is_reserved": 0, "fusion_lat": 0.0, "fusion_lon": 0.0}, {"name": "07e207c7e50b3354aed8500aadcc538c", "is_disabled": 0, "lat": 38.926755, "rental_uris": {"ios": "https://dc.lft.to/lastmile_qr_scan", "android": "https://dc.lft.to/lastmile_qr_scan"}, "bike_id": "07e207c7e50b3354aed8500aadcc538c", "type": "electric_scooter", "lon": -77.02587266666667, "is_reserved": 0, "fusion_lat": 0.0, "fusion_lon": 0.0}, {"name": "e163c82277d33b9f86aa13596580b232", "is_disabled": 0, "lat": 38.908368833333334, "rental_uris": {"ios": "https://dc.lft.to/lastmile_qr_scan", "android": "https://dc.lft.to/lastmile_qr_scan"}, "bike_id": "e163c82277d33b9f86aa13596580b232", "type": "electric_scooter", "lon": -77.06358483333334, "is_reserved": 0, "fusion_lat": 0.0, "fusion_lon": 0.0}, {"name": "abcb2f2741c24dac722dec2e6aee10cd", "is_disabled": 0, "lat": 38.924604, "rental_uris": {"ios": "https://dc.lft.to/lastmile_qr_scan", "android": "https://dc.lft.to/lastmile_qr_scan"}, "bike_id": "abcb2f2741c24dac722dec2e6aee10cd", "type": "electric_scooter", "lon": -77.039469, "is_reserved": 0, "fusion_lat": 0.0, "fusion_lon": 0.0}, {"name": "f5ec45176e7fde090c921c2f57de428b", "is_disabled": 0, "lat": 38.89983983333333, "rental_uris": {"ios": "https://dc.lft.to/lastmile_qr_scan", "android": "https://dc.lft.to/lastmile_qr_scan"}, "bike_id": "f5ec45176e7fde090c921c2f57de428b", "type": "electric_scooter", "lon": -77.02077633333333, "is_reserved": 0, "fusion_lat": 0.0, "fusion_lon": 0.0}, {"name": "162609b2fa8aaf2a86c6c420f936bad2", "is_disabled": 0, "lat": 38.932573166666664, "rental_uris": {"ios": "https://dc.lft.to/lastmile_qr_scan", "android": "https://dc.lft.to/lastmile_qr_scan"}, "bike_id": "162609b2fa8aaf2a86c6c420f936bad2", "type": "electric_scooter", "lon": -76.98902, "is_reserved": 0, "fusion_lat": 0.0, "fusion_lon": 0.0}, {"name": "94ae246cf3ff945fd2a3cdd22d04b931", "is_disabled": 0, "lat": 38.88646716666667, "rental_uris": {"ios": "https://dc.lft.to/lastmile_qr_scan", "android": "https://dc.lft.to/lastmile_qr_scan"}, "bike_id": "94ae246cf3ff945fd2a3cdd22d04b931", "type": "electric_scooter", "lon": -77.01996283333334, "is_reserved": 0, "fusion_lat": 0.0, "fusion_lon": 0.0}, {"name": "9c06bd7edcb02ac73a1c55009236ad92", "is_disabled": 0, "lat": 38.908657166666664, "rental_uris": {"ios": "https://dc.lft.to/lastmile_qr_scan", "android": "https://dc.lft.to/lastmile_qr_scan"}, "bike_id": "9c06bd7edcb02ac73a1c55009236ad92", "type": "electric_scooter", "lon": -77.03842733333333, "is_reserved": 0, "fusion_lat": 0.0, "fusion_lon": 0.0}, {"name": "5e6fbda49d85ec3d454148ed033b5b7f", "is_disabled": 0, "lat": 38.890246166666664, "rental_uris": {"ios": "https://dc.lft.to/lastmile_qr_scan", "android": "https://dc.lft.to/lastmile_qr_scan"}, "bike_id": "5e6fbda49d85ec3d454148ed033b5b7f", "type": "electric_scooter", "lon": -76.93750416666667, "is_reserved": 0, "fusion_lat": 0.0, "fusion_lon": 0.0}, {"name": "a7c765ef85fbc3998bfeb74c3bf792ff", "is_disabled": 0, "lat": 38.9173275, "rental_uris": {"ios": "https://dc.lft.to/lastmile_qr_scan", "android": "https://dc.lft.to/lastmile_qr_scan"}, "bike_id": "a7c765ef85fbc3998bfeb74c3bf792ff", "type": "electric_scooter", "lon": -77.041731, "is_reserved": 0, "fusion_lat": 0.0, "fusion_lon": 0.0}, {"name": "3bc5667f54a36314fec9419f649c01fc", "is_disabled": 0, "lat": 38.799827, "rental_uris": {"ios": "https://dc.lft.to/lastmile_qr_scan", "android": "https://dc.lft.to/lastmile_qr_scan"}, "bike_id": "3bc5667f54a36314fec9419f649c01fc", "type": "electric_bike", "lon": -77.12979883333334, "is_reserved": 0, "fusion_lat": 0.0, "fusion_lon": 0.0}, {"name": "a13ae51525dbed170a78945cc1dcd6e6", "is_disabled": 0, "lat": 38.872077166666664, "rental_uris": {"ios": "https://dc.lft.to/lastmile_qr_scan", "android": "https://dc.lft.to/lastmile_qr_scan"}, "bike_id": "a13ae51525dbed170a78945cc1dcd6e6", "type": "electric_scooter", "lon": -77.0167845, "is_reserved": 0, "fusion_lat": 0.0, "fusion_lon": 0.0}, {"name": "304a8693ce9c582cc2e8aa9b46562476", "is_disabled": 0, "lat": 38.9090955, "rental_uris": {"ios": "https://dc.lft.to/lastmile_qr_scan", "android": "https://dc.lft.to/lastmile_qr_scan"}, "bike_id": "304a8693ce9c582cc2e8aa9b46562476", "type": "electric_scooter", "lon": -77.0642175, "is_reserved": 0, "fusion_lat": 0.0, "fusion_lon": 0.0}, {"name": "bbd10a7c11a2385d32644b3c623c96eb", "is_disabled": 0, "lat": 38.89278616666667, "rental_uris": {"ios": "https://dc.lft.to/lastmile_qr_scan", "android": "https://dc.lft.to/lastmile_qr_scan"}, "bike_id": "bbd10a7c11a2385d32644b3c623c96eb", "type": "electric_scooter", "lon": -77.01222116666666, "is_reserved": 0, "fusion_lat": 0.0, "fusion_lon": 0.0}, {"name": "98a631bc25b5b6db22619b17cbe318b9", "is_disabled": 0, "lat": 38.921488333333336, "rental_uris": {"ios": "https://dc.lft.to/lastmile_qr_scan", "android": "https://dc.lft.to/lastmile_qr_scan"}, "bike_id": "98a631bc25b5b6db22619b17cbe318b9", "type": "electric_scooter", "lon": -77.038703, "is_reserved": 0, "fusion_lat": 0.0, "fusion_lon": 0.0}, {"name": "978ec67beccaf617525938a4b2ce536e", "is_disabled": 0, "lat": 38.917671166666665, "rental_uris": {"ios": "https://dc.lft.to/lastmile_qr_scan", "android": "https://dc.lft.to/lastmile_qr_scan"}, "bike_id": "978ec67beccaf617525938a4b2ce536e", "type": "electric_scooter", "lon": -77.0319605, "is_reserved": 0, "fusion_lat": 0.0, "fusion_lon": 0.0}, {"name": "ddefd2c5347f53a42b84788d8c24907f", "is_disabled": 0, "lat": 38.90901366666667, "rental_uris": {"ios": "https://dc.lft.to/lastmile_qr_scan", "android": "https://dc.lft.to/lastmile_qr_scan"}, "bike_id": "ddefd2c5347f53a42b84788d8c24907f", "type": "electric_scooter", "lon": -77.04212216666667, "is_reserved": 0, "fusion_lat": 0.0, "fusion_lon": 0.0}, {"name": "78be524486bd1ec8b265d91839f02dd1", "is_disabled": 0, "lat": 38.86208583333333, "rental_uris": {"ios": "https://dc.lft.to/lastmile_qr_scan", "android": "https://dc.lft.to/lastmile_qr_scan"}, "bike_id": "78be524486bd1ec8b265d91839f02dd1", "type": "electric_bike", "lon": -77.059981, "is_reserved": 0, "fusion_lat": 0.0, "fusion_lon": 0.0}, {"name": "48ba07a6c28baa7d1103668e69eb754e", "is_disabled": 0, "lat": 38.85873866666667, "rental_uris": {"ios": "https://dc.lft.to/lastmile_qr_scan", "android": "https://dc.lft.to/lastmile_qr_scan"}, "bike_id": "48ba07a6c28baa7d1103668e69eb754e", "type": "electric_bike", "lon": -77.09561016666666, "is_reserved": 0, "fusion_lat": 0.0, "fusion_lon": 0.0}, {"name": "e9358eb9b18f469f55b954024353c927", "is_disabled": 0, "lat": 38.90413216666666, "rental_uris": {"ios": "https://dc.lft.to/lastmile_qr_scan", "android": "https://dc.lft.to/lastmile_qr_scan"}, "bike_id": "e9358eb9b18f469f55b954024353c927", "type": "electric_scooter", "lon": -77.025808, "is_reserved": 0, "fusion_lat": 0.0, "fusion_lon": 0.0}, {"name": "4f5c057a4975b66b20214cd2d47f5f25", "is_disabled": 0, "lat": 38.87158933333333, "rental_uris": {"ios": "https://dc.lft.to/lastmile_qr_scan", "android": "https://dc.lft.to/lastmile_qr_scan"}, "bike_id": "4f5c057a4975b66b20214cd2d47f5f25", "type": "electric_scooter", "lon": -77.00570983333333, "is_reserved": 0, "fusion_lat": 0.0, "fusion_lon": 0.0}, {"name": "2cf438683a4ff62a5c767efcd4fc5e59", "is_disabled": 0, "lat": 38.89280683333333, "rental_uris": {"ios": "https://dc.lft.to/lastmile_qr_scan", "android": "https://dc.lft.to/lastmile_qr_scan"}, "bike_id": "2cf438683a4ff62a5c767efcd4fc5e59", "type": "electric_scooter", "lon": -77.03185333333333, "is_reserved": 0, "fusion_lat": 0.0, "fusion_lon": 0.0}, {"name": "25643895f18de01b7cac10e2540d1738", "is_disabled": 0, "lat": 38.866629333333336, "rental_uris": {"ios": "https://dc.lft.to/lastmile_qr_scan", "android": "https://dc.lft.to/lastmile_qr_scan"}, "bike_id": "25643895f18de01b7cac10e2540d1738", "type": "electric_scooter", "lon": -76.9890255, "is_reserved": 0, "fusion_lat": 0.0, "fusion_lon": 0.0}, {"name": "ce419452b13568317f7707583247e7b4", "is_disabled": 0, "lat": 38.924102833333336, "rental_uris": {"ios": "https://dc.lft.to/lastmile_qr_scan", "android": "https://dc.lft.to/lastmile_qr_scan"}, "bike_id": "ce419452b13568317f7707583247e7b4", "type": "electric_scooter", "lon": -77.03542366666667, "is_reserved": 0, "fusion_lat": 0.0, "fusion_lon": 0.0}, {"name": "6b3ad89bea0ad39d4379f5609082631b", "is_disabled": 0, "lat": 38.8996245, "rental_uris": {"ios": "https://dc.lft.to/lastmile_qr_scan", "android": "https://dc.lft.to/lastmile_qr_scan"}, "bike_id": "6b3ad89bea0ad39d4379f5609082631b", "type": "electric_scooter", "lon": -76.9949345, "is_reserved": 0, "fusion_lat": 0.0, "fusion_lon": 0.0}, {"name": "9466c3a23e03e0d9b66e63c8e11accde", "is_disabled": 0, "lat": 38.916784166666666, "rental_uris": {"ios": "https://dc.lft.to/lastmile_qr_scan", "android": "https://dc.lft.to/lastmile_qr_scan"}, "bike_id": "9466c3a23e03e0d9b66e63c8e11accde", "type": "electric_scooter", "lon": -77.03843683333334, "is_reserved": 0, "fusion_lat": 0.0, "fusion_lon": 0.0}, {"name": "9807183c44c9f6bdd291db150786d980", "is_disabled": 0, "lat": 38.90212433333333, "rental_uris": {"ios": "https://dc.lft.to/lastmile_qr_scan", "android": "https://dc.lft.to/lastmile_qr_scan"}, "bike_id": "9807183c44c9f6bdd291db150786d980", "type": "electric_scooter", "lon": -77.053139, "is_reserved": 0, "fusion_lat": 0.0, "fusion_lon": 0.0}, {"name": "f2cafd216a615da978bc6d04ac3bb0a8", "is_disabled": 0, "lat": 38.89795933333333, "rental_uris": {"ios": "https://dc.lft.to/lastmile_qr_scan", "android": "https://dc.lft.to/lastmile_qr_scan"}, "bike_id": "f2cafd216a615da978bc6d04ac3bb0a8", "type": "electric_scooter", "lon": -76.98452783333333, "is_reserved": 0, "fusion_lat": 0.0, "fusion_lon": 0.0}, {"name": "8431021d6acb6949a35a6d9cdd298a07", "is_disabled": 0, "lat": 38.917973833333335, "rental_uris": {"ios": "https://dc.lft.to/lastmile_qr_scan", "android": "https://dc.lft.to/lastmile_qr_scan"}, "bike_id": "8431021d6acb6949a35a6d9cdd298a07", "type": "electric_scooter", "lon": -77.03449766666667, "is_reserved": 0, "fusion_lat": 0.0, "fusion_lon": 0.0}, {"name": "bb879cd85ba4893eea1b8576d807c9fd", "is_disabled": 0, "lat": 38.898366333333335, "rental_uris": {"ios": "https://dc.lft.to/lastmile_qr_scan", "android": "https://dc.lft.to/lastmile_qr_scan"}, "bike_id": "bb879cd85ba4893eea1b8576d807c9fd", "type": "electric_scooter", "lon": -77.0304175, "is_reserved": 0, "fusion_lat": 0.0, "fusion_lon": 0.0}, {"name": "d4bf7f7fcbdaee85e6afeac61ce8d666", "is_disabled": 0, "lat": 38.9125815, "rental_uris": {"ios": "https://dc.lft.to/lastmile_qr_scan", "android": "https://dc.lft.to/lastmile_qr_scan"}, "bike_id": "d4bf7f7fcbdaee85e6afeac61ce8d666", "type": "electric_scooter", "lon": -77.03170533333333, "is_reserved": 0, "fusion_lat": 0.0, "fusion_lon": 0.0}, {"name": "e493af9234ef9a4f2c1d907c12f5e193", "is_disabled": 0, "lat": 38.962248333333335, "rental_uris": {"ios": "https://dc.lft.to/lastmile_qr_scan", "android": "https://dc.lft.to/lastmile_qr_scan"}, "bike_id": "e493af9234ef9a4f2c1d907c12f5e193", "type": "electric_bike", "lon": -77.02633416666667, "is_reserved": 0, "fusion_lat": 0.0, "fusion_lon": 0.0}, {"name": "e8c45c9e8c5aea053179af4244c965af", "is_disabled": 0, "lat": 38.929088, "rental_uris": {"ios": "https://dc.lft.to/lastmile_qr_scan", "android": "https://dc.lft.to/lastmile_qr_scan"}, "bike_id": "e8c45c9e8c5aea053179af4244c965af", "type": "electric_scooter", "lon": -77.0215945, "is_reserved": 0, "fusion_lat": 0.0, "fusion_lon": 0.0}, {"name": "e49a1636f80e4f0012ba93de7738f60b", "is_disabled": 0, "lat": 38.92379483333333, "rental_uris": {"ios": "https://dc.lft.to/lastmile_qr_scan", "android": "https://dc.lft.to/lastmile_qr_scan"}, "bike_id": "e49a1636f80e4f0012ba93de7738f60b", "type": "electric_scooter", "lon": -77.04113283333334, "is_reserved": 0, "fusion_lat": 0.0, "fusion_lon": 0.0}, {"name": "a7e61cff9dcaa72aa18ba88cfc38a8d6", "is_disabled": 0, "lat": 38.91047183333333, "rental_uris": {"ios": "https://dc.lft.to/lastmile_qr_scan", "android": "https://dc.lft.to/lastmile_qr_scan"}, "bike_id": "a7e61cff9dcaa72aa18ba88cfc38a8d6", "type": "electric_scooter", "lon": -77.031713, "is_reserved": 0, "fusion_lat": 0.0, "fusion_lon": 0.0}, {"name": "fb8c6ec3354b564b53a2852ccfd49347", "is_disabled": 0, "lat": 38.892340833333336, "rental_uris": {"ios": "https://dc.lft.to/lastmile_qr_scan", "android": "https://dc.lft.to/lastmile_qr_scan"}, "bike_id": "fb8c6ec3354b564b53a2852ccfd49347", "type": "electric_scooter", "lon": -77.023861, "is_reserved": 0, "fusion_lat": 0.0, "fusion_lon": 0.0}, {"name": "eaa50aac39b8691b2aee9b653c7f0436", "is_disabled": 0, "lat": 38.9062455, "rental_uris": {"ios": "https://dc.lft.to/lastmile_qr_scan", "android": "https://dc.lft.to/lastmile_qr_scan"}, "bike_id": "eaa50aac39b8691b2aee9b653c7f0436", "type": "electric_scooter", "lon": -77.0260515, "is_reserved": 0, "fusion_lat": 0.0, "fusion_lon": 0.0}, {"name": "90acc7bbc137ca9b3f443ee5a66f2ef3", "is_disabled": 0, "lat": 38.880183833333334, "rental_uris": {"ios": "https://dc.lft.to/lastmile_qr_scan", "android": "https://dc.lft.to/lastmile_qr_scan"}, "bike_id": "90acc7bbc137ca9b3f443ee5a66f2ef3", "type": "electric_scooter", "lon": -76.98070466666667, "is_reserved": 0, "fusion_lat": 0.0, "fusion_lon": 0.0}, {"name": "c5858f36b2e71aa8cfbcf17257c0e50a", "is_disabled": 0, "lat": 38.91185383333333, "rental_uris": {"ios": "https://dc.lft.to/lastmile_qr_scan", "android": "https://dc.lft.to/lastmile_qr_scan"}, "bike_id": "c5858f36b2e71aa8cfbcf17257c0e50a", "type": "electric_scooter", "lon": -77.04182583333333, "is_reserved": 0, "fusion_lat": 0.0, "fusion_lon": 0.0}, {"name": "5d2fdd0dbd4b0c2f2de9a77d819730d6", "is_disabled": 0, "lat": 38.90513333333333, "rental_uris": {"ios": "https://dc.lft.to/lastmile_qr_scan", "android": "https://dc.lft.to/lastmile_qr_scan"}, "bike_id": "5d2fdd0dbd4b0c2f2de9a77d819730d6", "type": "electric_scooter", "lon": -77.04157366666666, "is_reserved": 0, "fusion_lat": 0.0, "fusion_lon": 0.0}, {"name": "0546d87cc06f0829ea793756e588f196", "is_disabled": 0, "lat": 38.9003835, "rental_uris": {"ios": "https://dc.lft.to/lastmile_qr_scan", "android": "https://dc.lft.to/lastmile_qr_scan"}, "bike_id": "0546d87cc06f0829ea793756e588f196", "type": "electric_scooter", "lon": -77.03494666666667, "is_reserved": 0, "fusion_lat": 0.0, "fusion_lon": 0.0}, {"name": "f6a98f89e609a6c0673e1e1f0c53088d", "is_disabled": 0, "lat": 38.874609166666666, "rental_uris": {"ios": "https://dc.lft.to/lastmile_qr_scan", "android": "https://dc.lft.to/lastmile_qr_scan"}, "bike_id": "f6a98f89e609a6c0673e1e1f0c53088d", "type": "electric_scooter", "lon": -77.00862066666667, "is_reserved": 0, "fusion_lat": 0.0, "fusion_lon": 0.0}, {"name": "e4b49a435967c125d009003a918a45a3", "is_disabled": 0, "lat": 38.8958745, "rental_uris": {"ios": "https://dc.lft.to/lastmile_qr_scan", "android": "https://dc.lft.to/lastmile_qr_scan"}, "bike_id": "e4b49a435967c125d009003a918a45a3", "type": "electric_scooter", "lon": -76.983149, "is_reserved": 0, "fusion_lat": 0.0, "fusion_lon": 0.0}, {"name": "2c52c2b33a175106041cd81d42efd3a0", "is_disabled": 0, "lat": 38.89324083333333, "rental_uris": {"ios": "https://dc.lft.to/lastmile_qr_scan", "android": "https://dc.lft.to/lastmile_qr_scan"}, "bike_id": "2c52c2b33a175106041cd81d42efd3a0", "type": "electric_scooter", "lon": -77.022397, "is_reserved": 0, "fusion_lat": 0.0, "fusion_lon": 0.0}, {"name": "b09786de39e37db220b8754ff08a7d6f", "is_disabled": 0, "lat": 38.932903833333334, "rental_uris": {"ios": "https://dc.lft.to/lastmile_qr_scan", "android": "https://dc.lft.to/lastmile_qr_scan"}, "bike_id": "b09786de39e37db220b8754ff08a7d6f", "type": "electric_scooter", "lon": -77.02853283333333, "is_reserved": 0, "fusion_lat": 0.0, "fusion_lon": 0.0}, {"name": "8cde1d41dad843dc07eddc8741dfd668", "is_disabled": 0, "lat": 38.89627216666667, "rental_uris": {"ios": "https://dc.lft.to/lastmile_qr_scan", "android": "https://dc.lft.to/lastmile_qr_scan"}, "bike_id": "8cde1d41dad843dc07eddc8741dfd668", "type": "electric_scooter", "lon": -77.02367733333334, "is_reserved": 0, "fusion_lat": 0.0, "fusion_lon": 0.0}, {"name": "87fa7d15358273bda04aa07f5ecbaa35", "is_disabled": 0, "lat": 38.90038033333333, "rental_uris": {"ios": "https://dc.lft.to/lastmile_qr_scan", "android": "https://dc.lft.to/lastmile_qr_scan"}, "bike_id": "87fa7d15358273bda04aa07f5ecbaa35", "type": "electric_scooter", "lon": -77.03508816666667, "is_reserved": 0, "fusion_lat": 0.0, "fusion_lon": 0.0}, {"name": "1d669e8be3db3f64db2fe9d1ed8a361f", "is_disabled": 0, "lat": 38.910093, "rental_uris": {"ios": "https://dc.lft.to/lastmile_qr_scan", "android": "https://dc.lft.to/lastmile_qr_scan"}, "bike_id": "1d669e8be3db3f64db2fe9d1ed8a361f", "type": "electric_scooter", "lon": -77.0344725, "is_reserved": 0, "fusion_lat": 0.0, "fusion_lon": 0.0}, {"name": "2f5d8575fd92f723a4cf4e103078dea5", "is_disabled": 0, "lat": 38.9004855, "rental_uris": {"ios": "https://dc.lft.to/lastmile_qr_scan", "android": "https://dc.lft.to/lastmile_qr_scan"}, "bike_id": "2f5d8575fd92f723a4cf4e103078dea5", "type": "electric_scooter", "lon": -77.00069016666667, "is_reserved": 0, "fusion_lat": 0.0, "fusion_lon": 0.0}, {"name": "bb4115e050b853de0cb1ca102faa342f", "is_disabled": 0, "lat": 38.902108, "rental_uris": {"ios": "https://dc.lft.to/lastmile_qr_scan", "android": "https://dc.lft.to/lastmile_qr_scan"}, "bike_id": "bb4115e050b853de0cb1ca102faa342f", "type": "electric_scooter", "lon": -77.02380683333334, "is_reserved": 0, "fusion_lat": 0.0, "fusion_lon": 0.0}, {"name": "afda7ea6fce6215de0eed335fd78b851", "is_disabled": 0, "lat": 38.925444666666664, "rental_uris": {"ios": "https://dc.lft.to/lastmile_qr_scan", "android": "https://dc.lft.to/lastmile_qr_scan"}, "bike_id": "afda7ea6fce6215de0eed335fd78b851", "type": "electric_scooter", "lon": -77.03488466666667, "is_reserved": 0, "fusion_lat": 0.0, "fusion_lon": 0.0}, {"name": "6c6b7789f61e341d53dea6666db92bc3", "is_disabled": 0, "lat": 38.917432, "rental_uris": {"ios": "https://dc.lft.to/lastmile_qr_scan", "android": "https://dc.lft.to/lastmile_qr_scan"}, "bike_id": "6c6b7789f61e341d53dea6666db92bc3", "type": "electric_scooter", "lon": -77.0249455, "is_reserved": 0, "fusion_lat": 0.0, "fusion_lon": 0.0}, {"name": "de03d2aa38f29af2446d777dc72efca0", "is_disabled": 0, "lat": 38.928079833333335, "rental_uris": {"ios": "https://dc.lft.to/lastmile_qr_scan", "android": "https://dc.lft.to/lastmile_qr_scan"}, "bike_id": "de03d2aa38f29af2446d777dc72efca0", "type": "electric_scooter", "lon": -77.03639666666666, "is_reserved": 0, "fusion_lat": 0.0, "fusion_lon": 0.0}, {"name": "b708647c33f05dc420edd7aa6c9085d0", "is_disabled": 0, "lat": 38.917030833333335, "rental_uris": {"ios": "https://dc.lft.to/lastmile_qr_scan", "android": "https://dc.lft.to/lastmile_qr_scan"}, "bike_id": "b708647c33f05dc420edd7aa6c9085d0", "type": "electric_scooter", "lon": -77.03041766666666, "is_reserved": 0, "fusion_lat": 0.0, "fusion_lon": 0.0}, {"name": "c4691fcbe3ee6fb84681bdc6852601ef", "is_disabled": 0, "lat": 38.87950433333334, "rental_uris": {"ios": "https://dc.lft.to/lastmile_qr_scan", "android": "https://dc.lft.to/lastmile_qr_scan"}, "bike_id": "c4691fcbe3ee6fb84681bdc6852601ef", "type": "electric_scooter", "lon": -77.00632333333333, "is_reserved": 0, "fusion_lat": 0.0, "fusion_lon": 0.0}, {"name": "427c347d6f4a4210fc492c4e28b43066", "is_disabled": 0, "lat": 38.903678666666664, "rental_uris": {"ios": "https://dc.lft.to/lastmile_qr_scan", "android": "https://dc.lft.to/lastmile_qr_scan"}, "bike_id": "427c347d6f4a4210fc492c4e28b43066", "type": "electric_scooter", "lon": -77.0199225, "is_reserved": 0, "fusion_lat": 0.0, "fusion_lon": 0.0}, {"name": "949cf146378e95bd5f81b1915395c94c", "is_disabled": 0, "lat": 38.99441566666667, "rental_uris": {"ios": "https://dc.lft.to/lastmile_qr_scan", "android": "https://dc.lft.to/lastmile_qr_scan"}, "bike_id": "949cf146378e95bd5f81b1915395c94c", "type": "electric_bike", "lon": -76.99591216666667, "is_reserved": 0, "fusion_lat": 0.0, "fusion_lon": 0.0}, {"name": "86835f809c857b6d0be0e44fa3745c9f", "is_disabled": 0, "lat": 38.924805666666664, "rental_uris": {"ios": "https://dc.lft.to/lastmile_qr_scan", "android": "https://dc.lft.to/lastmile_qr_scan"}, "bike_id": "86835f809c857b6d0be0e44fa3745c9f", "type": "electric_scooter", "lon": -77.02548016666667, "is_reserved": 0, "fusion_lat": 0.0, "fusion_lon": 0.0}, {"name": "abd13b087f43c3250bcdd56e1f41d5a7", "is_disabled": 0, "lat": 38.901391333333336, "rental_uris": {"ios": "https://dc.lft.to/lastmile_qr_scan", "android": "https://dc.lft.to/lastmile_qr_scan"}, "bike_id": "abd13b087f43c3250bcdd56e1f41d5a7", "type": "electric_scooter", "lon": -77.03918666666667, "is_reserved": 0, "fusion_lat": 0.0, "fusion_lon": 0.0}, {"name": "711a6daf39919506370c212ff45713be", "is_disabled": 0, "lat": 38.902952, "rental_uris": {"ios": "https://dc.lft.to/lastmile_qr_scan", "android": "https://dc.lft.to/lastmile_qr_scan"}, "bike_id": "711a6daf39919506370c212ff45713be", "type": "electric_scooter", "lon": -77.06109033333334, "is_reserved": 0, "fusion_lat": 0.0, "fusion_lon": 0.0}, {"name": "75828dfa10c2064bf53f005e74bdd16b", "is_disabled": 0, "lat": 38.93767666666667, "rental_uris": {"ios": "https://dc.lft.to/lastmile_qr_scan", "android": "https://dc.lft.to/lastmile_qr_scan"}, "bike_id": "75828dfa10c2064bf53f005e74bdd16b", "type": "electric_scooter", "lon": -77.02445983333334, "is_reserved": 0, "fusion_lat": 0.0, "fusion_lon": 0.0}, {"name": "cbeffd501ce03fa377cb272063ccd036", "is_disabled": 0, "lat": 38.88740166666667, "rental_uris": {"ios": "https://dc.lft.to/lastmile_qr_scan", "android": "https://dc.lft.to/lastmile_qr_scan"}, "bike_id": "cbeffd501ce03fa377cb272063ccd036", "type": "electric_scooter", "lon": -77.02566866666666, "is_reserved": 0, "fusion_lat": 0.0, "fusion_lon": 0.0}, {"name": "b18363aa3d41baa8675c36df40c28e01", "is_disabled": 0, "lat": 38.91666566666667, "rental_uris": {"ios": "https://dc.lft.to/lastmile_qr_scan", "android": "https://dc.lft.to/lastmile_qr_scan"}, "bike_id": "b18363aa3d41baa8675c36df40c28e01", "type": "electric_scooter", "lon": -77.037011, "is_reserved": 0, "fusion_lat": 0.0, "fusion_lon": 0.0}, {"name": "103cb388175760f46c9ba45f52177fa4", "is_disabled": 0, "lat": 38.91763783333333, "rental_uris": {"ios": "https://dc.lft.to/lastmile_qr_scan", "android": "https://dc.lft.to/lastmile_qr_scan"}, "bike_id": "103cb388175760f46c9ba45f52177fa4", "type": "electric_scooter", "lon": -77.03201516666667, "is_reserved": 0, "fusion_lat": 0.0, "fusion_lon": 0.0}, {"name": "2201e6d82b59ad6d5765834c76a7341b", "is_disabled": 0, "lat": 38.944373, "rental_uris": {"ios": "https://dc.lft.to/lastmile_qr_scan", "android": "https://dc.lft.to/lastmile_qr_scan"}, "bike_id": "2201e6d82b59ad6d5765834c76a7341b", "type": "electric_scooter", "lon": -77.06456566666667, "is_reserved": 0, "fusion_lat": 0.0, "fusion_lon": 0.0}, {"name": "6affba6d99d257eb931b0a259de8141c", "is_disabled": 0, "lat": 38.90372766666667, "rental_uris": {"ios": "https://dc.lft.to/lastmile_qr_scan", "android": "https://dc.lft.to/lastmile_qr_scan"}, "bike_id": "6affba6d99d257eb931b0a259de8141c", "type": "electric_scooter", "lon": -77.04499, "is_reserved": 0, "fusion_lat": 0.0, "fusion_lon": 0.0}, {"name": "d32797b726b45e0a9a3e5fba2b76d439", "is_disabled": 0, "lat": 38.920931, "rental_uris": {"ios": "https://dc.lft.to/lastmile_qr_scan", "android": "https://dc.lft.to/lastmile_qr_scan"}, "bike_id": "d32797b726b45e0a9a3e5fba2b76d439", "type": "electric_scooter", "lon": -77.0252365, "is_reserved": 0, "fusion_lat": 0.0, "fusion_lon": 0.0}, {"name": "6b2cfca15f53013c83e923c0b01fce79", "is_disabled": 0, "lat": 38.901319666666666, "rental_uris": {"ios": "https://dc.lft.to/lastmile_qr_scan", "android": "https://dc.lft.to/lastmile_qr_scan"}, "bike_id": "6b2cfca15f53013c83e923c0b01fce79", "type": "electric_scooter", "lon": -77.03877216666666, "is_reserved": 0, "fusion_lat": 0.0, "fusion_lon": 0.0}, {"name": "8bb4ac57005d50b414c9cc56f4bc2fc6", "is_disabled": 0, "lat": 38.8984635, "rental_uris": {"ios": "https://dc.lft.to/lastmile_qr_scan", "android": "https://dc.lft.to/lastmile_qr_scan"}, "bike_id": "8bb4ac57005d50b414c9cc56f4bc2fc6", "type": "electric_scooter", "lon": -76.9903505, "is_reserved": 0, "fusion_lat": 0.0, "fusion_lon": 0.0}, {"name": "6fedecc3a6c0bb49349081c61c6b816c", "is_disabled": 0, "lat": 38.911773833333335, "rental_uris": {"ios": "https://dc.lft.to/lastmile_qr_scan", "android": "https://dc.lft.to/lastmile_qr_scan"}, "bike_id": "6fedecc3a6c0bb49349081c61c6b816c", "type": "electric_scooter", "lon": -77.0218775, "is_reserved": 0, "fusion_lat": 0.0, "fusion_lon": 0.0}, {"name": "47e22f0c412ef0050d1a4d2b00f36875", "is_disabled": 0, "lat": 38.924118666666665, "rental_uris": {"ios": "https://dc.lft.to/lastmile_qr_scan", "android": "https://dc.lft.to/lastmile_qr_scan"}, "bike_id": "47e22f0c412ef0050d1a4d2b00f36875", "type": "electric_scooter", "lon": -77.02262266666666, "is_reserved": 0, "fusion_lat": 0.0, "fusion_lon": 0.0}, {"name": "2c7377835a0083d6cffe186e3ff837af", "is_disabled": 0, "lat": 38.833071833333335, "rental_uris": {"ios": "https://dc.lft.to/lastmile_qr_scan", "android": "https://dc.lft.to/lastmile_qr_scan"}, "bike_id": "2c7377835a0083d6cffe186e3ff837af", "type": "electric_bike", "lon": -77.04179366666666, "is_reserved": 0, "fusion_lat": 0.0, "fusion_lon": 0.0}, {"name": "fd63d6dd67055b1736e591159b092e9c", "is_disabled": 0, "lat": 38.9454115, "rental_uris": {"ios": "https://dc.lft.to/lastmile_qr_scan", "android": "https://dc.lft.to/lastmile_qr_scan"}, "bike_id": "fd63d6dd67055b1736e591159b092e9c", "type": "electric_scooter", "lon": -77.01686933333333, "is_reserved": 0, "fusion_lat": 0.0, "fusion_lon": 0.0}, {"name": "3a4a7a066972a018a5235c8bdf0aa358", "is_disabled": 0, "lat": 38.91761783333333, "rental_uris": {"ios": "https://dc.lft.to/lastmile_qr_scan", "android": "https://dc.lft.to/lastmile_qr_scan"}, "bike_id": "3a4a7a066972a018a5235c8bdf0aa358", "type": "electric_scooter", "lon": -77.02280683333333, "is_reserved": 0, "fusion_lat": 0.0, "fusion_lon": 0.0}, {"name": "93a81bc6a42c07520560461f49243822", "is_disabled": 0, "lat": 39.099687, "rental_uris": {"ios": "https://dc.lft.to/lastmile_qr_scan", "android": "https://dc.lft.to/lastmile_qr_scan"}, "bike_id": "93a81bc6a42c07520560461f49243822", "type": "electric_bike", "lon": -77.18306966666667, "is_reserved": 0, "fusion_lat": 0.0, "fusion_lon": 0.0}, {"name": "b338125dcdee2e9481ed2062eecadce3", "is_disabled": 0, "lat": 38.8992705, "rental_uris": {"ios": "https://dc.lft.to/lastmile_qr_scan", "android": "https://dc.lft.to/lastmile_qr_scan"}, "bike_id": "b338125dcdee2e9481ed2062eecadce3", "type": "electric_scooter", "lon": -77.02936633333333, "is_reserved": 0, "fusion_lat": 0.0, "fusion_lon": 0.0}, {"name": "801a2c83af9449fcad48fda5bfed9878", "is_disabled": 0, "lat": 38.92508433333333, "rental_uris": {"ios": "https://dc.lft.to/lastmile_qr_scan", "android": "https://dc.lft.to/lastmile_qr_scan"}, "bike_id": "801a2c83af9449fcad48fda5bfed9878", "type": "electric_scooter", "lon": -77.0379495, "is_reserved": 0, "fusion_lat": 0.0, "fusion_lon": 0.0}, {"name": "8c18d7b90dcc4bc87c82d513e8bbf0a9", "is_disabled": 0, "lat": 38.8924245, "rental_uris": {"ios": "https://dc.lft.to/lastmile_qr_scan", "android": "https://dc.lft.to/lastmile_qr_scan"}, "bike_id": "8c18d7b90dcc4bc87c82d513e8bbf0a9", "type": "electric_scooter", "lon": -77.02828333333333, "is_reserved": 0, "fusion_lat": 0.0, "fusion_lon": 0.0}, {"name": "457117a3f0cae12c9fea15c28d8c20ac", "is_disabled": 0, "lat": 38.91474483333333, "rental_uris": {"ios": "https://dc.lft.to/lastmile_qr_scan", "android": "https://dc.lft.to/lastmile_qr_scan"}, "bike_id": "457117a3f0cae12c9fea15c28d8c20ac", "type": "electric_scooter", "lon": -77.01411733333333, "is_reserved": 0, "fusion_lat": 0.0, "fusion_lon": 0.0}, {"name": "d60c6b36f0e3a17b18385805562fd4e6", "is_disabled": 0, "lat": 38.926488666666664, "rental_uris": {"ios": "https://dc.lft.to/lastmile_qr_scan", "android": "https://dc.lft.to/lastmile_qr_scan"}, "bike_id": "d60c6b36f0e3a17b18385805562fd4e6", "type": "electric_scooter", "lon": -77.03838983333333, "is_reserved": 0, "fusion_lat": 0.0, "fusion_lon": 0.0}, {"name": "6636ec7f92d805f7cc58f1093969a1ae", "is_disabled": 0, "lat": 38.908416333333335, "rental_uris": {"ios": "https://dc.lft.to/lastmile_qr_scan", "android": "https://dc.lft.to/lastmile_qr_scan"}, "bike_id": "6636ec7f92d805f7cc58f1093969a1ae", "type": "electric_scooter", "lon": -77.034549, "is_reserved": 0, "fusion_lat": 0.0, "fusion_lon": 0.0}, {"name": "0a5936a07b71008cd16108496ff406d9", "is_disabled": 0, "lat": 38.902261833333334, "rental_uris": {"ios": "https://dc.lft.to/lastmile_qr_scan", "android": "https://dc.lft.to/lastmile_qr_scan"}, "bike_id": "0a5936a07b71008cd16108496ff406d9", "type": "electric_scooter", "lon": -77.03783116666666, "is_reserved": 0, "fusion_lat": 0.0, "fusion_lon": 0.0}, {"name": "95b6f852cdc29c79999ada9ef8f0dc8f", "is_disabled": 0, "lat": 38.906373333333335, "rental_uris": {"ios": "https://dc.lft.to/lastmile_qr_scan", "android": "https://dc.lft.to/lastmile_qr_scan"}, "bike_id": "95b6f852cdc29c79999ada9ef8f0dc8f", "type": "electric_scooter", "lon": -77.005947, "is_reserved": 0, "fusion_lat": 0.0, "fusion_lon": 0.0}, {"name": "dd6596a7ac0c9c98d3e54e0dfbf383af", "is_disabled": 0, "lat": 38.910801, "rental_uris": {"ios": "https://dc.lft.to/lastmile_qr_scan", "android": "https://dc.lft.to/lastmile_qr_scan"}, "bike_id": "dd6596a7ac0c9c98d3e54e0dfbf383af", "type": "electric_scooter", "lon": -77.021661, "is_reserved": 0, "fusion_lat": 0.0, "fusion_lon": 0.0}, {"name": "353a0bb501db9d7e8793d35519350998", "is_disabled": 0, "lat": 38.88725783333334, "rental_uris": {"ios": "https://dc.lft.to/lastmile_qr_scan", "android": "https://dc.lft.to/lastmile_qr_scan"}, "bike_id": "353a0bb501db9d7e8793d35519350998", "type": "electric_scooter", "lon": -77.01768066666666, "is_reserved": 0, "fusion_lat": 0.0, "fusion_lon": 0.0}, {"name": "d3d9bb84e564978109f721738d873b6b", "is_disabled": 0, "lat": 38.9127075, "rental_uris": {"ios": "https://dc.lft.to/lastmile_qr_scan", "android": "https://dc.lft.to/lastmile_qr_scan"}, "bike_id": "d3d9bb84e564978109f721738d873b6b", "type": "electric_scooter", "lon": -77.01677566666666, "is_reserved": 0, "fusion_lat": 0.0, "fusion_lon": 0.0}, {"name": "fb7e0389baf7992cdc86954a6e8ac93c", "is_disabled": 0, "lat": 38.91985583333334, "rental_uris": {"ios": "https://dc.lft.to/lastmile_qr_scan", "android": "https://dc.lft.to/lastmile_qr_scan"}, "bike_id": "fb7e0389baf7992cdc86954a6e8ac93c", "type": "electric_scooter", "lon": -77.03289316666667, "is_reserved": 0, "fusion_lat": 0.0, "fusion_lon": 0.0}, {"name": "c2a8c4b4f38c3a494774f9081e1f04eb", "is_disabled": 0, "lat": 38.909595833333334, "rental_uris": {"ios": "https://dc.lft.to/lastmile_qr_scan", "android": "https://dc.lft.to/lastmile_qr_scan"}, "bike_id": "c2a8c4b4f38c3a494774f9081e1f04eb", "type": "electric_scooter", "lon": -77.03949983333334, "is_reserved": 0, "fusion_lat": 0.0, "fusion_lon": 0.0}, {"name": "41d6c94127ed0fe83b510bb2c7d397bb", "is_disabled": 0, "lat": 38.925790666666664, "rental_uris": {"ios": "https://dc.lft.to/lastmile_qr_scan", "android": "https://dc.lft.to/lastmile_qr_scan"}, "bike_id": "41d6c94127ed0fe83b510bb2c7d397bb", "type": "electric_scooter", "lon": -77.03653, "is_reserved": 0, "fusion_lat": 0.0, "fusion_lon": 0.0}, {"name": "438c89920d26bd4cadccbe2200c335d4", "is_disabled": 0, "lat": 38.9203815, "rental_uris": {"ios": "https://dc.lft.to/lastmile_qr_scan", "android": "https://dc.lft.to/lastmile_qr_scan"}, "bike_id": "438c89920d26bd4cadccbe2200c335d4", "type": "electric_scooter", "lon": -77.01697466666667, "is_reserved": 0, "fusion_lat": 0.0, "fusion_lon": 0.0}, {"name": "0b2bebb4eb5ffeed96ae2c3855434292", "is_disabled": 0, "lat": 38.917949166666666, "rental_uris": {"ios": "https://dc.lft.to/lastmile_qr_scan", "android": "https://dc.lft.to/lastmile_qr_scan"}, "bike_id": "0b2bebb4eb5ffeed96ae2c3855434292", "type": "electric_scooter", "lon": -77.034511, "is_reserved": 0, "fusion_lat": 0.0, "fusion_lon": 0.0}, {"name": "b54d2e1f75a229a0a7410b3d95f25be5", "is_disabled": 0, "lat": 38.8382715, "rental_uris": {"ios": "https://dc.lft.to/lastmile_qr_scan", "android": "https://dc.lft.to/lastmile_qr_scan"}, "bike_id": "b54d2e1f75a229a0a7410b3d95f25be5", "type": "electric_bike", "lon": -76.996845, "is_reserved": 0, "fusion_lat": 0.0, "fusion_lon": 0.0}, {"name": "0989f8db1d720c5682237ba3b6434940", "is_disabled": 0, "lat": 38.9141655, "rental_uris": {"ios": "https://dc.lft.to/lastmile_qr_scan", "android": "https://dc.lft.to/lastmile_qr_scan"}, "bike_id": "0989f8db1d720c5682237ba3b6434940", "type": "electric_scooter", "lon": -77.01077383333333, "is_reserved": 0, "fusion_lat": 0.0, "fusion_lon": 0.0}, {"name": "854a5ff531314bca136d3f3f82544d7b", "is_disabled": 0, "lat": 38.88726583333333, "rental_uris": {"ios": "https://dc.lft.to/lastmile_qr_scan", "android": "https://dc.lft.to/lastmile_qr_scan"}, "bike_id": "854a5ff531314bca136d3f3f82544d7b", "type": "electric_scooter", "lon": -77.03203533333334, "is_reserved": 0, "fusion_lat": 0.0, "fusion_lon": 0.0}, {"name": "ad66eb9f3f5a2f0aba4b8b58a25e6e3b", "is_disabled": 0, "lat": 38.916869166666665, "rental_uris": {"ios": "https://dc.lft.to/lastmile_qr_scan", "android": "https://dc.lft.to/lastmile_qr_scan"}, "bike_id": "ad66eb9f3f5a2f0aba4b8b58a25e6e3b", "type": "electric_scooter", "lon": -77.0228075, "is_reserved": 0, "fusion_lat": 0.0, "fusion_lon": 0.0}, {"name": "a032ca8d8d0a537a39ba49d66ae64293", "is_disabled": 0, "lat": 38.89960133333334, "rental_uris": {"ios": "https://dc.lft.to/lastmile_qr_scan", "android": "https://dc.lft.to/lastmile_qr_scan"}, "bike_id": "a032ca8d8d0a537a39ba49d66ae64293", "type": "electric_scooter", "lon": -77.01615166666667, "is_reserved": 0, "fusion_lat": 0.0, "fusion_lon": 0.0}, {"name": "9faf6492a134333e57acc8cc5c28d9a7", "is_disabled": 0, "lat": 38.90921383333333, "rental_uris": {"ios": "https://dc.lft.to/lastmile_qr_scan", "android": "https://dc.lft.to/lastmile_qr_scan"}, "bike_id": "9faf6492a134333e57acc8cc5c28d9a7", "type": "electric_scooter", "lon": -76.99974983333334, "is_reserved": 0, "fusion_lat": 0.0, "fusion_lon": 0.0}, {"name": "93e4e781ad8768c18007e6f84f9468f9", "is_disabled": 0, "lat": 38.938287333333335, "rental_uris": {"ios": "https://dc.lft.to/lastmile_qr_scan", "android": "https://dc.lft.to/lastmile_qr_scan"}, "bike_id": "93e4e781ad8768c18007e6f84f9468f9", "type": "electric_scooter", "lon": -76.99193633333333, "is_reserved": 0, "fusion_lat": 0.0, "fusion_lon": 0.0}, {"name": "3605bdb20d2375d702866f9b352e5402", "is_disabled": 0, "lat": 38.954533, "rental_uris": {"ios": "https://dc.lft.to/lastmile_qr_scan", "android": "https://dc.lft.to/lastmile_qr_scan"}, "bike_id": "3605bdb20d2375d702866f9b352e5402", "type": "electric_bike", "lon": -77.02773333333333, "is_reserved": 0, "fusion_lat": 0.0, "fusion_lon": 0.0}, {"name": "c1a5a0e199cc79268b3fa6c9a2934da9", "is_disabled": 0, "lat": 38.90784283333333, "rental_uris": {"ios": "https://dc.lft.to/lastmile_qr_scan", "android": "https://dc.lft.to/lastmile_qr_scan"}, "bike_id": "c1a5a0e199cc79268b3fa6c9a2934da9", "type": "electric_scooter", "lon": -77.03523866666667, "is_reserved": 0, "fusion_lat": 0.0, "fusion_lon": 0.0}, {"name": "bfcf66ff2d9d52a956174845028605e6", "is_disabled": 0, "lat": 38.8898825, "rental_uris": {"ios": "https://dc.lft.to/lastmile_qr_scan", "android": "https://dc.lft.to/lastmile_qr_scan"}, "bike_id": "bfcf66ff2d9d52a956174845028605e6", "type": "electric_bike", "lon": -77.07131016666666, "is_reserved": 0, "fusion_lat": 0.0, "fusion_lon": 0.0}, {"name": "4ae0ed5b92a49b59fa219eab22ad4ef0", "is_disabled": 0, "lat": 38.905724, "rental_uris": {"ios": "https://dc.lft.to/lastmile_qr_scan", "android": "https://dc.lft.to/lastmile_qr_scan"}, "bike_id": "4ae0ed5b92a49b59fa219eab22ad4ef0", "type": "electric_scooter", "lon": -77.003959, "is_reserved": 0, "fusion_lat": 0.0, "fusion_lon": 0.0}, {"name": "74b8d7488b27f448ec8ed3c1153017f0", "is_disabled": 0, "lat": 38.902754333333334, "rental_uris": {"ios": "https://dc.lft.to/lastmile_qr_scan", "android": "https://dc.lft.to/lastmile_qr_scan"}, "bike_id": "74b8d7488b27f448ec8ed3c1153017f0", "type": "electric_bike", "lon": -77.02309133333333, "is_reserved": 0, "fusion_lat": 0.0, "fusion_lon": 0.0}, {"name": "c642b758a67915a896635a5839d3cb4f", "is_disabled": 0, "lat": 38.90490416666667, "rental_uris": {"ios": "https://dc.lft.to/lastmile_qr_scan", "android": "https://dc.lft.to/lastmile_qr_scan"}, "bike_id": "c642b758a67915a896635a5839d3cb4f", "type": "electric_scooter", "lon": -77.04885366666667, "is_reserved": 0, "fusion_lat": 0.0, "fusion_lon": 0.0}, {"name": "6c9d86282d2bd8b57b5ffa6b8f8aa338", "is_disabled": 0, "lat": 38.90294883333333, "rental_uris": {"ios": "https://dc.lft.to/lastmile_qr_scan", "android": "https://dc.lft.to/lastmile_qr_scan"}, "bike_id": "6c9d86282d2bd8b57b5ffa6b8f8aa338", "type": "electric_scooter", "lon": -77.0258985, "is_reserved": 0, "fusion_lat": 0.0, "fusion_lon": 0.0}, {"name": "3348b1f14156a952fb775be1c728f038", "is_disabled": 0, "lat": 38.90903083333333, "rental_uris": {"ios": "https://dc.lft.to/lastmile_qr_scan", "android": "https://dc.lft.to/lastmile_qr_scan"}, "bike_id": "3348b1f14156a952fb775be1c728f038", "type": "electric_scooter", "lon": -77.0421, "is_reserved": 0, "fusion_lat": 0.0, "fusion_lon": 0.0}, {"name": "2f7d6e0b6fb1975f21ae385f3bdcde55", "is_disabled": 0, "lat": 38.9004665, "rental_uris": {"ios": "https://dc.lft.to/lastmile_qr_scan", "android": "https://dc.lft.to/lastmile_qr_scan"}, "bike_id": "2f7d6e0b6fb1975f21ae385f3bdcde55", "type": "electric_scooter", "lon": -77.002142, "is_reserved": 0, "fusion_lat": 0.0, "fusion_lon": 0.0}, {"name": "c4761d4095dfa70ccd112126c40e75d9", "is_disabled": 0, "lat": 38.903853833333336, "rental_uris": {"ios": "https://dc.lft.to/lastmile_qr_scan", "android": "https://dc.lft.to/lastmile_qr_scan"}, "bike_id": "c4761d4095dfa70ccd112126c40e75d9", "type": "electric_scooter", "lon": -77.03832066666666, "is_reserved": 0, "fusion_lat": 0.0, "fusion_lon": 0.0}, {"name": "75219fb5d6ac3ccdc106145d2be3e516", "is_disabled": 0, "lat": 38.9118335, "rental_uris": {"ios": "https://dc.lft.to/lastmile_qr_scan", "android": "https://dc.lft.to/lastmile_qr_scan"}, "bike_id": "75219fb5d6ac3ccdc106145d2be3e516", "type": "electric_bike", "lon": -77.00285383333333, "is_reserved": 0, "fusion_lat": 0.0, "fusion_lon": 0.0}, {"name": "b986b3999c2ab83a38acaecb9dee1b96", "is_disabled": 0, "lat": 38.887088, "rental_uris": {"ios": "https://dc.lft.to/lastmile_qr_scan", "android": "https://dc.lft.to/lastmile_qr_scan"}, "bike_id": "b986b3999c2ab83a38acaecb9dee1b96", "type": "electric_scooter", "lon": -77.02579566666667, "is_reserved": 0, "fusion_lat": 0.0, "fusion_lon": 0.0}, {"name": "2bbb2b4a82c58c6d0665e4f9376def5d", "is_disabled": 0, "lat": 38.89237766666667, "rental_uris": {"ios": "https://dc.lft.to/lastmile_qr_scan", "android": "https://dc.lft.to/lastmile_qr_scan"}, "bike_id": "2bbb2b4a82c58c6d0665e4f9376def5d", "type": "electric_scooter", "lon": -77.03184916666666, "is_reserved": 0, "fusion_lat": 0.0, "fusion_lon": 0.0}, {"name": "1dcf81afbcc3437eebede821b0b73ebd", "is_disabled": 0, "lat": 38.9236595, "rental_uris": {"ios": "https://dc.lft.to/lastmile_qr_scan", "android": "https://dc.lft.to/lastmile_qr_scan"}, "bike_id": "1dcf81afbcc3437eebede821b0b73ebd", "type": "electric_scooter", "lon": -77.05056833333333, "is_reserved": 0, "fusion_lat": 0.0, "fusion_lon": 0.0}, {"name": "dd894ab9d725b1eb05c840c5be2e7b28", "is_disabled": 0, "lat": 38.88731, "rental_uris": {"ios": "https://dc.lft.to/lastmile_qr_scan", "android": "https://dc.lft.to/lastmile_qr_scan"}, "bike_id": "dd894ab9d725b1eb05c840c5be2e7b28", "type": "electric_scooter", "lon": -77.01766683333334, "is_reserved": 0, "fusion_lat": 0.0, "fusion_lon": 0.0}, {"name": "54d607f7486a838e96bb8e406e28f424", "is_disabled": 0, "lat": 38.957526333333334, "rental_uris": {"ios": "https://dc.lft.to/lastmile_qr_scan", "android": "https://dc.lft.to/lastmile_qr_scan"}, "bike_id": "54d607f7486a838e96bb8e406e28f424", "type": "electric_scooter", "lon": -77.0206355, "is_reserved": 0, "fusion_lat": 0.0, "fusion_lon": 0.0}, {"name": "cad608ee1d9ba73338ae0e69a47f1b0b", "is_disabled": 0, "lat": 38.807604166666664, "rental_uris": {"ios": "https://dc.lft.to/lastmile_qr_scan", "android": "https://dc.lft.to/lastmile_qr_scan"}, "bike_id": "cad608ee1d9ba73338ae0e69a47f1b0b", "type": "electric_bike", "lon": -77.12985633333334, "is_reserved": 0, "fusion_lat": 0.0, "fusion_lon": 0.0}, {"name": "4d01408e73280e81504c44aa5b39e0c9", "is_disabled": 0, "lat": 38.927562, "rental_uris": {"ios": "https://dc.lft.to/lastmile_qr_scan", "android": "https://dc.lft.to/lastmile_qr_scan"}, "bike_id": "4d01408e73280e81504c44aa5b39e0c9", "type": "electric_scooter", "lon": -77.0242535, "is_reserved": 0, "fusion_lat": 0.0, "fusion_lon": 0.0}, {"name": "83ebc7361578b877f5652184fc5e3dc0", "is_disabled": 0, "lat": 38.896030833333334, "rental_uris": {"ios": "https://dc.lft.to/lastmile_qr_scan", "android": "https://dc.lft.to/lastmile_qr_scan"}, "bike_id": "83ebc7361578b877f5652184fc5e3dc0", "type": "electric_scooter", "lon": -77.02155233333333, "is_reserved": 0, "fusion_lat": 0.0, "fusion_lon": 0.0}, {"name": "dc81eb4a5f30e63f21c5a40733af5ae2", "is_disabled": 0, "lat": 38.93701566666667, "rental_uris": {"ios": "https://dc.lft.to/lastmile_qr_scan", "android": "https://dc.lft.to/lastmile_qr_scan"}, "bike_id": "dc81eb4a5f30e63f21c5a40733af5ae2", "type": "electric_scooter", "lon": -77.05595716666667, "is_reserved": 0, "fusion_lat": 0.0, "fusion_lon": 0.0}, {"name": "8cdb1fc5fc244803146bbcb10c3a0aae", "is_disabled": 0, "lat": 38.895546833333334, "rental_uris": {"ios": "https://dc.lft.to/lastmile_qr_scan", "android": "https://dc.lft.to/lastmile_qr_scan"}, "bike_id": "8cdb1fc5fc244803146bbcb10c3a0aae", "type": "electric_scooter", "lon": -76.948747, "is_reserved": 0, "fusion_lat": 0.0, "fusion_lon": 0.0}, {"name": "e684478a401dc9c8fe60371580f35822", "is_disabled": 0, "lat": 38.900178833333335, "rental_uris": {"ios": "https://dc.lft.to/lastmile_qr_scan", "android": "https://dc.lft.to/lastmile_qr_scan"}, "bike_id": "e684478a401dc9c8fe60371580f35822", "type": "electric_scooter", "lon": -76.99151533333334, "is_reserved": 0, "fusion_lat": 0.0, "fusion_lon": 0.0}, {"name": "5ac2f9309abb84ef1d6a6654c4345e1d", "is_disabled": 0, "lat": 38.901187666666665, "rental_uris": {"ios": "https://dc.lft.to/lastmile_qr_scan", "android": "https://dc.lft.to/lastmile_qr_scan"}, "bike_id": "5ac2f9309abb84ef1d6a6654c4345e1d", "type": "electric_scooter", "lon": -77.00218283333334, "is_reserved": 0, "fusion_lat": 0.0, "fusion_lon": 0.0}, {"name": "6231028c4e566f4e24d188d136f5ddbb", "is_disabled": 0, "lat": 38.89653366666667, "rental_uris": {"ios": "https://dc.lft.to/lastmile_qr_scan", "android": "https://dc.lft.to/lastmile_qr_scan"}, "bike_id": "6231028c4e566f4e24d188d136f5ddbb", "type": "electric_scooter", "lon": -77.033552, "is_reserved": 0, "fusion_lat": 0.0, "fusion_lon": 0.0}, {"name": "8e0d1884cdb1685a1a6fac02170e4f9f", "is_disabled": 0, "lat": 38.88731466666667, "rental_uris": {"ios": "https://dc.lft.to/lastmile_qr_scan", "android": "https://dc.lft.to/lastmile_qr_scan"}, "bike_id": "8e0d1884cdb1685a1a6fac02170e4f9f", "type": "electric_scooter", "lon": -77.01515416666666, "is_reserved": 0, "fusion_lat": 0.0, "fusion_lon": 0.0}, {"name": "afdf36782d71a4ac2228c9437a0e6592", "is_disabled": 0, "lat": 38.887684, "rental_uris": {"ios": "https://dc.lft.to/lastmile_qr_scan", "android": "https://dc.lft.to/lastmile_qr_scan"}, "bike_id": "afdf36782d71a4ac2228c9437a0e6592", "type": "electric_scooter", "lon": -77.0237015, "is_reserved": 0, "fusion_lat": 0.0, "fusion_lon": 0.0}, {"name": "ce8c5a3fcdb121b19862616596cf0c3f", "is_disabled": 0, "lat": 38.91992716666667, "rental_uris": {"ios": "https://dc.lft.to/lastmile_qr_scan", "android": "https://dc.lft.to/lastmile_qr_scan"}, "bike_id": "ce8c5a3fcdb121b19862616596cf0c3f", "type": "electric_bike", "lon": -77.0475825, "is_reserved": 0, "fusion_lat": 0.0, "fusion_lon": 0.0}, {"name": "de7a210943ef3c8f5fc336df2c3d959c", "is_disabled": 0, "lat": 38.891920666666664, "rental_uris": {"ios": "https://dc.lft.to/lastmile_qr_scan", "android": "https://dc.lft.to/lastmile_qr_scan"}, "bike_id": "de7a210943ef3c8f5fc336df2c3d959c", "type": "electric_scooter", "lon": -77.022231, "is_reserved": 0, "fusion_lat": 0.0, "fusion_lon": 0.0}, {"name": "3f495b9a5c23698e70342ab1ffd23448", "is_disabled": 0, "lat": 38.9110265, "rental_uris": {"ios": "https://dc.lft.to/lastmile_qr_scan", "android": "https://dc.lft.to/lastmile_qr_scan"}, "bike_id": "3f495b9a5c23698e70342ab1ffd23448", "type": "electric_scooter", "lon": -77.04541683333333, "is_reserved": 0, "fusion_lat": 0.0, "fusion_lon": 0.0}, {"name": "3acb18bf0c3d482c9cac9e469da4e5bf", "is_disabled": 0, "lat": 38.95087183333333, "rental_uris": {"ios": "https://dc.lft.to/lastmile_qr_scan", "android": "https://dc.lft.to/lastmile_qr_scan"}, "bike_id": "3acb18bf0c3d482c9cac9e469da4e5bf", "type": "electric_bike", "lon": -76.99794983333334, "is_reserved": 0, "fusion_lat": 0.0, "fusion_lon": 0.0}, {"name": "d997d9013e3ef23a0fe821cb802e4e6e", "is_disabled": 0, "lat": 38.88723816666667, "rental_uris": {"ios": "https://dc.lft.to/lastmile_qr_scan", "android": "https://dc.lft.to/lastmile_qr_scan"}, "bike_id": "d997d9013e3ef23a0fe821cb802e4e6e", "type": "electric_scooter", "lon": -77.03202433333334, "is_reserved": 0, "fusion_lat": 0.0, "fusion_lon": 0.0}, {"name": "c2e38ab5269ec0d6f81876f1a656a666", "is_disabled": 0, "lat": 38.895424, "rental_uris": {"ios": "https://dc.lft.to/lastmile_qr_scan", "android": "https://dc.lft.to/lastmile_qr_scan"}, "bike_id": "c2e38ab5269ec0d6f81876f1a656a666", "type": "electric_scooter", "lon": -76.949527, "is_reserved": 0, "fusion_lat": 0.0, "fusion_lon": 0.0}, {"name": "7eb58e14b2fc36d3d373ca21ab8188ae", "is_disabled": 0, "lat": 38.90065533333333, "rental_uris": {"ios": "https://dc.lft.to/lastmile_qr_scan", "android": "https://dc.lft.to/lastmile_qr_scan"}, "bike_id": "7eb58e14b2fc36d3d373ca21ab8188ae", "type": "electric_scooter", "lon": -76.927501, "is_reserved": 0, "fusion_lat": 0.0, "fusion_lon": 0.0}, {"name": "5ecfe155192aa18e2634474fb1600d9c", "is_disabled": 0, "lat": 38.875299, "rental_uris": {"ios": "https://dc.lft.to/lastmile_qr_scan", "android": "https://dc.lft.to/lastmile_qr_scan"}, "bike_id": "5ecfe155192aa18e2634474fb1600d9c", "type": "electric_scooter", "lon": -77.005088, "is_reserved": 0, "fusion_lat": 0.0, "fusion_lon": 0.0}, {"name": "f7d49c64f0f8400d1d2fbdaba6ae9942", "is_disabled": 0, "lat": 38.904084166666664, "rental_uris": {"ios": "https://dc.lft.to/lastmile_qr_scan", "android": "https://dc.lft.to/lastmile_qr_scan"}, "bike_id": "f7d49c64f0f8400d1d2fbdaba6ae9942", "type": "electric_scooter", "lon": -77.04654283333333, "is_reserved": 0, "fusion_lat": 0.0, "fusion_lon": 0.0}, {"name": "cb1037831112cc7ab2ef9e2f6f60f391", "is_disabled": 0, "lat": 38.93630816666666, "rental_uris": {"ios": "https://dc.lft.to/lastmile_qr_scan", "android": "https://dc.lft.to/lastmile_qr_scan"}, "bike_id": "cb1037831112cc7ab2ef9e2f6f60f391", "type": "electric_scooter", "lon": -77.036644, "is_reserved": 0, "fusion_lat": 0.0, "fusion_lon": 0.0}, {"name": "5593084a1ef490abb6437b43ec4b3b53", "is_disabled": 0, "lat": 38.883413833333336, "rental_uris": {"ios": "https://dc.lft.to/lastmile_qr_scan", "android": "https://dc.lft.to/lastmile_qr_scan"}, "bike_id": "5593084a1ef490abb6437b43ec4b3b53", "type": "electric_scooter", "lon": -77.03163816666667, "is_reserved": 0, "fusion_lat": 0.0, "fusion_lon": 0.0}, {"name": "55aec7a4c2a740a109a1190bf82405a4", "is_disabled": 0, "lat": 38.913461833333336, "rental_uris": {"ios": "https://dc.lft.to/lastmile_qr_scan", "android": "https://dc.lft.to/lastmile_qr_scan"}, "bike_id": "55aec7a4c2a740a109a1190bf82405a4", "type": "electric_scooter", "lon": -77.01741883333334, "is_reserved": 0, "fusion_lat": 0.0, "fusion_lon": 0.0}, {"name": "dc90d9db53852dd10f0ffb3a9bd13a23", "is_disabled": 0, "lat": 38.8875275, "rental_uris": {"ios": "https://dc.lft.to/lastmile_qr_scan", "android": "https://dc.lft.to/lastmile_qr_scan"}, "bike_id": "dc90d9db53852dd10f0ffb3a9bd13a23", "type": "electric_scooter", "lon": -76.9960345, "is_reserved": 0, "fusion_lat": 0.0, "fusion_lon": 0.0}, {"name": "07599fe71430f8f1fc34c3bcd48d0108", "is_disabled": 0, "lat": 38.900763833333336, "rental_uris": {"ios": "https://dc.lft.to/lastmile_qr_scan", "android": "https://dc.lft.to/lastmile_qr_scan"}, "bike_id": "07599fe71430f8f1fc34c3bcd48d0108", "type": "electric_scooter", "lon": -77.04683083333333, "is_reserved": 0, "fusion_lat": 0.0, "fusion_lon": 0.0}, {"name": "2fc256adb98076f09de38d5f46a4a1fb", "is_disabled": 0, "lat": 38.94185433333333, "rental_uris": {"ios": "https://dc.lft.to/lastmile_qr_scan", "android": "https://dc.lft.to/lastmile_qr_scan"}, "bike_id": "2fc256adb98076f09de38d5f46a4a1fb", "type": "electric_scooter", "lon": -77.02615466666667, "is_reserved": 0, "fusion_lat": 0.0, "fusion_lon": 0.0}, {"name": "081ec624e110cd3ec846c5ff2681cee6", "is_disabled": 0, "lat": 38.847538666666665, "rental_uris": {"ios": "https://dc.lft.to/lastmile_qr_scan", "android": "https://dc.lft.to/lastmile_qr_scan"}, "bike_id": "081ec624e110cd3ec846c5ff2681cee6", "type": "electric_scooter", "lon": -76.99501216666667, "is_reserved": 0, "fusion_lat": 0.0, "fusion_lon": 0.0}, {"name": "6ed33a757bde0aff7d1b2e54e6c2ce3f", "is_disabled": 0, "lat": 38.898449666666664, "rental_uris": {"ios": "https://dc.lft.to/lastmile_qr_scan", "android": "https://dc.lft.to/lastmile_qr_scan"}, "bike_id": "6ed33a757bde0aff7d1b2e54e6c2ce3f", "type": "electric_scooter", "lon": -77.01343933333334, "is_reserved": 0, "fusion_lat": 0.0, "fusion_lon": 0.0}, {"name": "9466c84f170b714f394001cdbe09a002", "is_disabled": 0, "lat": 38.90684266666667, "rental_uris": {"ios": "https://dc.lft.to/lastmile_qr_scan", "android": "https://dc.lft.to/lastmile_qr_scan"}, "bike_id": "9466c84f170b714f394001cdbe09a002", "type": "electric_scooter", "lon": -77.0269575, "is_reserved": 0, "fusion_lat": 0.0, "fusion_lon": 0.0}, {"name": "c6b35fc9934f2ca0e1fad0053ed179c5", "is_disabled": 0, "lat": 38.924434833333336, "rental_uris": {"ios": "https://dc.lft.to/lastmile_qr_scan", "android": "https://dc.lft.to/lastmile_qr_scan"}, "bike_id": "c6b35fc9934f2ca0e1fad0053ed179c5", "type": "electric_scooter", "lon": -77.02160683333334, "is_reserved": 0, "fusion_lat": 0.0, "fusion_lon": 0.0}, {"name": "5b5c224044580ffb400d4d162f491322", "is_disabled": 0, "lat": 38.92145933333333, "rental_uris": {"ios": "https://dc.lft.to/lastmile_qr_scan", "android": "https://dc.lft.to/lastmile_qr_scan"}, "bike_id": "5b5c224044580ffb400d4d162f491322", "type": "electric_scooter", "lon": -76.993558, "is_reserved": 0, "fusion_lat": 0.0, "fusion_lon": 0.0}, {"name": "6b4c86e990afb2b78a5d3756c0b423c2", "is_disabled": 0, "lat": 38.8969545, "rental_uris": {"ios": "https://dc.lft.to/lastmile_qr_scan", "android": "https://dc.lft.to/lastmile_qr_scan"}, "bike_id": "6b4c86e990afb2b78a5d3756c0b423c2", "type": "electric_bike", "lon": -76.9630825, "is_reserved": 0, "fusion_lat": 0.0, "fusion_lon": 0.0}, {"name": "f2ebcdc3b6e6fd1bc906276b7e24c060", "is_disabled": 0, "lat": 38.901714, "rental_uris": {"ios": "https://dc.lft.to/lastmile_qr_scan", "android": "https://dc.lft.to/lastmile_qr_scan"}, "bike_id": "f2ebcdc3b6e6fd1bc906276b7e24c060", "type": "electric_scooter", "lon": -76.99268183333334, "is_reserved": 0, "fusion_lat": 0.0, "fusion_lon": 0.0}, {"name": "6f9e7f2f2cace63cf79057e5db2d475c", "is_disabled": 0, "lat": 38.92129383333334, "rental_uris": {"ios": "https://dc.lft.to/lastmile_qr_scan", "android": "https://dc.lft.to/lastmile_qr_scan"}, "bike_id": "6f9e7f2f2cace63cf79057e5db2d475c", "type": "electric_scooter", "lon": -77.02528966666667, "is_reserved": 0, "fusion_lat": 0.0, "fusion_lon": 0.0}, {"name": "bf0b15ebbc0b99ab35e9510cd974850c", "is_disabled": 0, "lat": 38.89606966666667, "rental_uris": {"ios": "https://dc.lft.to/lastmile_qr_scan", "android": "https://dc.lft.to/lastmile_qr_scan"}, "bike_id": "bf0b15ebbc0b99ab35e9510cd974850c", "type": "electric_scooter", "lon": -77.00561733333333, "is_reserved": 0, "fusion_lat": 0.0, "fusion_lon": 0.0}, {"name": "6f0ae41e33f56f0ab2ccd495f3f5c1f5", "is_disabled": 0, "lat": 38.90361083333333, "rental_uris": {"ios": "https://dc.lft.to/lastmile_qr_scan", "android": "https://dc.lft.to/lastmile_qr_scan"}, "bike_id": "6f0ae41e33f56f0ab2ccd495f3f5c1f5", "type": "electric_scooter", "lon": -77.00984483333333, "is_reserved": 0, "fusion_lat": 0.0, "fusion_lon": 0.0}, {"name": "0ac8af1906bcccade897462b65996417", "is_disabled": 0, "lat": 38.88369566666667, "rental_uris": {"ios": "https://dc.lft.to/lastmile_qr_scan", "android": "https://dc.lft.to/lastmile_qr_scan"}, "bike_id": "0ac8af1906bcccade897462b65996417", "type": "electric_scooter", "lon": -76.9952185, "is_reserved": 0, "fusion_lat": 0.0, "fusion_lon": 0.0}, {"name": "d8b2701925bdea0d9d9a63c86191c9b1", "is_disabled": 0, "lat": 38.917178, "rental_uris": {"ios": "https://dc.lft.to/lastmile_qr_scan", "android": "https://dc.lft.to/lastmile_qr_scan"}, "bike_id": "d8b2701925bdea0d9d9a63c86191c9b1", "type": "electric_scooter", "lon": -77.02308683333334, "is_reserved": 0, "fusion_lat": 0.0, "fusion_lon": 0.0}, {"name": "a54ff449311e7f35c43c58af329cae66", "is_disabled": 0, "lat": 38.909475, "rental_uris": {"ios": "https://dc.lft.to/lastmile_qr_scan", "android": "https://dc.lft.to/lastmile_qr_scan"}, "bike_id": "a54ff449311e7f35c43c58af329cae66", "type": "electric_scooter", "lon": -77.02718116666667, "is_reserved": 0, "fusion_lat": 0.0, "fusion_lon": 0.0}, {"name": "382f2019289ca760419e9fc34baf6ad3", "is_disabled": 0, "lat": 38.892191, "rental_uris": {"ios": "https://dc.lft.to/lastmile_qr_scan", "android": "https://dc.lft.to/lastmile_qr_scan"}, "bike_id": "382f2019289ca760419e9fc34baf6ad3", "type": "electric_scooter", "lon": -77.02657066666667, "is_reserved": 0, "fusion_lat": 0.0, "fusion_lon": 0.0}, {"name": "b0d7eaff43125bd70498e92b11d8b37b", "is_disabled": 0, "lat": 38.9499805, "rental_uris": {"ios": "https://dc.lft.to/lastmile_qr_scan", "android": "https://dc.lft.to/lastmile_qr_scan"}, "bike_id": "b0d7eaff43125bd70498e92b11d8b37b", "type": "electric_scooter", "lon": -77.08048883333333, "is_reserved": 0, "fusion_lat": 0.0, "fusion_lon": 0.0}, {"name": "50c10b35fb63145a5776203cf7fc4932", "is_disabled": 0, "lat": 38.921857833333334, "rental_uris": {"ios": "https://dc.lft.to/lastmile_qr_scan", "android": "https://dc.lft.to/lastmile_qr_scan"}, "bike_id": "50c10b35fb63145a5776203cf7fc4932", "type": "electric_scooter", "lon": -77.039824, "is_reserved": 0, "fusion_lat": 0.0, "fusion_lon": 0.0}, {"name": "cc3bdcb5bbb5af35e1beaf094f48e677", "is_disabled": 0, "lat": 38.90009416666667, "rental_uris": {"ios": "https://dc.lft.to/lastmile_qr_scan", "android": "https://dc.lft.to/lastmile_qr_scan"}, "bike_id": "cc3bdcb5bbb5af35e1beaf094f48e677", "type": "electric_scooter", "lon": -77.04173316666666, "is_reserved": 0, "fusion_lat": 0.0, "fusion_lon": 0.0}, {"name": "132a94523bc59857ae5880647dac1226", "is_disabled": 0, "lat": 38.893569166666666, "rental_uris": {"ios": "https://dc.lft.to/lastmile_qr_scan", "android": "https://dc.lft.to/lastmile_qr_scan"}, "bike_id": "132a94523bc59857ae5880647dac1226", "type": "electric_scooter", "lon": -77.003333, "is_reserved": 0, "fusion_lat": 0.0, "fusion_lon": 0.0}, {"name": "3df7e3ac37d712de3891cac673d489fd", "is_disabled": 0, "lat": 38.905465166666666, "rental_uris": {"ios": "https://dc.lft.to/lastmile_qr_scan", "android": "https://dc.lft.to/lastmile_qr_scan"}, "bike_id": "3df7e3ac37d712de3891cac673d489fd", "type": "electric_scooter", "lon": -76.99478166666667, "is_reserved": 0, "fusion_lat": 0.0, "fusion_lon": 0.0}, {"name": "ae60bd2caa1b1710c7f0ede3e47bada8", "is_disabled": 0, "lat": 38.941755, "rental_uris": {"ios": "https://dc.lft.to/lastmile_qr_scan", "android": "https://dc.lft.to/lastmile_qr_scan"}, "bike_id": "ae60bd2caa1b1710c7f0ede3e47bada8", "type": "electric_scooter", "lon": -77.03150983333333, "is_reserved": 0, "fusion_lat": 0.0, "fusion_lon": 0.0}, {"name": "131bb94295a158902b7ed5af8620cb2d", "is_disabled": 0, "lat": 38.91859783333334, "rental_uris": {"ios": "https://dc.lft.to/lastmile_qr_scan", "android": "https://dc.lft.to/lastmile_qr_scan"}, "bike_id": "131bb94295a158902b7ed5af8620cb2d", "type": "electric_scooter", "lon": -77.03660766666667, "is_reserved": 0, "fusion_lat": 0.0, "fusion_lon": 0.0}, {"name": "dc86c41954356618b44447638ebf4ed9", "is_disabled": 0, "lat": 38.924044333333335, "rental_uris": {"ios": "https://dc.lft.to/lastmile_qr_scan", "android": "https://dc.lft.to/lastmile_qr_scan"}, "bike_id": "dc86c41954356618b44447638ebf4ed9", "type": "electric_scooter", "lon": -77.02701283333333, "is_reserved": 0, "fusion_lat": 0.0, "fusion_lon": 0.0}, {"name": "59e4547cb3db779b62e4c4d3edf74202", "is_disabled": 0, "lat": 38.90867766666667, "rental_uris": {"ios": "https://dc.lft.to/lastmile_qr_scan", "android": "https://dc.lft.to/lastmile_qr_scan"}, "bike_id": "59e4547cb3db779b62e4c4d3edf74202", "type": "electric_scooter", "lon": -77.03192266666667, "is_reserved": 0, "fusion_lat": 0.0, "fusion_lon": 0.0}, {"name": "15471e30038e3b248b1492ce0ae45f95", "is_disabled": 0, "lat": 38.927898, "rental_uris": {"ios": "https://dc.lft.to/lastmile_qr_scan", "android": "https://dc.lft.to/lastmile_qr_scan"}, "bike_id": "15471e30038e3b248b1492ce0ae45f95", "type": "electric_scooter", "lon": -77.024592, "is_reserved": 0, "fusion_lat": 0.0, "fusion_lon": 0.0}, {"name": "8548de576f4c80a497dce7e1c165d1be", "is_disabled": 0, "lat": 38.88739566666667, "rental_uris": {"ios": "https://dc.lft.to/lastmile_qr_scan", "android": "https://dc.lft.to/lastmile_qr_scan"}, "bike_id": "8548de576f4c80a497dce7e1c165d1be", "type": "electric_scooter", "lon": -77.03077216666667, "is_reserved": 0, "fusion_lat": 0.0, "fusion_lon": 0.0}, {"name": "07b63fbad98fb6a1dda4a1dd33778ed5", "is_disabled": 0, "lat": 38.879638, "rental_uris": {"ios": "https://dc.lft.to/lastmile_qr_scan", "android": "https://dc.lft.to/lastmile_qr_scan"}, "bike_id": "07b63fbad98fb6a1dda4a1dd33778ed5", "type": "electric_bike", "lon": -76.91619783333333, "is_reserved": 0, "fusion_lat": 0.0, "fusion_lon": 0.0}, {"name": "0adc06c2a594011da806ed68e53bed2f", "is_disabled": 0, "lat": 38.90891833333333, "rental_uris": {"ios": "https://dc.lft.to/lastmile_qr_scan", "android": "https://dc.lft.to/lastmile_qr_scan"}, "bike_id": "0adc06c2a594011da806ed68e53bed2f", "type": "electric_scooter", "lon": -77.03861316666666, "is_reserved": 0, "fusion_lat": 0.0, "fusion_lon": 0.0}, {"name": "15bd36735a1147a7a97bdd8c5a197460", "is_disabled": 0, "lat": 38.899026166666665, "rental_uris": {"ios": "https://dc.lft.to/lastmile_qr_scan", "android": "https://dc.lft.to/lastmile_qr_scan"}, "bike_id": "15bd36735a1147a7a97bdd8c5a197460", "type": "electric_scooter", "lon": -76.99165566666667, "is_reserved": 0, "fusion_lat": 0.0, "fusion_lon": 0.0}, {"name": "526e006c9246ec6744229f543d6c1e0b", "is_disabled": 0, "lat": 38.919195333333334, "rental_uris": {"ios": "https://dc.lft.to/lastmile_qr_scan", "android": "https://dc.lft.to/lastmile_qr_scan"}, "bike_id": "526e006c9246ec6744229f543d6c1e0b", "type": "electric_scooter", "lon": -77.03215716666666, "is_reserved": 0, "fusion_lat": 0.0, "fusion_lon": 0.0}, {"name": "34b2c71ef08a2973abfdfe2ba3093b0b", "is_disabled": 0, "lat": 38.899658333333335, "rental_uris": {"ios": "https://dc.lft.to/lastmile_qr_scan", "android": "https://dc.lft.to/lastmile_qr_scan"}, "bike_id": "34b2c71ef08a2973abfdfe2ba3093b0b", "type": "electric_scooter", "lon": -77.01616083333333, "is_reserved": 0, "fusion_lat": 0.0, "fusion_lon": 0.0}, {"name": "f65a7be749828ae3409cd45e4616b6ec", "is_disabled": 0, "lat": 38.956038, "rental_uris": {"ios": "https://dc.lft.to/lastmile_qr_scan", "android": "https://dc.lft.to/lastmile_qr_scan"}, "bike_id": "f65a7be749828ae3409cd45e4616b6ec", "type": "electric_scooter", "lon": -77.03357133333333, "is_reserved": 0, "fusion_lat": 0.0, "fusion_lon": 0.0}, {"name": "520f8befe57a35d6e7ba8d0213b70b89", "is_disabled": 0, "lat": 38.8928395, "rental_uris": {"ios": "https://dc.lft.to/lastmile_qr_scan", "android": "https://dc.lft.to/lastmile_qr_scan"}, "bike_id": "520f8befe57a35d6e7ba8d0213b70b89", "type": "electric_scooter", "lon": -76.92998133333333, "is_reserved": 0, "fusion_lat": 0.0, "fusion_lon": 0.0}, {"name": "debc160bb41f0899057e15aa7e0b2ee6", "is_disabled": 0, "lat": 38.812483666666665, "rental_uris": {"ios": "https://dc.lft.to/lastmile_qr_scan", "android": "https://dc.lft.to/lastmile_qr_scan"}, "bike_id": "debc160bb41f0899057e15aa7e0b2ee6", "type": "electric_bike", "lon": -77.11771816666666, "is_reserved": 0, "fusion_lat": 0.0, "fusion_lon": 0.0}, {"name": "10db0e27d1878a8df5d9b9fbf6f53d05", "is_disabled": 0, "lat": 38.80757066666666, "rental_uris": {"ios": "https://dc.lft.to/lastmile_qr_scan", "android": "https://dc.lft.to/lastmile_qr_scan"}, "bike_id": "10db0e27d1878a8df5d9b9fbf6f53d05", "type": "electric_bike", "lon": -77.09472633333333, "is_reserved": 0, "fusion_lat": 0.0, "fusion_lon": 0.0}, {"name": "2251e8c0de805356900f9debf16b2271", "is_disabled": 0, "lat": 38.9012, "rental_uris": {"ios": "https://dc.lft.to/lastmile_qr_scan", "android": "https://dc.lft.to/lastmile_qr_scan"}, "bike_id": "2251e8c0de805356900f9debf16b2271", "type": "electric_scooter", "lon": -77.049841, "is_reserved": 0, "fusion_lat": 0.0, "fusion_lon": 0.0}, {"name": "46ecbcaa5b7cf8b544f830923be6e6cb", "is_disabled": 0, "lat": 38.86216316666667, "rental_uris": {"ios": "https://dc.lft.to/lastmile_qr_scan", "android": "https://dc.lft.to/lastmile_qr_scan"}, "bike_id": "46ecbcaa5b7cf8b544f830923be6e6cb", "type": "electric_bike", "lon": -76.99490083333333, "is_reserved": 0, "fusion_lat": 0.0, "fusion_lon": 0.0}, {"name": "6ba52821fe8a86692caa701c6ccf1782", "is_disabled": 0, "lat": 38.878884666666664, "rental_uris": {"ios": "https://dc.lft.to/lastmile_qr_scan", "android": "https://dc.lft.to/lastmile_qr_scan"}, "bike_id": "6ba52821fe8a86692caa701c6ccf1782", "type": "electric_scooter", "lon": -77.0080955, "is_reserved": 0, "fusion_lat": 0.0, "fusion_lon": 0.0}, {"name": "9453b1f4039a3246df6bc30061345fce", "is_disabled": 0, "lat": 38.873663, "rental_uris": {"ios": "https://dc.lft.to/lastmile_qr_scan", "android": "https://dc.lft.to/lastmile_qr_scan"}, "bike_id": "9453b1f4039a3246df6bc30061345fce", "type": "electric_scooter", "lon": -77.00116233333334, "is_reserved": 0, "fusion_lat": 0.0, "fusion_lon": 0.0}, {"name": "99dda25bd83905013149126f912391fa", "is_disabled": 0, "lat": 38.90744316666667, "rental_uris": {"ios": "https://dc.lft.to/lastmile_qr_scan", "android": "https://dc.lft.to/lastmile_qr_scan"}, "bike_id": "99dda25bd83905013149126f912391fa", "type": "electric_scooter", "lon": -76.93551783333334, "is_reserved": 0, "fusion_lat": 0.0, "fusion_lon": 0.0}, {"name": "cbe2c9cf7f417e771a6054c5e96d8ffe", "is_disabled": 0, "lat": 38.92669983333333, "rental_uris": {"ios": "https://dc.lft.to/lastmile_qr_scan", "android": "https://dc.lft.to/lastmile_qr_scan"}, "bike_id": "cbe2c9cf7f417e771a6054c5e96d8ffe", "type": "electric_scooter", "lon": -77.0147185, "is_reserved": 0, "fusion_lat": 0.0, "fusion_lon": 0.0}, {"name": "06fd97d8618473be234582b29e53f195", "is_disabled": 0, "lat": 38.904056833333335, "rental_uris": {"ios": "https://dc.lft.to/lastmile_qr_scan", "android": "https://dc.lft.to/lastmile_qr_scan"}, "bike_id": "06fd97d8618473be234582b29e53f195", "type": "electric_scooter", "lon": -77.06820083333334, "is_reserved": 0, "fusion_lat": 0.0, "fusion_lon": 0.0}, {"name": "ebe0d43eac3f3f38b1194bf7080c565b", "is_disabled": 0, "lat": 38.922344333333335, "rental_uris": {"ios": "https://dc.lft.to/lastmile_qr_scan", "android": "https://dc.lft.to/lastmile_qr_scan"}, "bike_id": "ebe0d43eac3f3f38b1194bf7080c565b", "type": "electric_scooter", "lon": -77.04246866666666, "is_reserved": 0, "fusion_lat": 0.0, "fusion_lon": 0.0}, {"name": "09c9aebdf942b4f017ebd2bd12b62678", "is_disabled": 0, "lat": 38.89219533333333, "rental_uris": {"ios": "https://dc.lft.to/lastmile_qr_scan", "android": "https://dc.lft.to/lastmile_qr_scan"}, "bike_id": "09c9aebdf942b4f017ebd2bd12b62678", "type": "electric_scooter", "lon": -77.03341316666666, "is_reserved": 0, "fusion_lat": 0.0, "fusion_lon": 0.0}, {"name": "ce46435fbbd6881d4f2106b3c2c4b508", "is_disabled": 0, "lat": 38.900369166666664, "rental_uris": {"ios": "https://dc.lft.to/lastmile_qr_scan", "android": "https://dc.lft.to/lastmile_qr_scan"}, "bike_id": "ce46435fbbd6881d4f2106b3c2c4b508", "type": "electric_scooter", "lon": -76.99157166666667, "is_reserved": 0, "fusion_lat": 0.0, "fusion_lon": 0.0}, {"name": "456bf51ce729fbad1dd8b8453fd9cc86", "is_disabled": 0, "lat": 38.905778833333336, "rental_uris": {"ios": "https://dc.lft.to/lastmile_qr_scan", "android": "https://dc.lft.to/lastmile_qr_scan"}, "bike_id": "456bf51ce729fbad1dd8b8453fd9cc86", "type": "electric_scooter", "lon": -77.005992, "is_reserved": 0, "fusion_lat": 0.0, "fusion_lon": 0.0}, {"name": "e91c795d7d6fa40b8e73eeed97a85486", "is_disabled": 0, "lat": 38.901461, "rental_uris": {"ios": "https://dc.lft.to/lastmile_qr_scan", "android": "https://dc.lft.to/lastmile_qr_scan"}, "bike_id": "e91c795d7d6fa40b8e73eeed97a85486", "type": "electric_scooter", "lon": -77.02285883333333, "is_reserved": 0, "fusion_lat": 0.0, "fusion_lon": 0.0}, {"name": "7d375a9ce70b3aa4e3e94a9f1b4272b4", "is_disabled": 0, "lat": 38.89516316666667, "rental_uris": {"ios": "https://dc.lft.to/lastmile_qr_scan", "android": "https://dc.lft.to/lastmile_qr_scan"}, "bike_id": "7d375a9ce70b3aa4e3e94a9f1b4272b4", "type": "electric_scooter", "lon": -77.00362833333334, "is_reserved": 0, "fusion_lat": 0.0, "fusion_lon": 0.0}, {"name": "eab1c69fc667376c70768c70fe93adec", "is_disabled": 0, "lat": 38.901974833333334, "rental_uris": {"ios": "https://dc.lft.to/lastmile_qr_scan", "android": "https://dc.lft.to/lastmile_qr_scan"}, "bike_id": "eab1c69fc667376c70768c70fe93adec", "type": "electric_scooter", "lon": -77.02351466666667, "is_reserved": 0, "fusion_lat": 0.0, "fusion_lon": 0.0}, {"name": "a0cab04a38ba0ee2d5eef82d1be661dd", "is_disabled": 0, "lat": 38.8903035, "rental_uris": {"ios": "https://dc.lft.to/lastmile_qr_scan", "android": "https://dc.lft.to/lastmile_qr_scan"}, "bike_id": "a0cab04a38ba0ee2d5eef82d1be661dd", "type": "electric_scooter", "lon": -76.93757733333334, "is_reserved": 0, "fusion_lat": 0.0, "fusion_lon": 0.0}, {"name": "92b1fba33b301245e59a9608811cd0b8", "is_disabled": 0, "lat": 38.932229166666666, "rental_uris": {"ios": "https://dc.lft.to/lastmile_qr_scan", "android": "https://dc.lft.to/lastmile_qr_scan"}, "bike_id": "92b1fba33b301245e59a9608811cd0b8", "type": "electric_scooter", "lon": -76.99496316666666, "is_reserved": 0, "fusion_lat": 0.0, "fusion_lon": 0.0}, {"name": "e28a1495d969f3a37e676336b8d6a400", "is_disabled": 0, "lat": 38.923388333333335, "rental_uris": {"ios": "https://dc.lft.to/lastmile_qr_scan", "android": "https://dc.lft.to/lastmile_qr_scan"}, "bike_id": "e28a1495d969f3a37e676336b8d6a400", "type": "electric_scooter", "lon": -77.05184366666667, "is_reserved": 0, "fusion_lat": 0.0, "fusion_lon": 0.0}, {"name": "97a6154bd0def4fd9baef0a33cdbbb20", "is_disabled": 0, "lat": 38.9066375, "rental_uris": {"ios": "https://dc.lft.to/lastmile_qr_scan", "android": "https://dc.lft.to/lastmile_qr_scan"}, "bike_id": "97a6154bd0def4fd9baef0a33cdbbb20", "type": "electric_scooter", "lon": -77.01062916666666, "is_reserved": 0, "fusion_lat": 0.0, "fusion_lon": 0.0}, {"name": "6c6435d200a1dac45e90f9d2aa0d0eef", "is_disabled": 0, "lat": 38.90033616666667, "rental_uris": {"ios": "https://dc.lft.to/lastmile_qr_scan", "android": "https://dc.lft.to/lastmile_qr_scan"}, "bike_id": "6c6435d200a1dac45e90f9d2aa0d0eef", "type": "electric_scooter", "lon": -76.99853483333334, "is_reserved": 0, "fusion_lat": 0.0, "fusion_lon": 0.0}, {"name": "80b0c2f409e98d00f15efb735699d90c", "is_disabled": 0, "lat": 38.9179755, "rental_uris": {"ios": "https://dc.lft.to/lastmile_qr_scan", "android": "https://dc.lft.to/lastmile_qr_scan"}, "bike_id": "80b0c2f409e98d00f15efb735699d90c", "type": "electric_scooter", "lon": -77.02713066666666, "is_reserved": 0, "fusion_lat": 0.0, "fusion_lon": 0.0}, {"name": "8c277a724c40c84005e11670b0ddd0ee", "is_disabled": 0, "lat": 38.89609133333333, "rental_uris": {"ios": "https://dc.lft.to/lastmile_qr_scan", "android": "https://dc.lft.to/lastmile_qr_scan"}, "bike_id": "8c277a724c40c84005e11670b0ddd0ee", "type": "electric_scooter", "lon": -76.98114133333333, "is_reserved": 0, "fusion_lat": 0.0, "fusion_lon": 0.0}, {"name": "44882b8539ceefcc59abefca4e799d6e", "is_disabled": 0, "lat": 38.919359, "rental_uris": {"ios": "https://dc.lft.to/lastmile_qr_scan", "android": "https://dc.lft.to/lastmile_qr_scan"}, "bike_id": "44882b8539ceefcc59abefca4e799d6e", "type": "electric_scooter", "lon": -77.03038966666666, "is_reserved": 0, "fusion_lat": 0.0, "fusion_lon": 0.0}, {"name": "794fd1b2771e02fdf2689d6ca40b8775", "is_disabled": 0, "lat": 38.928797333333335, "rental_uris": {"ios": "https://dc.lft.to/lastmile_qr_scan", "android": "https://dc.lft.to/lastmile_qr_scan"}, "bike_id": "794fd1b2771e02fdf2689d6ca40b8775", "type": "electric_scooter", "lon": -77.03250516666667, "is_reserved": 0, "fusion_lat": 0.0, "fusion_lon": 0.0}, {"name": "ee8ccd1949d8be2f11c911835f2d4d84", "is_disabled": 0, "lat": 38.90549133333333, "rental_uris": {"ios": "https://dc.lft.to/lastmile_qr_scan", "android": "https://dc.lft.to/lastmile_qr_scan"}, "bike_id": "ee8ccd1949d8be2f11c911835f2d4d84", "type": "electric_scooter", "lon": -77.0059865, "is_reserved": 0, "fusion_lat": 0.0, "fusion_lon": 0.0}, {"name": "681899e25671081da591f6d5ab1c3657", "is_disabled": 0, "lat": 38.89449183333333, "rental_uris": {"ios": "https://dc.lft.to/lastmile_qr_scan", "android": "https://dc.lft.to/lastmile_qr_scan"}, "bike_id": "681899e25671081da591f6d5ab1c3657", "type": "electric_scooter", "lon": -76.9781255, "is_reserved": 0, "fusion_lat": 0.0, "fusion_lon": 0.0}, {"name": "867fdd14bfd7c9d13ed14ce2f50ea8d0", "is_disabled": 0, "lat": 38.9002925, "rental_uris": {"ios": "https://dc.lft.to/lastmile_qr_scan", "android": "https://dc.lft.to/lastmile_qr_scan"}, "bike_id": "867fdd14bfd7c9d13ed14ce2f50ea8d0", "type": "electric_scooter", "lon": -77.0345745, "is_reserved": 0, "fusion_lat": 0.0, "fusion_lon": 0.0}, {"name": "7b9f417ba3651335df2716164519a060", "is_disabled": 0, "lat": 38.907369833333334, "rental_uris": {"ios": "https://dc.lft.to/lastmile_qr_scan", "android": "https://dc.lft.to/lastmile_qr_scan"}, "bike_id": "7b9f417ba3651335df2716164519a060", "type": "electric_scooter", "lon": -77.0415775, "is_reserved": 0, "fusion_lat": 0.0, "fusion_lon": 0.0}, {"name": "712f312fe3ad9f95070d7c0b344ddad4", "is_disabled": 0, "lat": 38.9206165, "rental_uris": {"ios": "https://dc.lft.to/lastmile_qr_scan", "android": "https://dc.lft.to/lastmile_qr_scan"}, "bike_id": "712f312fe3ad9f95070d7c0b344ddad4", "type": "electric_scooter", "lon": -77.02224216666667, "is_reserved": 0, "fusion_lat": 0.0, "fusion_lon": 0.0}, {"name": "b873a091cd5d028b28d5ac4d1cff7bdd", "is_disabled": 0, "lat": 38.9166435, "rental_uris": {"ios": "https://dc.lft.to/lastmile_qr_scan", "android": "https://dc.lft.to/lastmile_qr_scan"}, "bike_id": "b873a091cd5d028b28d5ac4d1cff7bdd", "type": "electric_scooter", "lon": -77.02413566666667, "is_reserved": 0, "fusion_lat": 0.0, "fusion_lon": 0.0}, {"name": "d6bb5eab362c71e179fa1a6215e255da", "is_disabled": 0, "lat": 38.898955, "rental_uris": {"ios": "https://dc.lft.to/lastmile_qr_scan", "android": "https://dc.lft.to/lastmile_qr_scan"}, "bike_id": "d6bb5eab362c71e179fa1a6215e255da", "type": "electric_scooter", "lon": -77.0408595, "is_reserved": 0, "fusion_lat": 0.0, "fusion_lon": 0.0}, {"name": "b5c3bded1d92e9b30e6c6a4ad175438d", "is_disabled": 0, "lat": 38.90387416666667, "rental_uris": {"ios": "https://dc.lft.to/lastmile_qr_scan", "android": "https://dc.lft.to/lastmile_qr_scan"}, "bike_id": "b5c3bded1d92e9b30e6c6a4ad175438d", "type": "electric_scooter", "lon": -77.043144, "is_reserved": 0, "fusion_lat": 0.0, "fusion_lon": 0.0}, {"name": "0aa6c8e14dd311fd4f68d448e2eae9a5", "is_disabled": 0, "lat": 38.88729466666667, "rental_uris": {"ios": "https://dc.lft.to/lastmile_qr_scan", "android": "https://dc.lft.to/lastmile_qr_scan"}, "bike_id": "0aa6c8e14dd311fd4f68d448e2eae9a5", "type": "electric_scooter", "lon": -77.02384216666667, "is_reserved": 0, "fusion_lat": 0.0, "fusion_lon": 0.0}, {"name": "321e7f62ec0ddfe3a7b598e36f1fc16d", "is_disabled": 0, "lat": 38.899032166666665, "rental_uris": {"ios": "https://dc.lft.to/lastmile_qr_scan", "android": "https://dc.lft.to/lastmile_qr_scan"}, "bike_id": "321e7f62ec0ddfe3a7b598e36f1fc16d", "type": "electric_scooter", "lon": -77.03966183333333, "is_reserved": 0, "fusion_lat": 0.0, "fusion_lon": 0.0}, {"name": "5126ad469faa736db72aa62440a6b5c8", "is_disabled": 0, "lat": 38.917969666666664, "rental_uris": {"ios": "https://dc.lft.to/lastmile_qr_scan", "android": "https://dc.lft.to/lastmile_qr_scan"}, "bike_id": "5126ad469faa736db72aa62440a6b5c8", "type": "electric_scooter", "lon": -77.027083, "is_reserved": 0, "fusion_lat": 0.0, "fusion_lon": 0.0}, {"name": "1a521db06866defae93d1a8c5508ee12", "is_disabled": 0, "lat": 38.902665, "rental_uris": {"ios": "https://dc.lft.to/lastmile_qr_scan", "android": "https://dc.lft.to/lastmile_qr_scan"}, "bike_id": "1a521db06866defae93d1a8c5508ee12", "type": "electric_scooter", "lon": -77.0531605, "is_reserved": 0, "fusion_lat": 0.0, "fusion_lon": 0.0}, {"name": "8c4c1deaed74c8986281b991c437a318", "is_disabled": 0, "lat": 38.91468016666666, "rental_uris": {"ios": "https://dc.lft.to/lastmile_qr_scan", "android": "https://dc.lft.to/lastmile_qr_scan"}, "bike_id": "8c4c1deaed74c8986281b991c437a318", "type": "electric_scooter", "lon": -77.03849883333334, "is_reserved": 0, "fusion_lat": 0.0, "fusion_lon": 0.0}, {"name": "fc29e3e35bacee9f3d96c9a97a94e7de", "is_disabled": 0, "lat": 38.9304295, "rental_uris": {"ios": "https://dc.lft.to/lastmile_qr_scan", "android": "https://dc.lft.to/lastmile_qr_scan"}, "bike_id": "fc29e3e35bacee9f3d96c9a97a94e7de", "type": "electric_scooter", "lon": -77.03268816666667, "is_reserved": 0, "fusion_lat": 0.0, "fusion_lon": 0.0}, {"name": "3cd6409136e7276cba2074906cf3ac81", "is_disabled": 0, "lat": 38.878953, "rental_uris": {"ios": "https://dc.lft.to/lastmile_qr_scan", "android": "https://dc.lft.to/lastmile_qr_scan"}, "bike_id": "3cd6409136e7276cba2074906cf3ac81", "type": "electric_scooter", "lon": -77.00577766666666, "is_reserved": 0, "fusion_lat": 0.0, "fusion_lon": 0.0}, {"name": "0d62e0596ac4ea6ad2b80ffbfb185b1e", "is_disabled": 0, "lat": 38.86532183333333, "rental_uris": {"ios": "https://dc.lft.to/lastmile_qr_scan", "android": "https://dc.lft.to/lastmile_qr_scan"}, "bike_id": "0d62e0596ac4ea6ad2b80ffbfb185b1e", "type": "electric_scooter", "lon": -76.98710366666667, "is_reserved": 0, "fusion_lat": 0.0, "fusion_lon": 0.0}, {"name": "840d1f089474ec3e5707807dc1b424d2", "is_disabled": 0, "lat": 38.90496783333333, "rental_uris": {"ios": "https://dc.lft.to/lastmile_qr_scan", "android": "https://dc.lft.to/lastmile_qr_scan"}, "bike_id": "840d1f089474ec3e5707807dc1b424d2", "type": "electric_scooter", "lon": -77.046614, "is_reserved": 0, "fusion_lat": 0.0, "fusion_lon": 0.0}, {"name": "1aedf0e116ecae2986b7da4b1350582c", "is_disabled": 0, "lat": 38.89219816666667, "rental_uris": {"ios": "https://dc.lft.to/lastmile_qr_scan", "android": "https://dc.lft.to/lastmile_qr_scan"}, "bike_id": "1aedf0e116ecae2986b7da4b1350582c", "type": "electric_scooter", "lon": -77.04644983333333, "is_reserved": 0, "fusion_lat": 0.0, "fusion_lon": 0.0},