{"data": {"bikes": [{"name": "3337c176f8bf43f4d88be10d9a0cb984", "fusion_lat": 0.0, "type": "electric_bike", "lat": 38.891912, "is_reserved": 0, "is_disabled": 0, "fusion_lon": 0.0, "bike_id": "3337c176f8bf43f4d88be10d9a0cb984", "lon": -77.1226105, "rental_uris": {"ios": "https://dc.lft.to/lastmile_qr_scan", "android": "https://dc.lft.to/lastmile_qr_scan"}}, {"name": "5776d605cb48b1a7794f823c813d8d28", "fusion_lat": 0.0, "type": "electric_scooter", "lat": 38.896077166666664, "is_reserved": 0, "is_disabled": 0, "fusion_lon": 0.0, "bike_id": "5776d605cb48b1a7794f823c813d8d28", "lon": -77.04689566666667, "rental_uris": {"ios": "https://dc.lft.to/lastmile_qr_scan", "android": "https://dc.lft.to/lastmile_qr_scan"}}, {"name": "497886e479728baa4d93ee287e15ffd3", "fusion_lat": 0.0, "type": "electric_bike", "lat": 38.81300233333333, "is_reserved": 0, "is_disabled": 0, "fusion_lon": 0.0, "bike_id": "497886e479728baa4d93ee287e15ffd3", "lon": -77.11194416666666, "rental_uris": {"ios": "https://dc.lft.to/lastmile_qr_scan", "android": "https://dc.lft.to/lastmile_qr_scan"}}, {"name": "5e6e807cc6ce2808e5809245fb16fe12", "fusion_lat": 0.0, "type": "electric_scooter", "lat": 38.90528783333333, "is_reserved": 0, "is_disabled": 0, "fusion_lon": 0.0, "bike_id": "5e6e807cc6ce2808e5809245fb16fe12", "lon": -77.050461, "rental_uris": {"ios": "https://dc.lft.to/lastmile_qr_scan", "android": "https://dc.lft.to/lastmile_qr_scan"}}, {"name": "513de0dd08fb992270619181cbebcf64", "fusion_lat": 0.0, "type": "electric_bike", "lat": 38.8319025, "is_reserved": 0, "is_disabled": 0, "fusion_lon": 0.0, "bike_id": "513de0dd08fb992270619181cbebcf64", "lon": -77.07685283333333, "rental_uris": {"ios": "https://dc.lft.to/lastmile_qr_scan", "android": "https://dc.lft.to/lastmile_qr_scan"}}, {"name": "6c67719615b6ccd2eee90161a52523d4", "fusion_lat": 0.0, "type": "electric_scooter", "lat": 38.92179633333333, "is_reserved": 0, "is_disabled": 0, "fusion_lon": 0.0, "bike_id": "6c67719615b6ccd2eee90161a52523d4", "lon": -77.04259466666667, "rental_uris": {"ios": "https://dc.lft.to/lastmile_qr_scan", "android": "https://dc.lft.to/lastmile_qr_scan"}}, {"name": "3693356f5b2d04062d0c92ce62e15acc", "fusion_lat": 0.0, "type": "electric_scooter", "lat": 38.90141333333333, "is_reserved": 0, "is_disabled": 0, "fusion_lon": 0.0, "bike_id": "3693356f5b2d04062d0c92ce62e15acc", "lon": -77.05927016666666, "rental_uris": {"ios": "https://dc.lft.to/lastmile_qr_scan", "android": "https://dc.lft.to/lastmile_qr_scan"}}, {"name": "0291c416e346ba403d2e36dc7f35f098", "fusion_lat": 0.0, "type": "electric_scooter", "lat": 38.89231566666667, "is_reserved": 0, "is_disabled": 0, "fusion_lon": 0.0, "bike_id": "0291c416e346ba403d2e36dc7f35f098", "lon": -77.05003383333333, "rental_uris": {"ios": "https://dc.lft.to/lastmile_qr_scan", "android": "https://dc.lft.to/lastmile_qr_scan"}}, {"name": "b66c060523452530af95b43f895b209b", "fusion_lat": 0.0, "type": "electric_scooter", "lat": 38.916905, "is_reserved": 0, "is_disabled": 0, "fusion_lon": 0.0, "bike_id": "b66c060523452530af95b43f895b209b", "lon": -77.04087433333333, "rental_uris": {"ios": "https://dc.lft.to/lastmile_qr_scan", "android": "https://dc.lft.to/lastmile_qr_scan"}}, {"name": "fbd25f23bdfef891d3216a1a8a50cefe", "fusion_lat": 0.0, "type": "electric_scooter", "lat": 38.933566666666664, "is_reserved": 0, "is_disabled": 0, "fusion_lon": 0.0, "bike_id": "fbd25f23bdfef891d3216a1a8a50cefe", "lon": -77.0372585, "rental_uris": {"ios": "https://dc.lft.to/lastmile_qr_scan", "android": "https://dc.lft.to/lastmile_qr_scan"}}, {"name": "1ca1e05f9532d04a5388e26fc9939667", "fusion_lat": 0.0, "type": "electric_scooter", "lat": 38.9001965, "is_reserved": 0, "is_disabled": 0, "fusion_lon": 0.0, "bike_id": "1ca1e05f9532d04a5388e26fc9939667", "lon": -77.04496183333333, "rental_uris": {"ios": "https://dc.lft.to/lastmile_qr_scan", "android": "https://dc.lft.to/lastmile_qr_scan"}}, {"name": "7e316185670ee3c9f5a01a7b8912b46d", "fusion_lat": 0.0, "type": "electric_scooter", "lat": 38.91672633333334, "is_reserved": 0, "is_disabled": 0, "fusion_lon": 0.0, "bike_id": "7e316185670ee3c9f5a01a7b8912b46d", "lon": -77.02898516666667, "rental_uris": {"ios": "https://dc.lft.to/lastmile_qr_scan", "android": "https://dc.lft.to/lastmile_qr_scan"}}, {"name": "385383cf55adc6fd2ddcb86bc5b4e000", "fusion_lat": 0.0, "type": "electric_scooter", "lat": 38.904482333333334, "is_reserved": 0, "is_disabled": 0, "fusion_lon": 0.0, "bike_id": "385383cf55adc6fd2ddcb86bc5b4e000", "lon": -77.03856833333333, "rental_uris": {"ios": "https://dc.lft.to/lastmile_qr_scan", "android": "https://dc.lft.to/lastmile_qr_scan"}}, {"name": "f3fa6cf888703af24bf235328c26df5d", "fusion_lat": 0.0, "type": "electric_bike", "lat": 38.95541516666667, "is_reserved": 0, "is_disabled": 0, "fusion_lon": 0.0, "bike_id": "f3fa6cf888703af24bf235328c26df5d", "lon": -76.9352365, "rental_uris": {"ios": "https://dc.lft.to/lastmile_qr_scan", "android": "https://dc.lft.to/lastmile_qr_scan"}}, {"name": "494614d5c3e978665065b363bee8fafa", "fusion_lat": 0.0, "type": "electric_scooter", "lat": 38.912323666666666, "is_reserved": 0, "is_disabled": 0, "fusion_lon": 0.0, "bike_id": "494614d5c3e978665065b363bee8fafa", "lon": -77.03838066666667, "rental_uris": {"ios": "https://dc.lft.to/lastmile_qr_scan", "android": "https://dc.lft.to/lastmile_qr_scan"}}, {"name": "396e0c5c4ef8cd02bbfbfe6bd3741bda", "fusion_lat": 0.0, "type": "electric_scooter", "lat": 38.90138283333334, "is_reserved": 0, "is_disabled": 0, "fusion_lon": 0.0, "bike_id": "396e0c5c4ef8cd02bbfbfe6bd3741bda", "lon": -77.03977516666667, "rental_uris": {"ios": "https://dc.lft.to/lastmile_qr_scan", "android": "https://dc.lft.to/lastmile_qr_scan"}}, {"name": "31683e36e526ec962ec8dd582fcf3966", "fusion_lat": 0.0, "type": "electric_scooter", "lat": 38.90669483333333, "is_reserved": 0, "is_disabled": 0, "fusion_lon": 0.0, "bike_id": "31683e36e526ec962ec8dd582fcf3966", "lon": -76.97811233333333, "rental_uris": {"ios": "https://dc.lft.to/lastmile_qr_scan", "android": "https://dc.lft.to/lastmile_qr_scan"}}, {"name": "0a4e5d6045d9eb09f7a31c570bca5bf0", "fusion_lat": 0.0, "type": "electric_scooter", "lat": 38.9161985, "is_reserved": 0, "is_disabled": 0, "fusion_lon": 0.0, "bike_id": "0a4e5d6045d9eb09f7a31c570bca5bf0", "lon": -77.02307016666667, "rental_uris": {"ios": "https://dc.lft.to/lastmile_qr_scan", "android": "https://dc.lft.to/lastmile_qr_scan"}}, {"name": "24f9985fd3bfa93edbf98a7a5ef4c8a2", "fusion_lat": 0.0, "type": "electric_bike", "lat": 38.850591333333334, "is_reserved": 0, "is_disabled": 0, "fusion_lon": 0.0, "bike_id": "24f9985fd3bfa93edbf98a7a5ef4c8a2", "lon": -76.97331, "rental_uris": {"ios": "https://dc.lft.to/lastmile_qr_scan", "android": "https://dc.lft.to/lastmile_qr_scan"}}, {"name": "7eda9ec922d466d94bbe4b35623318f6", "fusion_lat": 0.0, "type": "electric_scooter", "lat": 38.91264366666667, "is_reserved": 0, "is_disabled": 0, "fusion_lon": 0.0, "bike_id": "7eda9ec922d466d94bbe4b35623318f6", "lon": -77.04151033333333, "rental_uris": {"ios": "https://dc.lft.to/lastmile_qr_scan", "android": "https://dc.lft.to/lastmile_qr_scan"}}, {"name": "cda8dccd20656ea9ff2196da6b16ee17", "fusion_lat": 0.0, "type": "electric_bike", "lat": 38.973424666666666, "is_reserved": 0, "is_disabled": 0, "fusion_lon": 0.0, "bike_id": "cda8dccd20656ea9ff2196da6b16ee17", "lon": -77.10041033333333, "rental_uris": {"ios": "https://dc.lft.to/lastmile_qr_scan", "android": "https://dc.lft.to/lastmile_qr_scan"}}, {"name": "e0848777d1cb2ba87daf37e4d5310e88", "fusion_lat": 0.0, "type": "electric_scooter", "lat": 38.892261166666664, "is_reserved": 0, "is_disabled": 0, "fusion_lon": 0.0, "bike_id": "e0848777d1cb2ba87daf37e4d5310e88", "lon": -77.0464265, "rental_uris": {"ios": "https://dc.lft.to/lastmile_qr_scan", "android": "https://dc.lft.to/lastmile_qr_scan"}}, {"name": "7edc534b9015670b4cb6076486f9cb2f", "fusion_lat": 0.0, "type": "electric_scooter", "lat": 38.874933666666664, "is_reserved": 0, "is_disabled": 0, "fusion_lon": 0.0, "bike_id": "7edc534b9015670b4cb6076486f9cb2f", "lon": -77.0010715, "rental_uris": {"ios": "https://dc.lft.to/lastmile_qr_scan", "android": "https://dc.lft.to/lastmile_qr_scan"}}, {"name": "635974df4db38abe07465d20c4127ab7", "fusion_lat": 0.0, "type": "electric_scooter", "lat": 38.917330166666666, "is_reserved": 0, "is_disabled": 0, "fusion_lon": 0.0, "bike_id": "635974df4db38abe07465d20c4127ab7", "lon": -77.041531, "rental_uris": {"ios": "https://dc.lft.to/lastmile_qr_scan", "android": "https://dc.lft.to/lastmile_qr_scan"}}, {"name": "df4d0c32b8f0dca32b6b3e0f37d4602b", "fusion_lat": 0.0, "type": "electric_scooter", "lat": 38.896128166666664, "is_reserved": 0, "is_disabled": 0, "fusion_lon": 0.0, "bike_id": "df4d0c32b8f0dca32b6b3e0f37d4602b", "lon": -77.04692616666667, "rental_uris": {"ios": "https://dc.lft.to/lastmile_qr_scan", "android": "https://dc.lft.to/lastmile_qr_scan"}}, {"name": "0fa3ff655d91e1013aed63fa5aff63a6", "fusion_lat": 0.0, "type": "electric_scooter", "lat": 38.90242933333333, "is_reserved": 0, "is_disabled": 0, "fusion_lon": 0.0, "bike_id": "0fa3ff655d91e1013aed63fa5aff63a6", "lon": -77.0020395, "rental_uris": {"ios": "https://dc.lft.to/lastmile_qr_scan", "android": "https://dc.lft.to/lastmile_qr_scan"}}, {"name": "185ed7bbe3d0dbd63c30da8726446435", "fusion_lat": 0.0, "type": "electric_scooter", "lat": 38.9455105, "is_reserved": 0, "is_disabled": 0, "fusion_lon": 0.0, "bike_id": "185ed7bbe3d0dbd63c30da8726446435", "lon": -77.0423845, "rental_uris": {"ios": "https://dc.lft.to/lastmile_qr_scan", "android": "https://dc.lft.to/lastmile_qr_scan"}}, {"name": "549b9d8edc5f3507a604f8ca04780636", "fusion_lat": 0.0, "type": "electric_scooter", "lat": 38.96170266666667, "is_reserved": 0, "is_disabled": 0, "fusion_lon": 0.0, "bike_id": "549b9d8edc5f3507a604f8ca04780636", "lon": -77.032287, "rental_uris": {"ios": "https://dc.lft.to/lastmile_qr_scan", "android": "https://dc.lft.to/lastmile_qr_scan"}}, {"name": "3da3b1a3ad76a5b1f83682dbf03f0b48", "fusion_lat": 0.0, "type": "electric_scooter", "lat": 38.93187433333333, "is_reserved": 0, "is_disabled": 0, "fusion_lon": 0.0, "bike_id": "3da3b1a3ad76a5b1f83682dbf03f0b48", "lon": -77.02830133333333, "rental_uris": {"ios": "https://dc.lft.to/lastmile_qr_scan", "android": "https://dc.lft.to/lastmile_qr_scan"}}, {"name": "5a5043d46bb32081b6e02119bd365e69", "fusion_lat": 0.0, "type": "electric_scooter", "lat": 38.905736, "is_reserved": 0, "is_disabled": 0, "fusion_lon": 0.0, "bike_id": "5a5043d46bb32081b6e02119bd365e69", "lon": -77.046886, "rental_uris": {"ios": "https://dc.lft.to/lastmile_qr_scan", "android": "https://dc.lft.to/lastmile_qr_scan"}}, {"name": "c821df7da6b0ea084e7b82f35a0f919c", "fusion_lat": 0.0, "type": "electric_scooter", "lat": 38.90571083333333, "is_reserved": 0, "is_disabled": 0, "fusion_lon": 0.0, "bike_id": "c821df7da6b0ea084e7b82f35a0f919c", "lon": -77.0218375, "rental_uris": {"ios": "https://dc.lft.to/lastmile_qr_scan", "android": "https://dc.lft.to/lastmile_qr_scan"}}, {"name": "754a3c2e529e8f0c73203d2ca2662085", "fusion_lat": 0.0, "type": "electric_scooter", "lat": 38.920083, "is_reserved": 0, "is_disabled": 0, "fusion_lon": 0.0, "bike_id": "754a3c2e529e8f0c73203d2ca2662085", "lon": -76.98495516666667, "rental_uris": {"ios": "https://dc.lft.to/lastmile_qr_scan", "android": "https://dc.lft.to/lastmile_qr_scan"}}, {"name": "887ba0661f30d6bee9d9a208fe5442b4", "fusion_lat": 0.0, "type": "electric_bike", "lat": 38.9489745, "is_reserved": 0, "is_disabled": 0, "fusion_lon": 0.0, "bike_id": "887ba0661f30d6bee9d9a208fe5442b4", "lon": -76.96372566666666, "rental_uris": {"ios": "https://dc.lft.to/lastmile_qr_scan", "android": "https://dc.lft.to/lastmile_qr_scan"}}, {"name": "9625d2e87f6b2020fa54e667563489c0", "fusion_lat": 0.0, "type": "electric_scooter", "lat": 38.91841766666667, "is_reserved": 0, "is_disabled": 0, "fusion_lon": 0.0, "bike_id": "9625d2e87f6b2020fa54e667563489c0", "lon": -77.0260495, "rental_uris": {"ios": "https://dc.lft.to/lastmile_qr_scan", "android": "https://dc.lft.to/lastmile_qr_scan"}}, {"name": "ecfbdd2fcd8b4423aabaedf464223fcc", "fusion_lat": 0.0, "type": "electric_scooter", "lat": 38.90352633333333, "is_reserved": 0, "is_disabled": 0, "fusion_lon": 0.0, "bike_id": "ecfbdd2fcd8b4423aabaedf464223fcc", "lon": -77.01102933333334, "rental_uris": {"ios": "https://dc.lft.to/lastmile_qr_scan", "android": "https://dc.lft.to/lastmile_qr_scan"}}, {"name": "f4ca859a8fcb2efd27a65135b6d9007d", "fusion_lat": 0.0, "type": "electric_scooter", "lat": 38.88462966666667, "is_reserved": 0, "is_disabled": 0, "fusion_lon": 0.0, "bike_id": "f4ca859a8fcb2efd27a65135b6d9007d", "lon": -77.015317, "rental_uris": {"ios": "https://dc.lft.to/lastmile_qr_scan", "android": "https://dc.lft.to/lastmile_qr_scan"}}, {"name": "3a201626cbab4fe46440eca47b6c974b", "fusion_lat": 0.0, "type": "electric_scooter", "lat": 38.89874183333333, "is_reserved": 0, "is_disabled": 0, "fusion_lon": 0.0, "bike_id": "3a201626cbab4fe46440eca47b6c974b", "lon": -76.931614, "rental_uris": {"ios": "https://dc.lft.to/lastmile_qr_scan", "android": "https://dc.lft.to/lastmile_qr_scan"}}, {"name": "236f6c8721acaf8b824813aa380d39e9", "fusion_lat": 0.0, "type": "electric_scooter", "lat": 38.87418683333333, "is_reserved": 0, "is_disabled": 0, "fusion_lon": 0.0, "bike_id": "236f6c8721acaf8b824813aa380d39e9", "lon": -76.97177833333333, "rental_uris": {"ios": "https://dc.lft.to/lastmile_qr_scan", "android": "https://dc.lft.to/lastmile_qr_scan"}}, {"name": "a45dd3b950a89907997686580e7311f8", "fusion_lat": 0.0, "type": "electric_scooter", "lat": 38.94173333333333, "is_reserved": 0, "is_disabled": 0, "fusion_lon": 0.0, "bike_id": "a45dd3b950a89907997686580e7311f8", "lon": -77.0413605, "rental_uris": {"ios": "https://dc.lft.to/lastmile_qr_scan", "android": "https://dc.lft.to/lastmile_qr_scan"}}, {"name": "be4f98d37ea9cd1b54abdaa5c13cd17f", "fusion_lat": 0.0, "type": "electric_scooter", "lat": 38.90519066666667, "is_reserved": 0, "is_disabled": 0, "fusion_lon": 0.0, "bike_id": "be4f98d37ea9cd1b54abdaa5c13cd17f", "lon": -77.05450716666667, "rental_uris": {"ios": "https://dc.lft.to/lastmile_qr_scan", "android": "https://dc.lft.to/lastmile_qr_scan"}}, {"name": "6e7830a8decabd139131e3e7f49beae5", "fusion_lat": 0.0, "type": "electric_scooter", "lat": 38.91180966666667, "is_reserved": 0, "is_disabled": 0, "fusion_lon": 0.0, "bike_id": "6e7830a8decabd139131e3e7f49beae5", "lon": -77.03970033333333, "rental_uris": {"ios": "https://dc.lft.to/lastmile_qr_scan", "android": "https://dc.lft.to/lastmile_qr_scan"}}, {"name": "23a256b16fd8c7b5d9b9506231939111", "fusion_lat": 0.0, "type": "electric_scooter", "lat": 38.90054533333333, "is_reserved": 0, "is_disabled": 0, "fusion_lon": 0.0, "bike_id": "23a256b16fd8c7b5d9b9506231939111", "lon": -77.0453495, "rental_uris": {"ios": "https://dc.lft.to/lastmile_qr_scan", "android": "https://dc.lft.to/lastmile_qr_scan"}}, {"name": "9b6654061939ebcffbcb828f7ca27d5a", "fusion_lat": 0.0, "type": "electric_scooter", "lat": 38.90719833333333, "is_reserved": 0, "is_disabled": 0, "fusion_lon": 0.0, "bike_id": "9b6654061939ebcffbcb828f7ca27d5a", "lon": -77.029825, "rental_uris": {"ios": "https://dc.lft.to/lastmile_qr_scan", "android": "https://dc.lft.to/lastmile_qr_scan"}}, {"name": "1e993cf64883c7040759d5babe19b601", "fusion_lat": 0.0, "type": "electric_bike", "lat": 38.863820833333335, "is_reserved": 0, "is_disabled": 0, "fusion_lon": 0.0, "bike_id": "1e993cf64883c7040759d5babe19b601", "lon": -76.9899205, "rental_uris": {"ios": "https://dc.lft.to/lastmile_qr_scan", "android": "https://dc.lft.to/lastmile_qr_scan"}}, {"name": "23229bad4e93f8cb854800ec7096d6b9", "fusion_lat": 0.0, "type": "electric_scooter", "lat": 38.914924666666664, "is_reserved": 0, "is_disabled": 0, "fusion_lon": 0.0, "bike_id": "23229bad4e93f8cb854800ec7096d6b9", "lon": -77.03260116666667, "rental_uris": {"ios": "https://dc.lft.to/lastmile_qr_scan", "android": "https://dc.lft.to/lastmile_qr_scan"}}, {"name": "64d57379acaded2f63edd2f53862efb1", "fusion_lat": 0.0, "type": "electric_scooter", "lat": 38.892275, "is_reserved": 0, "is_disabled": 0, "fusion_lon": 0.0, "bike_id": "64d57379acaded2f63edd2f53862efb1", "lon": -77.04648116666667, "rental_uris": {"ios": "https://dc.lft.to/lastmile_qr_scan", "android": "https://dc.lft.to/lastmile_qr_scan"}}, {"name": "e947cd7e7269253e54e642983e936d55", "fusion_lat": 0.0, "type": "electric_scooter", "lat": 38.89673, "is_reserved": 0, "is_disabled": 0, "fusion_lon": 0.0, "bike_id": "e947cd7e7269253e54e642983e936d55", "lon": -76.9484945, "rental_uris": {"ios": "https://dc.lft.to/lastmile_qr_scan", "android": "https://dc.lft.to/lastmile_qr_scan"}}, {"name": "11b005fb4638383df1ef31635d4c69e5", "fusion_lat": 0.0, "type": "electric_bike", "lat": 38.90704083333333, "is_reserved": 0, "is_disabled": 0, "fusion_lon": 0.0, "bike_id": "11b005fb4638383df1ef31635d4c69e5", "lon": -77.05133083333334, "rental_uris": {"ios": "https://dc.lft.to/lastmile_qr_scan", "android": "https://dc.lft.to/lastmile_qr_scan"}}, {"name": "81d907fdad6228da2ea026deb96c7a5b", "fusion_lat": 0.0, "type": "electric_scooter", "lat": 38.879173333333334, "is_reserved": 0, "is_disabled": 0, "fusion_lon": 0.0, "bike_id": "81d907fdad6228da2ea026deb96c7a5b", "lon": -76.99255466666666, "rental_uris": {"ios": "https://dc.lft.to/lastmile_qr_scan", "android": "https://dc.lft.to/lastmile_qr_scan"}}, {"name": "51c4c5831450318efc8f01f50fdcc047", "fusion_lat": 0.0, "type": "electric_scooter", "lat": 38.91866433333333, "is_reserved": 0, "is_disabled": 0, "fusion_lon": 0.0, "bike_id": "51c4c5831450318efc8f01f50fdcc047", "lon": -77.02311416666667, "rental_uris": {"ios": "https://dc.lft.to/lastmile_qr_scan", "android": "https://dc.lft.to/lastmile_qr_scan"}}, {"name": "6388a610a5496b18dd948f1b6e0d4b13", "fusion_lat": 0.0, "type": "electric_scooter", "lat": 38.90314716666666, "is_reserved": 0, "is_disabled": 0, "fusion_lon": 0.0, "bike_id": "6388a610a5496b18dd948f1b6e0d4b13", "lon": -76.99152516666666, "rental_uris": {"ios": "https://dc.lft.to/lastmile_qr_scan", "android": "https://dc.lft.to/lastmile_qr_scan"}}, {"name": "cbfa94c3f0ce40b8938d08ec1dbe9260", "fusion_lat": 0.0, "type": "electric_scooter", "lat": 38.87414883333334, "is_reserved": 0, "is_disabled": 0, "fusion_lon": 0.0, "bike_id": "cbfa94c3f0ce40b8938d08ec1dbe9260", "lon": -76.960927, "rental_uris": {"ios": "https://dc.lft.to/lastmile_qr_scan", "android": "https://dc.lft.to/lastmile_qr_scan"}}, {"name": "0bae449627b7c51e83032790d551c07d", "fusion_lat": 0.0, "type": "electric_scooter", "lat": 38.942864666666665, "is_reserved": 0, "is_disabled": 0, "fusion_lon": 0.0, "bike_id": "0bae449627b7c51e83032790d551c07d", "lon": -77.021733, "rental_uris": {"ios": "https://dc.lft.to/lastmile_qr_scan", "android": "https://dc.lft.to/lastmile_qr_scan"}}, {"name": "e37f9ad404753c4046fafa19a250c079", "fusion_lat": 0.0, "type": "electric_scooter", "lat": 38.909830166666666, "is_reserved": 0, "is_disabled": 0, "fusion_lon": 0.0, "bike_id": "e37f9ad404753c4046fafa19a250c079", "lon": -77.06710383333333, "rental_uris": {"ios": "https://dc.lft.to/lastmile_qr_scan", "android": "https://dc.lft.to/lastmile_qr_scan"}}, {"name": "2e399ed0d6a2f80058ca83b6c74f751b", "fusion_lat": 0.0, "type": "electric_scooter", "lat": 38.918868333333336, "is_reserved": 0, "is_disabled": 0, "fusion_lon": 0.0, "bike_id": "2e399ed0d6a2f80058ca83b6c74f751b", "lon": -77.04167033333333, "rental_uris": {"ios": "https://dc.lft.to/lastmile_qr_scan", "android": "https://dc.lft.to/lastmile_qr_scan"}}, {"name": "796a6052c4501d7a267ac2938b1506ec", "fusion_lat": 0.0, "type": "electric_scooter", "lat": 38.89360466666667, "is_reserved": 0, "is_disabled": 0, "fusion_lon": 0.0, "bike_id": "796a6052c4501d7a267ac2938b1506ec", "lon": -77.00337666666667, "rental_uris": {"ios": "https://dc.lft.to/lastmile_qr_scan", "android": "https://dc.lft.to/lastmile_qr_scan"}}, {"name": "94b5bde436690eeeccd349c0090c420f", "fusion_lat": 0.0, "type": "electric_scooter", "lat": 38.9216125, "is_reserved": 0, "is_disabled": 0, "fusion_lon": 0.0, "bike_id": "94b5bde436690eeeccd349c0090c420f", "lon": -76.99644533333333, "rental_uris": {"ios": "https://dc.lft.to/lastmile_qr_scan", "android": "https://dc.lft.to/lastmile_qr_scan"}}, {"name": "16619310c29af6d5cd476a815185f2fb", "fusion_lat": 0.0, "type": "electric_scooter", "lat": 38.899845666666664, "is_reserved": 0, "is_disabled": 0, "fusion_lon": 0.0, "bike_id": "16619310c29af6d5cd476a815185f2fb", "lon": -77.02208766666666, "rental_uris": {"ios": "https://dc.lft.to/lastmile_qr_scan", "android": "https://dc.lft.to/lastmile_qr_scan"}}, {"name": "1e6778c004d7855026e3811dce8ba997", "fusion_lat": 0.0, "type": "electric_scooter", "lat": 38.88040016666667, "is_reserved": 0, "is_disabled": 0, "fusion_lon": 0.0, "bike_id": "1e6778c004d7855026e3811dce8ba997", "lon": -77.00517983333333, "rental_uris": {"ios": "https://dc.lft.to/lastmile_qr_scan", "android": "https://dc.lft.to/lastmile_qr_scan"}}, {"name": "acd5abe5b11d8936373601c847472c0e", "fusion_lat": 0.0, "type": "electric_scooter", "lat": 38.935562833333336, "is_reserved": 0, "is_disabled": 0, "fusion_lon": 0.0, "bike_id": "acd5abe5b11d8936373601c847472c0e", "lon": -77.032617, "rental_uris": {"ios": "https://dc.lft.to/lastmile_qr_scan", "android": "https://dc.lft.to/lastmile_qr_scan"}}, {"name": "1c8a30c37496375800a03d85818f462a", "fusion_lat": 0.0, "type": "electric_scooter", "lat": 38.89224683333333, "is_reserved": 0, "is_disabled": 0, "fusion_lon": 0.0, "bike_id": "1c8a30c37496375800a03d85818f462a", "lon": -77.05008416666666, "rental_uris": {"ios": "https://dc.lft.to/lastmile_qr_scan", "android": "https://dc.lft.to/lastmile_qr_scan"}}, {"name": "589b379969b34fe0824f2d9232a7fb41", "fusion_lat": 0.0, "type": "electric_scooter", "lat": 38.92040683333333, "is_reserved": 0, "is_disabled": 0, "fusion_lon": 0.0, "bike_id": "589b379969b34fe0824f2d9232a7fb41", "lon": -77.02428766666667, "rental_uris": {"ios": "https://dc.lft.to/lastmile_qr_scan", "android": "https://dc.lft.to/lastmile_qr_scan"}}, {"name": "34a919e05875a4fc4354e580e92c8fd5", "fusion_lat": 0.0, "type": "electric_scooter", "lat": 38.87750783333333, "is_reserved": 0, "is_disabled": 0, "fusion_lon": 0.0, "bike_id": "34a919e05875a4fc4354e580e92c8fd5", "lon": -77.0200055, "rental_uris": {"ios": "https://dc.lft.to/lastmile_qr_scan", "android": "https://dc.lft.to/lastmile_qr_scan"}}, {"name": "570eaf441e93da1fbebbd279ac53840f", "fusion_lat": 0.0, "type": "electric_scooter", "lat": 38.92484, "is_reserved": 0, "is_disabled": 0, "fusion_lon": 0.0, "bike_id": "570eaf441e93da1fbebbd279ac53840f", "lon": -77.02839766666666, "rental_uris": {"ios": "https://dc.lft.to/lastmile_qr_scan", "android": "https://dc.lft.to/lastmile_qr_scan"}}, {"name": "9cdb46b0ddd1b7ab3292b98329e127b8", "fusion_lat": 0.0, "type": "electric_scooter", "lat": 38.918142333333336, "is_reserved": 0, "is_disabled": 0, "fusion_lon": 0.0, "bike_id": "9cdb46b0ddd1b7ab3292b98329e127b8", "lon": -77.040025, "rental_uris": {"ios": "https://dc.lft.to/lastmile_qr_scan", "android": "https://dc.lft.to/lastmile_qr_scan"}}, {"name": "48b0f70c66933257e0885365b19f4689", "fusion_lat": 0.0, "type": "electric_scooter", "lat": 38.9194065, "is_reserved": 0, "is_disabled": 0, "fusion_lon": 0.0, "bike_id": "48b0f70c66933257e0885365b19f4689", "lon": -77.013817, "rental_uris": {"ios": "https://dc.lft.to/lastmile_qr_scan", "android": "https://dc.lft.to/lastmile_qr_scan"}}, {"name": "209953a17b4e899e9a1d905faa41af93", "fusion_lat": 0.0, "type": "electric_scooter", "lat": 38.91694066666667, "is_reserved": 0, "is_disabled": 0, "fusion_lon": 0.0, "bike_id": "209953a17b4e899e9a1d905faa41af93", "lon": -77.01257816666667, "rental_uris": {"ios": "https://dc.lft.to/lastmile_qr_scan", "android": "https://dc.lft.to/lastmile_qr_scan"}}, {"name": "dda3ec2b4a2785248cf765ac3135ac45", "fusion_lat": 0.0, "type": "electric_scooter", "lat": 38.89550716666667, "is_reserved": 0, "is_disabled": 0, "fusion_lon": 0.0, "bike_id": "dda3ec2b4a2785248cf765ac3135ac45", "lon": -76.94871066666667, "rental_uris": {"ios": "https://dc.lft.to/lastmile_qr_scan", "android": "https://dc.lft.to/lastmile_qr_scan"}}, {"name": "f162dd6fccb8ac5b1bd7b06d6ae3b68e", "fusion_lat": 0.0, "type": "electric_scooter", "lat": 38.911903333333335, "is_reserved": 0, "is_disabled": 0, "fusion_lon": 0.0, "bike_id": "f162dd6fccb8ac5b1bd7b06d6ae3b68e", "lon": -77.03253266666667, "rental_uris": {"ios": "https://dc.lft.to/lastmile_qr_scan", "android": "https://dc.lft.to/lastmile_qr_scan"}}, {"name": "cc773ba591feccedcd6a831007e88761", "fusion_lat": 0.0, "type": "electric_scooter", "lat": 38.884986166666664, "is_reserved": 0, "is_disabled": 0, "fusion_lon": 0.0, "bike_id": "cc773ba591feccedcd6a831007e88761", "lon": -77.0056895, "rental_uris": {"ios": "https://dc.lft.to/lastmile_qr_scan", "android": "https://dc.lft.to/lastmile_qr_scan"}}, {"name": "a5bcb4e2e0281d7d6b8957b68d24393f", "fusion_lat": 0.0, "type": "electric_scooter", "lat": 38.91255133333333, "is_reserved": 0, "is_disabled": 0, "fusion_lon": 0.0, "bike_id": "a5bcb4e2e0281d7d6b8957b68d24393f", "lon": -77.03865466666667, "rental_uris": {"ios": "https://dc.lft.to/lastmile_qr_scan", "android": "https://dc.lft.to/lastmile_qr_scan"}}, {"name": "f23823affceb37424a1c65b6bf1f3f20", "fusion_lat": 0.0, "type": "electric_scooter", "lat": 38.897514666666666, "is_reserved": 0, "is_disabled": 0, "fusion_lon": 0.0, "bike_id": "f23823affceb37424a1c65b6bf1f3f20", "lon": -77.02575433333334, "rental_uris": {"ios": "https://dc.lft.to/lastmile_qr_scan", "android": "https://dc.lft.to/lastmile_qr_scan"}}, {"name": "44ec8963b53a2022a3dab3df2db77f2d", "fusion_lat": 0.0, "type": "electric_scooter", "lat": 38.9310305, "is_reserved": 0, "is_disabled": 0, "fusion_lon": 0.0, "bike_id": "44ec8963b53a2022a3dab3df2db77f2d", "lon": -77.03509716666667, "rental_uris": {"ios": "https://dc.lft.to/lastmile_qr_scan", "android": "https://dc.lft.to/lastmile_qr_scan"}}, {"name": "55287fd76a0cc0ea07e40e72e9fc81ac", "fusion_lat": 0.0, "type": "electric_scooter", "lat": 38.9271495, "is_reserved": 0, "is_disabled": 0, "fusion_lon": 0.0, "bike_id": "55287fd76a0cc0ea07e40e72e9fc81ac", "lon": -77.03732866666667, "rental_uris": {"ios": "https://dc.lft.to/lastmile_qr_scan", "android": "https://dc.lft.to/lastmile_qr_scan"}}, {"name": "2b1695d45258b79ca81cc88dae718cc8", "fusion_lat": 0.0, "type": "electric_scooter", "lat": 38.91328766666667, "is_reserved": 0, "is_disabled": 0, "fusion_lon": 0.0, "bike_id": "2b1695d45258b79ca81cc88dae718cc8", "lon": -77.04229866666667, "rental_uris": {"ios": "https://dc.lft.to/lastmile_qr_scan", "android": "https://dc.lft.to/lastmile_qr_scan"}}, {"name": "0c876879e420e74cc0b71194b305caee", "fusion_lat": 0.0, "type": "electric_scooter", "lat": 38.911223666666665, "is_reserved": 0, "is_disabled": 0, "fusion_lon": 0.0, "bike_id": "0c876879e420e74cc0b71194b305caee", "lon": -77.047743, "rental_uris": {"ios": "https://dc.lft.to/lastmile_qr_scan", "android": "https://dc.lft.to/lastmile_qr_scan"}}, {"name": "bb40725b304d27c6651f633fda68d422", "fusion_lat": 0.0, "type": "electric_scooter", "lat": 38.908559333333336, "is_reserved": 0, "is_disabled": 0, "fusion_lon": 0.0, "bike_id": "bb40725b304d27c6651f633fda68d422", "lon": -76.99800566666667, "rental_uris": {"ios": "https://dc.lft.to/lastmile_qr_scan", "android": "https://dc.lft.to/lastmile_qr_scan"}}, {"name": "33fb9c02dad140f9fb09c1e38dbdb509", "fusion_lat": 0.0, "type": "electric_scooter", "lat": 38.93121216666667, "is_reserved": 0, "is_disabled": 0, "fusion_lon": 0.0, "bike_id": "33fb9c02dad140f9fb09c1e38dbdb509", "lon": -77.03605533333334, "rental_uris": {"ios": "https://dc.lft.to/lastmile_qr_scan", "android": "https://dc.lft.to/lastmile_qr_scan"}}, {"name": "dafbf529e1643a9f5c800ea6856c6328", "fusion_lat": 0.0, "type": "electric_scooter", "lat": 38.902459666666665, "is_reserved": 0, "is_disabled": 0, "fusion_lon": 0.0, "bike_id": "dafbf529e1643a9f5c800ea6856c6328", "lon": -77.01508083333333, "rental_uris": {"ios": "https://dc.lft.to/lastmile_qr_scan", "android": "https://dc.lft.to/lastmile_qr_scan"}}, {"name": "a80bf974242dc7202142584860da797d", "fusion_lat": 0.0, "type": "electric_scooter", "lat": 38.897081166666666, "is_reserved": 0, "is_disabled": 0, "fusion_lon": 0.0, "bike_id": "a80bf974242dc7202142584860da797d", "lon": -77.008451, "rental_uris": {"ios": "https://dc.lft.to/lastmile_qr_scan", "android": "https://dc.lft.to/lastmile_qr_scan"}}, {"name": "df6815952b86427f70e9c4cc2e2197b6", "fusion_lat": 0.0, "type": "electric_scooter", "lat": 38.89640433333334, "is_reserved": 0, "is_disabled": 0, "fusion_lon": 0.0, "bike_id": "df6815952b86427f70e9c4cc2e2197b6", "lon": -76.99947616666667, "rental_uris": {"ios": "https://dc.lft.to/lastmile_qr_scan", "android": "https://dc.lft.to/lastmile_qr_scan"}}, {"name": "4c3cd32e96f2f0fff0b4fae5e63fd253", "fusion_lat": 0.0, "type": "electric_scooter", "lat": 38.912564333333336, "is_reserved": 0, "is_disabled": 0, "fusion_lon": 0.0, "bike_id": "4c3cd32e96f2f0fff0b4fae5e63fd253", "lon": -77.03867266666667, "rental_uris": {"ios": "https://dc.lft.to/lastmile_qr_scan", "android": "https://dc.lft.to/lastmile_qr_scan"}}, {"name": "c1cffc433320b212d1e3c10a99fccf39", "fusion_lat": 0.0, "type": "electric_bike", "lat": 39.085958, "is_reserved": 0, "is_disabled": 0, "fusion_lon": 0.0, "bike_id": "c1cffc433320b212d1e3c10a99fccf39", "lon": -77.15209316666666, "rental_uris": {"ios": "https://dc.lft.to/lastmile_qr_scan", "android": "https://dc.lft.to/lastmile_qr_scan"}}, {"name": "ebb5cca1c3389772f04c29d548049e8c", "fusion_lat": 0.0, "type": "electric_bike", "lat": 38.9078755, "is_reserved": 0, "is_disabled": 0, "fusion_lon": 0.0, "bike_id": "ebb5cca1c3389772f04c29d548049e8c", "lon": -76.9970725, "rental_uris": {"ios": "https://dc.lft.to/lastmile_qr_scan", "android": "https://dc.lft.to/lastmile_qr_scan"}}, {"name": "5f45583f898e38e42e174ae0de18ee67", "fusion_lat": 0.0, "type": "electric_scooter", "lat": 38.90319983333333, "is_reserved": 0, "is_disabled": 0, "fusion_lon": 0.0, "bike_id": "5f45583f898e38e42e174ae0de18ee67", "lon": -77.03663616666667, "rental_uris": {"ios": "https://dc.lft.to/lastmile_qr_scan", "android": "https://dc.lft.to/lastmile_qr_scan"}}, {"name": "a5bb12d922e37c656e5e128dbab4fb6c", "fusion_lat": 0.0, "type": "electric_bike", "lat": 38.85619416666667, "is_reserved": 0, "is_disabled": 0, "fusion_lon": 0.0, "bike_id": "a5bb12d922e37c656e5e128dbab4fb6c", "lon": -77.085414, "rental_uris": {"ios": "https://dc.lft.to/lastmile_qr_scan", "android": "https://dc.lft.to/lastmile_qr_scan"}}, {"name": "bf7307436b21ebc89121aaffff193332", "fusion_lat": 0.0, "type": "electric_scooter", "lat": 38.866574, "is_reserved": 0, "is_disabled": 0, "fusion_lon": 0.0, "bike_id": "bf7307436b21ebc89121aaffff193332", "lon": -76.988833, "rental_uris": {"ios": "https://dc.lft.to/lastmile_qr_scan", "android": "https://dc.lft.to/lastmile_qr_scan"}}, {"name": "56b6d081cd82c583f41a08714bebe945", "fusion_lat": 0.0, "type": "electric_scooter", "lat": 38.92597166666667, "is_reserved": 0, "is_disabled": 0, "fusion_lon": 0.0, "bike_id": "56b6d081cd82c583f41a08714bebe945", "lon": -77.0260675, "rental_uris": {"ios": "https://dc.lft.to/lastmile_qr_scan", "android": "https://dc.lft.to/lastmile_qr_scan"}}, {"name": "be742434443b020092427bf0b019d2df", "fusion_lat": 0.0, "type": "electric_scooter", "lat": 38.90396883333333, "is_reserved": 0, "is_disabled": 0, "fusion_lon": 0.0, "bike_id": "be742434443b020092427bf0b019d2df", "lon": -77.00590483333333, "rental_uris": {"ios": "https://dc.lft.to/lastmile_qr_scan", "android": "https://dc.lft.to/lastmile_qr_scan"}}, {"name": "2e45f66dd698b1f65afb9c1cdde4d594", "fusion_lat": 0.0, "type": "electric_scooter", "lat": 38.89232766666667, "is_reserved": 0, "is_disabled": 0, "fusion_lon": 0.0, "bike_id": "2e45f66dd698b1f65afb9c1cdde4d594", "lon": -77.03195416666667, "rental_uris": {"ios": "https://dc.lft.to/lastmile_qr_scan", "android": "https://dc.lft.to/lastmile_qr_scan"}}, {"name": "38103cce3850ccc6a19be0003c74cd81", "fusion_lat": 0.0, "type": "electric_scooter", "lat": 38.89900216666667, "is_reserved": 0, "is_disabled": 0, "fusion_lon": 0.0, "bike_id": "38103cce3850ccc6a19be0003c74cd81", "lon": -77.0188355, "rental_uris": {"ios": "https://dc.lft.to/lastmile_qr_scan", "android": "https://dc.lft.to/lastmile_qr_scan"}}, {"name": "3665c9fdffa6028f7ffc4be66f6a48b6", "fusion_lat": 0.0, "type": "electric_scooter", "lat": 38.92354816666667, "is_reserved": 0, "is_disabled": 0, "fusion_lon": 0.0, "bike_id": "3665c9fdffa6028f7ffc4be66f6a48b6", "lon": -77.05435616666666, "rental_uris": {"ios": "https://dc.lft.to/lastmile_qr_scan", "android": "https://dc.lft.to/lastmile_qr_scan"}}, {"name": "0cc43b5bc3e77e46132f296f7f15207d", "fusion_lat": 0.0, "type": "electric_bike", "lat": 39.003787, "is_reserved": 0, "is_disabled": 0, "fusion_lon": 0.0, "bike_id": "0cc43b5bc3e77e46132f296f7f15207d", "lon": -77.01289633333333, "rental_uris": {"ios": "https://dc.lft.to/lastmile_qr_scan", "android": "https://dc.lft.to/lastmile_qr_scan"}}, {"name": "f63efcdc330e4fa21ccd5a7219355b4f", "fusion_lat": 0.0, "type": "electric_scooter", "lat": 38.898238166666665, "is_reserved": 0, "is_disabled": 0, "fusion_lon": 0.0, "bike_id": "f63efcdc330e4fa21ccd5a7219355b4f", "lon": -77.02940583333333, "rental_uris": {"ios": "https://dc.lft.to/lastmile_qr_scan", "android": "https://dc.lft.to/lastmile_qr_scan"}}, {"name": "165dce2be53075c06161655ef945514a", "fusion_lat": 0.0, "type": "electric_scooter", "lat": 38.90110283333333, "is_reserved": 0, "is_disabled": 0, "fusion_lon": 0.0, "bike_id": "165dce2be53075c06161655ef945514a", "lon": -77.044111, "rental_uris": {"ios": "https://dc.lft.to/lastmile_qr_scan", "android": "https://dc.lft.to/lastmile_qr_scan"}}, {"name": "3b561d4436a7722d4d95672f286ee825", "fusion_lat": 0.0, "type": "electric_scooter", "lat": 38.93197833333333, "is_reserved": 0, "is_disabled": 0, "fusion_lon": 0.0, "bike_id": "3b561d4436a7722d4d95672f286ee825", "lon": -77.03662366666667, "rental_uris": {"ios": "https://dc.lft.to/lastmile_qr_scan", "android": "https://dc.lft.to/lastmile_qr_scan"}}, {"name": "f6794e148a99fe86f8cad6d282bbeea5", "fusion_lat": 0.0, "type": "electric_scooter", "lat": 38.959081833333336, "is_reserved": 0, "is_disabled": 0, "fusion_lon": 0.0, "bike_id": "f6794e148a99fe86f8cad6d282bbeea5", "lon": -77.08081883333334, "rental_uris": {"ios": "https://dc.lft.to/lastmile_qr_scan", "android": "https://dc.lft.to/lastmile_qr_scan"}}, {"name": "ec72e33aae980d7407b0a294e58f3430", "fusion_lat": 0.0, "type": "electric_bike", "lat": 38.807873666666666, "is_reserved": 0, "is_disabled": 0, "fusion_lon": 0.0, "bike_id": "ec72e33aae980d7407b0a294e58f3430", "lon": -77.12962, "rental_uris": {"ios": "https://dc.lft.to/lastmile_qr_scan", "android": "https://dc.lft.to/lastmile_qr_scan"}}, {"name": "76345d824fc15e59e5b1a6775aadfd6c", "fusion_lat": 0.0, "type": "electric_scooter", "lat": 38.8940525, "is_reserved": 0, "is_disabled": 0, "fusion_lon": 0.0, "bike_id": "76345d824fc15e59e5b1a6775aadfd6c", "lon": -76.9324275, "rental_uris": {"ios": "https://dc.lft.to/lastmile_qr_scan", "android": "https://dc.lft.to/lastmile_qr_scan"}}, {"name": "897d284ca5612eba02f1bab66315ab46", "fusion_lat": 0.0, "type": "electric_scooter", "lat": 38.9027, "is_reserved": 0, "is_disabled": 0, "fusion_lon": 0.0, "bike_id": "897d284ca5612eba02f1bab66315ab46", "lon": -77.04495333333334, "rental_uris": {"ios": "https://dc.lft.to/lastmile_qr_scan", "android": "https://dc.lft.to/lastmile_qr_scan"}}, {"name": "b5a2429ffda61b140c7af9d4a3bc1018", "fusion_lat": 0.0, "type": "electric_scooter", "lat": 38.947030166666664, "is_reserved": 0, "is_disabled": 0, "fusion_lon": 0.0, "bike_id": "b5a2429ffda61b140c7af9d4a3bc1018", "lon": -77.01934166666666, "rental_uris": {"ios": "https://dc.lft.to/lastmile_qr_scan", "android": "https://dc.lft.to/lastmile_qr_scan"}}, {"name": "6310030f80bb544eb9c53317e6482c64", "fusion_lat": 0.0, "type": "electric_scooter", "lat": 38.920975, "is_reserved": 0, "is_disabled": 0, "fusion_lon": 0.0, "bike_id": "6310030f80bb544eb9c53317e6482c64", "lon": -76.991917, "rental_uris": {"ios": "https://dc.lft.to/lastmile_qr_scan", "android": "https://dc.lft.to/lastmile_qr_scan"}}, {"name": "b72214a1a844ca16a497af6c7c786def", "fusion_lat": 0.0, "type": "electric_scooter", "lat": 38.85795733333333, "is_reserved": 0, "is_disabled": 0, "fusion_lon": 0.0, "bike_id": "b72214a1a844ca16a497af6c7c786def", "lon": -76.99092616666667, "rental_uris": {"ios": "https://dc.lft.to/lastmile_qr_scan", "android": "https://dc.lft.to/lastmile_qr_scan"}}, {"name": "7bad10780ba2b0211b24e3a47543e1a7", "fusion_lat": 0.0, "type": "electric_scooter", "lat": 38.90997733333333, "is_reserved": 0, "is_disabled": 0, "fusion_lon": 0.0, "bike_id": "7bad10780ba2b0211b24e3a47543e1a7", "lon": -77.02189183333333, "rental_uris": {"ios": "https://dc.lft.to/lastmile_qr_scan", "android": "https://dc.lft.to/lastmile_qr_scan"}}, {"name": "1b0ae510193bd9f030114915fff55581", "fusion_lat": 0.0, "type": "electric_scooter", "lat": 38.9000395, "is_reserved": 0, "is_disabled": 0, "fusion_lon": 0.0, "bike_id": "1b0ae510193bd9f030114915fff55581", "lon": -76.9903265, "rental_uris": {"ios": "https://dc.lft.to/lastmile_qr_scan", "android": "https://dc.lft.to/lastmile_qr_scan"}}, {"name": "90f1cec850ca8a06a83c3edf79323801", "fusion_lat": 0.0, "type": "electric_bike", "lat": 38.964133333333336, "is_reserved": 0, "is_disabled": 0, "fusion_lon": 0.0, "bike_id": "90f1cec850ca8a06a83c3edf79323801", "lon": -77.0335315, "rental_uris": {"ios": "https://dc.lft.to/lastmile_qr_scan", "android": "https://dc.lft.to/lastmile_qr_scan"}}, {"name": "8136345b3763bb7d0fd3e325e5454aed", "fusion_lat": 0.0, "type": "electric_scooter", "lat": 38.896762833333334, "is_reserved": 0, "is_disabled": 0, "fusion_lon": 0.0, "bike_id": "8136345b3763bb7d0fd3e325e5454aed", "lon": -77.03254783333334, "rental_uris": {"ios": "https://dc.lft.to/lastmile_qr_scan", "android": "https://dc.lft.to/lastmile_qr_scan"}}, {"name": "72732e8914d12eeb80e5894d27d46cd8", "fusion_lat": 0.0, "type": "electric_scooter", "lat": 38.89611383333333, "is_reserved": 0, "is_disabled": 0, "fusion_lon": 0.0, "bike_id": "72732e8914d12eeb80e5894d27d46cd8", "lon": -77.0468155, "rental_uris": {"ios": "https://dc.lft.to/lastmile_qr_scan", "android": "https://dc.lft.to/lastmile_qr_scan"}}, {"name": "1d66cfda9b1bd93fab061801d7218dcb", "fusion_lat": 0.0, "type": "electric_scooter", "lat": 38.91864916666667, "is_reserved": 0, "is_disabled": 0, "fusion_lon": 0.0, "bike_id": "1d66cfda9b1bd93fab061801d7218dcb", "lon": -77.043503, "rental_uris": {"ios": "https://dc.lft.to/lastmile_qr_scan", "android": "https://dc.lft.to/lastmile_qr_scan"}}, {"name": "135d2a94d9685944d234c09a86b263dd", "fusion_lat": 0.0, "type": "electric_bike", "lat": 38.9685895, "is_reserved": 0, "is_disabled": 0, "fusion_lon": 0.0, "bike_id": "135d2a94d9685944d234c09a86b263dd", "lon": -77.0334015, "rental_uris": {"ios": "https://dc.lft.to/lastmile_qr_scan", "android": "https://dc.lft.to/lastmile_qr_scan"}}, {"name": "f2472e12763602f953d9e242b705d257", "fusion_lat": 0.0, "type": "electric_scooter", "lat": 38.87509333333333, "is_reserved": 0, "is_disabled": 0, "fusion_lon": 0.0, "bike_id": "f2472e12763602f953d9e242b705d257", "lon": -77.00180283333333, "rental_uris": {"ios": "https://dc.lft.to/lastmile_qr_scan", "android": "https://dc.lft.to/lastmile_qr_scan"}}, {"name": "98dabb86c34f2bcfe38d0a5415eaf923", "fusion_lat": 0.0, "type": "electric_scooter", "lat": 38.91481533333334, "is_reserved": 0, "is_disabled": 0, "fusion_lon": 0.0, "bike_id": "98dabb86c34f2bcfe38d0a5415eaf923", "lon": -77.0324505, "rental_uris": {"ios": "https://dc.lft.to/lastmile_qr_scan", "android": "https://dc.lft.to/lastmile_qr_scan"}}, {"name": "c05e031b843942d5d0b5eb06e1f12593", "fusion_lat": 0.0, "type": "electric_scooter", "lat": 38.903065166666664, "is_reserved": 0, "is_disabled": 0, "fusion_lon": 0.0, "bike_id": "c05e031b843942d5d0b5eb06e1f12593", "lon": -77.04160416666667, "rental_uris": {"ios": "https://dc.lft.to/lastmile_qr_scan", "android": "https://dc.lft.to/lastmile_qr_scan"}}, {"name": "5979f8310f30bf824351f1b0d876086d", "fusion_lat": 0.0, "type": "electric_scooter", "lat": 38.9132825, "is_reserved": 0, "is_disabled": 0, "fusion_lon": 0.0, "bike_id": "5979f8310f30bf824351f1b0d876086d", "lon": -77.0312595, "rental_uris": {"ios": "https://dc.lft.to/lastmile_qr_scan", "android": "https://dc.lft.to/lastmile_qr_scan"}}, {"name": "7dff3c4e4d671ca89d197e4f8fe19de2", "fusion_lat": 0.0, "type": "electric_scooter", "lat": 38.932032, "is_reserved": 0, "is_disabled": 0, "fusion_lon": 0.0, "bike_id": "7dff3c4e4d671ca89d197e4f8fe19de2", "lon": -77.02730666666666, "rental_uris": {"ios": "https://dc.lft.to/lastmile_qr_scan", "android": "https://dc.lft.to/lastmile_qr_scan"}}, {"name": "9986753c7e213fd5ead2e0527402a304", "fusion_lat": 0.0, "type": "electric_scooter", "lat": 38.91918366666667, "is_reserved": 0, "is_disabled": 0, "fusion_lon": 0.0, "bike_id": "9986753c7e213fd5ead2e0527402a304", "lon": -77.03104533333334, "rental_uris": {"ios": "https://dc.lft.to/lastmile_qr_scan", "android": "https://dc.lft.to/lastmile_qr_scan"}}, {"name": "8a09729c4a375a200b83a9fd0fdd283b", "fusion_lat": 0.0, "type": "electric_scooter", "lat": 38.930614, "is_reserved": 0, "is_disabled": 0, "fusion_lon": 0.0, "bike_id": "8a09729c4a375a200b83a9fd0fdd283b", "lon": -77.03956016666666, "rental_uris": {"ios": "https://dc.lft.to/lastmile_qr_scan", "android": "https://dc.lft.to/lastmile_qr_scan"}}, {"name": "e8a2562b63dce04067edadd52da853b9", "fusion_lat": 0.0, "type": "electric_scooter", "lat": 38.8996685, "is_reserved": 0, "is_disabled": 0, "fusion_lon": 0.0, "bike_id": "e8a2562b63dce04067edadd52da853b9", "lon": -77.03115816666667, "rental_uris": {"ios": "https://dc.lft.to/lastmile_qr_scan", "android": "https://dc.lft.to/lastmile_qr_scan"}}, {"name": "244cf9cd9a86db5acfc0fab7162d9722", "fusion_lat": 0.0, "type": "electric_scooter", "lat": 38.90471316666667, "is_reserved": 0, "is_disabled": 0, "fusion_lon": 0.0, "bike_id": "244cf9cd9a86db5acfc0fab7162d9722", "lon": -77.04355416666667, "rental_uris": {"ios": "https://dc.lft.to/lastmile_qr_scan", "android": "https://dc.lft.to/lastmile_qr_scan"}}, {"name": "ae9c8985f5b5d292317fd6d0c471af5e", "fusion_lat": 0.0, "type": "electric_bike", "lat": 38.880397333333335, "is_reserved": 0, "is_disabled": 0, "fusion_lon": 0.0, "bike_id": "ae9c8985f5b5d292317fd6d0c471af5e", "lon": -77.013225, "rental_uris": {"ios": "https://dc.lft.to/lastmile_qr_scan", "android": "https://dc.lft.to/lastmile_qr_scan"}}, {"name": "0babb6f6df5e94efbbd6fffc077a370b", "fusion_lat": 0.0, "type": "electric_scooter", "lat": 38.924339333333336, "is_reserved": 0, "is_disabled": 0, "fusion_lon": 0.0, "bike_id": "0babb6f6df5e94efbbd6fffc077a370b", "lon": -77.0297855, "rental_uris": {"ios": "https://dc.lft.to/lastmile_qr_scan", "android": "https://dc.lft.to/lastmile_qr_scan"}}, {"name": "86afc5d8fcdc49cf0c01f81c22d3d69a", "fusion_lat": 0.0, "type": "electric_scooter", "lat": 38.90743966666667, "is_reserved": 0, "is_disabled": 0, "fusion_lon": 0.0, "bike_id": "86afc5d8fcdc49cf0c01f81c22d3d69a", "lon": -77.03085516666667, "rental_uris": {"ios": "https://dc.lft.to/lastmile_qr_scan", "android": "https://dc.lft.to/lastmile_qr_scan"}}, {"name": "3cbee14936879f62f53b76fc9f220521", "fusion_lat": 0.0, "type": "electric_scooter", "lat": 38.9140575, "is_reserved": 0, "is_disabled": 0, "fusion_lon": 0.0, "bike_id": "3cbee14936879f62f53b76fc9f220521", "lon": -77.04566683333333, "rental_uris": {"ios": "https://dc.lft.to/lastmile_qr_scan", "android": "https://dc.lft.to/lastmile_qr_scan"}}, {"name": "f1ba1c20e220df305655c8ba6e7e77ba", "fusion_lat": 0.0, "type": "electric_bike", "lat": 38.90448283333333, "is_reserved": 0, "is_disabled": 0, "fusion_lon": 0.0, "bike_id": "f1ba1c20e220df305655c8ba6e7e77ba", "lon": -77.048445, "rental_uris": {"ios": "https://dc.lft.to/lastmile_qr_scan", "android": "https://dc.lft.to/lastmile_qr_scan"}}, {"name": "a0e11671f8d55b28e6c5c2e03ecddec5", "fusion_lat": 0.0, "type": "electric_bike", "lat": 38.852314666666665, "is_reserved": 0, "is_disabled": 0, "fusion_lon": 0.0, "bike_id": "a0e11671f8d55b28e6c5c2e03ecddec5", "lon": -77.10337516666667, "rental_uris": {"ios": "https://dc.lft.to/lastmile_qr_scan", "android": "https://dc.lft.to/lastmile_qr_scan"}}, {"name": "69dc60930a48bceb5b387efe8f910994", "fusion_lat": 0.0, "type": "electric_scooter", "lat": 38.911333666666664, "is_reserved": 0, "is_disabled": 0, "fusion_lon": 0.0, "bike_id": "69dc60930a48bceb5b387efe8f910994", "lon": -77.04185283333334, "rental_uris": {"ios": "https://dc.lft.to/lastmile_qr_scan", "android": "https://dc.lft.to/lastmile_qr_scan"}}, {"name": "779607f3ce22f49b6bbe390d1d2f0e22", "fusion_lat": 0.0, "type": "electric_scooter", "lat": 38.880365, "is_reserved": 0, "is_disabled": 0, "fusion_lon": 0.0, "bike_id": "779607f3ce22f49b6bbe390d1d2f0e22", "lon": -76.92731066666667, "rental_uris": {"ios": "https://dc.lft.to/lastmile_qr_scan", "android": "https://dc.lft.to/lastmile_qr_scan"}}, {"name": "5b3d0fb2b4eb0fa3cef33d12323c480e", "fusion_lat": 0.0, "type": "electric_scooter", "lat": 38.90124566666667, "is_reserved": 0, "is_disabled": 0, "fusion_lon": 0.0, "bike_id": "5b3d0fb2b4eb0fa3cef33d12323c480e", "lon": -77.03976666666667, "rental_uris": {"ios": "https://dc.lft.to/lastmile_qr_scan", "android": "https://dc.lft.to/lastmile_qr_scan"}}, {"name": "10a4135b9a4b9cfd4794f13972905bae", "fusion_lat": 0.0, "type": "electric_scooter", "lat": 38.914071166666666, "is_reserved": 0, "is_disabled": 0, "fusion_lon": 0.0, "bike_id": "10a4135b9a4b9cfd4794f13972905bae", "lon": -77.008074, "rental_uris": {"ios": "https://dc.lft.to/lastmile_qr_scan", "android": "https://dc.lft.to/lastmile_qr_scan"}}, {"name": "e8b95d37a924d01082f779e4b1ebf632", "fusion_lat": 0.0, "type": "electric_scooter", "lat": 38.88313, "is_reserved": 0, "is_disabled": 0, "fusion_lon": 0.0, "bike_id": "e8b95d37a924d01082f779e4b1ebf632", "lon": -77.0232435, "rental_uris": {"ios": "https://dc.lft.to/lastmile_qr_scan", "android": "https://dc.lft.to/lastmile_qr_scan"}}, {"name": "f656e98e99f802e12dde180b9f59d33a", "fusion_lat": 0.0, "type": "electric_scooter", "lat": 38.88012166666667, "is_reserved": 0, "is_disabled": 0, "fusion_lon": 0.0, "bike_id": "f656e98e99f802e12dde180b9f59d33a", "lon": -77.00580866666667, "rental_uris": {"ios": "https://dc.lft.to/lastmile_qr_scan", "android": "https://dc.lft.to/lastmile_qr_scan"}}, {"name": "751df8e95431ff5a7bba8f2fc50886dd", "fusion_lat": 0.0, "type": "electric_scooter", "lat": 38.908636333333334, "is_reserved": 0, "is_disabled": 0, "fusion_lon": 0.0, "bike_id": "751df8e95431ff5a7bba8f2fc50886dd", "lon": -77.03224066666667, "rental_uris": {"ios": "https://dc.lft.to/lastmile_qr_scan", "android": "https://dc.lft.to/lastmile_qr_scan"}}, {"name": "de70cf0fbdf6987768737b2414b5381c", "fusion_lat": 0.0, "type": "electric_scooter", "lat": 38.92174, "is_reserved": 0, "is_disabled": 0, "fusion_lon": 0.0, "bike_id": "de70cf0fbdf6987768737b2414b5381c", "lon": -77.02659716666666, "rental_uris": {"ios": "https://dc.lft.to/lastmile_qr_scan", "android": "https://dc.lft.to/lastmile_qr_scan"}}, {"name": "efdcab687b86685a0ac56af3d40f048c", "fusion_lat": 0.0, "type": "electric_scooter", "lat": 38.89752133333333, "is_reserved": 0, "is_disabled": 0, "fusion_lon": 0.0, "bike_id": "efdcab687b86685a0ac56af3d40f048c", "lon": -77.02682683333333, "rental_uris": {"ios": "https://dc.lft.to/lastmile_qr_scan", "android": "https://dc.lft.to/lastmile_qr_scan"}}, {"name": "8a48ced21145e333c6f453a3d29f9812", "fusion_lat": 0.0, "type": "electric_bike", "lat": 38.967569, "is_reserved": 0, "is_disabled": 0, "fusion_lon": 0.0, "bike_id": "8a48ced21145e333c6f453a3d29f9812", "lon": -77.09159166666667, "rental_uris": {"ios": "https://dc.lft.to/lastmile_qr_scan", "android": "https://dc.lft.to/lastmile_qr_scan"}}, {"name": "0fcec491e86f0cc23b52fabd81e060c6", "fusion_lat": 0.0, "type": "electric_scooter", "lat": 38.9260465, "is_reserved": 0, "is_disabled": 0, "fusion_lon": 0.0, "bike_id": "0fcec491e86f0cc23b52fabd81e060c6", "lon": -77.02155816666667, "rental_uris": {"ios": "https://dc.lft.to/lastmile_qr_scan", "android": "https://dc.lft.to/lastmile_qr_scan"}}, {"name": "a568037872c0c2f3c4ec41f32edeafce", "fusion_lat": 0.0, "type": "electric_scooter", "lat": 38.88739233333333, "is_reserved": 0, "is_disabled": 0, "fusion_lon": 0.0, "bike_id": "a568037872c0c2f3c4ec41f32edeafce", "lon": -77.01545633333333, "rental_uris": {"ios": "https://dc.lft.to/lastmile_qr_scan", "android": "https://dc.lft.to/lastmile_qr_scan"}}, {"name": "feef0a43a563d65a9297e92c00ee6614", "fusion_lat": 0.0, "type": "electric_bike", "lat": 38.86160433333333, "is_reserved": 0, "is_disabled": 0, "fusion_lon": 0.0, "bike_id": "feef0a43a563d65a9297e92c00ee6614", "lon": -77.130945, "rental_uris": {"ios": "https://dc.lft.to/lastmile_qr_scan", "android": "https://dc.lft.to/lastmile_qr_scan"}}, {"name": "40146ff85ef9e52cb830d798c01394b8", "fusion_lat": 0.0, "type": "electric_scooter", "lat": 38.892415, "is_reserved": 0, "is_disabled": 0, "fusion_lon": 0.0, "bike_id": "40146ff85ef9e52cb830d798c01394b8", "lon": -77.0178165, "rental_uris": {"ios": "https://dc.lft.to/lastmile_qr_scan", "android": "https://dc.lft.to/lastmile_qr_scan"}}, {"name": "6758a2ca16078675aeaaed21254e797a", "fusion_lat": 0.0, "type": "electric_scooter", "lat": 38.90240883333333, "is_reserved": 0, "is_disabled": 0, "fusion_lon": 0.0, "bike_id": "6758a2ca16078675aeaaed21254e797a", "lon": -76.97413266666666, "rental_uris": {"ios": "https://dc.lft.to/lastmile_qr_scan", "android": "https://dc.lft.to/lastmile_qr_scan"}}, {"name": "8652a4bbf886a9f3593583b4a3e8ac9c", "fusion_lat": 0.0, "type": "electric_scooter", "lat": 38.90819966666667, "is_reserved": 0, "is_disabled": 0, "fusion_lon": 0.0, "bike_id": "8652a4bbf886a9f3593583b4a3e8ac9c", "lon": -76.997123, "rental_uris": {"ios": "https://dc.lft.to/lastmile_qr_scan", "android": "https://dc.lft.to/lastmile_qr_scan"}}, {"name": "bf44d014afffc2f754323a15531bf711", "fusion_lat": 0.0, "type": "electric_scooter", "lat": 38.91258883333333, "is_reserved": 0, "is_disabled": 0, "fusion_lon": 0.0, "bike_id": "bf44d014afffc2f754323a15531bf711", "lon": -77.0267715, "rental_uris": {"ios": "https://dc.lft.to/lastmile_qr_scan", "android": "https://dc.lft.to/lastmile_qr_scan"}}, {"name": "7908d9e116d6a8c301b0a41b1ee8eb62", "fusion_lat": 0.0, "type": "electric_bike", "lat": 38.94961, "is_reserved": 0, "is_disabled": 0, "fusion_lon": 0.0, "bike_id": "7908d9e116d6a8c301b0a41b1ee8eb62", "lon": -76.96101666666667, "rental_uris": {"ios": "https://dc.lft.to/lastmile_qr_scan", "android": "https://dc.lft.to/lastmile_qr_scan"}}, {"name": "900a396daef4c13dd766a697a6c43c8d", "fusion_lat": 0.0, "type": "electric_scooter", "lat": 38.919090833333335, "is_reserved": 0, "is_disabled": 0, "fusion_lon": 0.0, "bike_id": "900a396daef4c13dd766a697a6c43c8d", "lon": -77.02618, "rental_uris": {"ios": "https://dc.lft.to/lastmile_qr_scan", "android": "https://dc.lft.to/lastmile_qr_scan"}}, {"name": "506eb34ba19a09310fcc5b0046e0bbe6", "fusion_lat": 0.0, "type": "electric_bike", "lat": 39.05811716666667, "is_reserved": 0, "is_disabled": 0, "fusion_lon": 0.0, "bike_id": "506eb34ba19a09310fcc5b0046e0bbe6", "lon": -77.1262625, "rental_uris": {"ios": "https://dc.lft.to/lastmile_qr_scan", "android": "https://dc.lft.to/lastmile_qr_scan"}}, {"name": "e2abf87d12400ceeac0d529e888dff30", "fusion_lat": 0.0, "type": "electric_scooter", "lat": 38.897226833333335, "is_reserved": 0, "is_disabled": 0, "fusion_lon": 0.0, "bike_id": "e2abf87d12400ceeac0d529e888dff30", "lon": -77.00930066666666, "rental_uris": {"ios": "https://dc.lft.to/lastmile_qr_scan", "android": "https://dc.lft.to/lastmile_qr_scan"}}, {"name": "87b04b666c5b7a18c3de9fbd06f3aeb2", "fusion_lat": 0.0, "type": "electric_scooter", "lat": 38.886532333333335, "is_reserved": 0, "is_disabled": 0, "fusion_lon": 0.0, "bike_id": "87b04b666c5b7a18c3de9fbd06f3aeb2", "lon": -77.03388933333333, "rental_uris": {"ios": "https://dc.lft.to/lastmile_qr_scan", "android": "https://dc.lft.to/lastmile_qr_scan"}}, {"name": "7ce36634c6141fc7caf27e6aecfe58e5", "fusion_lat": 0.0, "type": "electric_scooter", "lat": 38.90033283333333, "is_reserved": 0, "is_disabled": 0, "fusion_lon": 0.0, "bike_id": "7ce36634c6141fc7caf27e6aecfe58e5", "lon": -76.9902085, "rental_uris": {"ios": "https://dc.lft.to/lastmile_qr_scan", "android": "https://dc.lft.to/lastmile_qr_scan"}}, {"name": "4d9715c97a6737dcb3ab170d200b1416", "fusion_lat": 0.0, "type": "electric_bike", "lat": 38.8460985, "is_reserved": 0, "is_disabled": 0, "fusion_lon": 0.0, "bike_id": "4d9715c97a6737dcb3ab170d200b1416", "lon": -76.97832016666666, "rental_uris": {"ios": "https://dc.lft.to/lastmile_qr_scan", "android": "https://dc.lft.to/lastmile_qr_scan"}}, {"name": "c5e7b0ee7b1bded6d278496c978ac485", "fusion_lat": 0.0, "type": "electric_bike", "lat": 39.088993333333335, "is_reserved": 0, "is_disabled": 0, "fusion_lon": 0.0, "bike_id": "c5e7b0ee7b1bded6d278496c978ac485", "lon": -77.17844366666667, "rental_uris": {"ios": "https://dc.lft.to/lastmile_qr_scan", "android": "https://dc.lft.to/lastmile_qr_scan"}}, {"name": "e6962961af9747c085132a3cbaab5c17", "fusion_lat": 0.0, "type": "electric_bike", "lat": 38.8792715, "is_reserved": 0, "is_disabled": 0, "fusion_lon": 0.0, "bike_id": "e6962961af9747c085132a3cbaab5c17", "lon": -77.00547633333333, "rental_uris": {"ios": "https://dc.lft.to/lastmile_qr_scan", "android": "https://dc.lft.to/lastmile_qr_scan"}}, {"name": "728d72a45b9fdf34858e247424a71105", "fusion_lat": 0.0, "type": "electric_scooter", "lat": 38.909518166666665, "is_reserved": 0, "is_disabled": 0, "fusion_lon": 0.0, "bike_id": "728d72a45b9fdf34858e247424a71105", "lon": -77.023009, "rental_uris": {"ios": "https://dc.lft.to/lastmile_qr_scan", "android": "https://dc.lft.to/lastmile_qr_scan"}}, {"name": "f795666a2bf249731defba001dc6ee8c", "fusion_lat": 0.0, "type": "electric_scooter", "lat": 38.91333616666667, "is_reserved": 0, "is_disabled": 0, "fusion_lon": 0.0, "bike_id": "f795666a2bf249731defba001dc6ee8c", "lon": -77.04576916666667, "rental_uris": {"ios": "https://dc.lft.to/lastmile_qr_scan", "android": "https://dc.lft.to/lastmile_qr_scan"}}, {"name": "1605d30cd2733e8870b4d4617583adbc", "fusion_lat": 0.0, "type": "electric_scooter", "lat": 38.90210616666667, "is_reserved": 0, "is_disabled": 0, "fusion_lon": 0.0, "bike_id": "1605d30cd2733e8870b4d4617583adbc", "lon": -77.050338, "rental_uris": {"ios": "https://dc.lft.to/lastmile_qr_scan", "android": "https://dc.lft.to/lastmile_qr_scan"}}, {"name": "74f689e381a0d1ce63fe240f5bb43efc", "fusion_lat": 0.0, "type": "electric_scooter", "lat": 38.90843866666667, "is_reserved": 0, "is_disabled": 0, "fusion_lon": 0.0, "bike_id": "74f689e381a0d1ce63fe240f5bb43efc", "lon": -77.023508, "rental_uris": {"ios": "https://dc.lft.to/lastmile_qr_scan", "android": "https://dc.lft.to/lastmile_qr_scan"}}, {"name": "9a21c1768f19e372ce9183dab3f44092", "fusion_lat": 0.0, "type": "electric_scooter", "lat": 38.863652333333334, "is_reserved": 0, "is_disabled": 0, "fusion_lon": 0.0, "bike_id": "9a21c1768f19e372ce9183dab3f44092", "lon": -77.013706, "rental_uris": {"ios": "https://dc.lft.to/lastmile_qr_scan", "android": "https://dc.lft.to/lastmile_qr_scan"}}, {"name": "ee397656f7a6b5b9c007837aa55f6f94", "fusion_lat": 0.0, "type": "electric_bike", "lat": 38.928524, "is_reserved": 0, "is_disabled": 0, "fusion_lon": 0.0, "bike_id": "ee397656f7a6b5b9c007837aa55f6f94", "lon": -77.106737, "rental_uris": {"ios": "https://dc.lft.to/lastmile_qr_scan", "android": "https://dc.lft.to/lastmile_qr_scan"}}, {"name": "c62239ce0617aa56390a97f4d2775e38", "fusion_lat": 0.0, "type": "electric_scooter", "lat": 38.912692166666666, "is_reserved": 0, "is_disabled": 0, "fusion_lon": 0.0, "bike_id": "c62239ce0617aa56390a97f4d2775e38", "lon": -77.0223605, "rental_uris": {"ios": "https://dc.lft.to/lastmile_qr_scan", "android": "https://dc.lft.to/lastmile_qr_scan"}}, {"name": "7ac339ff5d2df6f59b1b7625f63b98ab", "fusion_lat": 0.0, "type": "electric_bike", "lat": 38.93107116666667, "is_reserved": 0, "is_disabled": 0, "fusion_lon": 0.0, "bike_id": "7ac339ff5d2df6f59b1b7625f63b98ab", "lon": -77.02712916666667, "rental_uris": {"ios": "https://dc.lft.to/lastmile_qr_scan", "android": "https://dc.lft.to/lastmile_qr_scan"}}, {"name": "bc0e25ff6511f247b1d6b474640f06c0", "fusion_lat": 0.0, "type": "electric_scooter", "lat": 38.897223, "is_reserved": 0, "is_disabled": 0, "fusion_lon": 0.0, "bike_id": "bc0e25ff6511f247b1d6b474640f06c0", "lon": -77.04334283333333, "rental_uris": {"ios": "https://dc.lft.to/lastmile_qr_scan", "android": "https://dc.lft.to/lastmile_qr_scan"}}, {"name": "0c8456342dda4ef8d0daa337fd23d8cb", "fusion_lat": 0.0, "type": "electric_scooter", "lat": 38.90286116666667, "is_reserved": 0, "is_disabled": 0, "fusion_lon": 0.0, "bike_id": "0c8456342dda4ef8d0daa337fd23d8cb", "lon": -77.04255683333334, "rental_uris": {"ios": "https://dc.lft.to/lastmile_qr_scan", "android": "https://dc.lft.to/lastmile_qr_scan"}}, {"name": "c930581074a8ce45947f23793f0c31cb", "fusion_lat": 0.0, "type": "electric_scooter", "lat": 38.93055616666667, "is_reserved": 0, "is_disabled": 0, "fusion_lon": 0.0, "bike_id": "c930581074a8ce45947f23793f0c31cb", "lon": -77.02321866666666, "rental_uris": {"ios": "https://dc.lft.to/lastmile_qr_scan", "android": "https://dc.lft.to/lastmile_qr_scan"}}, {"name": "82f6d6735899ca8d63fe84f30004f7b8", "fusion_lat": 0.0, "type": "electric_scooter", "lat": 38.90135733333334, "is_reserved": 0, "is_disabled": 0, "fusion_lon": 0.0, "bike_id": "82f6d6735899ca8d63fe84f30004f7b8", "lon": -77.02532933333333, "rental_uris": {"ios": "https://dc.lft.to/lastmile_qr_scan", "android": "https://dc.lft.to/lastmile_qr_scan"}}, {"name": "6189b5806059054b4d759ac4439449d7", "fusion_lat": 0.0, "type": "electric_scooter", "lat": 38.89728916666667, "is_reserved": 0, "is_disabled": 0, "fusion_lon": 0.0, "bike_id": "6189b5806059054b4d759ac4439449d7", "lon": -77.04765283333333, "rental_uris": {"ios": "https://dc.lft.to/lastmile_qr_scan", "android": "https://dc.lft.to/lastmile_qr_scan"}}, {"name": "d78a89e844ca468f14d1d5d48904d643", "fusion_lat": 0.0, "type": "electric_scooter", "lat": 38.912586833333336, "is_reserved": 0, "is_disabled": 0, "fusion_lon": 0.0, "bike_id": "d78a89e844ca468f14d1d5d48904d643", "lon": -77.00769533333333, "rental_uris": {"ios": "https://dc.lft.to/lastmile_qr_scan", "android": "https://dc.lft.to/lastmile_qr_scan"}}, {"name": "e9adc60409225d7784d7741e6e79a668", "fusion_lat": 0.0, "type": "electric_scooter", "lat": 38.912517, "is_reserved": 0, "is_disabled": 0, "fusion_lon": 0.0, "bike_id": "e9adc60409225d7784d7741e6e79a668", "lon": -77.00956816666667, "rental_uris": {"ios": "https://dc.lft.to/lastmile_qr_scan", "android": "https://dc.lft.to/lastmile_qr_scan"}}, {"name": "5f3192f8761534b7abdd8c3d009d1a3c", "fusion_lat": 0.0, "type": "electric_scooter", "lat": 38.934511666666666, "is_reserved": 0, "is_disabled": 0, "fusion_lon": 0.0, "bike_id": "5f3192f8761534b7abdd8c3d009d1a3c", "lon": -77.0309765, "rental_uris": {"ios": "https://dc.lft.to/lastmile_qr_scan", "android": "https://dc.lft.to/lastmile_qr_scan"}}, {"name": "6ea4a77045e853c15084afe9aa2987d3", "fusion_lat": 0.0, "type": "electric_scooter", "lat": 38.883611333333334, "is_reserved": 0, "is_disabled": 0, "fusion_lon": 0.0, "bike_id": "6ea4a77045e853c15084afe9aa2987d3", "lon": -77.03175683333333, "rental_uris": {"ios": "https://dc.lft.to/lastmile_qr_scan", "android": "https://dc.lft.to/lastmile_qr_scan"}}, {"name": "4d25c87f378b3dd967fe66b4b4f993c2", "fusion_lat": 0.0, "type": "electric_scooter", "lat": 38.90746866666667, "is_reserved": 0, "is_disabled": 0, "fusion_lon": 0.0, "bike_id": "4d25c87f378b3dd967fe66b4b4f993c2", "lon": -77.03209266666667, "rental_uris": {"ios": "https://dc.lft.to/lastmile_qr_scan", "android": "https://dc.lft.to/lastmile_qr_scan"}}, {"name": "3d8e8758b05b5b789ca3b84829212222", "fusion_lat": 0.0, "type": "electric_scooter", "lat": 38.91930466666667, "is_reserved": 0, "is_disabled": 0, "fusion_lon": 0.0, "bike_id": "3d8e8758b05b5b789ca3b84829212222", "lon": -77.0416485, "rental_uris": {"ios": "https://dc.lft.to/lastmile_qr_scan", "android": "https://dc.lft.to/lastmile_qr_scan"}}, {"name": "25ae876d1e1385c4145bbaf0d19c9242", "fusion_lat": 0.0, "type": "electric_scooter", "lat": 38.90277233333333, "is_reserved": 0, "is_disabled": 0, "fusion_lon": 0.0, "bike_id": "25ae876d1e1385c4145bbaf0d19c9242", "lon": -77.0364835, "rental_uris": {"ios": "https://dc.lft.to/lastmile_qr_scan", "android": "https://dc.lft.to/lastmile_qr_scan"}}, {"name": "7801b4384eab1da5980d96b89a799377", "fusion_lat": 0.0, "type": "electric_bike", "lat": 38.893518666666665, "is_reserved": 0, "is_disabled": 0, "fusion_lon": 0.0, "bike_id": "7801b4384eab1da5980d96b89a799377", "lon": -77.187391, "rental_uris": {"ios": "https://dc.lft.to/lastmile_qr_scan", "android": "https://dc.lft.to/lastmile_qr_scan"}}, {"name": "3e1c760964128a7a034aeea716f62e66", "fusion_lat": 0.0, "type": "electric_bike", "lat": 38.881027333333336, "is_reserved": 0, "is_disabled": 0, "fusion_lon": 0.0, "bike_id": "3e1c760964128a7a034aeea716f62e66", "lon": -77.016722, "rental_uris": {"ios": "https://dc.lft.to/lastmile_qr_scan", "android": "https://dc.lft.to/lastmile_qr_scan"}}, {"name": "1f75dd69fb73636c0cad2f2b17184fc9", "fusion_lat": 0.0, "type": "electric_scooter", "lat": 38.9285605, "is_reserved": 0, "is_disabled": 0, "fusion_lon": 0.0, "bike_id": "1f75dd69fb73636c0cad2f2b17184fc9", "lon": -77.0137545, "rental_uris": {"ios": "https://dc.lft.to/lastmile_qr_scan", "android": "https://dc.lft.to/lastmile_qr_scan"}}, {"name": "6ee70b351094a2cc60d7d800195db19a", "fusion_lat": 0.0, "type": "electric_scooter", "lat": 38.91554633333333, "is_reserved": 0, "is_disabled": 0, "fusion_lon": 0.0, "bike_id": "6ee70b351094a2cc60d7d800195db19a", "lon": -77.04179483333333, "rental_uris": {"ios": "https://dc.lft.to/lastmile_qr_scan", "android": "https://dc.lft.to/lastmile_qr_scan"}}, {"name": "c27932a152b2bebc635e9e9a4d734d59", "fusion_lat": 0.0, "type": "electric_bike", "lat": 38.96621416666667, "is_reserved": 0, "is_disabled": 0, "fusion_lon": 0.0, "bike_id": "c27932a152b2bebc635e9e9a4d734d59", "lon": -76.97668966666667, "rental_uris": {"ios": "https://dc.lft.to/lastmile_qr_scan", "android": "https://dc.lft.to/lastmile_qr_scan"}}, {"name": "3733c8fdb1f09ce1ddbbc3f7c7da91da", "fusion_lat": 0.0, "type": "electric_scooter", "lat": 38.91254983333333, "is_reserved": 0, "is_disabled": 0, "fusion_lon": 0.0, "bike_id": "3733c8fdb1f09ce1ddbbc3f7c7da91da", "lon": -77.0268235, "rental_uris": {"ios": "https://dc.lft.to/lastmile_qr_scan", "android": "https://dc.lft.to/lastmile_qr_scan"}}, {"name": "34b653ce53b9a2bcab13298d75c9871d", "fusion_lat": 0.0, "type": "electric_scooter", "lat": 38.87938316666666, "is_reserved": 0, "is_disabled": 0, "fusion_lon": 0.0, "bike_id": "34b653ce53b9a2bcab13298d75c9871d", "lon": -77.0074495, "rental_uris": {"ios": "https://dc.lft.to/lastmile_qr_scan", "android": "https://dc.lft.to/lastmile_qr_scan"}}, {"name": "4c46b3c85ae10310eb041ab1c0ea6cd8", "fusion_lat": 0.0, "type": "electric_bike", "lat": 38.97326266666666, "is_reserved": 0, "is_disabled": 0, "fusion_lon": 0.0, "bike_id": "4c46b3c85ae10310eb041ab1c0ea6cd8", "lon": -77.021467, "rental_uris": {"ios": "https://dc.lft.to/lastmile_qr_scan", "android": "https://dc.lft.to/lastmile_qr_scan"}}, {"name": "1a9eb512ce709a58d8462b2de71ab6f4", "fusion_lat": 0.0, "type": "electric_scooter", "lat": 38.89481933333333, "is_reserved": 0, "is_disabled": 0, "fusion_lon": 0.0, "bike_id": "1a9eb512ce709a58d8462b2de71ab6f4", "lon": -76.94875433333333, "rental_uris": {"ios": "https://dc.lft.to/lastmile_qr_scan", "android": "https://dc.lft.to/lastmile_qr_scan"}}, {"name": "780d9c3f19898b60f70224539854848d", "fusion_lat": 0.0, "type": "electric_scooter", "lat": 38.900195833333335, "is_reserved": 0, "is_disabled": 0, "fusion_lon": 0.0, "bike_id": "780d9c3f19898b60f70224539854848d", "lon": -76.98643016666666, "rental_uris": {"ios": "https://dc.lft.to/lastmile_qr_scan", "android": "https://dc.lft.to/lastmile_qr_scan"}}, {"name": "323c1c58c53e3b1c290a322434718d2e", "fusion_lat": 0.0, "type": "electric_scooter", "lat": 38.9011485, "is_reserved": 0, "is_disabled": 0, "fusion_lon": 0.0, "bike_id": "323c1c58c53e3b1c290a322434718d2e", "lon": -77.046322, "rental_uris": {"ios": "https://dc.lft.to/lastmile_qr_scan", "android": "https://dc.lft.to/lastmile_qr_scan"}}, {"name": "834afcebef03efa3cc24c2ab94760e2d", "fusion_lat": 0.0, "type": "electric_scooter", "lat": 38.902649833333335, "is_reserved": 0, "is_disabled": 0, "fusion_lon": 0.0, "bike_id": "834afcebef03efa3cc24c2ab94760e2d", "lon": -77.04362166666667, "rental_uris": {"ios": "https://dc.lft.to/lastmile_qr_scan", "android": "https://dc.lft.to/lastmile_qr_scan"}}, {"name": "a16e600dae5ec581abd1873e0ed70d0a", "fusion_lat": 0.0, "type": "electric_scooter", "lat": 38.875612333333336, "is_reserved": 0, "is_disabled": 0, "fusion_lon": 0.0, "bike_id": "a16e600dae5ec581abd1873e0ed70d0a", "lon": -77.006008, "rental_uris": {"ios": "https://dc.lft.to/lastmile_qr_scan", "android": "https://dc.lft.to/lastmile_qr_scan"}}, {"name": "d235c2c8e8412f708d26d63e4a9b4105", "fusion_lat": 0.0, "type": "electric_scooter", "lat": 38.910490833333334, "is_reserved": 0, "is_disabled": 0, "fusion_lon": 0.0, "bike_id": "d235c2c8e8412f708d26d63e4a9b4105", "lon": -77.04272083333333, "rental_uris": {"ios": "https://dc.lft.to/lastmile_qr_scan", "android": "https://dc.lft.to/lastmile_qr_scan"}}, {"name": "13dc6280cabfd6813596229b410e99ac", "fusion_lat": 0.0, "type": "electric_bike", "lat": 38.945524166666665, "is_reserved": 0, "is_disabled": 0, "fusion_lon": 0.0, "bike_id": "13dc6280cabfd6813596229b410e99ac", "lon": -76.89542033333333, "rental_uris": {"ios": "https://dc.lft.to/lastmile_qr_scan", "android": "https://dc.lft.to/lastmile_qr_scan"}}, {"name": "764f12071bebeaf0a40318314c8da83e", "fusion_lat": 0.0, "type": "electric_scooter", "lat": 38.892815666666664, "is_reserved": 0, "is_disabled": 0, "fusion_lon": 0.0, "bike_id": "764f12071bebeaf0a40318314c8da83e", "lon": -77.03184116666667, "rental_uris": {"ios": "https://dc.lft.to/lastmile_qr_scan", "android": "https://dc.lft.to/lastmile_qr_scan"}}, {"name": "0375d4a023745b55eda35e5705d6a434", "fusion_lat": 0.0, "type": "electric_scooter", "lat": 38.92856666666667, "is_reserved": 0, "is_disabled": 0, "fusion_lon": 0.0, "bike_id": "0375d4a023745b55eda35e5705d6a434", "lon": -77.01371183333333, "rental_uris": {"ios": "https://dc.lft.to/lastmile_qr_scan", "android": "https://dc.lft.to/lastmile_qr_scan"}}, {"name": "7ae2ad7d047c50b13ef5d100159e0f04", "fusion_lat": 0.0, "type": "electric_scooter", "lat": 38.907119333333334, "is_reserved": 0, "is_disabled": 0, "fusion_lon": 0.0, "bike_id": "7ae2ad7d047c50b13ef5d100159e0f04", "lon": -77.01511683333334, "rental_uris": {"ios": "https://dc.lft.to/lastmile_qr_scan", "android": "https://dc.lft.to/lastmile_qr_scan"}}, {"name": "40933b189dbe73793467f2261f2533ac", "fusion_lat": 0.0, "type": "electric_scooter", "lat": 38.93125933333334, "is_reserved": 0, "is_disabled": 0, "fusion_lon": 0.0, "bike_id": "40933b189dbe73793467f2261f2533ac", "lon": -77.03608983333334, "rental_uris": {"ios": "https://dc.lft.to/lastmile_qr_scan", "android": "https://dc.lft.to/lastmile_qr_scan"}}, {"name": "0aa4cc93f9f4b1347ab029fb79b731a1", "fusion_lat": 0.0, "type": "electric_scooter", "lat": 38.916668, "is_reserved": 0, "is_disabled": 0, "fusion_lon": 0.0, "bike_id": "0aa4cc93f9f4b1347ab029fb79b731a1", "lon": -77.03850983333334, "rental_uris": {"ios": "https://dc.lft.to/lastmile_qr_scan", "android": "https://dc.lft.to/lastmile_qr_scan"}}, {"name": "52bdb6c817b07695891429590769897b", "fusion_lat": 0.0, "type": "electric_scooter", "lat": 38.92974066666667, "is_reserved": 0, "is_disabled": 0, "fusion_lon": 0.0, "bike_id": "52bdb6c817b07695891429590769897b", "lon": -77.02960433333334, "rental_uris": {"ios": "https://dc.lft.to/lastmile_qr_scan", "android": "https://dc.lft.to/lastmile_qr_scan"}}, {"name": "d9759fc45134ab3178fdf7b93c80576d", "fusion_lat": 0.0, "type": "electric_scooter", "lat": 38.88393933333333, "is_reserved": 0, "is_disabled": 0, "fusion_lon": 0.0, "bike_id": "d9759fc45134ab3178fdf7b93c80576d", "lon": -76.93049433333333, "rental_uris": {"ios": "https://dc.lft.to/lastmile_qr_scan", "android": "https://dc.lft.to/lastmile_qr_scan"}}, {"name": "95c59645742f9c0a577d93b0cf02c9f4", "fusion_lat": 0.0, "type": "electric_scooter", "lat": 38.896433333333334, "is_reserved": 0, "is_disabled": 0, "fusion_lon": 0.0, "bike_id": "95c59645742f9c0a577d93b0cf02c9f4", "lon": -77.00913383333334, "rental_uris": {"ios": "https://dc.lft.to/lastmile_qr_scan", "android": "https://dc.lft.to/lastmile_qr_scan"}}, {"name": "00e2e3d2fe708cb9c5a433a24df51387", "fusion_lat": 0.0, "type": "electric_scooter", "lat": 38.94020366666667, "is_reserved": 0, "is_disabled": 0, "fusion_lon": 0.0, "bike_id": "00e2e3d2fe708cb9c5a433a24df51387", "lon": -77.02963116666666, "rental_uris": {"ios": "https://dc.lft.to/lastmile_qr_scan", "android": "https://dc.lft.to/lastmile_qr_scan"}}, {"name": "a5c9a566ac79c60e5df3dd330b5948c8", "fusion_lat": 0.0, "type": "electric_scooter", "lat": 38.915719333333335, "is_reserved": 0, "is_disabled": 0, "fusion_lon": 0.0, "bike_id": "a5c9a566ac79c60e5df3dd330b5948c8", "lon": -77.05212616666667, "rental_uris": {"ios": "https://dc.lft.to/lastmile_qr_scan", "android": "https://dc.lft.to/lastmile_qr_scan"}}, {"name": "9060d53539f04aacf23df2a0600ec684", "fusion_lat": 0.0, "type": "electric_bike", "lat": 38.9027235, "is_reserved": 0, "is_disabled": 0, "fusion_lon": 0.0, "bike_id": "9060d53539f04aacf23df2a0600ec684", "lon": -77.05996816666666, "rental_uris": {"ios": "https://dc.lft.to/lastmile_qr_scan", "android": "https://dc.lft.to/lastmile_qr_scan"}}, {"name": "2135bd6f5595c08624a9385a4ac26da4", "fusion_lat": 0.0, "type": "electric_scooter", "lat": 38.885901, "is_reserved": 0, "is_disabled": 0, "fusion_lon": 0.0, "bike_id": "2135bd6f5595c08624a9385a4ac26da4", "lon": -77.03164783333334, "rental_uris": {"ios": "https://dc.lft.to/lastmile_qr_scan", "android": "https://dc.lft.to/lastmile_qr_scan"}}, {"name": "50798842048efe41ccb881111c3ef725", "fusion_lat": 0.0, "type": "electric_scooter", "lat": 38.9001225, "is_reserved": 0, "is_disabled": 0, "fusion_lon": 0.0, "bike_id": "50798842048efe41ccb881111c3ef725", "lon": -76.9956055, "rental_uris": {"ios": "https://dc.lft.to/lastmile_qr_scan", "android": "https://dc.lft.to/lastmile_qr_scan"}}, {"name": "f151263957911d464515444bba4042ab", "fusion_lat": 0.0, "type": "electric_scooter", "lat": 38.92969983333333, "is_reserved": 0, "is_disabled": 0, "fusion_lon": 0.0, "bike_id": "f151263957911d464515444bba4042ab", "lon": -77.07924433333334, "rental_uris": {"ios": "https://dc.lft.to/lastmile_qr_scan", "android": "https://dc.lft.to/lastmile_qr_scan"}}, {"name": "5debaea3b65fc383c5a5f466eddcf5bc", "fusion_lat": 0.0, "type": "electric_bike", "lat": 38.9168595, "is_reserved": 0, "is_disabled": 0, "fusion_lon": 0.0, "bike_id": "5debaea3b65fc383c5a5f466eddcf5bc", "lon": -76.98057183333333, "rental_uris": {"ios": "https://dc.lft.to/lastmile_qr_scan", "android": "https://dc.lft.to/lastmile_qr_scan"}}, {"name": "25234eeb57008a23196d7f1b853595c3", "fusion_lat": 0.0, "type": "electric_bike", "lat": 38.88544316666667, "is_reserved": 0, "is_disabled": 0, "fusion_lon": 0.0, "bike_id": "25234eeb57008a23196d7f1b853595c3", "lon": -76.9975505, "rental_uris": {"ios": "https://dc.lft.to/lastmile_qr_scan", "android": "https://dc.lft.to/lastmile_qr_scan"}}, {"name": "04124adf5eb3468fd0a83cc39a146281", "fusion_lat": 0.0, "type": "electric_scooter", "lat": 38.87478516666667, "is_reserved": 0, "is_disabled": 0, "fusion_lon": 0.0, "bike_id": "04124adf5eb3468fd0a83cc39a146281", "lon": -77.01073366666667, "rental_uris": {"ios": "https://dc.lft.to/lastmile_qr_scan", "android": "https://dc.lft.to/lastmile_qr_scan"}}, {"name": "5fd8a9e89d3b9773019890e0d05e0fcf", "fusion_lat": 0.0, "type": "electric_scooter", "lat": 38.91397, "is_reserved": 0, "is_disabled": 0, "fusion_lon": 0.0, "bike_id": "5fd8a9e89d3b9773019890e0d05e0fcf", "lon": -77.0083395, "rental_uris": {"ios": "https://dc.lft.to/lastmile_qr_scan", "android": "https://dc.lft.to/lastmile_qr_scan"}}, {"name": "2733890e06245fd9718bd0e5a7604cbc", "fusion_lat": 0.0, "type": "electric_scooter", "lat": 38.907204, "is_reserved": 0, "is_disabled": 0, "fusion_lon": 0.0, "bike_id": "2733890e06245fd9718bd0e5a7604cbc", "lon": -77.02886066666667, "rental_uris": {"ios": "https://dc.lft.to/lastmile_qr_scan", "android": "https://dc.lft.to/lastmile_qr_scan"}}, {"name": "fc3021f337455511aad57ea8c4ac3274", "fusion_lat": 0.0, "type": "electric_scooter", "lat": 38.8952005, "is_reserved": 0, "is_disabled": 0, "fusion_lon": 0.0, "bike_id": "fc3021f337455511aad57ea8c4ac3274", "lon": -76.9914935, "rental_uris": {"ios": "https://dc.lft.to/lastmile_qr_scan", "android": "https://dc.lft.to/lastmile_qr_scan"}}, {"name": "5fb7f8635366358312751451e711f3e4", "fusion_lat": 0.0, "type": "electric_scooter", "lat": 38.90367533333333, "is_reserved": 0, "is_disabled": 0, "fusion_lon": 0.0, "bike_id": "5fb7f8635366358312751451e711f3e4", "lon": -77.03530383333333, "rental_uris": {"ios": "https://dc.lft.to/lastmile_qr_scan", "android": "https://dc.lft.to/lastmile_qr_scan"}}, {"name": "f3cb9d3b5d9bb6f982047d0c1cbb6a34", "fusion_lat": 0.0, "type": "electric_scooter", "lat": 38.909682333333336, "is_reserved": 0, "is_disabled": 0, "fusion_lon": 0.0, "bike_id": "f3cb9d3b5d9bb6f982047d0c1cbb6a34", "lon": -77.03368583333334, "rental_uris": {"ios": "https://dc.lft.to/lastmile_qr_scan", "android": "https://dc.lft.to/lastmile_qr_scan"}}, {"name": "b74bf3acb2e026d15a8811e640d8bc77", "fusion_lat": 0.0, "type": "electric_scooter", "lat": 38.91568, "is_reserved": 0, "is_disabled": 0, "fusion_lon": 0.0, "bike_id": "b74bf3acb2e026d15a8811e640d8bc77", "lon": -77.03895066666666, "rental_uris": {"ios": "https://dc.lft.to/lastmile_qr_scan", "android": "https://dc.lft.to/lastmile_qr_scan"}}, {"name": "6122701914b52a8c2dd603dac03b6db3", "fusion_lat": 0.0, "type": "electric_scooter", "lat": 38.883803, "is_reserved": 0, "is_disabled": 0, "fusion_lon": 0.0, "bike_id": "6122701914b52a8c2dd603dac03b6db3", "lon": -76.99524683333334, "rental_uris": {"ios": "https://dc.lft.to/lastmile_qr_scan", "android": "https://dc.lft.to/lastmile_qr_scan"}}, {"name": "05895946405aaf7b2a67e2c27a0cf9cd", "fusion_lat": 0.0, "type": "electric_scooter", "lat": 38.918066, "is_reserved": 0, "is_disabled": 0, "fusion_lon": 0.0, "bike_id": "05895946405aaf7b2a67e2c27a0cf9cd", "lon": -77.02497216666667, "rental_uris": {"ios": "https://dc.lft.to/lastmile_qr_scan", "android": "https://dc.lft.to/lastmile_qr_scan"}}, {"name": "1b07319f2a95fb5b806b89f3b84d90b3", "fusion_lat": 0.0, "type": "electric_bike", "lat": 39.02415533333333, "is_reserved": 0, "is_disabled": 0, "fusion_lon": 0.0, "bike_id": "1b07319f2a95fb5b806b89f3b84d90b3", "lon": -77.1250495, "rental_uris": {"ios": "https://dc.lft.to/lastmile_qr_scan", "android": "https://dc.lft.to/lastmile_qr_scan"}}, {"name": "9ef030f59efa5faa308b234ffb22ebb7", "fusion_lat": 0.0, "type": "electric_scooter", "lat": 38.923453333333335, "is_reserved": 0, "is_disabled": 0, "fusion_lon": 0.0, "bike_id": "9ef030f59efa5faa308b234ffb22ebb7", "lon": -77.0501555, "rental_uris": {"ios": "https://dc.lft.to/lastmile_qr_scan", "android": "https://dc.lft.to/lastmile_qr_scan"}}, {"name": "efc8ac419786ddda90b0efa333ee2e52", "fusion_lat": 0.0, "type": "electric_scooter", "lat": 38.88115483333333, "is_reserved": 0, "is_disabled": 0, "fusion_lon": 0.0, "bike_id": "efc8ac419786ddda90b0efa333ee2e52", "lon": -77.01662533333334, "rental_uris": {"ios": "https://dc.lft.to/lastmile_qr_scan", "android": "https://dc.lft.to/lastmile_qr_scan"}}, {"name": "e3284522753bfb08a6d244e7bded2a20", "fusion_lat": 0.0, "type": "electric_scooter", "lat": 38.89596983333333, "is_reserved": 0, "is_disabled": 0, "fusion_lon": 0.0, "bike_id": "e3284522753bfb08a6d244e7bded2a20", "lon": -77.04130633333334, "rental_uris": {"ios": "https://dc.lft.to/lastmile_qr_scan", "android": "https://dc.lft.to/lastmile_qr_scan"}}, {"name": "4f637132a135e9f57ae07f0febac419c", "fusion_lat": 0.0, "type": "electric_scooter", "lat": 38.916830166666664, "is_reserved": 0, "is_disabled": 0, "fusion_lon": 0.0, "bike_id": "4f637132a135e9f57ae07f0febac419c", "lon": -77.02899016666667, "rental_uris": {"ios": "https://dc.lft.to/lastmile_qr_scan", "android": "https://dc.lft.to/lastmile_qr_scan"}}, {"name": "9412527aa4a16be8cac3440aa40fab72", "fusion_lat": 0.0, "type": "electric_scooter", "lat": 38.933830666666665, "is_reserved": 0, "is_disabled": 0, "fusion_lon": 0.0, "bike_id": "9412527aa4a16be8cac3440aa40fab72", "lon": -77.073837, "rental_uris": {"ios": "https://dc.lft.to/lastmile_qr_scan", "android": "https://dc.lft.to/lastmile_qr_scan"}}, {"name": "35be0aeb74a0bd4c65e554c23c177fb2", "fusion_lat": 0.0, "type": "electric_scooter", "lat": 38.902523, "is_reserved": 0, "is_disabled": 0, "fusion_lon": 0.0, "bike_id": "35be0aeb74a0bd4c65e554c23c177fb2", "lon": -77.03844183333334, "rental_uris": {"ios": "https://dc.lft.to/lastmile_qr_scan", "android": "https://dc.lft.to/lastmile_qr_scan"}}, {"name": "1dadfa8cb6668da1d68101749c97c72a", "fusion_lat": 0.0, "type": "electric_scooter", "lat": 38.924763666666664, "is_reserved": 0, "is_disabled": 0, "fusion_lon": 0.0, "bike_id": "1dadfa8cb6668da1d68101749c97c72a", "lon": -77.03134, "rental_uris": {"ios": "https://dc.lft.to/lastmile_qr_scan", "android": "https://dc.lft.to/lastmile_qr_scan"}}, {"name": "1998b5ed494970f3da7268bef9fb0f50", "fusion_lat": 0.0, "type": "electric_bike", "lat": 38.88615016666667, "is_reserved": 0, "is_disabled": 0, "fusion_lon": 0.0, "bike_id": "1998b5ed494970f3da7268bef9fb0f50", "lon": -77.10755983333334, "rental_uris": {"ios": "https://dc.lft.to/lastmile_qr_scan", "android": "https://dc.lft.to/lastmile_qr_scan"}}, {"name": "b5c7d1b2ce044baae938463858b0c0c3", "fusion_lat": 0.0, "type": "electric_bike", "lat": 38.9221335, "is_reserved": 0, "is_disabled": 0, "fusion_lon": 0.0, "bike_id": "b5c7d1b2ce044baae938463858b0c0c3", "lon": -76.98792416666667, "rental_uris": {"ios": "https://dc.lft.to/lastmile_qr_scan", "android": "https://dc.lft.to/lastmile_qr_scan"}}, {"name": "a026f54dc87b6fab6d6410b556ffe52d", "fusion_lat": 0.0, "type": "electric_scooter", "lat": 38.89490983333334, "is_reserved": 0, "is_disabled": 0, "fusion_lon": 0.0, "bike_id": "a026f54dc87b6fab6d6410b556ffe52d", "lon": -77.01013233333333, "rental_uris": {"ios": "https://dc.lft.to/lastmile_qr_scan", "android": "https://dc.lft.to/lastmile_qr_scan"}}, {"name": "63e6cd841d24aff2de6914907c33d7ab", "fusion_lat": 0.0, "type": "electric_scooter", "lat": 38.862640166666665, "is_reserved": 0, "is_disabled": 0, "fusion_lon": 0.0, "bike_id": "63e6cd841d24aff2de6914907c33d7ab", "lon": -76.9871685, "rental_uris": {"ios": "https://dc.lft.to/lastmile_qr_scan", "android": "https://dc.lft.to/lastmile_qr_scan"}}, {"name": "f965a15fa7d092c05a247dbb7ada0b15", "fusion_lat": 0.0, "type": "electric_scooter", "lat": 38.88392433333333, "is_reserved": 0, "is_disabled": 0, "fusion_lon": 0.0, "bike_id": "f965a15fa7d092c05a247dbb7ada0b15", "lon": -76.930486, "rental_uris": {"ios": "https://dc.lft.to/lastmile_qr_scan", "android": "https://dc.lft.to/lastmile_qr_scan"}}, {"name": "aa2bf054a01c3b135b6fb408429b1dee", "fusion_lat": 0.0, "type": "electric_scooter", "lat": 38.902792166666664, "is_reserved": 0, "is_disabled": 0, "fusion_lon": 0.0, "bike_id": "aa2bf054a01c3b135b6fb408429b1dee", "lon": -77.038358, "rental_uris": {"ios": "https://dc.lft.to/lastmile_qr_scan", "android": "https://dc.lft.to/lastmile_qr_scan"}}, {"name": "dceb859ec9746bf9099c66799ea0395f", "fusion_lat": 0.0, "type": "electric_scooter", "lat": 38.89994383333333, "is_reserved": 0, "is_disabled": 0, "fusion_lon": 0.0, "bike_id": "dceb859ec9746bf9099c66799ea0395f", "lon": -77.04581283333333, "rental_uris": {"ios": "https://dc.lft.to/lastmile_qr_scan", "android": "https://dc.lft.to/lastmile_qr_scan"}}, {"name": "99271316fdd7b9689211eeba9fb6d3db", "fusion_lat": 0.0, "type": "electric_scooter", "lat": 38.90357133333333, "is_reserved": 0, "is_disabled": 0, "fusion_lon": 0.0, "bike_id": "99271316fdd7b9689211eeba9fb6d3db", "lon": -77.02592483333333, "rental_uris": {"ios": "https://dc.lft.to/lastmile_qr_scan", "android": "https://dc.lft.to/lastmile_qr_scan"}}, {"name": "088ad62898052fb772c03dc0f0a8594e", "fusion_lat": 0.0, "type": "electric_scooter", "lat": 38.921337666666666, "is_reserved": 0, "is_disabled": 0, "fusion_lon": 0.0, "bike_id": "088ad62898052fb772c03dc0f0a8594e", "lon": -77.025354, "rental_uris": {"ios": "https://dc.lft.to/lastmile_qr_scan", "android": "https://dc.lft.to/lastmile_qr_scan"}}, {"name": "4e64bb7a8475ff3fcb800e5e1de3a293", "fusion_lat": 0.0, "type": "electric_bike", "lat": 38.84268766666667, "is_reserved": 0, "is_disabled": 0, "fusion_lon": 0.0, "bike_id": "4e64bb7a8475ff3fcb800e5e1de3a293", "lon": -76.98837716666667, "rental_uris": {"ios": "https://dc.lft.to/lastmile_qr_scan", "android": "https://dc.lft.to/lastmile_qr_scan"}}, {"name": "8fae8846a5a8f4e1f42ceafd422e48e6", "fusion_lat": 0.0, "type": "electric_scooter", "lat": 38.919714, "is_reserved": 0, "is_disabled": 0, "fusion_lon": 0.0, "bike_id": "8fae8846a5a8f4e1f42ceafd422e48e6", "lon": -77.03977566666667, "rental_uris": {"ios": "https://dc.lft.to/lastmile_qr_scan", "android": "https://dc.lft.to/lastmile_qr_scan"}}, {"name": "973d5646944ff971d9dde649775129ca", "fusion_lat": 0.0, "type": "electric_scooter", "lat": 38.92823583333333, "is_reserved": 0, "is_disabled": 0, "fusion_lon": 0.0, "bike_id": "973d5646944ff971d9dde649775129ca", "lon": -77.02260833333334, "rental_uris": {"ios": "https://dc.lft.to/lastmile_qr_scan", "android": "https://dc.lft.to/lastmile_qr_scan"}}, {"name": "50a292e6ce35d16b10057237d9bc0cf5", "fusion_lat": 0.0, "type": "electric_scooter", "lat": 38.92579683333334, "is_reserved": 0, "is_disabled": 0, "fusion_lon": 0.0, "bike_id": "50a292e6ce35d16b10057237d9bc0cf5", "lon": -76.99496266666667, "rental_uris": {"ios": "https://dc.lft.to/lastmile_qr_scan", "android": "https://dc.lft.to/lastmile_qr_scan"}}, {"name": "026fe60e61a11588381ebf539c974cc3", "fusion_lat": 0.0, "type": "electric_scooter", "lat": 38.90558683333333, "is_reserved": 0, "is_disabled": 0, "fusion_lon": 0.0, "bike_id": "026fe60e61a11588381ebf539c974cc3", "lon": -77.048818, "rental_uris": {"ios": "https://dc.lft.to/lastmile_qr_scan", "android": "https://dc.lft.to/lastmile_qr_scan"}}, {"name": "443cea783fa712c31eb21b34b05b8902", "fusion_lat": 0.0, "type": "electric_bike", "lat": 38.96004883333333, "is_reserved": 0, "is_disabled": 0, "fusion_lon": 0.0, "bike_id": "443cea783fa712c31eb21b34b05b8902", "lon": -76.998759, "rental_uris": {"ios": "https://dc.lft.to/lastmile_qr_scan", "android": "https://dc.lft.to/lastmile_qr_scan"}}, {"name": "fc6af7bd267a7f6ab081e20b718e5af2", "fusion_lat": 0.0, "type": "electric_scooter", "lat": 38.905723333333334, "is_reserved": 0, "is_disabled": 0, "fusion_lon": 0.0, "bike_id": "fc6af7bd267a7f6ab081e20b718e5af2", "lon": -77.02185133333333, "rental_uris": {"ios": "https://dc.lft.to/lastmile_qr_scan", "android": "https://dc.lft.to/lastmile_qr_scan"}}, {"name": "2a85f88d89e9287305ba8fba00ce6c57", "fusion_lat": 0.0, "type": "electric_scooter", "lat": 38.86154, "is_reserved": 0, "is_disabled": 0, "fusion_lon": 0.0, "bike_id": "2a85f88d89e9287305ba8fba00ce6c57", "lon": -76.989251, "rental_uris": {"ios": "https://dc.lft.to/lastmile_qr_scan", "android": "https://dc.lft.to/lastmile_qr_scan"}}, {"name": "73e5f3676ad2a8ede0ec072476dd5701", "fusion_lat": 0.0, "type": "electric_scooter", "lat": 38.907371166666664, "is_reserved": 0, "is_disabled": 0, "fusion_lon": 0.0, "bike_id": "73e5f3676ad2a8ede0ec072476dd5701", "lon": -77.02694116666666, "rental_uris": {"ios": "https://dc.lft.to/lastmile_qr_scan", "android": "https://dc.lft.to/lastmile_qr_scan"}}, {"name": "9cb2784fb3d491cd12fcbe3a103cbfde", "fusion_lat": 0.0, "type": "electric_scooter", "lat": 38.919248333333336, "is_reserved": 0, "is_disabled": 0, "fusion_lon": 0.0, "bike_id": "9cb2784fb3d491cd12fcbe3a103cbfde", "lon": -77.0236035, "rental_uris": {"ios": "https://dc.lft.to/lastmile_qr_scan", "android": "https://dc.lft.to/lastmile_qr_scan"}}, {"name": "da57af3ca2225fe9d18557f8aa410737", "fusion_lat": 0.0, "type": "electric_scooter", "lat": 38.91533666666667, "is_reserved": 0, "is_disabled": 0, "fusion_lon": 0.0, "bike_id": "da57af3ca2225fe9d18557f8aa410737", "lon": -77.0320625, "rental_uris": {"ios": "https://dc.lft.to/lastmile_qr_scan", "android": "https://dc.lft.to/lastmile_qr_scan"}}, {"name": "0d5c17824b80c1ad070cee511161e384", "fusion_lat": 0.0, "type": "electric_scooter", "lat": 38.89968283333333, "is_reserved": 0, "is_disabled": 0, "fusion_lon": 0.0, "bike_id": "0d5c17824b80c1ad070cee511161e384", "lon": -77.01936116666667, "rental_uris": {"ios": "https://dc.lft.to/lastmile_qr_scan", "android": "https://dc.lft.to/lastmile_qr_scan"}}, {"name": "cc583e5c7fd0fc45f0d167d2fcd46a76", "fusion_lat": 0.0, "type": "electric_scooter", "lat": 38.905787833333335, "is_reserved": 0, "is_disabled": 0, "fusion_lon": 0.0, "bike_id": "cc583e5c7fd0fc45f0d167d2fcd46a76", "lon": -77.04715783333333, "rental_uris": {"ios": "https://dc.lft.to/lastmile_qr_scan", "android": "https://dc.lft.to/lastmile_qr_scan"}}, {"name": "00fead0e3c8472175105b506ba239bfa", "fusion_lat": 0.0, "type": "electric_scooter", "lat": 38.8924085, "is_reserved": 0, "is_disabled": 0, "fusion_lon": 0.0, "bike_id": "00fead0e3c8472175105b506ba239bfa", "lon": -77.03381716666667, "rental_uris": {"ios": "https://dc.lft.to/lastmile_qr_scan", "android": "https://dc.lft.to/lastmile_qr_scan"}}, {"name": "643d095a244aa4ac57bf3b654f69611b", "fusion_lat": 0.0, "type": "electric_scooter", "lat": 38.930943, "is_reserved": 0, "is_disabled": 0, "fusion_lon": 0.0, "bike_id": "643d095a244aa4ac57bf3b654f69611b", "lon": -77.02513783333333, "rental_uris": {"ios": "https://dc.lft.to/lastmile_qr_scan", "android": "https://dc.lft.to/lastmile_qr_scan"}}, {"name": "d5782b6a02186baa4fd8099f03111f17", "fusion_lat": 0.0, "type": "electric_scooter", "lat": 38.912677333333335, "is_reserved": 0, "is_disabled": 0, "fusion_lon": 0.0, "bike_id": "d5782b6a02186baa4fd8099f03111f17", "lon": -77.02619216666666, "rental_uris": {"ios": "https://dc.lft.to/lastmile_qr_scan", "android": "https://dc.lft.to/lastmile_qr_scan"}}, {"name": "7ed9529a7f5c1b42898b641fad08b0d2", "fusion_lat": 0.0, "type": "electric_scooter", "lat": 38.905331333333336, "is_reserved": 0, "is_disabled": 0, "fusion_lon": 0.0, "bike_id": "7ed9529a7f5c1b42898b641fad08b0d2", "lon": -77.04565233333334, "rental_uris": {"ios": "https://dc.lft.to/lastmile_qr_scan", "android": "https://dc.lft.to/lastmile_qr_scan"}}, {"name": "b2a55d682ab86913d91f1570ff7754ec", "fusion_lat": 0.0, "type": "electric_scooter", "lat": 38.91810183333333, "is_reserved": 0, "is_disabled": 0, "fusion_lon": 0.0, "bike_id": "b2a55d682ab86913d91f1570ff7754ec", "lon": -77.04626983333333, "rental_uris": {"ios": "https://dc.lft.to/lastmile_qr_scan", "android": "https://dc.lft.to/lastmile_qr_scan"}}, {"name": "d44520c07e09b13d7fc2dc86f97ac222", "fusion_lat": 0.0, "type": "electric_scooter", "lat": 38.921699833333335, "is_reserved": 0, "is_disabled": 0, "fusion_lon": 0.0, "bike_id": "d44520c07e09b13d7fc2dc86f97ac222", "lon": -77.042532, "rental_uris": {"ios": "https://dc.lft.to/lastmile_qr_scan", "android": "https://dc.lft.to/lastmile_qr_scan"}}, {"name": "c99c435a5d4013bb0c83a8f182fff8d1", "fusion_lat": 0.0, "type": "electric_scooter", "lat": 38.93187666666667, "is_reserved": 0, "is_disabled": 0, "fusion_lon": 0.0, "bike_id": "c99c435a5d4013bb0c83a8f182fff8d1", "lon": -77.03449983333333, "rental_uris": {"ios": "https://dc.lft.to/lastmile_qr_scan", "android": "https://dc.lft.to/lastmile_qr_scan"}}, {"name": "d4b7a2c6e8f7ab4df3184964f2a6a9d2", "fusion_lat": 0.0, "type": "electric_scooter", "lat": 38.89979683333333, "is_reserved": 0, "is_disabled": 0, "fusion_lon": 0.0, "bike_id": "d4b7a2c6e8f7ab4df3184964f2a6a9d2", "lon": -77.02944533333333, "rental_uris": {"ios": "https://dc.lft.to/lastmile_qr_scan", "android": "https://dc.lft.to/lastmile_qr_scan"}}, {"name": "4a627d3f6ec32a300f8642220536086f", "fusion_lat": 0.0, "type": "electric_scooter", "lat": 38.9347895, "is_reserved": 0, "is_disabled": 0, "fusion_lon": 0.0, "bike_id": "4a627d3f6ec32a300f8642220536086f", "lon": -77.0727045, "rental_uris": {"ios": "https://dc.lft.to/lastmile_qr_scan", "android": "https://dc.lft.to/lastmile_qr_scan"}}, {"name": "4f2e611381176b7046a29094e2c28bd4", "fusion_lat": 0.0, "type": "electric_scooter", "lat": 38.9041905, "is_reserved": 0, "is_disabled": 0, "fusion_lon": 0.0, "bike_id": "4f2e611381176b7046a29094e2c28bd4", "lon": -77.05325533333334, "rental_uris": {"ios": "https://dc.lft.to/lastmile_qr_scan", "android": "https://dc.lft.to/lastmile_qr_scan"}}, {"name": "72b8ef7f279ea38acf94a26e5dd78473", "fusion_lat": 0.0, "type": "electric_scooter", "lat": 38.919412666666666, "is_reserved": 0, "is_disabled": 0, "fusion_lon": 0.0, "bike_id": "72b8ef7f279ea38acf94a26e5dd78473", "lon": -77.04540066666667, "rental_uris": {"ios": "https://dc.lft.to/lastmile_qr_scan", "android": "https://dc.lft.to/lastmile_qr_scan"}}, {"name": "7235d334cabab02036854be220440d43", "fusion_lat": 0.0, "type": "electric_scooter", "lat": 38.86072333333333, "is_reserved": 0, "is_disabled": 0, "fusion_lon": 0.0, "bike_id": "7235d334cabab02036854be220440d43", "lon": -76.96742516666667, "rental_uris": {"ios": "https://dc.lft.to/lastmile_qr_scan", "android": "https://dc.lft.to/lastmile_qr_scan"}}, {"name": "9bcb49cd15476a7ca49a4f889e2b1455", "fusion_lat": 0.0, "type": "electric_scooter", "lat": 38.9066285, "is_reserved": 0, "is_disabled": 0, "fusion_lon": 0.0, "bike_id": "9bcb49cd15476a7ca49a4f889e2b1455", "lon": -77.02711016666667, "rental_uris": {"ios": "https://dc.lft.to/lastmile_qr_scan", "android": "https://dc.lft.to/lastmile_qr_scan"}}, {"name": "06ea9b40d6fa36d841a42acdef983656", "fusion_lat": 0.0, "type": "electric_scooter", "lat": 38.900989, "is_reserved": 0, "is_disabled": 0, "fusion_lon": 0.0, "bike_id": "06ea9b40d6fa36d841a42acdef983656", "lon": -77.04984316666666, "rental_uris": {"ios": "https://dc.lft.to/lastmile_qr_scan", "android": "https://dc.lft.to/lastmile_qr_scan"}}, {"name": "3f40a0077f4e5d2650da46dfd998e633", "fusion_lat": 0.0, "type": "electric_scooter", "lat": 38.93362416666667, "is_reserved": 0, "is_disabled": 0, "fusion_lon": 0.0, "bike_id": "3f40a0077f4e5d2650da46dfd998e633", "lon": -77.03451866666667, "rental_uris": {"ios": "https://dc.lft.to/lastmile_qr_scan", "android": "https://dc.lft.to/lastmile_qr_scan"}}, {"name": "f7ca1174b33389414859b2165b992859", "fusion_lat": 0.0, "type": "electric_scooter", "lat": 38.9147255, "is_reserved": 0, "is_disabled": 0, "fusion_lon": 0.0, "bike_id": "f7ca1174b33389414859b2165b992859", "lon": -76.98112983333333, "rental_uris": {"ios": "https://dc.lft.to/lastmile_qr_scan", "android": "https://dc.lft.to/lastmile_qr_scan"}}, {"name": "f2f83353d8daeff772d189be4ba7feac", "fusion_lat": 0.0, "type": "electric_scooter", "lat": 38.911843, "is_reserved": 0, "is_disabled": 0, "fusion_lon": 0.0, "bike_id": "f2f83353d8daeff772d189be4ba7feac", "lon": -77.03840666666666, "rental_uris": {"ios": "https://dc.lft.to/lastmile_qr_scan", "android": "https://dc.lft.to/lastmile_qr_scan"}}, {"name": "dffb955876bbea8d0c3ca1b13546f1bf", "fusion_lat": 0.0, "type": "electric_scooter", "lat": 38.92205283333333, "is_reserved": 0, "is_disabled": 0, "fusion_lon": 0.0, "bike_id": "dffb955876bbea8d0c3ca1b13546f1bf", "lon": -77.04318133333334, "rental_uris": {"ios": "https://dc.lft.to/lastmile_qr_scan", "android": "https://dc.lft.to/lastmile_qr_scan"}}, {"name": "bbee7bd1fcaf74c740ed0f48f7317880", "fusion_lat": 0.0, "type": "electric_scooter", "lat": 38.91691183333333, "is_reserved": 0, "is_disabled": 0, "fusion_lon": 0.0, "bike_id": "bbee7bd1fcaf74c740ed0f48f7317880", "lon": -77.04339366666666, "rental_uris": {"ios": "https://dc.lft.to/lastmile_qr_scan", "android": "https://dc.lft.to/lastmile_qr_scan"}}, {"name": "2f98114949ae7e31ff2e67bca4b1f9ad", "fusion_lat": 0.0, "type": "electric_scooter", "lat": 38.885941833333334, "is_reserved": 0, "is_disabled": 0, "fusion_lon": 0.0, "bike_id": "2f98114949ae7e31ff2e67bca4b1f9ad", "lon": -77.02206616666666, "rental_uris": {"ios": "https://dc.lft.to/lastmile_qr_scan", "android": "https://dc.lft.to/lastmile_qr_scan"}}, {"name": "04c20e6a64058fce0c23d1024656a6ef", "fusion_lat": 0.0, "type": "electric_bike", "lat": 38.940710333333335, "is_reserved": 0, "is_disabled": 0, "fusion_lon": 0.0, "bike_id": "04c20e6a64058fce0c23d1024656a6ef", "lon": -77.03821566666667, "rental_uris": {"ios": "https://dc.lft.to/lastmile_qr_scan", "android": "https://dc.lft.to/lastmile_qr_scan"}}, {"name": "733dc584bad79b808c15193d0d78abad", "fusion_lat": 0.0, "type": "electric_scooter", "lat": 38.915919833333334, "is_reserved": 0, "is_disabled": 0, "fusion_lon": 0.0, "bike_id": "733dc584bad79b808c15193d0d78abad", "lon": -77.04255283333333, "rental_uris": {"ios": "https://dc.lft.to/lastmile_qr_scan", "android": "https://dc.lft.to/lastmile_qr_scan"}}, {"name": "0b150d43c6c301cb24dbd5d9d33faf30", "fusion_lat": 0.0, "type": "electric_scooter", "lat": 38.923860166666664, "is_reserved": 0, "is_disabled": 0, "fusion_lon": 0.0, "bike_id": "0b150d43c6c301cb24dbd5d9d33faf30", "lon": -77.0389525, "rental_uris": {"ios": "https://dc.lft.to/lastmile_qr_scan", "android": "https://dc.lft.to/lastmile_qr_scan"}}, {"name": "8f3cada33514fbe568ad02e9713c1cde", "fusion_lat": 0.0, "type": "electric_scooter", "lat": 38.8857815, "is_reserved": 0, "is_disabled": 0, "fusion_lon": 0.0, "bike_id": "8f3cada33514fbe568ad02e9713c1cde", "lon": -76.99504433333334, "rental_uris": {"ios": "https://dc.lft.to/lastmile_qr_scan", "android": "https://dc.lft.to/lastmile_qr_scan"}}, {"name": "b430da219d8d1ff408389dc88e90fa76", "fusion_lat": 0.0, "type": "electric_scooter", "lat": 38.915766833333336, "is_reserved": 0, "is_disabled": 0, "fusion_lon": 0.0, "bike_id": "b430da219d8d1ff408389dc88e90fa76", "lon": -77.01592916666667, "rental_uris": {"ios": "https://dc.lft.to/lastmile_qr_scan", "android": "https://dc.lft.to/lastmile_qr_scan"}}, {"name": "1e71d04e33b311ac1f05dd998f367099", "fusion_lat": 0.0, "type": "electric_scooter", "lat": 38.916783333333335, "is_reserved": 0, "is_disabled": 0, "fusion_lon": 0.0, "bike_id": "1e71d04e33b311ac1f05dd998f367099", "lon": -77.02970433333333, "rental_uris": {"ios": "https://dc.lft.to/lastmile_qr_scan", "android": "https://dc.lft.to/lastmile_qr_scan"}}, {"name": "e16fcd06fdcd8c2c72b7217a12296b29", "fusion_lat": 0.0, "type": "electric_scooter", "lat": 38.928468333333335, "is_reserved": 0, "is_disabled": 0, "fusion_lon": 0.0, "bike_id": "e16fcd06fdcd8c2c72b7217a12296b29", "lon": -77.013989, "rental_uris": {"ios": "https://dc.lft.to/lastmile_qr_scan", "android": "https://dc.lft.to/lastmile_qr_scan"}}, {"name": "87d87b2defb920ccb64fdb23b9b2ffcf", "fusion_lat": 0.0, "type": "electric_scooter", "lat": 38.924932166666665, "is_reserved": 0, "is_disabled": 0, "fusion_lon": 0.0, "bike_id": "87d87b2defb920ccb64fdb23b9b2ffcf", "lon": -77.02708366666667, "rental_uris": {"ios": "https://dc.lft.to/lastmile_qr_scan", "android": "https://dc.lft.to/lastmile_qr_scan"}}, {"name": "6105d576d1a95a6a52d8c0f568369614", "fusion_lat": 0.0, "type": "electric_scooter", "lat": 38.905810833333334, "is_reserved": 0, "is_disabled": 0, "fusion_lon": 0.0, "bike_id": "6105d576d1a95a6a52d8c0f568369614", "lon": -77.03708033333334, "rental_uris": {"ios": "https://dc.lft.to/lastmile_qr_scan", "android": "https://dc.lft.to/lastmile_qr_scan"}}, {"name": "53166ee32a96e98f75ecab5ac57482e2", "fusion_lat": 0.0, "type": "electric_scooter", "lat": 38.868254, "is_reserved": 0, "is_disabled": 0, "fusion_lon": 0.0, "bike_id": "53166ee32a96e98f75ecab5ac57482e2", "lon": -76.98614166666667, "rental_uris": {"ios": "https://dc.lft.to/lastmile_qr_scan", "android": "https://dc.lft.to/lastmile_qr_scan"}}, {"name": "0d1c3b3ee0cb79d7343637f70c4b62a4", "fusion_lat": 0.0, "type": "electric_scooter", "lat": 38.93865133333333, "is_reserved": 0, "is_disabled": 0, "fusion_lon": 0.0, "bike_id": "0d1c3b3ee0cb79d7343637f70c4b62a4", "lon": -77.02218783333333, "rental_uris": {"ios": "https://dc.lft.to/lastmile_qr_scan", "android": "https://dc.lft.to/lastmile_qr_scan"}}, {"name": "a9859eb00081993f5679112bb5f5b2cf", "fusion_lat": 0.0, "type": "electric_scooter", "lat": 38.909564, "is_reserved": 0, "is_disabled": 0, "fusion_lon": 0.0, "bike_id": "a9859eb00081993f5679112bb5f5b2cf", "lon": -77.02380716666667, "rental_uris": {"ios": "https://dc.lft.to/lastmile_qr_scan", "android": "https://dc.lft.to/lastmile_qr_scan"}}, {"name": "952d8c06bbcc236685ff0f149ee8c94e", "fusion_lat": 0.0, "type": "electric_scooter", "lat": 38.9369335, "is_reserved": 0, "is_disabled": 0, "fusion_lon": 0.0, "bike_id": "952d8c06bbcc236685ff0f149ee8c94e", "lon": -77.05597033333333, "rental_uris": {"ios": "https://dc.lft.to/lastmile_qr_scan", "android": "https://dc.lft.to/lastmile_qr_scan"}}, {"name": "1818f87b00ac29ef7cf3c627c671ca75", "fusion_lat": 0.0, "type": "electric_scooter", "lat": 38.933278666666666, "is_reserved": 0, "is_disabled": 0, "fusion_lon": 0.0, "bike_id": "1818f87b00ac29ef7cf3c627c671ca75", "lon": -77.02749116666666, "rental_uris": {"ios": "https://dc.lft.to/lastmile_qr_scan", "android": "https://dc.lft.to/lastmile_qr_scan"}}, {"name": "a74f80b6bde34bd4ef934064a01009fe", "fusion_lat": 0.0, "type": "electric_scooter", "lat": 38.8839265, "is_reserved": 0, "is_disabled": 0, "fusion_lon": 0.0, "bike_id": "a74f80b6bde34bd4ef934064a01009fe", "lon": -77.01940466666667, "rental_uris": {"ios": "https://dc.lft.to/lastmile_qr_scan", "android": "https://dc.lft.to/lastmile_qr_scan"}}, {"name": "f1556e1593fc29ffe7bab176b3b17e28", "fusion_lat": 0.0, "type": "electric_scooter", "lat": 38.8958035, "is_reserved": 0, "is_disabled": 0, "fusion_lon": 0.0, "bike_id": "f1556e1593fc29ffe7bab176b3b17e28", "lon": -76.98279766666667, "rental_uris": {"ios": "https://dc.lft.to/lastmile_qr_scan", "android": "https://dc.lft.to/lastmile_qr_scan"}}, {"name": "4b8e5d669ec696954a00ffe0f3237bdc", "fusion_lat": 0.0, "type": "electric_scooter", "lat": 38.93085166666667, "is_reserved": 0, "is_disabled": 0, "fusion_lon": 0.0, "bike_id": "4b8e5d669ec696954a00ffe0f3237bdc", "lon": -77.02397466666666, "rental_uris": {"ios": "https://dc.lft.to/lastmile_qr_scan", "android": "https://dc.lft.to/lastmile_qr_scan"}}, {"name": "81a29edf482630dcb5778c591410e569", "fusion_lat": 0.0, "type": "electric_scooter", "lat": 38.918191, "is_reserved": 0, "is_disabled": 0, "fusion_lon": 0.0, "bike_id": "81a29edf482630dcb5778c591410e569", "lon": -77.04000516666666, "rental_uris": {"ios": "https://dc.lft.to/lastmile_qr_scan", "android": "https://dc.lft.to/lastmile_qr_scan"}}, {"name": "f90f6a80be68a02ddbf6861ad91bad6c", "fusion_lat": 0.0, "type": "electric_scooter", "lat": 38.896068666666665, "is_reserved": 0, "is_disabled": 0, "fusion_lon": 0.0, "bike_id": "f90f6a80be68a02ddbf6861ad91bad6c", "lon": -77.01768766666666, "rental_uris": {"ios": "https://dc.lft.to/lastmile_qr_scan", "android": "https://dc.lft.to/lastmile_qr_scan"}}, {"name": "c1882f1143b0967db8a847fedf211a2e", "fusion_lat": 0.0, "type": "electric_scooter", "lat": 38.861557833333336, "is_reserved": 0, "is_disabled": 0, "fusion_lon": 0.0, "bike_id": "c1882f1143b0967db8a847fedf211a2e", "lon": -76.98902633333333, "rental_uris": {"ios": "https://dc.lft.to/lastmile_qr_scan", "android": "https://dc.lft.to/lastmile_qr_scan"}}, {"name": "afddf1b1374ea20462819a91c0027632", "fusion_lat": 0.0, "type": "electric_scooter", "lat": 38.90384616666667, "is_reserved": 0, "is_disabled": 0, "fusion_lon": 0.0, "bike_id": "afddf1b1374ea20462819a91c0027632", "lon": -77.06396533333333, "rental_uris": {"ios": "https://dc.lft.to/lastmile_qr_scan", "android": "https://dc.lft.to/lastmile_qr_scan"}},