{"data": {"bikes": [{"rental_uris": {"android": "https://dc.lft.to/lastmile_qr_scan", "ios": "https://dc.lft.to/lastmile_qr_scan"}, "lon": -76.97539683333333, "name": "ca70fcc869eea11ae0331d3cffb63984", "lat": 38.90325333333333, "is_reserved": 0, "fusion_lat": 0.0, "bike_id": "ca70fcc869eea11ae0331d3cffb63984", "type": "electric_scooter", "is_disabled": 0, "fusion_lon": 0.0}, {"rental_uris": {"android": "https://dc.lft.to/lastmile_qr_scan", "ios": "https://dc.lft.to/lastmile_qr_scan"}, "lon": -77.03184966666667, "name": "d3e3eb6e275b2d61bd2ad26757720e42", "lat": 38.89858366666667, "is_reserved": 0, "fusion_lat": 0.0, "bike_id": "d3e3eb6e275b2d61bd2ad26757720e42", "type": "electric_scooter", "is_disabled": 0, "fusion_lon": 0.0}, {"rental_uris": {"android": "https://dc.lft.to/lastmile_qr_scan", "ios": "https://dc.lft.to/lastmile_qr_scan"}, "lon": -77.04351733333333, "name": "c58d2f7b6958a59ac4443e258be0fa49", "lat": 38.93128766666667, "is_reserved": 0, "fusion_lat": 0.0, "bike_id": "c58d2f7b6958a59ac4443e258be0fa49", "type": "electric_scooter", "is_disabled": 0, "fusion_lon": 0.0}, {"rental_uris": {"android": "https://dc.lft.to/lastmile_qr_scan", "ios": "https://dc.lft.to/lastmile_qr_scan"}, "lon": -77.02744516666667, "name": "1d48d7a56b809160e90535df9f008346", "lat": 38.927707833333336, "is_reserved": 0, "fusion_lat": 0.0, "bike_id": "1d48d7a56b809160e90535df9f008346", "type": "electric_scooter", "is_disabled": 0, "fusion_lon": 0.0}, {"rental_uris": {"android": "https://dc.lft.to/lastmile_qr_scan", "ios": "https://dc.lft.to/lastmile_qr_scan"}, "lon": -76.99033983333334, "name": "9388f808d0547537401bb72f5ba568d0", "lat": 38.93880633333333, "is_reserved": 0, "fusion_lat": 0.0, "bike_id": "9388f808d0547537401bb72f5ba568d0", "type": "electric_bike", "is_disabled": 0, "fusion_lon": 0.0}, {"rental_uris": {"android": "https://dc.lft.to/lastmile_qr_scan", "ios": "https://dc.lft.to/lastmile_qr_scan"}, "lon": -77.03955716666667, "name": "866a034c5bbde9534132ed155bf47514", "lat": 38.9027055, "is_reserved": 0, "fusion_lat": 0.0, "bike_id": "866a034c5bbde9534132ed155bf47514", "type": "electric_scooter", "is_disabled": 0, "fusion_lon": 0.0}, {"rental_uris": {"android": "https://dc.lft.to/lastmile_qr_scan", "ios": "https://dc.lft.to/lastmile_qr_scan"}, "lon": -77.02936183333334, "name": "caebf4f3d5c949b97eb1d3aa9dc0ce52", "lat": 38.9169265, "is_reserved": 0, "fusion_lat": 0.0, "bike_id": "caebf4f3d5c949b97eb1d3aa9dc0ce52", "type": "electric_scooter", "is_disabled": 0, "fusion_lon": 0.0}, {"rental_uris": {"android": "https://dc.lft.to/lastmile_qr_scan", "ios": "https://dc.lft.to/lastmile_qr_scan"}, "lon": -76.92892866666666, "name": "c692fe3d0ab5dc3a9f1895f73911477d", "lat": 38.883675333333336, "is_reserved": 0, "fusion_lat": 0.0, "bike_id": "c692fe3d0ab5dc3a9f1895f73911477d", "type": "electric_scooter", "is_disabled": 0, "fusion_lon": 0.0}, {"rental_uris": {"android": "https://dc.lft.to/lastmile_qr_scan", "ios": "https://dc.lft.to/lastmile_qr_scan"}, "lon": -77.00109916666666, "name": "d58b7979eb665927458fa7014a013add", "lat": 38.9000735, "is_reserved": 0, "fusion_lat": 0.0, "bike_id": "d58b7979eb665927458fa7014a013add", "type": "electric_scooter", "is_disabled": 0, "fusion_lon": 0.0}, {"rental_uris": {"android": "https://dc.lft.to/lastmile_qr_scan", "ios": "https://dc.lft.to/lastmile_qr_scan"}, "lon": -77.13309566666666, "name": "63bc57ffc254eedd2d1c97f59fae1f17", "lat": 38.887141, "is_reserved": 0, "fusion_lat": 0.0, "bike_id": "63bc57ffc254eedd2d1c97f59fae1f17", "type": "electric_bike", "is_disabled": 0, "fusion_lon": 0.0}, {"rental_uris": {"android": "https://dc.lft.to/lastmile_qr_scan", "ios": "https://dc.lft.to/lastmile_qr_scan"}, "lon": -76.982438, "name": "d309a607b43d06cdabb721bc03f170c5", "lat": 38.899798833333335, "is_reserved": 0, "fusion_lat": 0.0, "bike_id": "d309a607b43d06cdabb721bc03f170c5", "type": "electric_scooter", "is_disabled": 0, "fusion_lon": 0.0}, {"rental_uris": {"android": "https://dc.lft.to/lastmile_qr_scan", "ios": "https://dc.lft.to/lastmile_qr_scan"}, "lon": -77.06813916666667, "name": "92b40f90c30bd0cd3e8e20e4059fb034", "lat": 38.917883833333335, "is_reserved": 0, "fusion_lat": 0.0, "bike_id": "92b40f90c30bd0cd3e8e20e4059fb034", "type": "electric_scooter", "is_disabled": 0, "fusion_lon": 0.0}, {"rental_uris": {"android": "https://dc.lft.to/lastmile_qr_scan", "ios": "https://dc.lft.to/lastmile_qr_scan"}, "lon": -77.0248435, "name": "dc4065d6586ddd01b7736305586f248d", "lat": 38.9388025, "is_reserved": 0, "fusion_lat": 0.0, "bike_id": "dc4065d6586ddd01b7736305586f248d", "type": "electric_scooter", "is_disabled": 0, "fusion_lon": 0.0}, {"rental_uris": {"android": "https://dc.lft.to/lastmile_qr_scan", "ios": "https://dc.lft.to/lastmile_qr_scan"}, "lon": -77.02488483333333, "name": "4be39f7ca9b111c841c12723ea791067", "lat": 38.941841333333336, "is_reserved": 0, "fusion_lat": 0.0, "bike_id": "4be39f7ca9b111c841c12723ea791067", "type": "electric_scooter", "is_disabled": 0, "fusion_lon": 0.0}, {"rental_uris": {"android": "https://dc.lft.to/lastmile_qr_scan", "ios": "https://dc.lft.to/lastmile_qr_scan"}, "lon": -77.02282033333333, "name": "c597e892723d281cbf2616e5044c02ac", "lat": 38.91652, "is_reserved": 0, "fusion_lat": 0.0, "bike_id": "c597e892723d281cbf2616e5044c02ac", "type": "electric_scooter", "is_disabled": 0, "fusion_lon": 0.0}, {"rental_uris": {"android": "https://dc.lft.to/lastmile_qr_scan", "ios": "https://dc.lft.to/lastmile_qr_scan"}, "lon": -77.032604, "name": "eb48dd363683d4f5c18556873a640162", "lat": 38.935663166666664, "is_reserved": 0, "fusion_lat": 0.0, "bike_id": "eb48dd363683d4f5c18556873a640162", "type": "electric_scooter", "is_disabled": 0, "fusion_lon": 0.0}, {"rental_uris": {"android": "https://dc.lft.to/lastmile_qr_scan", "ios": "https://dc.lft.to/lastmile_qr_scan"}, "lon": -77.04043133333333, "name": "cab0b4bf3bab2c3329b9c27133abd127", "lat": 38.92456683333333, "is_reserved": 0, "fusion_lat": 0.0, "bike_id": "cab0b4bf3bab2c3329b9c27133abd127", "type": "electric_scooter", "is_disabled": 0, "fusion_lon": 0.0}, {"rental_uris": {"android": "https://dc.lft.to/lastmile_qr_scan", "ios": "https://dc.lft.to/lastmile_qr_scan"}, "lon": -77.00990116666667, "name": "2cdac6476864e0099c503c765e9739c8", "lat": 38.872936333333335, "is_reserved": 0, "fusion_lat": 0.0, "bike_id": "2cdac6476864e0099c503c765e9739c8", "type": "electric_scooter", "is_disabled": 0, "fusion_lon": 0.0}, {"rental_uris": {"android": "https://dc.lft.to/lastmile_qr_scan", "ios": "https://dc.lft.to/lastmile_qr_scan"}, "lon": -77.01421116666667, "name": "c7e3117198ca8b643902ecdf0fef0d06", "lat": 38.928148166666666, "is_reserved": 0, "fusion_lat": 0.0, "bike_id": "c7e3117198ca8b643902ecdf0fef0d06", "type": "electric_scooter", "is_disabled": 0, "fusion_lon": 0.0}, {"rental_uris": {"android": "https://dc.lft.to/lastmile_qr_scan", "ios": "https://dc.lft.to/lastmile_qr_scan"}, "lon": -77.0640585, "name": "95ed24022cbf29af3b8531d476c50d2b", "lat": 38.843452666666664, "is_reserved": 0, "fusion_lat": 0.0, "bike_id": "95ed24022cbf29af3b8531d476c50d2b", "type": "electric_bike", "is_disabled": 0, "fusion_lon": 0.0}, {"rental_uris": {"android": "https://dc.lft.to/lastmile_qr_scan", "ios": "https://dc.lft.to/lastmile_qr_scan"}, "lon": -77.04080283333333, "name": "ffce4dd880636ad0164ec0ae980821a5", "lat": 38.89643366666667, "is_reserved": 0, "fusion_lat": 0.0, "bike_id": "ffce4dd880636ad0164ec0ae980821a5", "type": "electric_scooter", "is_disabled": 0, "fusion_lon": 0.0}, {"rental_uris": {"android": "https://dc.lft.to/lastmile_qr_scan", "ios": "https://dc.lft.to/lastmile_qr_scan"}, "lon": -76.98546483333334, "name": "ea1f608cefdf5a8b5274828f5c22d9d7", "lat": 38.899781833333336, "is_reserved": 0, "fusion_lat": 0.0, "bike_id": "ea1f608cefdf5a8b5274828f5c22d9d7", "type": "electric_scooter", "is_disabled": 0, "fusion_lon": 0.0}, {"rental_uris": {"android": "https://dc.lft.to/lastmile_qr_scan", "ios": "https://dc.lft.to/lastmile_qr_scan"}, "lon": -77.04273216666667, "name": "6a23b9a0bd17151fe0ea2d01db6b1251", "lat": 38.90730333333333, "is_reserved": 0, "fusion_lat": 0.0, "bike_id": "6a23b9a0bd17151fe0ea2d01db6b1251", "type": "electric_scooter", "is_disabled": 0, "fusion_lon": 0.0}, {"rental_uris": {"android": "https://dc.lft.to/lastmile_qr_scan", "ios": "https://dc.lft.to/lastmile_qr_scan"}, "lon": -77.02096566666667, "name": "6d6bf31d12facd63e57fded398ad418a", "lat": 38.93007266666667, "is_reserved": 0, "fusion_lat": 0.0, "bike_id": "6d6bf31d12facd63e57fded398ad418a", "type": "electric_scooter", "is_disabled": 0, "fusion_lon": 0.0}, {"rental_uris": {"android": "https://dc.lft.to/lastmile_qr_scan", "ios": "https://dc.lft.to/lastmile_qr_scan"}, "lon": -77.025135, "name": "eb09900d64e4f83007b2561b215b4f0c", "lat": 38.918078333333334, "is_reserved": 0, "fusion_lat": 0.0, "bike_id": "eb09900d64e4f83007b2561b215b4f0c", "type": "electric_scooter", "is_disabled": 0, "fusion_lon": 0.0}, {"rental_uris": {"android": "https://dc.lft.to/lastmile_qr_scan", "ios": "https://dc.lft.to/lastmile_qr_scan"}, "lon": -77.0401325, "name": "61191e3070bd2ad78f670286bad88104", "lat": 38.92197483333333, "is_reserved": 0, "fusion_lat": 0.0, "bike_id": "61191e3070bd2ad78f670286bad88104", "type": "electric_scooter", "is_disabled": 0, "fusion_lon": 0.0}, {"rental_uris": {"android": "https://dc.lft.to/lastmile_qr_scan", "ios": "https://dc.lft.to/lastmile_qr_scan"}, "lon": -77.03837916666667, "name": "68e639e14052b9d40c43623de9059076", "lat": 38.90975316666667, "is_reserved": 0, "fusion_lat": 0.0, "bike_id": "68e639e14052b9d40c43623de9059076", "type": "electric_scooter", "is_disabled": 0, "fusion_lon": 0.0}, {"rental_uris": {"android": "https://dc.lft.to/lastmile_qr_scan", "ios": "https://dc.lft.to/lastmile_qr_scan"}, "lon": -77.0472635, "name": "3a29c77d0b12f5bc8165c7aa86ca09ab", "lat": 38.90190966666667, "is_reserved": 0, "fusion_lat": 0.0, "bike_id": "3a29c77d0b12f5bc8165c7aa86ca09ab", "type": "electric_scooter", "is_disabled": 0, "fusion_lon": 0.0}, {"rental_uris": {"android": "https://dc.lft.to/lastmile_qr_scan", "ios": "https://dc.lft.to/lastmile_qr_scan"}, "lon": -77.03283, "name": "667c9fc988f4ed8b6503bda2149e08a2", "lat": 38.937565, "is_reserved": 0, "fusion_lat": 0.0, "bike_id": "667c9fc988f4ed8b6503bda2149e08a2", "type": "electric_scooter", "is_disabled": 0, "fusion_lon": 0.0}, {"rental_uris": {"android": "https://dc.lft.to/lastmile_qr_scan", "ios": "https://dc.lft.to/lastmile_qr_scan"}, "lon": -77.021677, "name": "d218c29a12ad4ab780732b2a72b52807", "lat": 38.925066666666666, "is_reserved": 0, "fusion_lat": 0.0, "bike_id": "d218c29a12ad4ab780732b2a72b52807", "type": "electric_scooter", "is_disabled": 0, "fusion_lon": 0.0}, {"rental_uris": {"android": "https://dc.lft.to/lastmile_qr_scan", "ios": "https://dc.lft.to/lastmile_qr_scan"}, "lon": -76.932107, "name": "93562931205ccfe7dc0f7f2dd5d288c5", "lat": 38.89669216666667, "is_reserved": 0, "fusion_lat": 0.0, "bike_id": "93562931205ccfe7dc0f7f2dd5d288c5", "type": "electric_scooter", "is_disabled": 0, "fusion_lon": 0.0}, {"rental_uris": {"android": "https://dc.lft.to/lastmile_qr_scan", "ios": "https://dc.lft.to/lastmile_qr_scan"}, "lon": -76.99633183333333, "name": "66790803ad9b948d3f30944fbe19de86", "lat": 38.900674, "is_reserved": 0, "fusion_lat": 0.0, "bike_id": "66790803ad9b948d3f30944fbe19de86", "type": "electric_scooter", "is_disabled": 0, "fusion_lon": 0.0}, {"rental_uris": {"android": "https://dc.lft.to/lastmile_qr_scan", "ios": "https://dc.lft.to/lastmile_qr_scan"}, "lon": -77.12738583333334, "name": "449358f785001d9588dc7488ea92d628", "lat": 38.89566583333333, "is_reserved": 0, "fusion_lat": 0.0, "bike_id": "449358f785001d9588dc7488ea92d628", "type": "electric_bike", "is_disabled": 0, "fusion_lon": 0.0}, {"rental_uris": {"android": "https://dc.lft.to/lastmile_qr_scan", "ios": "https://dc.lft.to/lastmile_qr_scan"}, "lon": -77.0294975, "name": "fce8489307657f66c97f4edc388bd193", "lat": 38.90502683333333, "is_reserved": 0, "fusion_lat": 0.0, "bike_id": "fce8489307657f66c97f4edc388bd193", "type": "electric_scooter", "is_disabled": 0, "fusion_lon": 0.0}, {"rental_uris": {"android": "https://dc.lft.to/lastmile_qr_scan", "ios": "https://dc.lft.to/lastmile_qr_scan"}, "lon": -77.00023333333333, "name": "7912d9a800f1993802011ae030b16ff0", "lat": 38.905706, "is_reserved": 0, "fusion_lat": 0.0, "bike_id": "7912d9a800f1993802011ae030b16ff0", "type": "electric_scooter", "is_disabled": 0, "fusion_lon": 0.0}, {"rental_uris": {"android": "https://dc.lft.to/lastmile_qr_scan", "ios": "https://dc.lft.to/lastmile_qr_scan"}, "lon": -77.03359166666667, "name": "b2c07c1db2cb47ffc2a84134f389944b", "lat": 38.91268683333333, "is_reserved": 0, "fusion_lat": 0.0, "bike_id": "b2c07c1db2cb47ffc2a84134f389944b", "type": "electric_scooter", "is_disabled": 0, "fusion_lon": 0.0}, {"rental_uris": {"android": "https://dc.lft.to/lastmile_qr_scan", "ios": "https://dc.lft.to/lastmile_qr_scan"}, "lon": -76.973364, "name": "a09c12aa891a826f82e054f6e710d46b", "lat": 38.90411733333333, "is_reserved": 0, "fusion_lat": 0.0, "bike_id": "a09c12aa891a826f82e054f6e710d46b", "type": "electric_scooter", "is_disabled": 0, "fusion_lon": 0.0}, {"rental_uris": {"android": "https://dc.lft.to/lastmile_qr_scan", "ios": "https://dc.lft.to/lastmile_qr_scan"}, "lon": -77.06116283333333, "name": "f2446e9156d85d82fa71dfde41cc56ab", "lat": 38.90483366666667, "is_reserved": 0, "fusion_lat": 0.0, "bike_id": "f2446e9156d85d82fa71dfde41cc56ab", "type": "electric_scooter", "is_disabled": 0, "fusion_lon": 0.0}, {"rental_uris": {"android": "https://dc.lft.to/lastmile_qr_scan", "ios": "https://dc.lft.to/lastmile_qr_scan"}, "lon": -77.0386075, "name": "a79db21c6b74194028f280612d448cd9", "lat": 38.907849166666665, "is_reserved": 0, "fusion_lat": 0.0, "bike_id": "a79db21c6b74194028f280612d448cd9", "type": "electric_scooter", "is_disabled": 0, "fusion_lon": 0.0}, {"rental_uris": {"android": "https://dc.lft.to/lastmile_qr_scan", "ios": "https://dc.lft.to/lastmile_qr_scan"}, "lon": -77.05919, "name": "93b94939b5fd3487f84a6c126f5c58bf", "lat": 38.90449183333333, "is_reserved": 0, "fusion_lat": 0.0, "bike_id": "93b94939b5fd3487f84a6c126f5c58bf", "type": "electric_scooter", "is_disabled": 0, "fusion_lon": 0.0}, {"rental_uris": {"android": "https://dc.lft.to/lastmile_qr_scan", "ios": "https://dc.lft.to/lastmile_qr_scan"}, "lon": -76.9737065, "name": "573586e4ab4bd1fa0c89b9827c26247a", "lat": 38.857428, "is_reserved": 0, "fusion_lat": 0.0, "bike_id": "573586e4ab4bd1fa0c89b9827c26247a", "type": "electric_scooter", "is_disabled": 0, "fusion_lon": 0.0}, {"rental_uris": {"android": "https://dc.lft.to/lastmile_qr_scan", "ios": "https://dc.lft.to/lastmile_qr_scan"}, "lon": -77.05424616666667, "name": "95dd14b02fcfc0f554baa0db7504d303", "lat": 38.92841766666667, "is_reserved": 0, "fusion_lat": 0.0, "bike_id": "95dd14b02fcfc0f554baa0db7504d303", "type": "electric_scooter", "is_disabled": 0, "fusion_lon": 0.0}, {"rental_uris": {"android": "https://dc.lft.to/lastmile_qr_scan", "ios": "https://dc.lft.to/lastmile_qr_scan"}, "lon": -76.994953, "name": "a706a54d5b0518a4cbc1f82c0b118ee5", "lat": 38.9011015, "is_reserved": 0, "fusion_lat": 0.0, "bike_id": "a706a54d5b0518a4cbc1f82c0b118ee5", "type": "electric_scooter", "is_disabled": 0, "fusion_lon": 0.0}, {"rental_uris": {"android": "https://dc.lft.to/lastmile_qr_scan", "ios": "https://dc.lft.to/lastmile_qr_scan"}, "lon": -77.0343125, "name": "b7ce0236d8dae2cf4c1e9e40684a951e", "lat": 38.933257, "is_reserved": 0, "fusion_lat": 0.0, "bike_id": "b7ce0236d8dae2cf4c1e9e40684a951e", "type": "electric_scooter", "is_disabled": 0, "fusion_lon": 0.0}, {"rental_uris": {"android": "https://dc.lft.to/lastmile_qr_scan", "ios": "https://dc.lft.to/lastmile_qr_scan"}, "lon": -77.04322366666666, "name": "f503c5cb761e45a6ae70ec92b8a7536a", "lat": 38.905574, "is_reserved": 0, "fusion_lat": 0.0, "bike_id": "f503c5cb761e45a6ae70ec92b8a7536a", "type": "electric_scooter", "is_disabled": 0, "fusion_lon": 0.0}, {"rental_uris": {"android": "https://dc.lft.to/lastmile_qr_scan", "ios": "https://dc.lft.to/lastmile_qr_scan"}, "lon": -77.04849166666666, "name": "006bb24ae74ebf5ebec95d1262483bc9", "lat": 38.91619716666666, "is_reserved": 0, "fusion_lat": 0.0, "bike_id": "006bb24ae74ebf5ebec95d1262483bc9", "type": "electric_scooter", "is_disabled": 0, "fusion_lon": 0.0}, {"rental_uris": {"android": "https://dc.lft.to/lastmile_qr_scan", "ios": "https://dc.lft.to/lastmile_qr_scan"}, "lon": -76.95419883333334, "name": "59829fd4869a7fdfc5312f01360f16c0", "lat": 38.88992833333333, "is_reserved": 0, "fusion_lat": 0.0, "bike_id": "59829fd4869a7fdfc5312f01360f16c0", "type": "electric_scooter", "is_disabled": 0, "fusion_lon": 0.0}, {"rental_uris": {"android": "https://dc.lft.to/lastmile_qr_scan", "ios": "https://dc.lft.to/lastmile_qr_scan"}, "lon": -77.042319, "name": "b159293ce0f00fad955c5e101dbd6b06", "lat": 38.9110925, "is_reserved": 0, "fusion_lat": 0.0, "bike_id": "b159293ce0f00fad955c5e101dbd6b06", "type": "electric_scooter", "is_disabled": 0, "fusion_lon": 0.0}, {"rental_uris": {"android": "https://dc.lft.to/lastmile_qr_scan", "ios": "https://dc.lft.to/lastmile_qr_scan"}, "lon": -77.04676016666667, "name": "0693826c6eab11672a9eb5bae8413c3a", "lat": 38.8956225, "is_reserved": 0, "fusion_lat": 0.0, "bike_id": "0693826c6eab11672a9eb5bae8413c3a", "type": "electric_scooter", "is_disabled": 0, "fusion_lon": 0.0}, {"rental_uris": {"android": "https://dc.lft.to/lastmile_qr_scan", "ios": "https://dc.lft.to/lastmile_qr_scan"}, "lon": -77.023499, "name": "5c8820aa79a9652ac6ffdff2e97d11c8", "lat": 38.93533866666667, "is_reserved": 0, "fusion_lat": 0.0, "bike_id": "5c8820aa79a9652ac6ffdff2e97d11c8", "type": "electric_scooter", "is_disabled": 0, "fusion_lon": 0.0}, {"rental_uris": {"android": "https://dc.lft.to/lastmile_qr_scan", "ios": "https://dc.lft.to/lastmile_qr_scan"}, "lon": -77.0347615, "name": "e70a13ff9ca5ea4e71bf2a0e4b2e443a", "lat": 38.905578, "is_reserved": 0, "fusion_lat": 0.0, "bike_id": "e70a13ff9ca5ea4e71bf2a0e4b2e443a", "type": "electric_scooter", "is_disabled": 0, "fusion_lon": 0.0}, {"rental_uris": {"android": "https://dc.lft.to/lastmile_qr_scan", "ios": "https://dc.lft.to/lastmile_qr_scan"}, "lon": -77.02305483333333, "name": "b3bd06d9fa177f867f896f8f998cc3ef", "lat": 38.9265945, "is_reserved": 0, "fusion_lat": 0.0, "bike_id": "b3bd06d9fa177f867f896f8f998cc3ef", "type": "electric_scooter", "is_disabled": 0, "fusion_lon": 0.0}, {"rental_uris": {"android": "https://dc.lft.to/lastmile_qr_scan", "ios": "https://dc.lft.to/lastmile_qr_scan"}, "lon": -77.04185566666666, "name": "a99bfaccd9b1860a32838523c2914868", "lat": 38.906204333333335, "is_reserved": 0, "fusion_lat": 0.0, "bike_id": "a99bfaccd9b1860a32838523c2914868", "type": "electric_scooter", "is_disabled": 0, "fusion_lon": 0.0}, {"rental_uris": {"android": "https://dc.lft.to/lastmile_qr_scan", "ios": "https://dc.lft.to/lastmile_qr_scan"}, "lon": -77.03304233333333, "name": "56ef42548860415f5ad46c60de42d03b", "lat": 38.924565, "is_reserved": 0, "fusion_lat": 0.0, "bike_id": "56ef42548860415f5ad46c60de42d03b", "type": "electric_scooter", "is_disabled": 0, "fusion_lon": 0.0}, {"rental_uris": {"android": "https://dc.lft.to/lastmile_qr_scan", "ios": "https://dc.lft.to/lastmile_qr_scan"}, "lon": -76.98016233333334, "name": "17124d0e78da3391db68f99fe452936d", "lat": 38.90089533333333, "is_reserved": 0, "fusion_lat": 0.0, "bike_id": "17124d0e78da3391db68f99fe452936d", "type": "electric_scooter", "is_disabled": 0, "fusion_lon": 0.0}, {"rental_uris": {"android": "https://dc.lft.to/lastmile_qr_scan", "ios": "https://dc.lft.to/lastmile_qr_scan"}, "lon": -77.04227816666666, "name": "701c9daf7243096944a4e3fd139d8297", "lat": 38.91104416666667, "is_reserved": 0, "fusion_lat": 0.0, "bike_id": "701c9daf7243096944a4e3fd139d8297", "type": "electric_scooter", "is_disabled": 0, "fusion_lon": 0.0}, {"rental_uris": {"android": "https://dc.lft.to/lastmile_qr_scan", "ios": "https://dc.lft.to/lastmile_qr_scan"}, "lon": -77.04195783333333, "name": "a20eedc2370e3ac3a3d3c428134186ed", "lat": 38.89225716666667, "is_reserved": 0, "fusion_lat": 0.0, "bike_id": "a20eedc2370e3ac3a3d3c428134186ed", "type": "electric_scooter", "is_disabled": 0, "fusion_lon": 0.0}, {"rental_uris": {"android": "https://dc.lft.to/lastmile_qr_scan", "ios": "https://dc.lft.to/lastmile_qr_scan"}, "lon": -77.02361816666667, "name": "30f73be97a335aba7e03980671daafa6", "lat": 38.925193666666665, "is_reserved": 0, "fusion_lat": 0.0, "bike_id": "30f73be97a335aba7e03980671daafa6", "type": "electric_scooter", "is_disabled": 0, "fusion_lon": 0.0}, {"rental_uris": {"android": "https://dc.lft.to/lastmile_qr_scan", "ios": "https://dc.lft.to/lastmile_qr_scan"}, "lon": -77.0299085, "name": "fb30442a0b2983e9db4183361306e825", "lat": 38.9071395, "is_reserved": 0, "fusion_lat": 0.0, "bike_id": "fb30442a0b2983e9db4183361306e825", "type": "electric_scooter", "is_disabled": 0, "fusion_lon": 0.0}, {"rental_uris": {"android": "https://dc.lft.to/lastmile_qr_scan", "ios": "https://dc.lft.to/lastmile_qr_scan"}, "lon": -77.03058466666667, "name": "5f2b49494ffc94ddcce17cb3533e96f7", "lat": 38.90249933333333, "is_reserved": 0, "fusion_lat": 0.0, "bike_id": "5f2b49494ffc94ddcce17cb3533e96f7", "type": "electric_scooter", "is_disabled": 0, "fusion_lon": 0.0}, {"rental_uris": {"android": "https://dc.lft.to/lastmile_qr_scan", "ios": "https://dc.lft.to/lastmile_qr_scan"}, "lon": -77.02699416666667, "name": "736ffe43936897031a09f603465bb9fe", "lat": 38.89774083333333, "is_reserved": 0, "fusion_lat": 0.0, "bike_id": "736ffe43936897031a09f603465bb9fe", "type": "electric_scooter", "is_disabled": 0, "fusion_lon": 0.0}, {"rental_uris": {"android": "https://dc.lft.to/lastmile_qr_scan", "ios": "https://dc.lft.to/lastmile_qr_scan"}, "lon": -77.0379495, "name": "ca108dc83147b18659a29f980edb0ea4", "lat": 38.996795666666664, "is_reserved": 0, "fusion_lat": 0.0, "bike_id": "ca108dc83147b18659a29f980edb0ea4", "type": "electric_bike", "is_disabled": 0, "fusion_lon": 0.0}, {"rental_uris": {"android": "https://dc.lft.to/lastmile_qr_scan", "ios": "https://dc.lft.to/lastmile_qr_scan"}, "lon": -77.04351133333333, "name": "8be861b6cdb0655cb88898a5b98cd8b6", "lat": 38.90402483333333, "is_reserved": 0, "fusion_lat": 0.0, "bike_id": "8be861b6cdb0655cb88898a5b98cd8b6", "type": "electric_scooter", "is_disabled": 0, "fusion_lon": 0.0}, {"rental_uris": {"android": "https://dc.lft.to/lastmile_qr_scan", "ios": "https://dc.lft.to/lastmile_qr_scan"}, "lon": -77.04876066666667, "name": "64306d36342cd6cb8111f2dbc5875abf", "lat": 38.91234083333333, "is_reserved": 0, "fusion_lat": 0.0, "bike_id": "64306d36342cd6cb8111f2dbc5875abf", "type": "electric_scooter", "is_disabled": 0, "fusion_lon": 0.0}, {"rental_uris": {"android": "https://dc.lft.to/lastmile_qr_scan", "ios": "https://dc.lft.to/lastmile_qr_scan"}, "lon": -77.0106615, "name": "816515ebe9246637ca30e54ac114c494", "lat": 38.92029733333333, "is_reserved": 0, "fusion_lat": 0.0, "bike_id": "816515ebe9246637ca30e54ac114c494", "type": "electric_scooter", "is_disabled": 0, "fusion_lon": 0.0}, {"rental_uris": {"android": "https://dc.lft.to/lastmile_qr_scan", "ios": "https://dc.lft.to/lastmile_qr_scan"}, "lon": -76.96374616666667, "name": "e36b5381bbf037c3ed042d2eb863c0f3", "lat": 38.9489825, "is_reserved": 0, "fusion_lat": 0.0, "bike_id": "e36b5381bbf037c3ed042d2eb863c0f3", "type": "electric_bike", "is_disabled": 0, "fusion_lon": 0.0}, {"rental_uris": {"android": "https://dc.lft.to/lastmile_qr_scan", "ios": "https://dc.lft.to/lastmile_qr_scan"}, "lon": -76.93924716666666, "name": "b78c7103dc8cf03561aca4442ac0e38b", "lat": 38.89329933333333, "is_reserved": 0, "fusion_lat": 0.0, "bike_id": "b78c7103dc8cf03561aca4442ac0e38b", "type": "electric_scooter", "is_disabled": 0, "fusion_lon": 0.0}, {"rental_uris": {"android": "https://dc.lft.to/lastmile_qr_scan", "ios": "https://dc.lft.to/lastmile_qr_scan"}, "lon": -77.0454085, "name": "6cbd1fdb36859e034fda7394a51bddeb", "lat": 38.934598333333334, "is_reserved": 0, "fusion_lat": 0.0, "bike_id": "6cbd1fdb36859e034fda7394a51bddeb", "type": "electric_scooter", "is_disabled": 0, "fusion_lon": 0.0}, {"rental_uris": {"android": "https://dc.lft.to/lastmile_qr_scan", "ios": "https://dc.lft.to/lastmile_qr_scan"}, "lon": -77.01617583333334, "name": "810135f320a506398510562257d73f60", "lat": 38.89699316666667, "is_reserved": 0, "fusion_lat": 0.0, "bike_id": "810135f320a506398510562257d73f60", "type": "electric_scooter", "is_disabled": 0, "fusion_lon": 0.0}, {"rental_uris": {"android": "https://dc.lft.to/lastmile_qr_scan", "ios": "https://dc.lft.to/lastmile_qr_scan"}, "lon": -77.03173933333333, "name": "c8da624a34947788c01ac7122017c3e2", "lat": 38.9072805, "is_reserved": 0, "fusion_lat": 0.0, "bike_id": "c8da624a34947788c01ac7122017c3e2", "type": "electric_scooter", "is_disabled": 0, "fusion_lon": 0.0}, {"rental_uris": {"android": "https://dc.lft.to/lastmile_qr_scan", "ios": "https://dc.lft.to/lastmile_qr_scan"}, "lon": -77.01851116666667, "name": "8ac204873c21d22a1868dcb827ae201c", "lat": 38.915336333333336, "is_reserved": 0, "fusion_lat": 0.0, "bike_id": "8ac204873c21d22a1868dcb827ae201c", "type": "electric_scooter", "is_disabled": 0, "fusion_lon": 0.0}, {"rental_uris": {"android": "https://dc.lft.to/lastmile_qr_scan", "ios": "https://dc.lft.to/lastmile_qr_scan"}, "lon": -76.98093633333333, "name": "eb3333f5a1d6256805d690cd9f3dd1c4", "lat": 38.953577, "is_reserved": 0, "fusion_lat": 0.0, "bike_id": "eb3333f5a1d6256805d690cd9f3dd1c4", "type": "electric_bike", "is_disabled": 0, "fusion_lon": 0.0}, {"rental_uris": {"android": "https://dc.lft.to/lastmile_qr_scan", "ios": "https://dc.lft.to/lastmile_qr_scan"}, "lon": -77.0388445, "name": "dfe130c1ba72b5d8fde4fdeea1c11aaa", "lat": 38.918463, "is_reserved": 0, "fusion_lat": 0.0, "bike_id": "dfe130c1ba72b5d8fde4fdeea1c11aaa", "type": "electric_scooter", "is_disabled": 0, "fusion_lon": 0.0}, {"rental_uris": {"android": "https://dc.lft.to/lastmile_qr_scan", "ios": "https://dc.lft.to/lastmile_qr_scan"}, "lon": -77.03642, "name": "87221c903bb78b0eeff41f7748774cdb", "lat": 38.928151166666666, "is_reserved": 0, "fusion_lat": 0.0, "bike_id": "87221c903bb78b0eeff41f7748774cdb", "type": "electric_scooter", "is_disabled": 0, "fusion_lon": 0.0}, {"rental_uris": {"android": "https://dc.lft.to/lastmile_qr_scan", "ios": "https://dc.lft.to/lastmile_qr_scan"}, "lon": -77.00601916666666, "name": "d132f1b8cbf355eb034bcdf02564a43d", "lat": 38.90776966666667, "is_reserved": 0, "fusion_lat": 0.0, "bike_id": "d132f1b8cbf355eb034bcdf02564a43d", "type": "electric_scooter", "is_disabled": 0, "fusion_lon": 0.0}, {"rental_uris": {"android": "https://dc.lft.to/lastmile_qr_scan", "ios": "https://dc.lft.to/lastmile_qr_scan"}, "lon": -77.02556133333333, "name": "3fff10d747824812e4b765f81fb95034", "lat": 38.90362183333333, "is_reserved": 0, "fusion_lat": 0.0, "bike_id": "3fff10d747824812e4b765f81fb95034", "type": "electric_scooter", "is_disabled": 0, "fusion_lon": 0.0}, {"rental_uris": {"android": "https://dc.lft.to/lastmile_qr_scan", "ios": "https://dc.lft.to/lastmile_qr_scan"}, "lon": -77.03881333333334, "name": "c1777634859b5e04c5ed281c2b990438", "lat": 38.90125166666667, "is_reserved": 0, "fusion_lat": 0.0, "bike_id": "c1777634859b5e04c5ed281c2b990438", "type": "electric_scooter", "is_disabled": 0, "fusion_lon": 0.0}, {"rental_uris": {"android": "https://dc.lft.to/lastmile_qr_scan", "ios": "https://dc.lft.to/lastmile_qr_scan"}, "lon": -76.99581583333334, "name": "9297781f8fb98e3fb71a037a2eecbd8a", "lat": 38.85178916666667, "is_reserved": 0, "fusion_lat": 0.0, "bike_id": "9297781f8fb98e3fb71a037a2eecbd8a", "type": "electric_scooter", "is_disabled": 0, "fusion_lon": 0.0}, {"rental_uris": {"android": "https://dc.lft.to/lastmile_qr_scan", "ios": "https://dc.lft.to/lastmile_qr_scan"}, "lon": -77.04861933333333, "name": "db0a4463ce6631c0734f134fc3d783f1", "lat": 38.9046425, "is_reserved": 0, "fusion_lat": 0.0, "bike_id": "db0a4463ce6631c0734f134fc3d783f1", "type": "electric_scooter", "is_disabled": 0, "fusion_lon": 0.0}, {"rental_uris": {"android": "https://dc.lft.to/lastmile_qr_scan", "ios": "https://dc.lft.to/lastmile_qr_scan"}, "lon": -77.017648, "name": "ea6be6c82987470e20269709a0e886b2", "lat": 38.87902416666667, "is_reserved": 0, "fusion_lat": 0.0, "bike_id": "ea6be6c82987470e20269709a0e886b2", "type": "electric_scooter", "is_disabled": 0, "fusion_lon": 0.0}, {"rental_uris": {"android": "https://dc.lft.to/lastmile_qr_scan", "ios": "https://dc.lft.to/lastmile_qr_scan"}, "lon": -77.03613116666666, "name": "7b53b32ae418f758e2c55b5eb84c84b9", "lat": 38.93155633333333, "is_reserved": 0, "fusion_lat": 0.0, "bike_id": "7b53b32ae418f758e2c55b5eb84c84b9", "type": "electric_scooter", "is_disabled": 0, "fusion_lon": 0.0}, {"rental_uris": {"android": "https://dc.lft.to/lastmile_qr_scan", "ios": "https://dc.lft.to/lastmile_qr_scan"}, "lon": -77.016728, "name": "71d56ec23f90b11588bac39ea1ce35c4", "lat": 38.920439333333334, "is_reserved": 0, "fusion_lat": 0.0, "bike_id": "71d56ec23f90b11588bac39ea1ce35c4", "type": "electric_scooter", "is_disabled": 0, "fusion_lon": 0.0}, {"rental_uris": {"android": "https://dc.lft.to/lastmile_qr_scan", "ios": "https://dc.lft.to/lastmile_qr_scan"}, "lon": -77.02960466666667, "name": "62cd6305ecf0f3509f219e80be4e76ad", "lat": 38.90495033333333, "is_reserved": 0, "fusion_lat": 0.0, "bike_id": "62cd6305ecf0f3509f219e80be4e76ad", "type": "electric_scooter", "is_disabled": 0, "fusion_lon": 0.0}, {"rental_uris": {"android": "https://dc.lft.to/lastmile_qr_scan", "ios": "https://dc.lft.to/lastmile_qr_scan"}, "lon": -77.0191145, "name": "2cba5b6d5f43935c3878cc672e8cc5a6", "lat": 38.899700833333334, "is_reserved": 0, "fusion_lat": 0.0, "bike_id": "2cba5b6d5f43935c3878cc672e8cc5a6", "type": "electric_scooter", "is_disabled": 0, "fusion_lon": 0.0}, {"rental_uris": {"android": "https://dc.lft.to/lastmile_qr_scan", "ios": "https://dc.lft.to/lastmile_qr_scan"}, "lon": -77.001686, "name": "8c797354899a777bd2c6304dd48d8438", "lat": 38.907733666666665, "is_reserved": 0, "fusion_lat": 0.0, "bike_id": "8c797354899a777bd2c6304dd48d8438", "type": "electric_scooter", "is_disabled": 0, "fusion_lon": 0.0}, {"rental_uris": {"android": "https://dc.lft.to/lastmile_qr_scan", "ios": "https://dc.lft.to/lastmile_qr_scan"}, "lon": -76.987242, "name": "b8ebb454e1779b4f295a1fe2497a72df", "lat": 38.86626116666667, "is_reserved": 0, "fusion_lat": 0.0, "bike_id": "b8ebb454e1779b4f295a1fe2497a72df", "type": "electric_scooter", "is_disabled": 0, "fusion_lon": 0.0}, {"rental_uris": {"android": "https://dc.lft.to/lastmile_qr_scan", "ios": "https://dc.lft.to/lastmile_qr_scan"}, "lon": -77.01205966666667, "name": "a721cc684ebced2fbd49cdac6dc446a8", "lat": 38.87086383333333, "is_reserved": 0, "fusion_lat": 0.0, "bike_id": "a721cc684ebced2fbd49cdac6dc446a8", "type": "electric_bike", "is_disabled": 0, "fusion_lon": 0.0}, {"rental_uris": {"android": "https://dc.lft.to/lastmile_qr_scan", "ios": "https://dc.lft.to/lastmile_qr_scan"}, "lon": -77.03895733333333, "name": "6cd870d9d80c7d82e1811a645b39ae12", "lat": 38.922568166666665, "is_reserved": 0, "fusion_lat": 0.0, "bike_id": "6cd870d9d80c7d82e1811a645b39ae12", "type": "electric_scooter", "is_disabled": 0, "fusion_lon": 0.0}, {"rental_uris": {"android": "https://dc.lft.to/lastmile_qr_scan", "ios": "https://dc.lft.to/lastmile_qr_scan"}, "lon": -77.031661, "name": "f3e1924e83e1b75d0e59250b44fdacd7", "lat": 38.9089055, "is_reserved": 0, "fusion_lat": 0.0, "bike_id": "f3e1924e83e1b75d0e59250b44fdacd7", "type": "electric_scooter", "is_disabled": 0, "fusion_lon": 0.0}, {"rental_uris": {"android": "https://dc.lft.to/lastmile_qr_scan", "ios": "https://dc.lft.to/lastmile_qr_scan"}, "lon": -77.02332983333334, "name": "d7cd1580353806f09643b69b016b057b", "lat": 38.9141535, "is_reserved": 0, "fusion_lat": 0.0, "bike_id": "d7cd1580353806f09643b69b016b057b", "type": "electric_scooter", "is_disabled": 0, "fusion_lon": 0.0}, {"rental_uris": {"android": "https://dc.lft.to/lastmile_qr_scan", "ios": "https://dc.lft.to/lastmile_qr_scan"}, "lon": -77.00990283333333, "name": "b7a70009e800588ec300992ff3190aea", "lat": 38.897171166666666, "is_reserved": 0, "fusion_lat": 0.0, "bike_id": "b7a70009e800588ec300992ff3190aea", "type": "electric_scooter", "is_disabled": 0, "fusion_lon": 0.0}, {"rental_uris": {"android": "https://dc.lft.to/lastmile_qr_scan", "ios": "https://dc.lft.to/lastmile_qr_scan"}, "lon": -77.02342733333333, "name": "4459f4ef868a86696ae94ee3c5c676c1", "lat": 38.930156833333335, "is_reserved": 0, "fusion_lat": 0.0, "bike_id": "4459f4ef868a86696ae94ee3c5c676c1", "type": "electric_scooter", "is_disabled": 0, "fusion_lon": 0.0}, {"rental_uris": {"android": "https://dc.lft.to/lastmile_qr_scan", "ios": "https://dc.lft.to/lastmile_qr_scan"}, "lon": -77.03858016666666, "name": "561165849f3e85f1d1c067c17d41e54d", "lat": 38.90768216666667, "is_reserved": 0, "fusion_lat": 0.0, "bike_id": "561165849f3e85f1d1c067c17d41e54d", "type": "electric_scooter", "is_disabled": 0, "fusion_lon": 0.0}, {"rental_uris": {"android": "https://dc.lft.to/lastmile_qr_scan", "ios": "https://dc.lft.to/lastmile_qr_scan"}, "lon": -77.02153666666666, "name": "79f529d41c41a1fb6f6567ee529786fe", "lat": 38.87918916666667, "is_reserved": 0, "fusion_lat": 0.0, "bike_id": "79f529d41c41a1fb6f6567ee529786fe", "type": "electric_scooter", "is_disabled": 0, "fusion_lon": 0.0}, {"rental_uris": {"android": "https://dc.lft.to/lastmile_qr_scan", "ios": "https://dc.lft.to/lastmile_qr_scan"}, "lon": -77.03927366666667, "name": "03b90ec83453e9255ae8af2972412b70", "lat": 38.921742333333334, "is_reserved": 0, "fusion_lat": 0.0, "bike_id": "03b90ec83453e9255ae8af2972412b70", "type": "electric_scooter", "is_disabled": 0, "fusion_lon": 0.0}, {"rental_uris": {"android": "https://dc.lft.to/lastmile_qr_scan", "ios": "https://dc.lft.to/lastmile_qr_scan"}, "lon": -77.033774, "name": "102dccd7ca4ee41fba20e5f6e6ed54e4", "lat": 38.921611166666665, "is_reserved": 0, "fusion_lat": 0.0, "bike_id": "102dccd7ca4ee41fba20e5f6e6ed54e4", "type": "electric_scooter", "is_disabled": 0, "fusion_lon": 0.0}, {"rental_uris": {"android": "https://dc.lft.to/lastmile_qr_scan", "ios": "https://dc.lft.to/lastmile_qr_scan"}, "lon": -76.996294, "name": "cd1ab58fa7511fdcd6652baf5b32fb3e", "lat": 38.92782833333333, "is_reserved": 0, "fusion_lat": 0.0, "bike_id": "cd1ab58fa7511fdcd6652baf5b32fb3e", "type": "electric_scooter", "is_disabled": 0, "fusion_lon": 0.0}, {"rental_uris": {"android": "https://dc.lft.to/lastmile_qr_scan", "ios": "https://dc.lft.to/lastmile_qr_scan"}, "lon": -76.93615716666666, "name": "43678bd9b4ca6aad45e8167919136e9b", "lat": 38.970585666666665, "is_reserved": 0, "fusion_lat": 0.0, "bike_id": "43678bd9b4ca6aad45e8167919136e9b", "type": "electric_bike", "is_disabled": 0, "fusion_lon": 0.0}, {"rental_uris": {"android": "https://dc.lft.to/lastmile_qr_scan", "ios": "https://dc.lft.to/lastmile_qr_scan"}, "lon": -77.02161633333333, "name": "00ed09767306d2ff09ed9351b62b996e", "lat": 38.9261585, "is_reserved": 0, "fusion_lat": 0.0, "bike_id": "00ed09767306d2ff09ed9351b62b996e", "type": "electric_scooter", "is_disabled": 0, "fusion_lon": 0.0}, {"rental_uris": {"android": "https://dc.lft.to/lastmile_qr_scan", "ios": "https://dc.lft.to/lastmile_qr_scan"}, "lon": -77.03662033333333, "name": "fc9b67d8813659b4d38d7c1305d75498", "lat": 38.91003716666667, "is_reserved": 0, "fusion_lat": 0.0, "bike_id": "fc9b67d8813659b4d38d7c1305d75498", "type": "electric_scooter", "is_disabled": 0, "fusion_lon": 0.0}, {"rental_uris": {"android": "https://dc.lft.to/lastmile_qr_scan", "ios": "https://dc.lft.to/lastmile_qr_scan"}, "lon": -77.0039995, "name": "8891a679ba3eb59303b5ff0246500fc0", "lat": 38.90559566666667, "is_reserved": 0, "fusion_lat": 0.0, "bike_id": "8891a679ba3eb59303b5ff0246500fc0", "type": "electric_scooter", "is_disabled": 0, "fusion_lon": 0.0}, {"rental_uris": {"android": "https://dc.lft.to/lastmile_qr_scan", "ios": "https://dc.lft.to/lastmile_qr_scan"}, "lon": -77.02144766666666, "name": "54fa5d66c50224c85b99d725dd07a0db", "lat": 38.925167, "is_reserved": 0, "fusion_lat": 0.0, "bike_id": "54fa5d66c50224c85b99d725dd07a0db", "type": "electric_scooter", "is_disabled": 0, "fusion_lon": 0.0}, {"rental_uris": {"android": "https://dc.lft.to/lastmile_qr_scan", "ios": "https://dc.lft.to/lastmile_qr_scan"}, "lon": -77.02398483333333, "name": "c43170a33e3585d7ad40c9f406392fd1", "lat": 38.91976666666667, "is_reserved": 0, "fusion_lat": 0.0, "bike_id": "c43170a33e3585d7ad40c9f406392fd1", "type": "electric_scooter", "is_disabled": 0, "fusion_lon": 0.0}, {"rental_uris": {"android": "https://dc.lft.to/lastmile_qr_scan", "ios": "https://dc.lft.to/lastmile_qr_scan"}, "lon": -76.97056166666667, "name": "23e829eb10837cc47c26f37348757217", "lat": 38.984626166666665, "is_reserved": 0, "fusion_lat": 0.0, "bike_id": "23e829eb10837cc47c26f37348757217", "type": "electric_bike", "is_disabled": 0, "fusion_lon": 0.0}, {"rental_uris": {"android": "https://dc.lft.to/lastmile_qr_scan", "ios": "https://dc.lft.to/lastmile_qr_scan"}, "lon": -77.03235983333333, "name": "c33963bb861f8f1ef962cf266d26147d", "lat": 38.910439333333336, "is_reserved": 0, "fusion_lat": 0.0, "bike_id": "c33963bb861f8f1ef962cf266d26147d", "type": "electric_scooter", "is_disabled": 0, "fusion_lon": 0.0}, {"rental_uris": {"android": "https://dc.lft.to/lastmile_qr_scan", "ios": "https://dc.lft.to/lastmile_qr_scan"}, "lon": -77.01239233333334, "name": "ae887444fcf11af47f55ecb48b1480f0", "lat": 38.87212266666667, "is_reserved": 0, "fusion_lat": 0.0, "bike_id": "ae887444fcf11af47f55ecb48b1480f0", "type": "electric_scooter", "is_disabled": 0, "fusion_lon": 0.0}, {"rental_uris": {"android": "https://dc.lft.to/lastmile_qr_scan", "ios": "https://dc.lft.to/lastmile_qr_scan"}, "lon": -77.05600716666666, "name": "9e981ca21f39656088a00094f99748c5", "lat": 38.93703216666667, "is_reserved": 0, "fusion_lat": 0.0, "bike_id": "9e981ca21f39656088a00094f99748c5", "type": "electric_scooter", "is_disabled": 0, "fusion_lon": 0.0}, {"rental_uris": {"android": "https://dc.lft.to/lastmile_qr_scan", "ios": "https://dc.lft.to/lastmile_qr_scan"}, "lon": -77.04360383333334, "name": "bf34b94fa8fa221b253407d1d6d291b0", "lat": 38.90407483333333, "is_reserved": 0, "fusion_lat": 0.0, "bike_id": "bf34b94fa8fa221b253407d1d6d291b0", "type": "electric_scooter", "is_disabled": 0, "fusion_lon": 0.0}, {"rental_uris": {"android": "https://dc.lft.to/lastmile_qr_scan", "ios": "https://dc.lft.to/lastmile_qr_scan"}, "lon": -77.02413783333333, "name": "c161cadd5444406b509fc40cc0e76d91", "lat": 38.912118166666666, "is_reserved": 0, "fusion_lat": 0.0, "bike_id": "c161cadd5444406b509fc40cc0e76d91", "type": "electric_scooter", "is_disabled": 0, "fusion_lon": 0.0}, {"rental_uris": {"android": "https://dc.lft.to/lastmile_qr_scan", "ios": "https://dc.lft.to/lastmile_qr_scan"}, "lon": -76.91601233333333, "name": "d1d00a3caaded896f1eb9580fef796fe", "lat": 38.879794, "is_reserved": 0, "fusion_lat": 0.0, "bike_id": "d1d00a3caaded896f1eb9580fef796fe", "type": "electric_bike", "is_disabled": 0, "fusion_lon": 0.0}, {"rental_uris": {"android": "https://dc.lft.to/lastmile_qr_scan", "ios": "https://dc.lft.to/lastmile_qr_scan"}, "lon": -77.03895683333333, "name": "ff595742e138426462364d39efb5f35f", "lat": 38.922563, "is_reserved": 0, "fusion_lat": 0.0, "bike_id": "ff595742e138426462364d39efb5f35f", "type": "electric_scooter", "is_disabled": 0, "fusion_lon": 0.0}, {"rental_uris": {"android": "https://dc.lft.to/lastmile_qr_scan", "ios": "https://dc.lft.to/lastmile_qr_scan"}, "lon": -77.0468675, "name": "cfe7c7ae98959b7b5bd465b10cdbeafd", "lat": 38.9031635, "is_reserved": 0, "fusion_lat": 0.0, "bike_id": "cfe7c7ae98959b7b5bd465b10cdbeafd", "type": "electric_scooter", "is_disabled": 0, "fusion_lon": 0.0}, {"rental_uris": {"android": "https://dc.lft.to/lastmile_qr_scan", "ios": "https://dc.lft.to/lastmile_qr_scan"}, "lon": -77.01466566666667, "name": "207926a2a9b7a953feb677a781ff0949", "lat": 38.879411833333336, "is_reserved": 0, "fusion_lat": 0.0, "bike_id": "207926a2a9b7a953feb677a781ff0949", "type": "electric_scooter", "is_disabled": 0, "fusion_lon": 0.0}, {"rental_uris": {"android": "https://dc.lft.to/lastmile_qr_scan", "ios": "https://dc.lft.to/lastmile_qr_scan"}, "lon": -76.96262616666667, "name": "a3f4c652aafc0645bf24dedc0ff15aa4", "lat": 38.882465333333336, "is_reserved": 0, "fusion_lat": 0.0, "bike_id": "a3f4c652aafc0645bf24dedc0ff15aa4", "type": "electric_bike", "is_disabled": 0, "fusion_lon": 0.0}, {"rental_uris": {"android": "https://dc.lft.to/lastmile_qr_scan", "ios": "https://dc.lft.to/lastmile_qr_scan"}, "lon": -77.0093375, "name": "37afc96effecd7583f827d901df78fee", "lat": 38.87627533333333, "is_reserved": 0, "fusion_lat": 0.0, "bike_id": "37afc96effecd7583f827d901df78fee", "type": "electric_scooter", "is_disabled": 0, "fusion_lon": 0.0}, {"rental_uris": {"android": "https://dc.lft.to/lastmile_qr_scan", "ios": "https://dc.lft.to/lastmile_qr_scan"}, "lon": -77.02288366666667, "name": "b8fa96e5bf6c5dca98b2a2d166084097", "lat": 38.91710966666667, "is_reserved": 0, "fusion_lat": 0.0, "bike_id": "b8fa96e5bf6c5dca98b2a2d166084097", "type": "electric_scooter", "is_disabled": 0, "fusion_lon": 0.0}, {"rental_uris": {"android": "https://dc.lft.to/lastmile_qr_scan", "ios": "https://dc.lft.to/lastmile_qr_scan"}, "lon": -77.0228615, "name": "4d89af51937ae4eb8c07318a682b1f84", "lat": 38.895331166666665, "is_reserved": 0, "fusion_lat": 0.0, "bike_id": "4d89af51937ae4eb8c07318a682b1f84", "type": "electric_scooter", "is_disabled": 0, "fusion_lon": 0.0}, {"rental_uris": {"android": "https://dc.lft.to/lastmile_qr_scan", "ios": "https://dc.lft.to/lastmile_qr_scan"}, "lon": -77.04443833333333, "name": "9f2ac2f4f07041b15ef52111e03703e4", "lat": 38.912542, "is_reserved": 0, "fusion_lat": 0.0, "bike_id": "9f2ac2f4f07041b15ef52111e03703e4", "type": "electric_scooter", "is_disabled": 0, "fusion_lon": 0.0}, {"rental_uris": {"android": "https://dc.lft.to/lastmile_qr_scan", "ios": "https://dc.lft.to/lastmile_qr_scan"}, "lon": -77.0228925, "name": "1d862c99a6940233cf47514aff6e1ffe", "lat": 38.91653483333333, "is_reserved": 0, "fusion_lat": 0.0, "bike_id": "1d862c99a6940233cf47514aff6e1ffe", "type": "electric_scooter", "is_disabled": 0, "fusion_lon": 0.0}, {"rental_uris": {"android": "https://dc.lft.to/lastmile_qr_scan", "ios": "https://dc.lft.to/lastmile_qr_scan"}, "lon": -77.0252695, "name": "bc17166fe7770bcc24d9b58320f9eb9b", "lat": 38.920624, "is_reserved": 0, "fusion_lat": 0.0, "bike_id": "bc17166fe7770bcc24d9b58320f9eb9b", "type": "electric_scooter", "is_disabled": 0, "fusion_lon": 0.0}, {"rental_uris": {"android": "https://dc.lft.to/lastmile_qr_scan", "ios": "https://dc.lft.to/lastmile_qr_scan"}, "lon": -77.03852816666667, "name": "9face8c0d94604702ee1a9052f0d2a51", "lat": 38.90773683333333, "is_reserved": 0, "fusion_lat": 0.0, "bike_id": "9face8c0d94604702ee1a9052f0d2a51", "type": "electric_scooter", "is_disabled": 0, "fusion_lon": 0.0}, {"rental_uris": {"android": "https://dc.lft.to/lastmile_qr_scan", "ios": "https://dc.lft.to/lastmile_qr_scan"}, "lon": -77.01873783333333, "name": "09418af981547f3905628bfbfdf47f9a", "lat": 38.89906383333334, "is_reserved": 0, "fusion_lat": 0.0, "bike_id": "09418af981547f3905628bfbfdf47f9a", "type": "electric_scooter", "is_disabled": 0, "fusion_lon": 0.0}, {"rental_uris": {"android": "https://dc.lft.to/lastmile_qr_scan", "ios": "https://dc.lft.to/lastmile_qr_scan"}, "lon": -76.97631483333333, "name": "31ee8483f0b10acb7a2f806001b0ae2b", "lat": 38.901552, "is_reserved": 0, "fusion_lat": 0.0, "bike_id": "31ee8483f0b10acb7a2f806001b0ae2b", "type": "electric_scooter", "is_disabled": 0, "fusion_lon": 0.0}, {"rental_uris": {"android": "https://dc.lft.to/lastmile_qr_scan", "ios": "https://dc.lft.to/lastmile_qr_scan"}, "lon": -77.02280383333333, "name": "3817aa69d02291eca901cf0210b2ad77", "lat": 38.9165315, "is_reserved": 0, "fusion_lat": 0.0, "bike_id": "3817aa69d02291eca901cf0210b2ad77", "type": "electric_scooter", "is_disabled": 0, "fusion_lon": 0.0}, {"rental_uris": {"android": "https://dc.lft.to/lastmile_qr_scan", "ios": "https://dc.lft.to/lastmile_qr_scan"}, "lon": -77.00329416666666, "name": "5023c14bc90eaaef18a8f3dde68bc505", "lat": 38.8772535, "is_reserved": 0, "fusion_lat": 0.0, "bike_id": "5023c14bc90eaaef18a8f3dde68bc505", "type": "electric_scooter", "is_disabled": 0, "fusion_lon": 0.0}, {"rental_uris": {"android": "https://dc.lft.to/lastmile_qr_scan", "ios": "https://dc.lft.to/lastmile_qr_scan"}, "lon": -77.0122175, "name": "f70c483f8e705bd95359c8f718a47076", "lat": 38.913485, "is_reserved": 0, "fusion_lat": 0.0, "bike_id": "f70c483f8e705bd95359c8f718a47076", "type": "electric_scooter", "is_disabled": 0, "fusion_lon": 0.0}, {"rental_uris": {"android": "https://dc.lft.to/lastmile_qr_scan", "ios": "https://dc.lft.to/lastmile_qr_scan"}, "lon": -77.05114183333333, "name": "0385428e87c852853d40f95c69394e30", "lat": 38.8133525, "is_reserved": 0, "fusion_lat": 0.0, "bike_id": "0385428e87c852853d40f95c69394e30", "type": "electric_bike", "is_disabled": 0, "fusion_lon": 0.0}, {"rental_uris": {"android": "https://dc.lft.to/lastmile_qr_scan", "ios": "https://dc.lft.to/lastmile_qr_scan"}, "lon": -77.04472716666666, "name": "9d21c76c69e6533409478bec65638633", "lat": 38.918839, "is_reserved": 0, "fusion_lat": 0.0, "bike_id": "9d21c76c69e6533409478bec65638633", "type": "electric_scooter", "is_disabled": 0, "fusion_lon": 0.0}, {"rental_uris": {"android": "https://dc.lft.to/lastmile_qr_scan", "ios": "https://dc.lft.to/lastmile_qr_scan"}, "lon": -76.98983033333333, "name": "3f348bb75ea295c5dee7659272489ad2", "lat": 38.88221933333333, "is_reserved": 0, "fusion_lat": 0.0, "bike_id": "3f348bb75ea295c5dee7659272489ad2", "type": "electric_scooter", "is_disabled": 0, "fusion_lon": 0.0}, {"rental_uris": {"android": "https://dc.lft.to/lastmile_qr_scan", "ios": "https://dc.lft.to/lastmile_qr_scan"}, "lon": -77.04837366666666, "name": "6cdcb5da5f77815f387d54c2071b2c8a", "lat": 38.914861333333334, "is_reserved": 0, "fusion_lat": 0.0, "bike_id": "6cdcb5da5f77815f387d54c2071b2c8a", "type": "electric_scooter", "is_disabled": 0, "fusion_lon": 0.0}, {"rental_uris": {"android": "https://dc.lft.to/lastmile_qr_scan", "ios": "https://dc.lft.to/lastmile_qr_scan"}, "lon": -77.1293835, "name": "acdf9994d46e40e7604161d20ea1fc87", "lat": 38.865194, "is_reserved": 0, "fusion_lat": 0.0, "bike_id": "acdf9994d46e40e7604161d20ea1fc87", "type": "electric_bike", "is_disabled": 0, "fusion_lon": 0.0}, {"rental_uris": {"android": "https://dc.lft.to/lastmile_qr_scan", "ios": "https://dc.lft.to/lastmile_qr_scan"}, "lon": -77.00800633333333, "name": "994b792bb1bdc5265bd118bcbf8b716e", "lat": 38.912759333333334, "is_reserved": 0, "fusion_lat": 0.0, "bike_id": "994b792bb1bdc5265bd118bcbf8b716e", "type": "electric_scooter", "is_disabled": 0, "fusion_lon": 0.0}, {"rental_uris": {"android": "https://dc.lft.to/lastmile_qr_scan", "ios": "https://dc.lft.to/lastmile_qr_scan"}, "lon": -77.02832533333333, "name": "ab1a6e04b142c2cf6f9fd233f714c6da", "lat": 38.9062305, "is_reserved": 0, "fusion_lat": 0.0, "bike_id": "ab1a6e04b142c2cf6f9fd233f714c6da", "type": "electric_scooter", "is_disabled": 0, "fusion_lon": 0.0}, {"rental_uris": {"android": "https://dc.lft.to/lastmile_qr_scan", "ios": "https://dc.lft.to/lastmile_qr_scan"}, "lon": -76.92578, "name": "0d2317c4c2d3bb0ee68feced3f56cedd", "lat": 38.893574666666666, "is_reserved": 0, "fusion_lat": 0.0, "bike_id": "0d2317c4c2d3bb0ee68feced3f56cedd", "type": "electric_scooter", "is_disabled": 0, "fusion_lon": 0.0}, {"rental_uris": {"android": "https://dc.lft.to/lastmile_qr_scan", "ios": "https://dc.lft.to/lastmile_qr_scan"}, "lon": -77.02801133333334, "name": "110fc97bd96f40a30d6605ce53a0dad0", "lat": 38.9604895, "is_reserved": 0, "fusion_lat": 0.0, "bike_id": "110fc97bd96f40a30d6605ce53a0dad0", "type": "electric_scooter", "is_disabled": 0, "fusion_lon": 0.0}, {"rental_uris": {"android": "https://dc.lft.to/lastmile_qr_scan", "ios": "https://dc.lft.to/lastmile_qr_scan"}, "lon": -77.063515, "name": "10dccbcc8978695c7239a9959164fa92", "lat": 38.944478, "is_reserved": 0, "fusion_lat": 0.0, "bike_id": "10dccbcc8978695c7239a9959164fa92", "type": "electric_scooter", "is_disabled": 0, "fusion_lon": 0.0}, {"rental_uris": {"android": "https://dc.lft.to/lastmile_qr_scan", "ios": "https://dc.lft.to/lastmile_qr_scan"}, "lon": -77.037108, "name": "231989c46030bb85217b8915d3c9ad38", "lat": 38.9264435, "is_reserved": 0, "fusion_lat": 0.0, "bike_id": "231989c46030bb85217b8915d3c9ad38", "type": "electric_scooter", "is_disabled": 0, "fusion_lon": 0.0}, {"rental_uris": {"android": "https://dc.lft.to/lastmile_qr_scan", "ios": "https://dc.lft.to/lastmile_qr_scan"}, "lon": -77.03160933333334, "name": "882f30473ddc8f02093143ca3a8088dc", "lat": 38.89546716666667, "is_reserved": 0, "fusion_lat": 0.0, "bike_id": "882f30473ddc8f02093143ca3a8088dc", "type": "electric_scooter", "is_disabled": 0, "fusion_lon": 0.0}, {"rental_uris": {"android": "https://dc.lft.to/lastmile_qr_scan", "ios": "https://dc.lft.to/lastmile_qr_scan"}, "lon": -77.00229216666666, "name": "4e4d0eaa77ff97f1270a177f3ecdc7b6", "lat": 38.90757716666667, "is_reserved": 0, "fusion_lat": 0.0, "bike_id": "4e4d0eaa77ff97f1270a177f3ecdc7b6", "type": "electric_scooter", "is_disabled": 0, "fusion_lon": 0.0}, {"rental_uris": {"android": "https://dc.lft.to/lastmile_qr_scan", "ios": "https://dc.lft.to/lastmile_qr_scan"}, "lon": -77.0484595, "name": "7ac17b1999ad9e29c6683418dc6961d9", "lat": 38.91267333333333, "is_reserved": 0, "fusion_lat": 0.0, "bike_id": "7ac17b1999ad9e29c6683418dc6961d9", "type": "electric_scooter", "is_disabled": 0, "fusion_lon": 0.0}, {"rental_uris": {"android": "https://dc.lft.to/lastmile_qr_scan", "ios": "https://dc.lft.to/lastmile_qr_scan"}, "lon": -77.02707783333334, "name": "05b60b425f763f6a9875e28a8eaf6d0b", "lat": 38.902330166666665, "is_reserved": 0, "fusion_lat": 0.0, "bike_id": "05b60b425f763f6a9875e28a8eaf6d0b", "type": "electric_scooter", "is_disabled": 0, "fusion_lon": 0.0}, {"rental_uris": {"android": "https://dc.lft.to/lastmile_qr_scan", "ios": "https://dc.lft.to/lastmile_qr_scan"}, "lon": -77.01028666666667, "name": "f255a5c45696f72063e2260a0d80e0c6", "lat": 38.920283, "is_reserved": 0, "fusion_lat": 0.0, "bike_id": "f255a5c45696f72063e2260a0d80e0c6", "type": "electric_scooter", "is_disabled": 0, "fusion_lon": 0.0}, {"rental_uris": {"android": "https://dc.lft.to/lastmile_qr_scan", "ios": "https://dc.lft.to/lastmile_qr_scan"}, "lon": -77.02692183333333, "name": "5d7c488b9435e320d8b674e74c78c462", "lat": 38.90953966666667, "is_reserved": 0, "fusion_lat": 0.0, "bike_id": "5d7c488b9435e320d8b674e74c78c462", "type": "electric_scooter", "is_disabled": 0, "fusion_lon": 0.0}, {"rental_uris": {"android": "https://dc.lft.to/lastmile_qr_scan", "ios": "https://dc.lft.to/lastmile_qr_scan"}, "lon": -77.02136416666667, "name": "a704c4003520ddfe72172e33746bbc4a", "lat": 38.924892166666666, "is_reserved": 0, "fusion_lat": 0.0, "bike_id": "a704c4003520ddfe72172e33746bbc4a", "type": "electric_scooter", "is_disabled": 0, "fusion_lon": 0.0}, {"rental_uris": {"android": "https://dc.lft.to/lastmile_qr_scan", "ios": "https://dc.lft.to/lastmile_qr_scan"}, "lon": -76.98165683333333, "name": "ecd86f0e1b27ee8eff2668e373025961", "lat": 38.8994225, "is_reserved": 0, "fusion_lat": 0.0, "bike_id": "ecd86f0e1b27ee8eff2668e373025961", "type": "electric_scooter", "is_disabled": 0, "fusion_lon": 0.0}, {"rental_uris": {"android": "https://dc.lft.to/lastmile_qr_scan", "ios": "https://dc.lft.to/lastmile_qr_scan"}, "lon": -77.03636083333333, "name": "9508d0e77d146491ffd3119a956379ef", "lat": 38.923014333333334, "is_reserved": 0, "fusion_lat": 0.0, "bike_id": "9508d0e77d146491ffd3119a956379ef", "type": "electric_scooter", "is_disabled": 0, "fusion_lon": 0.0}, {"rental_uris": {"android": "https://dc.lft.to/lastmile_qr_scan", "ios": "https://dc.lft.to/lastmile_qr_scan"}, "lon": -76.92660366666667, "name": "adaa90d093bc7ffce03c30411e435138", "lat": 38.9017165, "is_reserved": 0, "fusion_lat": 0.0, "bike_id": "adaa90d093bc7ffce03c30411e435138", "type": "electric_scooter", "is_disabled": 0, "fusion_lon": 0.0}, {"rental_uris": {"android": "https://dc.lft.to/lastmile_qr_scan", "ios": "https://dc.lft.to/lastmile_qr_scan"}, "lon": -77.02704566666667, "name": "3977ca585956fb26a7d04195f3de7355", "lat": 38.907892, "is_reserved": 0, "fusion_lat": 0.0, "bike_id": "3977ca585956fb26a7d04195f3de7355", "type": "electric_scooter", "is_disabled": 0, "fusion_lon": 0.0}, {"rental_uris": {"android": "https://dc.lft.to/lastmile_qr_scan", "ios": "https://dc.lft.to/lastmile_qr_scan"}, "lon": -76.95245633333333, "name": "d28ce21147e6450ecb2dfb61fe97a9ac", "lat": 38.890439666666666, "is_reserved": 0, "fusion_lat": 0.0, "bike_id": "d28ce21147e6450ecb2dfb61fe97a9ac", "type": "electric_scooter", "is_disabled": 0, "fusion_lon": 0.0}, {"rental_uris": {"android": "https://dc.lft.to/lastmile_qr_scan", "ios": "https://dc.lft.to/lastmile_qr_scan"}, "lon": -77.0351895, "name": "7bc3138213ed5007b7c6ac5b0733c780", "lat": 38.9224345, "is_reserved": 0, "fusion_lat": 0.0, "bike_id": "7bc3138213ed5007b7c6ac5b0733c780", "type": "electric_scooter", "is_disabled": 0, "fusion_lon": 0.0}, {"rental_uris": {"android": "https://dc.lft.to/lastmile_qr_scan", "ios": "https://dc.lft.to/lastmile_qr_scan"}, "lon": -77.02364666666666, "name": "1d10db93f193a8aaddcccdcc0779a8ac", "lat": 38.9198995, "is_reserved": 0, "fusion_lat": 0.0, "bike_id": "1d10db93f193a8aaddcccdcc0779a8ac", "type": "electric_scooter", "is_disabled": 0, "fusion_lon": 0.0}, {"rental_uris": {"android": "https://dc.lft.to/lastmile_qr_scan", "ios": "https://dc.lft.to/lastmile_qr_scan"}, "lon": -77.03178, "name": "196387156326a34fd69d4f37b6818829", "lat": 38.907284833333335, "is_reserved": 0, "fusion_lat": 0.0, "bike_id": "196387156326a34fd69d4f37b6818829", "type": "electric_scooter", "is_disabled": 0, "fusion_lon": 0.0}, {"rental_uris": {"android": "https://dc.lft.to/lastmile_qr_scan", "ios": "https://dc.lft.to/lastmile_qr_scan"}, "lon": -77.01359316666667, "name": "2d560a789dd23a88c3e0a2b201467f9e", "lat": 38.897812, "is_reserved": 0, "fusion_lat": 0.0, "bike_id": "2d560a789dd23a88c3e0a2b201467f9e", "type": "electric_scooter", "is_disabled": 0, "fusion_lon": 0.0}, {"rental_uris": {"android": "https://dc.lft.to/lastmile_qr_scan", "ios": "https://dc.lft.to/lastmile_qr_scan"}, "lon": -77.01355333333333, "name": "aa01d58bebdda4693d8663f15ffda966", "lat": 38.892223, "is_reserved": 0, "fusion_lat": 0.0, "bike_id": "aa01d58bebdda4693d8663f15ffda966", "type": "electric_scooter", "is_disabled": 0, "fusion_lon": 0.0}, {"rental_uris": {"android": "https://dc.lft.to/lastmile_qr_scan", "ios": "https://dc.lft.to/lastmile_qr_scan"}, "lon": -77.03641183333333, "name": "06eedec8cf913ab4faa8f8bd09b08efb", "lat": 38.91459433333333, "is_reserved": 0, "fusion_lat": 0.0, "bike_id": "06eedec8cf913ab4faa8f8bd09b08efb", "type": "electric_scooter", "is_disabled": 0, "fusion_lon": 0.0}, {"rental_uris": {"android": "https://dc.lft.to/lastmile_qr_scan", "ios": "https://dc.lft.to/lastmile_qr_scan"}, "lon": -77.02733733333334, "name": "774eaf1dbef635b2d38bf38ba76fd2c5", "lat": 38.928764, "is_reserved": 0, "fusion_lat": 0.0, "bike_id": "774eaf1dbef635b2d38bf38ba76fd2c5", "type": "electric_scooter", "is_disabled": 0, "fusion_lon": 0.0}, {"rental_uris": {"android": "https://dc.lft.to/lastmile_qr_scan", "ios": "https://dc.lft.to/lastmile_qr_scan"}, "lon": -77.026409, "name": "3c2c242d20119d72a0cf4a8cde8bd54b", "lat": 38.9042135, "is_reserved": 0, "fusion_lat": 0.0, "bike_id": "3c2c242d20119d72a0cf4a8cde8bd54b", "type": "electric_scooter", "is_disabled": 0, "fusion_lon": 0.0}, {"rental_uris": {"android": "https://dc.lft.to/lastmile_qr_scan", "ios": "https://dc.lft.to/lastmile_qr_scan"}, "lon": -77.034067, "name": "48cefb0a1fe690a2cbf11a73a5e3c1cb", "lat": 38.92436933333333, "is_reserved": 0, "fusion_lat": 0.0, "bike_id": "48cefb0a1fe690a2cbf11a73a5e3c1cb", "type": "electric_scooter", "is_disabled": 0, "fusion_lon": 0.0}, {"rental_uris": {"android": "https://dc.lft.to/lastmile_qr_scan", "ios": "https://dc.lft.to/lastmile_qr_scan"}, "lon": -77.025287, "name": "80f2e3d95969b15ba03e04b0ebd76e2b", "lat": 38.937523166666665, "is_reserved": 0, "fusion_lat": 0.0, "bike_id": "80f2e3d95969b15ba03e04b0ebd76e2b", "type": "electric_scooter", "is_disabled": 0, "fusion_lon": 0.0}, {"rental_uris": {"android": "https://dc.lft.to/lastmile_qr_scan", "ios": "https://dc.lft.to/lastmile_qr_scan"}, "lon": -76.98882683333333, "name": "66b1bc6706d578c8d7f67394a7fd686d", "lat": 38.866610666666666, "is_reserved": 0, "fusion_lat": 0.0, "bike_id": "66b1bc6706d578c8d7f67394a7fd686d", "type": "electric_scooter", "is_disabled": 0, "fusion_lon": 0.0}, {"rental_uris": {"android": "https://dc.lft.to/lastmile_qr_scan", "ios": "https://dc.lft.to/lastmile_qr_scan"}, "lon": -76.9849415, "name": "331a62d8108195514b2d7e6da58d1876", "lat": 38.906852, "is_reserved": 0, "fusion_lat": 0.0, "bike_id": "331a62d8108195514b2d7e6da58d1876", "type": "electric_scooter", "is_disabled": 0, "fusion_lon": 0.0}, {"rental_uris": {"android": "https://dc.lft.to/lastmile_qr_scan", "ios": "https://dc.lft.to/lastmile_qr_scan"}, "lon": -77.03890183333333, "name": "0c49cc44faa4c256e4fe2f5ecd403a2e", "lat": 38.91841433333333, "is_reserved": 0, "fusion_lat": 0.0, "bike_id": "0c49cc44faa4c256e4fe2f5ecd403a2e", "type": "electric_scooter", "is_disabled": 0, "fusion_lon": 0.0}, {"rental_uris": {"android": "https://dc.lft.to/lastmile_qr_scan", "ios": "https://dc.lft.to/lastmile_qr_scan"}, "lon": -77.02155416666666, "name": "5a51990e5b0c5e88bed9ad0638c85d56", "lat": 38.87914683333333, "is_reserved": 0, "fusion_lat": 0.0, "bike_id": "5a51990e5b0c5e88bed9ad0638c85d56", "type": "electric_scooter", "is_disabled": 0, "fusion_lon": 0.0}, {"rental_uris": {"android": "https://dc.lft.to/lastmile_qr_scan", "ios": "https://dc.lft.to/lastmile_qr_scan"}, "lon": -77.00061266666667, "name": "65203d9e28430f9cfcf036988a7a6ccb", "lat": 38.876864, "is_reserved": 0, "fusion_lat": 0.0, "bike_id": "65203d9e28430f9cfcf036988a7a6ccb", "type": "electric_scooter", "is_disabled": 0, "fusion_lon": 0.0}, {"rental_uris": {"android": "https://dc.lft.to/lastmile_qr_scan", "ios": "https://dc.lft.to/lastmile_qr_scan"}, "lon": -77.03773916666667, "name": "bfaca5ca34be6efeb96eee7a2290ed56", "lat": 38.902229, "is_reserved": 0, "fusion_lat": 0.0, "bike_id": "bfaca5ca34be6efeb96eee7a2290ed56", "type": "electric_scooter", "is_disabled": 0, "fusion_lon": 0.0}, {"rental_uris": {"android": "https://dc.lft.to/lastmile_qr_scan", "ios": "https://dc.lft.to/lastmile_qr_scan"}, "lon": -77.03078533333333, "name": "5dee7e1fd431beeb483e6a745603f1df", "lat": 38.933039666666666, "is_reserved": 0, "fusion_lat": 0.0, "bike_id": "5dee7e1fd431beeb483e6a745603f1df", "type": "electric_scooter", "is_disabled": 0, "fusion_lon": 0.0}, {"rental_uris": {"android": "https://dc.lft.to/lastmile_qr_scan", "ios": "https://dc.lft.to/lastmile_qr_scan"}, "lon": -77.02876266666667, "name": "a4f17c528d7e7f625e84bee1c6b3752b", "lat": 38.95723366666667, "is_reserved": 0, "fusion_lat": 0.0, "bike_id": "a4f17c528d7e7f625e84bee1c6b3752b", "type": "electric_scooter", "is_disabled": 0, "fusion_lon": 0.0}, {"rental_uris": {"android": "https://dc.lft.to/lastmile_qr_scan", "ios": "https://dc.lft.to/lastmile_qr_scan"}, "lon": -77.055355, "name": "691fb85c4c24ff1021fcd3029e95bd3b", "lat": 38.928009333333335, "is_reserved": 0, "fusion_lat": 0.0, "bike_id": "691fb85c4c24ff1021fcd3029e95bd3b", "type": "electric_scooter", "is_disabled": 0, "fusion_lon": 0.0}, {"rental_uris": {"android": "https://dc.lft.to/lastmile_qr_scan", "ios": "https://dc.lft.to/lastmile_qr_scan"}, "lon": -77.025347, "name": "bd7bb2d5390ce840b60cb7a563d87dc5", "lat": 38.9065145, "is_reserved": 0, "fusion_lat": 0.0, "bike_id": "bd7bb2d5390ce840b60cb7a563d87dc5", "type": "electric_scooter", "is_disabled": 0, "fusion_lon": 0.0}, {"rental_uris": {"android": "https://dc.lft.to/lastmile_qr_scan", "ios": "https://dc.lft.to/lastmile_qr_scan"}, "lon": -77.04711616666667, "name": "81f5527ccae20eb4ccf61bf7444627ef", "lat": 38.89725833333333, "is_reserved": 0, "fusion_lat": 0.0, "bike_id": "81f5527ccae20eb4ccf61bf7444627ef", "type": "electric_scooter", "is_disabled": 0, "fusion_lon": 0.0}, {"rental_uris": {"android": "https://dc.lft.to/lastmile_qr_scan", "ios": "https://dc.lft.to/lastmile_qr_scan"}, "lon": -77.03284616666667, "name": "46ace6eeb5d2ebe18f6f46f3b261fd0c", "lat": 38.93688366666667, "is_reserved": 0, "fusion_lat": 0.0, "bike_id": "46ace6eeb5d2ebe18f6f46f3b261fd0c", "type": "electric_scooter", "is_disabled": 0, "fusion_lon": 0.0}, {"rental_uris": {"android": "https://dc.lft.to/lastmile_qr_scan", "ios": "https://dc.lft.to/lastmile_qr_scan"}, "lon": -77.04323216666667, "name": "327fdaddd439aa037c2cd8aecf3e20a3", "lat": 39.03429216666667, "is_reserved": 0, "fusion_lat": 0.0, "bike_id": "327fdaddd439aa037c2cd8aecf3e20a3", "type": "electric_bike", "is_disabled": 0, "fusion_lon": 0.0}, {"rental_uris": {"android": "https://dc.lft.to/lastmile_qr_scan", "ios": "https://dc.lft.to/lastmile_qr_scan"}, "lon": -76.95668083333334, "name": "0fa1c60f495926c7a0296f0e563e6295", "lat": 38.88465933333333, "is_reserved": 0, "fusion_lat": 0.0, "bike_id": "0fa1c60f495926c7a0296f0e563e6295", "type": "electric_bike", "is_disabled": 0, "fusion_lon": 0.0}, {"rental_uris": {"android": "https://dc.lft.to/lastmile_qr_scan", "ios": "https://dc.lft.to/lastmile_qr_scan"}, "lon": -77.027133, "name": "0689517c2997cc465da22d18c8080381", "lat": 38.927859166666664, "is_reserved": 0, "fusion_lat": 0.0, "bike_id": "0689517c2997cc465da22d18c8080381", "type": "electric_scooter", "is_disabled": 0, "fusion_lon": 0.0}, {"rental_uris": {"android": "https://dc.lft.to/lastmile_qr_scan", "ios": "https://dc.lft.to/lastmile_qr_scan"}, "lon": -77.042292, "name": "dda961d6d663c037436d63f0cfb94a74", "lat": 38.921852666666666, "is_reserved": 0, "fusion_lat": 0.0, "bike_id": "dda961d6d663c037436d63f0cfb94a74", "type": "electric_scooter", "is_disabled": 0, "fusion_lon": 0.0}, {"rental_uris": {"android": "https://dc.lft.to/lastmile_qr_scan", "ios": "https://dc.lft.to/lastmile_qr_scan"}, "lon": -77.03959, "name": "6b100276f36951df4ca8163994d5f7f3", "lat": 38.892430166666664, "is_reserved": 0, "fusion_lat": 0.0, "bike_id": "6b100276f36951df4ca8163994d5f7f3", "type": "electric_scooter", "is_disabled": 0, "fusion_lon": 0.0}, {"rental_uris": {"android": "https://dc.lft.to/lastmile_qr_scan", "ios": "https://dc.lft.to/lastmile_qr_scan"}, "lon": -77.05490483333334, "name": "a2b2e11a9ef1c30c043ec2d0a2e925af", "lat": 38.9016415, "is_reserved": 0, "fusion_lat": 0.0, "bike_id": "a2b2e11a9ef1c30c043ec2d0a2e925af", "type": "electric_scooter", "is_disabled": 0, "fusion_lon": 0.0}, {"rental_uris": {"android": "https://dc.lft.to/lastmile_qr_scan", "ios": "https://dc.lft.to/lastmile_qr_scan"}, "lon": -77.03658416666667, "name": "e7f49c03bac7cc6448285b55fdc3c7c6", "lat": 38.9238615, "is_reserved": 0, "fusion_lat": 0.0, "bike_id": "e7f49c03bac7cc6448285b55fdc3c7c6", "type": "electric_scooter", "is_disabled": 0, "fusion_lon": 0.0}, {"rental_uris": {"android": "https://dc.lft.to/lastmile_qr_scan", "ios": "https://dc.lft.to/lastmile_qr_scan"}, "lon": -77.039959, "name": "177081f535030650b243e33f0d3fa091", "lat": 38.91759666666667, "is_reserved": 0, "fusion_lat": 0.0, "bike_id": "177081f535030650b243e33f0d3fa091", "type": "electric_scooter", "is_disabled": 0, "fusion_lon": 0.0}, {"rental_uris": {"android": "https://dc.lft.to/lastmile_qr_scan", "ios": "https://dc.lft.to/lastmile_qr_scan"}, "lon": -77.0176315, "name": "ae8f9cf9fa56caabbca99e66acd0aef9", "lat": 38.872173333333336, "is_reserved": 0, "fusion_lat": 0.0, "bike_id": "ae8f9cf9fa56caabbca99e66acd0aef9", "type": "electric_scooter", "is_disabled": 0, "fusion_lon": 0.0}, {"rental_uris": {"android": "https://dc.lft.to/lastmile_qr_scan", "ios": "https://dc.lft.to/lastmile_qr_scan"}, "lon": -76.95755416666667, "name": "e267b3d21e9119ffc972e625c48cb9a8", "lat": 38.88430666666667, "is_reserved": 0, "fusion_lat": 0.0, "bike_id": "e267b3d21e9119ffc972e625c48cb9a8", "type": "electric_scooter", "is_disabled": 0, "fusion_lon": 0.0}, {"rental_uris": {"android": "https://dc.lft.to/lastmile_qr_scan", "ios": "https://dc.lft.to/lastmile_qr_scan"}, "lon": -77.024147, "name": "33f4077f61687f38cf91bc0f3c92bd6a", "lat": 38.89228333333333, "is_reserved": 0, "fusion_lat": 0.0, "bike_id": "33f4077f61687f38cf91bc0f3c92bd6a", "type": "electric_scooter", "is_disabled": 0, "fusion_lon": 0.0}, {"rental_uris": {"android": "https://dc.lft.to/lastmile_qr_scan", "ios": "https://dc.lft.to/lastmile_qr_scan"}, "lon": -77.028576, "name": "448e6be008053bbe9212637f3699681b", "lat": 38.91701616666667, "is_reserved": 0, "fusion_lat": 0.0, "bike_id": "448e6be008053bbe9212637f3699681b", "type": "electric_scooter", "is_disabled": 0, "fusion_lon": 0.0}, {"rental_uris": {"android": "https://dc.lft.to/lastmile_qr_scan", "ios": "https://dc.lft.to/lastmile_qr_scan"}, "lon": -77.00490866666667, "name": "244e7e7309cd540cc78c06cccffe4fdc", "lat": 38.87458616666667, "is_reserved": 0, "fusion_lat": 0.0, "bike_id": "244e7e7309cd540cc78c06cccffe4fdc", "type": "electric_scooter", "is_disabled": 0, "fusion_lon": 0.0}, {"rental_uris": {"android": "https://dc.lft.to/lastmile_qr_scan", "ios": "https://dc.lft.to/lastmile_qr_scan"}, "lon": -77.02111533333333, "name": "e096421cdfa2cf531125cff27186daec", "lat": 38.92754333333333, "is_reserved": 0, "fusion_lat": 0.0, "bike_id": "e096421cdfa2cf531125cff27186daec", "type": "electric_scooter", "is_disabled": 0, "fusion_lon": 0.0}, {"rental_uris": {"android": "https://dc.lft.to/lastmile_qr_scan", "ios": "https://dc.lft.to/lastmile_qr_scan"}, "lon": -77.03443633333333, "name": "11ba0ab99a21529574634cde22f4f85f", "lat": 38.903053, "is_reserved": 0, "fusion_lat": 0.0, "bike_id": "11ba0ab99a21529574634cde22f4f85f", "type": "electric_scooter", "is_disabled": 0, "fusion_lon": 0.0}, {"rental_uris": {"android": "https://dc.lft.to/lastmile_qr_scan", "ios": "https://dc.lft.to/lastmile_qr_scan"}, "lon": -77.071894, "name": "7f5bb5e4a2db9f486c6d5927fa24c061", "lat": 38.9091195, "is_reserved": 0, "fusion_lat": 0.0, "bike_id": "7f5bb5e4a2db9f486c6d5927fa24c061", "type": "electric_scooter", "is_disabled": 0, "fusion_lon": 0.0}, {"rental_uris": {"android": "https://dc.lft.to/lastmile_qr_scan", "ios": "https://dc.lft.to/lastmile_qr_scan"}, "lon": -77.032227, "name": "1929ff44b76ee7f627b68aea80b0d981", "lat": 38.917079333333334, "is_reserved": 0, "fusion_lat": 0.0, "bike_id": "1929ff44b76ee7f627b68aea80b0d981", "type": "electric_scooter", "is_disabled": 0, "fusion_lon": 0.0}, {"rental_uris": {"android": "https://dc.lft.to/lastmile_qr_scan", "ios": "https://dc.lft.to/lastmile_qr_scan"}, "lon": -77.0318765, "name": "aafcb0f260b1a913239b9384779dffde", "lat": 38.901392, "is_reserved": 0, "fusion_lat": 0.0, "bike_id": "aafcb0f260b1a913239b9384779dffde", "type": "electric_scooter", "is_disabled": 0, "fusion_lon": 0.0}, {"rental_uris": {"android": "https://dc.lft.to/lastmile_qr_scan", "ios": "https://dc.lft.to/lastmile_qr_scan"}, "lon": -76.9425035, "name": "a58144abcefcd18bdacbc31f85a1a8dd", "lat": 38.8930665, "is_reserved": 0, "fusion_lat": 0.0, "bike_id": "a58144abcefcd18bdacbc31f85a1a8dd", "type": "electric_scooter", "is_disabled": 0, "fusion_lon": 0.0}, {"rental_uris": {"android": "https://dc.lft.to/lastmile_qr_scan", "ios": "https://dc.lft.to/lastmile_qr_scan"}, "lon": -77.045173, "name": "6278ea8131278f586465225bbed6dc8e", "lat": 38.923214, "is_reserved": 0, "fusion_lat": 0.0, "bike_id": "6278ea8131278f586465225bbed6dc8e", "type": "electric_scooter", "is_disabled": 0, "fusion_lon": 0.0}, {"rental_uris": {"android": "https://dc.lft.to/lastmile_qr_scan", "ios": "https://dc.lft.to/lastmile_qr_scan"}, "lon": -77.05760266666667, "name": "af5933dc4a4f10909bd5c80ea1d52fc5", "lat": 38.924986, "is_reserved": 0, "fusion_lat": 0.0, "bike_id": "af5933dc4a4f10909bd5c80ea1d52fc5", "type": "electric_scooter", "is_disabled": 0, "fusion_lon": 0.0}, {"rental_uris": {"android": "https://dc.lft.to/lastmile_qr_scan", "ios": "https://dc.lft.to/lastmile_qr_scan"}, "lon": -76.99053433333333, "name": "1011f39bb1004184e650248ac49f1a83", "lat": 38.898403333333334, "is_reserved": 0, "fusion_lat": 0.0, "bike_id": "1011f39bb1004184e650248ac49f1a83", "type": "electric_bike", "is_disabled": 0, "fusion_lon": 0.0}, {"rental_uris": {"android": "https://dc.lft.to/lastmile_qr_scan", "ios": "https://dc.lft.to/lastmile_qr_scan"}, "lon": -76.90733383333334, "name": "ffa2650d852928c07f02ac9c295d1276", "lat": 38.89617166666667, "is_reserved": 0, "fusion_lat": 0.0, "bike_id": "ffa2650d852928c07f02ac9c295d1276", "type": "electric_bike", "is_disabled": 0, "fusion_lon": 0.0}, {"rental_uris": {"android": "https://dc.lft.to/lastmile_qr_scan", "ios": "https://dc.lft.to/lastmile_qr_scan"}, "lon": -77.1160475, "name": "37257b9e73434c6ba1110b9a86e4db54", "lat": 38.85477383333333, "is_reserved": 0, "fusion_lat": 0.0, "bike_id": "37257b9e73434c6ba1110b9a86e4db54", "type": "electric_bike", "is_disabled": 0, "fusion_lon": 0.0}, {"rental_uris": {"android": "https://dc.lft.to/lastmile_qr_scan", "ios": "https://dc.lft.to/lastmile_qr_scan"}, "lon": -77.03708533333334, "name": "2e28bb2243ff51c099b878c3274441af", "lat": 38.92649566666667, "is_reserved": 0, "fusion_lat": 0.0, "bike_id": "2e28bb2243ff51c099b878c3274441af", "type": "electric_scooter", "is_disabled": 0, "fusion_lon": 0.0}, {"rental_uris": {"android": "https://dc.lft.to/lastmile_qr_scan", "ios": "https://dc.lft.to/lastmile_qr_scan"}, "lon": -77.21126416666667, "name": "106e5093c75dd215f7ec2768c2ca334e", "lat": 38.8749495, "is_reserved": 0, "fusion_lat": 0.0, "bike_id": "106e5093c75dd215f7ec2768c2ca334e", "type": "electric_bike", "is_disabled": 0, "fusion_lon": 0.0}, {"rental_uris": {"android": "https://dc.lft.to/lastmile_qr_scan", "ios": "https://dc.lft.to/lastmile_qr_scan"}, "lon": -77.03340166666666, "name": "7c65dcf172d1d1982e8777e3276fd48c", "lat": 38.897467, "is_reserved": 0, "fusion_lat": 0.0, "bike_id": "7c65dcf172d1d1982e8777e3276fd48c", "type": "electric_scooter", "is_disabled": 0, "fusion_lon": 0.0}, {"rental_uris": {"android": "https://dc.lft.to/lastmile_qr_scan", "ios": "https://dc.lft.to/lastmile_qr_scan"}, "lon": -77.02588116666666, "name": "e35cfea50d40cf6d679b7e28d3a6c1ac", "lat": 38.91413516666667, "is_reserved": 0, "fusion_lat": 0.0, "bike_id": "e35cfea50d40cf6d679b7e28d3a6c1ac", "type": "electric_scooter", "is_disabled": 0, "fusion_lon": 0.0}, {"rental_uris": {"android": "https://dc.lft.to/lastmile_qr_scan", "ios": "https://dc.lft.to/lastmile_qr_scan"}, "lon": -77.02201883333333, "name": "38a5d4319c82f166f15d8b5f861f59b5", "lat": 38.918813666666665, "is_reserved": 0, "fusion_lat": 0.0, "bike_id": "38a5d4319c82f166f15d8b5f861f59b5", "type": "electric_scooter", "is_disabled": 0, "fusion_lon": 0.0}, {"rental_uris": {"android": "https://dc.lft.to/lastmile_qr_scan", "ios": "https://dc.lft.to/lastmile_qr_scan"}, "lon": -76.96911766666666, "name": "bc1902aac0b0140d5106459708a03cd5", "lat": 38.84613816666667, "is_reserved": 0, "fusion_lat": 0.0, "bike_id": "bc1902aac0b0140d5106459708a03cd5", "type": "electric_bike", "is_disabled": 0, "fusion_lon": 0.0}, {"rental_uris": {"android": "https://dc.lft.to/lastmile_qr_scan", "ios": "https://dc.lft.to/lastmile_qr_scan"}, "lon": -77.0228815, "name": "f4e1d22021d2dffbd09477c666041b56", "lat": 38.91768733333333, "is_reserved": 0, "fusion_lat": 0.0, "bike_id": "f4e1d22021d2dffbd09477c666041b56", "type": "electric_scooter", "is_disabled": 0, "fusion_lon": 0.0}, {"rental_uris": {"android": "https://dc.lft.to/lastmile_qr_scan", "ios": "https://dc.lft.to/lastmile_qr_scan"}, "lon": -77.00063416666667, "name": "c898669110af43fdb2ec56ed96f242cd", "lat": 38.89433066666667, "is_reserved": 0, "fusion_lat": 0.0, "bike_id": "c898669110af43fdb2ec56ed96f242cd", "type": "electric_scooter", "is_disabled": 0, "fusion_lon": 0.0}, {"rental_uris": {"android": "https://dc.lft.to/lastmile_qr_scan", "ios": "https://dc.lft.to/lastmile_qr_scan"}, "lon": -76.98569133333334, "name": "6045fd986b175082324373d6adb7a265", "lat": 38.866837333333336, "is_reserved": 0, "fusion_lat": 0.0, "bike_id": "6045fd986b175082324373d6adb7a265", "type": "electric_scooter", "is_disabled": 0, "fusion_lon": 0.0}, {"rental_uris": {"android": "https://dc.lft.to/lastmile_qr_scan", "ios": "https://dc.lft.to/lastmile_qr_scan"}, "lon": -77.03634316666667, "name": "241160c76c1a6a4bc014b24d0f20525c", "lat": 38.932915666666666, "is_reserved": 0, "fusion_lat": 0.0, "bike_id": "241160c76c1a6a4bc014b24d0f20525c", "type": "electric_bike", "is_disabled": 0, "fusion_lon": 0.0}, {"rental_uris": {"android": "https://dc.lft.to/lastmile_qr_scan", "ios": "https://dc.lft.to/lastmile_qr_scan"}, "lon": -77.022064, "name": "88c66d87ee592e9237d0b88a4408a6c5", "lat": 38.892285666666666, "is_reserved": 0, "fusion_lat": 0.0, "bike_id": "88c66d87ee592e9237d0b88a4408a6c5", "type": "electric_scooter", "is_disabled": 0, "fusion_lon": 0.0}, {"rental_uris": {"android": "https://dc.lft.to/lastmile_qr_scan", "ios": "https://dc.lft.to/lastmile_qr_scan"}, "lon": -77.0502985, "name": "e52552aaa25ebe08df8f8d085a14e508", "lat": 38.923646833333336, "is_reserved": 0, "fusion_lat": 0.0, "bike_id": "e52552aaa25ebe08df8f8d085a14e508", "type": "electric_scooter", "is_disabled": 0, "fusion_lon": 0.0}, {"rental_uris": {"android": "https://dc.lft.to/lastmile_qr_scan", "ios": "https://dc.lft.to/lastmile_qr_scan"}, "lon": -77.00423583333334, "name": "a57550d37d317a35e16423b3f90ae055", "lat": 38.876934166666665, "is_reserved": 0, "fusion_lat": 0.0, "bike_id": "a57550d37d317a35e16423b3f90ae055", "type": "electric_scooter", "is_disabled": 0, "fusion_lon": 0.0}, {"rental_uris": {"android": "https://dc.lft.to/lastmile_qr_scan", "ios": "https://dc.lft.to/lastmile_qr_scan"}, "lon": -76.99376416666667, "name": "b05a7ca6f0d52943e2dcee4bdf067968", "lat": 38.991007, "is_reserved": 0, "fusion_lat": 0.0, "bike_id": "b05a7ca6f0d52943e2dcee4bdf067968", "type": "electric_bike", "is_disabled": 0, "fusion_lon": 0.0}, {"rental_uris": {"android": "https://dc.lft.to/lastmile_qr_scan", "ios": "https://dc.lft.to/lastmile_qr_scan"}, "lon": -77.026693, "name": "6b3ab5cf6562ef17094c75a53919212b", "lat": 38.93102366666667, "is_reserved": 0, "fusion_lat": 0.0, "bike_id": "6b3ab5cf6562ef17094c75a53919212b", "type": "electric_scooter", "is_disabled": 0, "fusion_lon": 0.0}, {"rental_uris": {"android": "https://dc.lft.to/lastmile_qr_scan", "ios": "https://dc.lft.to/lastmile_qr_scan"}, "lon": -77.0333815, "name": "96eace60ea5ed6b429a15bae9982f250", "lat": 38.97212433333333, "is_reserved": 0, "fusion_lat": 0.0, "bike_id": "96eace60ea5ed6b429a15bae9982f250", "type": "electric_bike", "is_disabled": 0, "fusion_lon": 0.0}, {"rental_uris": {"android": "https://dc.lft.to/lastmile_qr_scan", "ios": "https://dc.lft.to/lastmile_qr_scan"}, "lon": -77.02783716666667, "name": "355b5c786519df437877b9c026cdec5d", "lat": 38.93863966666667, "is_reserved": 0, "fusion_lat": 0.0, "bike_id": "355b5c786519df437877b9c026cdec5d", "type": "electric_scooter", "is_disabled": 0, "fusion_lon": 0.0}, {"rental_uris": {"android": "https://dc.lft.to/lastmile_qr_scan", "ios": "https://dc.lft.to/lastmile_qr_scan"}, "lon": -77.01455516666667, "name": "f6669e2f8d487a8927d681bbe2fe291a", "lat": 38.97508033333333, "is_reserved": 0, "fusion_lat": 0.0, "bike_id": "f6669e2f8d487a8927d681bbe2fe291a", "type": "electric_scooter", "is_disabled": 0, "fusion_lon": 0.0}, {"rental_uris": {"android": "https://dc.lft.to/lastmile_qr_scan", "ios": "https://dc.lft.to/lastmile_qr_scan"}, "lon": -77.0172125, "name": "1288ec34473054e9c137c1537be75a09", "lat": 38.90079083333333, "is_reserved": 0, "fusion_lat": 0.0, "bike_id": "1288ec34473054e9c137c1537be75a09", "type": "electric_scooter", "is_disabled": 0, "fusion_lon": 0.0}, {"rental_uris": {"android": "https://dc.lft.to/lastmile_qr_scan", "ios": "https://dc.lft.to/lastmile_qr_scan"}, "lon": -77.01899683333333, "name": "23cf6b7283673ff410aa8f9c1bd14c9e", "lat": 38.9009595, "is_reserved": 0, "fusion_lat": 0.0, "bike_id": "23cf6b7283673ff410aa8f9c1bd14c9e", "type": "electric_scooter", "is_disabled": 0, "fusion_lon": 0.0}, {"rental_uris": {"android": "https://dc.lft.to/lastmile_qr_scan", "ios": "https://dc.lft.to/lastmile_qr_scan"}, "lon": -77.0248475, "name": "50c3eed64168b9a152079ee1aaca0943", "lat": 38.93884416666667, "is_reserved": 0, "fusion_lat": 0.0, "bike_id": "50c3eed64168b9a152079ee1aaca0943", "type": "electric_scooter", "is_disabled": 0, "fusion_lon": 0.0}, {"rental_uris": {"android": "https://dc.lft.to/lastmile_qr_scan", "ios": "https://dc.lft.to/lastmile_qr_scan"}, "lon": -76.981922, "name": "cd73f63e0ada87a906f5ca00eae02272", "lat": 38.92059666666667, "is_reserved": 0, "fusion_lat": 0.0, "bike_id": "cd73f63e0ada87a906f5ca00eae02272", "type": "electric_scooter", "is_disabled": 0, "fusion_lon": 0.0}, {"rental_uris": {"android": "https://dc.lft.to/lastmile_qr_scan", "ios": "https://dc.lft.to/lastmile_qr_scan"}, "lon": -77.0439855, "name": "881430ad6adb04eb6a694b79d408237a", "lat": 38.897299333333336, "is_reserved": 0, "fusion_lat": 0.0, "bike_id": "881430ad6adb04eb6a694b79d408237a", "type": "electric_scooter", "is_disabled": 0, "fusion_lon": 0.0}, {"rental_uris": {"android": "https://dc.lft.to/lastmile_qr_scan", "ios": "https://dc.lft.to/lastmile_qr_scan"}, "lon": -77.04088933333334, "name": "75c1de2787d418702c6912421852f5ae", "lat": 38.914912666666666, "is_reserved": 0, "fusion_lat": 0.0, "bike_id": "75c1de2787d418702c6912421852f5ae", "type": "electric_scooter", "is_disabled": 0, "fusion_lon": 0.0}, {"rental_uris": {"android": "https://dc.lft.to/lastmile_qr_scan", "ios": "https://dc.lft.to/lastmile_qr_scan"}, "lon": -77.02161066666666, "name": "5058d57bc0697536c9c79cf0e1ee1745", "lat": 38.92612533333333, "is_reserved": 0, "fusion_lat": 0.0, "bike_id": "5058d57bc0697536c9c79cf0e1ee1745", "type": "electric_scooter", "is_disabled": 0, "fusion_lon": 0.0}, {"rental_uris": {"android": "https://dc.lft.to/lastmile_qr_scan", "ios": "https://dc.lft.to/lastmile_qr_scan"}, "lon": -77.01640383333333, "name": "b99defd77dbeded5520f748035bd6fb6", "lat": 38.903727833333335, "is_reserved": 0, "fusion_lat": 0.0, "bike_id": "b99defd77dbeded5520f748035bd6fb6", "type": "electric_scooter", "is_disabled": 0, "fusion_lon": 0.0}, {"rental_uris": {"android": "https://dc.lft.to/lastmile_qr_scan", "ios": "https://dc.lft.to/lastmile_qr_scan"}, "lon": -77.02511166666666, "name": "cdfc1c20ac7b100c737488683dc78496", "lat": 38.91805, "is_reserved": 0, "fusion_lat": 0.0, "bike_id": "cdfc1c20ac7b100c737488683dc78496", "type": "electric_scooter", "is_disabled": 0, "fusion_lon": 0.0}, {"rental_uris": {"android": "https://dc.lft.to/lastmile_qr_scan", "ios": "https://dc.lft.to/lastmile_qr_scan"}, "lon": -77.03957716666666, "name": "a85e7f8bf5ff721b270969b0bc8f8bc8", "lat": 38.8924065, "is_reserved": 0, "fusion_lat": 0.0, "bike_id": "a85e7f8bf5ff721b270969b0bc8f8bc8", "type": "electric_scooter", "is_disabled": 0, "fusion_lon": 0.0}, {"rental_uris": {"android": "https://dc.lft.to/lastmile_qr_scan", "ios": "https://dc.lft.to/lastmile_qr_scan"}, "lon": -77.038364, "name": "88eb86bc66d66bc19b7f559bda640154", "lat": 38.903454833333335, "is_reserved": 0, "fusion_lat": 0.0, "bike_id": "88eb86bc66d66bc19b7f559bda640154", "type": "electric_scooter", "is_disabled": 0, "fusion_lon": 0.0}, {"rental_uris": {"android": "https://dc.lft.to/lastmile_qr_scan", "ios": "https://dc.lft.to/lastmile_qr_scan"}, "lon": -77.02407083333334, "name": "5ee8b519cde7da069b0dd6e7324bf72d", "lat": 38.896937666666666, "is_reserved": 0, "fusion_lat": 0.0, "bike_id": "5ee8b519cde7da069b0dd6e7324bf72d", "type": "electric_bike", "is_disabled": 0, "fusion_lon": 0.0}, {"rental_uris": {"android": "https://dc.lft.to/lastmile_qr_scan", "ios": "https://dc.lft.to/lastmile_qr_scan"}, "lon": -77.036369, "name": "c2e31a58a4e4bac8943026f69102cb90", "lat": 38.916491666666666, "is_reserved": 0, "fusion_lat": 0.0, "bike_id": "c2e31a58a4e4bac8943026f69102cb90", "type": "electric_scooter", "is_disabled": 0, "fusion_lon": 0.0}, {"rental_uris": {"android": "https://dc.lft.to/lastmile_qr_scan", "ios": "https://dc.lft.to/lastmile_qr_scan"}, "lon": -77.01718633333333, "name": "ed545427e4f6ac1b958288e3cc414918", "lat": 38.879362, "is_reserved": 0, "fusion_lat": 0.0, "bike_id": "ed545427e4f6ac1b958288e3cc414918", "type": "electric_scooter", "is_disabled": 0, "fusion_lon": 0.0}, {"rental_uris": {"android": "https://dc.lft.to/lastmile_qr_scan", "ios": "https://dc.lft.to/lastmile_qr_scan"}, "lon": -77.02412166666667, "name": "20b10d8a156b77f067213962875f0f4f", "lat": 38.892207166666665, "is_reserved": 0, "fusion_lat": 0.0, "bike_id": "20b10d8a156b77f067213962875f0f4f", "type": "electric_scooter", "is_disabled": 0, "fusion_lon": 0.0}, {"rental_uris": {"android": "https://dc.lft.to/lastmile_qr_scan", "ios": "https://dc.lft.to/lastmile_qr_scan"}, "lon": -77.045924, "name": "940f451c2dfd7f4e3629b83deda0b736", "lat": 38.92143383333333, "is_reserved": 0, "fusion_lat": 0.0, "bike_id": "940f451c2dfd7f4e3629b83deda0b736", "type": "electric_scooter", "is_disabled": 0, "fusion_lon": 0.0}, {"rental_uris": {"android": "https://dc.lft.to/lastmile_qr_scan", "ios": "https://dc.lft.to/lastmile_qr_scan"}, "lon": -76.90418583333333, "name": "2daa1358657264c34019226939175f89", "lat": 38.94060416666667, "is_reserved": 0, "fusion_lat": 0.0, "bike_id": "2daa1358657264c34019226939175f89", "type": "electric_bike", "is_disabled": 0, "fusion_lon": 0.0}, {"rental_uris": {"android": "https://dc.lft.to/lastmile_qr_scan", "ios": "https://dc.lft.to/lastmile_qr_scan"}, "lon": -77.0367725, "name": "fd7a65aa4e8e2bf85bbf3a764cfb8417", "lat": 38.93923816666667, "is_reserved": 0, "fusion_lat": 0.0, "bike_id": "fd7a65aa4e8e2bf85bbf3a764cfb8417", "type": "electric_scooter", "is_disabled": 0, "fusion_lon": 0.0}, {"rental_uris": {"android": "https://dc.lft.to/lastmile_qr_scan", "ios": "https://dc.lft.to/lastmile_qr_scan"}, "lon": -77.02289183333333, "name": "7490ed4eb00f6ed35ed9fa69bdf6074e", "lat": 38.92714383333333, "is_reserved": 0, "fusion_lat": 0.0, "bike_id": "7490ed4eb00f6ed35ed9fa69bdf6074e", "type": "electric_scooter", "is_disabled": 0, "fusion_lon": 0.0}, {"rental_uris": {"android": "https://dc.lft.to/lastmile_qr_scan", "ios": "https://dc.lft.to/lastmile_qr_scan"}, "lon": -77.0441705, "name": "3a9d42b43f48a8e6a6f1989af58e5c7b", "lat": 38.90898383333333, "is_reserved": 0, "fusion_lat": 0.0, "bike_id": "3a9d42b43f48a8e6a6f1989af58e5c7b", "type": "electric_scooter", "is_disabled": 0, "fusion_lon": 0.0}, {"rental_uris": {"android": "https://dc.lft.to/lastmile_qr_scan", "ios": "https://dc.lft.to/lastmile_qr_scan"}, "lon": -77.021877, "name": "c7d27d2c08ea0afeb14238316e6acc18", "lat": 38.9150945, "is_reserved": 0, "fusion_lat": 0.0, "bike_id": "c7d27d2c08ea0afeb14238316e6acc18", "type": "electric_scooter", "is_disabled": 0, "fusion_lon": 0.0}, {"rental_uris": {"android": "https://dc.lft.to/lastmile_qr_scan", "ios": "https://dc.lft.to/lastmile_qr_scan"}, "lon": -76.98509416666667, "name": "75b6939d599eb966270794cec7d7b7a1", "lat": 38.86056333333333, "is_reserved": 0, "fusion_lat": 0.0, "bike_id": "75b6939d599eb966270794cec7d7b7a1", "type": "electric_scooter", "is_disabled": 0, "fusion_lon": 0.0}, {"rental_uris": {"android": "https://dc.lft.to/lastmile_qr_scan", "ios": "https://dc.lft.to/lastmile_qr_scan"}, "lon": -77.011847, "name": "20e360ff37e57409b6d3545722cb698a", "lat": 38.9002845, "is_reserved": 0, "fusion_lat": 0.0, "bike_id": "20e360ff37e57409b6d3545722cb698a", "type": "electric_scooter", "is_disabled": 0, "fusion_lon": 0.0}, {"rental_uris": {"android": "https://dc.lft.to/lastmile_qr_scan", "ios": "https://dc.lft.to/lastmile_qr_scan"}, "lon": -77.042299, "name": "36d853d8dc645ff3e42a4fd1ecfc5354", "lat": 38.91104283333333, "is_reserved": 0, "fusion_lat": 0.0, "bike_id": "36d853d8dc645ff3e42a4fd1ecfc5354", "type": "electric_scooter", "is_disabled": 0, "fusion_lon": 0.0}, {"rental_uris": {"android": "https://dc.lft.to/lastmile_qr_scan", "ios": "https://dc.lft.to/lastmile_qr_scan"}, "lon": -76.98367766666667, "name": "9306514c72fc91251ef335dfc48128c2", "lat": 38.914956333333336, "is_reserved": 0, "fusion_lat": 0.0, "bike_id": "9306514c72fc91251ef335dfc48128c2", "type": "electric_scooter", "is_disabled": 0, "fusion_lon": 0.0}, {"rental_uris": {"android": "https://dc.lft.to/lastmile_qr_scan", "ios": "https://dc.lft.to/lastmile_qr_scan"}, "lon": -77.03537566666667, "name": "4d4e2a984975852b37f455c079556a2a", "lat": 38.9234015, "is_reserved": 0, "fusion_lat": 0.0, "bike_id": "4d4e2a984975852b37f455c079556a2a", "type": "electric_scooter", "is_disabled": 0, "fusion_lon": 0.0}, {"rental_uris": {"android": "https://dc.lft.to/lastmile_qr_scan", "ios": "https://dc.lft.to/lastmile_qr_scan"}, "lon": -77.0382825, "name": "44a25f678114c6ab8c78ecc099ae9123", "lat": 38.91260283333333, "is_reserved": 0, "fusion_lat": 0.0, "bike_id": "44a25f678114c6ab8c78ecc099ae9123", "type": "electric_scooter", "is_disabled": 0, "fusion_lon": 0.0}, {"rental_uris": {"android": "https://dc.lft.to/lastmile_qr_scan", "ios": "https://dc.lft.to/lastmile_qr_scan"}, "lon": -77.03160883333334, "name": "36db91dd574f4ec64a1d5bd0ec9cb5e0", "lat": 38.91607833333333, "is_reserved": 0, "fusion_lat": 0.0, "bike_id": "36db91dd574f4ec64a1d5bd0ec9cb5e0", "type": "electric_scooter", "is_disabled": 0, "fusion_lon": 0.0}, {"rental_uris": {"android": "https://dc.lft.to/lastmile_qr_scan", "ios": "https://dc.lft.to/lastmile_qr_scan"}, "lon": -77.23411866666666, "name": "c9030d251965f524e6389ae721ee4dfe", "lat": 38.87575566666667, "is_reserved": 0, "fusion_lat": 0.0, "bike_id": "c9030d251965f524e6389ae721ee4dfe", "type": "electric_bike", "is_disabled": 0, "fusion_lon": 0.0}, {"rental_uris": {"android": "https://dc.lft.to/lastmile_qr_scan", "ios": "https://dc.lft.to/lastmile_qr_scan"}, "lon": -77.05001, "name": "86e45beea62b47e807e59a3577422cf4", "lat": 38.89905, "is_reserved": 0, "fusion_lat": 0.0, "bike_id": "86e45beea62b47e807e59a3577422cf4", "type": "electric_scooter", "is_disabled": 0, "fusion_lon": 0.0}, {"rental_uris": {"android": "https://dc.lft.to/lastmile_qr_scan", "ios": "https://dc.lft.to/lastmile_qr_scan"}, "lon": -77.04333283333334, "name": "d739b8d02bbc436487468d8779dc7000", "lat": 38.90348516666667, "is_reserved": 0, "fusion_lat": 0.0, "bike_id": "d739b8d02bbc436487468d8779dc7000", "type": "electric_scooter", "is_disabled": 0, "fusion_lon": 0.0}, {"rental_uris": {"android": "https://dc.lft.to/lastmile_qr_scan", "ios": "https://dc.lft.to/lastmile_qr_scan"}, "lon": -77.02288116666666, "name": "e900f2caecb6c5bf7d464566e2add23e", "lat": 38.91433816666667, "is_reserved": 0, "fusion_lat": 0.0, "bike_id": "e900f2caecb6c5bf7d464566e2add23e", "type": "electric_scooter", "is_disabled": 0, "fusion_lon": 0.0}, {"rental_uris": {"android": "https://dc.lft.to/lastmile_qr_scan", "ios": "https://dc.lft.to/lastmile_qr_scan"}, "lon": -77.0238505, "name": "583cdb36b0379c8670c68ba12e2330f3", "lat": 38.926602833333334, "is_reserved": 0, "fusion_lat": 0.0, "bike_id": "583cdb36b0379c8670c68ba12e2330f3", "type": "electric_scooter", "is_disabled": 0, "fusion_lon": 0.0}, {"rental_uris": {"android": "https://dc.lft.to/lastmile_qr_scan", "ios": "https://dc.lft.to/lastmile_qr_scan"}, "lon": -77.04347883333334, "name": "21ace963ab778b15f01f92c52e5d3fe2", "lat": 38.907234, "is_reserved": 0, "fusion_lat": 0.0, "bike_id": "21ace963ab778b15f01f92c52e5d3fe2", "type": "electric_scooter", "is_disabled": 0, "fusion_lon": 0.0}, {"rental_uris": {"android": "https://dc.lft.to/lastmile_qr_scan", "ios": "https://dc.lft.to/lastmile_qr_scan"}, "lon": -77.04674616666667, "name": "c1e801e715e0724c1f5a01562de6bd13", "lat": 38.90034716666667, "is_reserved": 0, "fusion_lat": 0.0, "bike_id": "c1e801e715e0724c1f5a01562de6bd13", "type": "electric_scooter", "is_disabled": 0, "fusion_lon": 0.0}, {"rental_uris": {"android": "https://dc.lft.to/lastmile_qr_scan", "ios": "https://dc.lft.to/lastmile_qr_scan"}, "lon": -77.02823566666666, "name": "c60cddba4581a231c01da1b108c5b031", "lat": 38.89893766666667, "is_reserved": 0, "fusion_lat": 0.0, "bike_id": "c60cddba4581a231c01da1b108c5b031", "type": "electric_scooter", "is_disabled": 0, "fusion_lon": 0.0}, {"rental_uris": {"android": "https://dc.lft.to/lastmile_qr_scan", "ios": "https://dc.lft.to/lastmile_qr_scan"}, "lon": -76.949779, "name": "83ae94036b1bdf554c1d4ad026b8cd9d", "lat": 38.88481983333333, "is_reserved": 0, "fusion_lat": 0.0, "bike_id": "83ae94036b1bdf554c1d4ad026b8cd9d", "type": "electric_scooter", "is_disabled": 0, "fusion_lon": 0.0}, {"rental_uris": {"android": "https://dc.lft.to/lastmile_qr_scan", "ios": "https://dc.lft.to/lastmile_qr_scan"}, "lon": -77.02156433333333, "name": "9636bb75b169ffbd112a1ccb21ccfaa6", "lat": 38.926052166666665, "is_reserved": 0, "fusion_lat": 0.0, "bike_id": "9636bb75b169ffbd112a1ccb21ccfaa6", "type": "electric_scooter", "is_disabled": 0, "fusion_lon": 0.0}, {"rental_uris": {"android": "https://dc.lft.to/lastmile_qr_scan", "ios": "https://dc.lft.to/lastmile_qr_scan"}, "lon": -77.02329816666666, "name": "d4f0b75ac6d5cb95890ebbf5136c97f9", "lat": 38.9287205, "is_reserved": 0, "fusion_lat": 0.0, "bike_id": "d4f0b75ac6d5cb95890ebbf5136c97f9", "type": "electric_scooter", "is_disabled": 0, "fusion_lon": 0.0}, {"rental_uris": {"android": "https://dc.lft.to/lastmile_qr_scan", "ios": "https://dc.lft.to/lastmile_qr_scan"}, "lon": -77.03661066666666, "name": "550018c0682592ad06f154fe156a86db", "lat": 38.91004866666667, "is_reserved": 0, "fusion_lat": 0.0, "bike_id": "550018c0682592ad06f154fe156a86db", "type": "electric_scooter", "is_disabled": 0, "fusion_lon": 0.0}, {"rental_uris": {"android": "https://dc.lft.to/lastmile_qr_scan", "ios": "https://dc.lft.to/lastmile_qr_scan"}, "lon": -77.07489033333333, "name": "9dceb251a3938e9295512689d15dfdb7", "lat": 38.9070915, "is_reserved": 0, "fusion_lat": 0.0, "bike_id": "9dceb251a3938e9295512689d15dfdb7", "type": "electric_scooter", "is_disabled": 0, "fusion_lon": 0.0}, {"rental_uris": {"android": "https://dc.lft.to/lastmile_qr_scan", "ios": "https://dc.lft.to/lastmile_qr_scan"}, "lon": -76.99812716666666, "name": "efa7f3f2a75ec8f566b02119a787da71", "lat": 38.93231733333333, "is_reserved": 0, "fusion_lat": 0.0, "bike_id": "efa7f3f2a75ec8f566b02119a787da71", "type": "electric_scooter", "is_disabled": 0, "fusion_lon": 0.0}, {"rental_uris": {"android": "https://dc.lft.to/lastmile_qr_scan", "ios": "https://dc.lft.to/lastmile_qr_scan"}, "lon": -77.01219583333334, "name": "99ea9389e93156424c58f76014af7757", "lat": 38.911916166666664, "is_reserved": 0, "fusion_lat": 0.0, "bike_id": "99ea9389e93156424c58f76014af7757", "type": "electric_scooter", "is_disabled": 0, "fusion_lon": 0.0}, {"rental_uris": {"android": "https://dc.lft.to/lastmile_qr_scan", "ios": "https://dc.lft.to/lastmile_qr_scan"}, "lon": -77.0451015, "name": "5c43bea0d284a34a95ff045ee2e134b5", "lat": 38.90368383333333, "is_reserved": 0, "fusion_lat": 0.0, "bike_id": "5c43bea0d284a34a95ff045ee2e134b5", "type": "electric_scooter", "is_disabled": 0, "fusion_lon": 0.0}, {"rental_uris": {"android": "https://dc.lft.to/lastmile_qr_scan", "ios": "https://dc.lft.to/lastmile_qr_scan"}, "lon": -77.01003966666667, "name": "8874ad5fc3544114e6608eff32b44643", "lat": 38.91568316666667, "is_reserved": 0, "fusion_lat": 0.0, "bike_id": "8874ad5fc3544114e6608eff32b44643", "type": "electric_scooter", "is_disabled": 0, "fusion_lon": 0.0}, {"rental_uris": {"android": "https://dc.lft.to/lastmile_qr_scan", "ios": "https://dc.lft.to/lastmile_qr_scan"}, "lon": -77.04075216666666, "name": "f9ac81c9660b0ecf80c6702b1bf14e60", "lat": 38.9170885, "is_reserved": 0, "fusion_lat": 0.0, "bike_id": "f9ac81c9660b0ecf80c6702b1bf14e60", "type": "electric_scooter", "is_disabled": 0, "fusion_lon": 0.0}, {"rental_uris": {"android": "https://dc.lft.to/lastmile_qr_scan", "ios": "https://dc.lft.to/lastmile_qr_scan"}, "lon": -76.97859433333333, "name": "73180ec639e7126e417b8b9e6e6dd62d", "lat": 38.84468, "is_reserved": 0, "fusion_lat": 0.0, "bike_id": "73180ec639e7126e417b8b9e6e6dd62d", "type": "electric_bike", "is_disabled": 0, "fusion_lon": 0.0}, {"rental_uris": {"android": "https://dc.lft.to/lastmile_qr_scan", "ios": "https://dc.lft.to/lastmile_qr_scan"}, "lon": -77.02290266666667, "name": "813cf2dd53fbf459a476a0e756881e36", "lat": 38.89706566666667, "is_reserved": 0, "fusion_lat": 0.0, "bike_id": "813cf2dd53fbf459a476a0e756881e36", "type": "electric_scooter", "is_disabled": 0, "fusion_lon": 0.0}, {"rental_uris": {"android": "https://dc.lft.to/lastmile_qr_scan", "ios": "https://dc.lft.to/lastmile_qr_scan"}, "lon": -77.05035833333334, "name": "241ec0641a8e764ef3189a3b04432b6b", "lat": 38.9236015, "is_reserved": 0, "fusion_lat": 0.0, "bike_id": "241ec0641a8e764ef3189a3b04432b6b", "type": "electric_scooter", "is_disabled": 0, "fusion_lon": 0.0}, {"rental_uris": {"android": "https://dc.lft.to/lastmile_qr_scan", "ios": "https://dc.lft.to/lastmile_qr_scan"}, "lon": -76.96679166666667, "name": "a3a4c3b17d946b7467e891f3fec5f275", "lat": 38.85595216666667, "is_reserved": 0, "fusion_lat": 0.0, "bike_id": "a3a4c3b17d946b7467e891f3fec5f275", "type": "electric_scooter", "is_disabled": 0, "fusion_lon": 0.0}, {"rental_uris": {"android": "https://dc.lft.to/lastmile_qr_scan", "ios": "https://dc.lft.to/lastmile_qr_scan"}, "lon": -77.04483283333333, "name": "a6139a68a4674bae683d63707bc8f0a1", "lat": 38.90275716666667, "is_reserved": 0, "fusion_lat": 0.0, "bike_id": "a6139a68a4674bae683d63707bc8f0a1", "type": "electric_scooter", "is_disabled": 0, "fusion_lon": 0.0}, {"rental_uris": {"android": "https://dc.lft.to/lastmile_qr_scan", "ios": "https://dc.lft.to/lastmile_qr_scan"}, "lon": -77.01950383333333, "name": "bce36d4725a6bd16ea46e2c312366086", "lat": 38.92251183333333, "is_reserved": 0, "fusion_lat": 0.0, "bike_id": "bce36d4725a6bd16ea46e2c312366086", "type": "electric_scooter", "is_disabled": 0, "fusion_lon": 0.0}, {"rental_uris": {"android": "https://dc.lft.to/lastmile_qr_scan", "ios": "https://dc.lft.to/lastmile_qr_scan"}, "lon": -77.00619866666666, "name": "0e2282d4ddb88c8069e7b0afbee2b419", "lat": 38.905191333333335, "is_reserved": 0, "fusion_lat": 0.0, "bike_id": "0e2282d4ddb88c8069e7b0afbee2b419", "type": "electric_scooter", "is_disabled": 0, "fusion_lon": 0.0}, {"rental_uris": {"android": "https://dc.lft.to/lastmile_qr_scan", "ios": "https://dc.lft.to/lastmile_qr_scan"}, "lon": -77.02722933333334, "name": "db7fdd2f802323c1af2699e62d901976", "lat": 38.92571866666667, "is_reserved": 0, "fusion_lat": 0.0, "bike_id": "db7fdd2f802323c1af2699e62d901976", "type": "electric_scooter", "is_disabled": 0, "fusion_lon": 0.0}, {"rental_uris": {"android": "https://dc.lft.to/lastmile_qr_scan", "ios": "https://dc.lft.to/lastmile_qr_scan"}, "lon": -77.011015, "name": "ce1d3a0163a8dfd0e81f83148315b82c", "lat": 38.90726383333333, "is_reserved": 0, "fusion_lat": 0.0, "bike_id": "ce1d3a0163a8dfd0e81f83148315b82c", "type": "electric_scooter", "is_disabled": 0, "fusion_lon": 0.0}, {"rental_uris": {"android": "https://dc.lft.to/lastmile_qr_scan", "ios": "https://dc.lft.to/lastmile_qr_scan"}, "lon": -77.03158, "name": "d88ea21c3ac30504f2f15ece7c5f1bff", "lat": 38.895408, "is_reserved": 0, "fusion_lat": 0.0, "bike_id": "d88ea21c3ac30504f2f15ece7c5f1bff", "type": "electric_scooter", "is_disabled": 0, "fusion_lon": 0.0}, {"rental_uris": {"android": "https://dc.lft.to/lastmile_qr_scan", "ios": "https://dc.lft.to/lastmile_qr_scan"}, "lon": -77.01759466666667, "name": "fe5991f04f0d1496d206f8265b6ca9ae", "lat": 38.902713, "is_reserved": 0, "fusion_lat": 0.0, "bike_id": "fe5991f04f0d1496d206f8265b6ca9ae", "type": "electric_scooter", "is_disabled": 0, "fusion_lon": 0.0}, {"rental_uris": {"android": "https://dc.lft.to/lastmile_qr_scan", "ios": "https://dc.lft.to/lastmile_qr_scan"}, "lon": -77.02153966666667, "name": "3878c3c698d7d51cb87533743edb1541", "lat": 38.924581, "is_reserved": 0, "fusion_lat": 0.0, "bike_id": "3878c3c698d7d51cb87533743edb1541", "type": "electric_scooter", "is_disabled": 0, "fusion_lon": 0.0}, {"rental_uris": {"android": "https://dc.lft.to/lastmile_qr_scan", "ios": "https://dc.lft.to/lastmile_qr_scan"}, "lon": -76.94653983333333, "name": "6b34611858d42297d3b9436ff6b78310", "lat": 38.89825783333333, "is_reserved": 0, "fusion_lat": 0.0, "bike_id": "6b34611858d42297d3b9436ff6b78310", "type": "electric_scooter", "is_disabled": 0, "fusion_lon": 0.0}, {"rental_uris": {"android": "https://dc.lft.to/lastmile_qr_scan", "ios": "https://dc.lft.to/lastmile_qr_scan"}, "lon": -77.0200455, "name": "5c208be6ba96923fc966ea7453d39a94", "lat": 38.91363416666667, "is_reserved": 0, "fusion_lat": 0.0, "bike_id": "5c208be6ba96923fc966ea7453d39a94", "type": "electric_scooter", "is_disabled": 0, "fusion_lon": 0.0}, {"rental_uris": {"android": "https://dc.lft.to/lastmile_qr_scan", "ios": "https://dc.lft.to/lastmile_qr_scan"}, "lon": -77.0328105, "name": "1a084a2729a7abad576c0dd2e2479d41", "lat": 38.928097, "is_reserved": 0, "fusion_lat": 0.0, "bike_id": "1a084a2729a7abad576c0dd2e2479d41", "type": "electric_scooter", "is_disabled": 0, "fusion_lon": 0.0}, {"rental_uris": {"android": "https://dc.lft.to/lastmile_qr_scan", "ios": "https://dc.lft.to/lastmile_qr_scan"}, "lon": -77.008655, "name": "6b55e6beeadabed6662809f414e867e2", "lat": 38.9646075, "is_reserved": 0, "fusion_lat": 0.0, "bike_id": "6b55e6beeadabed6662809f414e867e2", "type": "electric_bike", "is_disabled": 0, "fusion_lon": 0.0}, {"rental_uris": {"android": "https://dc.lft.to/lastmile_qr_scan", "ios": "https://dc.lft.to/lastmile_qr_scan"}, "lon": -77.028327, "name": "4b31431aafbb4450cf08bf23315b6cc5", "lat": 38.93190533333333, "is_reserved": 0, "fusion_lat": 0.0, "bike_id": "4b31431aafbb4450cf08bf23315b6cc5", "type": "electric_scooter", "is_disabled": 0, "fusion_lon": 0.0}, {"rental_uris": {"android": "https://dc.lft.to/lastmile_qr_scan", "ios": "https://dc.lft.to/lastmile_qr_scan"}, "lon": -76.95758533333333, "name": "cf29756966350ccfc0b1cbc27260a2e7", "lat": 38.88427266666667, "is_reserved": 0, "fusion_lat": 0.0, "bike_id": "cf29756966350ccfc0b1cbc27260a2e7", "type": "electric_scooter", "is_disabled": 0, "fusion_lon": 0.0}, {"rental_uris": {"android": "https://dc.lft.to/lastmile_qr_scan", "ios": "https://dc.lft.to/lastmile_qr_scan"}, "lon": -77.03545316666667, "name": "2a2ec8e50da7c18da11cf0f743d930c3", "lat": 38.92474683333333, "is_reserved": 0, "fusion_lat": 0.0, "bike_id": "2a2ec8e50da7c18da11cf0f743d930c3", "type": "electric_scooter", "is_disabled": 0, "fusion_lon": 0.0}, {"rental_uris": {"android": "https://dc.lft.to/lastmile_qr_scan", "ios": "https://dc.lft.to/lastmile_qr_scan"}, "lon": -77.0317575, "name": "f09ed6c65efb5881d287f6f5225d707b", "lat": 38.9098445, "is_reserved": 0, "fusion_lat": 0.0, "bike_id": "f09ed6c65efb5881d287f6f5225d707b", "type": "electric_scooter", "is_disabled": 0, "fusion_lon": 0.0}, {"rental_uris": {"android": "https://dc.lft.to/lastmile_qr_scan", "ios": "https://dc.lft.to/lastmile_qr_scan"}, "lon": -77.00581416666667, "name": "93813e78f6d47dd46a0ab30f7fb0baeb", "lat": 38.929463166666665, "is_reserved": 0, "fusion_lat": 0.0, "bike_id": "93813e78f6d47dd46a0ab30f7fb0baeb", "type": "electric_scooter", "is_disabled": 0, "fusion_lon": 0.0}, {"rental_uris": {"android": "https://dc.lft.to/lastmile_qr_scan", "ios": "https://dc.lft.to/lastmile_qr_scan"}, "lon": -77.024757, "name": "8c747934ad1027703d53e4d5f58dff67", "lat": 38.9310375, "is_reserved": 0, "fusion_lat": 0.0, "bike_id": "8c747934ad1027703d53e4d5f58dff67", "type": "electric_scooter", "is_disabled": 0, "fusion_lon": 0.0}, {"rental_uris": {"android": "https://dc.lft.to/lastmile_qr_scan", "ios": "https://dc.lft.to/lastmile_qr_scan"}, "lon": -77.0257285, "name": "486af27bf87e65e1b67c5dbcf8537e68", "lat": 38.9240075, "is_reserved": 0, "fusion_lat": 0.0, "bike_id": "486af27bf87e65e1b67c5dbcf8537e68", "type": "electric_scooter", "is_disabled": 0, "fusion_lon": 0.0}, {"rental_uris": {"android": "https://dc.lft.to/lastmile_qr_scan", "ios": "https://dc.lft.to/lastmile_qr_scan"},