{"data": {"bikes": [{"lon": -76.97828666666666, "bike_id": "bf648557a8545aa88d219a128891d41e", "lat": 38.89917033333333, "fusion_lon": 0.0, "fusion_lat": 0.0, "type": "electric_scooter", "name": "bf648557a8545aa88d219a128891d41e", "is_disabled": 0, "rental_uris": {"ios": "https://dc.lft.to/lastmile_qr_scan", "android": "https://dc.lft.to/lastmile_qr_scan"}, "is_reserved": 0}, {"lon": -76.99867416666666, "bike_id": "2663e9b649b0af1fb6b5e1ed82ff67a7", "lat": 38.900294, "fusion_lon": 0.0, "fusion_lat": 0.0, "type": "electric_scooter", "name": "2663e9b649b0af1fb6b5e1ed82ff67a7", "is_disabled": 0, "rental_uris": {"ios": "https://dc.lft.to/lastmile_qr_scan", "android": "https://dc.lft.to/lastmile_qr_scan"}, "is_reserved": 0}, {"lon": -77.03447816666667, "bike_id": "13c787bab24f421c143b1a9096e4e7e1", "lat": 38.909555166666664, "fusion_lon": 0.0, "fusion_lat": 0.0, "type": "electric_scooter", "name": "13c787bab24f421c143b1a9096e4e7e1", "is_disabled": 0, "rental_uris": {"ios": "https://dc.lft.to/lastmile_qr_scan", "android": "https://dc.lft.to/lastmile_qr_scan"}, "is_reserved": 0}, {"lon": -77.03655283333333, "bike_id": "cd7d035a5e308e2b7ad44ff7ecfac072", "lat": 38.93645166666667, "fusion_lon": 0.0, "fusion_lat": 0.0, "type": "electric_scooter", "name": "cd7d035a5e308e2b7ad44ff7ecfac072", "is_disabled": 0, "rental_uris": {"ios": "https://dc.lft.to/lastmile_qr_scan", "android": "https://dc.lft.to/lastmile_qr_scan"}, "is_reserved": 0}, {"lon": -77.04416666666667, "bike_id": "774685c26e0a35437b0e33cffe6d944d", "lat": 38.89751233333333, "fusion_lon": 0.0, "fusion_lat": 0.0, "type": "electric_scooter", "name": "774685c26e0a35437b0e33cffe6d944d", "is_disabled": 0, "rental_uris": {"ios": "https://dc.lft.to/lastmile_qr_scan", "android": "https://dc.lft.to/lastmile_qr_scan"}, "is_reserved": 0}, {"lon": -77.019065, "bike_id": "9b1e0c555e7bc5a54d97b2ccd52b005c", "lat": 38.915132166666666, "fusion_lon": 0.0, "fusion_lat": 0.0, "type": "electric_scooter", "name": "9b1e0c555e7bc5a54d97b2ccd52b005c", "is_disabled": 0, "rental_uris": {"ios": "https://dc.lft.to/lastmile_qr_scan", "android": "https://dc.lft.to/lastmile_qr_scan"}, "is_reserved": 0}, {"lon": -77.03667566666667, "bike_id": "5b1e0cf09dfc10dcbb9666a87000e04d", "lat": 38.93205583333334, "fusion_lon": 0.0, "fusion_lat": 0.0, "type": "electric_scooter", "name": "5b1e0cf09dfc10dcbb9666a87000e04d", "is_disabled": 0, "rental_uris": {"ios": "https://dc.lft.to/lastmile_qr_scan", "android": "https://dc.lft.to/lastmile_qr_scan"}, "is_reserved": 0}, {"lon": -77.02289666666667, "bike_id": "5377bd9ab2e1db7ce5234f646d76caa9", "lat": 38.917478833333334, "fusion_lon": 0.0, "fusion_lat": 0.0, "type": "electric_scooter", "name": "5377bd9ab2e1db7ce5234f646d76caa9", "is_disabled": 0, "rental_uris": {"ios": "https://dc.lft.to/lastmile_qr_scan", "android": "https://dc.lft.to/lastmile_qr_scan"}, "is_reserved": 0}, {"lon": -77.04488066666667, "bike_id": "b70e1ae1b4d4137661e6025da6c536de", "lat": 38.89239966666667, "fusion_lon": 0.0, "fusion_lat": 0.0, "type": "electric_scooter", "name": "b70e1ae1b4d4137661e6025da6c536de", "is_disabled": 0, "rental_uris": {"ios": "https://dc.lft.to/lastmile_qr_scan", "android": "https://dc.lft.to/lastmile_qr_scan"}, "is_reserved": 0}, {"lon": -76.994746, "bike_id": "dd62ac3b062c688bb542b9da8278a330", "lat": 38.86230166666667, "fusion_lon": 0.0, "fusion_lat": 0.0, "type": "electric_scooter", "name": "dd62ac3b062c688bb542b9da8278a330", "is_disabled": 0, "rental_uris": {"ios": "https://dc.lft.to/lastmile_qr_scan", "android": "https://dc.lft.to/lastmile_qr_scan"}, "is_reserved": 0}, {"lon": -77.040475, "bike_id": "6224fdc9621248998dfce5d631bbdf6c", "lat": 38.90871833333333, "fusion_lon": 0.0, "fusion_lat": 0.0, "type": "electric_scooter", "name": "6224fdc9621248998dfce5d631bbdf6c", "is_disabled": 0, "rental_uris": {"ios": "https://dc.lft.to/lastmile_qr_scan", "android": "https://dc.lft.to/lastmile_qr_scan"}, "is_reserved": 0}, {"lon": -77.03323416666667, "bike_id": "be84ba5c4d9bcc771797f6c76b6b560e", "lat": 38.947193166666665, "fusion_lon": 0.0, "fusion_lat": 0.0, "type": "electric_scooter", "name": "be84ba5c4d9bcc771797f6c76b6b560e", "is_disabled": 0, "rental_uris": {"ios": "https://dc.lft.to/lastmile_qr_scan", "android": "https://dc.lft.to/lastmile_qr_scan"}, "is_reserved": 0}, {"lon": -77.01482716666666, "bike_id": "72eef286127c7a9c7d78da41ef9f9432", "lat": 38.940664, "fusion_lon": 0.0, "fusion_lat": 0.0, "type": "electric_bike", "name": "72eef286127c7a9c7d78da41ef9f9432", "is_disabled": 0, "rental_uris": {"ios": "https://dc.lft.to/lastmile_qr_scan", "android": "https://dc.lft.to/lastmile_qr_scan"}, "is_reserved": 0}, {"lon": -77.00339833333334, "bike_id": "e0146925b81fff664269a78c7f7f2dd0", "lat": 38.89923783333333, "fusion_lon": 0.0, "fusion_lat": 0.0, "type": "electric_scooter", "name": "e0146925b81fff664269a78c7f7f2dd0", "is_disabled": 0, "rental_uris": {"ios": "https://dc.lft.to/lastmile_qr_scan", "android": "https://dc.lft.to/lastmile_qr_scan"}, "is_reserved": 0}, {"lon": -77.026679, "bike_id": "fb3646971d1e23f53abb229ebf47e30a", "lat": 38.921827666666665, "fusion_lon": 0.0, "fusion_lat": 0.0, "type": "electric_scooter", "name": "fb3646971d1e23f53abb229ebf47e30a", "is_disabled": 0, "rental_uris": {"ios": "https://dc.lft.to/lastmile_qr_scan", "android": "https://dc.lft.to/lastmile_qr_scan"}, "is_reserved": 0}, {"lon": -77.04353133333333, "bike_id": "241e482ad5a9e41b847b7df5a935ad4b", "lat": 38.921745, "fusion_lon": 0.0, "fusion_lat": 0.0, "type": "electric_scooter", "name": "241e482ad5a9e41b847b7df5a935ad4b", "is_disabled": 0, "rental_uris": {"ios": "https://dc.lft.to/lastmile_qr_scan", "android": "https://dc.lft.to/lastmile_qr_scan"}, "is_reserved": 0}, {"lon": -77.03179833333333, "bike_id": "2119f9ae6e409edbdc02eaf76de1c7f2", "lat": 38.8919995, "fusion_lon": 0.0, "fusion_lat": 0.0, "type": "electric_scooter", "name": "2119f9ae6e409edbdc02eaf76de1c7f2", "is_disabled": 0, "rental_uris": {"ios": "https://dc.lft.to/lastmile_qr_scan", "android": "https://dc.lft.to/lastmile_qr_scan"}, "is_reserved": 0}, {"lon": -77.026924, "bike_id": "c9e86300172b5a50922314cae0f983f9", "lat": 38.926686, "fusion_lon": 0.0, "fusion_lat": 0.0, "type": "electric_scooter", "name": "c9e86300172b5a50922314cae0f983f9", "is_disabled": 0, "rental_uris": {"ios": "https://dc.lft.to/lastmile_qr_scan", "android": "https://dc.lft.to/lastmile_qr_scan"}, "is_reserved": 0}, {"lon": -77.0225815, "bike_id": "b3a739d557788bb28e6b87be10d94961", "lat": 38.937644, "fusion_lon": 0.0, "fusion_lat": 0.0, "type": "electric_scooter", "name": "b3a739d557788bb28e6b87be10d94961", "is_disabled": 0, "rental_uris": {"ios": "https://dc.lft.to/lastmile_qr_scan", "android": "https://dc.lft.to/lastmile_qr_scan"}, "is_reserved": 0}, {"lon": -77.04487183333333, "bike_id": "98489945563d6dbd5c3612a1cd83a402", "lat": 38.89241966666667, "fusion_lon": 0.0, "fusion_lat": 0.0, "type": "electric_scooter", "name": "98489945563d6dbd5c3612a1cd83a402", "is_disabled": 0, "rental_uris": {"ios": "https://dc.lft.to/lastmile_qr_scan", "android": "https://dc.lft.to/lastmile_qr_scan"}, "is_reserved": 0}, {"lon": -77.0127675, "bike_id": "5ce8d36eb6367a8ac7bb1ab4c6ed4f33", "lat": 38.915646833333334, "fusion_lon": 0.0, "fusion_lat": 0.0, "type": "electric_scooter", "name": "5ce8d36eb6367a8ac7bb1ab4c6ed4f33", "is_disabled": 0, "rental_uris": {"ios": "https://dc.lft.to/lastmile_qr_scan", "android": "https://dc.lft.to/lastmile_qr_scan"}, "is_reserved": 0}, {"lon": -77.0053125, "bike_id": "7f6422e1802e0aacfadccf388d8382df", "lat": 38.92977483333333, "fusion_lon": 0.0, "fusion_lat": 0.0, "type": "electric_scooter", "name": "7f6422e1802e0aacfadccf388d8382df", "is_disabled": 0, "rental_uris": {"ios": "https://dc.lft.to/lastmile_qr_scan", "android": "https://dc.lft.to/lastmile_qr_scan"}, "is_reserved": 0}, {"lon": -77.05256716666666, "bike_id": "5a7020bca1e79c64369c850289a93a20", "lat": 38.925715, "fusion_lon": 0.0, "fusion_lat": 0.0, "type": "electric_scooter", "name": "5a7020bca1e79c64369c850289a93a20", "is_disabled": 0, "rental_uris": {"ios": "https://dc.lft.to/lastmile_qr_scan", "android": "https://dc.lft.to/lastmile_qr_scan"}, "is_reserved": 0}, {"lon": -77.02067616666666, "bike_id": "17c408aacfd848a3f465b06513403578", "lat": 38.899884, "fusion_lon": 0.0, "fusion_lat": 0.0, "type": "electric_scooter", "name": "17c408aacfd848a3f465b06513403578", "is_disabled": 0, "rental_uris": {"ios": "https://dc.lft.to/lastmile_qr_scan", "android": "https://dc.lft.to/lastmile_qr_scan"}, "is_reserved": 0}, {"lon": -76.98526866666667, "bike_id": "befe9e870eeb5d4729b9554fceb4a63b", "lat": 38.866881666666664, "fusion_lon": 0.0, "fusion_lat": 0.0, "type": "electric_scooter", "name": "befe9e870eeb5d4729b9554fceb4a63b", "is_disabled": 0, "rental_uris": {"ios": "https://dc.lft.to/lastmile_qr_scan", "android": "https://dc.lft.to/lastmile_qr_scan"}, "is_reserved": 0}, {"lon": -76.93066683333333, "bike_id": "87d5ef3700b3d13f8b5f1fadbb0737f6", "lat": 38.88389883333333, "fusion_lon": 0.0, "fusion_lat": 0.0, "type": "electric_scooter", "name": "87d5ef3700b3d13f8b5f1fadbb0737f6", "is_disabled": 0, "rental_uris": {"ios": "https://dc.lft.to/lastmile_qr_scan", "android": "https://dc.lft.to/lastmile_qr_scan"}, "is_reserved": 0}, {"lon": -77.02225383333334, "bike_id": "382c1617b6fa838cf069485a1c1004e9", "lat": 38.912570333333335, "fusion_lon": 0.0, "fusion_lat": 0.0, "type": "electric_scooter", "name": "382c1617b6fa838cf069485a1c1004e9", "is_disabled": 0, "rental_uris": {"ios": "https://dc.lft.to/lastmile_qr_scan", "android": "https://dc.lft.to/lastmile_qr_scan"}, "is_reserved": 0}, {"lon": -77.02043283333333, "bike_id": "aafc05a1ef409eacf822acf7a8ff1a25", "lat": 38.90865683333333, "fusion_lon": 0.0, "fusion_lat": 0.0, "type": "electric_scooter", "name": "aafc05a1ef409eacf822acf7a8ff1a25", "is_disabled": 0, "rental_uris": {"ios": "https://dc.lft.to/lastmile_qr_scan", "android": "https://dc.lft.to/lastmile_qr_scan"}, "is_reserved": 0}, {"lon": -77.02655883333334, "bike_id": "15c05251f27024d2e40e17aaf691b246", "lat": 38.917071, "fusion_lon": 0.0, "fusion_lat": 0.0, "type": "electric_scooter", "name": "15c05251f27024d2e40e17aaf691b246", "is_disabled": 0, "rental_uris": {"ios": "https://dc.lft.to/lastmile_qr_scan", "android": "https://dc.lft.to/lastmile_qr_scan"}, "is_reserved": 0}, {"lon": -77.00961433333333, "bike_id": "d334efe3a8226864c049d62475b8e1b7", "lat": 38.95339833333333, "fusion_lon": 0.0, "fusion_lat": 0.0, "type": "electric_bike", "name": "d334efe3a8226864c049d62475b8e1b7", "is_disabled": 0, "rental_uris": {"ios": "https://dc.lft.to/lastmile_qr_scan", "android": "https://dc.lft.to/lastmile_qr_scan"}, "is_reserved": 0}, {"lon": -77.0272605, "bike_id": "560eccd4bb73f16fb09e8a705214730e", "lat": 38.951365833333334, "fusion_lon": 0.0, "fusion_lat": 0.0, "type": "electric_scooter", "name": "560eccd4bb73f16fb09e8a705214730e", "is_disabled": 0, "rental_uris": {"ios": "https://dc.lft.to/lastmile_qr_scan", "android": "https://dc.lft.to/lastmile_qr_scan"}, "is_reserved": 0}, {"lon": -77.07391333333334, "bike_id": "b0b827226d5fff17e9808708c68c2f69", "lat": 38.962129, "fusion_lon": 0.0, "fusion_lat": 0.0, "type": "electric_scooter", "name": "b0b827226d5fff17e9808708c68c2f69", "is_disabled": 0, "rental_uris": {"ios": "https://dc.lft.to/lastmile_qr_scan", "android": "https://dc.lft.to/lastmile_qr_scan"}, "is_reserved": 0}, {"lon": -77.02975666666667, "bike_id": "6e7f7058503adc198cceee4d7a83375a", "lat": 38.92318616666667, "fusion_lon": 0.0, "fusion_lat": 0.0, "type": "electric_scooter", "name": "6e7f7058503adc198cceee4d7a83375a", "is_disabled": 0, "rental_uris": {"ios": "https://dc.lft.to/lastmile_qr_scan", "android": "https://dc.lft.to/lastmile_qr_scan"}, "is_reserved": 0}, {"lon": -77.0255965, "bike_id": "57d82875fdeb7ad7b5838812738c2208", "lat": 38.9096545, "fusion_lon": 0.0, "fusion_lat": 0.0, "type": "electric_scooter", "name": "57d82875fdeb7ad7b5838812738c2208", "is_disabled": 0, "rental_uris": {"ios": "https://dc.lft.to/lastmile_qr_scan", "android": "https://dc.lft.to/lastmile_qr_scan"}, "is_reserved": 0}, {"lon": -77.04787083333333, "bike_id": "1838d2adbd8433a001842da97eb17fb1", "lat": 38.82953633333333, "fusion_lon": 0.0, "fusion_lat": 0.0, "type": "electric_bike", "name": "1838d2adbd8433a001842da97eb17fb1", "is_disabled": 0, "rental_uris": {"ios": "https://dc.lft.to/lastmile_qr_scan", "android": "https://dc.lft.to/lastmile_qr_scan"}, "is_reserved": 0}, {"lon": -76.98528966666666, "bike_id": "b95281be69456e8d8b07c520d2340a79", "lat": 38.86688683333333, "fusion_lon": 0.0, "fusion_lat": 0.0, "type": "electric_scooter", "name": "b95281be69456e8d8b07c520d2340a79", "is_disabled": 0, "rental_uris": {"ios": "https://dc.lft.to/lastmile_qr_scan", "android": "https://dc.lft.to/lastmile_qr_scan"}, "is_reserved": 0}, {"lon": -77.02402516666666, "bike_id": "008cb7549b21734f5eea65507bd25e36", "lat": 38.891919, "fusion_lon": 0.0, "fusion_lat": 0.0, "type": "electric_scooter", "name": "008cb7549b21734f5eea65507bd25e36", "is_disabled": 0, "rental_uris": {"ios": "https://dc.lft.to/lastmile_qr_scan", "android": "https://dc.lft.to/lastmile_qr_scan"}, "is_reserved": 0}, {"lon": -77.04320816666667, "bike_id": "2aca82dfc543563b6e2c70e768d4151f", "lat": 38.9069045, "fusion_lon": 0.0, "fusion_lat": 0.0, "type": "electric_scooter", "name": "2aca82dfc543563b6e2c70e768d4151f", "is_disabled": 0, "rental_uris": {"ios": "https://dc.lft.to/lastmile_qr_scan", "android": "https://dc.lft.to/lastmile_qr_scan"}, "is_reserved": 0}, {"lon": -76.98595933333333, "bike_id": "98bbcca8669ca2b22a4fa01c204b7a61", "lat": 38.866881666666664, "fusion_lon": 0.0, "fusion_lat": 0.0, "type": "electric_scooter", "name": "98bbcca8669ca2b22a4fa01c204b7a61", "is_disabled": 0, "rental_uris": {"ios": "https://dc.lft.to/lastmile_qr_scan", "android": "https://dc.lft.to/lastmile_qr_scan"}, "is_reserved": 0}, {"lon": -77.11578816666666, "bike_id": "6e5bed8da9535582f2979f16961d3549", "lat": 38.99344933333333, "fusion_lon": 0.0, "fusion_lat": 0.0, "type": "electric_bike", "name": "6e5bed8da9535582f2979f16961d3549", "is_disabled": 0, "rental_uris": {"ios": "https://dc.lft.to/lastmile_qr_scan", "android": "https://dc.lft.to/lastmile_qr_scan"}, "is_reserved": 0}, {"lon": -77.03387583333334, "bike_id": "a675cc92869e5ef28951d9a5e8ec364d", "lat": 38.921503333333334, "fusion_lon": 0.0, "fusion_lat": 0.0, "type": "electric_scooter", "name": "a675cc92869e5ef28951d9a5e8ec364d", "is_disabled": 0, "rental_uris": {"ios": "https://dc.lft.to/lastmile_qr_scan", "android": "https://dc.lft.to/lastmile_qr_scan"}, "is_reserved": 0}, {"lon": -77.03273883333334, "bike_id": "471e1fb9335fe5a0aed98762d35479b7", "lat": 38.9415465, "fusion_lon": 0.0, "fusion_lat": 0.0, "type": "electric_scooter", "name": "471e1fb9335fe5a0aed98762d35479b7", "is_disabled": 0, "rental_uris": {"ios": "https://dc.lft.to/lastmile_qr_scan", "android": "https://dc.lft.to/lastmile_qr_scan"}, "is_reserved": 0}, {"lon": -77.01662816666666, "bike_id": "2a1d8f9d91249086018cdd01167c3867", "lat": 38.9174365, "fusion_lon": 0.0, "fusion_lat": 0.0, "type": "electric_scooter", "name": "2a1d8f9d91249086018cdd01167c3867", "is_disabled": 0, "rental_uris": {"ios": "https://dc.lft.to/lastmile_qr_scan", "android": "https://dc.lft.to/lastmile_qr_scan"}, "is_reserved": 0}, {"lon": -77.04270766666667, "bike_id": "0dcfc73bdba2e7612cfbb8fbb8ff12c9", "lat": 38.9223715, "fusion_lon": 0.0, "fusion_lat": 0.0, "type": "electric_scooter", "name": "0dcfc73bdba2e7612cfbb8fbb8ff12c9", "is_disabled": 0, "rental_uris": {"ios": "https://dc.lft.to/lastmile_qr_scan", "android": "https://dc.lft.to/lastmile_qr_scan"}, "is_reserved": 0}, {"lon": -77.03611483333333, "bike_id": "144a8d51c36f8621d94f25b8b5753fee", "lat": 38.92332233333333, "fusion_lon": 0.0, "fusion_lat": 0.0, "type": "electric_scooter", "name": "144a8d51c36f8621d94f25b8b5753fee", "is_disabled": 0, "rental_uris": {"ios": "https://dc.lft.to/lastmile_qr_scan", "android": "https://dc.lft.to/lastmile_qr_scan"}, "is_reserved": 0}, {"lon": -77.0415395, "bike_id": "e4ed5be769da777c47ce355d0257f0c6", "lat": 38.919945, "fusion_lon": 0.0, "fusion_lat": 0.0, "type": "electric_scooter", "name": "e4ed5be769da777c47ce355d0257f0c6", "is_disabled": 0, "rental_uris": {"ios": "https://dc.lft.to/lastmile_qr_scan", "android": "https://dc.lft.to/lastmile_qr_scan"}, "is_reserved": 0}, {"lon": -77.04850233333333, "bike_id": "9427b4edaf5225d587d812284ea1a552", "lat": 38.90470166666667, "fusion_lon": 0.0, "fusion_lat": 0.0, "type": "electric_bike", "name": "9427b4edaf5225d587d812284ea1a552", "is_disabled": 0, "rental_uris": {"ios": "https://dc.lft.to/lastmile_qr_scan", "android": "https://dc.lft.to/lastmile_qr_scan"}, "is_reserved": 0}, {"lon": -77.04486733333333, "bike_id": "4b042b9aa11b6e2ed6db04e74f1654f7", "lat": 38.89237516666667, "fusion_lon": 0.0, "fusion_lat": 0.0, "type": "electric_scooter", "name": "4b042b9aa11b6e2ed6db04e74f1654f7", "is_disabled": 0, "rental_uris": {"ios": "https://dc.lft.to/lastmile_qr_scan", "android": "https://dc.lft.to/lastmile_qr_scan"}, "is_reserved": 0}, {"lon": -76.97529983333334, "bike_id": "202645fc340d5108ed6f41b534169f98", "lat": 38.903310166666664, "fusion_lon": 0.0, "fusion_lat": 0.0, "type": "electric_bike", "name": "202645fc340d5108ed6f41b534169f98", "is_disabled": 0, "rental_uris": {"ios": "https://dc.lft.to/lastmile_qr_scan", "android": "https://dc.lft.to/lastmile_qr_scan"}, "is_reserved": 0}, {"lon": -77.023874, "bike_id": "d014c23823fbe4da3e259181cd87d1c2", "lat": 38.93430633333333, "fusion_lon": 0.0, "fusion_lat": 0.0, "type": "electric_bike", "name": "d014c23823fbe4da3e259181cd87d1c2", "is_disabled": 0, "rental_uris": {"ios": "https://dc.lft.to/lastmile_qr_scan", "android": "https://dc.lft.to/lastmile_qr_scan"}, "is_reserved": 0}, {"lon": -77.01763016666666, "bike_id": "6259bb23bb0106ba72c1c08fd7263f04", "lat": 38.8772345, "fusion_lon": 0.0, "fusion_lat": 0.0, "type": "electric_scooter", "name": "6259bb23bb0106ba72c1c08fd7263f04", "is_disabled": 0, "rental_uris": {"ios": "https://dc.lft.to/lastmile_qr_scan", "android": "https://dc.lft.to/lastmile_qr_scan"}, "is_reserved": 0}, {"lon": -77.0219225, "bike_id": "ed1e36616fe5c118b2a93661d47c4839", "lat": 38.89474766666667, "fusion_lon": 0.0, "fusion_lat": 0.0, "type": "electric_scooter", "name": "ed1e36616fe5c118b2a93661d47c4839", "is_disabled": 0, "rental_uris": {"ios": "https://dc.lft.to/lastmile_qr_scan", "android": "https://dc.lft.to/lastmile_qr_scan"}, "is_reserved": 0}, {"lon": -77.11781516666667, "bike_id": "5078ff4cb1d42577c43715ca601a703c", "lat": 39.05493333333333, "fusion_lon": 0.0, "fusion_lat": 0.0, "type": "electric_bike", "name": "5078ff4cb1d42577c43715ca601a703c", "is_disabled": 0, "rental_uris": {"ios": "https://dc.lft.to/lastmile_qr_scan", "android": "https://dc.lft.to/lastmile_qr_scan"}, "is_reserved": 0}, {"lon": -77.05704466666667, "bike_id": "e920e3f41d36dbaf0b98fe7083eb5766", "lat": 38.905425, "fusion_lon": 0.0, "fusion_lat": 0.0, "type": "electric_scooter", "name": "e920e3f41d36dbaf0b98fe7083eb5766", "is_disabled": 0, "rental_uris": {"ios": "https://dc.lft.to/lastmile_qr_scan", "android": "https://dc.lft.to/lastmile_qr_scan"}, "is_reserved": 0}, {"lon": -77.0417535, "bike_id": "78308bb7d6b30537255d04553b0ac380", "lat": 38.91794483333334, "fusion_lon": 0.0, "fusion_lat": 0.0, "type": "electric_scooter", "name": "78308bb7d6b30537255d04553b0ac380", "is_disabled": 0, "rental_uris": {"ios": "https://dc.lft.to/lastmile_qr_scan", "android": "https://dc.lft.to/lastmile_qr_scan"}, "is_reserved": 0}, {"lon": -77.024131, "bike_id": "1b6bbcbe3f27f3c610c805aac1a2f65e", "lat": 38.918297833333334, "fusion_lon": 0.0, "fusion_lat": 0.0, "type": "electric_scooter", "name": "1b6bbcbe3f27f3c610c805aac1a2f65e", "is_disabled": 0, "rental_uris": {"ios": "https://dc.lft.to/lastmile_qr_scan", "android": "https://dc.lft.to/lastmile_qr_scan"}, "is_reserved": 0}, {"lon": -77.01760716666666, "bike_id": "9084349802c28a946813625409237862", "lat": 38.87668816666667, "fusion_lon": 0.0, "fusion_lat": 0.0, "type": "electric_scooter", "name": "9084349802c28a946813625409237862", "is_disabled": 0, "rental_uris": {"ios": "https://dc.lft.to/lastmile_qr_scan", "android": "https://dc.lft.to/lastmile_qr_scan"}, "is_reserved": 0}, {"lon": -77.0271225, "bike_id": "13a2d53a1dc6033386055712c34b8aeb", "lat": 38.909509, "fusion_lon": 0.0, "fusion_lat": 0.0, "type": "electric_scooter", "name": "13a2d53a1dc6033386055712c34b8aeb", "is_disabled": 0, "rental_uris": {"ios": "https://dc.lft.to/lastmile_qr_scan", "android": "https://dc.lft.to/lastmile_qr_scan"}, "is_reserved": 0}, {"lon": -77.04334633333333, "bike_id": "bc581fc0db2e745d8b299aa155c1a77c", "lat": 38.892224166666665, "fusion_lon": 0.0, "fusion_lat": 0.0, "type": "electric_scooter", "name": "bc581fc0db2e745d8b299aa155c1a77c", "is_disabled": 0, "rental_uris": {"ios": "https://dc.lft.to/lastmile_qr_scan", "android": "https://dc.lft.to/lastmile_qr_scan"}, "is_reserved": 0}, {"lon": -77.04349733333333, "bike_id": "5dcf1e1a3e0684ee843d0f8a481ffbfc", "lat": 38.92164266666666, "fusion_lon": 0.0, "fusion_lat": 0.0, "type": "electric_scooter", "name": "5dcf1e1a3e0684ee843d0f8a481ffbfc", "is_disabled": 0, "rental_uris": {"ios": "https://dc.lft.to/lastmile_qr_scan", "android": "https://dc.lft.to/lastmile_qr_scan"}, "is_reserved": 0}, {"lon": -77.02194283333333, "bike_id": "56c4fdf4e3a7c4daf1cc114998d0c091", "lat": 38.91478933333333, "fusion_lon": 0.0, "fusion_lat": 0.0, "type": "electric_scooter", "name": "56c4fdf4e3a7c4daf1cc114998d0c091", "is_disabled": 0, "rental_uris": {"ios": "https://dc.lft.to/lastmile_qr_scan", "android": "https://dc.lft.to/lastmile_qr_scan"}, "is_reserved": 0}, {"lon": -77.024509, "bike_id": "7189bc9b0ce0f87821fe83f3176cda56", "lat": 38.91415533333333, "fusion_lon": 0.0, "fusion_lat": 0.0, "type": "electric_scooter", "name": "7189bc9b0ce0f87821fe83f3176cda56", "is_disabled": 0, "rental_uris": {"ios": "https://dc.lft.to/lastmile_qr_scan", "android": "https://dc.lft.to/lastmile_qr_scan"}, "is_reserved": 0}, {"lon": -77.02118866666666, "bike_id": "d51e8e0c668a1659c041ae1d47375c02", "lat": 38.9370195, "fusion_lon": 0.0, "fusion_lat": 0.0, "type": "electric_scooter", "name": "d51e8e0c668a1659c041ae1d47375c02", "is_disabled": 0, "rental_uris": {"ios": "https://dc.lft.to/lastmile_qr_scan", "android": "https://dc.lft.to/lastmile_qr_scan"}, "is_reserved": 0}, {"lon": -77.00834716666667, "bike_id": "5e956685b70a39862e82c37de488f8ba", "lat": 38.87926433333333, "fusion_lon": 0.0, "fusion_lat": 0.0, "type": "electric_scooter", "name": "5e956685b70a39862e82c37de488f8ba", "is_disabled": 0, "rental_uris": {"ios": "https://dc.lft.to/lastmile_qr_scan", "android": "https://dc.lft.to/lastmile_qr_scan"}, "is_reserved": 0}, {"lon": -76.94883816666666, "bike_id": "6f694fcdcec127dc0ac0a94f7cbb64cb", "lat": 38.89506816666667, "fusion_lon": 0.0, "fusion_lat": 0.0, "type": "electric_scooter", "name": "6f694fcdcec127dc0ac0a94f7cbb64cb", "is_disabled": 0, "rental_uris": {"ios": "https://dc.lft.to/lastmile_qr_scan", "android": "https://dc.lft.to/lastmile_qr_scan"}, "is_reserved": 0}, {"lon": -77.0353425, "bike_id": "efe4dbcefe74d3c7d1799d274632a1da", "lat": 38.926342, "fusion_lon": 0.0, "fusion_lat": 0.0, "type": "electric_scooter", "name": "efe4dbcefe74d3c7d1799d274632a1da", "is_disabled": 0, "rental_uris": {"ios": "https://dc.lft.to/lastmile_qr_scan", "android": "https://dc.lft.to/lastmile_qr_scan"}, "is_reserved": 0}, {"lon": -77.034484, "bike_id": "1a2aae6e0178fe75889210439d762669", "lat": 38.90812666666667, "fusion_lon": 0.0, "fusion_lat": 0.0, "type": "electric_scooter", "name": "1a2aae6e0178fe75889210439d762669", "is_disabled": 0, "rental_uris": {"ios": "https://dc.lft.to/lastmile_qr_scan", "android": "https://dc.lft.to/lastmile_qr_scan"}, "is_reserved": 0}, {"lon": -76.95476966666666, "bike_id": "cf41dc41f4498e8a369aa740b409c6b3", "lat": 38.884698, "fusion_lon": 0.0, "fusion_lat": 0.0, "type": "electric_scooter", "name": "cf41dc41f4498e8a369aa740b409c6b3", "is_disabled": 0, "rental_uris": {"ios": "https://dc.lft.to/lastmile_qr_scan", "android": "https://dc.lft.to/lastmile_qr_scan"}, "is_reserved": 0}, {"lon": -76.942903, "bike_id": "9fa6fb0f820f564b9480ec30f0ef372b", "lat": 38.93871566666667, "fusion_lon": 0.0, "fusion_lat": 0.0, "type": "electric_bike", "name": "9fa6fb0f820f564b9480ec30f0ef372b", "is_disabled": 0, "rental_uris": {"ios": "https://dc.lft.to/lastmile_qr_scan", "android": "https://dc.lft.to/lastmile_qr_scan"}, "is_reserved": 0}, {"lon": -77.04193166666667, "bike_id": "d5ada9e1ec137e782202bf701171aed0", "lat": 38.899814, "fusion_lon": 0.0, "fusion_lat": 0.0, "type": "electric_scooter", "name": "d5ada9e1ec137e782202bf701171aed0", "is_disabled": 0, "rental_uris": {"ios": "https://dc.lft.to/lastmile_qr_scan", "android": "https://dc.lft.to/lastmile_qr_scan"}, "is_reserved": 0}, {"lon": -76.99026266666667, "bike_id": "2451150182f78d21972b6c0c1f292f98", "lat": 38.891768666666664, "fusion_lon": 0.0, "fusion_lat": 0.0, "type": "electric_scooter", "name": "2451150182f78d21972b6c0c1f292f98", "is_disabled": 0, "rental_uris": {"ios": "https://dc.lft.to/lastmile_qr_scan", "android": "https://dc.lft.to/lastmile_qr_scan"}, "is_reserved": 0}, {"lon": -77.02627766666667, "bike_id": "4a41e4a116e82c45c830a2e7b86a47bd", "lat": 38.962272166666665, "fusion_lon": 0.0, "fusion_lat": 0.0, "type": "electric_bike", "name": "4a41e4a116e82c45c830a2e7b86a47bd", "is_disabled": 0, "rental_uris": {"ios": "https://dc.lft.to/lastmile_qr_scan", "android": "https://dc.lft.to/lastmile_qr_scan"}, "is_reserved": 0}, {"lon": -77.0625425, "bike_id": "a6b9947edcf4989a8f3f87fac51e9a3c", "lat": 38.94417683333333, "fusion_lon": 0.0, "fusion_lat": 0.0, "type": "electric_scooter", "name": "a6b9947edcf4989a8f3f87fac51e9a3c", "is_disabled": 0, "rental_uris": {"ios": "https://dc.lft.to/lastmile_qr_scan", "android": "https://dc.lft.to/lastmile_qr_scan"}, "is_reserved": 0}, {"lon": -77.021798, "bike_id": "ecc2e8cb7060774e38adb968ddc178f9", "lat": 38.887243, "fusion_lon": 0.0, "fusion_lat": 0.0, "type": "electric_scooter", "name": "ecc2e8cb7060774e38adb968ddc178f9", "is_disabled": 0, "rental_uris": {"ios": "https://dc.lft.to/lastmile_qr_scan", "android": "https://dc.lft.to/lastmile_qr_scan"}, "is_reserved": 0}, {"lon": -77.03261316666666, "bike_id": "cde6c15dff68a4714682ff6f350b6a69", "lat": 38.9354645, "fusion_lon": 0.0, "fusion_lat": 0.0, "type": "electric_scooter", "name": "cde6c15dff68a4714682ff6f350b6a69", "is_disabled": 0, "rental_uris": {"ios": "https://dc.lft.to/lastmile_qr_scan", "android": "https://dc.lft.to/lastmile_qr_scan"}, "is_reserved": 0}, {"lon": -77.10092583333333, "bike_id": "0ea823f6f104c492095a880eb4546db0", "lat": 38.959546, "fusion_lon": 0.0, "fusion_lat": 0.0, "type": "electric_bike", "name": "0ea823f6f104c492095a880eb4546db0", "is_disabled": 0, "rental_uris": {"ios": "https://dc.lft.to/lastmile_qr_scan", "android": "https://dc.lft.to/lastmile_qr_scan"}, "is_reserved": 0}, {"lon": -76.99547033333333, "bike_id": "121adf0de8f4c2b3383ad4e68a4c9734", "lat": 38.831643166666666, "fusion_lon": 0.0, "fusion_lat": 0.0, "type": "electric_bike", "name": "121adf0de8f4c2b3383ad4e68a4c9734", "is_disabled": 0, "rental_uris": {"ios": "https://dc.lft.to/lastmile_qr_scan", "android": "https://dc.lft.to/lastmile_qr_scan"}, "is_reserved": 0}, {"lon": -77.00562483333333, "bike_id": "359fecd659a9e6bcdd6c91e0fb25c08c", "lat": 38.9056625, "fusion_lon": 0.0, "fusion_lat": 0.0, "type": "electric_scooter", "name": "359fecd659a9e6bcdd6c91e0fb25c08c", "is_disabled": 0, "rental_uris": {"ios": "https://dc.lft.to/lastmile_qr_scan", "android": "https://dc.lft.to/lastmile_qr_scan"}, "is_reserved": 0}, {"lon": -76.98936283333333, "bike_id": "f17378895c2834ca4d3daf7953d0f808", "lat": 38.8657235, "fusion_lon": 0.0, "fusion_lat": 0.0, "type": "electric_scooter", "name": "f17378895c2834ca4d3daf7953d0f808", "is_disabled": 0, "rental_uris": {"ios": "https://dc.lft.to/lastmile_qr_scan", "android": "https://dc.lft.to/lastmile_qr_scan"}, "is_reserved": 0}, {"lon": -77.02290016666667, "bike_id": "96bde533d32e8c17c8dd8d8c078df55d", "lat": 38.91085833333333, "fusion_lon": 0.0, "fusion_lat": 0.0, "type": "electric_scooter", "name": "96bde533d32e8c17c8dd8d8c078df55d", "is_disabled": 0, "rental_uris": {"ios": "https://dc.lft.to/lastmile_qr_scan", "android": "https://dc.lft.to/lastmile_qr_scan"}, "is_reserved": 0}, {"lon": -76.98698733333333, "bike_id": "18e4bbbdfdc19ada9d15d19265a138ee", "lat": 38.907081, "fusion_lon": 0.0, "fusion_lat": 0.0, "type": "electric_scooter", "name": "18e4bbbdfdc19ada9d15d19265a138ee", "is_disabled": 0, "rental_uris": {"ios": "https://dc.lft.to/lastmile_qr_scan", "android": "https://dc.lft.to/lastmile_qr_scan"}, "is_reserved": 0}, {"lon": -77.01178633333333, "bike_id": "2226aa16b0909f757323a64d007c14da", "lat": 38.87224116666667, "fusion_lon": 0.0, "fusion_lat": 0.0, "type": "electric_bike", "name": "2226aa16b0909f757323a64d007c14da", "is_disabled": 0, "rental_uris": {"ios": "https://dc.lft.to/lastmile_qr_scan", "android": "https://dc.lft.to/lastmile_qr_scan"}, "is_reserved": 0}, {"lon": -77.02380916666667, "bike_id": "8d94f21fd377c28b24c0813e4fe18138", "lat": 38.90951866666666, "fusion_lon": 0.0, "fusion_lat": 0.0, "type": "electric_scooter", "name": "8d94f21fd377c28b24c0813e4fe18138", "is_disabled": 0, "rental_uris": {"ios": "https://dc.lft.to/lastmile_qr_scan", "android": "https://dc.lft.to/lastmile_qr_scan"}, "is_reserved": 0}, {"lon": -76.9826685, "bike_id": "fba81da6db4d7e044362b27ed11f1175", "lat": 38.908543, "fusion_lon": 0.0, "fusion_lat": 0.0, "type": "electric_scooter", "name": "fba81da6db4d7e044362b27ed11f1175", "is_disabled": 0, "rental_uris": {"ios": "https://dc.lft.to/lastmile_qr_scan", "android": "https://dc.lft.to/lastmile_qr_scan"}, "is_reserved": 0}, {"lon": -76.98903083333333, "bike_id": "2d6717f0bcb1d634e1ae25600a9e2fcd", "lat": 38.91345966666667, "fusion_lon": 0.0, "fusion_lat": 0.0, "type": "electric_scooter", "name": "2d6717f0bcb1d634e1ae25600a9e2fcd", "is_disabled": 0, "rental_uris": {"ios": "https://dc.lft.to/lastmile_qr_scan", "android": "https://dc.lft.to/lastmile_qr_scan"}, "is_reserved": 0}, {"lon": -77.048664, "bike_id": "4d11d98d2bda801a9faf95810cb397b3", "lat": 38.907229666666666, "fusion_lon": 0.0, "fusion_lat": 0.0, "type": "electric_scooter", "name": "4d11d98d2bda801a9faf95810cb397b3", "is_disabled": 0, "rental_uris": {"ios": "https://dc.lft.to/lastmile_qr_scan", "android": "https://dc.lft.to/lastmile_qr_scan"}, "is_reserved": 0}, {"lon": -77.06045916666666, "bike_id": "18ca6699e9c4b279f3f96ceb1ec3ffe7", "lat": 38.8057495, "fusion_lon": 0.0, "fusion_lat": 0.0, "type": "electric_bike", "name": "18ca6699e9c4b279f3f96ceb1ec3ffe7", "is_disabled": 0, "rental_uris": {"ios": "https://dc.lft.to/lastmile_qr_scan", "android": "https://dc.lft.to/lastmile_qr_scan"}, "is_reserved": 0}, {"lon": -77.0881055, "bike_id": "c97c2f4fb9f746df90efe8ed503b7005", "lat": 38.91175533333333, "fusion_lon": 0.0, "fusion_lat": 0.0, "type": "electric_bike", "name": "c97c2f4fb9f746df90efe8ed503b7005", "is_disabled": 0, "rental_uris": {"ios": "https://dc.lft.to/lastmile_qr_scan", "android": "https://dc.lft.to/lastmile_qr_scan"}, "is_reserved": 0}, {"lon": -77.04737816666666, "bike_id": "7c9986a631bec45494e5164b42a68f19", "lat": 38.907248, "fusion_lon": 0.0, "fusion_lat": 0.0, "type": "electric_scooter", "name": "7c9986a631bec45494e5164b42a68f19", "is_disabled": 0, "rental_uris": {"ios": "https://dc.lft.to/lastmile_qr_scan", "android": "https://dc.lft.to/lastmile_qr_scan"}, "is_reserved": 0}, {"lon": -76.976208, "bike_id": "396a315c9d99f1ea011f114dafefd669", "lat": 38.926556833333336, "fusion_lon": 0.0, "fusion_lat": 0.0, "type": "electric_scooter", "name": "396a315c9d99f1ea011f114dafefd669", "is_disabled": 0, "rental_uris": {"ios": "https://dc.lft.to/lastmile_qr_scan", "android": "https://dc.lft.to/lastmile_qr_scan"}, "is_reserved": 0}, {"lon": -76.9774345, "bike_id": "a060bf51c2a43ef19886a007fddf70da", "lat": 38.865044, "fusion_lon": 0.0, "fusion_lat": 0.0, "type": "electric_bike", "name": "a060bf51c2a43ef19886a007fddf70da", "is_disabled": 0, "rental_uris": {"ios": "https://dc.lft.to/lastmile_qr_scan", "android": "https://dc.lft.to/lastmile_qr_scan"}, "is_reserved": 0}, {"lon": -77.0127715, "bike_id": "e8702af80da06fd99dc5614be9b9c03f", "lat": 38.91563266666667, "fusion_lon": 0.0, "fusion_lat": 0.0, "type": "electric_scooter", "name": "e8702af80da06fd99dc5614be9b9c03f", "is_disabled": 0, "rental_uris": {"ios": "https://dc.lft.to/lastmile_qr_scan", "android": "https://dc.lft.to/lastmile_qr_scan"}, "is_reserved": 0}, {"lon": -76.991065, "bike_id": "70523897d252737b55b687f0db5551ce", "lat": 38.903325333333335, "fusion_lon": 0.0, "fusion_lat": 0.0, "type": "electric_scooter", "name": "70523897d252737b55b687f0db5551ce", "is_disabled": 0, "rental_uris": {"ios": "https://dc.lft.to/lastmile_qr_scan", "android": "https://dc.lft.to/lastmile_qr_scan"}, "is_reserved": 0}, {"lon": -77.01770116666667, "bike_id": "97004b8ebb7868cc856914664fa424af", "lat": 38.877160333333336, "fusion_lon": 0.0, "fusion_lat": 0.0, "type": "electric_scooter", "name": "97004b8ebb7868cc856914664fa424af", "is_disabled": 0, "rental_uris": {"ios": "https://dc.lft.to/lastmile_qr_scan", "android": "https://dc.lft.to/lastmile_qr_scan"}, "is_reserved": 0}, {"lon": -77.0059545, "bike_id": "77e57fafcf5df27ed501fe5fa10844e9", "lat": 38.9262535, "fusion_lon": 0.0, "fusion_lat": 0.0, "type": "electric_scooter", "name": "77e57fafcf5df27ed501fe5fa10844e9", "is_disabled": 0, "rental_uris": {"ios": "https://dc.lft.to/lastmile_qr_scan", "android": "https://dc.lft.to/lastmile_qr_scan"}, "is_reserved": 0}, {"lon": -76.99782383333333, "bike_id": "58870a67dd4a84dbe189c7eb51290ed8", "lat": 38.84429516666667, "fusion_lon": 0.0, "fusion_lat": 0.0, "type": "electric_scooter", "name": "58870a67dd4a84dbe189c7eb51290ed8", "is_disabled": 0, "rental_uris": {"ios": "https://dc.lft.to/lastmile_qr_scan", "android": "https://dc.lft.to/lastmile_qr_scan"}, "is_reserved": 0}, {"lon": -76.95460583333333, "bike_id": "a04c5d06faa485b73bf6043d57293c51", "lat": 38.88950716666667, "fusion_lon": 0.0, "fusion_lat": 0.0, "type": "electric_scooter", "name": "a04c5d06faa485b73bf6043d57293c51", "is_disabled": 0, "rental_uris": {"ios": "https://dc.lft.to/lastmile_qr_scan", "android": "https://dc.lft.to/lastmile_qr_scan"}, "is_reserved": 0}, {"lon": -77.03923633333333, "bike_id": "ac75eba38ba41a4541d2e392f03d1f09", "lat": 38.92805083333333, "fusion_lon": 0.0, "fusion_lat": 0.0, "type": "electric_scooter", "name": "ac75eba38ba41a4541d2e392f03d1f09", "is_disabled": 0, "rental_uris": {"ios": "https://dc.lft.to/lastmile_qr_scan", "android": "https://dc.lft.to/lastmile_qr_scan"}, "is_reserved": 0}, {"lon": -77.03559016666667, "bike_id": "cec18abcd88c8ad530da25973aafed12", "lat": 38.92479766666666, "fusion_lon": 0.0, "fusion_lat": 0.0, "type": "electric_scooter", "name": "cec18abcd88c8ad530da25973aafed12", "is_disabled": 0, "rental_uris": {"ios": "https://dc.lft.to/lastmile_qr_scan", "android": "https://dc.lft.to/lastmile_qr_scan"}, "is_reserved": 0}, {"lon": -77.03753416666666, "bike_id": "eb8c9783db9505c2716b0f5f7b9be0c9", "lat": 38.929085666666666, "fusion_lon": 0.0, "fusion_lat": 0.0, "type": "electric_scooter", "name": "eb8c9783db9505c2716b0f5f7b9be0c9", "is_disabled": 0, "rental_uris": {"ios": "https://dc.lft.to/lastmile_qr_scan", "android": "https://dc.lft.to/lastmile_qr_scan"}, "is_reserved": 0}, {"lon": -77.04224783333333, "bike_id": "67d3cd021e417861ae4e94d8e74b69d8", "lat": 38.913335833333335, "fusion_lon": 0.0, "fusion_lat": 0.0, "type": "electric_scooter", "name": "67d3cd021e417861ae4e94d8e74b69d8", "is_disabled": 0, "rental_uris": {"ios": "https://dc.lft.to/lastmile_qr_scan", "android": "https://dc.lft.to/lastmile_qr_scan"}, "is_reserved": 0}, {"lon": -77.05044666666667, "bike_id": "23e33592dde342e8972a4c917ceab259", "lat": 38.923619333333335, "fusion_lon": 0.0, "fusion_lat": 0.0, "type": "electric_scooter", "name": "23e33592dde342e8972a4c917ceab259", "is_disabled": 0, "rental_uris": {"ios": "https://dc.lft.to/lastmile_qr_scan", "android": "https://dc.lft.to/lastmile_qr_scan"}, "is_reserved": 0}, {"lon": -77.02169533333333, "bike_id": "cffdb94aecfb50035ddd095663588f7b", "lat": 38.929969166666666, "fusion_lon": 0.0, "fusion_lat": 0.0, "type": "electric_scooter", "name": "cffdb94aecfb50035ddd095663588f7b", "is_disabled": 0, "rental_uris": {"ios": "https://dc.lft.to/lastmile_qr_scan", "android": "https://dc.lft.to/lastmile_qr_scan"}, "is_reserved": 0}, {"lon": -77.03488983333334, "bike_id": "c9ec34dc13e28ab4d9105bb597db3b54", "lat": 38.934483, "fusion_lon": 0.0, "fusion_lat": 0.0, "type": "electric_scooter", "name": "c9ec34dc13e28ab4d9105bb597db3b54", "is_disabled": 0, "rental_uris": {"ios": "https://dc.lft.to/lastmile_qr_scan", "android": "https://dc.lft.to/lastmile_qr_scan"}, "is_reserved": 0}, {"lon": -77.02511816666667, "bike_id": "de29d44b77e49c0b05fb770a6dc5140e", "lat": 38.920733, "fusion_lon": 0.0, "fusion_lat": 0.0, "type": "electric_scooter", "name": "de29d44b77e49c0b05fb770a6dc5140e", "is_disabled": 0, "rental_uris": {"ios": "https://dc.lft.to/lastmile_qr_scan", "android": "https://dc.lft.to/lastmile_qr_scan"}, "is_reserved": 0}, {"lon": -77.04175216666667, "bike_id": "0c3a798b3d0444de1ae758f7731df321", "lat": 38.91975983333333, "fusion_lon": 0.0, "fusion_lat": 0.0, "type": "electric_scooter", "name": "0c3a798b3d0444de1ae758f7731df321", "is_disabled": 0, "rental_uris": {"ios": "https://dc.lft.to/lastmile_qr_scan", "android": "https://dc.lft.to/lastmile_qr_scan"}, "is_reserved": 0}, {"lon": -77.032644, "bike_id": "2365ce622ec24d2c8bda7969ba0599c8", "lat": 38.9320545, "fusion_lon": 0.0, "fusion_lat": 0.0, "type": "electric_scooter", "name": "2365ce622ec24d2c8bda7969ba0599c8", "is_disabled": 0, "rental_uris": {"ios": "https://dc.lft.to/lastmile_qr_scan", "android": "https://dc.lft.to/lastmile_qr_scan"}, "is_reserved": 0}, {"lon": -77.04698283333333, "bike_id": "51f6fdeb82e2dad1bde0dc6d65cb5097", "lat": 38.92140666666667, "fusion_lon": 0.0, "fusion_lat": 0.0, "type": "electric_scooter", "name": "51f6fdeb82e2dad1bde0dc6d65cb5097", "is_disabled": 0, "rental_uris": {"ios": "https://dc.lft.to/lastmile_qr_scan", "android": "https://dc.lft.to/lastmile_qr_scan"}, "is_reserved": 0}, {"lon": -77.0275825, "bike_id": "96e83581217a9a6ab264ea037cd93b9c", "lat": 38.917003333333334, "fusion_lon": 0.0, "fusion_lat": 0.0, "type": "electric_scooter", "name": "96e83581217a9a6ab264ea037cd93b9c", "is_disabled": 0, "rental_uris": {"ios": "https://dc.lft.to/lastmile_qr_scan", "android": "https://dc.lft.to/lastmile_qr_scan"}, "is_reserved": 0}, {"lon": -77.00381433333334, "bike_id": "0836426cb1001f05a35c9334b1be8f26", "lat": 38.8360335, "fusion_lon": 0.0, "fusion_lat": 0.0, "type": "electric_bike", "name": "0836426cb1001f05a35c9334b1be8f26", "is_disabled": 0, "rental_uris": {"ios": "https://dc.lft.to/lastmile_qr_scan", "android": "https://dc.lft.to/lastmile_qr_scan"}, "is_reserved": 0}, {"lon": -77.04693966666666, "bike_id": "15a67cfb5edf38f5012abd0de1b3df6b", "lat": 38.921880333333334, "fusion_lon": 0.0, "fusion_lat": 0.0, "type": "electric_scooter", "name": "15a67cfb5edf38f5012abd0de1b3df6b", "is_disabled": 0, "rental_uris": {"ios": "https://dc.lft.to/lastmile_qr_scan", "android": "https://dc.lft.to/lastmile_qr_scan"}, "is_reserved": 0}, {"lon": -76.99281833333333, "bike_id": "630999d915c3f2e8a2997d7ca92c16d9", "lat": 38.8988615, "fusion_lon": 0.0, "fusion_lat": 0.0, "type": "electric_scooter", "name": "630999d915c3f2e8a2997d7ca92c16d9", "is_disabled": 0, "rental_uris": {"ios": "https://dc.lft.to/lastmile_qr_scan", "android": "https://dc.lft.to/lastmile_qr_scan"}, "is_reserved": 0}, {"lon": -77.04648966666667, "bike_id": "43968469f5523c30baeb9441be11380d", "lat": 38.914188, "fusion_lon": 0.0, "fusion_lat": 0.0, "type": "electric_scooter", "name": "43968469f5523c30baeb9441be11380d", "is_disabled": 0, "rental_uris": {"ios": "https://dc.lft.to/lastmile_qr_scan", "android": "https://dc.lft.to/lastmile_qr_scan"}, "is_reserved": 0}, {"lon": -77.04513183333333, "bike_id": "74d58059db949c1c8ef7a17396f59f07", "lat": 38.923239833333334, "fusion_lon": 0.0, "fusion_lat": 0.0, "type": "electric_scooter", "name": "74d58059db949c1c8ef7a17396f59f07", "is_disabled": 0, "rental_uris": {"ios": "https://dc.lft.to/lastmile_qr_scan", "android": "https://dc.lft.to/lastmile_qr_scan"}, "is_reserved": 0}, {"lon": -77.02657133333334, "bike_id": "794bfef8e07e65329f4a76931694ee55", "lat": 38.91698216666666, "fusion_lon": 0.0, "fusion_lat": 0.0, "type": "electric_scooter", "name": "794bfef8e07e65329f4a76931694ee55", "is_disabled": 0, "rental_uris": {"ios": "https://dc.lft.to/lastmile_qr_scan", "android": "https://dc.lft.to/lastmile_qr_scan"}, "is_reserved": 0}, {"lon": -77.05547516666667, "bike_id": "14b2729e6d9b4e590e98960f1fec60dc", "lat": 38.93012366666667, "fusion_lon": 0.0, "fusion_lat": 0.0, "type": "electric_scooter", "name": "14b2729e6d9b4e590e98960f1fec60dc", "is_disabled": 0, "rental_uris": {"ios": "https://dc.lft.to/lastmile_qr_scan", "android": "https://dc.lft.to/lastmile_qr_scan"}, "is_reserved": 0}, {"lon": -77.03350316666666, "bike_id": "8a3a83d21f6237c468202ef64bd1a51f", "lat": 38.90148633333333, "fusion_lon": 0.0, "fusion_lat": 0.0, "type": "electric_scooter", "name": "8a3a83d21f6237c468202ef64bd1a51f", "is_disabled": 0, "rental_uris": {"ios": "https://dc.lft.to/lastmile_qr_scan", "android": "https://dc.lft.to/lastmile_qr_scan"}, "is_reserved": 0}, {"lon": -77.02014216666667, "bike_id": "18b2e07ad14a7997dd24c4a367726a82", "lat": 38.9027495, "fusion_lon": 0.0, "fusion_lat": 0.0, "type": "electric_scooter", "name": "18b2e07ad14a7997dd24c4a367726a82", "is_disabled": 0, "rental_uris": {"ios": "https://dc.lft.to/lastmile_qr_scan", "android": "https://dc.lft.to/lastmile_qr_scan"}, "is_reserved": 0}, {"lon": -77.0426825, "bike_id": "4cea052703bcce7b7d1709425c72df86", "lat": 38.922355, "fusion_lon": 0.0, "fusion_lat": 0.0, "type": "electric_scooter", "name": "4cea052703bcce7b7d1709425c72df86", "is_disabled": 0, "rental_uris": {"ios": "https://dc.lft.to/lastmile_qr_scan", "android": "https://dc.lft.to/lastmile_qr_scan"}, "is_reserved": 0}, {"lon": -77.02702133333334, "bike_id": "be2c24d8bceba54008bc5d0f6e7ac828", "lat": 38.89744783333333, "fusion_lon": 0.0, "fusion_lat": 0.0, "type": "electric_scooter", "name": "be2c24d8bceba54008bc5d0f6e7ac828", "is_disabled": 0, "rental_uris": {"ios": "https://dc.lft.to/lastmile_qr_scan", "android": "https://dc.lft.to/lastmile_qr_scan"}, "is_reserved": 0}, {"lon": -77.05003433333333, "bike_id": "76bdcbc5cd9be8bab64a0687c776db04", "lat": 38.89196333333334, "fusion_lon": 0.0, "fusion_lat": 0.0, "type": "electric_scooter", "name": "76bdcbc5cd9be8bab64a0687c776db04", "is_disabled": 0, "rental_uris": {"ios": "https://dc.lft.to/lastmile_qr_scan", "android": "https://dc.lft.to/lastmile_qr_scan"}, "is_reserved": 0}, {"lon": -77.0218825, "bike_id": "f9afed89d10d487fdbf986a909bf9c4c", "lat": 38.93308833333333, "fusion_lon": 0.0, "fusion_lat": 0.0, "type": "electric_scooter", "name": "f9afed89d10d487fdbf986a909bf9c4c", "is_disabled": 0, "rental_uris": {"ios": "https://dc.lft.to/lastmile_qr_scan", "android": "https://dc.lft.to/lastmile_qr_scan"}, "is_reserved": 0}, {"lon": -77.011874, "bike_id": "a9c6e2f68a9df214ce017525f7c62527", "lat": 38.9003035, "fusion_lon": 0.0, "fusion_lat": 0.0, "type": "electric_scooter", "name": "a9c6e2f68a9df214ce017525f7c62527", "is_disabled": 0, "rental_uris": {"ios": "https://dc.lft.to/lastmile_qr_scan", "android": "https://dc.lft.to/lastmile_qr_scan"}, "is_reserved": 0}, {"lon": -76.93356166666666, "bike_id": "89733f7aa136f32c53e32bec00ea5635", "lat": 38.8879855, "fusion_lon": 0.0, "fusion_lat": 0.0, "type": "electric_scooter", "name": "89733f7aa136f32c53e32bec00ea5635", "is_disabled": 0, "rental_uris": {"ios": "https://dc.lft.to/lastmile_qr_scan", "android": "https://dc.lft.to/lastmile_qr_scan"}, "is_reserved": 0}, {"lon": -76.93171233333334, "bike_id": "f5dbead5b6e7019b2a9304793cb7ced1", "lat": 38.90372633333333, "fusion_lon": 0.0, "fusion_lat": 0.0, "type": "electric_scooter", "name": "f5dbead5b6e7019b2a9304793cb7ced1", "is_disabled": 0, "rental_uris": {"ios": "https://dc.lft.to/lastmile_qr_scan", "android": "https://dc.lft.to/lastmile_qr_scan"}, "is_reserved": 0}, {"lon": -77.03197333333334, "bike_id": "270dc5b242895407943799c76c8e903d", "lat": 38.90729816666666, "fusion_lon": 0.0, "fusion_lat": 0.0, "type": "electric_scooter", "name": "270dc5b242895407943799c76c8e903d", "is_disabled": 0, "rental_uris": {"ios": "https://dc.lft.to/lastmile_qr_scan", "android": "https://dc.lft.to/lastmile_qr_scan"}, "is_reserved": 0}, {"lon": -77.0297465, "bike_id": "d776821097c4d6b1c2f0b4abfac4301f", "lat": 38.91682333333333, "fusion_lon": 0.0, "fusion_lat": 0.0, "type": "electric_scooter", "name": "d776821097c4d6b1c2f0b4abfac4301f", "is_disabled": 0, "rental_uris": {"ios": "https://dc.lft.to/lastmile_qr_scan", "android": "https://dc.lft.to/lastmile_qr_scan"}, "is_reserved": 0}, {"lon": -77.04336783333333, "bike_id": "b1730e4a7bc3fcc5e7087e154c4f0acc", "lat": 38.90811733333334, "fusion_lon": 0.0, "fusion_lat": 0.0, "type": "electric_scooter", "name": "b1730e4a7bc3fcc5e7087e154c4f0acc", "is_disabled": 0, "rental_uris": {"ios": "https://dc.lft.to/lastmile_qr_scan", "android": "https://dc.lft.to/lastmile_qr_scan"}, "is_reserved": 0}, {"lon": -77.02961266666667, "bike_id": "85516ebdc5d295e193da66e0c356d403", "lat": 38.916776666666664, "fusion_lon": 0.0, "fusion_lat": 0.0, "type": "electric_scooter", "name": "85516ebdc5d295e193da66e0c356d403", "is_disabled": 0, "rental_uris": {"ios": "https://dc.lft.to/lastmile_qr_scan", "android": "https://dc.lft.to/lastmile_qr_scan"}, "is_reserved": 0}, {"lon": -77.04655616666666, "bike_id": "6d799569f83e237777c583028b83c586", "lat": 38.90546116666667, "fusion_lon": 0.0, "fusion_lat": 0.0, "type": "electric_scooter", "name": "6d799569f83e237777c583028b83c586", "is_disabled": 0, "rental_uris": {"ios": "https://dc.lft.to/lastmile_qr_scan", "android": "https://dc.lft.to/lastmile_qr_scan"}, "is_reserved": 0}, {"lon": -77.03187583333333, "bike_id": "5e257abe540e67046240b13892f9769b", "lat": 38.89227616666667, "fusion_lon": 0.0, "fusion_lat": 0.0, "type": "electric_scooter", "name": "5e257abe540e67046240b13892f9769b", "is_disabled": 0, "rental_uris": {"ios": "https://dc.lft.to/lastmile_qr_scan", "android": "https://dc.lft.to/lastmile_qr_scan"}, "is_reserved": 0}, {"lon": -76.98020366666667, "bike_id": "f4ee13cdb66aa10fd0d3bc6ba08bc8ba", "lat": 38.853216333333336, "fusion_lon": 0.0, "fusion_lat": 0.0, "type": "electric_bike", "name": "f4ee13cdb66aa10fd0d3bc6ba08bc8ba", "is_disabled": 0, "rental_uris": {"ios": "https://dc.lft.to/lastmile_qr_scan", "android": "https://dc.lft.to/lastmile_qr_scan"}, "is_reserved": 0}, {"lon": -77.03661983333333, "bike_id": "098c5fa90c4e7f6201bc0e4705765461", "lat": 38.917173, "fusion_lon": 0.0, "fusion_lat": 0.0, "type": "electric_scooter", "name": "098c5fa90c4e7f6201bc0e4705765461", "is_disabled": 0, "rental_uris": {"ios": "https://dc.lft.to/lastmile_qr_scan", "android": "https://dc.lft.to/lastmile_qr_scan"}, "is_reserved": 0}, {"lon": -77.03214916666667, "bike_id": "7b26d16d3e406fff203426e0b070fc7e", "lat": 38.91475883333333, "fusion_lon": 0.0, "fusion_lat": 0.0, "type": "electric_scooter", "name": "7b26d16d3e406fff203426e0b070fc7e", "is_disabled": 0, "rental_uris": {"ios": "https://dc.lft.to/lastmile_qr_scan", "android": "https://dc.lft.to/lastmile_qr_scan"}, "is_reserved": 0}, {"lon": -76.9982075, "bike_id": "49c3c7e242c761d90b55a515ce441bb3", "lat": 38.9085615, "fusion_lon": 0.0, "fusion_lat": 0.0, "type": "electric_scooter", "name": "49c3c7e242c761d90b55a515ce441bb3", "is_disabled": 0, "rental_uris": {"ios": "https://dc.lft.to/lastmile_qr_scan", "android": "https://dc.lft.to/lastmile_qr_scan"}, "is_reserved": 0}, {"lon": -77.03536883333334, "bike_id": "16e5183ccf9c2804539d107c0cc63ad1", "lat": 38.9248805, "fusion_lon": 0.0, "fusion_lat": 0.0, "type": "electric_scooter", "name": "16e5183ccf9c2804539d107c0cc63ad1", "is_disabled": 0, "rental_uris": {"ios": "https://dc.lft.to/lastmile_qr_scan", "android": "https://dc.lft.to/lastmile_qr_scan"}, "is_reserved": 0}, {"lon": -77.03207783333333, "bike_id": "a0500bbd4839614c68378856f0ea9db0", "lat": 38.917283166666664, "fusion_lon": 0.0, "fusion_lat": 0.0, "type": "electric_scooter", "name": "a0500bbd4839614c68378856f0ea9db0", "is_disabled": 0, "rental_uris": {"ios": "https://dc.lft.to/lastmile_qr_scan", "android": "https://dc.lft.to/lastmile_qr_scan"}, "is_reserved": 0}, {"lon": -77.0414475, "bike_id": "815162acb244af753d5804b2351d250c", "lat": 38.9198215, "fusion_lon": 0.0, "fusion_lat": 0.0, "type": "electric_scooter", "name": "815162acb244af753d5804b2351d250c", "is_disabled": 0, "rental_uris": {"ios": "https://dc.lft.to/lastmile_qr_scan", "android": "https://dc.lft.to/lastmile_qr_scan"}, "is_reserved": 0}, {"lon": -76.995267, "bike_id": "c8089f00901fe02a2a9e65b64e2d7245", "lat": 38.862632166666664, "fusion_lon": 0.0, "fusion_lat": 0.0, "type": "electric_scooter", "name": "c8089f00901fe02a2a9e65b64e2d7245", "is_disabled": 0, "rental_uris": {"ios": "https://dc.lft.to/lastmile_qr_scan", "android": "https://dc.lft.to/lastmile_qr_scan"}, "is_reserved": 0}, {"lon": -76.94886783333334, "bike_id": "5a3ec5b89453b9b43d9c3a82a5fe889e", "lat": 38.89513133333333, "fusion_lon": 0.0, "fusion_lat": 0.0, "type": "electric_scooter", "name": "5a3ec5b89453b9b43d9c3a82a5fe889e", "is_disabled": 0, "rental_uris": {"ios": "https://dc.lft.to/lastmile_qr_scan", "android": "https://dc.lft.to/lastmile_qr_scan"}, "is_reserved": 0}, {"lon": -77.02210216666667, "bike_id": "e2661db386ef38c5b2840827b4a6dd9e", "lat": 38.90560466666667, "fusion_lon": 0.0, "fusion_lat": 0.0, "type": "electric_scooter", "name": "e2661db386ef38c5b2840827b4a6dd9e", "is_disabled": 0, "rental_uris": {"ios": "https://dc.lft.to/lastmile_qr_scan", "android": "https://dc.lft.to/lastmile_qr_scan"}, "is_reserved": 0}, {"lon": -77.032261, "bike_id": "a5882fea41a94cfa4b8adf2b76e26f52", "lat": 38.89740533333333, "fusion_lon": 0.0, "fusion_lat": 0.0, "type": "electric_scooter", "name": "a5882fea41a94cfa4b8adf2b76e26f52", "is_disabled": 0, "rental_uris": {"ios": "https://dc.lft.to/lastmile_qr_scan", "android": "https://dc.lft.to/lastmile_qr_scan"}, "is_reserved": 0}, {"lon": -77.02211766666667, "bike_id": "0fb871757f5674cc26f202faca3ef9ff", "lat": 38.8790205, "fusion_lon": 0.0, "fusion_lat": 0.0, "type": "electric_scooter", "name": "0fb871757f5674cc26f202faca3ef9ff", "is_disabled": 0, "rental_uris": {"ios": "https://dc.lft.to/lastmile_qr_scan", "android": "https://dc.lft.to/lastmile_qr_scan"}, "is_reserved": 0}, {"lon": -77.0200985, "bike_id": "bdce16ad15be28e0a26baa434c757bc3", "lat": 38.92419833333334, "fusion_lon": 0.0, "fusion_lat": 0.0, "type": "electric_scooter", "name": "bdce16ad15be28e0a26baa434c757bc3", "is_disabled": 0, "rental_uris": {"ios": "https://dc.lft.to/lastmile_qr_scan", "android": "https://dc.lft.to/lastmile_qr_scan"}, "is_reserved": 0}, {"lon": -76.98988566666667, "bike_id": "510599ff6cc556a268e17814d3699dcd", "lat": 38.933656166666665, "fusion_lon": 0.0, "fusion_lat": 0.0, "type": "electric_scooter", "name": "510599ff6cc556a268e17814d3699dcd", "is_disabled": 0, "rental_uris": {"ios": "https://dc.lft.to/lastmile_qr_scan", "android": "https://dc.lft.to/lastmile_qr_scan"}, "is_reserved": 0}, {"lon": -76.99824166666667, "bike_id": "02821ae28b9d19e56a48484307bb2017", "lat": 38.90003133333333, "fusion_lon": 0.0, "fusion_lat": 0.0, "type": "electric_bike", "name": "02821ae28b9d19e56a48484307bb2017", "is_disabled": 0, "rental_uris": {"ios": "https://dc.lft.to/lastmile_qr_scan", "android": "https://dc.lft.to/lastmile_qr_scan"}, "is_reserved": 0}, {"lon": -77.05746816666667, "bike_id": "11c58b4d6722b235a47a51df5ec1199a", "lat": 38.93350233333334, "fusion_lon": 0.0, "fusion_lat": 0.0, "type": "electric_scooter", "name": "11c58b4d6722b235a47a51df5ec1199a", "is_disabled": 0, "rental_uris": {"ios": "https://dc.lft.to/lastmile_qr_scan", "android": "https://dc.lft.to/lastmile_qr_scan"}, "is_reserved": 0}, {"lon": -77.03284383333333, "bike_id": "66da560ae15d3d4aebeb3bdd1e3f7ad1", "lat": 38.9014565, "fusion_lon": 0.0, "fusion_lat": 0.0, "type": "electric_scooter", "name": "66da560ae15d3d4aebeb3bdd1e3f7ad1", "is_disabled": 0, "rental_uris": {"ios": "https://dc.lft.to/lastmile_qr_scan", "android": "https://dc.lft.to/lastmile_qr_scan"}, "is_reserved": 0}, {"lon": -76.9903065, "bike_id": "3a95dc363f5050de4b0765f30e3218d5", "lat": 38.88876066666667, "fusion_lon": 0.0, "fusion_lat": 0.0, "type": "electric_scooter", "name": "3a95dc363f5050de4b0765f30e3218d5", "is_disabled": 0, "rental_uris": {"ios": "https://dc.lft.to/lastmile_qr_scan", "android": "https://dc.lft.to/lastmile_qr_scan"}, "is_reserved": 0}, {"lon": -77.02138666666667, "bike_id": "30135feab66fc00533579071c95f8f3e", "lat": 38.89730633333333, "fusion_lon": 0.0, "fusion_lat": 0.0, "type": "electric_scooter", "name": "30135feab66fc00533579071c95f8f3e", "is_disabled": 0, "rental_uris": {"ios": "https://dc.lft.to/lastmile_qr_scan", "android": "https://dc.lft.to/lastmile_qr_scan"}, "is_reserved": 0}, {"lon": -77.02732483333334, "bike_id": "24ce87567f4ff2f7bd1c45bdb5592eeb", "lat": 38.932064833333335, "fusion_lon": 0.0, "fusion_lat": 0.0, "type": "electric_scooter", "name": "24ce87567f4ff2f7bd1c45bdb5592eeb", "is_disabled": 0, "rental_uris": {"ios": "https://dc.lft.to/lastmile_qr_scan", "android": "https://dc.lft.to/lastmile_qr_scan"}, "is_reserved": 0}, {"lon": -77.02372333333334, "bike_id": "a6849499bb85fae4198b633d962f8d31", "lat": 38.917851166666665, "fusion_lon": 0.0, "fusion_lat": 0.0, "type": "electric_scooter", "name": "a6849499bb85fae4198b633d962f8d31", "is_disabled": 0, "rental_uris": {"ios": "https://dc.lft.to/lastmile_qr_scan", "android": "https://dc.lft.to/lastmile_qr_scan"}, "is_reserved": 0}, {"lon": -77.01963933333333, "bike_id": "9bd0bc3f29424bd34a2f9a59b3bf755e", "lat": 38.883718333333334, "fusion_lon": 0.0, "fusion_lat": 0.0, "type": "electric_scooter", "name": "9bd0bc3f29424bd34a2f9a59b3bf755e", "is_disabled": 0, "rental_uris": {"ios": "https://dc.lft.to/lastmile_qr_scan", "android": "https://dc.lft.to/lastmile_qr_scan"}, "is_reserved": 0}, {"lon": -77.02160583333334, "bike_id": "bc095b53447564d62aeb6a36230c46f6", "lat": 38.9268775, "fusion_lon": 0.0, "fusion_lat": 0.0, "type": "electric_scooter", "name": "bc095b53447564d62aeb6a36230c46f6", "is_disabled": 0, "rental_uris": {"ios": "https://dc.lft.to/lastmile_qr_scan", "android": "https://dc.lft.to/lastmile_qr_scan"}, "is_reserved": 0}, {"lon": -77.03520683333333, "bike_id": "958e3396866bbfbd4b701973528e17f5", "lat": 38.935928833333335, "fusion_lon": 0.0, "fusion_lat": 0.0, "type": "electric_bike", "name": "958e3396866bbfbd4b701973528e17f5", "is_disabled": 0, "rental_uris": {"ios": "https://dc.lft.to/lastmile_qr_scan", "android": "https://dc.lft.to/lastmile_qr_scan"}, "is_reserved": 0}, {"lon": -77.0334315, "bike_id": "45df2dd02cc4ca18999e8e3154a5cfa2", "lat": 38.909869666666665, "fusion_lon": 0.0, "fusion_lat": 0.0, "type": "electric_scooter", "name": "45df2dd02cc4ca18999e8e3154a5cfa2", "is_disabled": 0, "rental_uris": {"ios": "https://dc.lft.to/lastmile_qr_scan", "android": "https://dc.lft.to/lastmile_qr_scan"}, "is_reserved": 0}, {"lon": -77.04135, "bike_id": "bc245d585048be98508741e7ea52925f", "lat": 38.9236855, "fusion_lon": 0.0, "fusion_lat": 0.0, "type": "electric_scooter", "name": "bc245d585048be98508741e7ea52925f", "is_disabled": 0, "rental_uris": {"ios": "https://dc.lft.to/lastmile_qr_scan", "android": "https://dc.lft.to/lastmile_qr_scan"}, "is_reserved": 0}, {"lon": -77.03187066666666, "bike_id": "ba51b1064c24577cd0a26885701b52ad", "lat": 38.89220983333333, "fusion_lon": 0.0, "fusion_lat": 0.0, "type": "electric_scooter", "name": "ba51b1064c24577cd0a26885701b52ad", "is_disabled": 0, "rental_uris": {"ios": "https://dc.lft.to/lastmile_qr_scan", "android": "https://dc.lft.to/lastmile_qr_scan"}, "is_reserved": 0}, {"lon": -77.01757666666667, "bike_id": "db8219940b380859476117e19721da7f", "lat": 38.90263816666667, "fusion_lon": 0.0, "fusion_lat": 0.0, "type": "electric_scooter", "name": "db8219940b380859476117e19721da7f", "is_disabled": 0, "rental_uris": {"ios": "https://dc.lft.to/lastmile_qr_scan", "android": "https://dc.lft.to/lastmile_qr_scan"}, "is_reserved": 0}, {"lon": -77.03188966666667, "bike_id": "4a258871ef9d46ec5e080954387e13fa", "lat": 38.930478, "fusion_lon": 0.0, "fusion_lat": 0.0, "type": "electric_scooter", "name": "4a258871ef9d46ec5e080954387e13fa", "is_disabled": 0, "rental_uris": {"ios": "https://dc.lft.to/lastmile_qr_scan", "android": "https://dc.lft.to/lastmile_qr_scan"}, "is_reserved": 0}, {"lon": -77.0035565, "bike_id": "1c37119ba737e3c02fd295decee9e405", "lat": 38.89659566666667, "fusion_lon": 0.0, "fusion_lat": 0.0, "type": "electric_scooter", "name": "1c37119ba737e3c02fd295decee9e405", "is_disabled": 0, "rental_uris": {"ios": "https://dc.lft.to/lastmile_qr_scan", "android": "https://dc.lft.to/lastmile_qr_scan"}, "is_reserved": 0}, {"lon": -77.02581533333333, "bike_id": "7cd0a685c3b250743434ea6fafca633d", "lat": 38.93198366666667, "fusion_lon": 0.0, "fusion_lat": 0.0, "type": "electric_scooter", "name": "7cd0a685c3b250743434ea6fafca633d", "is_disabled": 0, "rental_uris": {"ios": "https://dc.lft.to/lastmile_qr_scan", "android": "https://dc.lft.to/lastmile_qr_scan"}, "is_reserved": 0}, {"lon": -77.02185016666667, "bike_id": "58bd397d3a80558786972c6cf7b5121c", "lat": 38.9153565, "fusion_lon": 0.0, "fusion_lat": 0.0, "type": "electric_scooter", "name": "58bd397d3a80558786972c6cf7b5121c", "is_disabled": 0, "rental_uris": {"ios": "https://dc.lft.to/lastmile_qr_scan", "android": "https://dc.lft.to/lastmile_qr_scan"}, "is_reserved": 0}, {"lon": -77.02661233333333, "bike_id": "39e562bbe79013de7d48d1633f73bc1c", "lat": 38.917039833333334, "fusion_lon": 0.0, "fusion_lat": 0.0, "type": "electric_scooter", "name": "39e562bbe79013de7d48d1633f73bc1c", "is_disabled": 0, "rental_uris": {"ios": "https://dc.lft.to/lastmile_qr_scan", "android": "https://dc.lft.to/lastmile_qr_scan"}, "is_reserved": 0}, {"lon": -77.02598033333334, "bike_id": "0c66ff32294ec3b8d695096d58d5e1e1", "lat": 38.9065455, "fusion_lon": 0.0, "fusion_lat": 0.0, "type": "electric_scooter", "name": "0c66ff32294ec3b8d695096d58d5e1e1", "is_disabled": 0, "rental_uris": {"ios": "https://dc.lft.to/lastmile_qr_scan", "android": "https://dc.lft.to/lastmile_qr_scan"}, "is_reserved": 0}, {"lon": -77.02582483333333, "bike_id": "ed5c87b4ff42dafd789e64a27965ad40", "lat": 38.8873855, "fusion_lon": 0.0, "fusion_lat": 0.0, "type": "electric_scooter", "name": "ed5c87b4ff42dafd789e64a27965ad40", "is_disabled": 0, "rental_uris": {"ios": "https://dc.lft.to/lastmile_qr_scan", "android": "https://dc.lft.to/lastmile_qr_scan"}, "is_reserved": 0}, {"lon": -77.03216183333333, "bike_id": "8492e8292aa52cc540fbda851f52f561", "lat": 38.91485333333333, "fusion_lon": 0.0, "fusion_lat": 0.0, "type": "electric_scooter", "name": "8492e8292aa52cc540fbda851f52f561", "is_disabled": 0, "rental_uris": {"ios": "https://dc.lft.to/lastmile_qr_scan", "android": "https://dc.lft.to/lastmile_qr_scan"}, "is_reserved": 0}, {"lon": -77.00897883333333, "bike_id": "c080ecb165f06ff4db01ece338fd4ad2", "lat": 38.961252333333334, "fusion_lon": 0.0, "fusion_lat": 0.0, "type": "electric_scooter", "name": "c080ecb165f06ff4db01ece338fd4ad2", "is_disabled": 0, "rental_uris": {"ios": "https://dc.lft.to/lastmile_qr_scan", "android": "https://dc.lft.to/lastmile_qr_scan"}, "is_reserved": 0}, {"lon": -77.04470683333334, "bike_id": "f547fdb98f2cf00ae7d0ad415063fdcc", "lat": 38.92436816666667, "fusion_lon": 0.0, "fusion_lat": 0.0, "type": "electric_scooter", "name": "f547fdb98f2cf00ae7d0ad415063fdcc", "is_disabled": 0, "rental_uris": {"ios": "https://dc.lft.to/lastmile_qr_scan", "android": "https://dc.lft.to/lastmile_qr_scan"}, "is_reserved": 0}, {"lon": -77.0471615, "bike_id": "a8436cb23f0542b4278c379ce2d83d10", "lat": 38.90326483333333, "fusion_lon": 0.0, "fusion_lat": 0.0, "type": "electric_scooter", "name": "a8436cb23f0542b4278c379ce2d83d10", "is_disabled": 0, "rental_uris": {"ios": "https://dc.lft.to/lastmile_qr_scan", "android": "https://dc.lft.to/lastmile_qr_scan"}, "is_reserved": 0}, {"lon": -76.9330495, "bike_id": "62b074cf92eb929309126629a786c04e", "lat": 38.900946833333336, "fusion_lon": 0.0, "fusion_lat": 0.0, "type": "electric_scooter", "name": "62b074cf92eb929309126629a786c04e", "is_disabled": 0, "rental_uris": {"ios": "https://dc.lft.to/lastmile_qr_scan", "android": "https://dc.lft.to/lastmile_qr_scan"}, "is_reserved": 0}, {"lon": -76.9891995, "bike_id": "34bc8211c096aa2d85b0b84d56afac99", "lat": 38.86483666666667, "fusion_lon": 0.0, "fusion_lat": 0.0, "type": "electric_scooter", "name": "34bc8211c096aa2d85b0b84d56afac99", "is_disabled": 0, "rental_uris": {"ios": "https://dc.lft.to/lastmile_qr_scan", "android": "https://dc.lft.to/lastmile_qr_scan"}, "is_reserved": 0}, {"lon": -77.0259645, "bike_id": "7f2c8296041193a8bf2c0117181ed37b", "lat": 38.9420535, "fusion_lon": 0.0, "fusion_lat": 0.0, "type": "electric_scooter", "name": "7f2c8296041193a8bf2c0117181ed37b", "is_disabled": 0, "rental_uris": {"ios": "https://dc.lft.to/lastmile_qr_scan", "android": "https://dc.lft.to/lastmile_qr_scan"}, "is_reserved": 0}, {"lon": -76.9938765, "bike_id": "f6027d7fd05369297f7ea85c79812c81", "lat": 38.89209183333333, "fusion_lon": 0.0, "fusion_lat": 0.0, "type": "electric_scooter", "name": "f6027d7fd05369297f7ea85c79812c81", "is_disabled": 0, "rental_uris": {"ios": "https://dc.lft.to/lastmile_qr_scan", "android": "https://dc.lft.to/lastmile_qr_scan"}, "is_reserved": 0}, {"lon": -77.033017, "bike_id": "b99b1715ce9c7d104b4485d843959b0a", "lat": 38.9014865, "fusion_lon": 0.0, "fusion_lat": 0.0, "type": "electric_scooter", "name": "b99b1715ce9c7d104b4485d843959b0a", "is_disabled": 0, "rental_uris": {"ios": "https://dc.lft.to/lastmile_qr_scan", "android": "https://dc.lft.to/lastmile_qr_scan"}, "is_reserved": 0}, {"lon": -77.022119, "bike_id": "ffeaeba8d357c99e6ecc36ed1c3bc8be", "lat": 38.9127185, "fusion_lon": 0.0, "fusion_lat": 0.0, "type": "electric_scooter", "name": "ffeaeba8d357c99e6ecc36ed1c3bc8be", "is_disabled": 0, "rental_uris": {"ios": "https://dc.lft.to/lastmile_qr_scan", "android": "https://dc.lft.to/lastmile_qr_scan"}, "is_reserved": 0}, {"lon": -76.9740045, "bike_id": "5f7785dd873ebde84a059401eee9d554", "lat": 38.9030235, "fusion_lon": 0.0, "fusion_lat": 0.0, "type": "electric_scooter", "name": "5f7785dd873ebde84a059401eee9d554", "is_disabled": 0, "rental_uris": {"ios": "https://dc.lft.to/lastmile_qr_scan", "android": "https://dc.lft.to/lastmile_qr_scan"}, "is_reserved": 0}, {"lon": -77.03405983333333, "bike_id": "c5342e521cfe0d6995683109f9025aff", "lat": 38.934203, "fusion_lon": 0.0, "fusion_lat": 0.0, "type": "electric_scooter", "name": "c5342e521cfe0d6995683109f9025aff", "is_disabled": 0, "rental_uris": {"ios": "https://dc.lft.to/lastmile_qr_scan", "android": "https://dc.lft.to/lastmile_qr_scan"}, "is_reserved": 0}, {"lon": -77.02180866666667, "bike_id": "d1570de53c35dadbffd3f7b760170265", "lat": 38.91534083333333, "fusion_lon": 0.0, "fusion_lat": 0.0, "type": "electric_scooter", "name": "d1570de53c35dadbffd3f7b760170265", "is_disabled": 0, "rental_uris": {"ios": "https://dc.lft.to/lastmile_qr_scan", "android": "https://dc.lft.to/lastmile_qr_scan"}, "is_reserved": 0}, {"lon": -77.02836516666666, "bike_id": "bbd0341f2fbe0f4242e697ab24018246", "lat": 38.887322166666664, "fusion_lon": 0.0, "fusion_lat": 0.0, "type": "electric_scooter", "name": "bbd0341f2fbe0f4242e697ab24018246", "is_disabled": 0, "rental_uris": {"ios": "https://dc.lft.to/lastmile_qr_scan", "android": "https://dc.lft.to/lastmile_qr_scan"}, "is_reserved": 0}, {"lon": -77.02971483333333, "bike_id": "f3225732c5ecdc1dd0c27adbb18b9307", "lat": 38.92292833333333, "fusion_lon": 0.0, "fusion_lat": 0.0, "type": "electric_scooter", "name": "f3225732c5ecdc1dd0c27adbb18b9307", "is_disabled": 0, "rental_uris": {"ios": "https://dc.lft.to/lastmile_qr_scan", "android": "https://dc.lft.to/lastmile_qr_scan"}, "is_reserved": 0}, {"lon": -77.02189433333334, "bike_id": "c75253969cc77b9a21cd80b2472790be", "lat": 38.894690833333335, "fusion_lon": 0.0, "fusion_lat": 0.0, "type": "electric_scooter", "name": "c75253969cc77b9a21cd80b2472790be", "is_disabled": 0, "rental_uris": {"ios": "https://dc.lft.to/lastmile_qr_scan", "android": "https://dc.lft.to/lastmile_qr_scan"}, "is_reserved": 0}, {"lon": -76.94587966666667, "bike_id": "9bc48de9b29728e508e7419e940631ea", "lat": 38.90149666666667, "fusion_lon": 0.0, "fusion_lat": 0.0, "type": "electric_scooter", "name": "9bc48de9b29728e508e7419e940631ea", "is_disabled": 0, "rental_uris": {"ios": "https://dc.lft.to/lastmile_qr_scan", "android": "https://dc.lft.to/lastmile_qr_scan"}, "is_reserved": 0}, {"lon": -77.03208816666667, "bike_id": "e35a86231fd1f07df543733a9cc364b9", "lat": 38.928747333333334, "fusion_lon": 0.0, "fusion_lat": 0.0, "type": "electric_scooter", "name": "e35a86231fd1f07df543733a9cc364b9", "is_disabled": 0, "rental_uris": {"ios": "https://dc.lft.to/lastmile_qr_scan", "android": "https://dc.lft.to/lastmile_qr_scan"}, "is_reserved": 0}, {"lon": -77.01073783333334, "bike_id": "74c201200f60fd00ce13fd5a58a276af", "lat": 38.907222833333336, "fusion_lon": 0.0, "fusion_lat": 0.0, "type": "electric_bike", "name": "74c201200f60fd00ce13fd5a58a276af", "is_disabled": 0, "rental_uris": {"ios": "https://dc.lft.to/lastmile_qr_scan", "android": "https://dc.lft.to/lastmile_qr_scan"}, "is_reserved": 0}, {"lon": -77.02651966666667, "bike_id": "867ed6a06621cac2ccbfbf9363237033", "lat": 38.938662666666666, "fusion_lon": 0.0, "fusion_lat": 0.0, "type": "electric_scooter", "name": "867ed6a06621cac2ccbfbf9363237033", "is_disabled": 0, "rental_uris": {"ios": "https://dc.lft.to/lastmile_qr_scan", "android": "https://dc.lft.to/lastmile_qr_scan"}, "is_reserved": 0}, {"lon": -77.03134116666666, "bike_id": "8565a48901dda790a14f62ff1f06cf9c", "lat": 38.915602166666666, "fusion_lon": 0.0, "fusion_lat": 0.0, "type": "electric_bike", "name": "8565a48901dda790a14f62ff1f06cf9c", "is_disabled": 0, "rental_uris": {"ios": "https://dc.lft.to/lastmile_qr_scan", "android": "https://dc.lft.to/lastmile_qr_scan"}, "is_reserved": 0}, {"lon": -77.03210133333333, "bike_id": "c8710fde005441b5b8f422707c475c50", "lat": 38.914999333333334, "fusion_lon": 0.0, "fusion_lat": 0.0, "type": "electric_scooter", "name": "c8710fde005441b5b8f422707c475c50", "is_disabled": 0, "rental_uris": {"ios": "https://dc.lft.to/lastmile_qr_scan", "android": "https://dc.lft.to/lastmile_qr_scan"}, "is_reserved": 0}, {"lon": -77.01058466666667, "bike_id": "f4807aadbf6d50ba27ae84d3c6eca801", "lat": 38.8786985, "fusion_lon": 0.0, "fusion_lat": 0.0, "type": "electric_scooter", "name": "f4807aadbf6d50ba27ae84d3c6eca801", "is_disabled": 0, "rental_uris": {"ios": "https://dc.lft.to/lastmile_qr_scan", "android": "https://dc.lft.to/lastmile_qr_scan"}, "is_reserved": 0}, {"lon": -76.983657, "bike_id": "10bdca6a37a5c71b542e62ec43400280", "lat": 38.9154635, "fusion_lon": 0.0, "fusion_lat": 0.0, "type": "electric_scooter", "name": "10bdca6a37a5c71b542e62ec43400280", "is_disabled": 0, "rental_uris": {"ios": "https://dc.lft.to/lastmile_qr_scan", "android": "https://dc.lft.to/lastmile_qr_scan"}, "is_reserved": 0}, {"lon": -77.03237433333334, "bike_id": "12ddd661e694c9e5d733d3b097c1014d", "lat": 38.909678, "fusion_lon": 0.0, "fusion_lat": 0.0, "type": "electric_scooter", "name": "12ddd661e694c9e5d733d3b097c1014d", "is_disabled": 0, "rental_uris": {"ios": "https://dc.lft.to/lastmile_qr_scan", "android": "https://dc.lft.to/lastmile_qr_scan"}, "is_reserved": 0}, {"lon": -77.03107366666667, "bike_id": "7acfb163196ebf168e12d3400947ea43", "lat": 38.91557516666667, "fusion_lon": 0.0, "fusion_lat": 0.0, "type": "electric_scooter", "name": "7acfb163196ebf168e12d3400947ea43", "is_disabled": 0, "rental_uris": {"ios": "https://dc.lft.to/lastmile_qr_scan", "android": "https://dc.lft.to/lastmile_qr_scan"}, "is_reserved": 0}, {"lon": -76.99351816666666, "bike_id": "ea610e216da8d2a7bc100b18572355b9", "lat": 38.845085166666664, "fusion_lon": 0.0, "fusion_lat": 0.0, "type": "electric_bike", "name": "ea610e216da8d2a7bc100b18572355b9", "is_disabled": 0, "rental_uris": {"ios": "https://dc.lft.to/lastmile_qr_scan", "android": "https://dc.lft.to/lastmile_qr_scan"}, "is_reserved": 0}, {"lon": -77.02174466666666, "bike_id": "2421f70e002c739d7eee2c4e86a65e63", "lat": 38.92013466666667, "fusion_lon": 0.0, "fusion_lat": 0.0, "type": "electric_scooter", "name": "2421f70e002c739d7eee2c4e86a65e63", "is_disabled": 0, "rental_uris": {"ios": "https://dc.lft.to/lastmile_qr_scan", "android": "https://dc.lft.to/lastmile_qr_scan"}, "is_reserved": 0}, {"lon": -76.998846, "bike_id": "8397ad1c9f41dfacab5bad7b6cf3086b", "lat": 38.9205565, "fusion_lon": 0.0, "fusion_lat": 0.0, "type": "electric_scooter", "name": "8397ad1c9f41dfacab5bad7b6cf3086b", "is_disabled": 0, "rental_uris": {"ios": "https://dc.lft.to/lastmile_qr_scan", "android": "https://dc.lft.to/lastmile_qr_scan"}, "is_reserved": 0}, {"lon": -77.05343366666666, "bike_id": "73fc08c5a8acadfdbaf7df39798fcbb0", "lat": 38.90267433333333, "fusion_lon": 0.0, "fusion_lat": 0.0, "type": "electric_scooter", "name": "73fc08c5a8acadfdbaf7df39798fcbb0", "is_disabled": 0, "rental_uris": {"ios": "https://dc.lft.to/lastmile_qr_scan", "android": "https://dc.lft.to/lastmile_qr_scan"}, "is_reserved": 0}, {"lon": -77.0465565, "bike_id": "033cb057bffa3d905e2e895884842c21", "lat": 38.89834233333333, "fusion_lon": 0.0, "fusion_lat": 0.0, "type": "electric_scooter", "name": "033cb057bffa3d905e2e895884842c21", "is_disabled": 0, "rental_uris": {"ios": "https://dc.lft.to/lastmile_qr_scan", "android": "https://dc.lft.to/lastmile_qr_scan"}, "is_reserved": 0}, {"lon": -77.02231533333334, "bike_id": "c0cd5f14387b15d15e4379370cb530c8", "lat": 38.96216583333333, "fusion_lon": 0.0, "fusion_lat": 0.0, "type": "electric_bike", "name": "c0cd5f14387b15d15e4379370cb530c8", "is_disabled": 0, "rental_uris": {"ios": "https://dc.lft.to/lastmile_qr_scan", "android": "https://dc.lft.to/lastmile_qr_scan"}, "is_reserved": 0}, {"lon": -77.04659416666667, "bike_id": "debb19134329b53df6c45ec158d9514e", "lat": 38.905520833333334, "fusion_lon": 0.0, "fusion_lat": 0.0, "type": "electric_scooter", "name": "debb19134329b53df6c45ec158d9514e", "is_disabled": 0, "rental_uris": {"ios": "https://dc.lft.to/lastmile_qr_scan", "android": "https://dc.lft.to/lastmile_qr_scan"}, "is_reserved": 0}, {"lon": -77.04391766666667, "bike_id": "44c4a55094340706b4026fc3b6dea581", "lat": 39.04718966666667, "fusion_lon": 0.0, "fusion_lat": 0.0, "type": "electric_bike", "name": "44c4a55094340706b4026fc3b6dea581", "is_disabled": 0, "rental_uris": {"ios": "https://dc.lft.to/lastmile_qr_scan", "android": "https://dc.lft.to/lastmile_qr_scan"}, "is_reserved": 0}, {"lon": -77.04494133333333, "bike_id": "97d1ed412fefce272952d24ed917d397", "lat": 38.89752683333333, "fusion_lon": 0.0, "fusion_lat": 0.0, "type": "electric_scooter", "name": "97d1ed412fefce272952d24ed917d397", "is_disabled": 0, "rental_uris": {"ios": "https://dc.lft.to/lastmile_qr_scan", "android": "https://dc.lft.to/lastmile_qr_scan"}, "is_reserved": 0}, {"lon": -77.02430466666667, "bike_id": "eb4a77abe8f607014fbd542ab9fb25b0", "lat": 38.92058516666667, "fusion_lon": 0.0, "fusion_lat": 0.0, "type": "electric_scooter", "name": "eb4a77abe8f607014fbd542ab9fb25b0", "is_disabled": 0, "rental_uris": {"ios": "https://dc.lft.to/lastmile_qr_scan", "android": "https://dc.lft.to/lastmile_qr_scan"}, "is_reserved": 0}, {"lon": -77.01849016666667, "bike_id": "59962098af999d71ad5bb90cfe4cab8c", "lat": 38.93998283333333, "fusion_lon": 0.0, "fusion_lat": 0.0, "type": "electric_scooter", "name": "59962098af999d71ad5bb90cfe4cab8c", "is_disabled": 0, "rental_uris": {"ios": "https://dc.lft.to/lastmile_qr_scan", "android": "https://dc.lft.to/lastmile_qr_scan"}, "is_reserved": 0}, {"lon": -77.073555, "bike_id": "855c6f728c3dba0ca25ddafb703089b2", "lat": 38.910030666666664, "fusion_lon": 0.0, "fusion_lat": 0.0, "type": "electric_scooter", "name": "855c6f728c3dba0ca25ddafb703089b2", "is_disabled": 0, "rental_uris": {"ios": "https://dc.lft.to/lastmile_qr_scan", "android": "https://dc.lft.to/lastmile_qr_scan"}, "is_reserved": 0}, {"lon": -77.00118283333333, "bike_id": "bb662c2ec10af2a1edd0149b5d5a3222", "lat": 38.874822, "fusion_lon": 0.0, "fusion_lat": 0.0, "type": "electric_scooter", "name": "bb662c2ec10af2a1edd0149b5d5a3222", "is_disabled": 0, "rental_uris": {"ios": "https://dc.lft.to/lastmile_qr_scan", "android": "https://dc.lft.to/lastmile_qr_scan"}, "is_reserved": 0}, {"lon": -76.955762, "bike_id": "8d984339d165e6d58066d43c37d8bab7", "lat": 38.887653666666665, "fusion_lon": 0.0, "fusion_lat": 0.0, "type": "electric_scooter", "name": "8d984339d165e6d58066d43c37d8bab7", "is_disabled": 0, "rental_uris": {"ios": "https://dc.lft.to/lastmile_qr_scan", "android": "https://dc.lft.to/lastmile_qr_scan"}, "is_reserved": 0}, {"lon": -77.00198333333333, "bike_id": "c02ffb77be12da706a2295a6905ebaee", "lat": 38.90238733333333, "fusion_lon": 0.0, "fusion_lat": 0.0, "type": "electric_scooter", "name": "c02ffb77be12da706a2295a6905ebaee", "is_disabled": 0, "rental_uris": {"ios": "https://dc.lft.to/lastmile_qr_scan", "android": "https://dc.lft.to/lastmile_qr_scan"}, "is_reserved": 0}, {"lon": -77.02840816666667, "bike_id": "bd9725ac3aa2db020ad4e40056d4316d", "lat": 38.925753, "fusion_lon": 0.0, "fusion_lat": 0.0, "type": "electric_scooter", "name": "bd9725ac3aa2db020ad4e40056d4316d", "is_disabled": 0, "rental_uris": {"ios": "https://dc.lft.to/lastmile_qr_scan", "android": "https://dc.lft.to/lastmile_qr_scan"}, "is_reserved": 0}, {"lon": -76.985468, "bike_id": "b549be738912a964b72f0e9778809ad3", "lat": 38.92018183333333, "fusion_lon": 0.0, "fusion_lat": 0.0, "type": "electric_scooter", "name": "b549be738912a964b72f0e9778809ad3", "is_disabled": 0, "rental_uris": {"ios": "https://dc.lft.to/lastmile_qr_scan", "android": "https://dc.lft.to/lastmile_qr_scan"}, "is_reserved": 0}, {"lon": -76.98923216666667, "bike_id": "0e9946c5916195e494464d87786c07d3", "lat": 38.85810016666667, "fusion_lon": 0.0, "fusion_lat": 0.0, "type": "electric_scooter", "name": "0e9946c5916195e494464d87786c07d3", "is_disabled": 0, "rental_uris": {"ios": "https://dc.lft.to/lastmile_qr_scan", "android": "https://dc.lft.to/lastmile_qr_scan"}, "is_reserved": 0}, {"lon": -77.022291, "bike_id": "92363edf0dd6187a3d06cd60c2e62ead", "lat": 38.9261335, "fusion_lon": 0.0, "fusion_lat": 0.0, "type": "electric_scooter", "name": "92363edf0dd6187a3d06cd60c2e62ead", "is_disabled": 0, "rental_uris": {"ios": "https://dc.lft.to/lastmile_qr_scan", "android": "https://dc.lft.to/lastmile_qr_scan"}, "is_reserved": 0}, {"lon": -77.02499333333333, "bike_id": "c1593c61d5e746da910de61bff53b75f", "lat": 38.920902166666664, "fusion_lon": 0.0, "fusion_lat": 0.0, "type": "electric_scooter", "name": "c1593c61d5e746da910de61bff53b75f", "is_disabled": 0, "rental_uris": {"ios": "https://dc.lft.to/lastmile_qr_scan", "android": "https://dc.lft.to/lastmile_qr_scan"}, "is_reserved": 0}, {"lon": -77.03211, "bike_id": "c277a98279b4449ed0cf78cf9afdb298", "lat": 38.912508333333335, "fusion_lon": 0.0, "fusion_lat": 0.0, "type": "electric_scooter", "name": "c277a98279b4449ed0cf78cf9afdb298", "is_disabled": 0, "rental_uris": {"ios": "https://dc.lft.to/lastmile_qr_scan", "android": "https://dc.lft.to/lastmile_qr_scan"}, "is_reserved": 0}, {"lon": -77.02471583333333, "bike_id": "5aa19c7cf665f43daaa0966de4f63b6d", "lat": 38.93863133333333, "fusion_lon": 0.0, "fusion_lat": 0.0, "type": "electric_scooter", "name": "5aa19c7cf665f43daaa0966de4f63b6d", "is_disabled": 0, "rental_uris": {"ios": "https://dc.lft.to/lastmile_qr_scan", "android": "https://dc.lft.to/lastmile_qr_scan"}, "is_reserved": 0}, {"lon": -76.97765616666666, "bike_id": "1c2ffa576249804d92d554ea529c559a", "lat": 38.951547166666664, "fusion_lon": 0.0, "fusion_lat": 0.0, "type": "electric_bike", "name": "1c2ffa576249804d92d554ea529c559a", "is_disabled": 0, "rental_uris": {"ios": "https://dc.lft.to/lastmile_qr_scan", "android": "https://dc.lft.to/lastmile_qr_scan"}, "is_reserved": 0}, {"lon": -77.043807, "bike_id": "c9f79185c12f1e6a4031adde0c6a9e1d", "lat": 38.920961, "fusion_lon": 0.0, "fusion_lat": 0.0, "type": "electric_scooter", "name": "c9f79185c12f1e6a4031adde0c6a9e1d", "is_disabled": 0, "rental_uris": {"ios": "https://dc.lft.to/lastmile_qr_scan", "android": "https://dc.lft.to/lastmile_qr_scan"}, "is_reserved": 0}, {"lon": -77.0259055, "bike_id": "5c869849e992a6d56d347f657c0c3621", "lat": 38.942000166666666, "fusion_lon": 0.0, "fusion_lat": 0.0, "type": "electric_scooter", "name": "5c869849e992a6d56d347f657c0c3621", "is_disabled": 0, "rental_uris": {"ios": "https://dc.lft.to/lastmile_qr_scan", "android": "https://dc.lft.to/lastmile_qr_scan"}, "is_reserved": 0}, {"lon": -77.01772233333334, "bike_id": "3c5a990ef10bbc15d66c0e5e67928dde", "lat": 38.88605866666666, "fusion_lon": 0.0, "fusion_lat": 0.0, "type": "electric_scooter", "name": "3c5a990ef10bbc15d66c0e5e67928dde", "is_disabled": 0, "rental_uris": {"ios": "https://dc.lft.to/lastmile_qr_scan", "android": "https://dc.lft.to/lastmile_qr_scan"}, "is_reserved": 0}, {"lon": -77.031965, "bike_id": "7c39db2dd210a79c6b24c25463c7da56", "lat": 38.898530666666666, "fusion_lon": 0.0, "fusion_lat": 0.0, "type": "electric_scooter", "name": "7c39db2dd210a79c6b24c25463c7da56", "is_disabled": 0, "rental_uris": {"ios": "https://dc.lft.to/lastmile_qr_scan", "android": "https://dc.lft.to/lastmile_qr_scan"}, "is_reserved": 0}, {"lon": -77.03806933333334, "bike_id": "642144a4c206772ba95d046aea157058", "lat": 38.920699, "fusion_lon": 0.0, "fusion_lat": 0.0, "type": "electric_scooter", "name": "642144a4c206772ba95d046aea157058", "is_disabled": 0, "rental_uris": {"ios": "https://dc.lft.to/lastmile_qr_scan", "android": "https://dc.lft.to/lastmile_qr_scan"}, "is_reserved": 0}, {"lon": -77.03201666666666, "bike_id": "fc0f44c51d33dff2718c62ddb4ce603b", "lat": 38.94410516666667, "fusion_lon": 0.0, "fusion_lat": 0.0, "type": "electric_scooter", "name": "fc0f44c51d33dff2718c62ddb4ce603b", "is_disabled": 0, "rental_uris": {"ios": "https://dc.lft.to/lastmile_qr_scan", "android": "https://dc.lft.to/lastmile_qr_scan"}, "is_reserved": 0}, {"lon": -77.000451, "bike_id": "b48650ecd52d6aa231d26cfd926a50dc", "lat": 38.96867266666667, "fusion_lon": 0.0, "fusion_lat": 0.0, "type": "electric_bike", "name": "b48650ecd52d6aa231d26cfd926a50dc", "is_disabled": 0, "rental_uris": {"ios": "https://dc.lft.to/lastmile_qr_scan", "android": "https://dc.lft.to/lastmile_qr_scan"}, "is_reserved": 0}, {"lon": -77.03204783333334, "bike_id": "ed69de83fe46786ac750b73158345486", "lat": 38.9173185, "fusion_lon": 0.0, "fusion_lat": 0.0, "type": "electric_scooter", "name": "ed69de83fe46786ac750b73158345486", "is_disabled": 0, "rental_uris": {"ios": "https://dc.lft.to/lastmile_qr_scan", "android": "https://dc.lft.to/lastmile_qr_scan"}, "is_reserved": 0}, {"lon": -77.0380085, "bike_id": "751b8f7a725690d00755acb6fe20fc29", "lat": 38.910379, "fusion_lon": 0.0, "fusion_lat": 0.0, "type": "electric_scooter", "name": "751b8f7a725690d00755acb6fe20fc29", "is_disabled": 0, "rental_uris": {"ios": "https://dc.lft.to/lastmile_qr_scan", "android": "https://dc.lft.to/lastmile_qr_scan"}, "is_reserved": 0}, {"lon": -77.03301483333334, "bike_id": "e6a71c0275c9c3d05147ee974c746d91", "lat": 38.90144433333333, "fusion_lon": 0.0, "fusion_lat": 0.0, "type": "electric_scooter", "name": "e6a71c0275c9c3d05147ee974c746d91", "is_disabled": 0, "rental_uris": {"ios": "https://dc.lft.to/lastmile_qr_scan", "android": "https://dc.lft.to/lastmile_qr_scan"}, "is_reserved": 0}, {"lon": -77.02657133333334, "bike_id": "d1d86a35d53c7f523cffb6472f9880d6", "lat": 38.927836, "fusion_lon": 0.0, "fusion_lat": 0.0, "type": "electric_scooter", "name": "d1d86a35d53c7f523cffb6472f9880d6", "is_disabled": 0, "rental_uris": {"ios": "https://dc.lft.to/lastmile_qr_scan", "android": "https://dc.lft.to/lastmile_qr_scan"}, "is_reserved": 0}, {"lon": -77.03244183333334, "bike_id": "c82b67d4c7235d26b0788626a3694fe7", "lat": 38.92881933333334, "fusion_lon": 0.0, "fusion_lat": 0.0, "type": "electric_scooter", "name": "c82b67d4c7235d26b0788626a3694fe7", "is_disabled": 0, "rental_uris": {"ios": "https://dc.lft.to/lastmile_qr_scan", "android": "https://dc.lft.to/lastmile_qr_scan"}, "is_reserved": 0}, {"lon": -77.0502835, "bike_id": "d3dbb571b847dc6c23b81351e885e7bf", "lat": 38.90045883333333, "fusion_lon": 0.0, "fusion_lat": 0.0, "type": "electric_scooter", "name": "d3dbb571b847dc6c23b81351e885e7bf", "is_disabled": 0, "rental_uris": {"ios": "https://dc.lft.to/lastmile_qr_scan", "android": "https://dc.lft.to/lastmile_qr_scan"}, "is_reserved": 0}, {"lon": -77.00197483333334, "bike_id": "61e99f66a1b8a2d1a45f37e710d8097a", "lat": 38.90240516666667, "fusion_lon": 0.0, "fusion_lat": 0.0, "type": "electric_scooter", "name": "61e99f66a1b8a2d1a45f37e710d8097a", "is_disabled": 0, "rental_uris": {"ios": "https://dc.lft.to/lastmile_qr_scan", "android": "https://dc.lft.to/lastmile_qr_scan"}, "is_reserved": 0}, {"lon": -77.03660683333334, "bike_id": "97d32d681931c635dcb36e953985df0b", "lat": 38.921361166666664, "fusion_lon": 0.0, "fusion_lat": 0.0, "type": "electric_scooter", "name": "97d32d681931c635dcb36e953985df0b", "is_disabled": 0, "rental_uris": {"ios": "https://dc.lft.to/lastmile_qr_scan", "android": "https://dc.lft.to/lastmile_qr_scan"}, "is_reserved": 0}, {"lon": -77.050458, "bike_id": "bbad0cf8c9cf4d69256d9f20e85d7048", "lat": 38.92361416666667, "fusion_lon": 0.0, "fusion_lat": 0.0, "type": "electric_scooter", "name": "bbad0cf8c9cf4d69256d9f20e85d7048", "is_disabled": 0, "rental_uris": {"ios": "https://dc.lft.to/lastmile_qr_scan", "android": "https://dc.lft.to/lastmile_qr_scan"}, "is_reserved": 0}, {"lon": -77.03880116666667, "bike_id": "6a9d282c69243d815f75f6bdbc4ff523", "lat": 38.92960716666666, "fusion_lon": 0.0, "fusion_lat": 0.0, "type": "electric_scooter", "name": "6a9d282c69243d815f75f6bdbc4ff523", "is_disabled": 0, "rental_uris": {"ios": "https://dc.lft.to/lastmile_qr_scan", "android": "https://dc.lft.to/lastmile_qr_scan"}, "is_reserved": 0}, {"lon": -77.05435533333333, "bike_id": "372f4db89f6af7111e53da8892aa141e", "lat": 38.836900666666665, "fusion_lon": 0.0, "fusion_lat": 0.0, "type": "electric_bike", "name": "372f4db89f6af7111e53da8892aa141e", "is_disabled": 0, "rental_uris": {"ios": "https://dc.lft.to/lastmile_qr_scan", "android": "https://dc.lft.to/lastmile_qr_scan"}, "is_reserved": 0}, {"lon": -76.99883133333333, "bike_id": "e497cfc0ef924cef55b557c8f7f14906", "lat": 38.920587, "fusion_lon": 0.0, "fusion_lat": 0.0, "type": "electric_scooter", "name": "e497cfc0ef924cef55b557c8f7f14906", "is_disabled": 0, "rental_uris": {"ios": "https://dc.lft.to/lastmile_qr_scan", "android": "https://dc.lft.to/lastmile_qr_scan"}, "is_reserved": 0}, {"lon": -77.032635, "bike_id": "338c7f85c540e94180e412aa6ea2ad25", "lat": 38.938911833333336, "fusion_lon": 0.0, "fusion_lat": 0.0, "type": "electric_scooter", "name": "338c7f85c540e94180e412aa6ea2ad25", "is_disabled": 0, "rental_uris": {"ios": "https://dc.lft.to/lastmile_qr_scan", "android": "https://dc.lft.to/lastmile_qr_scan"}, "is_reserved": 0}, {"lon": -77.03204183333334, "bike_id": "d811beb0b02badd9e0c5940c4298f100", "lat": 38.903541833333335, "fusion_lon": 0.0, "fusion_lat": 0.0, "type": "electric_scooter", "name": "d811beb0b02badd9e0c5940c4298f100", "is_disabled": 0, "rental_uris": {"ios": "https://dc.lft.to/lastmile_qr_scan", "android": "https://dc.lft.to/lastmile_qr_scan"}, "is_reserved": 0}, {"lon": -77.0414, "bike_id": "179e62d82567590f2c451780e453ef6c", "lat": 38.903163166666666, "fusion_lon": 0.0, "fusion_lat": 0.0, "type": "electric_scooter", "name": "179e62d82567590f2c451780e453ef6c", "is_disabled": 0, "rental_uris": {"ios": "https://dc.lft.to/lastmile_qr_scan", "android": "https://dc.lft.to/lastmile_qr_scan"}, "is_reserved": 0}, {"lon": -77.00658316666667, "bike_id": "2df11b52cdc67a6488904e63e660623c", "lat": 38.838948333333335, "fusion_lon": 0.0, "fusion_lat": 0.0, "type": "electric_scooter", "name": "2df11b52cdc67a6488904e63e660623c", "is_disabled": 0, "rental_uris": {"ios": "https://dc.lft.to/lastmile_qr_scan", "android": "https://dc.lft.to/lastmile_qr_scan"}, "is_reserved": 0}, {"lon": -76.93175333333333, "bike_id": "42479c105f046766d171a56d35a6d8fd", "lat": 38.898841, "fusion_lon": 0.0, "fusion_lat": 0.0, "type": "electric_scooter", "name": "42479c105f046766d171a56d35a6d8fd", "is_disabled": 0, "rental_uris": {"ios": "https://dc.lft.to/lastmile_qr_scan", "android": "https://dc.lft.to/lastmile_qr_scan"}, "is_reserved": 0}, {"lon": -77.03292183333333, "bike_id": "ec834d1e5010fb8ebee8f452486f5608", "lat": 38.95652916666667, "fusion_lon": 0.0, "fusion_lat": 0.0, "type": "electric_scooter", "name": "ec834d1e5010fb8ebee8f452486f5608", "is_disabled": 0, "rental_uris": {"ios": "https://dc.lft.to/lastmile_qr_scan", "android": "https://dc.lft.to/lastmile_qr_scan"}, "is_reserved": 0}, {"lon": -76.87495483333333, "bike_id": "f5100eca3ba2a49718ba67ec212ad863", "lat": 38.990904666666665, "fusion_lon": 0.0, "fusion_lat": 0.0, "type": "electric_bike", "name": "f5100eca3ba2a49718ba67ec212ad863", "is_disabled": 0, "rental_uris": {"ios": "https://dc.lft.to/lastmile_qr_scan", "android": "https://dc.lft.to/lastmile_qr_scan"}, "is_reserved": 0}, {"lon": -77.03870133333334, "bike_id": "5c1ba84dc104870ecabef3643d7eceed", "lat": 38.906613, "fusion_lon": 0.0, "fusion_lat": 0.0, "type": "electric_scooter", "name": "5c1ba84dc104870ecabef3643d7eceed", "is_disabled": 0, "rental_uris": {"ios": "https://dc.lft.to/lastmile_qr_scan", "android": "https://dc.lft.to/lastmile_qr_scan"}, "is_reserved": 0}, {"lon": -77.02564516666666, "bike_id": "fb6e6f5226558c9c1789c604530d4ed1", "lat": 38.938686833333335, "fusion_lon": 0.0, "fusion_lat": 0.0, "type": "electric_scooter", "name": "fb6e6f5226558c9c1789c604530d4ed1", "is_disabled": 0, "rental_uris": {"ios": "https://dc.lft.to/lastmile_qr_scan", "android": "https://dc.lft.to/lastmile_qr_scan"}, "is_reserved": 0}, {"lon": -76.95751533333333, "bike_id": "689cc355acf1d05fa99fc8ae709a129e", "lat": 38.884309333333334, "fusion_lon": 0.0, "fusion_lat": 0.0, "type": "electric_scooter", "name": "689cc355acf1d05fa99fc8ae709a129e", "is_disabled": 0, "rental_uris": {"ios": "https://dc.lft.to/lastmile_qr_scan", "android": "https://dc.lft.to/lastmile_qr_scan"}, "is_reserved": 0}, {"lon": -77.02745566666667, "bike_id": "e154559b035f4f5ace10b3761ea15e87", "lat": 38.8973235, "fusion_lon": 0.0, "fusion_lat": 0.0, "type": "electric_scooter", "name": "e154559b035f4f5ace10b3761ea15e87", "is_disabled": 0, "rental_uris": {"ios": "https://dc.lft.to/lastmile_qr_scan", "android": "https://dc.lft.to/lastmile_qr_scan"}, "is_reserved": 0}, {"lon": -76.93017533333334, "bike_id": "468a25e3bdb5026b303cbcffd5bda30a", "lat": 38.89658633333333, "fusion_lon": 0.0, "fusion_lat": 0.0, "type": "electric_bike", "name": "468a25e3bdb5026b303cbcffd5bda30a", "is_disabled": 0, "rental_uris": {"ios": "https://dc.lft.to/lastmile_qr_scan", "android": "https://dc.lft.to/lastmile_qr_scan"}, "is_reserved": 0}, {"lon": -76.99890166666667, "bike_id": "8f79775472f73a566d386dc73b199e4c", "lat": 38.90959633333333, "fusion_lon": 0.0, "fusion_lat": 0.0, "type": "electric_scooter", "name": "8f79775472f73a566d386dc73b199e4c", "is_disabled": 0, "rental_uris": {"ios": "https://dc.lft.to/lastmile_qr_scan", "android": "https://dc.lft.to/lastmile_qr_scan"}, "is_reserved": 0}, {"lon": -77.01877516666667, "bike_id": "d11bd08d0e4da586f2f91646fceeb578", "lat": 38.90270433333333, "fusion_lon": 0.0, "fusion_lat": 0.0, "type": "electric_scooter", "name": "d11bd08d0e4da586f2f91646fceeb578", "is_disabled": 0, "rental_uris": {"ios": "https://dc.lft.to/lastmile_qr_scan", "android": "https://dc.lft.to/lastmile_qr_scan"}, "is_reserved": 0}, {"lon": -77.01813416666667, "bike_id": "79fd115a1400b359a28e23818496123d", "lat": 38.914705, "fusion_lon": 0.0, "fusion_lat": 0.0, "type": "electric_scooter", "name": "79fd115a1400b359a28e23818496123d", "is_disabled": 0, "rental_uris": {"ios": "https://dc.lft.to/lastmile_qr_scan", "android": "https://dc.lft.to/lastmile_qr_scan"}, "is_reserved": 0}, {"lon": -77.034131, "bike_id": "adb878c95423d1e7c0820cb02c6f7c93", "lat": 38.905565333333335, "fusion_lon": 0.0, "fusion_lat": 0.0, "type": "electric_scooter", "name": "adb878c95423d1e7c0820cb02c6f7c93", "is_disabled": 0, "rental_uris": {"ios": "https://dc.lft.to/lastmile_qr_scan", "android": "https://dc.lft.to/lastmile_qr_scan"}, "is_reserved": 0}, {"lon": -77.0332695, "bike_id": "51f7065e2650470659de39fc3db64af9", "lat": 38.9389805, "fusion_lon": 0.0, "fusion_lat": 0.0, "type": "electric_scooter", "name": "51f7065e2650470659de39fc3db64af9", "is_disabled": 0, "rental_uris": {"ios": "https://dc.lft.to/lastmile_qr_scan", "android": "https://dc.lft.to/lastmile_qr_scan"}, "is_reserved": 0}, {"lon": -77.03519066666667, "bike_id": "53b977782dc73797a394a5cf9ad591ed", "lat": 38.9159895, "fusion_lon": 0.0, "fusion_lat": 0.0, "type": "electric_scooter", "name": "53b977782dc73797a394a5cf9ad591ed", "is_disabled": 0, "rental_uris": {"ios": "https://dc.lft.to/lastmile_qr_scan", "android": "https://dc.lft.to/lastmile_qr_scan"}, "is_reserved": 0}, {"lon": -76.99510616666667, "bike_id": "d42d5dd61fc45b3c25573d2d98bd0265", "lat": 38.87915866666667, "fusion_lon": 0.0, "fusion_lat": 0.0, "type": "electric_scooter", "name": "d42d5dd61fc45b3c25573d2d98bd0265", "is_disabled": 0, "rental_uris": {"ios": "https://dc.lft.to/lastmile_qr_scan", "android": "https://dc.lft.to/lastmile_qr_scan"}, "is_reserved": 0}, {"lon": -77.036503, "bike_id": "2acb8eec416685a30192c2a786af0b0c", "lat": 38.9130885, "fusion_lon": 0.0, "fusion_lat": 0.0, "type": "electric_scooter", "name": "2acb8eec416685a30192c2a786af0b0c", "is_disabled": 0, "rental_uris": {"ios": "https://dc.lft.to/lastmile_qr_scan", "android": "https://dc.lft.to/lastmile_qr_scan"}, "is_reserved": 0}, {"lon": -77.04134983333333, "bike_id": "5d3758801e68168143ff8f48112f8faf", "lat": 38.9213965, "fusion_lon": 0.0, "fusion_lat": 0.0, "type": "electric_scooter", "name": "5d3758801e68168143ff8f48112f8faf", "is_disabled": 0, "rental_uris": {"ios": "https://dc.lft.to/lastmile_qr_scan", "android": "https://dc.lft.to/lastmile_qr_scan"}, "is_reserved": 0}, {"lon": -77.03257366666666, "bike_id": "8367797630e18f1e0a1d570b3568039d", "lat": 38.94275583333334, "fusion_lon": 0.0, "fusion_lat": 0.0, "type": "electric_scooter", "name": "8367797630e18f1e0a1d570b3568039d", "is_disabled": 0, "rental_uris": {"ios": "https://dc.lft.to/lastmile_qr_scan", "android": "https://dc.lft.to/lastmile_qr_scan"}, "is_reserved": 0}, {"lon": -77.01853633333333, "bike_id": "72c7bbc43048a2f97e7cfd33e9a1326e", "lat": 38.9028035, "fusion_lon": 0.0, "fusion_lat": 0.0, "type": "electric_scooter", "name": "72c7bbc43048a2f97e7cfd33e9a1326e", "is_disabled": 0, "rental_uris": {"ios": "https://dc.lft.to/lastmile_qr_scan", "android": "https://dc.lft.to/lastmile_qr_scan"}, "is_reserved": 0}, {"lon": -76.99641883333334, "bike_id": "45536feb874accd448ce2898b3c844ca", "lat": 38.988242166666666, "fusion_lon": 0.0, "fusion_lat": 0.0, "type": "electric_bike", "name": "45536feb874accd448ce2898b3c844ca", "is_disabled": 0, "rental_uris": {"ios": "https://dc.lft.to/lastmile_qr_scan", "android": "https://dc.lft.to/lastmile_qr_scan"}, "is_reserved": 0}, {"lon": -77.0320885, "bike_id": "a24f95bfe2af22aa5ae9414419fa304a", "lat": 38.91499233333333, "fusion_lon": 0.0, "fusion_lat": 0.0, "type": "electric_scooter", "name": "a24f95bfe2af22aa5ae9414419fa304a", "is_disabled": 0, "rental_uris": {"ios": "https://dc.lft.to/lastmile_qr_scan", "android": "https://dc.lft.to/lastmile_qr_scan"}, "is_reserved": 0}, {"lon": -77.03862383333333, "bike_id": "5248d2cf85b078b8ff092a55f899b31e", "lat": 38.91183483333333, "fusion_lon": 0.0, "fusion_lat": 0.0, "type": "electric_scooter", "name": "5248d2cf85b078b8ff092a55f899b31e", "is_disabled": 0, "rental_uris": {"ios": "https://dc.lft.to/lastmile_qr_scan", "android": "https://dc.lft.to/lastmile_qr_scan"}, "is_reserved": 0}, {"lon": -77.082906, "bike_id": "df5ff37a46d64f899d6b91db104b8e3d", "lat": 38.9358555, "fusion_lon": 0.0, "fusion_lat": 0.0, "type": "electric_scooter", "name": "df5ff37a46d64f899d6b91db104b8e3d", "is_disabled": 0, "rental_uris": {"ios": "https://dc.lft.to/lastmile_qr_scan", "android": "https://dc.lft.to/lastmile_qr_scan"}, "is_reserved": 0}, {"lon": -77.03226616666667, "bike_id": "80bdcf06afc14c63fb71599b83eecd21", "lat": 38.89748866666667, "fusion_lon": 0.0, "fusion_lat": 0.0, "type": "electric_scooter", "name": "80bdcf06afc14c63fb71599b83eecd21", "is_disabled": 0, "rental_uris": {"ios": "https://dc.lft.to/lastmile_qr_scan", "android": "https://dc.lft.to/lastmile_qr_scan"}, "is_reserved": 0}, {"lon": -76.99674933333333, "bike_id": "9a46ed985507b206f6adc95897a42720", "lat": 38.86021783333333, "fusion_lon": 0.0, "fusion_lat": 0.0, "type": "electric_scooter", "name": "9a46ed985507b206f6adc95897a42720", "is_disabled": 0, "rental_uris": {"ios": "https://dc.lft.to/lastmile_qr_scan", "android": "https://dc.lft.to/lastmile_qr_scan"}, "is_reserved": 0}, {"lon": -76.97520866666666, "bike_id": "ef9d1b7ffea49cc6070423d892969bdd", "lat": 38.96700083333333, "fusion_lon": 0.0, "fusion_lat": 0.0, "type": "electric_bike", "name": "ef9d1b7ffea49cc6070423d892969bdd", "is_disabled": 0, "rental_uris": {"ios": "https://dc.lft.to/lastmile_qr_scan", "android": "https://dc.lft.to/lastmile_qr_scan"}, "is_reserved": 0}, {"lon": -77.0407855, "bike_id": "c4a4d2a310c3861b20c899be87c1cd55", "lat": 38.90704733333333, "fusion_lon": 0.0, "fusion_lat": 0.0, "type": "electric_scooter", "name": "c4a4d2a310c3861b20c899be87c1cd55", "is_disabled": 0, "rental_uris": {"ios": "https://dc.lft.to/lastmile_qr_scan", "android": "https://dc.lft.to/lastmile_qr_scan"}, "is_reserved": 0}, {"lon": -77.0344955, "bike_id": "f51633778eb9138bdbefc9df82d3b39f", "lat": 38.918170333333336, "fusion_lon": 0.0, "fusion_lat": 0.0, "type": "electric_scooter", "name": "f51633778eb9138bdbefc9df82d3b39f", "is_disabled": 0, "rental_uris": {"ios": "https://dc.lft.to/lastmile_qr_scan", "android": "https://dc.lft.to/lastmile_qr_scan"}, "is_reserved": 0}, {"lon": -77.05041616666666, "bike_id": "b87bc55b47851d44bf6bf333f251a1e2", "lat": 38.900361833333335, "fusion_lon": 0.0, "fusion_lat": 0.0, "type": "electric_scooter", "name": "b87bc55b47851d44bf6bf333f251a1e2", "is_disabled": 0, "rental_uris": {"ios": "https://dc.lft.to/lastmile_qr_scan", "android": "https://dc.lft.to/lastmile_qr_scan"}, "is_reserved": 0}, {"lon": -77.02375416666666, "bike_id": "9738651effe6b06345622477d6e6d113", "lat": 38.89219466666667, "fusion_lon": 0.0, "fusion_lat": 0.0, "type": "electric_scooter", "name": "9738651effe6b06345622477d6e6d113", "is_disabled": 0, "rental_uris": {"ios": "https://dc.lft.to/lastmile_qr_scan", "android": "https://dc.lft.to/lastmile_qr_scan"}, "is_reserved": 0}, {"lon": -77.02087133333333, "bike_id": "e6114acfdc873560e1591739bc5ee653", "lat": 38.95751683333334, "fusion_lon": 0.0, "fusion_lat": 0.0, "type": "electric_scooter", "name": "e6114acfdc873560e1591739bc5ee653", "is_disabled": 0, "rental_uris": {"ios": "https://dc.lft.to/lastmile_qr_scan", "android": "https://dc.lft.to/lastmile_qr_scan"}, "is_reserved": 0}, {"lon": -76.97296616666667, "bike_id": "6b918aaccf7e12b1ff290527b832e723", "lat": 38.91651016666667, "fusion_lon": 0.0, "fusion_lat": 0.0, "type": "electric_bike", "name": "6b918aaccf7e12b1ff290527b832e723", "is_disabled": 0, "rental_uris": {"ios": "https://dc.lft.to/lastmile_qr_scan", "android": "https://dc.lft.to/lastmile_qr_scan"}, "is_reserved": 0}, {"lon": -77.04468683333333, "bike_id": "f8b038700ddca5747cc3aa0cf475283b", "lat": 38.89222016666667, "fusion_lon": 0.0, "fusion_lat": 0.0, "type": "electric_scooter", "name": "f8b038700ddca5747cc3aa0cf475283b", "is_disabled": 0, "rental_uris": {"ios": "https://dc.lft.to/lastmile_qr_scan", "android": "https://dc.lft.to/lastmile_qr_scan"}, "is_reserved": 0}, {"lon": -77.01129733333333, "bike_id": "1756866286a7d4fa27526ecef2bfa7ad", "lat": 38.906423333333336, "fusion_lon": 0.0, "fusion_lat": 0.0, "type": "electric_scooter", "name": "1756866286a7d4fa27526ecef2bfa7ad", "is_disabled": 0, "rental_uris": {"ios": "https://dc.lft.to/lastmile_qr_scan", "android": "https://dc.lft.to/lastmile_qr_scan"}, "is_reserved": 0}, {"lon": -77.05000566666666, "bike_id": "e491719aa64955b286ae8a680b778156", "lat": 38.892313333333334, "fusion_lon": 0.0, "fusion_lat": 0.0, "type": "electric_scooter", "name": "e491719aa64955b286ae8a680b778156", "is_disabled": 0, "rental_uris": {"ios": "https://dc.lft.to/lastmile_qr_scan", "android": "https://dc.lft.to/lastmile_qr_scan"}, "is_reserved": 0}, {"lon": -76.988808, "bike_id": "44906547fc626180cf5356452a65a844", "lat": 38.866591666666665, "fusion_lon": 0.0, "fusion_lat": 0.0, "type": "electric_scooter", "name": "44906547fc626180cf5356452a65a844", "is_disabled": 0, "rental_uris": {"ios": "https://dc.lft.to/lastmile_qr_scan", "android": "https://dc.lft.to/lastmile_qr_scan"}, "is_reserved": 0}, {"lon": -77.0230305, "bike_id": "3616f6fd01f593e5cd1285b34e08e1fe", "lat": 38.918413, "fusion_lon": 0.0, "fusion_lat": 0.0, "type": "electric_scooter", "name": "3616f6fd01f593e5cd1285b34e08e1fe", "is_disabled": 0, "rental_uris": {"ios": "https://dc.lft.to/lastmile_qr_scan", "android": "https://dc.lft.to/lastmile_qr_scan"}, "is_reserved": 0}, {"lon": -77.00102183333334, "bike_id": "f8aa9695419c0d8287942b26d52550b3", "lat": 38.9124395, "fusion_lon": 0.0, "fusion_lat": 0.0, "type": "electric_scooter", "name": "f8aa9695419c0d8287942b26d52550b3", "is_disabled": 0, "rental_uris": {"ios": "https://dc.lft.to/lastmile_qr_scan", "android": "https://dc.lft.to/lastmile_qr_scan"}, "is_reserved": 0}, {"lon": -77.06772833333333, "bike_id": "cddf90e2db0ceccea5da49c44378ab15", "lat": 38.905081833333334, "fusion_lon": 0.0, "fusion_lat": 0.0, "type": "electric_scooter", "name": "cddf90e2db0ceccea5da49c44378ab15", "is_disabled": 0, "rental_uris": {"ios": "https://dc.lft.to/lastmile_qr_scan", "android": "https://dc.lft.to/lastmile_qr_scan"}, "is_reserved": 0}, {"lon": -77.03853283333333, "bike_id": "17bf4d0fa652fb07675d52fa7d7a95e8", "lat": 38.91548616666667, "fusion_lon": 0.0, "fusion_lat": 0.0, "type": "electric_scooter", "name": "17bf4d0fa652fb07675d52fa7d7a95e8", "is_disabled": 0, "rental_uris": {"ios": "https://dc.lft.to/lastmile_qr_scan", "android": "https://dc.lft.to/lastmile_qr_scan"}, "is_reserved": 0}, {"lon": -77.0221905, "bike_id": "04cc9851c8248004c4a0be38c8277de6", "lat": 38.892204, "fusion_lon": 0.0, "fusion_lat": 0.0, "type": "electric_scooter", "name": "04cc9851c8248004c4a0be38c8277de6", "is_disabled": 0, "rental_uris": {"ios": "https://dc.lft.to/lastmile_qr_scan", "android": "https://dc.lft.to/lastmile_qr_scan"}, "is_reserved": 0}, {"lon": -77.04916683333333, "bike_id": "5da80c05c910c1242888e967d6adfa92", "lat": 38.905449833333336, "fusion_lon": 0.0, "fusion_lat": 0.0, "type": "electric_scooter", "name": "5da80c05c910c1242888e967d6adfa92", "is_disabled": 0, "rental_uris": {"ios": "https://dc.lft.to/lastmile_qr_scan", "android": "https://dc.lft.to/lastmile_qr_scan"}, "is_reserved": 0}, {"lon": -76.941053, "bike_id": "45acb9371d344f5ed7537b1cd33a31dd", "lat": 38.884610333333335, "fusion_lon": 0.0, "fusion_lat": 0.0, "type": "electric_scooter", "name": "45acb9371d344f5ed7537b1cd33a31dd", "is_disabled": 0, "rental_uris": {"ios": "https://dc.lft.to/lastmile_qr_scan", "android": "https://dc.lft.to/lastmile_qr_scan"}, "is_reserved": 0}, {"lon": -76.98530366666667, "bike_id": "5a777edeb45565e8d61b347e0d4bf31e", "lat": 38.866827666666666, "fusion_lon": 0.0, "fusion_lat": 0.0, "type": "electric_scooter", "name": "5a777edeb45565e8d61b347e0d4bf31e", "is_disabled": 0, "rental_uris": {"ios": "https://dc.lft.to/lastmile_qr_scan", "android": "https://dc.lft.to/lastmile_qr_scan"}, "is_reserved": 0},