{"data": {"bikes": [{"lat": 38.904852166666664, "fusion_lat": 0.0, "type": "electric_scooter", "bike_id": "0b23bd54b4fc3d27f818b161f68064f4", "rental_uris": {"ios": "https://dc.lft.to/lastmile_qr_scan", "android": "https://dc.lft.to/lastmile_qr_scan"}, "fusion_lon": 0.0, "lon": -76.97333833333333, "name": "0b23bd54b4fc3d27f818b161f68064f4", "is_reserved": 0, "is_disabled": 0}, {"lat": 38.89266666666666, "fusion_lat": 0.0, "type": "electric_scooter", "bike_id": "00e05ee8d533ea10ee8361b900ef9fd7", "rental_uris": {"ios": "https://dc.lft.to/lastmile_qr_scan", "android": "https://dc.lft.to/lastmile_qr_scan"}, "fusion_lon": 0.0, "lon": -77.04676766666667, "name": "00e05ee8d533ea10ee8361b900ef9fd7", "is_reserved": 0, "is_disabled": 0}, {"lat": 38.928834, "fusion_lat": 0.0, "type": "electric_scooter", "bike_id": "4c80c54a85c9b90e05f0daba0bdd33e7", "rental_uris": {"ios": "https://dc.lft.to/lastmile_qr_scan", "android": "https://dc.lft.to/lastmile_qr_scan"}, "fusion_lon": 0.0, "lon": -77.03359566666667, "name": "4c80c54a85c9b90e05f0daba0bdd33e7", "is_reserved": 0, "is_disabled": 0}, {"lat": 38.921711333333334, "fusion_lat": 0.0, "type": "electric_scooter", "bike_id": "0b2047283a82c6730682c57238301768", "rental_uris": {"ios": "https://dc.lft.to/lastmile_qr_scan", "android": "https://dc.lft.to/lastmile_qr_scan"}, "fusion_lon": 0.0, "lon": -77.04252533333333, "name": "0b2047283a82c6730682c57238301768", "is_reserved": 0, "is_disabled": 0}, {"lat": 38.898735333333335, "fusion_lat": 0.0, "type": "electric_scooter", "bike_id": "de5ad0d51cf66eadb225eb3492e86a02", "rental_uris": {"ios": "https://dc.lft.to/lastmile_qr_scan", "android": "https://dc.lft.to/lastmile_qr_scan"}, "fusion_lon": 0.0, "lon": -76.9318715, "name": "de5ad0d51cf66eadb225eb3492e86a02", "is_reserved": 0, "is_disabled": 0}, {"lat": 38.84909066666667, "fusion_lat": 0.0, "type": "electric_bike", "bike_id": "d9ad58ea3b57b7aacd59aeb5f11a93b6", "rental_uris": {"ios": "https://dc.lft.to/lastmile_qr_scan", "android": "https://dc.lft.to/lastmile_qr_scan"}, "fusion_lon": 0.0, "lon": -77.11919233333333, "name": "d9ad58ea3b57b7aacd59aeb5f11a93b6", "is_reserved": 0, "is_disabled": 0}, {"lat": 38.900891, "fusion_lat": 0.0, "type": "electric_scooter", "bike_id": "3272b213aba3461a016e8688869d0d7a", "rental_uris": {"ios": "https://dc.lft.to/lastmile_qr_scan", "android": "https://dc.lft.to/lastmile_qr_scan"}, "fusion_lon": 0.0, "lon": -77.02529133333333, "name": "3272b213aba3461a016e8688869d0d7a", "is_reserved": 0, "is_disabled": 0}, {"lat": 38.872882833333335, "fusion_lat": 0.0, "type": "electric_scooter", "bike_id": "b56db6ddd2246ceb91ce8b9e8902fa29", "rental_uris": {"ios": "https://dc.lft.to/lastmile_qr_scan", "android": "https://dc.lft.to/lastmile_qr_scan"}, "fusion_lon": 0.0, "lon": -77.00985833333333, "name": "b56db6ddd2246ceb91ce8b9e8902fa29", "is_reserved": 0, "is_disabled": 0}, {"lat": 38.917826833333336, "fusion_lat": 0.0, "type": "electric_scooter", "bike_id": "3011c40fe94d20bf41ea0c1e2a5f443f", "rental_uris": {"ios": "https://dc.lft.to/lastmile_qr_scan", "android": "https://dc.lft.to/lastmile_qr_scan"}, "fusion_lon": 0.0, "lon": -77.026025, "name": "3011c40fe94d20bf41ea0c1e2a5f443f", "is_reserved": 0, "is_disabled": 0}, {"lat": 38.916988333333336, "fusion_lat": 0.0, "type": "electric_scooter", "bike_id": "4c1d44007243587b16ee4c9db7342f25", "rental_uris": {"ios": "https://dc.lft.to/lastmile_qr_scan", "android": "https://dc.lft.to/lastmile_qr_scan"}, "fusion_lon": 0.0, "lon": -77.03898583333333, "name": "4c1d44007243587b16ee4c9db7342f25", "is_reserved": 0, "is_disabled": 0}, {"lat": 38.93610966666667, "fusion_lat": 0.0, "type": "electric_scooter", "bike_id": "351dcf2421771990ecab7c6778f62877", "rental_uris": {"ios": "https://dc.lft.to/lastmile_qr_scan", "android": "https://dc.lft.to/lastmile_qr_scan"}, "fusion_lon": 0.0, "lon": -77.07313983333333, "name": "351dcf2421771990ecab7c6778f62877", "is_reserved": 0, "is_disabled": 0}, {"lat": 38.90849683333333, "fusion_lat": 0.0, "type": "electric_scooter", "bike_id": "b127b67b1908cadae9af73ce8f5ce913", "rental_uris": {"ios": "https://dc.lft.to/lastmile_qr_scan", "android": "https://dc.lft.to/lastmile_qr_scan"}, "fusion_lon": 0.0, "lon": -76.9998155, "name": "b127b67b1908cadae9af73ce8f5ce913", "is_reserved": 0, "is_disabled": 0}, {"lat": 38.92343366666667, "fusion_lat": 0.0, "type": "electric_scooter", "bike_id": "00375a7e55500455ac3c3ed8eaeecdde", "rental_uris": {"ios": "https://dc.lft.to/lastmile_qr_scan", "android": "https://dc.lft.to/lastmile_qr_scan"}, "fusion_lon": 0.0, "lon": -77.05179283333334, "name": "00375a7e55500455ac3c3ed8eaeecdde", "is_reserved": 0, "is_disabled": 0}, {"lat": 38.88437066666667, "fusion_lat": 0.0, "type": "electric_scooter", "bike_id": "534983e5192491748184d7e02d309b8a", "rental_uris": {"ios": "https://dc.lft.to/lastmile_qr_scan", "android": "https://dc.lft.to/lastmile_qr_scan"}, "fusion_lon": 0.0, "lon": -77.01767183333334, "name": "534983e5192491748184d7e02d309b8a", "is_reserved": 0, "is_disabled": 0}, {"lat": 38.9064875, "fusion_lat": 0.0, "type": "electric_scooter", "bike_id": "887da6ea76e8a9700e60178df6d01ca4", "rental_uris": {"ios": "https://dc.lft.to/lastmile_qr_scan", "android": "https://dc.lft.to/lastmile_qr_scan"}, "fusion_lon": 0.0, "lon": -77.0247205, "name": "887da6ea76e8a9700e60178df6d01ca4", "is_reserved": 0, "is_disabled": 0}, {"lat": 38.922193166666666, "fusion_lat": 0.0, "type": "electric_scooter", "bike_id": "bedff1985e235272ccf3e16a865ff035", "rental_uris": {"ios": "https://dc.lft.to/lastmile_qr_scan", "android": "https://dc.lft.to/lastmile_qr_scan"}, "fusion_lon": 0.0, "lon": -77.04333983333333, "name": "bedff1985e235272ccf3e16a865ff035", "is_reserved": 0, "is_disabled": 0}, {"lat": 38.832474, "fusion_lat": 0.0, "type": "electric_bike", "bike_id": "125cd62a3d6e713a43cd86e3c03a1769", "rental_uris": {"ios": "https://dc.lft.to/lastmile_qr_scan", "android": "https://dc.lft.to/lastmile_qr_scan"}, "fusion_lon": 0.0, "lon": -77.0072785, "name": "125cd62a3d6e713a43cd86e3c03a1769", "is_reserved": 0, "is_disabled": 0}, {"lat": 38.900686666666665, "fusion_lat": 0.0, "type": "electric_scooter", "bike_id": "7a21e0fe002c6121959e1e3df89ed395", "rental_uris": {"ios": "https://dc.lft.to/lastmile_qr_scan", "android": "https://dc.lft.to/lastmile_qr_scan"}, "fusion_lon": 0.0, "lon": -77.05019383333334, "name": "7a21e0fe002c6121959e1e3df89ed395", "is_reserved": 0, "is_disabled": 0}, {"lat": 38.90478016666667, "fusion_lat": 0.0, "type": "electric_scooter", "bike_id": "255a63b5c642fc6e3fe9552f4fa3a569", "rental_uris": {"ios": "https://dc.lft.to/lastmile_qr_scan", "android": "https://dc.lft.to/lastmile_qr_scan"}, "fusion_lon": 0.0, "lon": -77.04881266666666, "name": "255a63b5c642fc6e3fe9552f4fa3a569", "is_reserved": 0, "is_disabled": 0}, {"lat": 38.931916, "fusion_lat": 0.0, "type": "electric_scooter", "bike_id": "8d262b87f3ee44425a9f1d3a0649d00f", "rental_uris": {"ios": "https://dc.lft.to/lastmile_qr_scan", "android": "https://dc.lft.to/lastmile_qr_scan"}, "fusion_lon": 0.0, "lon": -77.01988216666666, "name": "8d262b87f3ee44425a9f1d3a0649d00f", "is_reserved": 0, "is_disabled": 0}, {"lat": 38.90593366666667, "fusion_lat": 0.0, "type": "electric_scooter", "bike_id": "4bcfa654a76792c7428d059d5d2d9024", "rental_uris": {"ios": "https://dc.lft.to/lastmile_qr_scan", "android": "https://dc.lft.to/lastmile_qr_scan"}, "fusion_lon": 0.0, "lon": -77.0403905, "name": "4bcfa654a76792c7428d059d5d2d9024", "is_reserved": 0, "is_disabled": 0}, {"lat": 38.89955716666667, "fusion_lat": 0.0, "type": "electric_scooter", "bike_id": "ce1e867f72750debd570360e30ef481c", "rental_uris": {"ios": "https://dc.lft.to/lastmile_qr_scan", "android": "https://dc.lft.to/lastmile_qr_scan"}, "fusion_lon": 0.0, "lon": -77.04651583333333, "name": "ce1e867f72750debd570360e30ef481c", "is_reserved": 0, "is_disabled": 0}, {"lat": 38.895428, "fusion_lat": 0.0, "type": "electric_scooter", "bike_id": "18565997f90f6f0f64874d5bdba4966f", "rental_uris": {"ios": "https://dc.lft.to/lastmile_qr_scan", "android": "https://dc.lft.to/lastmile_qr_scan"}, "fusion_lon": 0.0, "lon": -76.98338766666667, "name": "18565997f90f6f0f64874d5bdba4966f", "is_reserved": 0, "is_disabled": 0}, {"lat": 38.90087116666667, "fusion_lat": 0.0, "type": "electric_scooter", "bike_id": "fd023ae8c9a7a669f2d1a73fca13e32f", "rental_uris": {"ios": "https://dc.lft.to/lastmile_qr_scan", "android": "https://dc.lft.to/lastmile_qr_scan"}, "fusion_lon": 0.0, "lon": -76.9295285, "name": "fd023ae8c9a7a669f2d1a73fca13e32f", "is_reserved": 0, "is_disabled": 0}, {"lat": 38.967926, "fusion_lat": 0.0, "type": "electric_scooter", "bike_id": "5f927b2b87089ab11ea6d09076f78485", "rental_uris": {"ios": "https://dc.lft.to/lastmile_qr_scan", "android": "https://dc.lft.to/lastmile_qr_scan"}, "fusion_lon": 0.0, "lon": -77.02430316666667, "name": "5f927b2b87089ab11ea6d09076f78485", "is_reserved": 0, "is_disabled": 0}, {"lat": 38.938001166666666, "fusion_lat": 0.0, "type": "electric_bike", "bike_id": "b26ee0c01880f44e667efa2790f38139", "rental_uris": {"ios": "https://dc.lft.to/lastmile_qr_scan", "android": "https://dc.lft.to/lastmile_qr_scan"}, "fusion_lon": 0.0, "lon": -76.99318616666666, "name": "b26ee0c01880f44e667efa2790f38139", "is_reserved": 0, "is_disabled": 0}, {"lat": 38.917470333333334, "fusion_lat": 0.0, "type": "electric_scooter", "bike_id": "24ec659b3ef8800270be9791dfadfde6", "rental_uris": {"ios": "https://dc.lft.to/lastmile_qr_scan", "android": "https://dc.lft.to/lastmile_qr_scan"}, "fusion_lon": 0.0, "lon": -77.024962, "name": "24ec659b3ef8800270be9791dfadfde6", "is_reserved": 0, "is_disabled": 0}, {"lat": 38.8839825, "fusion_lat": 0.0, "type": "electric_scooter", "bike_id": "bd3512a1bd413d5e93df492d2db7ce97", "rental_uris": {"ios": "https://dc.lft.to/lastmile_qr_scan", "android": "https://dc.lft.to/lastmile_qr_scan"}, "fusion_lon": 0.0, "lon": -77.03197366666667, "name": "bd3512a1bd413d5e93df492d2db7ce97", "is_reserved": 0, "is_disabled": 0}, {"lat": 38.91473033333333, "fusion_lat": 0.0, "type": "electric_scooter", "bike_id": "23aa450d5916f5fe8094c108b4a02583", "rental_uris": {"ios": "https://dc.lft.to/lastmile_qr_scan", "android": "https://dc.lft.to/lastmile_qr_scan"}, "fusion_lon": 0.0, "lon": -77.03200833333334, "name": "23aa450d5916f5fe8094c108b4a02583", "is_reserved": 0, "is_disabled": 0}, {"lat": 38.8843, "fusion_lat": 0.0, "type": "electric_scooter", "bike_id": "ad7d17510fdb68cfa0a45fde42cdc386", "rental_uris": {"ios": "https://dc.lft.to/lastmile_qr_scan", "android": "https://dc.lft.to/lastmile_qr_scan"}, "fusion_lon": 0.0, "lon": -76.95754166666667, "name": "ad7d17510fdb68cfa0a45fde42cdc386", "is_reserved": 0, "is_disabled": 0}, {"lat": 38.837377333333336, "fusion_lat": 0.0, "type": "electric_bike", "bike_id": "2f65b0fdc4bde94ecfb709b63bf72625", "rental_uris": {"ios": "https://dc.lft.to/lastmile_qr_scan", "android": "https://dc.lft.to/lastmile_qr_scan"}, "fusion_lon": 0.0, "lon": -76.99818816666667, "name": "2f65b0fdc4bde94ecfb709b63bf72625", "is_reserved": 0, "is_disabled": 0}, {"lat": 38.936254, "fusion_lat": 0.0, "type": "electric_scooter", "bike_id": "1c9c8c3150bb8530148047d99beb5135", "rental_uris": {"ios": "https://dc.lft.to/lastmile_qr_scan", "android": "https://dc.lft.to/lastmile_qr_scan"}, "fusion_lon": 0.0, "lon": -77.02117483333333, "name": "1c9c8c3150bb8530148047d99beb5135", "is_reserved": 0, "is_disabled": 0}, {"lat": 38.93623783333334, "fusion_lat": 0.0, "type": "electric_scooter", "bike_id": "9fc7d99473b542ebc335585b6a94865f", "rental_uris": {"ios": "https://dc.lft.to/lastmile_qr_scan", "android": "https://dc.lft.to/lastmile_qr_scan"}, "fusion_lon": 0.0, "lon": -77.05878166666666, "name": "9fc7d99473b542ebc335585b6a94865f", "is_reserved": 0, "is_disabled": 0}, {"lat": 38.956762833333336, "fusion_lat": 0.0, "type": "electric_scooter", "bike_id": "9fb735cd505533953ec49cccb9ce2e1e", "rental_uris": {"ios": "https://dc.lft.to/lastmile_qr_scan", "android": "https://dc.lft.to/lastmile_qr_scan"}, "fusion_lon": 0.0, "lon": -77.01357533333334, "name": "9fb735cd505533953ec49cccb9ce2e1e", "is_reserved": 0, "is_disabled": 0}, {"lat": 38.92350966666667, "fusion_lat": 0.0, "type": "electric_scooter", "bike_id": "fb5445bafd91d081acb942873702d1a2", "rental_uris": {"ios": "https://dc.lft.to/lastmile_qr_scan", "android": "https://dc.lft.to/lastmile_qr_scan"}, "fusion_lon": 0.0, "lon": -77.04151566666667, "name": "fb5445bafd91d081acb942873702d1a2", "is_reserved": 0, "is_disabled": 0}, {"lat": 38.91026383333333, "fusion_lat": 0.0, "type": "electric_scooter", "bike_id": "6e7a2a524a7b9ca5349edc889ebea92c", "rental_uris": {"ios": "https://dc.lft.to/lastmile_qr_scan", "android": "https://dc.lft.to/lastmile_qr_scan"}, "fusion_lon": 0.0, "lon": -77.0343155, "name": "6e7a2a524a7b9ca5349edc889ebea92c", "is_reserved": 0, "is_disabled": 0}, {"lat": 38.9111925, "fusion_lat": 0.0, "type": "electric_scooter", "bike_id": "a687730857bcdd2ec0a314858e2c622d", "rental_uris": {"ios": "https://dc.lft.to/lastmile_qr_scan", "android": "https://dc.lft.to/lastmile_qr_scan"}, "fusion_lon": 0.0, "lon": -77.04500116666667, "name": "a687730857bcdd2ec0a314858e2c622d", "is_reserved": 0, "is_disabled": 0}, {"lat": 38.895971833333334, "fusion_lat": 0.0, "type": "electric_scooter", "bike_id": "d69bab38b1801524ef29c5fdeb1bdf0f", "rental_uris": {"ios": "https://dc.lft.to/lastmile_qr_scan", "android": "https://dc.lft.to/lastmile_qr_scan"}, "fusion_lon": 0.0, "lon": -77.02339616666667, "name": "d69bab38b1801524ef29c5fdeb1bdf0f", "is_reserved": 0, "is_disabled": 0}, {"lat": 38.874001, "fusion_lat": 0.0, "type": "electric_scooter", "bike_id": "1a37ca5f776f0c8d4e5486c1971c2226", "rental_uris": {"ios": "https://dc.lft.to/lastmile_qr_scan", "android": "https://dc.lft.to/lastmile_qr_scan"}, "fusion_lon": 0.0, "lon": -77.00032166666666, "name": "1a37ca5f776f0c8d4e5486c1971c2226", "is_reserved": 0, "is_disabled": 0}, {"lat": 38.90159583333333, "fusion_lat": 0.0, "type": "electric_scooter", "bike_id": "0c219b3f9c5f4a0e65b704f6acc84237", "rental_uris": {"ios": "https://dc.lft.to/lastmile_qr_scan", "android": "https://dc.lft.to/lastmile_qr_scan"}, "fusion_lon": 0.0, "lon": -77.0350635, "name": "0c219b3f9c5f4a0e65b704f6acc84237", "is_reserved": 0, "is_disabled": 0}, {"lat": 38.92685783333334, "fusion_lat": 0.0, "type": "electric_scooter", "bike_id": "33919957a0642f3fd67f0f822c233fce", "rental_uris": {"ios": "https://dc.lft.to/lastmile_qr_scan", "android": "https://dc.lft.to/lastmile_qr_scan"}, "fusion_lon": 0.0, "lon": -77.02293883333333, "name": "33919957a0642f3fd67f0f822c233fce", "is_reserved": 0, "is_disabled": 0}, {"lat": 38.916621166666665, "fusion_lat": 0.0, "type": "electric_scooter", "bike_id": "5110cb6292ee0f5d034496b0f2785e1a", "rental_uris": {"ios": "https://dc.lft.to/lastmile_qr_scan", "android": "https://dc.lft.to/lastmile_qr_scan"}, "fusion_lon": 0.0, "lon": -77.0437805, "name": "5110cb6292ee0f5d034496b0f2785e1a", "is_reserved": 0, "is_disabled": 0}, {"lat": 38.8990805, "fusion_lat": 0.0, "type": "electric_scooter", "bike_id": "cd63a4883af8059dd147e7939f83de8c", "rental_uris": {"ios": "https://dc.lft.to/lastmile_qr_scan", "android": "https://dc.lft.to/lastmile_qr_scan"}, "fusion_lon": 0.0, "lon": -77.0449635, "name": "cd63a4883af8059dd147e7939f83de8c", "is_reserved": 0, "is_disabled": 0}, {"lat": 38.910238, "fusion_lat": 0.0, "type": "electric_scooter", "bike_id": "0351ade48fe7d73a9109cfc84089aa50", "rental_uris": {"ios": "https://dc.lft.to/lastmile_qr_scan", "android": "https://dc.lft.to/lastmile_qr_scan"}, "fusion_lon": 0.0, "lon": -77.02931416666667, "name": "0351ade48fe7d73a9109cfc84089aa50", "is_reserved": 0, "is_disabled": 0}, {"lat": 38.901185166666664, "fusion_lat": 0.0, "type": "electric_scooter", "bike_id": "0cff509c4ad4b263b81ee340b03b10fd", "rental_uris": {"ios": "https://dc.lft.to/lastmile_qr_scan", "android": "https://dc.lft.to/lastmile_qr_scan"}, "fusion_lon": 0.0, "lon": -77.0319285, "name": "0cff509c4ad4b263b81ee340b03b10fd", "is_reserved": 0, "is_disabled": 0}, {"lat": 38.899998833333335, "fusion_lat": 0.0, "type": "electric_scooter", "bike_id": "a45458c68af50b6ffb62f1cb89cefd27", "rental_uris": {"ios": "https://dc.lft.to/lastmile_qr_scan", "android": "https://dc.lft.to/lastmile_qr_scan"}, "fusion_lon": 0.0, "lon": -77.00137266666667, "name": "a45458c68af50b6ffb62f1cb89cefd27", "is_reserved": 0, "is_disabled": 0}, {"lat": 38.9071415, "fusion_lat": 0.0, "type": "electric_scooter", "bike_id": "8b1f001fa32e956259c5d5469a16159b", "rental_uris": {"ios": "https://dc.lft.to/lastmile_qr_scan", "android": "https://dc.lft.to/lastmile_qr_scan"}, "fusion_lon": 0.0, "lon": -77.0057315, "name": "8b1f001fa32e956259c5d5469a16159b", "is_reserved": 0, "is_disabled": 0}, {"lat": 38.91632466666667, "fusion_lat": 0.0, "type": "electric_scooter", "bike_id": "9d02c0130a5a8f425189c7a48f911af9", "rental_uris": {"ios": "https://dc.lft.to/lastmile_qr_scan", "android": "https://dc.lft.to/lastmile_qr_scan"}, "fusion_lon": 0.0, "lon": -77.05071683333334, "name": "9d02c0130a5a8f425189c7a48f911af9", "is_reserved": 0, "is_disabled": 0}, {"lat": 38.8874495, "fusion_lat": 0.0, "type": "electric_scooter", "bike_id": "cb07ea3d9160ad76d4bdcf1f8da5599f", "rental_uris": {"ios": "https://dc.lft.to/lastmile_qr_scan", "android": "https://dc.lft.to/lastmile_qr_scan"}, "fusion_lon": 0.0, "lon": -77.02772983333334, "name": "cb07ea3d9160ad76d4bdcf1f8da5599f", "is_reserved": 0, "is_disabled": 0}, {"lat": 38.922306166666665, "fusion_lat": 0.0, "type": "electric_scooter", "bike_id": "ce9f01386e35085252f0f91bb453b46b", "rental_uris": {"ios": "https://dc.lft.to/lastmile_qr_scan", "android": "https://dc.lft.to/lastmile_qr_scan"}, "fusion_lon": 0.0, "lon": -77.03355966666666, "name": "ce9f01386e35085252f0f91bb453b46b", "is_reserved": 0, "is_disabled": 0}, {"lat": 38.940881, "fusion_lat": 0.0, "type": "electric_scooter", "bike_id": "c787835be329777dba274e082497cf91", "rental_uris": {"ios": "https://dc.lft.to/lastmile_qr_scan", "android": "https://dc.lft.to/lastmile_qr_scan"}, "fusion_lon": 0.0, "lon": -77.02719866666666, "name": "c787835be329777dba274e082497cf91", "is_reserved": 0, "is_disabled": 0}, {"lat": 38.924210333333335, "fusion_lat": 0.0, "type": "electric_scooter", "bike_id": "b9f2fb6b8026ddc226904e1c00b146ac", "rental_uris": {"ios": "https://dc.lft.to/lastmile_qr_scan", "android": "https://dc.lft.to/lastmile_qr_scan"}, "fusion_lon": 0.0, "lon": -77.022684, "name": "b9f2fb6b8026ddc226904e1c00b146ac", "is_reserved": 0, "is_disabled": 0}, {"lat": 38.90532783333333, "fusion_lat": 0.0, "type": "electric_scooter", "bike_id": "c05ef352808e000f79f87c3ee3b9bc38", "rental_uris": {"ios": "https://dc.lft.to/lastmile_qr_scan", "android": "https://dc.lft.to/lastmile_qr_scan"}, "fusion_lon": 0.0, "lon": -77.05030116666667, "name": "c05ef352808e000f79f87c3ee3b9bc38", "is_reserved": 0, "is_disabled": 0}, {"lat": 38.88424116666667, "fusion_lat": 0.0, "type": "electric_scooter", "bike_id": "c923fb82d702d5f130f5ee4f1c8dadab", "rental_uris": {"ios": "https://dc.lft.to/lastmile_qr_scan", "android": "https://dc.lft.to/lastmile_qr_scan"}, "fusion_lon": 0.0, "lon": -76.95754733333334, "name": "c923fb82d702d5f130f5ee4f1c8dadab", "is_reserved": 0, "is_disabled": 0}, {"lat": 38.8650625, "fusion_lat": 0.0, "type": "electric_bike", "bike_id": "81a940866032de3f4b831d798a11df2b", "rental_uris": {"ios": "https://dc.lft.to/lastmile_qr_scan", "android": "https://dc.lft.to/lastmile_qr_scan"}, "fusion_lon": 0.0, "lon": -76.97737533333333, "name": "81a940866032de3f4b831d798a11df2b", "is_reserved": 0, "is_disabled": 0}, {"lat": 38.919303666666664, "fusion_lat": 0.0, "type": "electric_scooter", "bike_id": "09b66df1b4de99917be855f277f30cdb", "rental_uris": {"ios": "https://dc.lft.to/lastmile_qr_scan", "android": "https://dc.lft.to/lastmile_qr_scan"}, "fusion_lon": 0.0, "lon": -77.03187666666666, "name": "09b66df1b4de99917be855f277f30cdb", "is_reserved": 0, "is_disabled": 0}, {"lat": 38.8995355, "fusion_lat": 0.0, "type": "electric_scooter", "bike_id": "a0f35501c0400b9f3126ccee57a54076", "rental_uris": {"ios": "https://dc.lft.to/lastmile_qr_scan", "android": "https://dc.lft.to/lastmile_qr_scan"}, "fusion_lon": 0.0, "lon": -77.0246085, "name": "a0f35501c0400b9f3126ccee57a54076", "is_reserved": 0, "is_disabled": 0}, {"lat": 38.90116783333333, "fusion_lat": 0.0, "type": "electric_scooter", "bike_id": "ab436171a5bf163078f9fb668d31b787", "rental_uris": {"ios": "https://dc.lft.to/lastmile_qr_scan", "android": "https://dc.lft.to/lastmile_qr_scan"}, "fusion_lon": 0.0, "lon": -77.016627, "name": "ab436171a5bf163078f9fb668d31b787", "is_reserved": 0, "is_disabled": 0}, {"lat": 38.905303833333335, "fusion_lat": 0.0, "type": "electric_scooter", "bike_id": "2a081b2c53ffbbeac25efa0053dfdf5a", "rental_uris": {"ios": "https://dc.lft.to/lastmile_qr_scan", "android": "https://dc.lft.to/lastmile_qr_scan"}, "fusion_lon": 0.0, "lon": -77.05010383333334, "name": "2a081b2c53ffbbeac25efa0053dfdf5a", "is_reserved": 0, "is_disabled": 0}, {"lat": 38.90391316666667, "fusion_lat": 0.0, "type": "electric_scooter", "bike_id": "d847ec1cf51d756d442227c92a6a486b", "rental_uris": {"ios": "https://dc.lft.to/lastmile_qr_scan", "android": "https://dc.lft.to/lastmile_qr_scan"}, "fusion_lon": 0.0, "lon": -77.06300016666667, "name": "d847ec1cf51d756d442227c92a6a486b", "is_reserved": 0, "is_disabled": 0}, {"lat": 38.9213425, "fusion_lat": 0.0, "type": "electric_scooter", "bike_id": "175aff84bea4c295f110c4d3cb46798c", "rental_uris": {"ios": "https://dc.lft.to/lastmile_qr_scan", "android": "https://dc.lft.to/lastmile_qr_scan"}, "fusion_lon": 0.0, "lon": -77.04127633333333, "name": "175aff84bea4c295f110c4d3cb46798c", "is_reserved": 0, "is_disabled": 0}, {"lat": 38.902431666666665, "fusion_lat": 0.0, "type": "electric_scooter", "bike_id": "46e748316b87a89003c15f267bb6fc70", "rental_uris": {"ios": "https://dc.lft.to/lastmile_qr_scan", "android": "https://dc.lft.to/lastmile_qr_scan"}, "fusion_lon": 0.0, "lon": -77.04666533333334, "name": "46e748316b87a89003c15f267bb6fc70", "is_reserved": 0, "is_disabled": 0}, {"lat": 38.90031183333333, "fusion_lat": 0.0, "type": "electric_scooter", "bike_id": "50c09d8fed24a5b78413dc7e1d88817f", "rental_uris": {"ios": "https://dc.lft.to/lastmile_qr_scan", "android": "https://dc.lft.to/lastmile_qr_scan"}, "fusion_lon": 0.0, "lon": -77.00209883333333, "name": "50c09d8fed24a5b78413dc7e1d88817f", "is_reserved": 0, "is_disabled": 0}, {"lat": 38.89002266666667, "fusion_lat": 0.0, "type": "electric_scooter", "bike_id": "3e4edbbfb8833e6a721a74e0e8cd336d", "rental_uris": {"ios": "https://dc.lft.to/lastmile_qr_scan", "android": "https://dc.lft.to/lastmile_qr_scan"}, "fusion_lon": 0.0, "lon": -76.97731783333333, "name": "3e4edbbfb8833e6a721a74e0e8cd336d", "is_reserved": 0, "is_disabled": 0}, {"lat": 38.92010833333333, "fusion_lat": 0.0, "type": "electric_scooter", "bike_id": "022c3fd8ad08a694dd54e9d6186b4359", "rental_uris": {"ios": "https://dc.lft.to/lastmile_qr_scan", "android": "https://dc.lft.to/lastmile_qr_scan"}, "fusion_lon": 0.0, "lon": -77.02183666666667, "name": "022c3fd8ad08a694dd54e9d6186b4359", "is_reserved": 0, "is_disabled": 0}, {"lat": 38.899553833333336, "fusion_lat": 0.0, "type": "electric_scooter", "bike_id": "9b0def6ec853e6e98cbb6a0c9d3075ab", "rental_uris": {"ios": "https://dc.lft.to/lastmile_qr_scan", "android": "https://dc.lft.to/lastmile_qr_scan"}, "fusion_lon": 0.0, "lon": -77.04642933333334, "name": "9b0def6ec853e6e98cbb6a0c9d3075ab", "is_reserved": 0, "is_disabled": 0}, {"lat": 38.891757166666665, "fusion_lat": 0.0, "type": "electric_scooter", "bike_id": "e60cf8a975f3c5552651a1824f5f6cfd", "rental_uris": {"ios": "https://dc.lft.to/lastmile_qr_scan", "android": "https://dc.lft.to/lastmile_qr_scan"}, "fusion_lon": 0.0, "lon": -77.0155725, "name": "e60cf8a975f3c5552651a1824f5f6cfd", "is_reserved": 0, "is_disabled": 0}, {"lat": 38.93554816666666, "fusion_lat": 0.0, "type": "electric_scooter", "bike_id": "63b5af38f747137588e79171ad8dee5e", "rental_uris": {"ios": "https://dc.lft.to/lastmile_qr_scan", "android": "https://dc.lft.to/lastmile_qr_scan"}, "fusion_lon": 0.0, "lon": -77.07458333333334, "name": "63b5af38f747137588e79171ad8dee5e", "is_reserved": 0, "is_disabled": 0}, {"lat": 38.92585183333333, "fusion_lat": 0.0, "type": "electric_scooter", "bike_id": "97f6ff5292e9a83de401ad20ba962158", "rental_uris": {"ios": "https://dc.lft.to/lastmile_qr_scan", "android": "https://dc.lft.to/lastmile_qr_scan"}, "fusion_lon": 0.0, "lon": -77.03195, "name": "97f6ff5292e9a83de401ad20ba962158", "is_reserved": 0, "is_disabled": 0}, {"lat": 38.90574216666667, "fusion_lat": 0.0, "type": "electric_scooter", "bike_id": "0ee4287158142bb840c533de496b5bc5", "rental_uris": {"ios": "https://dc.lft.to/lastmile_qr_scan", "android": "https://dc.lft.to/lastmile_qr_scan"}, "fusion_lon": 0.0, "lon": -77.00309033333333, "name": "0ee4287158142bb840c533de496b5bc5", "is_reserved": 0, "is_disabled": 0}, {"lat": 38.92208383333333, "fusion_lat": 0.0, "type": "electric_scooter", "bike_id": "0752b3add966569f5be870609d07ee09", "rental_uris": {"ios": "https://dc.lft.to/lastmile_qr_scan", "android": "https://dc.lft.to/lastmile_qr_scan"}, "fusion_lon": 0.0, "lon": -77.0365775, "name": "0752b3add966569f5be870609d07ee09", "is_reserved": 0, "is_disabled": 0}, {"lat": 38.91124766666667, "fusion_lat": 0.0, "type": "electric_scooter", "bike_id": "62435087608e2d8176e42c6530eb95b6", "rental_uris": {"ios": "https://dc.lft.to/lastmile_qr_scan", "android": "https://dc.lft.to/lastmile_qr_scan"}, "fusion_lon": 0.0, "lon": -77.02195333333333, "name": "62435087608e2d8176e42c6530eb95b6", "is_reserved": 0, "is_disabled": 0}, {"lat": 38.92414016666667, "fusion_lat": 0.0, "type": "electric_scooter", "bike_id": "8f42164e4ffe5204c54f46efe487fde2", "rental_uris": {"ios": "https://dc.lft.to/lastmile_qr_scan", "android": "https://dc.lft.to/lastmile_qr_scan"}, "fusion_lon": 0.0, "lon": -77.06530816666667, "name": "8f42164e4ffe5204c54f46efe487fde2", "is_reserved": 0, "is_disabled": 0}, {"lat": 38.9644675, "fusion_lat": 0.0, "type": "electric_bike", "bike_id": "15f9a752f2aae903f28bbbe62b4b0ffb", "rental_uris": {"ios": "https://dc.lft.to/lastmile_qr_scan", "android": "https://dc.lft.to/lastmile_qr_scan"}, "fusion_lon": 0.0, "lon": -77.02242683333333, "name": "15f9a752f2aae903f28bbbe62b4b0ffb", "is_reserved": 0, "is_disabled": 0}, {"lat": 38.909862333333336, "fusion_lat": 0.0, "type": "electric_scooter", "bike_id": "f31c76dc308b9288ee63c45bb560afbc", "rental_uris": {"ios": "https://dc.lft.to/lastmile_qr_scan", "android": "https://dc.lft.to/lastmile_qr_scan"}, "fusion_lon": 0.0, "lon": -77.03196716666666, "name": "f31c76dc308b9288ee63c45bb560afbc", "is_reserved": 0, "is_disabled": 0}, {"lat": 38.87857533333333, "fusion_lat": 0.0, "type": "electric_scooter", "bike_id": "72347a9dddb3e5b9ecfb37e330dc572e", "rental_uris": {"ios": "https://dc.lft.to/lastmile_qr_scan", "android": "https://dc.lft.to/lastmile_qr_scan"}, "fusion_lon": 0.0, "lon": -77.0073885, "name": "72347a9dddb3e5b9ecfb37e330dc572e", "is_reserved": 0, "is_disabled": 0}, {"lat": 38.90719133333333, "fusion_lat": 0.0, "type": "electric_scooter", "bike_id": "a314b652076187c0c7de294935a0ae40", "rental_uris": {"ios": "https://dc.lft.to/lastmile_qr_scan", "android": "https://dc.lft.to/lastmile_qr_scan"}, "fusion_lon": 0.0, "lon": -77.035508, "name": "a314b652076187c0c7de294935a0ae40", "is_reserved": 0, "is_disabled": 0}, {"lat": 38.8974025, "fusion_lat": 0.0, "type": "electric_scooter", "bike_id": "11d65cdb53a829bcb354c1bfdeba6d0c", "rental_uris": {"ios": "https://dc.lft.to/lastmile_qr_scan", "android": "https://dc.lft.to/lastmile_qr_scan"}, "fusion_lon": 0.0, "lon": -77.00929133333334, "name": "11d65cdb53a829bcb354c1bfdeba6d0c", "is_reserved": 0, "is_disabled": 0}, {"lat": 38.90072333333333, "fusion_lat": 0.0, "type": "electric_scooter", "bike_id": "275e40c4a7b9d6cc8158dc9b74e93136", "rental_uris": {"ios": "https://dc.lft.to/lastmile_qr_scan", "android": "https://dc.lft.to/lastmile_qr_scan"}, "fusion_lon": 0.0, "lon": -77.02712683333333, "name": "275e40c4a7b9d6cc8158dc9b74e93136", "is_reserved": 0, "is_disabled": 0}, {"lat": 38.8682325, "fusion_lat": 0.0, "type": "electric_scooter", "bike_id": "4a8e867a380a96b495cac7b5fea9b1e0", "rental_uris": {"ios": "https://dc.lft.to/lastmile_qr_scan", "android": "https://dc.lft.to/lastmile_qr_scan"}, "fusion_lon": 0.0, "lon": -77.00980133333333, "name": "4a8e867a380a96b495cac7b5fea9b1e0", "is_reserved": 0, "is_disabled": 0}, {"lat": 38.9232805, "fusion_lat": 0.0, "type": "electric_scooter", "bike_id": "877b3e44eccbfab79bc6c80df0519d3e", "rental_uris": {"ios": "https://dc.lft.to/lastmile_qr_scan", "android": "https://dc.lft.to/lastmile_qr_scan"}, "fusion_lon": 0.0, "lon": -77.04617833333333, "name": "877b3e44eccbfab79bc6c80df0519d3e", "is_reserved": 0, "is_disabled": 0}, {"lat": 38.887662666666664, "fusion_lat": 0.0, "type": "electric_scooter", "bike_id": "a8d62df78f301bc5a2b76da17f87ca8f", "rental_uris": {"ios": "https://dc.lft.to/lastmile_qr_scan", "android": "https://dc.lft.to/lastmile_qr_scan"}, "fusion_lon": 0.0, "lon": -77.00191666666667, "name": "a8d62df78f301bc5a2b76da17f87ca8f", "is_reserved": 0, "is_disabled": 0}, {"lat": 38.92418266666667, "fusion_lat": 0.0, "type": "electric_scooter", "bike_id": "00996601120151f6813a6756cfe47a24", "rental_uris": {"ios": "https://dc.lft.to/lastmile_qr_scan", "android": "https://dc.lft.to/lastmile_qr_scan"}, "fusion_lon": 0.0, "lon": -77.01948266666666, "name": "00996601120151f6813a6756cfe47a24", "is_reserved": 0, "is_disabled": 0}, {"lat": 38.936101, "fusion_lat": 0.0, "type": "electric_scooter", "bike_id": "6fc1aca89e660b5a1ddb35288391d65b", "rental_uris": {"ios": "https://dc.lft.to/lastmile_qr_scan", "android": "https://dc.lft.to/lastmile_qr_scan"}, "fusion_lon": 0.0, "lon": -77.0817945, "name": "6fc1aca89e660b5a1ddb35288391d65b", "is_reserved": 0, "is_disabled": 0}, {"lat": 38.87221566666667, "fusion_lat": 0.0, "type": "electric_scooter", "bike_id": "4658043413b7bdc0c2ba8dc8bf732698", "rental_uris": {"ios": "https://dc.lft.to/lastmile_qr_scan", "android": "https://dc.lft.to/lastmile_qr_scan"}, "fusion_lon": 0.0, "lon": -77.01220533333333, "name": "4658043413b7bdc0c2ba8dc8bf732698", "is_reserved": 0, "is_disabled": 0}, {"lat": 38.9249345, "fusion_lat": 0.0, "type": "electric_scooter", "bike_id": "c33f71a5c981ebdb80a70895de7280af", "rental_uris": {"ios": "https://dc.lft.to/lastmile_qr_scan", "android": "https://dc.lft.to/lastmile_qr_scan"}, "fusion_lon": 0.0, "lon": -77.02407033333333, "name": "c33f71a5c981ebdb80a70895de7280af", "is_reserved": 0, "is_disabled": 0}, {"lat": 38.950852166666664, "fusion_lat": 0.0, "type": "electric_scooter", "bike_id": "d718e5a24545ec73197e3370cb06b307", "rental_uris": {"ios": "https://dc.lft.to/lastmile_qr_scan", "android": "https://dc.lft.to/lastmile_qr_scan"}, "fusion_lon": 0.0, "lon": -77.0315975, "name": "d718e5a24545ec73197e3370cb06b307", "is_reserved": 0, "is_disabled": 0}, {"lat": 38.9040495, "fusion_lat": 0.0, "type": "electric_scooter", "bike_id": "337d49cd997d3d2828d7b83d9daba753", "rental_uris": {"ios": "https://dc.lft.to/lastmile_qr_scan", "android": "https://dc.lft.to/lastmile_qr_scan"}, "fusion_lon": 0.0, "lon": -77.06805783333333, "name": "337d49cd997d3d2828d7b83d9daba753", "is_reserved": 0, "is_disabled": 0}, {"lat": 38.92252116666667, "fusion_lat": 0.0, "type": "electric_scooter", "bike_id": "2ba50e899bf5f2a2370094856e182068", "rental_uris": {"ios": "https://dc.lft.to/lastmile_qr_scan", "android": "https://dc.lft.to/lastmile_qr_scan"}, "fusion_lon": 0.0, "lon": -77.01911616666666, "name": "2ba50e899bf5f2a2370094856e182068", "is_reserved": 0, "is_disabled": 0}, {"lat": 38.92446316666667, "fusion_lat": 0.0, "type": "electric_scooter", "bike_id": "bc2994b23f3d84bbc19b2bbe00872cd4", "rental_uris": {"ios": "https://dc.lft.to/lastmile_qr_scan", "android": "https://dc.lft.to/lastmile_qr_scan"}, "fusion_lon": 0.0, "lon": -77.02151483333333, "name": "bc2994b23f3d84bbc19b2bbe00872cd4", "is_reserved": 0, "is_disabled": 0}, {"lat": 38.904421, "fusion_lat": 0.0, "type": "electric_scooter", "bike_id": "503ddaa91b0e04b9a318c743705e4885", "rental_uris": {"ios": "https://dc.lft.to/lastmile_qr_scan", "android": "https://dc.lft.to/lastmile_qr_scan"}, "fusion_lon": 0.0, "lon": -77.05859316666667, "name": "503ddaa91b0e04b9a318c743705e4885", "is_reserved": 0, "is_disabled": 0}, {"lat": 38.8770445, "fusion_lat": 0.0, "type": "electric_scooter", "bike_id": "8b4bacab88978fc132fae9dd49f99873", "rental_uris": {"ios": "https://dc.lft.to/lastmile_qr_scan", "android": "https://dc.lft.to/lastmile_qr_scan"}, "fusion_lon": 0.0, "lon": -76.9969125, "name": "8b4bacab88978fc132fae9dd49f99873", "is_reserved": 0, "is_disabled": 0}, {"lat": 38.915730333333336, "fusion_lat": 0.0, "type": "electric_scooter", "bike_id": "ec88db59fb33cb78e099f3511fa7d7a1", "rental_uris": {"ios": "https://dc.lft.to/lastmile_qr_scan", "android": "https://dc.lft.to/lastmile_qr_scan"}, "fusion_lon": 0.0, "lon": -77.03206033333333, "name": "ec88db59fb33cb78e099f3511fa7d7a1", "is_reserved": 0, "is_disabled": 0}, {"lat": 38.919194, "fusion_lat": 0.0, "type": "electric_scooter", "bike_id": "d8956b26a8fecedc615d51039421cd86", "rental_uris": {"ios": "https://dc.lft.to/lastmile_qr_scan", "android": "https://dc.lft.to/lastmile_qr_scan"}, "fusion_lon": 0.0, "lon": -77.03425466666667, "name": "d8956b26a8fecedc615d51039421cd86", "is_reserved": 0, "is_disabled": 0}, {"lat": 38.92026333333333, "fusion_lat": 0.0, "type": "electric_scooter", "bike_id": "9766c35f0eab1dff9d99f66043247339", "rental_uris": {"ios": "https://dc.lft.to/lastmile_qr_scan", "android": "https://dc.lft.to/lastmile_qr_scan"}, "fusion_lon": 0.0, "lon": -77.071501, "name": "9766c35f0eab1dff9d99f66043247339", "is_reserved": 0, "is_disabled": 0}, {"lat": 38.9165395, "fusion_lat": 0.0, "type": "electric_scooter", "bike_id": "994fdca2d9602416baee4f8a664dbdb7", "rental_uris": {"ios": "https://dc.lft.to/lastmile_qr_scan", "android": "https://dc.lft.to/lastmile_qr_scan"}, "fusion_lon": 0.0, "lon": -77.04174233333333, "name": "994fdca2d9602416baee4f8a664dbdb7", "is_reserved": 0, "is_disabled": 0}, {"lat": 38.892222833333335, "fusion_lat": 0.0, "type": "electric_scooter", "bike_id": "30b0bbfdee06618739e4ab8ebee72514", "rental_uris": {"ios": "https://dc.lft.to/lastmile_qr_scan", "android": "https://dc.lft.to/lastmile_qr_scan"}, "fusion_lon": 0.0, "lon": -77.02632766666666, "name": "30b0bbfdee06618739e4ab8ebee72514", "is_reserved": 0, "is_disabled": 0}, {"lat": 38.922575, "fusion_lat": 0.0, "type": "electric_scooter", "bike_id": "4a698ee3e13453e7700c26af01d2653e", "rental_uris": {"ios": "https://dc.lft.to/lastmile_qr_scan", "android": "https://dc.lft.to/lastmile_qr_scan"}, "fusion_lon": 0.0, "lon": -77.0210635, "name": "4a698ee3e13453e7700c26af01d2653e", "is_reserved": 0, "is_disabled": 0}, {"lat": 38.8876745, "fusion_lat": 0.0, "type": "electric_scooter", "bike_id": "6fc7b3de0792d749e2bb7f6b630f69f7", "rental_uris": {"ios": "https://dc.lft.to/lastmile_qr_scan", "android": "https://dc.lft.to/lastmile_qr_scan"}, "fusion_lon": 0.0, "lon": -77.02236216666667, "name": "6fc7b3de0792d749e2bb7f6b630f69f7", "is_reserved": 0, "is_disabled": 0}, {"lat": 38.90306266666666, "fusion_lat": 0.0, "type": "electric_scooter", "bike_id": "a6dd180bd63b63d33154e45ee6f7ceff", "rental_uris": {"ios": "https://dc.lft.to/lastmile_qr_scan", "android": "https://dc.lft.to/lastmile_qr_scan"}, "fusion_lon": 0.0, "lon": -76.97812683333333, "name": "a6dd180bd63b63d33154e45ee6f7ceff", "is_reserved": 0, "is_disabled": 0}, {"lat": 38.896065, "fusion_lat": 0.0, "type": "electric_scooter", "bike_id": "cd182da2512c8448542b485588178c46", "rental_uris": {"ios": "https://dc.lft.to/lastmile_qr_scan", "android": "https://dc.lft.to/lastmile_qr_scan"}, "fusion_lon": 0.0, "lon": -77.002194, "name": "cd182da2512c8448542b485588178c46", "is_reserved": 0, "is_disabled": 0}, {"lat": 38.91558933333334, "fusion_lat": 0.0, "type": "electric_scooter", "bike_id": "0f91f080b7c7be3a955862bd5f371ab9", "rental_uris": {"ios": "https://dc.lft.to/lastmile_qr_scan", "android": "https://dc.lft.to/lastmile_qr_scan"}, "fusion_lon": 0.0, "lon": -77.0198885, "name": "0f91f080b7c7be3a955862bd5f371ab9", "is_reserved": 0, "is_disabled": 0}, {"lat": 38.961433, "fusion_lat": 0.0, "type": "electric_scooter", "bike_id": "dac03a53d8a80368241fd79933769859", "rental_uris": {"ios": "https://dc.lft.to/lastmile_qr_scan", "android": "https://dc.lft.to/lastmile_qr_scan"}, "fusion_lon": 0.0, "lon": -77.0278355, "name": "dac03a53d8a80368241fd79933769859", "is_reserved": 0, "is_disabled": 0}, {"lat": 38.81247233333333, "fusion_lat": 0.0, "type": "electric_bike", "bike_id": "64fd204503566b048ffde8e042e67a56", "rental_uris": {"ios": "https://dc.lft.to/lastmile_qr_scan", "android": "https://dc.lft.to/lastmile_qr_scan"}, "fusion_lon": 0.0, "lon": -77.11776366666666, "name": "64fd204503566b048ffde8e042e67a56", "is_reserved": 0, "is_disabled": 0}, {"lat": 38.90763183333333, "fusion_lat": 0.0, "type": "electric_scooter", "bike_id": "42b8de59ea8a8b225fc7359563604127", "rental_uris": {"ios": "https://dc.lft.to/lastmile_qr_scan", "android": "https://dc.lft.to/lastmile_qr_scan"}, "fusion_lon": 0.0, "lon": -77.03739016666667, "name": "42b8de59ea8a8b225fc7359563604127", "is_reserved": 0, "is_disabled": 0}, {"lat": 38.917736166666664, "fusion_lat": 0.0, "type": "electric_scooter", "bike_id": "b92b288a55524418a0a7a2f2ffc7ca7a", "rental_uris": {"ios": "https://dc.lft.to/lastmile_qr_scan", "android": "https://dc.lft.to/lastmile_qr_scan"}, "fusion_lon": 0.0, "lon": -77.04073566666666, "name": "b92b288a55524418a0a7a2f2ffc7ca7a", "is_reserved": 0, "is_disabled": 0}, {"lat": 38.8715175, "fusion_lat": 0.0, "type": "electric_scooter", "bike_id": "2d1a883e885570092df66d3d96976f8a", "rental_uris": {"ios": "https://dc.lft.to/lastmile_qr_scan", "android": "https://dc.lft.to/lastmile_qr_scan"}, "fusion_lon": 0.0, "lon": -77.00683616666667, "name": "2d1a883e885570092df66d3d96976f8a", "is_reserved": 0, "is_disabled": 0}, {"lat": 38.91534216666667, "fusion_lat": 0.0, "type": "electric_scooter", "bike_id": "504fdeda4f943c3128c6a22cc982c6e7", "rental_uris": {"ios": "https://dc.lft.to/lastmile_qr_scan", "android": "https://dc.lft.to/lastmile_qr_scan"}, "fusion_lon": 0.0, "lon": -76.9835715, "name": "504fdeda4f943c3128c6a22cc982c6e7", "is_reserved": 0, "is_disabled": 0}, {"lat": 38.91466533333333, "fusion_lat": 0.0, "type": "electric_scooter", "bike_id": "12a45332c5a430868690d72d181adf2b", "rental_uris": {"ios": "https://dc.lft.to/lastmile_qr_scan", "android": "https://dc.lft.to/lastmile_qr_scan"}, "fusion_lon": 0.0, "lon": -77.01560933333333, "name": "12a45332c5a430868690d72d181adf2b", "is_reserved": 0, "is_disabled": 0}, {"lat": 38.9072855, "fusion_lat": 0.0, "type": "electric_scooter", "bike_id": "a001d35eb1407f9106387078037ccfcc", "rental_uris": {"ios": "https://dc.lft.to/lastmile_qr_scan", "android": "https://dc.lft.to/lastmile_qr_scan"}, "fusion_lon": 0.0, "lon": -77.04244316666667, "name": "a001d35eb1407f9106387078037ccfcc", "is_reserved": 0, "is_disabled": 0}, {"lat": 38.89665566666667, "fusion_lat": 0.0, "type": "electric_scooter", "bike_id": "8ba525ef7efe5a514ed0f67795e89614", "rental_uris": {"ios": "https://dc.lft.to/lastmile_qr_scan", "android": "https://dc.lft.to/lastmile_qr_scan"}, "fusion_lon": 0.0, "lon": -77.0271635, "name": "8ba525ef7efe5a514ed0f67795e89614", "is_reserved": 0, "is_disabled": 0}, {"lat": 38.8950475, "fusion_lat": 0.0, "type": "electric_scooter", "bike_id": "56ce20d4738de83374238c77fcb97b12", "rental_uris": {"ios": "https://dc.lft.to/lastmile_qr_scan", "android": "https://dc.lft.to/lastmile_qr_scan"}, "fusion_lon": 0.0, "lon": -77.02809283333333, "name": "56ce20d4738de83374238c77fcb97b12", "is_reserved": 0, "is_disabled": 0}, {"lat": 38.920539166666664, "fusion_lat": 0.0, "type": "electric_scooter", "bike_id": "51fe17d3bedea72bcad8856c6a6ac002", "rental_uris": {"ios": "https://dc.lft.to/lastmile_qr_scan", "android": "https://dc.lft.to/lastmile_qr_scan"}, "fusion_lon": 0.0, "lon": -77.04620266666667, "name": "51fe17d3bedea72bcad8856c6a6ac002", "is_reserved": 0, "is_disabled": 0}, {"lat": 38.905036833333334, "fusion_lat": 0.0, "type": "electric_scooter", "bike_id": "b1e94d1f4be812ef674086edc13f25b2", "rental_uris": {"ios": "https://dc.lft.to/lastmile_qr_scan", "android": "https://dc.lft.to/lastmile_qr_scan"}, "fusion_lon": 0.0, "lon": -77.0513005, "name": "b1e94d1f4be812ef674086edc13f25b2", "is_reserved": 0, "is_disabled": 0}, {"lat": 38.8961785, "fusion_lat": 0.0, "type": "electric_scooter", "bike_id": "486f0efc9529b78b0c5aa15825378c23", "rental_uris": {"ios": "https://dc.lft.to/lastmile_qr_scan", "android": "https://dc.lft.to/lastmile_qr_scan"}, "fusion_lon": 0.0, "lon": -76.9857155, "name": "486f0efc9529b78b0c5aa15825378c23", "is_reserved": 0, "is_disabled": 0}, {"lat": 38.92598533333334, "fusion_lat": 0.0, "type": "electric_scooter", "bike_id": "65385d1b356ad64de008489e30e1bdc2", "rental_uris": {"ios": "https://dc.lft.to/lastmile_qr_scan", "android": "https://dc.lft.to/lastmile_qr_scan"}, "fusion_lon": 0.0, "lon": -77.023883, "name": "65385d1b356ad64de008489e30e1bdc2", "is_reserved": 0, "is_disabled": 0}, {"lat": 38.909209, "fusion_lat": 0.0, "type": "electric_scooter", "bike_id": "23f6e397aa9e31443119c1e035c3be98", "rental_uris": {"ios": "https://dc.lft.to/lastmile_qr_scan", "android": "https://dc.lft.to/lastmile_qr_scan"}, "fusion_lon": 0.0, "lon": -77.04411316666666, "name": "23f6e397aa9e31443119c1e035c3be98", "is_reserved": 0, "is_disabled": 0}, {"lat": 38.91910566666667, "fusion_lat": 0.0, "type": "electric_scooter", "bike_id": "ea7fd895f5d1ebae4fe68ab21b9af42d", "rental_uris": {"ios": "https://dc.lft.to/lastmile_qr_scan", "android": "https://dc.lft.to/lastmile_qr_scan"}, "fusion_lon": 0.0, "lon": -77.0250895, "name": "ea7fd895f5d1ebae4fe68ab21b9af42d", "is_reserved": 0, "is_disabled": 0}, {"lat": 38.9422935, "fusion_lat": 0.0, "type": "electric_scooter", "bike_id": "da2f9df49990ac608dbdb45e5cf95259", "rental_uris": {"ios": "https://dc.lft.to/lastmile_qr_scan", "android": "https://dc.lft.to/lastmile_qr_scan"}, "fusion_lon": 0.0, "lon": -77.03871216666667, "name": "da2f9df49990ac608dbdb45e5cf95259", "is_reserved": 0, "is_disabled": 0}, {"lat": 38.92124066666667, "fusion_lat": 0.0, "type": "electric_bike", "bike_id": "bdb5005b6bcb4486185c89f6b72beb96", "rental_uris": {"ios": "https://dc.lft.to/lastmile_qr_scan", "android": "https://dc.lft.to/lastmile_qr_scan"}, "fusion_lon": 0.0, "lon": -77.23676533333334, "name": "bdb5005b6bcb4486185c89f6b72beb96", "is_reserved": 0, "is_disabled": 0}, {"lat": 38.92248283333333, "fusion_lat": 0.0, "type": "electric_scooter", "bike_id": "392a32d532f159f9d588ee8310a1c2b4", "rental_uris": {"ios": "https://dc.lft.to/lastmile_qr_scan", "android": "https://dc.lft.to/lastmile_qr_scan"}, "fusion_lon": 0.0, "lon": -77.03909783333333, "name": "392a32d532f159f9d588ee8310a1c2b4", "is_reserved": 0, "is_disabled": 0}, {"lat": 38.903518, "fusion_lat": 0.0, "type": "electric_scooter", "bike_id": "bfa8dddfada410dc880a9493d0ff2372", "rental_uris": {"ios": "https://dc.lft.to/lastmile_qr_scan", "android": "https://dc.lft.to/lastmile_qr_scan"}, "fusion_lon": 0.0, "lon": -77.01717516666666, "name": "bfa8dddfada410dc880a9493d0ff2372", "is_reserved": 0, "is_disabled": 0}, {"lat": 38.9002855, "fusion_lat": 0.0, "type": "electric_scooter", "bike_id": "a0942e3660f7880d9df234e10dc598da", "rental_uris": {"ios": "https://dc.lft.to/lastmile_qr_scan", "android": "https://dc.lft.to/lastmile_qr_scan"}, "fusion_lon": 0.0, "lon": -77.0031135, "name": "a0942e3660f7880d9df234e10dc598da", "is_reserved": 0, "is_disabled": 0}, {"lat": 38.93841783333333, "fusion_lat": 0.0, "type": "electric_scooter", "bike_id": "125f03bc5a3c7eeb40f20ccd21ae30cd", "rental_uris": {"ios": "https://dc.lft.to/lastmile_qr_scan", "android": "https://dc.lft.to/lastmile_qr_scan"}, "fusion_lon": 0.0, "lon": -77.03393483333333, "name": "125f03bc5a3c7eeb40f20ccd21ae30cd", "is_reserved": 0, "is_disabled": 0}, {"lat": 38.924833, "fusion_lat": 0.0, "type": "electric_scooter", "bike_id": "ce6b6e3c055bf3cfebf02d2bec1c7144", "rental_uris": {"ios": "https://dc.lft.to/lastmile_qr_scan", "android": "https://dc.lft.to/lastmile_qr_scan"}, "fusion_lon": 0.0, "lon": -77.022722, "name": "ce6b6e3c055bf3cfebf02d2bec1c7144", "is_reserved": 0, "is_disabled": 0}, {"lat": 38.892245833333334, "fusion_lat": 0.0, "type": "electric_scooter", "bike_id": "b4568c66c8869ee8fcdab4759caecfc6", "rental_uris": {"ios": "https://dc.lft.to/lastmile_qr_scan", "android": "https://dc.lft.to/lastmile_qr_scan"}, "fusion_lon": 0.0, "lon": -77.04897983333333, "name": "b4568c66c8869ee8fcdab4759caecfc6", "is_reserved": 0, "is_disabled": 0}, {"lat": 38.91540783333333, "fusion_lat": 0.0, "type": "electric_scooter", "bike_id": "8d0b33f79d1651c676667c2c862529aa", "rental_uris": {"ios": "https://dc.lft.to/lastmile_qr_scan", "android": "https://dc.lft.to/lastmile_qr_scan"}, "fusion_lon": 0.0, "lon": -77.020949, "name": "8d0b33f79d1651c676667c2c862529aa", "is_reserved": 0, "is_disabled": 0}, {"lat": 38.909181, "fusion_lat": 0.0, "type": "electric_scooter", "bike_id": "46cb40eac6c97e00fd9d15e4c421c987", "rental_uris": {"ios": "https://dc.lft.to/lastmile_qr_scan", "android": "https://dc.lft.to/lastmile_qr_scan"}, "fusion_lon": 0.0, "lon": -77.07269483333333, "name": "46cb40eac6c97e00fd9d15e4c421c987", "is_reserved": 0, "is_disabled": 0}, {"lat": 38.8766165, "fusion_lat": 0.0, "type": "electric_scooter", "bike_id": "bcfc949cb30dbca63b0201a1a5de647d", "rental_uris": {"ios": "https://dc.lft.to/lastmile_qr_scan", "android": "https://dc.lft.to/lastmile_qr_scan"}, "fusion_lon": 0.0, "lon": -77.00321666666666, "name": "bcfc949cb30dbca63b0201a1a5de647d", "is_reserved": 0, "is_disabled": 0}, {"lat": 38.95624933333333, "fusion_lat": 0.0, "type": "electric_scooter", "bike_id": "4309505104a38409dbb82e69ed8dd514", "rental_uris": {"ios": "https://dc.lft.to/lastmile_qr_scan", "android": "https://dc.lft.to/lastmile_qr_scan"}, "fusion_lon": 0.0, "lon": -77.02429933333333, "name": "4309505104a38409dbb82e69ed8dd514", "is_reserved": 0, "is_disabled": 0}, {"lat": 38.90160066666667, "fusion_lat": 0.0, "type": "electric_scooter", "bike_id": "2527c04b86ce8a07eca074b78ebeec0f", "rental_uris": {"ios": "https://dc.lft.to/lastmile_qr_scan", "android": "https://dc.lft.to/lastmile_qr_scan"}, "fusion_lon": 0.0, "lon": -77.02593566666667, "name": "2527c04b86ce8a07eca074b78ebeec0f", "is_reserved": 0, "is_disabled": 0}, {"lat": 38.919124333333336, "fusion_lat": 0.0, "type": "electric_scooter", "bike_id": "b3aec262c5965efcc8b0a3e64854062b", "rental_uris": {"ios": "https://dc.lft.to/lastmile_qr_scan", "android": "https://dc.lft.to/lastmile_qr_scan"}, "fusion_lon": 0.0, "lon": -77.0394445, "name": "b3aec262c5965efcc8b0a3e64854062b", "is_reserved": 0, "is_disabled": 0}, {"lat": 38.95634366666667, "fusion_lat": 0.0, "type": "electric_scooter", "bike_id": "c8a437b8b6f9c502ee79a35a95d6f188", "rental_uris": {"ios": "https://dc.lft.to/lastmile_qr_scan", "android": "https://dc.lft.to/lastmile_qr_scan"}, "fusion_lon": 0.0, "lon": -77.033038, "name": "c8a437b8b6f9c502ee79a35a95d6f188", "is_reserved": 0, "is_disabled": 0}, {"lat": 38.937026333333336, "fusion_lat": 0.0, "type": "electric_scooter", "bike_id": "33495fe4fca3fd94d0954a0ff5b11e28", "rental_uris": {"ios": "https://dc.lft.to/lastmile_qr_scan", "android": "https://dc.lft.to/lastmile_qr_scan"}, "fusion_lon": 0.0, "lon": -77.03284783333334, "name": "33495fe4fca3fd94d0954a0ff5b11e28", "is_reserved": 0, "is_disabled": 0}, {"lat": 38.89223466666667, "fusion_lat": 0.0, "type": "electric_scooter", "bike_id": "b5a0aa9ee91729728702e0ae27d55fc3", "rental_uris": {"ios": "https://dc.lft.to/lastmile_qr_scan", "android": "https://dc.lft.to/lastmile_qr_scan"}, "fusion_lon": 0.0, "lon": -77.04465516666667, "name": "b5a0aa9ee91729728702e0ae27d55fc3", "is_reserved": 0, "is_disabled": 0}, {"lat": 38.91715133333334, "fusion_lat": 0.0, "type": "electric_scooter", "bike_id": "230a41861226b141a0ebfc9cdcc5613a", "rental_uris": {"ios": "https://dc.lft.to/lastmile_qr_scan", "android": "https://dc.lft.to/lastmile_qr_scan"}, "fusion_lon": 0.0, "lon": -77.02873483333333, "name": "230a41861226b141a0ebfc9cdcc5613a", "is_reserved": 0, "is_disabled": 0}, {"lat": 38.96081516666667, "fusion_lat": 0.0, "type": "electric_scooter", "bike_id": "9aae4490f43b4882af9bea7d5f9405b5", "rental_uris": {"ios": "https://dc.lft.to/lastmile_qr_scan", "android": "https://dc.lft.to/lastmile_qr_scan"}, "fusion_lon": 0.0, "lon": -77.02886416666666, "name": "9aae4490f43b4882af9bea7d5f9405b5", "is_reserved": 0, "is_disabled": 0}, {"lat": 38.939288, "fusion_lat": 0.0, "type": "electric_scooter", "bike_id": "3d841fcbaace295336521ccdc7ff601c", "rental_uris": {"ios": "https://dc.lft.to/lastmile_qr_scan", "android": "https://dc.lft.to/lastmile_qr_scan"}, "fusion_lon": 0.0, "lon": -77.02585866666666, "name": "3d841fcbaace295336521ccdc7ff601c", "is_reserved": 0, "is_disabled": 0}, {"lat": 38.90639933333333, "fusion_lat": 0.0, "type": "electric_scooter", "bike_id": "89b5773ce67334a5b84c7646ae143504", "rental_uris": {"ios": "https://dc.lft.to/lastmile_qr_scan", "android": "https://dc.lft.to/lastmile_qr_scan"}, "fusion_lon": 0.0, "lon": -77.00603666666666, "name": "89b5773ce67334a5b84c7646ae143504", "is_reserved": 0, "is_disabled": 0}, {"lat": 38.91483983333333, "fusion_lat": 0.0, "type": "electric_scooter", "bike_id": "0753ce2729478a7bb83fbd0c827f6376", "rental_uris": {"ios": "https://dc.lft.to/lastmile_qr_scan", "android": "https://dc.lft.to/lastmile_qr_scan"}, "fusion_lon": 0.0, "lon": -77.0408505, "name": "0753ce2729478a7bb83fbd0c827f6376", "is_reserved": 0, "is_disabled": 0}, {"lat": 38.91561083333333, "fusion_lat": 0.0, "type": "electric_scooter", "bike_id": "9746b637b519bba5e153788b14243b54", "rental_uris": {"ios": "https://dc.lft.to/lastmile_qr_scan", "android": "https://dc.lft.to/lastmile_qr_scan"}, "fusion_lon": 0.0, "lon": -77.02058483333333, "name": "9746b637b519bba5e153788b14243b54", "is_reserved": 0, "is_disabled": 0}, {"lat": 38.860173, "fusion_lat": 0.0, "type": "electric_scooter", "bike_id": "781ab574040fa195c7aca312bf6caf5f", "rental_uris": {"ios": "https://dc.lft.to/lastmile_qr_scan", "android": "https://dc.lft.to/lastmile_qr_scan"}, "fusion_lon": 0.0, "lon": -76.96706666666667, "name": "781ab574040fa195c7aca312bf6caf5f", "is_reserved": 0, "is_disabled": 0}, {"lat": 38.91058133333333, "fusion_lat": 0.0, "type": "electric_scooter", "bike_id": "748b0e2ffd396cd080e06f12030ecc34", "rental_uris": {"ios": "https://dc.lft.to/lastmile_qr_scan", "android": "https://dc.lft.to/lastmile_qr_scan"}, "fusion_lon": 0.0, "lon": -77.05287316666667, "name": "748b0e2ffd396cd080e06f12030ecc34", "is_reserved": 0, "is_disabled": 0}, {"lat": 38.9082705, "fusion_lat": 0.0, "type": "electric_scooter", "bike_id": "2525e9cc840acd34c592c14763047049", "rental_uris": {"ios": "https://dc.lft.to/lastmile_qr_scan", "android": "https://dc.lft.to/lastmile_qr_scan"}, "fusion_lon": 0.0, "lon": -77.03194933333333, "name": "2525e9cc840acd34c592c14763047049", "is_reserved": 0, "is_disabled": 0}, {"lat": 38.918063, "fusion_lat": 0.0, "type": "electric_scooter", "bike_id": "92981017dc93a1340605f241942eee7c", "rental_uris": {"ios": "https://dc.lft.to/lastmile_qr_scan", "android": "https://dc.lft.to/lastmile_qr_scan"}, "fusion_lon": 0.0, "lon": -77.03442266666667, "name": "92981017dc93a1340605f241942eee7c", "is_reserved": 0, "is_disabled": 0}, {"lat": 38.90106733333333, "fusion_lat": 0.0, "type": "electric_scooter", "bike_id": "5137578b7fad50ed5441ecce2971d267", "rental_uris": {"ios": "https://dc.lft.to/lastmile_qr_scan", "android": "https://dc.lft.to/lastmile_qr_scan"}, "fusion_lon": 0.0, "lon": -76.9305085, "name": "5137578b7fad50ed5441ecce2971d267", "is_reserved": 0, "is_disabled": 0}, {"lat": 38.902436, "fusion_lat": 0.0, "type": "electric_scooter", "bike_id": "e9e32886647648c12431cf831eed78f6", "rental_uris": {"ios": "https://dc.lft.to/lastmile_qr_scan", "android": "https://dc.lft.to/lastmile_qr_scan"}, "fusion_lon": 0.0, "lon": -77.028146, "name": "e9e32886647648c12431cf831eed78f6", "is_reserved": 0, "is_disabled": 0}, {"lat": 38.91123283333334, "fusion_lat": 0.0, "type": "electric_scooter", "bike_id": "e7494cfe18f2419e387dd3f98642ecbc", "rental_uris": {"ios": "https://dc.lft.to/lastmile_qr_scan", "android": "https://dc.lft.to/lastmile_qr_scan"}, "fusion_lon": 0.0, "lon": -77.03187383333334, "name": "e7494cfe18f2419e387dd3f98642ecbc", "is_reserved": 0, "is_disabled": 0}, {"lat": 38.91829283333333, "fusion_lat": 0.0, "type": "electric_scooter", "bike_id": "cb850d3c8bc1438246a084b5da08c7e8", "rental_uris": {"ios": "https://dc.lft.to/lastmile_qr_scan", "android": "https://dc.lft.to/lastmile_qr_scan"}, "fusion_lon": 0.0, "lon": -77.023062, "name": "cb850d3c8bc1438246a084b5da08c7e8", "is_reserved": 0, "is_disabled": 0}, {"lat": 38.8947685, "fusion_lat": 0.0, "type": "electric_scooter", "bike_id": "177f4addfb38674727b34db9689dce00", "rental_uris": {"ios": "https://dc.lft.to/lastmile_qr_scan", "android": "https://dc.lft.to/lastmile_qr_scan"}, "fusion_lon": 0.0, "lon": -77.011072, "name": "177f4addfb38674727b34db9689dce00", "is_reserved": 0, "is_disabled": 0}, {"lat": 38.93626, "fusion_lat": 0.0, "type": "electric_scooter", "bike_id": "77e19fad375ddf43768eb563c8b8c834", "rental_uris": {"ios": "https://dc.lft.to/lastmile_qr_scan", "android": "https://dc.lft.to/lastmile_qr_scan"}, "fusion_lon": 0.0, "lon": -77.058782, "name": "77e19fad375ddf43768eb563c8b8c834", "is_reserved": 0, "is_disabled": 0}, {"lat": 38.90939983333333, "fusion_lat": 0.0, "type": "electric_scooter", "bike_id": "8f18f626f0c07a5272570ed21d3a92d9", "rental_uris": {"ios": "https://dc.lft.to/lastmile_qr_scan", "android": "https://dc.lft.to/lastmile_qr_scan"}, "fusion_lon": 0.0, "lon": -77.0305465, "name": "8f18f626f0c07a5272570ed21d3a92d9", "is_reserved": 0, "is_disabled": 0}, {"lat": 38.916846, "fusion_lat": 0.0, "type": "electric_scooter", "bike_id": "996c7425cca830644757710c2a75b0d0", "rental_uris": {"ios": "https://dc.lft.to/lastmile_qr_scan", "android": "https://dc.lft.to/lastmile_qr_scan"}, "fusion_lon": 0.0, "lon": -77.029742, "name": "996c7425cca830644757710c2a75b0d0", "is_reserved": 0, "is_disabled": 0}, {"lat": 38.91599716666666, "fusion_lat": 0.0, "type": "electric_scooter", "bike_id": "f059e3c5c6c1aa2c9c5d55366fdfd56f", "rental_uris": {"ios": "https://dc.lft.to/lastmile_qr_scan", "android": "https://dc.lft.to/lastmile_qr_scan"}, "fusion_lon": 0.0, "lon": -77.04905883333333, "name": "f059e3c5c6c1aa2c9c5d55366fdfd56f", "is_reserved": 0, "is_disabled": 0}, {"lat": 38.88203583333333, "fusion_lat": 0.0, "type": "electric_scooter", "bike_id": "675c376a3fedfff6da9b7eb9af3d55d0", "rental_uris": {"ios": "https://dc.lft.to/lastmile_qr_scan", "android": "https://dc.lft.to/lastmile_qr_scan"}, "fusion_lon": 0.0, "lon": -77.0175065, "name": "675c376a3fedfff6da9b7eb9af3d55d0", "is_reserved": 0, "is_disabled": 0}, {"lat": 38.92344633333333, "fusion_lat": 0.0, "type": "electric_scooter", "bike_id": "b9b04f9f53cd5b0f4855d46e25b51d46", "rental_uris": {"ios": "https://dc.lft.to/lastmile_qr_scan", "android": "https://dc.lft.to/lastmile_qr_scan"}, "fusion_lon": 0.0, "lon": -77.0517145, "name": "b9b04f9f53cd5b0f4855d46e25b51d46", "is_reserved": 0, "is_disabled": 0}, {"lat": 38.921051166666665, "fusion_lat": 0.0, "type": "electric_scooter", "bike_id": "c7301eae77dc27539b7c546547fcb6bb", "rental_uris": {"ios": "https://dc.lft.to/lastmile_qr_scan", "android": "https://dc.lft.to/lastmile_qr_scan"}, "fusion_lon": 0.0, "lon": -77.02219233333334, "name": "c7301eae77dc27539b7c546547fcb6bb", "is_reserved": 0, "is_disabled": 0}, {"lat": 38.831533666666665, "fusion_lat": 0.0, "type": "electric_bike", "bike_id": "3909c636eebb074d684432c48400c648", "rental_uris": {"ios": "https://dc.lft.to/lastmile_qr_scan", "android": "https://dc.lft.to/lastmile_qr_scan"}, "fusion_lon": 0.0, "lon": -76.99576, "name": "3909c636eebb074d684432c48400c648", "is_reserved": 0, "is_disabled": 0}, {"lat": 38.90205816666667, "fusion_lat": 0.0, "type": "electric_scooter", "bike_id": "b3056d73a9925e1fac838c8ece6088d4", "rental_uris": {"ios": "https://dc.lft.to/lastmile_qr_scan", "android": "https://dc.lft.to/lastmile_qr_scan"}, "fusion_lon": 0.0, "lon": -77.02377616666666, "name": "b3056d73a9925e1fac838c8ece6088d4", "is_reserved": 0, "is_disabled": 0}, {"lat": 38.920267, "fusion_lat": 0.0, "type": "electric_scooter", "bike_id": "d9594f79cc03f8803a271c1cfed6906b", "rental_uris": {"ios": "https://dc.lft.to/lastmile_qr_scan", "android": "https://dc.lft.to/lastmile_qr_scan"}, "fusion_lon": 0.0, "lon": -77.07164766666666, "name": "d9594f79cc03f8803a271c1cfed6906b", "is_reserved": 0, "is_disabled": 0}, {"lat": 38.922256, "fusion_lat": 0.0, "type": "electric_scooter", "bike_id": "bcf711184b8e5621b0f4ef505c772312", "rental_uris": {"ios": "https://dc.lft.to/lastmile_qr_scan", "android": "https://dc.lft.to/lastmile_qr_scan"}, "fusion_lon": 0.0, "lon": -77.04404216666667, "name": "bcf711184b8e5621b0f4ef505c772312", "is_reserved": 0, "is_disabled": 0}, {"lat": 38.898826, "fusion_lat": 0.0, "type": "electric_scooter", "bike_id": "ec385ee2af2d633f58f16233c22ac114", "rental_uris": {"ios": "https://dc.lft.to/lastmile_qr_scan", "android": "https://dc.lft.to/lastmile_qr_scan"}, "fusion_lon": 0.0, "lon": -77.00824733333333, "name": "ec385ee2af2d633f58f16233c22ac114", "is_reserved": 0, "is_disabled": 0}, {"lat": 38.9021295, "fusion_lat": 0.0, "type": "electric_scooter", "bike_id": "185fb92d155928beb3d1639bc3fa4452", "rental_uris": {"ios": "https://dc.lft.to/lastmile_qr_scan", "android": "https://dc.lft.to/lastmile_qr_scan"}, "fusion_lon": 0.0, "lon": -77.02320433333334, "name": "185fb92d155928beb3d1639bc3fa4452", "is_reserved": 0, "is_disabled": 0}, {"lat": 38.92176966666667, "fusion_lat": 0.0, "type": "electric_scooter", "bike_id": "1c1f2c1bddfd52cb89b813ccaa68c26d", "rental_uris": {"ios": "https://dc.lft.to/lastmile_qr_scan", "android": "https://dc.lft.to/lastmile_qr_scan"}, "fusion_lon": 0.0, "lon": -77.019138, "name": "1c1f2c1bddfd52cb89b813ccaa68c26d", "is_reserved": 0, "is_disabled": 0}, {"lat": 38.885561833333334, "fusion_lat": 0.0, "type": "electric_scooter", "bike_id": "8c753f88e88f573d090a10a0a905bf20", "rental_uris": {"ios": "https://dc.lft.to/lastmile_qr_scan", "android": "https://dc.lft.to/lastmile_qr_scan"}, "fusion_lon": 0.0, "lon": -76.998042, "name": "8c753f88e88f573d090a10a0a905bf20", "is_reserved": 0, "is_disabled": 0}, {"lat": 38.87407533333333, "fusion_lat": 0.0, "type": "electric_scooter", "bike_id": "3cef1c1c2abd3ba34745a78e3b216bf7", "rental_uris": {"ios": "https://dc.lft.to/lastmile_qr_scan", "android": "https://dc.lft.to/lastmile_qr_scan"}, "fusion_lon": 0.0, "lon": -77.00210966666667, "name": "3cef1c1c2abd3ba34745a78e3b216bf7", "is_reserved": 0, "is_disabled": 0}, {"lat": 38.91821066666667, "fusion_lat": 0.0, "type": "electric_scooter", "bike_id": "c241b431dfbe58e18113cb7a5d8b1aac", "rental_uris": {"ios": "https://dc.lft.to/lastmile_qr_scan", "android": "https://dc.lft.to/lastmile_qr_scan"}, "fusion_lon": 0.0, "lon": -77.02422616666666, "name": "c241b431dfbe58e18113cb7a5d8b1aac", "is_reserved": 0, "is_disabled": 0}, {"lat": 38.905309833333334, "fusion_lat": 0.0, "type": "electric_scooter", "bike_id": "f25b8157c88cb78d9b6932bd4f657258", "rental_uris": {"ios": "https://dc.lft.to/lastmile_qr_scan", "android": "https://dc.lft.to/lastmile_qr_scan"}, "fusion_lon": 0.0, "lon": -77.02206566666666, "name": "f25b8157c88cb78d9b6932bd4f657258", "is_reserved": 0, "is_disabled": 0}, {"lat": 38.924121166666666, "fusion_lat": 0.0, "type": "electric_scooter", "bike_id": "99427270e208dbf40ed8bbbb7c5959b1", "rental_uris": {"ios": "https://dc.lft.to/lastmile_qr_scan", "android": "https://dc.lft.to/lastmile_qr_scan"}, "fusion_lon": 0.0, "lon": -77.04028283333334, "name": "99427270e208dbf40ed8bbbb7c5959b1", "is_reserved": 0, "is_disabled": 0}, {"lat": 38.9027035, "fusion_lat": 0.0, "type": "electric_scooter", "bike_id": "3ad41f2f1a19a21c9ff5693f34a71d16", "rental_uris": {"ios": "https://dc.lft.to/lastmile_qr_scan", "android": "https://dc.lft.to/lastmile_qr_scan"}, "fusion_lon": 0.0, "lon": -76.9288845, "name": "3ad41f2f1a19a21c9ff5693f34a71d16", "is_reserved": 0, "is_disabled": 0}, {"lat": 38.926247333333336, "fusion_lat": 0.0, "type": "electric_scooter", "bike_id": "77891ba88ca12ee48d7d72a4091f3669", "rental_uris": {"ios": "https://dc.lft.to/lastmile_qr_scan", "android": "https://dc.lft.to/lastmile_qr_scan"}, "fusion_lon": 0.0, "lon": -77.03527066666666, "name": "77891ba88ca12ee48d7d72a4091f3669", "is_reserved": 0, "is_disabled": 0}, {"lat": 38.91112866666667, "fusion_lat": 0.0, "type": "electric_scooter", "bike_id": "05c8f98994a99fd27e110362371538c5", "rental_uris": {"ios": "https://dc.lft.to/lastmile_qr_scan", "android": "https://dc.lft.to/lastmile_qr_scan"}, "fusion_lon": 0.0, "lon": -77.04491683333333, "name": "05c8f98994a99fd27e110362371538c5", "is_reserved": 0, "is_disabled": 0}, {"lat": 38.88722466666667, "fusion_lat": 0.0, "type": "electric_scooter", "bike_id": "e5d8583dbd38ea0110f1742852c64240", "rental_uris": {"ios": "https://dc.lft.to/lastmile_qr_scan", "android": "https://dc.lft.to/lastmile_qr_scan"}, "fusion_lon": 0.0, "lon": -77.02840316666666, "name": "e5d8583dbd38ea0110f1742852c64240", "is_reserved": 0, "is_disabled": 0}, {"lat": 38.902285666666664, "fusion_lat": 0.0, "type": "electric_scooter", "bike_id": "9a35406e9f138f2f2e360ce25f55630f", "rental_uris": {"ios": "https://dc.lft.to/lastmile_qr_scan", "android": "https://dc.lft.to/lastmile_qr_scan"}, "fusion_lon": 0.0, "lon": -77.02350733333333, "name": "9a35406e9f138f2f2e360ce25f55630f", "is_reserved": 0, "is_disabled": 0}, {"lat": 38.87711066666667, "fusion_lat": 0.0, "type": "electric_scooter", "bike_id": "f5573c568de6c7df6bd03f03f21626ac", "rental_uris": {"ios": "https://dc.lft.to/lastmile_qr_scan", "android": "https://dc.lft.to/lastmile_qr_scan"}, "fusion_lon": 0.0, "lon": -77.01838216666667, "name": "f5573c568de6c7df6bd03f03f21626ac", "is_reserved": 0, "is_disabled": 0}, {"lat": 38.917136, "fusion_lat": 0.0, "type": "electric_scooter", "bike_id": "3b22401b6b715c642f4f1d6d607ff9c1", "rental_uris": {"ios": "https://dc.lft.to/lastmile_qr_scan", "android": "https://dc.lft.to/lastmile_qr_scan"}, "fusion_lon": 0.0, "lon": -76.9764785, "name": "3b22401b6b715c642f4f1d6d607ff9c1", "is_reserved": 0, "is_disabled": 0}, {"lat": 38.93473766666666, "fusion_lat": 0.0, "type": "electric_scooter", "bike_id": "ad17c5cc8b3667b6b2fe464678ce2ef8", "rental_uris": {"ios": "https://dc.lft.to/lastmile_qr_scan", "android": "https://dc.lft.to/lastmile_qr_scan"}, "fusion_lon": 0.0, "lon": -77.07348033333334, "name": "ad17c5cc8b3667b6b2fe464678ce2ef8", "is_reserved": 0, "is_disabled": 0}, {"lat": 38.886813, "fusion_lat": 0.0, "type": "electric_scooter", "bike_id": "09a42c7a1b550fd0cb1dbc7436d55fbd", "rental_uris": {"ios": "https://dc.lft.to/lastmile_qr_scan", "android": "https://dc.lft.to/lastmile_qr_scan"}, "fusion_lon": 0.0, "lon": -77.00199483333333, "name": "09a42c7a1b550fd0cb1dbc7436d55fbd", "is_reserved": 0, "is_disabled": 0}, {"lat": 38.9003085, "fusion_lat": 0.0, "type": "electric_scooter", "bike_id": "32952d6b738b03e5ef53bd2af74cf3f0", "rental_uris": {"ios": "https://dc.lft.to/lastmile_qr_scan", "android": "https://dc.lft.to/lastmile_qr_scan"}, "fusion_lon": 0.0, "lon": -77.0021425, "name": "32952d6b738b03e5ef53bd2af74cf3f0", "is_reserved": 0, "is_disabled": 0}, {"lat": 38.902296666666665, "fusion_lat": 0.0, "type": "electric_scooter", "bike_id": "77ff96a8dc4b51101bc1521d7b876a63", "rental_uris": {"ios": "https://dc.lft.to/lastmile_qr_scan", "android": "https://dc.lft.to/lastmile_qr_scan"}, "fusion_lon": 0.0, "lon": -77.01640333333333, "name": "77ff96a8dc4b51101bc1521d7b876a63", "is_reserved": 0, "is_disabled": 0}, {"lat": 38.871065333333334, "fusion_lat": 0.0, "type": "electric_scooter", "bike_id": "34a72ae1dba1eb21e557cdbe8216554b", "rental_uris": {"ios": "https://dc.lft.to/lastmile_qr_scan", "android": "https://dc.lft.to/lastmile_qr_scan"}, "fusion_lon": 0.0, "lon": -76.96576616666667, "name": "34a72ae1dba1eb21e557cdbe8216554b", "is_reserved": 0, "is_disabled": 0}, {"lat": 38.922525, "fusion_lat": 0.0, "type": "electric_scooter", "bike_id": "4cf929f341d25275942efa88563eb57b", "rental_uris": {"ios": "https://dc.lft.to/lastmile_qr_scan", "android": "https://dc.lft.to/lastmile_qr_scan"}, "fusion_lon": 0.0, "lon": -77.0352015, "name": "4cf929f341d25275942efa88563eb57b", "is_reserved": 0, "is_disabled": 0}, {"lat": 38.92161566666667, "fusion_lat": 0.0, "type": "electric_scooter", "bike_id": "cab5d869409b0a03ade34d15328892d6", "rental_uris": {"ios": "https://dc.lft.to/lastmile_qr_scan", "android": "https://dc.lft.to/lastmile_qr_scan"}, "fusion_lon": 0.0, "lon": -77.020245, "name": "cab5d869409b0a03ade34d15328892d6", "is_reserved": 0, "is_disabled": 0}, {"lat": 38.905197, "fusion_lat": 0.0, "type": "electric_scooter", "bike_id": "680da44cb88dae271e01e624eab2089c", "rental_uris": {"ios": "https://dc.lft.to/lastmile_qr_scan", "android": "https://dc.lft.to/lastmile_qr_scan"}, "fusion_lon": 0.0, "lon": -77.05018933333334, "name": "680da44cb88dae271e01e624eab2089c", "is_reserved": 0, "is_disabled": 0}, {"lat": 38.883143833333335, "fusion_lat": 0.0, "type": "electric_bike", "bike_id": "e8d52b7f6da5eb855d0e50279deeecc4", "rental_uris": {"ios": "https://dc.lft.to/lastmile_qr_scan", "android": "https://dc.lft.to/lastmile_qr_scan"}, "fusion_lon": 0.0, "lon": -77.106624, "name": "e8d52b7f6da5eb855d0e50279deeecc4", "is_reserved": 0, "is_disabled": 0}, {"lat": 38.919076, "fusion_lat": 0.0, "type": "electric_scooter", "bike_id": "008593e5b6e187c625122250bcfe2a00", "rental_uris": {"ios": "https://dc.lft.to/lastmile_qr_scan", "android": "https://dc.lft.to/lastmile_qr_scan"}, "fusion_lon": 0.0, "lon": -77.02045166666667, "name": "008593e5b6e187c625122250bcfe2a00", "is_reserved": 0, "is_disabled": 0}, {"lat": 38.903723, "fusion_lat": 0.0, "type": "electric_scooter", "bike_id": "032c92883a0b49e194b665eadc514138", "rental_uris": {"ios": "https://dc.lft.to/lastmile_qr_scan", "android": "https://dc.lft.to/lastmile_qr_scan"}, "fusion_lon": 0.0, "lon": -77.05069183333333, "name": "032c92883a0b49e194b665eadc514138", "is_reserved": 0, "is_disabled": 0}, {"lat": 38.923143333333336, "fusion_lat": 0.0, "type": "electric_scooter", "bike_id": "3f112db39afeacf235b092ed3029a100", "rental_uris": {"ios": "https://dc.lft.to/lastmile_qr_scan", "android": "https://dc.lft.to/lastmile_qr_scan"}, "fusion_lon": 0.0, "lon": -77.03647466666666, "name": "3f112db39afeacf235b092ed3029a100", "is_reserved": 0, "is_disabled": 0}, {"lat": 38.9418865, "fusion_lat": 0.0, "type": "electric_scooter", "bike_id": "6d45296d221ab892cd4f9b10c413fa1f", "rental_uris": {"ios": "https://dc.lft.to/lastmile_qr_scan", "android": "https://dc.lft.to/lastmile_qr_scan"}, "fusion_lon": 0.0, "lon": -77.03845033333333, "name": "6d45296d221ab892cd4f9b10c413fa1f", "is_reserved": 0, "is_disabled": 0}, {"lat": 38.89784916666667, "fusion_lat": 0.0, "type": "electric_scooter", "bike_id": "6630abb8e17c8b1701447f87677ae894", "rental_uris": {"ios": "https://dc.lft.to/lastmile_qr_scan", "android": "https://dc.lft.to/lastmile_qr_scan"}, "fusion_lon": 0.0, "lon": -77.01069333333334, "name": "6630abb8e17c8b1701447f87677ae894", "is_reserved": 0, "is_disabled": 0}, {"lat": 38.94291616666667, "fusion_lat": 0.0, "type": "electric_scooter", "bike_id": "bfdd5cedb48c6cb56a282226359b33ad", "rental_uris": {"ios": "https://dc.lft.to/lastmile_qr_scan", "android": "https://dc.lft.to/lastmile_qr_scan"}, "fusion_lon": 0.0, "lon": -77.02173816666667, "name": "bfdd5cedb48c6cb56a282226359b33ad", "is_reserved": 0, "is_disabled": 0}, {"lat": 38.887312, "fusion_lat": 0.0, "type": "electric_scooter", "bike_id": "fabb7d7d13b634d114cf9b419cc44f33", "rental_uris": {"ios": "https://dc.lft.to/lastmile_qr_scan", "android": "https://dc.lft.to/lastmile_qr_scan"}, "fusion_lon": 0.0, "lon": -76.983557, "name": "fabb7d7d13b634d114cf9b419cc44f33", "is_reserved": 0, "is_disabled": 0}, {"lat": 38.884304, "fusion_lat": 0.0, "type": "electric_scooter", "bike_id": "1079dfc43405538a171294e0a887a3d3", "rental_uris": {"ios": "https://dc.lft.to/lastmile_qr_scan", "android": "https://dc.lft.to/lastmile_qr_scan"}, "fusion_lon": 0.0, "lon": -76.95759333333334, "name": "1079dfc43405538a171294e0a887a3d3", "is_reserved": 0, "is_disabled": 0}, {"lat": 38.8419275, "fusion_lat": 0.0, "type": "electric_bike", "bike_id": "fad37203aca97a302a83a8e953b210c7", "rental_uris": {"ios": "https://dc.lft.to/lastmile_qr_scan", "android": "https://dc.lft.to/lastmile_qr_scan"}, "fusion_lon": 0.0, "lon": -77.06757866666666, "name": "fad37203aca97a302a83a8e953b210c7", "is_reserved": 0, "is_disabled": 0}, {"lat": 38.917044833333335, "fusion_lat": 0.0, "type": "electric_bike", "bike_id": "592b4eeec5aab444fb3d2dcd160b6c37", "rental_uris": {"ios": "https://dc.lft.to/lastmile_qr_scan", "android": "https://dc.lft.to/lastmile_qr_scan"}, "fusion_lon": 0.0, "lon": -77.03763466666666, "name": "592b4eeec5aab444fb3d2dcd160b6c37", "is_reserved": 0, "is_disabled": 0}, {"lat": 38.9241195, "fusion_lat": 0.0, "type": "electric_scooter", "bike_id": "873541161aacd3dcf743441988e11fca", "rental_uris": {"ios": "https://dc.lft.to/lastmile_qr_scan", "android": "https://dc.lft.to/lastmile_qr_scan"}, "fusion_lon": 0.0, "lon": -76.99741133333333, "name": "873541161aacd3dcf743441988e11fca", "is_reserved": 0, "is_disabled": 0}, {"lat": 38.909688333333335, "fusion_lat": 0.0, "type": "electric_scooter", "bike_id": "c7497d030251c60fb9d9682648e32ee4", "rental_uris": {"ios": "https://dc.lft.to/lastmile_qr_scan", "android": "https://dc.lft.to/lastmile_qr_scan"}, "fusion_lon": 0.0, "lon": -77.0519765, "name": "c7497d030251c60fb9d9682648e32ee4", "is_reserved": 0, "is_disabled": 0}, {"lat": 38.97350633333333, "fusion_lat": 0.0, "type": "electric_scooter", "bike_id": "629ce7595eac3ae783a2a7bf271a695f", "rental_uris": {"ios": "https://dc.lft.to/lastmile_qr_scan", "android": "https://dc.lft.to/lastmile_qr_scan"}, "fusion_lon": 0.0, "lon": -77.02786866666666, "name": "629ce7595eac3ae783a2a7bf271a695f", "is_reserved": 0, "is_disabled": 0}, {"lat": 38.8852755, "fusion_lat": 0.0, "type": "electric_scooter", "bike_id": "d2e2056ac4d39d13ac9a4638253bf0cf", "rental_uris": {"ios": "https://dc.lft.to/lastmile_qr_scan", "android": "https://dc.lft.to/lastmile_qr_scan"}, "fusion_lon": 0.0, "lon": -77.02213733333333, "name": "d2e2056ac4d39d13ac9a4638253bf0cf", "is_reserved": 0, "is_disabled": 0}, {"lat": 38.921241, "fusion_lat": 0.0, "type": "electric_scooter", "bike_id": "700506ae2bedad7e453164fab9234c09", "rental_uris": {"ios": "https://dc.lft.to/lastmile_qr_scan", "android": "https://dc.lft.to/lastmile_qr_scan"}, "fusion_lon": 0.0, "lon": -77.032101, "name": "700506ae2bedad7e453164fab9234c09", "is_reserved": 0, "is_disabled": 0}, {"lat": 38.9246385, "fusion_lat": 0.0, "type": "electric_scooter", "bike_id": "c8ee3978b461dacff661874b4aa57a37", "rental_uris": {"ios": "https://dc.lft.to/lastmile_qr_scan", "android": "https://dc.lft.to/lastmile_qr_scan"}, "fusion_lon": 0.0, "lon": -77.0354225, "name": "c8ee3978b461dacff661874b4aa57a37", "is_reserved": 0, "is_disabled": 0}, {"lat": 38.863965666666665, "fusion_lat": 0.0, "type": "electric_bike", "bike_id": "add09a876e50fea6fd1370fef373f82e", "rental_uris": {"ios": "https://dc.lft.to/lastmile_qr_scan", "android": "https://dc.lft.to/lastmile_qr_scan"}, "fusion_lon": 0.0, "lon": -77.20111816666666, "name": "add09a876e50fea6fd1370fef373f82e", "is_reserved": 0, "is_disabled": 0}, {"lat": 38.89352683333333, "fusion_lat": 0.0, "type": "electric_scooter", "bike_id": "a7c528407af9d6aa73ee3b389ff41816", "rental_uris": {"ios": "https://dc.lft.to/lastmile_qr_scan", "android": "https://dc.lft.to/lastmile_qr_scan"}, "fusion_lon": 0.0, "lon": -77.003398, "name": "a7c528407af9d6aa73ee3b389ff41816", "is_reserved": 0, "is_disabled": 0}, {"lat": 38.8982635, "fusion_lat": 0.0, "type": "electric_scooter", "bike_id": "1bd3fa0b2cb77dd6658d61cc3e2e1097", "rental_uris": {"ios": "https://dc.lft.to/lastmile_qr_scan", "android": "https://dc.lft.to/lastmile_qr_scan"}, "fusion_lon": 0.0, "lon": -76.94654116666666, "name": "1bd3fa0b2cb77dd6658d61cc3e2e1097", "is_reserved": 0, "is_disabled": 0}, {"lat": 38.9180125, "fusion_lat": 0.0, "type": "electric_scooter", "bike_id": "4ea623ab293d00cce3b66b2f36a74989", "rental_uris": {"ios": "https://dc.lft.to/lastmile_qr_scan", "android": "https://dc.lft.to/lastmile_qr_scan"}, "fusion_lon": 0.0, "lon": -77.024854, "name": "4ea623ab293d00cce3b66b2f36a74989", "is_reserved": 0, "is_disabled": 0}, {"lat": 38.9073655, "fusion_lat": 0.0, "type": "electric_scooter", "bike_id": "5f72242534b19685d4f7ac40905dfa8d", "rental_uris": {"ios": "https://dc.lft.to/lastmile_qr_scan", "android": "https://dc.lft.to/lastmile_qr_scan"}, "fusion_lon": 0.0, "lon": -77.057172, "name": "5f72242534b19685d4f7ac40905dfa8d", "is_reserved": 0, "is_disabled": 0}, {"lat": 38.90755766666667, "fusion_lat": 0.0, "type": "electric_scooter", "bike_id": "1d660503da50022b53e800ffe5b715b6", "rental_uris": {"ios": "https://dc.lft.to/lastmile_qr_scan", "android": "https://dc.lft.to/lastmile_qr_scan"}, "fusion_lon": 0.0, "lon": -77.00920133333334, "name": "1d660503da50022b53e800ffe5b715b6", "is_reserved": 0, "is_disabled": 0}, {"lat": 38.900329666666664, "fusion_lat": 0.0, "type": "electric_scooter", "bike_id": "a30766bdd724e8b982ead3680d22981b", "rental_uris": {"ios": "https://dc.lft.to/lastmile_qr_scan", "android": "https://dc.lft.to/lastmile_qr_scan"}, "fusion_lon": 0.0, "lon": -76.99182816666666, "name": "a30766bdd724e8b982ead3680d22981b", "is_reserved": 0, "is_disabled": 0}, {"lat": 38.874891166666664, "fusion_lat": 0.0, "type": "electric_scooter", "bike_id": "e5383ffd073a15383ca206c8b6d54483", "rental_uris": {"ios": "https://dc.lft.to/lastmile_qr_scan", "android": "https://dc.lft.to/lastmile_qr_scan"}, "fusion_lon": 0.0, "lon": -77.00177333333333, "name": "e5383ffd073a15383ca206c8b6d54483", "is_reserved": 0, "is_disabled": 0}, {"lat": 38.91122166666667, "fusion_lat": 0.0, "type": "electric_scooter", "bike_id": "3c254068c8dbcfbe0e3ecac8ed63b5c2", "rental_uris": {"ios": "https://dc.lft.to/lastmile_qr_scan", "android": "https://dc.lft.to/lastmile_qr_scan"}, "fusion_lon": 0.0, "lon": -77.03188233333333, "name": "3c254068c8dbcfbe0e3ecac8ed63b5c2", "is_reserved": 0, "is_disabled": 0}, {"lat": 38.909446833333334, "fusion_lat": 0.0, "type": "electric_scooter", "bike_id": "31f93f18f1a254f5f3edcde4db931192", "rental_uris": {"ios": "https://dc.lft.to/lastmile_qr_scan", "android": "https://dc.lft.to/lastmile_qr_scan"}, "fusion_lon": 0.0, "lon": -77.03440916666666, "name": "31f93f18f1a254f5f3edcde4db931192", "is_reserved": 0, "is_disabled": 0}, {"lat": 38.903094, "fusion_lat": 0.0, "type": "electric_scooter", "bike_id": "52ed1b8cfb0e7cd78a27b5d6f945e0cb", "rental_uris": {"ios": "https://dc.lft.to/lastmile_qr_scan", "android": "https://dc.lft.to/lastmile_qr_scan"}, "fusion_lon": 0.0, "lon": -77.0614125, "name": "52ed1b8cfb0e7cd78a27b5d6f945e0cb", "is_reserved": 0, "is_disabled": 0}, {"lat": 38.918388, "fusion_lat": 0.0, "type": "electric_scooter", "bike_id": "f665b174db0c8b4f94ef3d3bf9d9d293", "rental_uris": {"ios": "https://dc.lft.to/lastmile_qr_scan", "android": "https://dc.lft.to/lastmile_qr_scan"}, "fusion_lon": 0.0, "lon": -77.04025166666666, "name": "f665b174db0c8b4f94ef3d3bf9d9d293", "is_reserved": 0, "is_disabled": 0}, {"lat": 38.87393083333333, "fusion_lat": 0.0, "type": "electric_scooter", "bike_id": "328307076f0b85c67e3b66a95d790ae5", "rental_uris": {"ios": "https://dc.lft.to/lastmile_qr_scan", "android": "https://dc.lft.to/lastmile_qr_scan"}, "fusion_lon": 0.0, "lon": -77.0002785, "name": "328307076f0b85c67e3b66a95d790ae5", "is_reserved": 0, "is_disabled": 0}, {"lat": 38.924964333333335, "fusion_lat": 0.0, "type": "electric_scooter", "bike_id": "0886881042d4cdb4c41012d0c25e490f", "rental_uris": {"ios": "https://dc.lft.to/lastmile_qr_scan", "android": "https://dc.lft.to/lastmile_qr_scan"}, "fusion_lon": 0.0, "lon": -77.02447066666667, "name": "0886881042d4cdb4c41012d0c25e490f", "is_reserved": 0, "is_disabled": 0}, {"lat": 38.91571316666667, "fusion_lat": 0.0, "type": "electric_scooter", "bike_id": "6783566e3e7c5602abb0a186f10c5b84", "rental_uris": {"ios": "https://dc.lft.to/lastmile_qr_scan", "android": "https://dc.lft.to/lastmile_qr_scan"}, "fusion_lon": 0.0, "lon": -77.02196016666667, "name": "6783566e3e7c5602abb0a186f10c5b84", "is_reserved": 0, "is_disabled": 0}, {"lat": 38.91915733333333, "fusion_lat": 0.0, "type": "electric_scooter", "bike_id": "887578f94f4e26105a1ae84af77dd72d", "rental_uris": {"ios": "https://dc.lft.to/lastmile_qr_scan", "android": "https://dc.lft.to/lastmile_qr_scan"}, "fusion_lon": 0.0, "lon": -77.03125083333333, "name": "887578f94f4e26105a1ae84af77dd72d", "is_reserved": 0, "is_disabled": 0}, {"lat": 38.91743816666666, "fusion_lat": 0.0, "type": "electric_scooter", "bike_id": "bf35148ff0328dc128a54eaac03a8052", "rental_uris": {"ios": "https://dc.lft.to/lastmile_qr_scan", "android": "https://dc.lft.to/lastmile_qr_scan"}, "fusion_lon": 0.0, "lon": -77.06938733333334, "name": "bf35148ff0328dc128a54eaac03a8052", "is_reserved": 0, "is_disabled": 0}, {"lat": 38.95760683333334, "fusion_lat": 0.0, "type": "electric_scooter", "bike_id": "50bab42b29365081f5dd3eedac0a77eb", "rental_uris": {"ios": "https://dc.lft.to/lastmile_qr_scan", "android": "https://dc.lft.to/lastmile_qr_scan"}, "fusion_lon": 0.0, "lon": -77.01496666666667, "name": "50bab42b29365081f5dd3eedac0a77eb", "is_reserved": 0, "is_disabled": 0}, {"lat": 38.919812, "fusion_lat": 0.0, "type": "electric_scooter", "bike_id": "5ff8fa598b041ecf39a5627b5074f043", "rental_uris": {"ios": "https://dc.lft.to/lastmile_qr_scan", "android": "https://dc.lft.to/lastmile_qr_scan"}, "fusion_lon": 0.0, "lon": -77.04170816666667, "name": "5ff8fa598b041ecf39a5627b5074f043", "is_reserved": 0, "is_disabled": 0}, {"lat": 38.923367666666664, "fusion_lat": 0.0, "type": "electric_scooter", "bike_id": "ff7e8c6b8dbeef406a9537e8e12e8f20", "rental_uris": {"ios": "https://dc.lft.to/lastmile_qr_scan", "android": "https://dc.lft.to/lastmile_qr_scan"}, "fusion_lon": 0.0, "lon": -77.00920666666667, "name": "ff7e8c6b8dbeef406a9537e8e12e8f20", "is_reserved": 0, "is_disabled": 0}, {"lat": 38.915742333333334, "fusion_lat": 0.0, "type": "electric_scooter", "bike_id": "9aae46b5aa7983cbe1ad1fb332c53fa6", "rental_uris": {"ios": "https://dc.lft.to/lastmile_qr_scan", "android": "https://dc.lft.to/lastmile_qr_scan"}, "fusion_lon": 0.0, "lon": -77.02191083333334, "name": "9aae46b5aa7983cbe1ad1fb332c53fa6", "is_reserved": 0, "is_disabled": 0}, {"lat": 38.88483183333334, "fusion_lat": 0.0, "type": "electric_scooter", "bike_id": "30d2dcb2cc24bc7b7dfdadb9e48b99ba", "rental_uris": {"ios": "https://dc.lft.to/lastmile_qr_scan", "android": "https://dc.lft.to/lastmile_qr_scan"}, "fusion_lon": 0.0, "lon": -76.99707666666667, "name": "30d2dcb2cc24bc7b7dfdadb9e48b99ba", "is_reserved": 0, "is_disabled": 0}, {"lat": 38.89812383333334, "fusion_lat": 0.0, "type": "electric_bike", "bike_id": "34c6ef86d87065ebbd2b07f3e143f03c", "rental_uris": {"ios": "https://dc.lft.to/lastmile_qr_scan", "android": "https://dc.lft.to/lastmile_qr_scan"}, "fusion_lon": 0.0, "lon": -77.0059905, "name": "34c6ef86d87065ebbd2b07f3e143f03c", "is_reserved": 0, "is_disabled": 0}, {"lat": 38.90123483333333, "fusion_lat": 0.0, "type": "electric_scooter", "bike_id": "1076320a86aad98f40c7e428b20d1a66", "rental_uris": {"ios": "https://dc.lft.to/lastmile_qr_scan", "android": "https://dc.lft.to/lastmile_qr_scan"}, "fusion_lon": 0.0, "lon": -77.02204633333334, "name": "1076320a86aad98f40c7e428b20d1a66", "is_reserved": 0, "is_disabled": 0}, {"lat": 38.91767333333333, "fusion_lat": 0.0, "type": "electric_scooter", "bike_id": "f0632e4544b5d013ebe9d802c06bae66", "rental_uris": {"ios": "https://dc.lft.to/lastmile_qr_scan", "android": "https://dc.lft.to/lastmile_qr_scan"}, "fusion_lon": 0.0, "lon": -77.03200733333334, "name": "f0632e4544b5d013ebe9d802c06bae66", "is_reserved": 0, "is_disabled": 0}, {"lat": 38.901635, "fusion_lat": 0.0, "type": "electric_scooter", "bike_id": "490ee01a9bb3f7d637a96bac10a75b39", "rental_uris": {"ios": "https://dc.lft.to/lastmile_qr_scan", "android": "https://dc.lft.to/lastmile_qr_scan"}, "fusion_lon": 0.0, "lon": -77.04674633333333, "name": "490ee01a9bb3f7d637a96bac10a75b39", "is_reserved": 0, "is_disabled": 0}, {"lat": 38.896951333333334, "fusion_lat": 0.0, "type": "electric_bike", "bike_id": "9bdf06d3007ddc162e791df52db53e84", "rental_uris": {"ios": "https://dc.lft.to/lastmile_qr_scan", "android": "https://dc.lft.to/lastmile_qr_scan"}, "fusion_lon": 0.0, "lon": -76.963055, "name": "9bdf06d3007ddc162e791df52db53e84", "is_reserved": 0, "is_disabled": 0}, {"lat": 38.924487, "fusion_lat": 0.0, "type": "electric_scooter", "bike_id": "f05b321b844b2300aa8f716773bb833c", "rental_uris": {"ios": "https://dc.lft.to/lastmile_qr_scan", "android": "https://dc.lft.to/lastmile_qr_scan"}, "fusion_lon": 0.0, "lon": -76.9898715, "name": "f05b321b844b2300aa8f716773bb833c", "is_reserved": 0, "is_disabled": 0}, {"lat": 38.9081215, "fusion_lat": 0.0, "type": "electric_scooter", "bike_id": "3031f41867292c5adf50630c03cd3006", "rental_uris": {"ios": "https://dc.lft.to/lastmile_qr_scan", "android": "https://dc.lft.to/lastmile_qr_scan"}, "fusion_lon": 0.0, "lon": -77.02537566666666, "name": "3031f41867292c5adf50630c03cd3006", "is_reserved": 0, "is_disabled": 0}, {"lat": 38.90719516666667, "fusion_lat": 0.0, "type": "electric_scooter", "bike_id": "2072039aa48750bb5b8d57b5a569b6b5", "rental_uris": {"ios": "https://dc.lft.to/lastmile_qr_scan", "android": "https://dc.lft.to/lastmile_qr_scan"}, "fusion_lon": 0.0, "lon": -77.07602783333333, "name": "2072039aa48750bb5b8d57b5a569b6b5", "is_reserved": 0, "is_disabled": 0}, {"lat": 38.90123466666667, "fusion_lat": 0.0, "type": "electric_scooter", "bike_id": "b30b5b2d6361f3e2f09ed723cca6c97d", "rental_uris": {"ios": "https://dc.lft.to/lastmile_qr_scan", "android": "https://dc.lft.to/lastmile_qr_scan"}, "fusion_lon": 0.0, "lon": -77.017563, "name": "b30b5b2d6361f3e2f09ed723cca6c97d", "is_reserved": 0, "is_disabled": 0}, {"lat": 38.89714816666667, "fusion_lat": 0.0, "type": "electric_scooter", "bike_id": "fb7318448e8ad3c2426879f6cf26e379", "rental_uris": {"ios": "https://dc.lft.to/lastmile_qr_scan", "android": "https://dc.lft.to/lastmile_qr_scan"}, "fusion_lon": 0.0, "lon": -77.00796366666667, "name": "fb7318448e8ad3c2426879f6cf26e379", "is_reserved": 0, "is_disabled": 0}, {"lat": 38.900561833333335, "fusion_lat": 0.0, "type": "electric_scooter", "bike_id": "cf8398eae938d236069299baddeaee53", "rental_uris": {"ios": "https://dc.lft.to/lastmile_qr_scan", "android": "https://dc.lft.to/lastmile_qr_scan"}, "fusion_lon": 0.0, "lon": -77.05135366666667, "name": "cf8398eae938d236069299baddeaee53", "is_reserved": 0, "is_disabled": 0}, {"lat": 38.89873716666666, "fusion_lat": 0.0, "type": "electric_scooter", "bike_id": "48f107acf092986fc86d45a7f80b5bf4", "rental_uris": {"ios": "https://dc.lft.to/lastmile_qr_scan", "android": "https://dc.lft.to/lastmile_qr_scan"}, "fusion_lon": 0.0, "lon": -76.93190883333334, "name": "48f107acf092986fc86d45a7f80b5bf4", "is_reserved": 0, "is_disabled": 0}, {"lat": 38.91263583333333, "fusion_lat": 0.0, "type": "electric_scooter", "bike_id": "4a539cf744dcb6af97b7f021ad0e8b3d", "rental_uris": {"ios": "https://dc.lft.to/lastmile_qr_scan", "android": "https://dc.lft.to/lastmile_qr_scan"}, "fusion_lon": 0.0, "lon": -77.031781, "name": "4a539cf744dcb6af97b7f021ad0e8b3d", "is_reserved": 0, "is_disabled": 0}, {"lat": 38.898522166666666, "fusion_lat": 0.0, "type": "electric_scooter", "bike_id": "3b99e3599504908b2f7c5cacf274f81d", "rental_uris": {"ios": "https://dc.lft.to/lastmile_qr_scan", "android": "https://dc.lft.to/lastmile_qr_scan"}, "fusion_lon": 0.0, "lon": -77.0138195, "name": "3b99e3599504908b2f7c5cacf274f81d", "is_reserved": 0, "is_disabled": 0}, {"lat": 38.889328, "fusion_lat": 0.0, "type": "electric_scooter", "bike_id": "2ec1425a8bbf65521c885a08bc83a7e4", "rental_uris": {"ios": "https://dc.lft.to/lastmile_qr_scan", "android": "https://dc.lft.to/lastmile_qr_scan"}, "fusion_lon": 0.0, "lon": -76.99376566666666, "name": "2ec1425a8bbf65521c885a08bc83a7e4", "is_reserved": 0, "is_disabled": 0}, {"lat": 38.84757, "fusion_lat": 0.0, "type": "electric_scooter", "bike_id": "622b8f2714bbf3cfb4eb24e55d5d532e", "rental_uris": {"ios": "https://dc.lft.to/lastmile_qr_scan", "android": "https://dc.lft.to/lastmile_qr_scan"}, "fusion_lon": 0.0, "lon": -76.9950085, "name": "622b8f2714bbf3cfb4eb24e55d5d532e", "is_reserved": 0, "is_disabled": 0}, {"lat": 38.9073685, "fusion_lat": 0.0, "type": "electric_scooter", "bike_id": "29245271a00b2a82ab6dc14bf7f86090", "rental_uris": {"ios": "https://dc.lft.to/lastmile_qr_scan", "android": "https://dc.lft.to/lastmile_qr_scan"}, "fusion_lon": 0.0, "lon": -77.0130485, "name": "29245271a00b2a82ab6dc14bf7f86090", "is_reserved": 0, "is_disabled": 0}, {"lat": 38.89831983333333, "fusion_lat": 0.0, "type": "electric_scooter", "bike_id": "91067c23f025e39ade01713175ba94e5", "rental_uris": {"ios": "https://dc.lft.to/lastmile_qr_scan", "android": "https://dc.lft.to/lastmile_qr_scan"}, "fusion_lon": 0.0, "lon": -77.00754333333333, "name": "91067c23f025e39ade01713175ba94e5", "is_reserved": 0, "is_disabled": 0}, {"lat": 38.89853266666667, "fusion_lat": 0.0, "type": "electric_scooter", "bike_id": "fd671e0813db04b0612e302eef0b3781", "rental_uris": {"ios": "https://dc.lft.to/lastmile_qr_scan", "android": "https://dc.lft.to/lastmile_qr_scan"}, "fusion_lon": 0.0, "lon": -77.02859633333334, "name": "fd671e0813db04b0612e302eef0b3781", "is_reserved": 0, "is_disabled": 0}, {"lat": 38.9244245, "fusion_lat": 0.0, "type": "electric_scooter", "bike_id": "3fd1360e7a63a3dac92d761ab661ebee", "rental_uris": {"ios": "https://dc.lft.to/lastmile_qr_scan", "android": "https://dc.lft.to/lastmile_qr_scan"}, "fusion_lon": 0.0, "lon": -77.0202735, "name": "3fd1360e7a63a3dac92d761ab661ebee", "is_reserved": 0, "is_disabled": 0}, {"lat": 38.8763885, "fusion_lat": 0.0, "type": "electric_scooter", "bike_id": "f3d175ca23f707c19a7e3be84851666a", "rental_uris": {"ios": "https://dc.lft.to/lastmile_qr_scan", "android": "https://dc.lft.to/lastmile_qr_scan"}, "fusion_lon": 0.0, "lon": -77.00298383333333, "name": "f3d175ca23f707c19a7e3be84851666a", "is_reserved": 0, "is_disabled": 0}, {"lat": 38.89552333333334, "fusion_lat": 0.0, "type": "electric_scooter", "bike_id": "33b65fadc55d25fa3c95b90178a2c41a", "rental_uris": {"ios": "https://dc.lft.to/lastmile_qr_scan", "android": "https://dc.lft.to/lastmile_qr_scan"}, "fusion_lon": 0.0, "lon": -76.98233616666667, "name": "33b65fadc55d25fa3c95b90178a2c41a", "is_reserved": 0, "is_disabled": 0}, {"lat": 38.902769666666664, "fusion_lat": 0.0, "type": "electric_scooter", "bike_id": "9be054c05c46a9626b771713b7b90297", "rental_uris": {"ios": "https://dc.lft.to/lastmile_qr_scan", "android": "https://dc.lft.to/lastmile_qr_scan"}, "fusion_lon": 0.0, "lon": -77.04082566666666, "name": "9be054c05c46a9626b771713b7b90297", "is_reserved": 0, "is_disabled": 0}, {"lat": 38.885243333333335, "fusion_lat": 0.0, "type": "electric_scooter", "bike_id": "cdfd2a56a1f321190bc793b02cd4c16d", "rental_uris": {"ios": "https://dc.lft.to/lastmile_qr_scan", "android": "https://dc.lft.to/lastmile_qr_scan"}, "fusion_lon": 0.0, "lon": -76.99615716666666, "name": "cdfd2a56a1f321190bc793b02cd4c16d", "is_reserved": 0, "is_disabled": 0}, {"lat": 38.92389083333333, "fusion_lat": 0.0, "type": "electric_scooter", "bike_id": "19673b5283020b7c5afff9a478deecd4", "rental_uris": {"ios": "https://dc.lft.to/lastmile_qr_scan", "android": "https://dc.lft.to/lastmile_qr_scan"}, "fusion_lon": 0.0, "lon": -77.02981066666666, "name": "19673b5283020b7c5afff9a478deecd4", "is_reserved": 0, "is_disabled": 0}, {"lat": 38.910202, "fusion_lat": 0.0, "type": "electric_scooter", "bike_id": "73aa7d020268a6f7be9235cf65171169", "rental_uris": {"ios": "https://dc.lft.to/lastmile_qr_scan", "android": "https://dc.lft.to/lastmile_qr_scan"}, "fusion_lon": 0.0, "lon": -77.0293385, "name": "73aa7d020268a6f7be9235cf65171169", "is_reserved": 0, "is_disabled": 0}, {"lat": 38.9138055, "fusion_lat": 0.0, "type": "electric_scooter", "bike_id": "8c79d23c8c2b61a3397cb5da98ee3eb3", "rental_uris": {"ios": "https://dc.lft.to/lastmile_qr_scan", "android": "https://dc.lft.to/lastmile_qr_scan"}, "fusion_lon": 0.0, "lon": -77.022033, "name": "8c79d23c8c2b61a3397cb5da98ee3eb3", "is_reserved": 0, "is_disabled": 0}, {"lat": 38.96177216666667, "fusion_lat": 0.0, "type": "electric_scooter", "bike_id": "a943cb8081a479557860de3e2093d2d3", "rental_uris": {"ios": "https://dc.lft.to/lastmile_qr_scan", "android": "https://dc.lft.to/lastmile_qr_scan"}, "fusion_lon": 0.0, "lon": -77.01434683333333, "name": "a943cb8081a479557860de3e2093d2d3", "is_reserved": 0, "is_disabled": 0}, {"lat": 38.8926105, "fusion_lat": 0.0, "type": "electric_scooter", "bike_id": "ccdd26927db0de26c07599bf8c486670", "rental_uris": {"ios": "https://dc.lft.to/lastmile_qr_scan", "android": "https://dc.lft.to/lastmile_qr_scan"}, "fusion_lon": 0.0, "lon": -77.00377666666667, "name": "ccdd26927db0de26c07599bf8c486670", "is_reserved": 0, "is_disabled": 0}, {"lat": 38.91660816666667, "fusion_lat": 0.0, "type": "electric_scooter", "bike_id": "774ae57d5274180f3b47e30e94ad75df", "rental_uris": {"ios": "https://dc.lft.to/lastmile_qr_scan", "android": "https://dc.lft.to/lastmile_qr_scan"}, "fusion_lon": 0.0, "lon": -77.0247595, "name": "774ae57d5274180f3b47e30e94ad75df", "is_reserved": 0, "is_disabled": 0}, {"lat": 38.89223633333334, "fusion_lat": 0.0, "type": "electric_scooter", "bike_id": "ddd4acc4325477c4837e72c08caf15e5", "rental_uris": {"ios": "https://dc.lft.to/lastmile_qr_scan", "android": "https://dc.lft.to/lastmile_qr_scan"}, "fusion_lon": 0.0, "lon": -77.02205133333334, "name": "ddd4acc4325477c4837e72c08caf15e5", "is_reserved": 0, "is_disabled": 0}, {"lat": 38.93056833333333, "fusion_lat": 0.0, "type": "electric_scooter", "bike_id": "6347b81e94689eeb123c0b774aa6135e", "rental_uris": {"ios": "https://dc.lft.to/lastmile_qr_scan", "android": "https://dc.lft.to/lastmile_qr_scan"}, "fusion_lon": 0.0, "lon": -77.03821816666667, "name": "6347b81e94689eeb123c0b774aa6135e", "is_reserved": 0, "is_disabled": 0}, {"lat": 38.809770666666665, "fusion_lat": 0.0, "type": "electric_bike", "bike_id": "7c9c4cf162cc8b57c88c949df8ca8f41", "rental_uris": {"ios": "https://dc.lft.to/lastmile_qr_scan", "android": "https://dc.lft.to/lastmile_qr_scan"}, "fusion_lon": 0.0, "lon": -77.07660366666667, "name": "7c9c4cf162cc8b57c88c949df8ca8f41", "is_reserved": 0, "is_disabled": 0}, {"lat": 38.92700716666667, "fusion_lat": 0.0, "type": "electric_scooter", "bike_id": "10db72869b1c19d5b384fe3fabe3c5d8", "rental_uris": {"ios": "https://dc.lft.to/lastmile_qr_scan", "android": "https://dc.lft.to/lastmile_qr_scan"}, "fusion_lon": 0.0, "lon": -77.02078516666667, "name": "10db72869b1c19d5b384fe3fabe3c5d8", "is_reserved": 0, "is_disabled": 0}, {"lat": 38.94962783333333, "fusion_lat": 0.0, "type": "electric_scooter", "bike_id": "246484de53ee83a8ad62e371a33b9ce7", "rental_uris": {"ios": "https://dc.lft.to/lastmile_qr_scan", "android": "https://dc.lft.to/lastmile_qr_scan"}, "fusion_lon": 0.0, "lon": -77.06663516666667, "name": "246484de53ee83a8ad62e371a33b9ce7", "is_reserved": 0, "is_disabled": 0}, {"lat": 38.90668216666667, "fusion_lat": 0.0, "type": "electric_scooter", "bike_id": "d2a06b028485fe6a80b4f55ba68a1436", "rental_uris": {"ios": "https://dc.lft.to/lastmile_qr_scan", "android": "https://dc.lft.to/lastmile_qr_scan"}, "fusion_lon": 0.0, "lon": -77.027156, "name": "d2a06b028485fe6a80b4f55ba68a1436", "is_reserved": 0, "is_disabled": 0}, {"lat": 38.913244666666664, "fusion_lat": 0.0, "type": "electric_scooter", "bike_id": "7dccdc077552240056e5e4741011c63f", "rental_uris": {"ios": "https://dc.lft.to/lastmile_qr_scan", "android": "https://dc.lft.to/lastmile_qr_scan"}, "fusion_lon": 0.0, "lon": -77.04538766666667, "name": "7dccdc077552240056e5e4741011c63f", "is_reserved": 0, "is_disabled": 0}, {"lat": 38.9328165, "fusion_lat": 0.0, "type": "electric_scooter", "bike_id": "2f9ab72192862dd075b3e2bbbe33f290", "rental_uris": {"ios": "https://dc.lft.to/lastmile_qr_scan", "android": "https://dc.lft.to/lastmile_qr_scan"}, "fusion_lon": 0.0, "lon": -77.02545216666667, "name": "2f9ab72192862dd075b3e2bbbe33f290", "is_reserved": 0, "is_disabled": 0}, {"lat": 38.891956666666665, "fusion_lat": 0.0, "type": "electric_scooter", "bike_id": "e83abab852fabfd4d10e94f51d126e90", "rental_uris": {"ios": "https://dc.lft.to/lastmile_qr_scan", "android": "https://dc.lft.to/lastmile_qr_scan"}, "fusion_lon": 0.0, "lon": -76.99386466666667, "name": "e83abab852fabfd4d10e94f51d126e90", "is_reserved": 0, "is_disabled": 0}, {"lat": 38.9237225, "fusion_lat": 0.0, "type": "electric_scooter", "bike_id": "23fa5aecfd802cf7a7c5998f88681585", "rental_uris": {"ios": "https://dc.lft.to/lastmile_qr_scan", "android": "https://dc.lft.to/lastmile_qr_scan"}, "fusion_lon": 0.0, "lon": -77.01944066666667, "name": "23fa5aecfd802cf7a7c5998f88681585", "is_reserved": 0, "is_disabled": 0}, {"lat": 38.87659983333333, "fusion_lat": 0.0, "type": "electric_scooter", "bike_id": "1341fc1675189ccae247972d6302f597", "rental_uris": {"ios": "https://dc.lft.to/lastmile_qr_scan", "android": "https://dc.lft.to/lastmile_qr_scan"}, "fusion_lon": 0.0, "lon": -77.001134, "name": "1341fc1675189ccae247972d6302f597", "is_reserved": 0, "is_disabled": 0}, {"lat": 38.900099, "fusion_lat": 0.0, "type": "electric_scooter", "bike_id": "72fe529054cf72e20ad15c09098dae57", "rental_uris": {"ios": "https://dc.lft.to/lastmile_qr_scan", "android": "https://dc.lft.to/lastmile_qr_scan"}, "fusion_lon": 0.0, "lon": -77.01259633333333, "name": "72fe529054cf72e20ad15c09098dae57", "is_reserved": 0, "is_disabled": 0}, {"lat": 39.010716333333335, "fusion_lat": 0.0, "type": "electric_bike", "bike_id": "d57d70a96345698d4c42923a708748bf", "rental_uris": {"ios": "https://dc.lft.to/lastmile_qr_scan", "android": "https://dc.lft.to/lastmile_qr_scan"}, "fusion_lon": 0.0, "lon": -76.91053283333333, "name": "d57d70a96345698d4c42923a708748bf", "is_reserved": 0, "is_disabled": 0}, {"lat": 38.90971416666667, "fusion_lat": 0.0, "type": "electric_scooter", "bike_id": "bf77971c32a4a3b9f7938e3bbe41352b", "rental_uris": {"ios": "https://dc.lft.to/lastmile_qr_scan", "android": "https://dc.lft.to/lastmile_qr_scan"}, "fusion_lon": 0.0, "lon": -77.02455216666667, "name": "bf77971c32a4a3b9f7938e3bbe41352b", "is_reserved": 0, "is_disabled": 0}, {"lat": 38.913369833333334, "fusion_lat": 0.0, "type": "electric_scooter", "bike_id": "25f5856039fa0f29e5160f0592206b5d", "rental_uris": {"ios": "https://dc.lft.to/lastmile_qr_scan", "android": "https://dc.lft.to/lastmile_qr_scan"}, "fusion_lon": 0.0, "lon": -77.01624183333334, "name": "25f5856039fa0f29e5160f0592206b5d", "is_reserved": 0, "is_disabled": 0}, {"lat": 38.899218833333336, "fusion_lat": 0.0, "type": "electric_scooter", "bike_id": "a1a43ea2ec5fca82dcf268ef12f0c37b", "rental_uris": {"ios": "https://dc.lft.to/lastmile_qr_scan", "android": "https://dc.lft.to/lastmile_qr_scan"}, "fusion_lon": 0.0, "lon": -77.02822533333334, "name": "a1a43ea2ec5fca82dcf268ef12f0c37b", "is_reserved": 0, "is_disabled": 0}, {"lat": 38.89219966666667, "fusion_lat": 0.0, "type": "electric_scooter", "bike_id": "01e1dfcf868e8dce19762e3abb4dc2c9", "rental_uris": {"ios": "https://dc.lft.to/lastmile_qr_scan", "android": "https://dc.lft.to/lastmile_qr_scan"}, "fusion_lon": 0.0, "lon": -77.04197866666667, "name": "01e1dfcf868e8dce19762e3abb4dc2c9", "is_reserved": 0, "is_disabled": 0}, {"lat": 38.91330033333333, "fusion_lat": 0.0, "type": "electric_scooter", "bike_id": "2182e3258a0fb6515e14c3809102d39c", "rental_uris": {"ios": "https://dc.lft.to/lastmile_qr_scan", "android": "https://dc.lft.to/lastmile_qr_scan"}, "fusion_lon": 0.0, "lon": -77.048617, "name": "2182e3258a0fb6515e14c3809102d39c", "is_reserved": 0, "is_disabled": 0}, {"lat": 38.917753833333336, "fusion_lat": 0.0, "type": "electric_scooter", "bike_id": "fedc0e06cc1a878caa20428dbf40a7fd", "rental_uris": {"ios": "https://dc.lft.to/lastmile_qr_scan", "android": "https://dc.lft.to/lastmile_qr_scan"}, "fusion_lon": 0.0, "lon": -77.0406175, "name": "fedc0e06cc1a878caa20428dbf40a7fd", "is_reserved": 0, "is_disabled": 0}, {"lat": 38.918084, "fusion_lat": 0.0, "type": "electric_scooter", "bike_id": "006dbc2e57def6ecb8001bc6b37de87a", "rental_uris": {"ios": "https://dc.lft.to/lastmile_qr_scan", "android": "https://dc.lft.to/lastmile_qr_scan"}, "fusion_lon": 0.0, "lon": -77.0268185, "name": "006dbc2e57def6ecb8001bc6b37de87a", "is_reserved": 0, "is_disabled": 0}, {"lat": 38.91856933333333, "fusion_lat": 0.0, "type": "electric_scooter", "bike_id": "2202342258282a173fdaef48eafe6ced", "rental_uris": {"ios": "https://dc.lft.to/lastmile_qr_scan", "android": "https://dc.lft.to/lastmile_qr_scan"}, "fusion_lon": 0.0, "lon": -77.04156866666666, "name": "2202342258282a173fdaef48eafe6ced", "is_reserved": 0, "is_disabled": 0}, {"lat": 38.899432166666664, "fusion_lat": 0.0, "type": "electric_scooter", "bike_id": "37ad0b45a6dad05b55d88a7fce6817a2", "rental_uris": {"ios": "https://dc.lft.to/lastmile_qr_scan", "android": "https://dc.lft.to/lastmile_qr_scan"}, "fusion_lon": 0.0, "lon": -77.0145235, "name": "37ad0b45a6dad05b55d88a7fce6817a2", "is_reserved": 0, "is_disabled": 0}, {"lat": 38.89761516666667, "fusion_lat": 0.0, "type": "electric_scooter", "bike_id": "320439d3a6af340f306f9581c7bcd967", "rental_uris": {"ios": "https://dc.lft.to/lastmile_qr_scan", "android": "https://dc.lft.to/lastmile_qr_scan"}, "fusion_lon": 0.0, "lon": -77.02101666666667, "name": "320439d3a6af340f306f9581c7bcd967", "is_reserved": 0, "is_disabled": 0}, {"lat": 38.784668, "fusion_lat": 0.0, "type": "electric_bike", "bike_id": "4ad36f21be273c23aafdd2698a97f873", "rental_uris": {"ios": "https://dc.lft.to/lastmile_qr_scan", "android": "https://dc.lft.to/lastmile_qr_scan"}, "fusion_lon": 0.0, "lon": -77.01642833333334, "name": "4ad36f21be273c23aafdd2698a97f873", "is_reserved": 0, "is_disabled": 0}, {"lat": 38.8917945, "fusion_lat": 0.0, "type": "electric_scooter", "bike_id": "87c051e488cd92860f7e30890ce6676f", "rental_uris": {"ios": "https://dc.lft.to/lastmile_qr_scan", "android": "https://dc.lft.to/lastmile_qr_scan"}, "fusion_lon": 0.0, "lon": -77.003396, "name": "87c051e488cd92860f7e30890ce6676f", "is_reserved": 0, "is_disabled": 0}, {"lat": 38.90501066666667, "fusion_lat": 0.0, "type": "electric_bike", "bike_id": "e2606dba6f0b11f81c7f21415a6eef46", "rental_uris": {"ios": "https://dc.lft.to/lastmile_qr_scan", "android": "https://dc.lft.to/lastmile_qr_scan"}, "fusion_lon": 0.0, "lon": -76.97444683333333, "name": "e2606dba6f0b11f81c7f21415a6eef46", "is_reserved": 0, "is_disabled": 0}, {"lat": 38.898241, "fusion_lat": 0.0, "type": "electric_scooter", "bike_id": "cc102f729b30b672fe1755dc81baeb77", "rental_uris": {"ios": "https://dc.lft.to/lastmile_qr_scan", "android": "https://dc.lft.to/lastmile_qr_scan"}, "fusion_lon": 0.0, "lon": -77.033504, "name": "cc102f729b30b672fe1755dc81baeb77", "is_reserved": 0, "is_disabled": 0}, {"lat": 38.956283166666665, "fusion_lat": 0.0, "type": "electric_scooter", "bike_id": "138371ac8b2717c3bf2b6df48bc6f052", "rental_uris": {"ios": "https://dc.lft.to/lastmile_qr_scan", "android": "https://dc.lft.to/lastmile_qr_scan"}, "fusion_lon": 0.0, "lon": -77.02838933333334, "name": "138371ac8b2717c3bf2b6df48bc6f052", "is_reserved": 0, "is_disabled": 0}, {"lat": 38.874931, "fusion_lat": 0.0, "type": "electric_scooter", "bike_id": "5fe6a66ecba353de09feacd2b89b7946", "rental_uris": {"ios": "https://dc.lft.to/lastmile_qr_scan", "android": "https://dc.lft.to/lastmile_qr_scan"}, "fusion_lon": 0.0, "lon": -76.99963533333333, "name": "5fe6a66ecba353de09feacd2b89b7946", "is_reserved": 0, "is_disabled": 0},