{"data": {"bikes": [{"lon": -76.9908565, "bike_id": "a54a6e8ad037f585f0589885b17482f3", "lat": 38.86237633333333, "fusion_lon": 0.0, "fusion_lat": 0.0, "type": "electric_bike", "name": "a54a6e8ad037f585f0589885b17482f3", "is_disabled": 0, "rental_uris": {"ios": "https://dc.lft.to/lastmile_qr_scan", "android": "https://dc.lft.to/lastmile_qr_scan"}, "is_reserved": 0}, {"lon": -77.08072683333333, "bike_id": "c6bc5a33f9ead999fa950c5d01a2c835", "lat": 39.05283083333333, "fusion_lon": 0.0, "fusion_lat": 0.0, "type": "electric_bike", "name": "c6bc5a33f9ead999fa950c5d01a2c835", "is_disabled": 0, "rental_uris": {"ios": "https://dc.lft.to/lastmile_qr_scan", "android": "https://dc.lft.to/lastmile_qr_scan"}, "is_reserved": 0}, {"lon": -77.01193116666667, "bike_id": "47bc947704d39569d1464f5de1a141f7", "lat": 38.90867433333333, "fusion_lon": 0.0, "fusion_lat": 0.0, "type": "electric_scooter", "name": "47bc947704d39569d1464f5de1a141f7", "is_disabled": 0, "rental_uris": {"ios": "https://dc.lft.to/lastmile_qr_scan", "android": "https://dc.lft.to/lastmile_qr_scan"}, "is_reserved": 0}, {"lon": -76.9748165, "bike_id": "3292c48267f53921de552bc8bce59453", "lat": 38.9035195, "fusion_lon": 0.0, "fusion_lat": 0.0, "type": "electric_scooter", "name": "3292c48267f53921de552bc8bce59453", "is_disabled": 0, "rental_uris": {"ios": "https://dc.lft.to/lastmile_qr_scan", "android": "https://dc.lft.to/lastmile_qr_scan"}, "is_reserved": 0}, {"lon": -77.020528, "bike_id": "7e1ec8a8843ae34256694c5575e3757b", "lat": 38.897108333333335, "fusion_lon": 0.0, "fusion_lat": 0.0, "type": "electric_scooter", "name": "7e1ec8a8843ae34256694c5575e3757b", "is_disabled": 0, "rental_uris": {"ios": "https://dc.lft.to/lastmile_qr_scan", "android": "https://dc.lft.to/lastmile_qr_scan"}, "is_reserved": 0}, {"lon": -77.02096333333333, "bike_id": "529d3c0ef550ca596a721d627c8f4d19", "lat": 38.927073, "fusion_lon": 0.0, "fusion_lat": 0.0, "type": "electric_scooter", "name": "529d3c0ef550ca596a721d627c8f4d19", "is_disabled": 0, "rental_uris": {"ios": "https://dc.lft.to/lastmile_qr_scan", "android": "https://dc.lft.to/lastmile_qr_scan"}, "is_reserved": 0}, {"lon": -77.02953033333333, "bike_id": "d99da2c9afc2c9b54dd37a0b8ba4680c", "lat": 38.91184366666667, "fusion_lon": 0.0, "fusion_lat": 0.0, "type": "electric_scooter", "name": "d99da2c9afc2c9b54dd37a0b8ba4680c", "is_disabled": 0, "rental_uris": {"ios": "https://dc.lft.to/lastmile_qr_scan", "android": "https://dc.lft.to/lastmile_qr_scan"}, "is_reserved": 0}, {"lon": -77.04188883333333, "bike_id": "12e1bd79e0e68ca4b6a294147aec87a4", "lat": 38.90663983333334, "fusion_lon": 0.0, "fusion_lat": 0.0, "type": "electric_scooter", "name": "12e1bd79e0e68ca4b6a294147aec87a4", "is_disabled": 0, "rental_uris": {"ios": "https://dc.lft.to/lastmile_qr_scan", "android": "https://dc.lft.to/lastmile_qr_scan"}, "is_reserved": 0}, {"lon": -77.01106233333333, "bike_id": "f552b0b4a37dde4e2a639a1e175c913f", "lat": 38.90788116666667, "fusion_lon": 0.0, "fusion_lat": 0.0, "type": "electric_scooter", "name": "f552b0b4a37dde4e2a639a1e175c913f", "is_disabled": 0, "rental_uris": {"ios": "https://dc.lft.to/lastmile_qr_scan", "android": "https://dc.lft.to/lastmile_qr_scan"}, "is_reserved": 0}, {"lon": -76.990194, "bike_id": "50edff08927c8ae658382b023695f5b7", "lat": 38.866436, "fusion_lon": 0.0, "fusion_lat": 0.0, "type": "electric_scooter", "name": "50edff08927c8ae658382b023695f5b7", "is_disabled": 0, "rental_uris": {"ios": "https://dc.lft.to/lastmile_qr_scan", "android": "https://dc.lft.to/lastmile_qr_scan"}, "is_reserved": 0}, {"lon": -77.02854816666667, "bike_id": "fd81e685d70a1becc15135ad0f2e07f2", "lat": 38.95630966666667, "fusion_lon": 0.0, "fusion_lat": 0.0, "type": "electric_scooter", "name": "fd81e685d70a1becc15135ad0f2e07f2", "is_disabled": 0, "rental_uris": {"ios": "https://dc.lft.to/lastmile_qr_scan", "android": "https://dc.lft.to/lastmile_qr_scan"}, "is_reserved": 0}, {"lon": -77.03651016666667, "bike_id": "2fab96c79c8badd306d1efe554b45f39", "lat": 38.93627633333333, "fusion_lon": 0.0, "fusion_lat": 0.0, "type": "electric_scooter", "name": "2fab96c79c8badd306d1efe554b45f39", "is_disabled": 0, "rental_uris": {"ios": "https://dc.lft.to/lastmile_qr_scan", "android": "https://dc.lft.to/lastmile_qr_scan"}, "is_reserved": 0}, {"lon": -77.0637625, "bike_id": "0bc1fb9560313de66461912a277d6e3f", "lat": 38.90292616666667, "fusion_lon": 0.0, "fusion_lat": 0.0, "type": "electric_scooter", "name": "0bc1fb9560313de66461912a277d6e3f", "is_disabled": 0, "rental_uris": {"ios": "https://dc.lft.to/lastmile_qr_scan", "android": "https://dc.lft.to/lastmile_qr_scan"}, "is_reserved": 0}, {"lon": -77.00686433333334, "bike_id": "dcf78c4320ca64427582d1a8de7d44e5", "lat": 38.900281666666665, "fusion_lon": 0.0, "fusion_lat": 0.0, "type": "electric_scooter", "name": "dcf78c4320ca64427582d1a8de7d44e5", "is_disabled": 0, "rental_uris": {"ios": "https://dc.lft.to/lastmile_qr_scan", "android": "https://dc.lft.to/lastmile_qr_scan"}, "is_reserved": 0}, {"lon": -77.0366185, "bike_id": "2a7b6331419602d87e61af326c1a793d", "lat": 38.904323, "fusion_lon": 0.0, "fusion_lat": 0.0, "type": "electric_scooter", "name": "2a7b6331419602d87e61af326c1a793d", "is_disabled": 0, "rental_uris": {"ios": "https://dc.lft.to/lastmile_qr_scan", "android": "https://dc.lft.to/lastmile_qr_scan"}, "is_reserved": 0}, {"lon": -77.02802983333333, "bike_id": "7e3776118dd83d7bb1f05473c9f6de51", "lat": 38.93144933333333, "fusion_lon": 0.0, "fusion_lat": 0.0, "type": "electric_scooter", "name": "7e3776118dd83d7bb1f05473c9f6de51", "is_disabled": 0, "rental_uris": {"ios": "https://dc.lft.to/lastmile_qr_scan", "android": "https://dc.lft.to/lastmile_qr_scan"}, "is_reserved": 0}, {"lon": -77.03791066666666, "bike_id": "a78df00eb17b6c74958b62dc8f8ba827", "lat": 38.9125595, "fusion_lon": 0.0, "fusion_lat": 0.0, "type": "electric_scooter", "name": "a78df00eb17b6c74958b62dc8f8ba827", "is_disabled": 0, "rental_uris": {"ios": "https://dc.lft.to/lastmile_qr_scan", "android": "https://dc.lft.to/lastmile_qr_scan"}, "is_reserved": 0}, {"lon": -77.02214766666667, "bike_id": "5bbc9d8b4b229bc2bfe21cc21f32322e", "lat": 38.887237999999996, "fusion_lon": 0.0, "fusion_lat": 0.0, "type": "electric_scooter", "name": "5bbc9d8b4b229bc2bfe21cc21f32322e", "is_disabled": 0, "rental_uris": {"ios": "https://dc.lft.to/lastmile_qr_scan", "android": "https://dc.lft.to/lastmile_qr_scan"}, "is_reserved": 0}, {"lon": -77.0227935, "bike_id": "4f6f12b86e6605a39fb4df3231610bb4", "lat": 38.898527666666666, "fusion_lon": 0.0, "fusion_lat": 0.0, "type": "electric_scooter", "name": "4f6f12b86e6605a39fb4df3231610bb4", "is_disabled": 0, "rental_uris": {"ios": "https://dc.lft.to/lastmile_qr_scan", "android": "https://dc.lft.to/lastmile_qr_scan"}, "is_reserved": 0}, {"lon": -77.02094366666667, "bike_id": "8db2635bcfe80c8996d6bae2b66ec2c1", "lat": 38.95754733333333, "fusion_lon": 0.0, "fusion_lat": 0.0, "type": "electric_scooter", "name": "8db2635bcfe80c8996d6bae2b66ec2c1", "is_disabled": 0, "rental_uris": {"ios": "https://dc.lft.to/lastmile_qr_scan", "android": "https://dc.lft.to/lastmile_qr_scan"}, "is_reserved": 0}, {"lon": -76.96052216666666, "bike_id": "edb1bbb50b82f7a45bad8c6576d8389d", "lat": 38.8840095, "fusion_lon": 0.0, "fusion_lat": 0.0, "type": "electric_bike", "name": "edb1bbb50b82f7a45bad8c6576d8389d", "is_disabled": 0, "rental_uris": {"ios": "https://dc.lft.to/lastmile_qr_scan", "android": "https://dc.lft.to/lastmile_qr_scan"}, "is_reserved": 0}, {"lon": -76.99332616666666, "bike_id": "14794924506db6e6bffaf0a1aa4b19bb", "lat": 38.87143783333333, "fusion_lon": 0.0, "fusion_lat": 0.0, "type": "electric_scooter", "name": "14794924506db6e6bffaf0a1aa4b19bb", "is_disabled": 0, "rental_uris": {"ios": "https://dc.lft.to/lastmile_qr_scan", "android": "https://dc.lft.to/lastmile_qr_scan"}, "is_reserved": 0}, {"lon": -76.98724833333333, "bike_id": "a2837afb0fb0493a34be6e05adb988f7", "lat": 38.86716883333333, "fusion_lon": 0.0, "fusion_lat": 0.0, "type": "electric_scooter", "name": "a2837afb0fb0493a34be6e05adb988f7", "is_disabled": 0, "rental_uris": {"ios": "https://dc.lft.to/lastmile_qr_scan", "android": "https://dc.lft.to/lastmile_qr_scan"}, "is_reserved": 0}, {"lon": -77.033355, "bike_id": "4a2d76b94ed488e7a7ed118e66949cbd", "lat": 38.9365, "fusion_lon": 0.0, "fusion_lat": 0.0, "type": "electric_scooter", "name": "4a2d76b94ed488e7a7ed118e66949cbd", "is_disabled": 0, "rental_uris": {"ios": "https://dc.lft.to/lastmile_qr_scan", "android": "https://dc.lft.to/lastmile_qr_scan"}, "is_reserved": 0}, {"lon": -77.02397333333333, "bike_id": "4996faddd4567027969e2504d185cff6", "lat": 38.899780166666666, "fusion_lon": 0.0, "fusion_lat": 0.0, "type": "electric_scooter", "name": "4996faddd4567027969e2504d185cff6", "is_disabled": 0, "rental_uris": {"ios": "https://dc.lft.to/lastmile_qr_scan", "android": "https://dc.lft.to/lastmile_qr_scan"}, "is_reserved": 0}, {"lon": -77.026572, "bike_id": "a2bc0543a87a0dcb54b8954e2c2ec56a", "lat": 38.897362, "fusion_lon": 0.0, "fusion_lat": 0.0, "type": "electric_scooter", "name": "a2bc0543a87a0dcb54b8954e2c2ec56a", "is_disabled": 0, "rental_uris": {"ios": "https://dc.lft.to/lastmile_qr_scan", "android": "https://dc.lft.to/lastmile_qr_scan"}, "is_reserved": 0}, {"lon": -77.00854016666666, "bike_id": "9a07bcf1cbf8329dbcd3122b2c654d35", "lat": 38.950958, "fusion_lon": 0.0, "fusion_lat": 0.0, "type": "electric_bike", "name": "9a07bcf1cbf8329dbcd3122b2c654d35", "is_disabled": 0, "rental_uris": {"ios": "https://dc.lft.to/lastmile_qr_scan", "android": "https://dc.lft.to/lastmile_qr_scan"}, "is_reserved": 0}, {"lon": -77.02203216666666, "bike_id": "6901fb53cfa3080cb4ae9868a22733cd", "lat": 38.90281433333333, "fusion_lon": 0.0, "fusion_lat": 0.0, "type": "electric_scooter", "name": "6901fb53cfa3080cb4ae9868a22733cd", "is_disabled": 0, "rental_uris": {"ios": "https://dc.lft.to/lastmile_qr_scan", "android": "https://dc.lft.to/lastmile_qr_scan"}, "is_reserved": 0}, {"lon": -76.98708616666667, "bike_id": "ee5f8d3aa6cc07cf4679c901a0852bf1", "lat": 38.86540983333333, "fusion_lon": 0.0, "fusion_lat": 0.0, "type": "electric_scooter", "name": "ee5f8d3aa6cc07cf4679c901a0852bf1", "is_disabled": 0, "rental_uris": {"ios": "https://dc.lft.to/lastmile_qr_scan", "android": "https://dc.lft.to/lastmile_qr_scan"}, "is_reserved": 0}, {"lon": -77.04434466666666, "bike_id": "b097e172fad95e64725847b830f4babc", "lat": 38.909139333333336, "fusion_lon": 0.0, "fusion_lat": 0.0, "type": "electric_scooter", "name": "b097e172fad95e64725847b830f4babc", "is_disabled": 0, "rental_uris": {"ios": "https://dc.lft.to/lastmile_qr_scan", "android": "https://dc.lft.to/lastmile_qr_scan"}, "is_reserved": 0}, {"lon": -76.94888483333334, "bike_id": "2fcce46e98ed16283600876384adcd29", "lat": 38.895107, "fusion_lon": 0.0, "fusion_lat": 0.0, "type": "electric_scooter", "name": "2fcce46e98ed16283600876384adcd29", "is_disabled": 0, "rental_uris": {"ios": "https://dc.lft.to/lastmile_qr_scan", "android": "https://dc.lft.to/lastmile_qr_scan"}, "is_reserved": 0}, {"lon": -77.03336033333333, "bike_id": "142be795ebcc73aa6a02ce2b70eafdf6", "lat": 38.90971616666667, "fusion_lon": 0.0, "fusion_lat": 0.0, "type": "electric_scooter", "name": "142be795ebcc73aa6a02ce2b70eafdf6", "is_disabled": 0, "rental_uris": {"ios": "https://dc.lft.to/lastmile_qr_scan", "android": "https://dc.lft.to/lastmile_qr_scan"}, "is_reserved": 0}, {"lon": -77.02949083333333, "bike_id": "956964715c976962586591ac9aea395c", "lat": 38.905081833333334, "fusion_lon": 0.0, "fusion_lat": 0.0, "type": "electric_scooter", "name": "956964715c976962586591ac9aea395c", "is_disabled": 0, "rental_uris": {"ios": "https://dc.lft.to/lastmile_qr_scan", "android": "https://dc.lft.to/lastmile_qr_scan"}, "is_reserved": 0}, {"lon": -77.02136516666667, "bike_id": "b2c6e0c5419fdd5c059e475ef0d61297", "lat": 38.9111935, "fusion_lon": 0.0, "fusion_lat": 0.0, "type": "electric_scooter", "name": "b2c6e0c5419fdd5c059e475ef0d61297", "is_disabled": 0, "rental_uris": {"ios": "https://dc.lft.to/lastmile_qr_scan", "android": "https://dc.lft.to/lastmile_qr_scan"}, "is_reserved": 0}, {"lon": -77.038398, "bike_id": "b26188f0f81afe8c9ab7f77a13a52d2b", "lat": 38.91046716666666, "fusion_lon": 0.0, "fusion_lat": 0.0, "type": "electric_scooter", "name": "b26188f0f81afe8c9ab7f77a13a52d2b", "is_disabled": 0, "rental_uris": {"ios": "https://dc.lft.to/lastmile_qr_scan", "android": "https://dc.lft.to/lastmile_qr_scan"}, "is_reserved": 0}, {"lon": -77.023675, "bike_id": "54c7ea19460c41415553d47d5b5cedd6", "lat": 38.892228, "fusion_lon": 0.0, "fusion_lat": 0.0, "type": "electric_scooter", "name": "54c7ea19460c41415553d47d5b5cedd6", "is_disabled": 0, "rental_uris": {"ios": "https://dc.lft.to/lastmile_qr_scan", "android": "https://dc.lft.to/lastmile_qr_scan"}, "is_reserved": 0}, {"lon": -77.03405383333333, "bike_id": "b38a4448fc5044ebb1cc9e9adab898cd", "lat": 38.9342355, "fusion_lon": 0.0, "fusion_lat": 0.0, "type": "electric_scooter", "name": "b38a4448fc5044ebb1cc9e9adab898cd", "is_disabled": 0, "rental_uris": {"ios": "https://dc.lft.to/lastmile_qr_scan", "android": "https://dc.lft.to/lastmile_qr_scan"}, "is_reserved": 0}, {"lon": -77.0252555, "bike_id": "096ae213cc85a8c6c821b9bb6c8eb912", "lat": 38.92489966666667, "fusion_lon": 0.0, "fusion_lat": 0.0, "type": "electric_scooter", "name": "096ae213cc85a8c6c821b9bb6c8eb912", "is_disabled": 0, "rental_uris": {"ios": "https://dc.lft.to/lastmile_qr_scan", "android": "https://dc.lft.to/lastmile_qr_scan"}, "is_reserved": 0}, {"lon": -76.987258, "bike_id": "06dd3b5cca31b719c00da4c35ae740a3", "lat": 38.86712633333333, "fusion_lon": 0.0, "fusion_lat": 0.0, "type": "electric_scooter", "name": "06dd3b5cca31b719c00da4c35ae740a3", "is_disabled": 0, "rental_uris": {"ios": "https://dc.lft.to/lastmile_qr_scan", "android": "https://dc.lft.to/lastmile_qr_scan"}, "is_reserved": 0}, {"lon": -77.031516, "bike_id": "f590bb3622bce5d198664309bf523c07", "lat": 38.917064, "fusion_lon": 0.0, "fusion_lat": 0.0, "type": "electric_scooter", "name": "f590bb3622bce5d198664309bf523c07", "is_disabled": 0, "rental_uris": {"ios": "https://dc.lft.to/lastmile_qr_scan", "android": "https://dc.lft.to/lastmile_qr_scan"}, "is_reserved": 0}, {"lon": -77.02976166666667, "bike_id": "59c9be53c58884f8756c6e9ea1585984", "lat": 38.94740316666667, "fusion_lon": 0.0, "fusion_lat": 0.0, "type": "electric_scooter", "name": "59c9be53c58884f8756c6e9ea1585984", "is_disabled": 0, "rental_uris": {"ios": "https://dc.lft.to/lastmile_qr_scan", "android": "https://dc.lft.to/lastmile_qr_scan"}, "is_reserved": 0}, {"lon": -77.0006745, "bike_id": "76052519688281144ec64f3d181c2942", "lat": 38.901408333333336, "fusion_lon": 0.0, "fusion_lat": 0.0, "type": "electric_scooter", "name": "76052519688281144ec64f3d181c2942", "is_disabled": 0, "rental_uris": {"ios": "https://dc.lft.to/lastmile_qr_scan", "android": "https://dc.lft.to/lastmile_qr_scan"}, "is_reserved": 0}, {"lon": -77.04642083333333, "bike_id": "9411b2bea9dfbf74974e1b9ab4e5ac87", "lat": 38.92118083333333, "fusion_lon": 0.0, "fusion_lat": 0.0, "type": "electric_scooter", "name": "9411b2bea9dfbf74974e1b9ab4e5ac87", "is_disabled": 0, "rental_uris": {"ios": "https://dc.lft.to/lastmile_qr_scan", "android": "https://dc.lft.to/lastmile_qr_scan"}, "is_reserved": 0}, {"lon": -76.98534433333333, "bike_id": "8df77bb32701c6b422629e8878e0beba", "lat": 38.910248833333334, "fusion_lon": 0.0, "fusion_lat": 0.0, "type": "electric_scooter", "name": "8df77bb32701c6b422629e8878e0beba", "is_disabled": 0, "rental_uris": {"ios": "https://dc.lft.to/lastmile_qr_scan", "android": "https://dc.lft.to/lastmile_qr_scan"}, "is_reserved": 0}, {"lon": -76.9858615, "bike_id": "bac5a14f5d85dab9e98d60c0e9c371a9", "lat": 38.8624345, "fusion_lon": 0.0, "fusion_lat": 0.0, "type": "electric_scooter", "name": "bac5a14f5d85dab9e98d60c0e9c371a9", "is_disabled": 0, "rental_uris": {"ios": "https://dc.lft.to/lastmile_qr_scan", "android": "https://dc.lft.to/lastmile_qr_scan"}, "is_reserved": 0}, {"lon": -77.06244433333333, "bike_id": "8fb8a2418ba1966ea82edec5b831c6d6", "lat": 38.9052725, "fusion_lon": 0.0, "fusion_lat": 0.0, "type": "electric_scooter", "name": "8fb8a2418ba1966ea82edec5b831c6d6", "is_disabled": 0, "rental_uris": {"ios": "https://dc.lft.to/lastmile_qr_scan", "android": "https://dc.lft.to/lastmile_qr_scan"}, "is_reserved": 0}, {"lon": -77.01980833333333, "bike_id": "d90a62bb185541f0687c981afa440db4", "lat": 38.91531116666667, "fusion_lon": 0.0, "fusion_lat": 0.0, "type": "electric_scooter", "name": "d90a62bb185541f0687c981afa440db4", "is_disabled": 0, "rental_uris": {"ios": "https://dc.lft.to/lastmile_qr_scan", "android": "https://dc.lft.to/lastmile_qr_scan"}, "is_reserved": 0}, {"lon": -77.03196083333333, "bike_id": "931967700fa301f932a035f0d40f4ec4", "lat": 38.916858166666664, "fusion_lon": 0.0, "fusion_lat": 0.0, "type": "electric_scooter", "name": "931967700fa301f932a035f0d40f4ec4", "is_disabled": 0, "rental_uris": {"ios": "https://dc.lft.to/lastmile_qr_scan", "android": "https://dc.lft.to/lastmile_qr_scan"}, "is_reserved": 0}, {"lon": -77.0463585, "bike_id": "7924d35615f76c05606bfef2232d62fe", "lat": 38.91577816666667, "fusion_lon": 0.0, "fusion_lat": 0.0, "type": "electric_scooter", "name": "7924d35615f76c05606bfef2232d62fe", "is_disabled": 0, "rental_uris": {"ios": "https://dc.lft.to/lastmile_qr_scan", "android": "https://dc.lft.to/lastmile_qr_scan"}, "is_reserved": 0}, {"lon": -77.03181883333333, "bike_id": "00c142a9a130e98e127e41cf658b20c6", "lat": 38.911310666666665, "fusion_lon": 0.0, "fusion_lat": 0.0, "type": "electric_scooter", "name": "00c142a9a130e98e127e41cf658b20c6", "is_disabled": 0, "rental_uris": {"ios": "https://dc.lft.to/lastmile_qr_scan", "android": "https://dc.lft.to/lastmile_qr_scan"}, "is_reserved": 0}, {"lon": -77.03585883333334, "bike_id": "0a6d1a20368b5a2f3861209495debf26", "lat": 38.90762333333333, "fusion_lon": 0.0, "fusion_lat": 0.0, "type": "electric_scooter", "name": "0a6d1a20368b5a2f3861209495debf26", "is_disabled": 0, "rental_uris": {"ios": "https://dc.lft.to/lastmile_qr_scan", "android": "https://dc.lft.to/lastmile_qr_scan"}, "is_reserved": 0}, {"lon": -77.02194066666667, "bike_id": "86ed75fe349984281a8f37afdf9997db", "lat": 38.89986183333333, "fusion_lon": 0.0, "fusion_lat": 0.0, "type": "electric_scooter", "name": "86ed75fe349984281a8f37afdf9997db", "is_disabled": 0, "rental_uris": {"ios": "https://dc.lft.to/lastmile_qr_scan", "android": "https://dc.lft.to/lastmile_qr_scan"}, "is_reserved": 0}, {"lon": -77.02104466666667, "bike_id": "f6587b7f75d2c4805e41fd98f0fc9a2f", "lat": 38.897497333333334, "fusion_lon": 0.0, "fusion_lat": 0.0, "type": "electric_scooter", "name": "f6587b7f75d2c4805e41fd98f0fc9a2f", "is_disabled": 0, "rental_uris": {"ios": "https://dc.lft.to/lastmile_qr_scan", "android": "https://dc.lft.to/lastmile_qr_scan"}, "is_reserved": 0}, {"lon": -76.982284, "bike_id": "8e4877b4546b8edcdb65266edbfc432a", "lat": 38.91649, "fusion_lon": 0.0, "fusion_lat": 0.0, "type": "electric_scooter", "name": "8e4877b4546b8edcdb65266edbfc432a", "is_disabled": 0, "rental_uris": {"ios": "https://dc.lft.to/lastmile_qr_scan", "android": "https://dc.lft.to/lastmile_qr_scan"}, "is_reserved": 0}, {"lon": -77.06381283333333, "bike_id": "235d10c8c5d9a061b0d0dace04577dc2", "lat": 38.9092835, "fusion_lon": 0.0, "fusion_lat": 0.0, "type": "electric_scooter", "name": "235d10c8c5d9a061b0d0dace04577dc2", "is_disabled": 0, "rental_uris": {"ios": "https://dc.lft.to/lastmile_qr_scan", "android": "https://dc.lft.to/lastmile_qr_scan"}, "is_reserved": 0}, {"lon": -77.02496, "bike_id": "74e9a0fe9a9491f62b60f7c57f587599", "lat": 38.91982733333333, "fusion_lon": 0.0, "fusion_lat": 0.0, "type": "electric_scooter", "name": "74e9a0fe9a9491f62b60f7c57f587599", "is_disabled": 0, "rental_uris": {"ios": "https://dc.lft.to/lastmile_qr_scan", "android": "https://dc.lft.to/lastmile_qr_scan"}, "is_reserved": 0}, {"lon": -77.00774516666667, "bike_id": "93642d90d7240d6e7208c3de6493c9e1", "lat": 38.897365, "fusion_lon": 0.0, "fusion_lat": 0.0, "type": "electric_scooter", "name": "93642d90d7240d6e7208c3de6493c9e1", "is_disabled": 0, "rental_uris": {"ios": "https://dc.lft.to/lastmile_qr_scan", "android": "https://dc.lft.to/lastmile_qr_scan"}, "is_reserved": 0}, {"lon": -77.055079, "bike_id": "5c66ee8ef84ebe4d6e8b391f44eff9ea", "lat": 38.929764166666665, "fusion_lon": 0.0, "fusion_lat": 0.0, "type": "electric_scooter", "name": "5c66ee8ef84ebe4d6e8b391f44eff9ea", "is_disabled": 0, "rental_uris": {"ios": "https://dc.lft.to/lastmile_qr_scan", "android": "https://dc.lft.to/lastmile_qr_scan"}, "is_reserved": 0}, {"lon": -77.03227916666667, "bike_id": "2981459fae5e58a0f29d7243abdeeec6", "lat": 38.8989065, "fusion_lon": 0.0, "fusion_lat": 0.0, "type": "electric_scooter", "name": "2981459fae5e58a0f29d7243abdeeec6", "is_disabled": 0, "rental_uris": {"ios": "https://dc.lft.to/lastmile_qr_scan", "android": "https://dc.lft.to/lastmile_qr_scan"}, "is_reserved": 0}, {"lon": -77.036744, "bike_id": "503ed7e7632647584feddf6895f5a062", "lat": 38.909654, "fusion_lon": 0.0, "fusion_lat": 0.0, "type": "electric_scooter", "name": "503ed7e7632647584feddf6895f5a062", "is_disabled": 0, "rental_uris": {"ios": "https://dc.lft.to/lastmile_qr_scan", "android": "https://dc.lft.to/lastmile_qr_scan"}, "is_reserved": 0}, {"lon": -77.06520616666667, "bike_id": "d16032228522868808fc9e4342f1c0d8", "lat": 38.90561666666667, "fusion_lon": 0.0, "fusion_lat": 0.0, "type": "electric_bike", "name": "d16032228522868808fc9e4342f1c0d8", "is_disabled": 0, "rental_uris": {"ios": "https://dc.lft.to/lastmile_qr_scan", "android": "https://dc.lft.to/lastmile_qr_scan"}, "is_reserved": 0}, {"lon": -77.02906183333333, "bike_id": "2a0b903fc6d409596772c463ec4cc7e6", "lat": 38.928191, "fusion_lon": 0.0, "fusion_lat": 0.0, "type": "electric_scooter", "name": "2a0b903fc6d409596772c463ec4cc7e6", "is_disabled": 0, "rental_uris": {"ios": "https://dc.lft.to/lastmile_qr_scan", "android": "https://dc.lft.to/lastmile_qr_scan"}, "is_reserved": 0}, {"lon": -77.03852433333333, "bike_id": "43b9f4a4f604b02f77c1caa49cbf1bd6", "lat": 38.932461333333336, "fusion_lon": 0.0, "fusion_lat": 0.0, "type": "electric_scooter", "name": "43b9f4a4f604b02f77c1caa49cbf1bd6", "is_disabled": 0, "rental_uris": {"ios": "https://dc.lft.to/lastmile_qr_scan", "android": "https://dc.lft.to/lastmile_qr_scan"}, "is_reserved": 0}, {"lon": -77.021859, "bike_id": "46cce1380717bbe3b5b13daff97ea62d", "lat": 38.92045733333333, "fusion_lon": 0.0, "fusion_lat": 0.0, "type": "electric_scooter", "name": "46cce1380717bbe3b5b13daff97ea62d", "is_disabled": 0, "rental_uris": {"ios": "https://dc.lft.to/lastmile_qr_scan", "android": "https://dc.lft.to/lastmile_qr_scan"}, "is_reserved": 0}, {"lon": -76.99880816666666, "bike_id": "c308f3164870bc608f65854f2d91e8ff", "lat": 38.90137383333333, "fusion_lon": 0.0, "fusion_lat": 0.0, "type": "electric_scooter", "name": "c308f3164870bc608f65854f2d91e8ff", "is_disabled": 0, "rental_uris": {"ios": "https://dc.lft.to/lastmile_qr_scan", "android": "https://dc.lft.to/lastmile_qr_scan"}, "is_reserved": 0}, {"lon": -77.0316115, "bike_id": "a11245aa75d6874fcc955bdc644e396b", "lat": 38.91572133333333, "fusion_lon": 0.0, "fusion_lat": 0.0, "type": "electric_scooter", "name": "a11245aa75d6874fcc955bdc644e396b", "is_disabled": 0, "rental_uris": {"ios": "https://dc.lft.to/lastmile_qr_scan", "android": "https://dc.lft.to/lastmile_qr_scan"}, "is_reserved": 0}, {"lon": -77.04991183333334, "bike_id": "cec41f4db60b2ce7295b7e2ccd99c4e2", "lat": 38.9010595, "fusion_lon": 0.0, "fusion_lat": 0.0, "type": "electric_scooter", "name": "cec41f4db60b2ce7295b7e2ccd99c4e2", "is_disabled": 0, "rental_uris": {"ios": "https://dc.lft.to/lastmile_qr_scan", "android": "https://dc.lft.to/lastmile_qr_scan"}, "is_reserved": 0}, {"lon": -77.01477933333334, "bike_id": "6d0e07bfeb5f2f863384d22e4cb98d4e", "lat": 38.958695166666665, "fusion_lon": 0.0, "fusion_lat": 0.0, "type": "electric_scooter", "name": "6d0e07bfeb5f2f863384d22e4cb98d4e", "is_disabled": 0, "rental_uris": {"ios": "https://dc.lft.to/lastmile_qr_scan", "android": "https://dc.lft.to/lastmile_qr_scan"}, "is_reserved": 0}, {"lon": -77.11573666666666, "bike_id": "1e4fc269d5ab0de80c39cb0f7d6814b0", "lat": 38.993448, "fusion_lon": 0.0, "fusion_lat": 0.0, "type": "electric_bike", "name": "1e4fc269d5ab0de80c39cb0f7d6814b0", "is_disabled": 0, "rental_uris": {"ios": "https://dc.lft.to/lastmile_qr_scan", "android": "https://dc.lft.to/lastmile_qr_scan"}, "is_reserved": 0}, {"lon": -77.138955, "bike_id": "cb376b18475a4b33d44e1031f5680471", "lat": 38.89670733333333, "fusion_lon": 0.0, "fusion_lat": 0.0, "type": "electric_bike", "name": "cb376b18475a4b33d44e1031f5680471", "is_disabled": 0, "rental_uris": {"ios": "https://dc.lft.to/lastmile_qr_scan", "android": "https://dc.lft.to/lastmile_qr_scan"}, "is_reserved": 0}, {"lon": -77.0309405, "bike_id": "d61b50531d056f3f56eeff8e60f84757", "lat": 38.904595, "fusion_lon": 0.0, "fusion_lat": 0.0, "type": "electric_scooter", "name": "d61b50531d056f3f56eeff8e60f84757", "is_disabled": 0, "rental_uris": {"ios": "https://dc.lft.to/lastmile_qr_scan", "android": "https://dc.lft.to/lastmile_qr_scan"}, "is_reserved": 0}, {"lon": -77.03218116666666, "bike_id": "fdc4857e0387d6644f1f3fd8c2bce8d4", "lat": 38.916343833333336, "fusion_lon": 0.0, "fusion_lat": 0.0, "type": "electric_scooter", "name": "fdc4857e0387d6644f1f3fd8c2bce8d4", "is_disabled": 0, "rental_uris": {"ios": "https://dc.lft.to/lastmile_qr_scan", "android": "https://dc.lft.to/lastmile_qr_scan"}, "is_reserved": 0}, {"lon": -77.02292283333334, "bike_id": "103a3bacede3666d570178892ab2fa60", "lat": 38.897132666666664, "fusion_lon": 0.0, "fusion_lat": 0.0, "type": "electric_scooter", "name": "103a3bacede3666d570178892ab2fa60", "is_disabled": 0, "rental_uris": {"ios": "https://dc.lft.to/lastmile_qr_scan", "android": "https://dc.lft.to/lastmile_qr_scan"}, "is_reserved": 0}, {"lon": -77.02548433333334, "bike_id": "89dac660fd9e93e7b6b9decf8f9383a3", "lat": 38.922567, "fusion_lon": 0.0, "fusion_lat": 0.0, "type": "electric_scooter", "name": "89dac660fd9e93e7b6b9decf8f9383a3", "is_disabled": 0, "rental_uris": {"ios": "https://dc.lft.to/lastmile_qr_scan", "android": "https://dc.lft.to/lastmile_qr_scan"}, "is_reserved": 0}, {"lon": -76.99714316666666, "bike_id": "034b0791ab2a01db93e50454f61a7141", "lat": 38.911162, "fusion_lon": 0.0, "fusion_lat": 0.0, "type": "electric_scooter", "name": "034b0791ab2a01db93e50454f61a7141", "is_disabled": 0, "rental_uris": {"ios": "https://dc.lft.to/lastmile_qr_scan", "android": "https://dc.lft.to/lastmile_qr_scan"}, "is_reserved": 0}, {"lon": -77.04204466666667, "bike_id": "42b1bff5198176ab3740c1e219b54d1f", "lat": 38.9127375, "fusion_lon": 0.0, "fusion_lat": 0.0, "type": "electric_scooter", "name": "42b1bff5198176ab3740c1e219b54d1f", "is_disabled": 0, "rental_uris": {"ios": "https://dc.lft.to/lastmile_qr_scan", "android": "https://dc.lft.to/lastmile_qr_scan"}, "is_reserved": 0}, {"lon": -77.01415866666666, "bike_id": "cba49bc8ad2d5d218cc4cb88167ad967", "lat": 38.928410666666664, "fusion_lon": 0.0, "fusion_lat": 0.0, "type": "electric_scooter", "name": "cba49bc8ad2d5d218cc4cb88167ad967", "is_disabled": 0, "rental_uris": {"ios": "https://dc.lft.to/lastmile_qr_scan", "android": "https://dc.lft.to/lastmile_qr_scan"}, "is_reserved": 0}, {"lon": -77.10906833333334, "bike_id": "236dcdad2aca1548c2b05b5fd4a3e1fd", "lat": 39.052092, "fusion_lon": 0.0, "fusion_lat": 0.0, "type": "electric_bike", "name": "236dcdad2aca1548c2b05b5fd4a3e1fd", "is_disabled": 0, "rental_uris": {"ios": "https://dc.lft.to/lastmile_qr_scan", "android": "https://dc.lft.to/lastmile_qr_scan"}, "is_reserved": 0}, {"lon": -77.03663583333334, "bike_id": "ed45eaddbba5289c7870478cf6195525", "lat": 38.9027835, "fusion_lon": 0.0, "fusion_lat": 0.0, "type": "electric_scooter", "name": "ed45eaddbba5289c7870478cf6195525", "is_disabled": 0, "rental_uris": {"ios": "https://dc.lft.to/lastmile_qr_scan", "android": "https://dc.lft.to/lastmile_qr_scan"}, "is_reserved": 0}, {"lon": -77.085696, "bike_id": "c9fcba2633f1ab164a0ebe6640fa49b9", "lat": 38.933572833333336, "fusion_lon": 0.0, "fusion_lat": 0.0, "type": "electric_scooter", "name": "c9fcba2633f1ab164a0ebe6640fa49b9", "is_disabled": 0, "rental_uris": {"ios": "https://dc.lft.to/lastmile_qr_scan", "android": "https://dc.lft.to/lastmile_qr_scan"}, "is_reserved": 0}, {"lon": -77.05937533333334, "bike_id": "54f96a1f14dd89bf96406d3e8348e248", "lat": 38.91237016666667, "fusion_lon": 0.0, "fusion_lat": 0.0, "type": "electric_scooter", "name": "54f96a1f14dd89bf96406d3e8348e248", "is_disabled": 0, "rental_uris": {"ios": "https://dc.lft.to/lastmile_qr_scan", "android": "https://dc.lft.to/lastmile_qr_scan"}, "is_reserved": 0}, {"lon": -76.92995233333333, "bike_id": "ee8e10aff17dd947afe05a58931caa27", "lat": 38.90192433333333, "fusion_lon": 0.0, "fusion_lat": 0.0, "type": "electric_scooter", "name": "ee8e10aff17dd947afe05a58931caa27", "is_disabled": 0, "rental_uris": {"ios": "https://dc.lft.to/lastmile_qr_scan", "android": "https://dc.lft.to/lastmile_qr_scan"}, "is_reserved": 0}, {"lon": -77.02113566666667, "bike_id": "f846fd608bafee918271ec57d11ebd93", "lat": 38.917411, "fusion_lon": 0.0, "fusion_lat": 0.0, "type": "electric_scooter", "name": "f846fd608bafee918271ec57d11ebd93", "is_disabled": 0, "rental_uris": {"ios": "https://dc.lft.to/lastmile_qr_scan", "android": "https://dc.lft.to/lastmile_qr_scan"}, "is_reserved": 0}, {"lon": -77.03301566666667, "bike_id": "5322ff3e3bcad6b0acb507877b985dd1", "lat": 38.89226033333333, "fusion_lon": 0.0, "fusion_lat": 0.0, "type": "electric_scooter", "name": "5322ff3e3bcad6b0acb507877b985dd1", "is_disabled": 0, "rental_uris": {"ios": "https://dc.lft.to/lastmile_qr_scan", "android": "https://dc.lft.to/lastmile_qr_scan"}, "is_reserved": 0}, {"lon": -77.0389335, "bike_id": "528a701bfbfc4b6a46ae60678a8b05a3", "lat": 38.920072833333336, "fusion_lon": 0.0, "fusion_lat": 0.0, "type": "electric_scooter", "name": "528a701bfbfc4b6a46ae60678a8b05a3", "is_disabled": 0, "rental_uris": {"ios": "https://dc.lft.to/lastmile_qr_scan", "android": "https://dc.lft.to/lastmile_qr_scan"}, "is_reserved": 0}, {"lon": -77.06723516666666, "bike_id": "2f1ecda1672ec5794bfc87546125ee56", "lat": 38.909723, "fusion_lon": 0.0, "fusion_lat": 0.0, "type": "electric_scooter", "name": "2f1ecda1672ec5794bfc87546125ee56", "is_disabled": 0, "rental_uris": {"ios": "https://dc.lft.to/lastmile_qr_scan", "android": "https://dc.lft.to/lastmile_qr_scan"}, "is_reserved": 0}, {"lon": -77.04992333333334, "bike_id": "f1c8a71c64383ab57b0dfca02785d2dd", "lat": 38.90091783333333, "fusion_lon": 0.0, "fusion_lat": 0.0, "type": "electric_scooter", "name": "f1c8a71c64383ab57b0dfca02785d2dd", "is_disabled": 0, "rental_uris": {"ios": "https://dc.lft.to/lastmile_qr_scan", "android": "https://dc.lft.to/lastmile_qr_scan"}, "is_reserved": 0}, {"lon": -77.025275, "bike_id": "b5734de8675236baec2f14a81ea2d2da", "lat": 38.916977333333335, "fusion_lon": 0.0, "fusion_lat": 0.0, "type": "electric_scooter", "name": "b5734de8675236baec2f14a81ea2d2da", "is_disabled": 0, "rental_uris": {"ios": "https://dc.lft.to/lastmile_qr_scan", "android": "https://dc.lft.to/lastmile_qr_scan"}, "is_reserved": 0}, {"lon": -77.042244, "bike_id": "23469314d0b1049aee8896e94de876c5", "lat": 38.92128566666667, "fusion_lon": 0.0, "fusion_lat": 0.0, "type": "electric_scooter", "name": "23469314d0b1049aee8896e94de876c5", "is_disabled": 0, "rental_uris": {"ios": "https://dc.lft.to/lastmile_qr_scan", "android": "https://dc.lft.to/lastmile_qr_scan"}, "is_reserved": 0}, {"lon": -77.043996, "bike_id": "98edf8d661630c0ca37bdacac2e9fe5b", "lat": 38.93324366666667, "fusion_lon": 0.0, "fusion_lat": 0.0, "type": "electric_scooter", "name": "98edf8d661630c0ca37bdacac2e9fe5b", "is_disabled": 0, "rental_uris": {"ios": "https://dc.lft.to/lastmile_qr_scan", "android": "https://dc.lft.to/lastmile_qr_scan"}, "is_reserved": 0}, {"lon": -76.92753883333333, "bike_id": "7ec77590bc1992ee9feedfc2193ff9a6", "lat": 38.880544666666665, "fusion_lon": 0.0, "fusion_lat": 0.0, "type": "electric_scooter", "name": "7ec77590bc1992ee9feedfc2193ff9a6", "is_disabled": 0, "rental_uris": {"ios": "https://dc.lft.to/lastmile_qr_scan", "android": "https://dc.lft.to/lastmile_qr_scan"}, "is_reserved": 0}, {"lon": -77.02403783333334, "bike_id": "cfc51ac0a1bd23f7b6a362ccaf9306c9", "lat": 38.934058, "fusion_lon": 0.0, "fusion_lat": 0.0, "type": "electric_scooter", "name": "cfc51ac0a1bd23f7b6a362ccaf9306c9", "is_disabled": 0, "rental_uris": {"ios": "https://dc.lft.to/lastmile_qr_scan", "android": "https://dc.lft.to/lastmile_qr_scan"}, "is_reserved": 0}, {"lon": -77.0230575, "bike_id": "5670f0abea2905ac8aa9fbf7e0b191c1", "lat": 38.909596, "fusion_lon": 0.0, "fusion_lat": 0.0, "type": "electric_scooter", "name": "5670f0abea2905ac8aa9fbf7e0b191c1", "is_disabled": 0, "rental_uris": {"ios": "https://dc.lft.to/lastmile_qr_scan", "android": "https://dc.lft.to/lastmile_qr_scan"}, "is_reserved": 0}, {"lon": -77.00782716666667, "bike_id": "fdd0b457c0f8f2d8ee42633a5cddb0d0", "lat": 38.906588166666666, "fusion_lon": 0.0, "fusion_lat": 0.0, "type": "electric_scooter", "name": "fdd0b457c0f8f2d8ee42633a5cddb0d0", "is_disabled": 0, "rental_uris": {"ios": "https://dc.lft.to/lastmile_qr_scan", "android": "https://dc.lft.to/lastmile_qr_scan"}, "is_reserved": 0}, {"lon": -77.03859533333333, "bike_id": "a964e43296bd8ec98a75cb62129c0ed8", "lat": 38.91587283333333, "fusion_lon": 0.0, "fusion_lat": 0.0, "type": "electric_scooter", "name": "a964e43296bd8ec98a75cb62129c0ed8", "is_disabled": 0, "rental_uris": {"ios": "https://dc.lft.to/lastmile_qr_scan", "android": "https://dc.lft.to/lastmile_qr_scan"}, "is_reserved": 0}, {"lon": -77.03687283333333, "bike_id": "afc1fc803ecf2deaab7154e34166c384", "lat": 38.906276, "fusion_lon": 0.0, "fusion_lat": 0.0, "type": "electric_scooter", "name": "afc1fc803ecf2deaab7154e34166c384", "is_disabled": 0, "rental_uris": {"ios": "https://dc.lft.to/lastmile_qr_scan", "android": "https://dc.lft.to/lastmile_qr_scan"}, "is_reserved": 0}, {"lon": -77.0446445, "bike_id": "b5a304163709640febd8597f6018a5dd", "lat": 38.915358499999996, "fusion_lon": 0.0, "fusion_lat": 0.0, "type": "electric_scooter", "name": "b5a304163709640febd8597f6018a5dd", "is_disabled": 0, "rental_uris": {"ios": "https://dc.lft.to/lastmile_qr_scan", "android": "https://dc.lft.to/lastmile_qr_scan"}, "is_reserved": 0}, {"lon": -77.053483, "bike_id": "bafd290d7dfe3adbfe63e3e120d29ac7", "lat": 38.92709333333333, "fusion_lon": 0.0, "fusion_lat": 0.0, "type": "electric_scooter", "name": "bafd290d7dfe3adbfe63e3e120d29ac7", "is_disabled": 0, "rental_uris": {"ios": "https://dc.lft.to/lastmile_qr_scan", "android": "https://dc.lft.to/lastmile_qr_scan"}, "is_reserved": 0}, {"lon": -77.0560255, "bike_id": "e10a2aa49e3ed1deb0c3773d0020337f", "lat": 38.92337083333334, "fusion_lon": 0.0, "fusion_lat": 0.0, "type": "electric_scooter", "name": "e10a2aa49e3ed1deb0c3773d0020337f", "is_disabled": 0, "rental_uris": {"ios": "https://dc.lft.to/lastmile_qr_scan", "android": "https://dc.lft.to/lastmile_qr_scan"}, "is_reserved": 0}, {"lon": -77.05131283333333, "bike_id": "6dcf2fd7e10b2a1bd46a8cc69ae92284", "lat": 38.923663833333336, "fusion_lon": 0.0, "fusion_lat": 0.0, "type": "electric_scooter", "name": "6dcf2fd7e10b2a1bd46a8cc69ae92284", "is_disabled": 0, "rental_uris": {"ios": "https://dc.lft.to/lastmile_qr_scan", "android": "https://dc.lft.to/lastmile_qr_scan"}, "is_reserved": 0}, {"lon": -77.05266566666667, "bike_id": "3b26f964067c0be836a7be354405e2b7", "lat": 38.91015866666667, "fusion_lon": 0.0, "fusion_lat": 0.0, "type": "electric_scooter", "name": "3b26f964067c0be836a7be354405e2b7", "is_disabled": 0, "rental_uris": {"ios": "https://dc.lft.to/lastmile_qr_scan", "android": "https://dc.lft.to/lastmile_qr_scan"}, "is_reserved": 0}, {"lon": -77.0248635, "bike_id": "11ec89cac206f10011a10d2c5a2475c4", "lat": 38.93883983333333, "fusion_lon": 0.0, "fusion_lat": 0.0, "type": "electric_scooter", "name": "11ec89cac206f10011a10d2c5a2475c4", "is_disabled": 0, "rental_uris": {"ios": "https://dc.lft.to/lastmile_qr_scan", "android": "https://dc.lft.to/lastmile_qr_scan"}, "is_reserved": 0}, {"lon": -77.05239083333333, "bike_id": "2615062d653a711ed682a0b5fb8b2423", "lat": 38.924706, "fusion_lon": 0.0, "fusion_lat": 0.0, "type": "electric_scooter", "name": "2615062d653a711ed682a0b5fb8b2423", "is_disabled": 0, "rental_uris": {"ios": "https://dc.lft.to/lastmile_qr_scan", "android": "https://dc.lft.to/lastmile_qr_scan"}, "is_reserved": 0}, {"lon": -77.02792616666666, "bike_id": "4ed5314519584143618a8597f829137c", "lat": 38.956869166666664, "fusion_lon": 0.0, "fusion_lat": 0.0, "type": "electric_scooter", "name": "4ed5314519584143618a8597f829137c", "is_disabled": 0, "rental_uris": {"ios": "https://dc.lft.to/lastmile_qr_scan", "android": "https://dc.lft.to/lastmile_qr_scan"}, "is_reserved": 0}, {"lon": -77.03176, "bike_id": "f2523dc1432f21e2f96bc71123189a25", "lat": 38.916059833333335, "fusion_lon": 0.0, "fusion_lat": 0.0, "type": "electric_scooter", "name": "f2523dc1432f21e2f96bc71123189a25", "is_disabled": 0, "rental_uris": {"ios": "https://dc.lft.to/lastmile_qr_scan", "android": "https://dc.lft.to/lastmile_qr_scan"}, "is_reserved": 0}, {"lon": -77.04461966666666, "bike_id": "f06e247de65fd75a702fd0410236bacf", "lat": 38.915341833333336, "fusion_lon": 0.0, "fusion_lat": 0.0, "type": "electric_scooter", "name": "f06e247de65fd75a702fd0410236bacf", "is_disabled": 0, "rental_uris": {"ios": "https://dc.lft.to/lastmile_qr_scan", "android": "https://dc.lft.to/lastmile_qr_scan"}, "is_reserved": 0}, {"lon": -76.99134716666667, "bike_id": "11e23593f6e32a3848107a82b007fa03", "lat": 38.8821755, "fusion_lon": 0.0, "fusion_lat": 0.0, "type": "electric_scooter", "name": "11e23593f6e32a3848107a82b007fa03", "is_disabled": 0, "rental_uris": {"ios": "https://dc.lft.to/lastmile_qr_scan", "android": "https://dc.lft.to/lastmile_qr_scan"}, "is_reserved": 0}, {"lon": -77.02787483333333, "bike_id": "6e8cb6eb0a40de11367d6cdbe619105c", "lat": 38.892235166666666, "fusion_lon": 0.0, "fusion_lat": 0.0, "type": "electric_scooter", "name": "6e8cb6eb0a40de11367d6cdbe619105c", "is_disabled": 0, "rental_uris": {"ios": "https://dc.lft.to/lastmile_qr_scan", "android": "https://dc.lft.to/lastmile_qr_scan"}, "is_reserved": 0}, {"lon": -77.00949933333334, "bike_id": "ad925cec18924487ad0b538d2e398779", "lat": 38.921359, "fusion_lon": 0.0, "fusion_lat": 0.0, "type": "electric_scooter", "name": "ad925cec18924487ad0b538d2e398779", "is_disabled": 0, "rental_uris": {"ios": "https://dc.lft.to/lastmile_qr_scan", "android": "https://dc.lft.to/lastmile_qr_scan"}, "is_reserved": 0}, {"lon": -77.04108133333334, "bike_id": "7566623b125d16325cd16aaac8c49ec0", "lat": 38.92801866666667, "fusion_lon": 0.0, "fusion_lat": 0.0, "type": "electric_scooter", "name": "7566623b125d16325cd16aaac8c49ec0", "is_disabled": 0, "rental_uris": {"ios": "https://dc.lft.to/lastmile_qr_scan", "android": "https://dc.lft.to/lastmile_qr_scan"}, "is_reserved": 0}, {"lon": -77.03546866666667, "bike_id": "9f2004cffe1a3bd30d423d60c7c93b2f", "lat": 38.92568216666667, "fusion_lon": 0.0, "fusion_lat": 0.0, "type": "electric_scooter", "name": "9f2004cffe1a3bd30d423d60c7c93b2f", "is_disabled": 0, "rental_uris": {"ios": "https://dc.lft.to/lastmile_qr_scan", "android": "https://dc.lft.to/lastmile_qr_scan"}, "is_reserved": 0}, {"lon": -77.00936266666666, "bike_id": "e6e66ffa2518d5956c19405ffb221cc0", "lat": 38.88314783333333, "fusion_lon": 0.0, "fusion_lat": 0.0, "type": "electric_scooter", "name": "e6e66ffa2518d5956c19405ffb221cc0", "is_disabled": 0, "rental_uris": {"ios": "https://dc.lft.to/lastmile_qr_scan", "android": "https://dc.lft.to/lastmile_qr_scan"}, "is_reserved": 0}, {"lon": -77.02587583333333, "bike_id": "b851e430a4c4598eb4f231e9c1e1abc4", "lat": 38.920374833333334, "fusion_lon": 0.0, "fusion_lat": 0.0, "type": "electric_scooter", "name": "b851e430a4c4598eb4f231e9c1e1abc4", "is_disabled": 0, "rental_uris": {"ios": "https://dc.lft.to/lastmile_qr_scan", "android": "https://dc.lft.to/lastmile_qr_scan"}, "is_reserved": 0}, {"lon": -77.00719883333333, "bike_id": "ee9d1c2b9c053fe40d8e62aafa76c768", "lat": 38.833454333333336, "fusion_lon": 0.0, "fusion_lat": 0.0, "type": "electric_bike", "name": "ee9d1c2b9c053fe40d8e62aafa76c768", "is_disabled": 0, "rental_uris": {"ios": "https://dc.lft.to/lastmile_qr_scan", "android": "https://dc.lft.to/lastmile_qr_scan"}, "is_reserved": 0}, {"lon": -77.03764116666666, "bike_id": "5c70dd2659532bd1825739b16f95abc5", "lat": 38.9201735, "fusion_lon": 0.0, "fusion_lat": 0.0, "type": "electric_scooter", "name": "5c70dd2659532bd1825739b16f95abc5", "is_disabled": 0, "rental_uris": {"ios": "https://dc.lft.to/lastmile_qr_scan", "android": "https://dc.lft.to/lastmile_qr_scan"}, "is_reserved": 0}, {"lon": -77.02693466666666, "bike_id": "b20bac5ad3174f73331eb985d70c8540", "lat": 38.924053, "fusion_lon": 0.0, "fusion_lat": 0.0, "type": "electric_scooter", "name": "b20bac5ad3174f73331eb985d70c8540", "is_disabled": 0, "rental_uris": {"ios": "https://dc.lft.to/lastmile_qr_scan", "android": "https://dc.lft.to/lastmile_qr_scan"}, "is_reserved": 0}, {"lon": -76.98704733333334, "bike_id": "f1e7b45a3aa819f3ebd74ef9d3d0b4a9", "lat": 38.909402666666665, "fusion_lon": 0.0, "fusion_lat": 0.0, "type": "electric_scooter", "name": "f1e7b45a3aa819f3ebd74ef9d3d0b4a9", "is_disabled": 0, "rental_uris": {"ios": "https://dc.lft.to/lastmile_qr_scan", "android": "https://dc.lft.to/lastmile_qr_scan"}, "is_reserved": 0}, {"lon": -77.02823766666667, "bike_id": "c585c8f43a05694530c688d2814e6a2b", "lat": 38.917053333333335, "fusion_lon": 0.0, "fusion_lat": 0.0, "type": "electric_scooter", "name": "c585c8f43a05694530c688d2814e6a2b", "is_disabled": 0, "rental_uris": {"ios": "https://dc.lft.to/lastmile_qr_scan", "android": "https://dc.lft.to/lastmile_qr_scan"}, "is_reserved": 0}, {"lon": -77.048795, "bike_id": "6999729df5bf2a8d4e546aae920da871", "lat": 38.903561833333335, "fusion_lon": 0.0, "fusion_lat": 0.0, "type": "electric_scooter", "name": "6999729df5bf2a8d4e546aae920da871", "is_disabled": 0, "rental_uris": {"ios": "https://dc.lft.to/lastmile_qr_scan", "android": "https://dc.lft.to/lastmile_qr_scan"}, "is_reserved": 0}, {"lon": -77.01002266666667, "bike_id": "cdae3a2a292f2c27123d59c724feb35c", "lat": 38.91924683333333, "fusion_lon": 0.0, "fusion_lat": 0.0, "type": "electric_scooter", "name": "cdae3a2a292f2c27123d59c724feb35c", "is_disabled": 0, "rental_uris": {"ios": "https://dc.lft.to/lastmile_qr_scan", "android": "https://dc.lft.to/lastmile_qr_scan"}, "is_reserved": 0}, {"lon": -77.03199416666666, "bike_id": "06421be38e37ea75a504d732fe1f1e8c", "lat": 38.908185, "fusion_lon": 0.0, "fusion_lat": 0.0, "type": "electric_scooter", "name": "06421be38e37ea75a504d732fe1f1e8c", "is_disabled": 0, "rental_uris": {"ios": "https://dc.lft.to/lastmile_qr_scan", "android": "https://dc.lft.to/lastmile_qr_scan"}, "is_reserved": 0}, {"lon": -77.05044733333334, "bike_id": "4d37c1955da5f4def095cc27c77a4c73", "lat": 38.89702, "fusion_lon": 0.0, "fusion_lat": 0.0, "type": "electric_scooter", "name": "4d37c1955da5f4def095cc27c77a4c73", "is_disabled": 0, "rental_uris": {"ios": "https://dc.lft.to/lastmile_qr_scan", "android": "https://dc.lft.to/lastmile_qr_scan"}, "is_reserved": 0}, {"lon": -76.933533, "bike_id": "ab82b9ad89fda437aae4aacc3afd9efb", "lat": 38.88796383333333, "fusion_lon": 0.0, "fusion_lat": 0.0, "type": "electric_scooter", "name": "ab82b9ad89fda437aae4aacc3afd9efb", "is_disabled": 0, "rental_uris": {"ios": "https://dc.lft.to/lastmile_qr_scan", "android": "https://dc.lft.to/lastmile_qr_scan"}, "is_reserved": 0}, {"lon": -77.02393766666667, "bike_id": "8de0c7220587df85bf2afeea00f52881", "lat": 38.92085066666667, "fusion_lon": 0.0, "fusion_lat": 0.0, "type": "electric_scooter", "name": "8de0c7220587df85bf2afeea00f52881", "is_disabled": 0, "rental_uris": {"ios": "https://dc.lft.to/lastmile_qr_scan", "android": "https://dc.lft.to/lastmile_qr_scan"}, "is_reserved": 0}, {"lon": -77.03281016666666, "bike_id": "3d4ab6e3c5051860cd0bc35b29d15097", "lat": 38.93883533333333, "fusion_lon": 0.0, "fusion_lat": 0.0, "type": "electric_scooter", "name": "3d4ab6e3c5051860cd0bc35b29d15097", "is_disabled": 0, "rental_uris": {"ios": "https://dc.lft.to/lastmile_qr_scan", "android": "https://dc.lft.to/lastmile_qr_scan"}, "is_reserved": 0}, {"lon": -76.948769, "bike_id": "884636c25c54cff993a0506143303736", "lat": 38.89554966666667, "fusion_lon": 0.0, "fusion_lat": 0.0, "type": "electric_scooter", "name": "884636c25c54cff993a0506143303736", "is_disabled": 0, "rental_uris": {"ios": "https://dc.lft.to/lastmile_qr_scan", "android": "https://dc.lft.to/lastmile_qr_scan"}, "is_reserved": 0}, {"lon": -77.04863, "bike_id": "aa46ca7b9a78a7aecc9b6ab1d29c6927", "lat": 38.90960033333333, "fusion_lon": 0.0, "fusion_lat": 0.0, "type": "electric_scooter", "name": "aa46ca7b9a78a7aecc9b6ab1d29c6927", "is_disabled": 0, "rental_uris": {"ios": "https://dc.lft.to/lastmile_qr_scan", "android": "https://dc.lft.to/lastmile_qr_scan"}, "is_reserved": 0}, {"lon": -77.00971933333334, "bike_id": "8701f782f914e0dc365a482ac20af300", "lat": 38.897381, "fusion_lon": 0.0, "fusion_lat": 0.0, "type": "electric_scooter", "name": "8701f782f914e0dc365a482ac20af300", "is_disabled": 0, "rental_uris": {"ios": "https://dc.lft.to/lastmile_qr_scan", "android": "https://dc.lft.to/lastmile_qr_scan"}, "is_reserved": 0}, {"lon": -76.9946, "bike_id": "b38cc409212f8f0cdbdb8a2457ad0df3", "lat": 38.94069266666666, "fusion_lon": 0.0, "fusion_lat": 0.0, "type": "electric_scooter", "name": "b38cc409212f8f0cdbdb8a2457ad0df3", "is_disabled": 0, "rental_uris": {"ios": "https://dc.lft.to/lastmile_qr_scan", "android": "https://dc.lft.to/lastmile_qr_scan"}, "is_reserved": 0}, {"lon": -77.05841983333333, "bike_id": "d0677ec840deca2da025828816c276d8", "lat": 38.905288166666665, "fusion_lon": 0.0, "fusion_lat": 0.0, "type": "electric_scooter", "name": "d0677ec840deca2da025828816c276d8", "is_disabled": 0, "rental_uris": {"ios": "https://dc.lft.to/lastmile_qr_scan", "android": "https://dc.lft.to/lastmile_qr_scan"}, "is_reserved": 0}, {"lon": -77.03002316666667, "bike_id": "ec84172373171df6efcbfd3edb0c644f", "lat": 38.89626716666667, "fusion_lon": 0.0, "fusion_lat": 0.0, "type": "electric_scooter", "name": "ec84172373171df6efcbfd3edb0c644f", "is_disabled": 0, "rental_uris": {"ios": "https://dc.lft.to/lastmile_qr_scan", "android": "https://dc.lft.to/lastmile_qr_scan"}, "is_reserved": 0}, {"lon": -77.0318675, "bike_id": "d368e9b23a42f33071af551d3366d0e4", "lat": 38.914316, "fusion_lon": 0.0, "fusion_lat": 0.0, "type": "electric_scooter", "name": "d368e9b23a42f33071af551d3366d0e4", "is_disabled": 0, "rental_uris": {"ios": "https://dc.lft.to/lastmile_qr_scan", "android": "https://dc.lft.to/lastmile_qr_scan"}, "is_reserved": 0}, {"lon": -77.02273783333334, "bike_id": "34dac685c5f19e731afbf4cd493a5d9d", "lat": 38.887387833333335, "fusion_lon": 0.0, "fusion_lat": 0.0, "type": "electric_scooter", "name": "34dac685c5f19e731afbf4cd493a5d9d", "is_disabled": 0, "rental_uris": {"ios": "https://dc.lft.to/lastmile_qr_scan", "android": "https://dc.lft.to/lastmile_qr_scan"}, "is_reserved": 0}, {"lon": -77.07937783333334, "bike_id": "8fabc4c1a0f789cf36fa813b88a142f0", "lat": 38.93082616666667, "fusion_lon": 0.0, "fusion_lat": 0.0, "type": "electric_scooter", "name": "8fabc4c1a0f789cf36fa813b88a142f0", "is_disabled": 0, "rental_uris": {"ios": "https://dc.lft.to/lastmile_qr_scan", "android": "https://dc.lft.to/lastmile_qr_scan"}, "is_reserved": 0}, {"lon": -77.02421133333333, "bike_id": "691d3634b7ee72b0f0ec6c93fe36c3e2", "lat": 38.88386466666667, "fusion_lon": 0.0, "fusion_lat": 0.0, "type": "electric_scooter", "name": "691d3634b7ee72b0f0ec6c93fe36c3e2", "is_disabled": 0, "rental_uris": {"ios": "https://dc.lft.to/lastmile_qr_scan", "android": "https://dc.lft.to/lastmile_qr_scan"}, "is_reserved": 0}, {"lon": -77.0358905, "bike_id": "74341b8dc55eedcb1ce1573277ad23ae", "lat": 38.93938433333334, "fusion_lon": 0.0, "fusion_lat": 0.0, "type": "electric_scooter", "name": "74341b8dc55eedcb1ce1573277ad23ae", "is_disabled": 0, "rental_uris": {"ios": "https://dc.lft.to/lastmile_qr_scan", "android": "https://dc.lft.to/lastmile_qr_scan"}, "is_reserved": 0}, {"lon": -77.03258583333333, "bike_id": "2efbeaec74087eaca3bfd8d889c10db6", "lat": 38.905954666666666, "fusion_lon": 0.0, "fusion_lat": 0.0, "type": "electric_scooter", "name": "2efbeaec74087eaca3bfd8d889c10db6", "is_disabled": 0, "rental_uris": {"ios": "https://dc.lft.to/lastmile_qr_scan", "android": "https://dc.lft.to/lastmile_qr_scan"}, "is_reserved": 0}, {"lon": -77.04862783333333, "bike_id": "e9b0df5a9ec33e750419e49a38401863", "lat": 38.9056935, "fusion_lon": 0.0, "fusion_lat": 0.0, "type": "electric_scooter", "name": "e9b0df5a9ec33e750419e49a38401863", "is_disabled": 0, "rental_uris": {"ios": "https://dc.lft.to/lastmile_qr_scan", "android": "https://dc.lft.to/lastmile_qr_scan"}, "is_reserved": 0}, {"lon": -76.98800883333334, "bike_id": "d92931603b0dc15c10a7a8e5aa372e85", "lat": 38.867330833333334, "fusion_lon": 0.0, "fusion_lat": 0.0, "type": "electric_scooter", "name": "d92931603b0dc15c10a7a8e5aa372e85", "is_disabled": 0, "rental_uris": {"ios": "https://dc.lft.to/lastmile_qr_scan", "android": "https://dc.lft.to/lastmile_qr_scan"}, "is_reserved": 0}, {"lon": -77.030856, "bike_id": "66bd6364d3efe9a689eb4c067865aa23", "lat": 38.9272685, "fusion_lon": 0.0, "fusion_lat": 0.0, "type": "electric_scooter", "name": "66bd6364d3efe9a689eb4c067865aa23", "is_disabled": 0, "rental_uris": {"ios": "https://dc.lft.to/lastmile_qr_scan", "android": "https://dc.lft.to/lastmile_qr_scan"}, "is_reserved": 0}, {"lon": -77.02568483333333, "bike_id": "aadfa4205bfae7f942adaad6d049457a", "lat": 38.897530833333334, "fusion_lon": 0.0, "fusion_lat": 0.0, "type": "electric_scooter", "name": "aadfa4205bfae7f942adaad6d049457a", "is_disabled": 0, "rental_uris": {"ios": "https://dc.lft.to/lastmile_qr_scan", "android": "https://dc.lft.to/lastmile_qr_scan"}, "is_reserved": 0}, {"lon": -76.98149616666667, "bike_id": "ac292df61808dd893e5e0e6651e52ad0", "lat": 38.90320416666667, "fusion_lon": 0.0, "fusion_lat": 0.0, "type": "electric_scooter", "name": "ac292df61808dd893e5e0e6651e52ad0", "is_disabled": 0, "rental_uris": {"ios": "https://dc.lft.to/lastmile_qr_scan", "android": "https://dc.lft.to/lastmile_qr_scan"}, "is_reserved": 0}, {"lon": -77.01772966666667, "bike_id": "72c2d8188d63d8a754725fcf620d1677", "lat": 38.90358466666667, "fusion_lon": 0.0, "fusion_lat": 0.0, "type": "electric_scooter", "name": "72c2d8188d63d8a754725fcf620d1677", "is_disabled": 0, "rental_uris": {"ios": "https://dc.lft.to/lastmile_qr_scan", "android": "https://dc.lft.to/lastmile_qr_scan"}, "is_reserved": 0}, {"lon": -76.97670316666667, "bike_id": "e2104523ef93d7ec15f47a35c43e9b63", "lat": 38.952474, "fusion_lon": 0.0, "fusion_lat": 0.0, "type": "electric_bike", "name": "e2104523ef93d7ec15f47a35c43e9b63", "is_disabled": 0, "rental_uris": {"ios": "https://dc.lft.to/lastmile_qr_scan", "android": "https://dc.lft.to/lastmile_qr_scan"}, "is_reserved": 0}, {"lon": -77.00679333333333, "bike_id": "db1cdf9a202b96b864497753cc3bfb88", "lat": 38.90010016666667, "fusion_lon": 0.0, "fusion_lat": 0.0, "type": "electric_scooter", "name": "db1cdf9a202b96b864497753cc3bfb88", "is_disabled": 0, "rental_uris": {"ios": "https://dc.lft.to/lastmile_qr_scan", "android": "https://dc.lft.to/lastmile_qr_scan"}, "is_reserved": 0}, {"lon": -77.06335033333333, "bike_id": "1cf71d90cbe29256f1e26265a6540bb8", "lat": 38.90524666666666, "fusion_lon": 0.0, "fusion_lat": 0.0, "type": "electric_scooter", "name": "1cf71d90cbe29256f1e26265a6540bb8", "is_disabled": 0, "rental_uris": {"ios": "https://dc.lft.to/lastmile_qr_scan", "android": "https://dc.lft.to/lastmile_qr_scan"}, "is_reserved": 0}, {"lon": -77.0227205, "bike_id": "6e03935df2242e8a605f829ca51207cb", "lat": 38.88745683333333, "fusion_lon": 0.0, "fusion_lat": 0.0, "type": "electric_scooter", "name": "6e03935df2242e8a605f829ca51207cb", "is_disabled": 0, "rental_uris": {"ios": "https://dc.lft.to/lastmile_qr_scan", "android": "https://dc.lft.to/lastmile_qr_scan"}, "is_reserved": 0}, {"lon": -77.03211216666666, "bike_id": "6a5738861ed46304ad33d910b9682323", "lat": 38.912483333333334, "fusion_lon": 0.0, "fusion_lat": 0.0, "type": "electric_scooter", "name": "6a5738861ed46304ad33d910b9682323", "is_disabled": 0, "rental_uris": {"ios": "https://dc.lft.to/lastmile_qr_scan", "android": "https://dc.lft.to/lastmile_qr_scan"}, "is_reserved": 0}, {"lon": -77.04331316666666, "bike_id": "bc4aa09a6771d25ffb0e8c9acd4416ad", "lat": 38.9073195, "fusion_lon": 0.0, "fusion_lat": 0.0, "type": "electric_scooter", "name": "bc4aa09a6771d25ffb0e8c9acd4416ad", "is_disabled": 0, "rental_uris": {"ios": "https://dc.lft.to/lastmile_qr_scan", "android": "https://dc.lft.to/lastmile_qr_scan"}, "is_reserved": 0}, {"lon": -77.026268, "bike_id": "6a1fd8cd37516e2f36e6f6cb0b85eac5", "lat": 38.96223966666667, "fusion_lon": 0.0, "fusion_lat": 0.0, "type": "electric_bike", "name": "6a1fd8cd37516e2f36e6f6cb0b85eac5", "is_disabled": 0, "rental_uris": {"ios": "https://dc.lft.to/lastmile_qr_scan", "android": "https://dc.lft.to/lastmile_qr_scan"}, "is_reserved": 0}, {"lon": -77.01895916666666, "bike_id": "d6894e949d9e7bd607758d889135b47a", "lat": 38.8861435, "fusion_lon": 0.0, "fusion_lat": 0.0, "type": "electric_scooter", "name": "d6894e949d9e7bd607758d889135b47a", "is_disabled": 0, "rental_uris": {"ios": "https://dc.lft.to/lastmile_qr_scan", "android": "https://dc.lft.to/lastmile_qr_scan"}, "is_reserved": 0}, {"lon": -77.07269566666666, "bike_id": "68237e8f0a5dc409615455b3e7e5c3a5", "lat": 38.911592166666665, "fusion_lon": 0.0, "fusion_lat": 0.0, "type": "electric_scooter", "name": "68237e8f0a5dc409615455b3e7e5c3a5", "is_disabled": 0, "rental_uris": {"ios": "https://dc.lft.to/lastmile_qr_scan", "android": "https://dc.lft.to/lastmile_qr_scan"}, "is_reserved": 0}, {"lon": -77.03637033333334, "bike_id": "5a93b78593c4f9dd7cc5b50308df0cad", "lat": 38.92416733333334, "fusion_lon": 0.0, "fusion_lat": 0.0, "type": "electric_scooter", "name": "5a93b78593c4f9dd7cc5b50308df0cad", "is_disabled": 0, "rental_uris": {"ios": "https://dc.lft.to/lastmile_qr_scan", "android": "https://dc.lft.to/lastmile_qr_scan"}, "is_reserved": 0}, {"lon": -77.00927816666666, "bike_id": "f29c96ecd4040364154ee097f100627c", "lat": 38.896065, "fusion_lon": 0.0, "fusion_lat": 0.0, "type": "electric_scooter", "name": "f29c96ecd4040364154ee097f100627c", "is_disabled": 0, "rental_uris": {"ios": "https://dc.lft.to/lastmile_qr_scan", "android": "https://dc.lft.to/lastmile_qr_scan"}, "is_reserved": 0}, {"lon": -77.010876, "bike_id": "6f1a6af065227bf285ada5f40530427e", "lat": 38.8949755, "fusion_lon": 0.0, "fusion_lat": 0.0, "type": "electric_scooter", "name": "6f1a6af065227bf285ada5f40530427e", "is_disabled": 0, "rental_uris": {"ios": "https://dc.lft.to/lastmile_qr_scan", "android": "https://dc.lft.to/lastmile_qr_scan"}, "is_reserved": 0}, {"lon": -76.9859155, "bike_id": "acd0eeda0dbe94968487344f1991ef83", "lat": 38.908145, "fusion_lon": 0.0, "fusion_lat": 0.0, "type": "electric_scooter", "name": "acd0eeda0dbe94968487344f1991ef83", "is_disabled": 0, "rental_uris": {"ios": "https://dc.lft.to/lastmile_qr_scan", "android": "https://dc.lft.to/lastmile_qr_scan"}, "is_reserved": 0}, {"lon": -76.98259266666666, "bike_id": "e25ea28616536da8cdbe0c79afec0a9c", "lat": 38.90855083333334, "fusion_lon": 0.0, "fusion_lat": 0.0, "type": "electric_scooter", "name": "e25ea28616536da8cdbe0c79afec0a9c", "is_disabled": 0, "rental_uris": {"ios": "https://dc.lft.to/lastmile_qr_scan", "android": "https://dc.lft.to/lastmile_qr_scan"}, "is_reserved": 0}, {"lon": -77.0280625, "bike_id": "49d6194a4b362e6af6452afa3121e7f0", "lat": 38.9061925, "fusion_lon": 0.0, "fusion_lat": 0.0, "type": "electric_scooter", "name": "49d6194a4b362e6af6452afa3121e7f0", "is_disabled": 0, "rental_uris": {"ios": "https://dc.lft.to/lastmile_qr_scan", "android": "https://dc.lft.to/lastmile_qr_scan"}, "is_reserved": 0}, {"lon": -76.9443555, "bike_id": "3378d16ec84747e90531a7524cacdeef", "lat": 38.90043883333333, "fusion_lon": 0.0, "fusion_lat": 0.0, "type": "electric_scooter", "name": "3378d16ec84747e90531a7524cacdeef", "is_disabled": 0, "rental_uris": {"ios": "https://dc.lft.to/lastmile_qr_scan", "android": "https://dc.lft.to/lastmile_qr_scan"}, "is_reserved": 0}, {"lon": -77.007911, "bike_id": "59d17444a3db4c7ed0734e7f053cee36", "lat": 38.896681, "fusion_lon": 0.0, "fusion_lat": 0.0, "type": "electric_scooter", "name": "59d17444a3db4c7ed0734e7f053cee36", "is_disabled": 0, "rental_uris": {"ios": "https://dc.lft.to/lastmile_qr_scan", "android": "https://dc.lft.to/lastmile_qr_scan"}, "is_reserved": 0}, {"lon": -77.03660383333333, "bike_id": "562efbc271c6c49a871f6b82f57d3983", "lat": 38.91755533333333, "fusion_lon": 0.0, "fusion_lat": 0.0, "type": "electric_scooter", "name": "562efbc271c6c49a871f6b82f57d3983", "is_disabled": 0, "rental_uris": {"ios": "https://dc.lft.to/lastmile_qr_scan", "android": "https://dc.lft.to/lastmile_qr_scan"}, "is_reserved": 0}, {"lon": -76.99407866666667, "bike_id": "84c5ef1f7f1b1d9770d47aa05f3b299b", "lat": 38.83139516666667, "fusion_lon": 0.0, "fusion_lat": 0.0, "type": "electric_bike", "name": "84c5ef1f7f1b1d9770d47aa05f3b299b", "is_disabled": 0, "rental_uris": {"ios": "https://dc.lft.to/lastmile_qr_scan", "android": "https://dc.lft.to/lastmile_qr_scan"}, "is_reserved": 0}, {"lon": -76.9335765, "bike_id": "47787ec64510af216cb9cb7bb1d451a4", "lat": 38.899243166666665, "fusion_lon": 0.0, "fusion_lat": 0.0, "type": "electric_scooter", "name": "47787ec64510af216cb9cb7bb1d451a4", "is_disabled": 0, "rental_uris": {"ios": "https://dc.lft.to/lastmile_qr_scan", "android": "https://dc.lft.to/lastmile_qr_scan"}, "is_reserved": 0}, {"lon": -77.10085916666667, "bike_id": "4687d1fa0ab242b3f53941ec0f4a464e", "lat": 38.9596, "fusion_lon": 0.0, "fusion_lat": 0.0, "type": "electric_bike", "name": "4687d1fa0ab242b3f53941ec0f4a464e", "is_disabled": 0, "rental_uris": {"ios": "https://dc.lft.to/lastmile_qr_scan", "android": "https://dc.lft.to/lastmile_qr_scan"}, "is_reserved": 0}, {"lon": -77.011561, "bike_id": "305df98b82fd2fa7965b7ddd3e5183e2", "lat": 38.91411933333333, "fusion_lon": 0.0, "fusion_lat": 0.0, "type": "electric_scooter", "name": "305df98b82fd2fa7965b7ddd3e5183e2", "is_disabled": 0, "rental_uris": {"ios": "https://dc.lft.to/lastmile_qr_scan", "android": "https://dc.lft.to/lastmile_qr_scan"}, "is_reserved": 0}, {"lon": -76.98500916666667, "bike_id": "80d96f4caf675ba62237ad7922be6b06", "lat": 38.920085, "fusion_lon": 0.0, "fusion_lat": 0.0, "type": "electric_scooter", "name": "80d96f4caf675ba62237ad7922be6b06", "is_disabled": 0, "rental_uris": {"ios": "https://dc.lft.to/lastmile_qr_scan", "android": "https://dc.lft.to/lastmile_qr_scan"}, "is_reserved": 0}, {"lon": -76.96882116666667, "bike_id": "1c59512662c0d5a91859d0e226daa51b", "lat": 38.9558325, "fusion_lon": 0.0, "fusion_lat": 0.0, "type": "electric_bike", "name": "1c59512662c0d5a91859d0e226daa51b", "is_disabled": 0, "rental_uris": {"ios": "https://dc.lft.to/lastmile_qr_scan", "android": "https://dc.lft.to/lastmile_qr_scan"}, "is_reserved": 0}, {"lon": -77.02683333333333, "bike_id": "ea09a0d1383b5137f541ebb7049ad899", "lat": 38.927829333333335, "fusion_lon": 0.0, "fusion_lat": 0.0, "type": "electric_scooter", "name": "ea09a0d1383b5137f541ebb7049ad899", "is_disabled": 0, "rental_uris": {"ios": "https://dc.lft.to/lastmile_qr_scan", "android": "https://dc.lft.to/lastmile_qr_scan"}, "is_reserved": 0}, {"lon": -76.99485016666667, "bike_id": "8704d185b94a692cfb707a9b74a36a07", "lat": 38.915712166666665, "fusion_lon": 0.0, "fusion_lat": 0.0, "type": "electric_scooter", "name": "8704d185b94a692cfb707a9b74a36a07", "is_disabled": 0, "rental_uris": {"ios": "https://dc.lft.to/lastmile_qr_scan", "android": "https://dc.lft.to/lastmile_qr_scan"}, "is_reserved": 0}, {"lon": -77.00116866666667, "bike_id": "c14275e902146f6e05eff51fd53f31a7", "lat": 38.9171, "fusion_lon": 0.0, "fusion_lat": 0.0, "type": "electric_scooter", "name": "c14275e902146f6e05eff51fd53f31a7", "is_disabled": 0, "rental_uris": {"ios": "https://dc.lft.to/lastmile_qr_scan", "android": "https://dc.lft.to/lastmile_qr_scan"}, "is_reserved": 0}, {"lon": -77.0092585, "bike_id": "cf3a3468ad5decef00c59361aaf68c14", "lat": 38.896047833333334, "fusion_lon": 0.0, "fusion_lat": 0.0, "type": "electric_scooter", "name": "cf3a3468ad5decef00c59361aaf68c14", "is_disabled": 0, "rental_uris": {"ios": "https://dc.lft.to/lastmile_qr_scan", "android": "https://dc.lft.to/lastmile_qr_scan"}, "is_reserved": 0}, {"lon": -77.04351983333333, "bike_id": "9e7e2debc8dc2494a9d0810352e626b9", "lat": 38.904221666666665, "fusion_lon": 0.0, "fusion_lat": 0.0, "type": "electric_scooter", "name": "9e7e2debc8dc2494a9d0810352e626b9", "is_disabled": 0, "rental_uris": {"ios": "https://dc.lft.to/lastmile_qr_scan", "android": "https://dc.lft.to/lastmile_qr_scan"}, "is_reserved": 0}, {"lon": -76.97817466666666, "bike_id": "80ecf37caa95ada626e8f8207444c1c0", "lat": 38.906714666666666, "fusion_lon": 0.0, "fusion_lat": 0.0, "type": "electric_scooter", "name": "80ecf37caa95ada626e8f8207444c1c0", "is_disabled": 0, "rental_uris": {"ios": "https://dc.lft.to/lastmile_qr_scan", "android": "https://dc.lft.to/lastmile_qr_scan"}, "is_reserved": 0}, {"lon": -76.895348, "bike_id": "bc0a8ddc0bdb862ae2432ddd5584779a", "lat": 38.94558083333333, "fusion_lon": 0.0, "fusion_lat": 0.0, "type": "electric_bike", "name": "bc0a8ddc0bdb862ae2432ddd5584779a", "is_disabled": 0, "rental_uris": {"ios": "https://dc.lft.to/lastmile_qr_scan", "android": "https://dc.lft.to/lastmile_qr_scan"}, "is_reserved": 0}, {"lon": -77.0216045, "bike_id": "593e3b364bd747598346df9318dca63b", "lat": 38.89222, "fusion_lon": 0.0, "fusion_lat": 0.0, "type": "electric_scooter", "name": "593e3b364bd747598346df9318dca63b", "is_disabled": 0, "rental_uris": {"ios": "https://dc.lft.to/lastmile_qr_scan", "android": "https://dc.lft.to/lastmile_qr_scan"}, "is_reserved": 0}, {"lon": -77.02730383333333, "bike_id": "3ad5e9e78b88d43d41bd821259ae1e4c", "lat": 38.940951, "fusion_lon": 0.0, "fusion_lat": 0.0, "type": "electric_scooter", "name": "3ad5e9e78b88d43d41bd821259ae1e4c", "is_disabled": 0, "rental_uris": {"ios": "https://dc.lft.to/lastmile_qr_scan", "android": "https://dc.lft.to/lastmile_qr_scan"}, "is_reserved": 0}, {"lon": -77.021957, "bike_id": "b16c2abb02c84464b51adf676c50fafc", "lat": 38.892607166666664, "fusion_lon": 0.0, "fusion_lat": 0.0, "type": "electric_scooter", "name": "b16c2abb02c84464b51adf676c50fafc", "is_disabled": 0, "rental_uris": {"ios": "https://dc.lft.to/lastmile_qr_scan", "android": "https://dc.lft.to/lastmile_qr_scan"}, "is_reserved": 0}, {"lon": -77.05180083333333, "bike_id": "9fffec48c2ef05a7f9eb4d550d9513f1", "lat": 38.923771, "fusion_lon": 0.0, "fusion_lat": 0.0, "type": "electric_scooter", "name": "9fffec48c2ef05a7f9eb4d550d9513f1", "is_disabled": 0, "rental_uris": {"ios": "https://dc.lft.to/lastmile_qr_scan", "android": "https://dc.lft.to/lastmile_qr_scan"}, "is_reserved": 0}, {"lon": -77.05180466666667, "bike_id": "b84eb6810f465d9b1b2e598fed22bacf", "lat": 38.92383683333333, "fusion_lon": 0.0, "fusion_lat": 0.0, "type": "electric_scooter", "name": "b84eb6810f465d9b1b2e598fed22bacf", "is_disabled": 0, "rental_uris": {"ios": "https://dc.lft.to/lastmile_qr_scan", "android": "https://dc.lft.to/lastmile_qr_scan"}, "is_reserved": 0}, {"lon": -77.04523083333333, "bike_id": "a03a7d8ec05f93e173f6250f6e30f3e8", "lat": 38.909816166666666, "fusion_lon": 0.0, "fusion_lat": 0.0, "type": "electric_scooter", "name": "a03a7d8ec05f93e173f6250f6e30f3e8", "is_disabled": 0, "rental_uris": {"ios": "https://dc.lft.to/lastmile_qr_scan", "android": "https://dc.lft.to/lastmile_qr_scan"}, "is_reserved": 0}, {"lon": -77.05811716666666, "bike_id": "a330b746cb245a099a4abbbce49aeddf", "lat": 38.901045833333335, "fusion_lon": 0.0, "fusion_lat": 0.0, "type": "electric_scooter", "name": "a330b746cb245a099a4abbbce49aeddf", "is_disabled": 0, "rental_uris": {"ios": "https://dc.lft.to/lastmile_qr_scan", "android": "https://dc.lft.to/lastmile_qr_scan"}, "is_reserved": 0}, {"lon": -77.04328883333334, "bike_id": "db6ddd3bc8517c6ae512441814e60c18", "lat": 38.908976, "fusion_lon": 0.0, "fusion_lat": 0.0, "type": "electric_scooter", "name": "db6ddd3bc8517c6ae512441814e60c18", "is_disabled": 0, "rental_uris": {"ios": "https://dc.lft.to/lastmile_qr_scan", "android": "https://dc.lft.to/lastmile_qr_scan"}, "is_reserved": 0}, {"lon": -77.02596916666667, "bike_id": "520ddccb25b385df981cf6c6fb629a8d", "lat": 38.9012815, "fusion_lon": 0.0, "fusion_lat": 0.0, "type": "electric_scooter", "name": "520ddccb25b385df981cf6c6fb629a8d", "is_disabled": 0, "rental_uris": {"ios": "https://dc.lft.to/lastmile_qr_scan", "android": "https://dc.lft.to/lastmile_qr_scan"}, "is_reserved": 0}, {"lon": -77.040096, "bike_id": "1e423edfa9d0bf0e620c5b1e77d1a269", "lat": 38.910031333333336, "fusion_lon": 0.0, "fusion_lat": 0.0, "type": "electric_scooter", "name": "1e423edfa9d0bf0e620c5b1e77d1a269", "is_disabled": 0, "rental_uris": {"ios": "https://dc.lft.to/lastmile_qr_scan", "android": "https://dc.lft.to/lastmile_qr_scan"}, "is_reserved": 0}, {"lon": -77.02573733333334, "bike_id": "50c1749c19cad4dcde5e3125cb60e17b", "lat": 38.926240666666665, "fusion_lon": 0.0, "fusion_lat": 0.0, "type": "electric_scooter", "name": "50c1749c19cad4dcde5e3125cb60e17b", "is_disabled": 0, "rental_uris": {"ios": "https://dc.lft.to/lastmile_qr_scan", "android": "https://dc.lft.to/lastmile_qr_scan"}, "is_reserved": 0}, {"lon": -77.04507683333334, "bike_id": "815885865a740bcb6a232a7df541badd", "lat": 38.9158855, "fusion_lon": 0.0, "fusion_lat": 0.0, "type": "electric_scooter", "name": "815885865a740bcb6a232a7df541badd", "is_disabled": 0, "rental_uris": {"ios": "https://dc.lft.to/lastmile_qr_scan", "android": "https://dc.lft.to/lastmile_qr_scan"}, "is_reserved": 0}, {"lon": -77.032177, "bike_id": "d3c0fb55030e3534d25b34783d98595a", "lat": 38.88726116666667, "fusion_lon": 0.0, "fusion_lat": 0.0, "type": "electric_scooter", "name": "d3c0fb55030e3534d25b34783d98595a", "is_disabled": 0, "rental_uris": {"ios": "https://dc.lft.to/lastmile_qr_scan", "android": "https://dc.lft.to/lastmile_qr_scan"}, "is_reserved": 0}, {"lon": -77.04482083333333, "bike_id": "9e36b1be46a04b746565d44a59a6f90e", "lat": 38.9000535, "fusion_lon": 0.0, "fusion_lat": 0.0, "type": "electric_scooter", "name": "9e36b1be46a04b746565d44a59a6f90e", "is_disabled": 0, "rental_uris": {"ios": "https://dc.lft.to/lastmile_qr_scan", "android": "https://dc.lft.to/lastmile_qr_scan"}, "is_reserved": 0}, {"lon": -77.02968366666667, "bike_id": "77bb8bf0233299c66ad2f17fd2862108", "lat": 38.91676283333334, "fusion_lon": 0.0, "fusion_lat": 0.0, "type": "electric_scooter", "name": "77bb8bf0233299c66ad2f17fd2862108", "is_disabled": 0, "rental_uris": {"ios": "https://dc.lft.to/lastmile_qr_scan", "android": "https://dc.lft.to/lastmile_qr_scan"}, "is_reserved": 0}, {"lon": -76.98825333333333, "bike_id": "23af8eed3d2d12c7ca062a6e8f9c02e7", "lat": 38.90042366666667, "fusion_lon": 0.0, "fusion_lat": 0.0, "type": "electric_scooter", "name": "23af8eed3d2d12c7ca062a6e8f9c02e7", "is_disabled": 0, "rental_uris": {"ios": "https://dc.lft.to/lastmile_qr_scan", "android": "https://dc.lft.to/lastmile_qr_scan"}, "is_reserved": 0}, {"lon": -77.07702666666667, "bike_id": "5f97a319459273833d74a0c262364c40", "lat": 38.888575, "fusion_lon": 0.0, "fusion_lat": 0.0, "type": "electric_bike", "name": "5f97a319459273833d74a0c262364c40", "is_disabled": 0, "rental_uris": {"ios": "https://dc.lft.to/lastmile_qr_scan", "android": "https://dc.lft.to/lastmile_qr_scan"}, "is_reserved": 0}, {"lon": -77.03468783333334, "bike_id": "763402288ed5b6d83dd8b67b1fdf46a1", "lat": 38.90737333333333, "fusion_lon": 0.0, "fusion_lat": 0.0, "type": "electric_scooter", "name": "763402288ed5b6d83dd8b67b1fdf46a1", "is_disabled": 0, "rental_uris": {"ios": "https://dc.lft.to/lastmile_qr_scan", "android": "https://dc.lft.to/lastmile_qr_scan"}, "is_reserved": 0}, {"lon": -77.00340066666666, "bike_id": "ab5d94b5aadd73e21669384b2ce9fba7", "lat": 38.887224333333336, "fusion_lon": 0.0, "fusion_lat": 0.0, "type": "electric_scooter", "name": "ab5d94b5aadd73e21669384b2ce9fba7", "is_disabled": 0, "rental_uris": {"ios": "https://dc.lft.to/lastmile_qr_scan", "android": "https://dc.lft.to/lastmile_qr_scan"}, "is_reserved": 0}, {"lon": -77.03287533333334, "bike_id": "c0f7155a6a6e6972febf7a5464d293c9", "lat": 38.930326, "fusion_lon": 0.0, "fusion_lat": 0.0, "type": "electric_scooter", "name": "c0f7155a6a6e6972febf7a5464d293c9", "is_disabled": 0, "rental_uris": {"ios": "https://dc.lft.to/lastmile_qr_scan", "android": "https://dc.lft.to/lastmile_qr_scan"}, "is_reserved": 0}, {"lon": -77.03543833333333, "bike_id": "72a0befe4b11aa2616c29786bb1f7774", "lat": 38.92428616666667, "fusion_lon": 0.0, "fusion_lat": 0.0, "type": "electric_scooter", "name": "72a0befe4b11aa2616c29786bb1f7774", "is_disabled": 0, "rental_uris": {"ios": "https://dc.lft.to/lastmile_qr_scan", "android": "https://dc.lft.to/lastmile_qr_scan"}, "is_reserved": 0}, {"lon": -77.1310065, "bike_id": "595608995dbad0f5a843a1513508d601", "lat": 39.02443566666667, "fusion_lon": 0.0, "fusion_lat": 0.0, "type": "electric_bike", "name": "595608995dbad0f5a843a1513508d601", "is_disabled": 0, "rental_uris": {"ios": "https://dc.lft.to/lastmile_qr_scan", "android": "https://dc.lft.to/lastmile_qr_scan"}, "is_reserved": 0}, {"lon": -77.01117583333334, "bike_id": "5179812a2b286e8daa93870ef1aa9840", "lat": 38.8855295, "fusion_lon": 0.0, "fusion_lat": 0.0, "type": "electric_scooter", "name": "5179812a2b286e8daa93870ef1aa9840", "is_disabled": 0, "rental_uris": {"ios": "https://dc.lft.to/lastmile_qr_scan", "android": "https://dc.lft.to/lastmile_qr_scan"}, "is_reserved": 0}, {"lon": -77.0562565, "bike_id": "7b6a65aad4f81fe5f730853bc260184d", "lat": 38.960773333333336, "fusion_lon": 0.0, "fusion_lat": 0.0, "type": "electric_scooter", "name": "7b6a65aad4f81fe5f730853bc260184d", "is_disabled": 0, "rental_uris": {"ios": "https://dc.lft.to/lastmile_qr_scan", "android": "https://dc.lft.to/lastmile_qr_scan"}, "is_reserved": 0}, {"lon": -77.02488033333333, "bike_id": "ee2e065f95763d5e35dcc663056959df", "lat": 38.938671, "fusion_lon": 0.0, "fusion_lat": 0.0, "type": "electric_scooter", "name": "ee2e065f95763d5e35dcc663056959df", "is_disabled": 0, "rental_uris": {"ios": "https://dc.lft.to/lastmile_qr_scan", "android": "https://dc.lft.to/lastmile_qr_scan"}, "is_reserved": 0}, {"lon": -77.007269, "bike_id": "bc44c48a2677aed16a7699e2a88a79d8", "lat": 38.9596265, "fusion_lon": 0.0, "fusion_lat": 0.0, "type": "electric_scooter", "name": "bc44c48a2677aed16a7699e2a88a79d8", "is_disabled": 0, "rental_uris": {"ios": "https://dc.lft.to/lastmile_qr_scan", "android": "https://dc.lft.to/lastmile_qr_scan"}, "is_reserved": 0}, {"lon": -77.04633333333334, "bike_id": "7cbd46be092375006cd0019d1f49621f", "lat": 38.919084166666664, "fusion_lon": 0.0, "fusion_lat": 0.0, "type": "electric_scooter", "name": "7cbd46be092375006cd0019d1f49621f", "is_disabled": 0, "rental_uris": {"ios": "https://dc.lft.to/lastmile_qr_scan", "android": "https://dc.lft.to/lastmile_qr_scan"}, "is_reserved": 0}, {"lon": -77.041958, "bike_id": "97a0e37242c4e0f2860373a047fe2fcb", "lat": 38.92015, "fusion_lon": 0.0, "fusion_lat": 0.0, "type": "electric_scooter", "name": "97a0e37242c4e0f2860373a047fe2fcb", "is_disabled": 0, "rental_uris": {"ios": "https://dc.lft.to/lastmile_qr_scan", "android": "https://dc.lft.to/lastmile_qr_scan"}, "is_reserved": 0}, {"lon": -77.0163125, "bike_id": "5743f3a0a5b9b703807a16b1be67d3b4", "lat": 38.90710816666667, "fusion_lon": 0.0, "fusion_lat": 0.0, "type": "electric_scooter", "name": "5743f3a0a5b9b703807a16b1be67d3b4", "is_disabled": 0, "rental_uris": {"ios": "https://dc.lft.to/lastmile_qr_scan", "android": "https://dc.lft.to/lastmile_qr_scan"}, "is_reserved": 0}, {"lon": -77.04155066666667, "bike_id": "4bf46a2867d81a2d971c6619899e4d6d", "lat": 38.903502, "fusion_lon": 0.0, "fusion_lat": 0.0, "type": "electric_scooter", "name": "4bf46a2867d81a2d971c6619899e4d6d", "is_disabled": 0, "rental_uris": {"ios": "https://dc.lft.to/lastmile_qr_scan", "android": "https://dc.lft.to/lastmile_qr_scan"}, "is_reserved": 0}, {"lon": -76.99016516666667, "bike_id": "743aa474845475552cfe29cc2898ff6b", "lat": 38.89417816666667, "fusion_lon": 0.0, "fusion_lat": 0.0, "type": "electric_scooter", "name": "743aa474845475552cfe29cc2898ff6b", "is_disabled": 0, "rental_uris": {"ios": "https://dc.lft.to/lastmile_qr_scan", "android": "https://dc.lft.to/lastmile_qr_scan"}, "is_reserved": 0}, {"lon": -77.02618933333333, "bike_id": "d09bce3e4bf965146d9550e120daf5fe", "lat": 38.905679166666665, "fusion_lon": 0.0, "fusion_lat": 0.0, "type": "electric_scooter", "name": "d09bce3e4bf965146d9550e120daf5fe", "is_disabled": 0, "rental_uris": {"ios": "https://dc.lft.to/lastmile_qr_scan", "android": "https://dc.lft.to/lastmile_qr_scan"}, "is_reserved": 0}, {"lon": -76.97602383333333, "bike_id": "089c2f8c691223e9c4d4943b6f2118f0", "lat": 38.90570183333333, "fusion_lon": 0.0, "fusion_lat": 0.0, "type": "electric_scooter", "name": "089c2f8c691223e9c4d4943b6f2118f0", "is_disabled": 0, "rental_uris": {"ios": "https://dc.lft.to/lastmile_qr_scan", "android": "https://dc.lft.to/lastmile_qr_scan"}, "is_reserved": 0}, {"lon": -77.00563666666666, "bike_id": "c25502b300e74dd008a774d445357be4", "lat": 38.874378, "fusion_lon": 0.0, "fusion_lat": 0.0, "type": "electric_scooter", "name": "c25502b300e74dd008a774d445357be4", "is_disabled": 0, "rental_uris": {"ios": "https://dc.lft.to/lastmile_qr_scan", "android": "https://dc.lft.to/lastmile_qr_scan"}, "is_reserved": 0}, {"lon": -76.97325416666666, "bike_id": "e0818c1f7d27fe1130bd14b67b391fc7", "lat": 38.917730166666665, "fusion_lon": 0.0, "fusion_lat": 0.0, "type": "electric_scooter", "name": "e0818c1f7d27fe1130bd14b67b391fc7", "is_disabled": 0, "rental_uris": {"ios": "https://dc.lft.to/lastmile_qr_scan", "android": "https://dc.lft.to/lastmile_qr_scan"}, "is_reserved": 0}, {"lon": -77.06516516666667, "bike_id": "9b56755c4de1d1e664b93de010afc961", "lat": 38.90545083333333, "fusion_lon": 0.0, "fusion_lat": 0.0, "type": "electric_bike", "name": "9b56755c4de1d1e664b93de010afc961", "is_disabled": 0, "rental_uris": {"ios": "https://dc.lft.to/lastmile_qr_scan", "android": "https://dc.lft.to/lastmile_qr_scan"}, "is_reserved": 0}, {"lon": -77.02280483333334, "bike_id": "ffdc44202356ec85f33fe0e9f756e3e4", "lat": 38.916579666666664, "fusion_lon": 0.0, "fusion_lat": 0.0, "type": "electric_scooter", "name": "ffdc44202356ec85f33fe0e9f756e3e4", "is_disabled": 0, "rental_uris": {"ios": "https://dc.lft.to/lastmile_qr_scan", "android": "https://dc.lft.to/lastmile_qr_scan"}, "is_reserved": 0}, {"lon": -77.005368, "bike_id": "ae04c1e80d1b838039bb307669a2cbd6", "lat": 38.929762333333336, "fusion_lon": 0.0, "fusion_lat": 0.0, "type": "electric_scooter", "name": "ae04c1e80d1b838039bb307669a2cbd6", "is_disabled": 0, "rental_uris": {"ios": "https://dc.lft.to/lastmile_qr_scan", "android": "https://dc.lft.to/lastmile_qr_scan"}, "is_reserved": 0}, {"lon": -77.02264716666667, "bike_id": "64c16ef05728ad20a123faa60526b0c2", "lat": 38.9377465, "fusion_lon": 0.0, "fusion_lat": 0.0, "type": "electric_scooter", "name": "64c16ef05728ad20a123faa60526b0c2", "is_disabled": 0, "rental_uris": {"ios": "https://dc.lft.to/lastmile_qr_scan", "android": "https://dc.lft.to/lastmile_qr_scan"}, "is_reserved": 0}, {"lon": -76.9880655, "bike_id": "73f7732c7cadc08817be570eb8f19e27", "lat": 38.900294333333335, "fusion_lon": 0.0, "fusion_lat": 0.0, "type": "electric_scooter", "name": "73f7732c7cadc08817be570eb8f19e27", "is_disabled": 0, "rental_uris": {"ios": "https://dc.lft.to/lastmile_qr_scan", "android": "https://dc.lft.to/lastmile_qr_scan"}, "is_reserved": 0}, {"lon": -77.00204633333334, "bike_id": "888e48ab3f7d5135522fee75c3fea8a4", "lat": 38.89542083333333, "fusion_lon": 0.0, "fusion_lat": 0.0, "type": "electric_scooter", "name": "888e48ab3f7d5135522fee75c3fea8a4", "is_disabled": 0, "rental_uris": {"ios": "https://dc.lft.to/lastmile_qr_scan", "android": "https://dc.lft.to/lastmile_qr_scan"}, "is_reserved": 0}, {"lon": -77.0317785, "bike_id": "d97c3464a584a1e595e745ee71082af7", "lat": 38.88409733333334, "fusion_lon": 0.0, "fusion_lat": 0.0, "type": "electric_scooter", "name": "d97c3464a584a1e595e745ee71082af7", "is_disabled": 0, "rental_uris": {"ios": "https://dc.lft.to/lastmile_qr_scan", "android": "https://dc.lft.to/lastmile_qr_scan"}, "is_reserved": 0}, {"lon": -76.98693116666666, "bike_id": "8a70850ffa13fa6bc85f5127557d0984", "lat": 38.862528166666664, "fusion_lon": 0.0, "fusion_lat": 0.0, "type": "electric_scooter", "name": "8a70850ffa13fa6bc85f5127557d0984", "is_disabled": 0, "rental_uris": {"ios": "https://dc.lft.to/lastmile_qr_scan", "android": "https://dc.lft.to/lastmile_qr_scan"}, "is_reserved": 0}, {"lon": -76.937366, "bike_id": "c7dc150ed12320682186c7615b58cdb8", "lat": 38.890215833333336, "fusion_lon": 0.0, "fusion_lat": 0.0, "type": "electric_scooter", "name": "c7dc150ed12320682186c7615b58cdb8", "is_disabled": 0, "rental_uris": {"ios": "https://dc.lft.to/lastmile_qr_scan", "android": "https://dc.lft.to/lastmile_qr_scan"}, "is_reserved": 0}, {"lon": -77.0337725, "bike_id": "08fdcf6da5c31fd0ee2fee3a61160d28", "lat": 38.892349833333334, "fusion_lon": 0.0, "fusion_lat": 0.0, "type": "electric_scooter", "name": "08fdcf6da5c31fd0ee2fee3a61160d28", "is_disabled": 0, "rental_uris": {"ios": "https://dc.lft.to/lastmile_qr_scan", "android": "https://dc.lft.to/lastmile_qr_scan"}, "is_reserved": 0}, {"lon": -77.0647675, "bike_id": "364fd50ba321c3d70fbdf08e20dd296b", "lat": 38.94656666666667, "fusion_lon": 0.0, "fusion_lat": 0.0, "type": "electric_scooter", "name": "364fd50ba321c3d70fbdf08e20dd296b", "is_disabled": 0, "rental_uris": {"ios": "https://dc.lft.to/lastmile_qr_scan", "android": "https://dc.lft.to/lastmile_qr_scan"}, "is_reserved": 0}, {"lon": -77.02216483333333, "bike_id": "cd54649ccc20a1100234ae1b2f033493", "lat": 38.91270033333333, "fusion_lon": 0.0, "fusion_lat": 0.0, "type": "electric_scooter", "name": "cd54649ccc20a1100234ae1b2f033493", "is_disabled": 0, "rental_uris": {"ios": "https://dc.lft.to/lastmile_qr_scan", "android": "https://dc.lft.to/lastmile_qr_scan"}, "is_reserved": 0}, {"lon": -77.03849683333334, "bike_id": "94079ec526e2921b865615f0931d4c81", "lat": 38.91581083333333, "fusion_lon": 0.0, "fusion_lat": 0.0, "type": "electric_scooter", "name": "94079ec526e2921b865615f0931d4c81", "is_disabled": 0, "rental_uris": {"ios": "https://dc.lft.to/lastmile_qr_scan", "android": "https://dc.lft.to/lastmile_qr_scan"}, "is_reserved": 0}, {"lon": -77.05413216666666, "bike_id": "38d08d1fbba5cc864021fe8ba3ac3476", "lat": 38.901442, "fusion_lon": 0.0, "fusion_lat": 0.0, "type": "electric_scooter", "name": "38d08d1fbba5cc864021fe8ba3ac3476", "is_disabled": 0, "rental_uris": {"ios": "https://dc.lft.to/lastmile_qr_scan", "android": "https://dc.lft.to/lastmile_qr_scan"}, "is_reserved": 0}, {"lon": -77.03200433333333, "bike_id": "909e44f617438e7efba5a186c5aaa11a", "lat": 38.94413616666667, "fusion_lon": 0.0, "fusion_lat": 0.0, "type": "electric_scooter", "name": "909e44f617438e7efba5a186c5aaa11a", "is_disabled": 0, "rental_uris": {"ios": "https://dc.lft.to/lastmile_qr_scan", "android": "https://dc.lft.to/lastmile_qr_scan"}, "is_reserved": 0}, {"lon": -77.03820433333334, "bike_id": "a03e75de873fc01002bfefcbab20cb0b", "lat": 38.9216975, "fusion_lon": 0.0, "fusion_lat": 0.0, "type": "electric_scooter", "name": "a03e75de873fc01002bfefcbab20cb0b", "is_disabled": 0, "rental_uris": {"ios": "https://dc.lft.to/lastmile_qr_scan", "android": "https://dc.lft.to/lastmile_qr_scan"}, "is_reserved": 0}, {"lon": -77.02025216666667, "bike_id": "63297dd5217d476d95bedda46ba404d9", "lat": 38.901424166666665, "fusion_lon": 0.0, "fusion_lat": 0.0, "type": "electric_scooter", "name": "63297dd5217d476d95bedda46ba404d9", "is_disabled": 0, "rental_uris": {"ios": "https://dc.lft.to/lastmile_qr_scan", "android": "https://dc.lft.to/lastmile_qr_scan"}, "is_reserved": 0}, {"lon": -77.033628, "bike_id": "2ad7245ad875e572ae1e136df9f48b12", "lat": 38.90284716666667, "fusion_lon": 0.0, "fusion_lat": 0.0, "type": "electric_scooter", "name": "2ad7245ad875e572ae1e136df9f48b12", "is_disabled": 0, "rental_uris": {"ios": "https://dc.lft.to/lastmile_qr_scan", "android": "https://dc.lft.to/lastmile_qr_scan"}, "is_reserved": 0}, {"lon": -76.98888216666667, "bike_id": "1114b0bcf9676c5e7e53e187bc900519", "lat": 38.8666155, "fusion_lon": 0.0, "fusion_lat": 0.0, "type": "electric_scooter", "name": "1114b0bcf9676c5e7e53e187bc900519", "is_disabled": 0, "rental_uris": {"ios": "https://dc.lft.to/lastmile_qr_scan", "android": "https://dc.lft.to/lastmile_qr_scan"}, "is_reserved": 0}, {"lon": -77.0377685, "bike_id": "0c2ab51a3bfec057ff0919e185b374d5", "lat": 38.929463166666665, "fusion_lon": 0.0, "fusion_lat": 0.0, "type": "electric_scooter", "name": "0c2ab51a3bfec057ff0919e185b374d5", "is_disabled": 0, "rental_uris": {"ios": "https://dc.lft.to/lastmile_qr_scan", "android": "https://dc.lft.to/lastmile_qr_scan"}, "is_reserved": 0}, {"lon": -77.00051866666666, "bike_id": "b286a556982dce551af6bbd78a612e10", "lat": 38.9678205, "fusion_lon": 0.0, "fusion_lat": 0.0, "type": "electric_bike", "name": "b286a556982dce551af6bbd78a612e10", "is_disabled": 0, "rental_uris": {"ios": "https://dc.lft.to/lastmile_qr_scan", "android": "https://dc.lft.to/lastmile_qr_scan"}, "is_reserved": 0}, {"lon": -77.04159633333333, "bike_id": "ea17d96a7e2722d980178b146d3fe8d1", "lat": 38.89559883333333, "fusion_lon": 0.0, "fusion_lat": 0.0, "type": "electric_scooter", "name": "ea17d96a7e2722d980178b146d3fe8d1", "is_disabled": 0, "rental_uris": {"ios": "https://dc.lft.to/lastmile_qr_scan", "android": "https://dc.lft.to/lastmile_qr_scan"}, "is_reserved": 0}, {"lon": -76.97681066666667, "bike_id": "b842ee92294791602a74b2d5d28bde8a", "lat": 38.89619666666667, "fusion_lon": 0.0, "fusion_lat": 0.0, "type": "electric_scooter", "name": "b842ee92294791602a74b2d5d28bde8a", "is_disabled": 0, "rental_uris": {"ios": "https://dc.lft.to/lastmile_qr_scan", "android": "https://dc.lft.to/lastmile_qr_scan"}, "is_reserved": 0}, {"lon": -77.04430516666666, "bike_id": "d8e178db33ac862845b115e7472f2042", "lat": 38.909400166666664, "fusion_lon": 0.0, "fusion_lat": 0.0, "type": "electric_scooter", "name": "d8e178db33ac862845b115e7472f2042", "is_disabled": 0, "rental_uris": {"ios": "https://dc.lft.to/lastmile_qr_scan", "android": "https://dc.lft.to/lastmile_qr_scan"}, "is_reserved": 0}, {"lon": -76.98649583333334, "bike_id": "9108933b5b7da34e90ad468a4a807473", "lat": 38.90140433333333, "fusion_lon": 0.0, "fusion_lat": 0.0, "type": "electric_scooter", "name": "9108933b5b7da34e90ad468a4a807473", "is_disabled": 0, "rental_uris": {"ios": "https://dc.lft.to/lastmile_qr_scan", "android": "https://dc.lft.to/lastmile_qr_scan"}, "is_reserved": 0}, {"lon": -77.04602883333334, "bike_id": "3eb995539b14c5f21bf2ea1cdd130b77", "lat": 39.02459016666667, "fusion_lon": 0.0, "fusion_lat": 0.0, "type": "electric_bike", "name": "3eb995539b14c5f21bf2ea1cdd130b77", "is_disabled": 0, "rental_uris": {"ios": "https://dc.lft.to/lastmile_qr_scan", "android": "https://dc.lft.to/lastmile_qr_scan"}, "is_reserved": 0}, {"lon": -77.03497533333334, "bike_id": "b631204e0b23a39ddc02cecb821d636a", "lat": 38.91708533333333, "fusion_lon": 0.0, "fusion_lat": 0.0, "type": "electric_scooter", "name": "b631204e0b23a39ddc02cecb821d636a", "is_disabled": 0, "rental_uris": {"ios": "https://dc.lft.to/lastmile_qr_scan", "android": "https://dc.lft.to/lastmile_qr_scan"}, "is_reserved": 0}, {"lon": -77.03048716666666, "bike_id": "1284dfd2fda7cf956b770d37babb4b82", "lat": 38.9133305, "fusion_lon": 0.0, "fusion_lat": 0.0, "type": "electric_scooter", "name": "1284dfd2fda7cf956b770d37babb4b82", "is_disabled": 0, "rental_uris": {"ios": "https://dc.lft.to/lastmile_qr_scan", "android": "https://dc.lft.to/lastmile_qr_scan"}, "is_reserved": 0}, {"lon": -77.04226216666666, "bike_id": "b81dd7bb8745684b8018fb2d6a0adb00", "lat": 38.921319, "fusion_lon": 0.0, "fusion_lat": 0.0, "type": "electric_scooter", "name": "b81dd7bb8745684b8018fb2d6a0adb00", "is_disabled": 0, "rental_uris": {"ios": "https://dc.lft.to/lastmile_qr_scan", "android": "https://dc.lft.to/lastmile_qr_scan"}, "is_reserved": 0}, {"lon": -77.0458315, "bike_id": "e95eb6aa90480016da6616e06db6d0b1", "lat": 38.918643, "fusion_lon": 0.0, "fusion_lat": 0.0, "type": "electric_scooter", "name": "e95eb6aa90480016da6616e06db6d0b1", "is_disabled": 0, "rental_uris": {"ios": "https://dc.lft.to/lastmile_qr_scan", "android": "https://dc.lft.to/lastmile_qr_scan"}, "is_reserved": 0}, {"lon": -77.03224483333334, "bike_id": "0140db7d8de771516c45b335414ebc21", "lat": 38.917092, "fusion_lon": 0.0, "fusion_lat": 0.0, "type": "electric_scooter", "name": "0140db7d8de771516c45b335414ebc21", "is_disabled": 0, "rental_uris": {"ios": "https://dc.lft.to/lastmile_qr_scan", "android": "https://dc.lft.to/lastmile_qr_scan"}, "is_reserved": 0}, {"lon": -76.97337283333333, "bike_id": "9d894a63cd3fba23117aeaea53fe8291", "lat": 38.86519066666666, "fusion_lon": 0.0, "fusion_lat": 0.0, "type": "electric_scooter", "name": "9d894a63cd3fba23117aeaea53fe8291", "is_disabled": 0, "rental_uris": {"ios": "https://dc.lft.to/lastmile_qr_scan", "android": "https://dc.lft.to/lastmile_qr_scan"}, "is_reserved": 0}, {"lon": -77.04209616666667, "bike_id": "5528e453560b0ff57c02460d24a34148", "lat": 38.921352166666665, "fusion_lon": 0.0, "fusion_lat": 0.0, "type": "electric_scooter", "name": "5528e453560b0ff57c02460d24a34148", "is_disabled": 0, "rental_uris": {"ios": "https://dc.lft.to/lastmile_qr_scan", "android": "https://dc.lft.to/lastmile_qr_scan"}, "is_reserved": 0}, {"lon": -77.02807366666667, "bike_id": "5edfa959dfe0c8285a9a5f925989458b", "lat": 38.9419285, "fusion_lon": 0.0, "fusion_lat": 0.0, "type": "electric_scooter", "name": "5edfa959dfe0c8285a9a5f925989458b", "is_disabled": 0, "rental_uris": {"ios": "https://dc.lft.to/lastmile_qr_scan", "android": "https://dc.lft.to/lastmile_qr_scan"}, "is_reserved": 0}, {"lon": -76.98506333333333, "bike_id": "71d8114620a2bed3b900feecadd290d8", "lat": 38.880083, "fusion_lon": 0.0, "fusion_lat": 0.0, "type": "electric_scooter", "name": "71d8114620a2bed3b900feecadd290d8", "is_disabled": 0, "rental_uris": {"ios": "https://dc.lft.to/lastmile_qr_scan", "android": "https://dc.lft.to/lastmile_qr_scan"}, "is_reserved": 0}, {"lon": -76.9861705, "bike_id": "d6ef4add9cabf3f238a473ec6514f364", "lat": 38.882982166666665, "fusion_lon": 0.0, "fusion_lat": 0.0, "type": "electric_bike", "name": "d6ef4add9cabf3f238a473ec6514f364", "is_disabled": 0, "rental_uris": {"ios": "https://dc.lft.to/lastmile_qr_scan", "android": "https://dc.lft.to/lastmile_qr_scan"}, "is_reserved": 0}, {"lon": -77.05329233333333, "bike_id": "c6c8ec009cdc61c271f471c5da3497d0", "lat": 38.90733316666667, "fusion_lon": 0.0, "fusion_lat": 0.0, "type": "electric_scooter", "name": "c6c8ec009cdc61c271f471c5da3497d0", "is_disabled": 0, "rental_uris": {"ios": "https://dc.lft.to/lastmile_qr_scan", "android": "https://dc.lft.to/lastmile_qr_scan"}, "is_reserved": 0}, {"lon": -77.02493083333333, "bike_id": "c2089ef89f341f097b1b2c26af4aa727", "lat": 38.88416383333333, "fusion_lon": 0.0, "fusion_lat": 0.0, "type": "electric_scooter", "name": "c2089ef89f341f097b1b2c26af4aa727", "is_disabled": 0, "rental_uris": {"ios": "https://dc.lft.to/lastmile_qr_scan", "android": "https://dc.lft.to/lastmile_qr_scan"}, "is_reserved": 0}, {"lon": -77.077945, "bike_id": "e537d9b46aa096e363e4eae5312284ec", "lat": 38.9960975, "fusion_lon": 0.0, "fusion_lat": 0.0, "type": "electric_bike", "name": "e537d9b46aa096e363e4eae5312284ec", "is_disabled": 0, "rental_uris": {"ios": "https://dc.lft.to/lastmile_qr_scan", "android": "https://dc.lft.to/lastmile_qr_scan"}, "is_reserved": 0}, {"lon": -77.0258585, "bike_id": "0039284aaa82762a7bcb37542536f661", "lat": 38.903722, "fusion_lon": 0.0, "fusion_lat": 0.0, "type": "electric_scooter", "name": "0039284aaa82762a7bcb37542536f661", "is_disabled": 0, "rental_uris": {"ios": "https://dc.lft.to/lastmile_qr_scan", "android": "https://dc.lft.to/lastmile_qr_scan"}, "is_reserved": 0}, {"lon": -77.001323, "bike_id": "1ebc2c96781cefc776c053b5cf31ca87", "lat": 38.8853025, "fusion_lon": 0.0, "fusion_lat": 0.0, "type": "electric_scooter", "name": "1ebc2c96781cefc776c053b5cf31ca87", "is_disabled": 0, "rental_uris": {"ios": "https://dc.lft.to/lastmile_qr_scan", "android": "https://dc.lft.to/lastmile_qr_scan"}, "is_reserved": 0}, {"lon": -77.02523733333334, "bike_id": "ba6bf126613cd262be2747d1b44e2a16", "lat": 38.943028, "fusion_lon": 0.0, "fusion_lat": 0.0, "type": "electric_scooter", "name": "ba6bf126613cd262be2747d1b44e2a16", "is_disabled": 0, "rental_uris": {"ios": "https://dc.lft.to/lastmile_qr_scan", "android": "https://dc.lft.to/lastmile_qr_scan"}, "is_reserved": 0}, {"lon": -77.06131166666667, "bike_id": "07621601a42b958a3a17493de999df82", "lat": 38.94353, "fusion_lon": 0.0, "fusion_lat": 0.0, "type": "electric_scooter", "name": "07621601a42b958a3a17493de999df82", "is_disabled": 0, "rental_uris": {"ios": "https://dc.lft.to/lastmile_qr_scan", "android": "https://dc.lft.to/lastmile_qr_scan"}, "is_reserved": 0}, {"lon": -77.0017065, "bike_id": "92a7dc5769c3714276432fea46b42e2c", "lat": 38.9195075, "fusion_lon": 0.0, "fusion_lat": 0.0, "type": "electric_scooter", "name": "92a7dc5769c3714276432fea46b42e2c", "is_disabled": 0, "rental_uris": {"ios": "https://dc.lft.to/lastmile_qr_scan", "android": "https://dc.lft.to/lastmile_qr_scan"}, "is_reserved": 0}, {"lon": -77.0092725, "bike_id": "fbe52f4b4969b5271f62bfc489a4a13c", "lat": 38.91808733333333, "fusion_lon": 0.0, "fusion_lat": 0.0, "type": "electric_scooter", "name": "fbe52f4b4969b5271f62bfc489a4a13c", "is_disabled": 0, "rental_uris": {"ios": "https://dc.lft.to/lastmile_qr_scan", "android": "https://dc.lft.to/lastmile_qr_scan"}, "is_reserved": 0}, {"lon": -77.04001283333334, "bike_id": "f64bbec5d8871f41bef16f7bd3c6ad5c", "lat": 38.918174, "fusion_lon": 0.0, "fusion_lat": 0.0, "type": "electric_scooter", "name": "f64bbec5d8871f41bef16f7bd3c6ad5c", "is_disabled": 0, "rental_uris": {"ios": "https://dc.lft.to/lastmile_qr_scan", "android": "https://dc.lft.to/lastmile_qr_scan"}, "is_reserved": 0}, {"lon": -76.99784, "bike_id": "1c7ebc91dcc8f081abcc80e1a8501eeb", "lat": 38.910604666666664, "fusion_lon": 0.0, "fusion_lat": 0.0, "type": "electric_scooter", "name": "1c7ebc91dcc8f081abcc80e1a8501eeb", "is_disabled": 0, "rental_uris": {"ios": "https://dc.lft.to/lastmile_qr_scan", "android": "https://dc.lft.to/lastmile_qr_scan"}, "is_reserved": 0}, {"lon": -77.02295433333333, "bike_id": "0135cf36e9b185a48bf5e13e3ad6b9c5", "lat": 38.923312, "fusion_lon": 0.0, "fusion_lat": 0.0, "type": "electric_bike", "name": "0135cf36e9b185a48bf5e13e3ad6b9c5", "is_disabled": 0, "rental_uris": {"ios": "https://dc.lft.to/lastmile_qr_scan", "android": "https://dc.lft.to/lastmile_qr_scan"}, "is_reserved": 0}, {"lon": -77.032478, "bike_id": "d1ab8b5702600dbab936c2eaf9d442f2", "lat": 38.915666333333334, "fusion_lon": 0.0, "fusion_lat": 0.0, "type": "electric_scooter", "name": "d1ab8b5702600dbab936c2eaf9d442f2", "is_disabled": 0, "rental_uris": {"ios": "https://dc.lft.to/lastmile_qr_scan", "android": "https://dc.lft.to/lastmile_qr_scan"}, "is_reserved": 0}, {"lon": -76.97002816666667, "bike_id": "679ed2aab2be20f915a30f27b50fb42d", "lat": 38.873696333333335, "fusion_lon": 0.0, "fusion_lat": 0.0, "type": "electric_scooter", "name": "679ed2aab2be20f915a30f27b50fb42d", "is_disabled": 0, "rental_uris": {"ios": "https://dc.lft.to/lastmile_qr_scan", "android": "https://dc.lft.to/lastmile_qr_scan"}, "is_reserved": 0}, {"lon": -76.97297766666667, "bike_id": "01289a417b2907a1b792c87a5ff207ef", "lat": 38.9164575, "fusion_lon": 0.0, "fusion_lat": 0.0, "type": "electric_bike", "name": "01289a417b2907a1b792c87a5ff207ef", "is_disabled": 0, "rental_uris": {"ios": "https://dc.lft.to/lastmile_qr_scan", "android": "https://dc.lft.to/lastmile_qr_scan"}, "is_reserved": 0}, {"lon": -77.00287666666667, "bike_id": "254835f40af0703e37eba6d2afa83294", "lat": 38.9057665, "fusion_lon": 0.0, "fusion_lat": 0.0, "type": "electric_scooter", "name": "254835f40af0703e37eba6d2afa83294", "is_disabled": 0, "rental_uris": {"ios": "https://dc.lft.to/lastmile_qr_scan", "android": "https://dc.lft.to/lastmile_qr_scan"}, "is_reserved": 0}, {"lon": -77.2332695, "bike_id": "2fd561f448ec078017dfdc8c9b438124", "lat": 38.87278216666667, "fusion_lon": 0.0, "fusion_lat": 0.0, "type": "electric_bike", "name": "2fd561f448ec078017dfdc8c9b438124", "is_disabled": 0, "rental_uris": {"ios": "https://dc.lft.to/lastmile_qr_scan", "android": "https://dc.lft.to/lastmile_qr_scan"}, "is_reserved": 0}, {"lon": -76.98886666666667, "bike_id": "dbc49f5b6589f88c2fb385ae43d2ab44", "lat": 38.8666085, "fusion_lon": 0.0, "fusion_lat": 0.0, "type": "electric_scooter", "name": "dbc49f5b6589f88c2fb385ae43d2ab44", "is_disabled": 0, "rental_uris": {"ios": "https://dc.lft.to/lastmile_qr_scan", "android": "https://dc.lft.to/lastmile_qr_scan"}, "is_reserved": 0}, {"lon": -77.04380466666667, "bike_id": "c807ef824cd7c76c0c78ba8b8cc35254", "lat": 38.910068, "fusion_lon": 0.0, "fusion_lat": 0.0, "type": "electric_scooter", "name": "c807ef824cd7c76c0c78ba8b8cc35254", "is_disabled": 0, "rental_uris": {"ios": "https://dc.lft.to/lastmile_qr_scan", "android": "https://dc.lft.to/lastmile_qr_scan"}, "is_reserved": 0}, {"lon": -77.01227533333333, "bike_id": "7e915daf6e8338a02d31b6a69d469897", "lat": 38.910920833333336, "fusion_lon": 0.0, "fusion_lat": 0.0, "type": "electric_scooter", "name": "7e915daf6e8338a02d31b6a69d469897", "is_disabled": 0, "rental_uris": {"ios": "https://dc.lft.to/lastmile_qr_scan", "android": "https://dc.lft.to/lastmile_qr_scan"}, "is_reserved": 0}, {"lon": -77.008817, "bike_id": "d2ec1930362ec6db0988c17e3d233406", "lat": 38.92286816666667, "fusion_lon": 0.0, "fusion_lat": 0.0, "type": "electric_scooter", "name": "d2ec1930362ec6db0988c17e3d233406", "is_disabled": 0, "rental_uris": {"ios": "https://dc.lft.to/lastmile_qr_scan", "android": "https://dc.lft.to/lastmile_qr_scan"}, "is_reserved": 0}, {"lon": -77.028806, "bike_id": "a634399e7d5b5c9eeb555431f5cedab6", "lat": 38.904849, "fusion_lon": 0.0, "fusion_lat": 0.0, "type": "electric_scooter", "name": "a634399e7d5b5c9eeb555431f5cedab6", "is_disabled": 0, "rental_uris": {"ios": "https://dc.lft.to/lastmile_qr_scan", "android": "https://dc.lft.to/lastmile_qr_scan"}, "is_reserved": 0}, {"lon": -76.94995683333333, "bike_id": "f05feb7347e315f6bee3d51b98c28cac", "lat": 38.89385383333333, "fusion_lon": 0.0, "fusion_lat": 0.0, "type": "electric_scooter", "name": "f05feb7347e315f6bee3d51b98c28cac", "is_disabled": 0, "rental_uris": {"ios": "https://dc.lft.to/lastmile_qr_scan", "android": "https://dc.lft.to/lastmile_qr_scan"}, "is_reserved": 0}, {"lon": -77.233174, "bike_id": "ab0a8fa2607af2979c6f4dbe0687ac61", "lat": 38.8728445, "fusion_lon": 0.0, "fusion_lat": 0.0, "type": "electric_bike", "name": "ab0a8fa2607af2979c6f4dbe0687ac61", "is_disabled": 0, "rental_uris": {"ios": "https://dc.lft.to/lastmile_qr_scan", "android": "https://dc.lft.to/lastmile_qr_scan"}, "is_reserved": 0}, {"lon": -77.02830216666666, "bike_id": "c3a312739098a3e062991f2d2b198a02", "lat": 38.88731666666666, "fusion_lon": 0.0, "fusion_lat": 0.0, "type": "electric_scooter", "name": "c3a312739098a3e062991f2d2b198a02", "is_disabled": 0, "rental_uris": {"ios": "https://dc.lft.to/lastmile_qr_scan", "android": "https://dc.lft.to/lastmile_qr_scan"}, "is_reserved": 0}, {"lon": -76.9653465, "bike_id": "c0be152cb7564c68c615e0b3808726e5", "lat": 38.918435333333335, "fusion_lon": 0.0, "fusion_lat": 0.0, "type": "electric_scooter", "name": "c0be152cb7564c68c615e0b3808726e5", "is_disabled": 0, "rental_uris": {"ios": "https://dc.lft.to/lastmile_qr_scan", "android": "https://dc.lft.to/lastmile_qr_scan"}, "is_reserved": 0}, {"lon": -77.02156816666667, "bike_id": "e471a6f5467ce9248bea0a6ac211aad9", "lat": 38.926032666666664, "fusion_lon": 0.0, "fusion_lat": 0.0, "type": "electric_scooter", "name": "e471a6f5467ce9248bea0a6ac211aad9", "is_disabled": 0, "rental_uris": {"ios": "https://dc.lft.to/lastmile_qr_scan", "android": "https://dc.lft.to/lastmile_qr_scan"}, "is_reserved": 0}, {"lon": -77.03278916666666, "bike_id": "cb8fd3ff1f9b5eb00e02b779efa40f79", "lat": 38.903794, "fusion_lon": 0.0, "fusion_lat": 0.0, "type": "electric_scooter", "name": "cb8fd3ff1f9b5eb00e02b779efa40f79", "is_disabled": 0, "rental_uris": {"ios": "https://dc.lft.to/lastmile_qr_scan", "android": "https://dc.lft.to/lastmile_qr_scan"}, "is_reserved": 0}, {"lon": -77.0589255, "bike_id": "c7c53f1919004ba7d18424c5c14266df", "lat": 38.9360815, "fusion_lon": 0.0, "fusion_lat": 0.0, "type": "electric_scooter", "name": "c7c53f1919004ba7d18424c5c14266df", "is_disabled": 0, "rental_uris": {"ios": "https://dc.lft.to/lastmile_qr_scan", "android": "https://dc.lft.to/lastmile_qr_scan"}, "is_reserved": 0}, {"lon": -77.02330316666666, "bike_id": "12330ef6035cf1fde5967e8999c270f0", "lat": 38.8972275, "fusion_lon": 0.0, "fusion_lat": 0.0, "type": "electric_scooter", "name": "12330ef6035cf1fde5967e8999c270f0", "is_disabled": 0, "rental_uris": {"ios": "https://dc.lft.to/lastmile_qr_scan", "android": "https://dc.lft.to/lastmile_qr_scan"}, "is_reserved": 0}, {"lon": -77.04452983333333, "bike_id": "3527a5213b8e6f1f3562eb47d66caaf1", "lat": 38.9194665, "fusion_lon": 0.0, "fusion_lat": 0.0, "type": "electric_scooter", "name": "3527a5213b8e6f1f3562eb47d66caaf1", "is_disabled": 0, "rental_uris": {"ios": "https://dc.lft.to/lastmile_qr_scan", "android": "https://dc.lft.to/lastmile_qr_scan"}, "is_reserved": 0}, {"lon": -77.02199983333334, "bike_id": "ba0ea4a22334f12ddd51baba2dd0948c", "lat": 38.911306333333336, "fusion_lon": 0.0, "fusion_lat": 0.0, "type": "electric_scooter", "name": "ba0ea4a22334f12ddd51baba2dd0948c", "is_disabled": 0, "rental_uris": {"ios": "https://dc.lft.to/lastmile_qr_scan", "android": "https://dc.lft.to/lastmile_qr_scan"}, "is_reserved": 0}, {"lon": -77.03476216666667, "bike_id": "eb6b45fa7e7c7f11b3b184cc2dc285dd", "lat": 38.928759666666664, "fusion_lon": 0.0, "fusion_lat": 0.0, "type": "electric_scooter", "name": "eb6b45fa7e7c7f11b3b184cc2dc285dd", "is_disabled": 0, "rental_uris": {"ios": "https://dc.lft.to/lastmile_qr_scan", "android": "https://dc.lft.to/lastmile_qr_scan"}, "is_reserved": 0}, {"lon": -77.03859916666667, "bike_id": "7f2b116950949eb5c5f7e2806a4cc431", "lat": 38.93138166666667, "fusion_lon": 0.0, "fusion_lat": 0.0, "type": "electric_scooter", "name": "7f2b116950949eb5c5f7e2806a4cc431", "is_disabled": 0, "rental_uris": {"ios": "https://dc.lft.to/lastmile_qr_scan", "android": "https://dc.lft.to/lastmile_qr_scan"}, "is_reserved": 0}, {"lon": -76.9880915, "bike_id": "10b15d68ea21ae1f05cbc724828e2426", "lat": 38.858317666666665, "fusion_lon": 0.0, "fusion_lat": 0.0, "type": "electric_scooter", "name": "10b15d68ea21ae1f05cbc724828e2426", "is_disabled": 0, "rental_uris": {"ios": "https://dc.lft.to/lastmile_qr_scan", "android": "https://dc.lft.to/lastmile_qr_scan"}, "is_reserved": 0}, {"lon": -77.01212333333334, "bike_id": "5e0013a045dd43a61fa3d5e8916c6c1c", "lat": 38.91250683333333, "fusion_lon": 0.0, "fusion_lat": 0.0, "type": "electric_scooter", "name": "5e0013a045dd43a61fa3d5e8916c6c1c", "is_disabled": 0, "rental_uris": {"ios": "https://dc.lft.to/lastmile_qr_scan", "android": "https://dc.lft.to/lastmile_qr_scan"}, "is_reserved": 0}, {"lon": -76.93175216666667, "bike_id": "7dc57a71754e0508398e362ed701c35b", "lat": 38.8988495, "fusion_lon": 0.0, "fusion_lat": 0.0, "type": "electric_scooter", "name": "7dc57a71754e0508398e362ed701c35b", "is_disabled": 0, "rental_uris": {"ios": "https://dc.lft.to/lastmile_qr_scan", "android": "https://dc.lft.to/lastmile_qr_scan"}, "is_reserved": 0},