{"data": {"bikes": [{"name": "fcc1b6b50810eeb6e850712e51d5923f", "is_disabled": 0, "lat": 38.93079433333333, "rental_uris": {"ios": "https://dc.lft.to/lastmile_qr_scan", "android": "https://dc.lft.to/lastmile_qr_scan"}, "bike_id": "fcc1b6b50810eeb6e850712e51d5923f", "type": "electric_scooter", "lon": -77.077643, "is_reserved": 0, "fusion_lat": 0.0, "fusion_lon": 0.0}, {"name": "86f09f95180b6af9fa53b5ebf7c75d6d", "is_disabled": 0, "lat": 38.91709633333333, "rental_uris": {"ios": "https://dc.lft.to/lastmile_qr_scan", "android": "https://dc.lft.to/lastmile_qr_scan"}, "bike_id": "86f09f95180b6af9fa53b5ebf7c75d6d", "type": "electric_scooter", "lon": -77.02642966666667, "is_reserved": 0, "fusion_lat": 0.0, "fusion_lon": 0.0}, {"name": "a55c78bfbc083696f452549da883e12f", "is_disabled": 0, "lat": 38.928651, "rental_uris": {"ios": "https://dc.lft.to/lastmile_qr_scan", "android": "https://dc.lft.to/lastmile_qr_scan"}, "bike_id": "a55c78bfbc083696f452549da883e12f", "type": "electric_scooter", "lon": -77.01391416666667, "is_reserved": 0, "fusion_lat": 0.0, "fusion_lon": 0.0}, {"name": "59e2e77bbbc9e86678560a9d4c49fabb", "is_disabled": 0, "lat": 38.91480166666667, "rental_uris": {"ios": "https://dc.lft.to/lastmile_qr_scan", "android": "https://dc.lft.to/lastmile_qr_scan"}, "bike_id": "59e2e77bbbc9e86678560a9d4c49fabb", "type": "electric_scooter", "lon": -77.04606683333333, "is_reserved": 0, "fusion_lat": 0.0, "fusion_lon": 0.0}, {"name": "49eff466e0c309066a76b9d3434dbb74", "is_disabled": 0, "lat": 38.90948233333334, "rental_uris": {"ios": "https://dc.lft.to/lastmile_qr_scan", "android": "https://dc.lft.to/lastmile_qr_scan"}, "bike_id": "49eff466e0c309066a76b9d3434dbb74", "type": "electric_scooter", "lon": -77.02714816666666, "is_reserved": 0, "fusion_lat": 0.0, "fusion_lon": 0.0}, {"name": "acbb39d632bd705eb3475ad9b607cea4", "is_disabled": 0, "lat": 38.887291, "rental_uris": {"ios": "https://dc.lft.to/lastmile_qr_scan", "android": "https://dc.lft.to/lastmile_qr_scan"}, "bike_id": "acbb39d632bd705eb3475ad9b607cea4", "type": "electric_scooter", "lon": -77.03180683333333, "is_reserved": 0, "fusion_lat": 0.0, "fusion_lon": 0.0}, {"name": "28bb9de1a5c6ff0e03e04e497167f60c", "is_disabled": 0, "lat": 38.954241, "rental_uris": {"ios": "https://dc.lft.to/lastmile_qr_scan", "android": "https://dc.lft.to/lastmile_qr_scan"}, "bike_id": "28bb9de1a5c6ff0e03e04e497167f60c", "type": "electric_scooter", "lon": -77.02780883333334, "is_reserved": 0, "fusion_lat": 0.0, "fusion_lon": 0.0}, {"name": "d94c3872c4d66ce4d1a88a69ed8f372d", "is_disabled": 0, "lat": 38.86662533333333, "rental_uris": {"ios": "https://dc.lft.to/lastmile_qr_scan", "android": "https://dc.lft.to/lastmile_qr_scan"}, "bike_id": "d94c3872c4d66ce4d1a88a69ed8f372d", "type": "electric_scooter", "lon": -76.98903983333334, "is_reserved": 0, "fusion_lat": 0.0, "fusion_lon": 0.0}, {"name": "42b8c27be2499c4253765b3f2e45dd02", "is_disabled": 0, "lat": 38.916871, "rental_uris": {"ios": "https://dc.lft.to/lastmile_qr_scan", "android": "https://dc.lft.to/lastmile_qr_scan"}, "bike_id": "42b8c27be2499c4253765b3f2e45dd02", "type": "electric_scooter", "lon": -77.02960133333333, "is_reserved": 0, "fusion_lat": 0.0, "fusion_lon": 0.0}, {"name": "6cdae48bb64046700ab4ec4d744c08ad", "is_disabled": 0, "lat": 38.931804, "rental_uris": {"ios": "https://dc.lft.to/lastmile_qr_scan", "android": "https://dc.lft.to/lastmile_qr_scan"}, "bike_id": "6cdae48bb64046700ab4ec4d744c08ad", "type": "electric_scooter", "lon": -77.031539, "is_reserved": 0, "fusion_lat": 0.0, "fusion_lon": 0.0}, {"name": "fef88a4896b1aa31505a5ea218de4b67", "is_disabled": 0, "lat": 38.87451216666667, "rental_uris": {"ios": "https://dc.lft.to/lastmile_qr_scan", "android": "https://dc.lft.to/lastmile_qr_scan"}, "bike_id": "fef88a4896b1aa31505a5ea218de4b67", "type": "electric_scooter", "lon": -77.00289166666667, "is_reserved": 0, "fusion_lat": 0.0, "fusion_lon": 0.0}, {"name": "c755af8eac6dd4fb57504acee1943281", "is_disabled": 0, "lat": 38.918048, "rental_uris": {"ios": "https://dc.lft.to/lastmile_qr_scan", "android": "https://dc.lft.to/lastmile_qr_scan"}, "bike_id": "c755af8eac6dd4fb57504acee1943281", "type": "electric_scooter", "lon": -77.03183366666667, "is_reserved": 0, "fusion_lat": 0.0, "fusion_lon": 0.0}, {"name": "9540f4e26726aad0b5f7653d255bfc0d", "is_disabled": 0, "lat": 38.8602205, "rental_uris": {"ios": "https://dc.lft.to/lastmile_qr_scan", "android": "https://dc.lft.to/lastmile_qr_scan"}, "bike_id": "9540f4e26726aad0b5f7653d255bfc0d", "type": "electric_bike", "lon": -77.12806733333333, "is_reserved": 0, "fusion_lat": 0.0, "fusion_lon": 0.0}, {"name": "7c54386b553572b97af0df3c7e458ae9", "is_disabled": 0, "lat": 38.876521333333336, "rental_uris": {"ios": "https://dc.lft.to/lastmile_qr_scan", "android": "https://dc.lft.to/lastmile_qr_scan"}, "bike_id": "7c54386b553572b97af0df3c7e458ae9", "type": "electric_scooter", "lon": -77.00073216666667, "is_reserved": 0, "fusion_lat": 0.0, "fusion_lon": 0.0}, {"name": "28fd5db9ccfe268a01b752cc2965b5bb", "is_disabled": 0, "lat": 38.917208, "rental_uris": {"ios": "https://dc.lft.to/lastmile_qr_scan", "android": "https://dc.lft.to/lastmile_qr_scan"}, "bike_id": "28fd5db9ccfe268a01b752cc2965b5bb", "type": "electric_scooter", "lon": -77.01904416666666, "is_reserved": 0, "fusion_lat": 0.0, "fusion_lon": 0.0}, {"name": "7f64b47bbc3ab78cd8d09f5eac451090", "is_disabled": 0, "lat": 38.91806416666667, "rental_uris": {"ios": "https://dc.lft.to/lastmile_qr_scan", "android": "https://dc.lft.to/lastmile_qr_scan"}, "bike_id": "7f64b47bbc3ab78cd8d09f5eac451090", "type": "electric_scooter", "lon": -77.0317495, "is_reserved": 0, "fusion_lat": 0.0, "fusion_lon": 0.0}, {"name": "6956b96fc27d4c05ff843fb04fa7cb58", "is_disabled": 0, "lat": 38.89731, "rental_uris": {"ios": "https://dc.lft.to/lastmile_qr_scan", "android": "https://dc.lft.to/lastmile_qr_scan"}, "bike_id": "6956b96fc27d4c05ff843fb04fa7cb58", "type": "electric_scooter", "lon": -77.0271345, "is_reserved": 0, "fusion_lat": 0.0, "fusion_lon": 0.0}, {"name": "b32962ff9d081553f56995ae56e7c1f7", "is_disabled": 0, "lat": 38.92032666666667, "rental_uris": {"ios": "https://dc.lft.to/lastmile_qr_scan", "android": "https://dc.lft.to/lastmile_qr_scan"}, "bike_id": "b32962ff9d081553f56995ae56e7c1f7", "type": "electric_scooter", "lon": -77.08190466666667, "is_reserved": 0, "fusion_lat": 0.0, "fusion_lon": 0.0}, {"name": "497b69122b5cb6e4b431b903f778df1c", "is_disabled": 0, "lat": 38.928763333333336, "rental_uris": {"ios": "https://dc.lft.to/lastmile_qr_scan", "android": "https://dc.lft.to/lastmile_qr_scan"}, "bike_id": "497b69122b5cb6e4b431b903f778df1c", "type": "electric_scooter", "lon": -77.01386483333333, "is_reserved": 0, "fusion_lat": 0.0, "fusion_lon": 0.0}, {"name": "927cb1df34fdc621558c8c2c64421468", "is_disabled": 0, "lat": 38.8785675, "rental_uris": {"ios": "https://dc.lft.to/lastmile_qr_scan", "android": "https://dc.lft.to/lastmile_qr_scan"}, "bike_id": "927cb1df34fdc621558c8c2c64421468", "type": "electric_scooter", "lon": -77.00580516666666, "is_reserved": 0, "fusion_lat": 0.0, "fusion_lon": 0.0}, {"name": "4659fd09457bef6ec426c1714481bc11", "is_disabled": 0, "lat": 38.934234833333335, "rental_uris": {"ios": "https://dc.lft.to/lastmile_qr_scan", "android": "https://dc.lft.to/lastmile_qr_scan"}, "bike_id": "4659fd09457bef6ec426c1714481bc11", "type": "electric_scooter", "lon": -77.04280233333333, "is_reserved": 0, "fusion_lat": 0.0, "fusion_lon": 0.0}, {"name": "523b0b77ba9d2a9a9332d479d53dd921", "is_disabled": 0, "lat": 38.921212, "rental_uris": {"ios": "https://dc.lft.to/lastmile_qr_scan", "android": "https://dc.lft.to/lastmile_qr_scan"}, "bike_id": "523b0b77ba9d2a9a9332d479d53dd921", "type": "electric_scooter", "lon": -77.0457955, "is_reserved": 0, "fusion_lat": 0.0, "fusion_lon": 0.0}, {"name": "717c296ea2e1ec7ea4044bf7e91bea6e", "is_disabled": 0, "lat": 38.89988866666667, "rental_uris": {"ios": "https://dc.lft.to/lastmile_qr_scan", "android": "https://dc.lft.to/lastmile_qr_scan"}, "bike_id": "717c296ea2e1ec7ea4044bf7e91bea6e", "type": "electric_scooter", "lon": -77.0246, "is_reserved": 0, "fusion_lat": 0.0, "fusion_lon": 0.0}, {"name": "e6e95e30a55ebbc2651763b4961a6860", "is_disabled": 0, "lat": 38.90731566666667, "rental_uris": {"ios": "https://dc.lft.to/lastmile_qr_scan", "android": "https://dc.lft.to/lastmile_qr_scan"}, "bike_id": "e6e95e30a55ebbc2651763b4961a6860", "type": "electric_scooter", "lon": -77.04077366666667, "is_reserved": 0, "fusion_lat": 0.0, "fusion_lon": 0.0}, {"name": "1fc9ded9e30dd56300af9038eae2523d", "is_disabled": 0, "lat": 38.9098165, "rental_uris": {"ios": "https://dc.lft.to/lastmile_qr_scan", "android": "https://dc.lft.to/lastmile_qr_scan"}, "bike_id": "1fc9ded9e30dd56300af9038eae2523d", "type": "electric_scooter", "lon": -77.034389, "is_reserved": 0, "fusion_lat": 0.0, "fusion_lon": 0.0}, {"name": "23066003925bcd4f3a26e214013f38e0", "is_disabled": 0, "lat": 38.9173965, "rental_uris": {"ios": "https://dc.lft.to/lastmile_qr_scan", "android": "https://dc.lft.to/lastmile_qr_scan"}, "bike_id": "23066003925bcd4f3a26e214013f38e0", "type": "electric_scooter", "lon": -77.03458433333333, "is_reserved": 0, "fusion_lat": 0.0, "fusion_lon": 0.0}, {"name": "07b694b877d05a167d3f3f9b81107bb7", "is_disabled": 0, "lat": 38.900108333333336, "rental_uris": {"ios": "https://dc.lft.to/lastmile_qr_scan", "android": "https://dc.lft.to/lastmile_qr_scan"}, "bike_id": "07b694b877d05a167d3f3f9b81107bb7", "type": "electric_scooter", "lon": -77.027246, "is_reserved": 0, "fusion_lat": 0.0, "fusion_lon": 0.0}, {"name": "1e66ae25e3a4e539707d8d4c57390005", "is_disabled": 0, "lat": 38.9163595, "rental_uris": {"ios": "https://dc.lft.to/lastmile_qr_scan", "android": "https://dc.lft.to/lastmile_qr_scan"}, "bike_id": "1e66ae25e3a4e539707d8d4c57390005", "type": "electric_scooter", "lon": -77.05068916666667, "is_reserved": 0, "fusion_lat": 0.0, "fusion_lon": 0.0}, {"name": "acf1379f5f2a3e0c77268a6a46299ba5", "is_disabled": 0, "lat": 38.90242166666667, "rental_uris": {"ios": "https://dc.lft.to/lastmile_qr_scan", "android": "https://dc.lft.to/lastmile_qr_scan"}, "bike_id": "acf1379f5f2a3e0c77268a6a46299ba5", "type": "electric_scooter", "lon": -77.01094216666667, "is_reserved": 0, "fusion_lat": 0.0, "fusion_lon": 0.0}, {"name": "6973b876b99be0188a90c9ac4c64adf5", "is_disabled": 0, "lat": 38.934439166666664, "rental_uris": {"ios": "https://dc.lft.to/lastmile_qr_scan", "android": "https://dc.lft.to/lastmile_qr_scan"}, "bike_id": "6973b876b99be0188a90c9ac4c64adf5", "type": "electric_scooter", "lon": -77.03265966666666, "is_reserved": 0, "fusion_lat": 0.0, "fusion_lon": 0.0}, {"name": "9584006aa6aec002590272acfecd643e", "is_disabled": 0, "lat": 38.88745016666667, "rental_uris": {"ios": "https://dc.lft.to/lastmile_qr_scan", "android": "https://dc.lft.to/lastmile_qr_scan"}, "bike_id": "9584006aa6aec002590272acfecd643e", "type": "electric_scooter", "lon": -77.02777183333333, "is_reserved": 0, "fusion_lat": 0.0, "fusion_lon": 0.0}, {"name": "ec5499413ec1c36989fbe4d0c92a21c2", "is_disabled": 0, "lat": 38.8961475, "rental_uris": {"ios": "https://dc.lft.to/lastmile_qr_scan", "android": "https://dc.lft.to/lastmile_qr_scan"}, "bike_id": "ec5499413ec1c36989fbe4d0c92a21c2", "type": "electric_scooter", "lon": -77.01214666666667, "is_reserved": 0, "fusion_lat": 0.0, "fusion_lon": 0.0}, {"name": "640ce4403b20769bbb3422689e6f3e23", "is_disabled": 0, "lat": 38.90669416666667, "rental_uris": {"ios": "https://dc.lft.to/lastmile_qr_scan", "android": "https://dc.lft.to/lastmile_qr_scan"}, "bike_id": "640ce4403b20769bbb3422689e6f3e23", "type": "electric_scooter", "lon": -77.02713516666667, "is_reserved": 0, "fusion_lat": 0.0, "fusion_lon": 0.0}, {"name": "b7620f83df756fd370ac49bc08458895", "is_disabled": 0, "lat": 38.96179383333333, "rental_uris": {"ios": "https://dc.lft.to/lastmile_qr_scan", "android": "https://dc.lft.to/lastmile_qr_scan"}, "bike_id": "b7620f83df756fd370ac49bc08458895", "type": "electric_scooter", "lon": -77.014342, "is_reserved": 0, "fusion_lat": 0.0, "fusion_lon": 0.0}, {"name": "bcb205ad26d44f3a17dd5c7f2329e834", "is_disabled": 0, "lat": 38.91844833333333, "rental_uris": {"ios": "https://dc.lft.to/lastmile_qr_scan", "android": "https://dc.lft.to/lastmile_qr_scan"}, "bike_id": "bcb205ad26d44f3a17dd5c7f2329e834", "type": "electric_scooter", "lon": -77.03185216666667, "is_reserved": 0, "fusion_lat": 0.0, "fusion_lon": 0.0}, {"name": "5147c2c9d7e566c22b7c47ddea536dfd", "is_disabled": 0, "lat": 38.9003465, "rental_uris": {"ios": "https://dc.lft.to/lastmile_qr_scan", "android": "https://dc.lft.to/lastmile_qr_scan"}, "bike_id": "5147c2c9d7e566c22b7c47ddea536dfd", "type": "electric_scooter", "lon": -77.01184133333334, "is_reserved": 0, "fusion_lat": 0.0, "fusion_lon": 0.0}, {"name": "3f2ea5b0caa9a9c7a396d8afe32167bc", "is_disabled": 0, "lat": 38.94965766666667, "rental_uris": {"ios": "https://dc.lft.to/lastmile_qr_scan", "android": "https://dc.lft.to/lastmile_qr_scan"}, "bike_id": "3f2ea5b0caa9a9c7a396d8afe32167bc", "type": "electric_scooter", "lon": -77.066278, "is_reserved": 0, "fusion_lat": 0.0, "fusion_lon": 0.0}, {"name": "cceaacce9a433225d5a0d3cb35e757e6", "is_disabled": 0, "lat": 38.9025435, "rental_uris": {"ios": "https://dc.lft.to/lastmile_qr_scan", "android": "https://dc.lft.to/lastmile_qr_scan"}, "bike_id": "cceaacce9a433225d5a0d3cb35e757e6", "type": "electric_scooter", "lon": -77.01948416666667, "is_reserved": 0, "fusion_lat": 0.0, "fusion_lon": 0.0}, {"name": "3aa3cfff4cf524f673f5320a83349d9c", "is_disabled": 0, "lat": 38.90465183333333, "rental_uris": {"ios": "https://dc.lft.to/lastmile_qr_scan", "android": "https://dc.lft.to/lastmile_qr_scan"}, "bike_id": "3aa3cfff4cf524f673f5320a83349d9c", "type": "electric_scooter", "lon": -77.02812683333333, "is_reserved": 0, "fusion_lat": 0.0, "fusion_lon": 0.0}, {"name": "80f702cc7c9edbbf2f8f03151ac07075", "is_disabled": 0, "lat": 38.920987833333335, "rental_uris": {"ios": "https://dc.lft.to/lastmile_qr_scan", "android": "https://dc.lft.to/lastmile_qr_scan"}, "bike_id": "80f702cc7c9edbbf2f8f03151ac07075", "type": "electric_scooter", "lon": -77.02519416666667, "is_reserved": 0, "fusion_lat": 0.0, "fusion_lon": 0.0}, {"name": "fe73852b74fcaec6fa6aa73b8d354be0", "is_disabled": 0, "lat": 38.911259, "rental_uris": {"ios": "https://dc.lft.to/lastmile_qr_scan", "android": "https://dc.lft.to/lastmile_qr_scan"}, "bike_id": "fe73852b74fcaec6fa6aa73b8d354be0", "type": "electric_scooter", "lon": -77.03830883333333, "is_reserved": 0, "fusion_lat": 0.0, "fusion_lon": 0.0}, {"name": "0c540e128631f040cba005ec583b91bf", "is_disabled": 0, "lat": 38.874772666666665, "rental_uris": {"ios": "https://dc.lft.to/lastmile_qr_scan", "android": "https://dc.lft.to/lastmile_qr_scan"}, "bike_id": "0c540e128631f040cba005ec583b91bf", "type": "electric_scooter", "lon": -77.00602933333333, "is_reserved": 0, "fusion_lat": 0.0, "fusion_lon": 0.0}, {"name": "4a2e0ae35fbe2dc028d1b98a474fd3f7", "is_disabled": 0, "lat": 38.9023085, "rental_uris": {"ios": "https://dc.lft.to/lastmile_qr_scan", "android": "https://dc.lft.to/lastmile_qr_scan"}, "bike_id": "4a2e0ae35fbe2dc028d1b98a474fd3f7", "type": "electric_scooter", "lon": -77.02213083333334, "is_reserved": 0, "fusion_lat": 0.0, "fusion_lon": 0.0}, {"name": "c244cf30e4a661d4f18dd704800d26b1", "is_disabled": 0, "lat": 38.895825333333335, "rental_uris": {"ios": "https://dc.lft.to/lastmile_qr_scan", "android": "https://dc.lft.to/lastmile_qr_scan"}, "bike_id": "c244cf30e4a661d4f18dd704800d26b1", "type": "electric_scooter", "lon": -76.983157, "is_reserved": 0, "fusion_lat": 0.0, "fusion_lon": 0.0}, {"name": "de490f95600e6b7528e1073452f2107a", "is_disabled": 0, "lat": 38.916630833333336, "rental_uris": {"ios": "https://dc.lft.to/lastmile_qr_scan", "android": "https://dc.lft.to/lastmile_qr_scan"}, "bike_id": "de490f95600e6b7528e1073452f2107a", "type": "electric_scooter", "lon": -77.0246635, "is_reserved": 0, "fusion_lat": 0.0, "fusion_lon": 0.0}, {"name": "6a190582ad94de983226d25a564a881e", "is_disabled": 0, "lat": 38.896181166666665, "rental_uris": {"ios": "https://dc.lft.to/lastmile_qr_scan", "android": "https://dc.lft.to/lastmile_qr_scan"}, "bike_id": "6a190582ad94de983226d25a564a881e", "type": "electric_scooter", "lon": -77.02364933333334, "is_reserved": 0, "fusion_lat": 0.0, "fusion_lon": 0.0}, {"name": "28d1dd46c4f6e2677c43ed170e9c1df1", "is_disabled": 0, "lat": 38.89226716666667, "rental_uris": {"ios": "https://dc.lft.to/lastmile_qr_scan", "android": "https://dc.lft.to/lastmile_qr_scan"}, "bike_id": "28d1dd46c4f6e2677c43ed170e9c1df1", "type": "electric_scooter", "lon": -77.04896383333333, "is_reserved": 0, "fusion_lat": 0.0, "fusion_lon": 0.0}, {"name": "4c099600ee57dabd2599618d013dad77", "is_disabled": 0, "lat": 38.9075115, "rental_uris": {"ios": "https://dc.lft.to/lastmile_qr_scan", "android": "https://dc.lft.to/lastmile_qr_scan"}, "bike_id": "4c099600ee57dabd2599618d013dad77", "type": "electric_scooter", "lon": -77.00728683333334, "is_reserved": 0, "fusion_lat": 0.0, "fusion_lon": 0.0}, {"name": "3108db497abd98c751524de756bcf1af", "is_disabled": 0, "lat": 38.9296785, "rental_uris": {"ios": "https://dc.lft.to/lastmile_qr_scan", "android": "https://dc.lft.to/lastmile_qr_scan"}, "bike_id": "3108db497abd98c751524de756bcf1af", "type": "electric_scooter", "lon": -77.02818983333333, "is_reserved": 0, "fusion_lat": 0.0, "fusion_lon": 0.0}, {"name": "774d337ba0ae9979ccc384314d433938", "is_disabled": 0, "lat": 38.876506166666665, "rental_uris": {"ios": "https://dc.lft.to/lastmile_qr_scan", "android": "https://dc.lft.to/lastmile_qr_scan"}, "bike_id": "774d337ba0ae9979ccc384314d433938", "type": "electric_scooter", "lon": -77.0006125, "is_reserved": 0, "fusion_lat": 0.0, "fusion_lon": 0.0}, {"name": "7dad9585e7154a337b5bc3ea6e61fae0", "is_disabled": 0, "lat": 38.9160685, "rental_uris": {"ios": "https://dc.lft.to/lastmile_qr_scan", "android": "https://dc.lft.to/lastmile_qr_scan"}, "bike_id": "7dad9585e7154a337b5bc3ea6e61fae0", "type": "electric_scooter", "lon": -77.03221083333334, "is_reserved": 0, "fusion_lat": 0.0, "fusion_lon": 0.0}, {"name": "964d5441ff3f90a4b56436624eed6bba", "is_disabled": 0, "lat": 38.890794, "rental_uris": {"ios": "https://dc.lft.to/lastmile_qr_scan", "android": "https://dc.lft.to/lastmile_qr_scan"}, "bike_id": "964d5441ff3f90a4b56436624eed6bba", "type": "electric_scooter", "lon": -76.9882545, "is_reserved": 0, "fusion_lat": 0.0, "fusion_lon": 0.0}, {"name": "9cbf99967cb31d69cad7f82b2e4d3ee3", "is_disabled": 0, "lat": 38.893226166666665, "rental_uris": {"ios": "https://dc.lft.to/lastmile_qr_scan", "android": "https://dc.lft.to/lastmile_qr_scan"}, "bike_id": "9cbf99967cb31d69cad7f82b2e4d3ee3", "type": "electric_scooter", "lon": -77.02240183333333, "is_reserved": 0, "fusion_lat": 0.0, "fusion_lon": 0.0}, {"name": "3af50ba5211ef07ebb600a6198cf982c", "is_disabled": 0, "lat": 38.87468466666667, "rental_uris": {"ios": "https://dc.lft.to/lastmile_qr_scan", "android": "https://dc.lft.to/lastmile_qr_scan"}, "bike_id": "3af50ba5211ef07ebb600a6198cf982c", "type": "electric_scooter", "lon": -77.0085785, "is_reserved": 0, "fusion_lat": 0.0, "fusion_lon": 0.0}, {"name": "9b02a383cc18e446d9ad4a08c4c94523", "is_disabled": 0, "lat": 38.919215333333334, "rental_uris": {"ios": "https://dc.lft.to/lastmile_qr_scan", "android": "https://dc.lft.to/lastmile_qr_scan"}, "bike_id": "9b02a383cc18e446d9ad4a08c4c94523", "type": "electric_scooter", "lon": -77.03217266666667, "is_reserved": 0, "fusion_lat": 0.0, "fusion_lon": 0.0}, {"name": "47f4c56c8634f9855f677a97fa71b396", "is_disabled": 0, "lat": 38.93293966666667, "rental_uris": {"ios": "https://dc.lft.to/lastmile_qr_scan", "android": "https://dc.lft.to/lastmile_qr_scan"}, "bike_id": "47f4c56c8634f9855f677a97fa71b396", "type": "electric_scooter", "lon": -77.02856233333333, "is_reserved": 0, "fusion_lat": 0.0, "fusion_lon": 0.0}, {"name": "7adb48ccb7b3af8e6936d75b6cd7af5d", "is_disabled": 0, "lat": 38.895837666666665, "rental_uris": {"ios": "https://dc.lft.to/lastmile_qr_scan", "android": "https://dc.lft.to/lastmile_qr_scan"}, "bike_id": "7adb48ccb7b3af8e6936d75b6cd7af5d", "type": "electric_scooter", "lon": -76.98315333333333, "is_reserved": 0, "fusion_lat": 0.0, "fusion_lon": 0.0}, {"name": "11bda6a348f7645ddd83ac18b941fb41", "is_disabled": 0, "lat": 38.91010716666667, "rental_uris": {"ios": "https://dc.lft.to/lastmile_qr_scan", "android": "https://dc.lft.to/lastmile_qr_scan"}, "bike_id": "11bda6a348f7645ddd83ac18b941fb41", "type": "electric_scooter", "lon": -77.03447383333334, "is_reserved": 0, "fusion_lat": 0.0, "fusion_lon": 0.0}, {"name": "540470e07bc85e72d047b99eb66b974e", "is_disabled": 0, "lat": 38.896047833333334, "rental_uris": {"ios": "https://dc.lft.to/lastmile_qr_scan", "android": "https://dc.lft.to/lastmile_qr_scan"}, "bike_id": "540470e07bc85e72d047b99eb66b974e", "type": "electric_scooter", "lon": -77.0236075, "is_reserved": 0, "fusion_lat": 0.0, "fusion_lon": 0.0}, {"name": "573791dc94c6a3962806e2bd65489386", "is_disabled": 0, "lat": 38.900481, "rental_uris": {"ios": "https://dc.lft.to/lastmile_qr_scan", "android": "https://dc.lft.to/lastmile_qr_scan"}, "bike_id": "573791dc94c6a3962806e2bd65489386", "type": "electric_scooter", "lon": -77.0007015, "is_reserved": 0, "fusion_lat": 0.0, "fusion_lon": 0.0}, {"name": "843056c6b468cfc2b75aa44333347ee7", "is_disabled": 0, "lat": 38.9072825, "rental_uris": {"ios": "https://dc.lft.to/lastmile_qr_scan", "android": "https://dc.lft.to/lastmile_qr_scan"}, "bike_id": "843056c6b468cfc2b75aa44333347ee7", "type": "electric_scooter", "lon": -77.04333616666666, "is_reserved": 0, "fusion_lat": 0.0, "fusion_lon": 0.0}, {"name": "ebf1440a4b66a5d59d0bda1017d68a0a", "is_disabled": 0, "lat": 38.902030333333336, "rental_uris": {"ios": "https://dc.lft.to/lastmile_qr_scan", "android": "https://dc.lft.to/lastmile_qr_scan"}, "bike_id": "ebf1440a4b66a5d59d0bda1017d68a0a", "type": "electric_scooter", "lon": -77.02372483333333, "is_reserved": 0, "fusion_lat": 0.0, "fusion_lon": 0.0}, {"name": "53d5a771b2dccb6d27d1a707fc0dd16e", "is_disabled": 0, "lat": 38.908877833333335, "rental_uris": {"ios": "https://dc.lft.to/lastmile_qr_scan", "android": "https://dc.lft.to/lastmile_qr_scan"}, "bike_id": "53d5a771b2dccb6d27d1a707fc0dd16e", "type": "electric_scooter", "lon": -77.03221016666667, "is_reserved": 0, "fusion_lat": 0.0, "fusion_lon": 0.0}, {"name": "43dae252f4011b5ac02bae3af6258a09", "is_disabled": 0, "lat": 38.9170125, "rental_uris": {"ios": "https://dc.lft.to/lastmile_qr_scan", "android": "https://dc.lft.to/lastmile_qr_scan"}, "bike_id": "43dae252f4011b5ac02bae3af6258a09", "type": "electric_scooter", "lon": -77.0304165, "is_reserved": 0, "fusion_lat": 0.0, "fusion_lon": 0.0}, {"name": "7a60a547a8ac1e1897a36997f3137c8f", "is_disabled": 0, "lat": 38.879497666666666, "rental_uris": {"ios": "https://dc.lft.to/lastmile_qr_scan", "android": "https://dc.lft.to/lastmile_qr_scan"}, "bike_id": "7a60a547a8ac1e1897a36997f3137c8f", "type": "electric_scooter", "lon": -77.00615583333334, "is_reserved": 0, "fusion_lat": 0.0, "fusion_lon": 0.0}, {"name": "22cf7642441f0a658a580c402e012c0b", "is_disabled": 0, "lat": 38.89610116666667, "rental_uris": {"ios": "https://dc.lft.to/lastmile_qr_scan", "android": "https://dc.lft.to/lastmile_qr_scan"}, "bike_id": "22cf7642441f0a658a580c402e012c0b", "type": "electric_scooter", "lon": -77.04600066666667, "is_reserved": 0, "fusion_lat": 0.0, "fusion_lon": 0.0}, {"name": "b7aebfb1e8a06c12e3f6a49a3b21f37a", "is_disabled": 0, "lat": 38.924459166666665, "rental_uris": {"ios": "https://dc.lft.to/lastmile_qr_scan", "android": "https://dc.lft.to/lastmile_qr_scan"}, "bike_id": "b7aebfb1e8a06c12e3f6a49a3b21f37a", "type": "electric_scooter", "lon": -77.039697, "is_reserved": 0, "fusion_lat": 0.0, "fusion_lon": 0.0}, {"name": "b07ce336ee34ebd8fb14850e774c7f83", "is_disabled": 0, "lat": 38.921436666666665, "rental_uris": {"ios": "https://dc.lft.to/lastmile_qr_scan", "android": "https://dc.lft.to/lastmile_qr_scan"}, "bike_id": "b07ce336ee34ebd8fb14850e774c7f83", "type": "electric_scooter", "lon": -77.04418516666667, "is_reserved": 0, "fusion_lat": 0.0, "fusion_lon": 0.0}, {"name": "b17eb06ebc51322d32f6b8be03ae1401", "is_disabled": 0, "lat": 38.90101816666667, "rental_uris": {"ios": "https://dc.lft.to/lastmile_qr_scan", "android": "https://dc.lft.to/lastmile_qr_scan"}, "bike_id": "b17eb06ebc51322d32f6b8be03ae1401", "type": "electric_scooter", "lon": -77.04998466666666, "is_reserved": 0, "fusion_lat": 0.0, "fusion_lon": 0.0}, {"name": "c21fd9b68a502f5878520f36e814c083", "is_disabled": 0, "lat": 38.90727483333333, "rental_uris": {"ios": "https://dc.lft.to/lastmile_qr_scan", "android": "https://dc.lft.to/lastmile_qr_scan"}, "bike_id": "c21fd9b68a502f5878520f36e814c083", "type": "electric_scooter", "lon": -77.03201883333334, "is_reserved": 0, "fusion_lat": 0.0, "fusion_lon": 0.0}, {"name": "ebf2574bdd3618676530c7df22916ff9", "is_disabled": 0, "lat": 38.88743133333333, "rental_uris": {"ios": "https://dc.lft.to/lastmile_qr_scan", "android": "https://dc.lft.to/lastmile_qr_scan"}, "bike_id": "ebf2574bdd3618676530c7df22916ff9", "type": "electric_scooter", "lon": -77.02131716666666, "is_reserved": 0, "fusion_lat": 0.0, "fusion_lon": 0.0}, {"name": "42dd291bf7faae7bc2b5d7b56912f30f", "is_disabled": 0, "lat": 38.90295733333333, "rental_uris": {"ios": "https://dc.lft.to/lastmile_qr_scan", "android": "https://dc.lft.to/lastmile_qr_scan"}, "bike_id": "42dd291bf7faae7bc2b5d7b56912f30f", "type": "electric_scooter", "lon": -77.01625033333333, "is_reserved": 0, "fusion_lat": 0.0, "fusion_lon": 0.0}, {"name": "06e86ff69115ac274c983d9dce92c386", "is_disabled": 0, "lat": 38.90652383333333, "rental_uris": {"ios": "https://dc.lft.to/lastmile_qr_scan", "android": "https://dc.lft.to/lastmile_qr_scan"}, "bike_id": "06e86ff69115ac274c983d9dce92c386", "type": "electric_scooter", "lon": -77.041296, "is_reserved": 0, "fusion_lat": 0.0, "fusion_lon": 0.0}, {"name": "010e3b6b1db5a2fc527962aa3dd521d5", "is_disabled": 0, "lat": 38.92159233333334, "rental_uris": {"ios": "https://dc.lft.to/lastmile_qr_scan", "android": "https://dc.lft.to/lastmile_qr_scan"}, "bike_id": "010e3b6b1db5a2fc527962aa3dd521d5", "type": "electric_scooter", "lon": -77.03259366666667, "is_reserved": 0, "fusion_lat": 0.0, "fusion_lon": 0.0}, {"name": "77890e8918dcd99f505ab49940c11bdc", "is_disabled": 0, "lat": 38.9258515, "rental_uris": {"ios": "https://dc.lft.to/lastmile_qr_scan", "android": "https://dc.lft.to/lastmile_qr_scan"}, "bike_id": "77890e8918dcd99f505ab49940c11bdc", "type": "electric_scooter", "lon": -77.02979066666667, "is_reserved": 0, "fusion_lat": 0.0, "fusion_lon": 0.0}, {"name": "d5cbbcae49c287cc27a1016172c2f932", "is_disabled": 0, "lat": 38.907370666666665, "rental_uris": {"ios": "https://dc.lft.to/lastmile_qr_scan", "android": "https://dc.lft.to/lastmile_qr_scan"}, "bike_id": "d5cbbcae49c287cc27a1016172c2f932", "type": "electric_scooter", "lon": -77.0415235, "is_reserved": 0, "fusion_lat": 0.0, "fusion_lon": 0.0}, {"name": "e40c6b4f959adc778dd8acd1660a198e", "is_disabled": 0, "lat": 38.9327845, "rental_uris": {"ios": "https://dc.lft.to/lastmile_qr_scan", "android": "https://dc.lft.to/lastmile_qr_scan"}, "bike_id": "e40c6b4f959adc778dd8acd1660a198e", "type": "electric_scooter", "lon": -77.028645, "is_reserved": 0, "fusion_lat": 0.0, "fusion_lon": 0.0}, {"name": "46d4d9ff5bee387e39950d0ebc021d6c", "is_disabled": 0, "lat": 38.90206033333333, "rental_uris": {"ios": "https://dc.lft.to/lastmile_qr_scan", "android": "https://dc.lft.to/lastmile_qr_scan"}, "bike_id": "46d4d9ff5bee387e39950d0ebc021d6c", "type": "electric_scooter", "lon": -77.02376183333334, "is_reserved": 0, "fusion_lat": 0.0, "fusion_lon": 0.0}, {"name": "7350eec00c7650ec577983f45587e434", "is_disabled": 0, "lat": 38.90103233333333, "rental_uris": {"ios": "https://dc.lft.to/lastmile_qr_scan", "android": "https://dc.lft.to/lastmile_qr_scan"}, "bike_id": "7350eec00c7650ec577983f45587e434", "type": "electric_scooter", "lon": -77.04910516666666, "is_reserved": 0, "fusion_lat": 0.0, "fusion_lon": 0.0}, {"name": "7a208d171c22e73ea320ea2cb3de5367", "is_disabled": 0, "lat": 38.919277, "rental_uris": {"ios": "https://dc.lft.to/lastmile_qr_scan", "android": "https://dc.lft.to/lastmile_qr_scan"}, "bike_id": "7a208d171c22e73ea320ea2cb3de5367", "type": "electric_scooter", "lon": -77.02310416666667, "is_reserved": 0, "fusion_lat": 0.0, "fusion_lon": 0.0}, {"name": "0e9d21bf335f4eb544c06a830023b790", "is_disabled": 0, "lat": 39.01077333333333, "rental_uris": {"ios": "https://dc.lft.to/lastmile_qr_scan", "android": "https://dc.lft.to/lastmile_qr_scan"}, "bike_id": "0e9d21bf335f4eb544c06a830023b790", "type": "electric_bike", "lon": -76.91065133333333, "is_reserved": 0, "fusion_lat": 0.0, "fusion_lon": 0.0}, {"name": "48f16f7cd9dd79e82198c23685a54e8e", "is_disabled": 0, "lat": 38.92311466666666, "rental_uris": {"ios": "https://dc.lft.to/lastmile_qr_scan", "android": "https://dc.lft.to/lastmile_qr_scan"}, "bike_id": "48f16f7cd9dd79e82198c23685a54e8e", "type": "electric_scooter", "lon": -77.0403875, "is_reserved": 0, "fusion_lat": 0.0, "fusion_lon": 0.0}, {"name": "b295e439bb86f5df46e301bcd352cb5e", "is_disabled": 0, "lat": 38.9241445, "rental_uris": {"ios": "https://dc.lft.to/lastmile_qr_scan", "android": "https://dc.lft.to/lastmile_qr_scan"}, "bike_id": "b295e439bb86f5df46e301bcd352cb5e", "type": "electric_scooter", "lon": -77.0364155, "is_reserved": 0, "fusion_lat": 0.0, "fusion_lon": 0.0}, {"name": "c6695e80425faf35ce96224c071e4227", "is_disabled": 0, "lat": 38.8922335, "rental_uris": {"ios": "https://dc.lft.to/lastmile_qr_scan", "android": "https://dc.lft.to/lastmile_qr_scan"}, "bike_id": "c6695e80425faf35ce96224c071e4227", "type": "electric_scooter", "lon": -77.0450415, "is_reserved": 0, "fusion_lat": 0.0, "fusion_lon": 0.0}, {"name": "ee39cf71b72d31bac2e00fcee16ad044", "is_disabled": 0, "lat": 38.916934499999996, "rental_uris": {"ios": "https://dc.lft.to/lastmile_qr_scan", "android": "https://dc.lft.to/lastmile_qr_scan"}, "bike_id": "ee39cf71b72d31bac2e00fcee16ad044", "type": "electric_scooter", "lon": -77.024343, "is_reserved": 0, "fusion_lat": 0.0, "fusion_lon": 0.0}, {"name": "fc94198d0121e3b449d04960b63d3a4a", "is_disabled": 0, "lat": 38.878913833333336, "rental_uris": {"ios": "https://dc.lft.to/lastmile_qr_scan", "android": "https://dc.lft.to/lastmile_qr_scan"}, "bike_id": "fc94198d0121e3b449d04960b63d3a4a", "type": "electric_scooter", "lon": -77.00567783333334, "is_reserved": 0, "fusion_lat": 0.0, "fusion_lon": 0.0}, {"name": "b452d4e83100dacece36af9a769d57f0", "is_disabled": 0, "lat": 38.90618883333333, "rental_uris": {"ios": "https://dc.lft.to/lastmile_qr_scan", "android": "https://dc.lft.to/lastmile_qr_scan"}, "bike_id": "b452d4e83100dacece36af9a769d57f0", "type": "electric_scooter", "lon": -77.01494166666667, "is_reserved": 0, "fusion_lat": 0.0, "fusion_lon": 0.0}, {"name": "864edab48a0cc49ca2d5d9c246a9a06e", "is_disabled": 0, "lat": 38.88757433333333, "rental_uris": {"ios": "https://dc.lft.to/lastmile_qr_scan", "android": "https://dc.lft.to/lastmile_qr_scan"}, "bike_id": "864edab48a0cc49ca2d5d9c246a9a06e", "type": "electric_scooter", "lon": -77.029387, "is_reserved": 0, "fusion_lat": 0.0, "fusion_lon": 0.0}, {"name": "f270a0f030b39edc2fb400ace7102b66", "is_disabled": 0, "lat": 38.9193565, "rental_uris": {"ios": "https://dc.lft.to/lastmile_qr_scan", "android": "https://dc.lft.to/lastmile_qr_scan"}, "bike_id": "f270a0f030b39edc2fb400ace7102b66", "type": "electric_scooter", "lon": -77.02340183333334, "is_reserved": 0, "fusion_lat": 0.0, "fusion_lon": 0.0}, {"name": "4e702462eb69e3aeeff136499a738f68", "is_disabled": 0, "lat": 38.905627333333335, "rental_uris": {"ios": "https://dc.lft.to/lastmile_qr_scan", "android": "https://dc.lft.to/lastmile_qr_scan"}, "bike_id": "4e702462eb69e3aeeff136499a738f68", "type": "electric_scooter", "lon": -77.02098216666667, "is_reserved": 0, "fusion_lat": 0.0, "fusion_lon": 0.0}, {"name": "d19cf3d7e42f9041818f5e7a3541d487", "is_disabled": 0, "lat": 38.899258333333336, "rental_uris": {"ios": "https://dc.lft.to/lastmile_qr_scan", "android": "https://dc.lft.to/lastmile_qr_scan"}, "bike_id": "d19cf3d7e42f9041818f5e7a3541d487", "type": "electric_scooter", "lon": -77.01272383333334, "is_reserved": 0, "fusion_lat": 0.0, "fusion_lon": 0.0}, {"name": "2d8fbe85b1b970217d41e2e532183aa9", "is_disabled": 0, "lat": 38.87228266666666, "rental_uris": {"ios": "https://dc.lft.to/lastmile_qr_scan", "android": "https://dc.lft.to/lastmile_qr_scan"}, "bike_id": "2d8fbe85b1b970217d41e2e532183aa9", "type": "electric_scooter", "lon": -77.01769133333333, "is_reserved": 0, "fusion_lat": 0.0, "fusion_lon": 0.0}, {"name": "ed4bbedb745e21e37bfc80a6141e1f8b", "is_disabled": 0, "lat": 38.899419, "rental_uris": {"ios": "https://dc.lft.to/lastmile_qr_scan", "android": "https://dc.lft.to/lastmile_qr_scan"}, "bike_id": "ed4bbedb745e21e37bfc80a6141e1f8b", "type": "electric_scooter", "lon": -77.016086, "is_reserved": 0, "fusion_lat": 0.0, "fusion_lon": 0.0}, {"name": "e6acf643d7313bec3f2085b7b3c3963f", "is_disabled": 0, "lat": 38.887466333333336, "rental_uris": {"ios": "https://dc.lft.to/lastmile_qr_scan", "android": "https://dc.lft.to/lastmile_qr_scan"}, "bike_id": "e6acf643d7313bec3f2085b7b3c3963f", "type": "electric_scooter", "lon": -77.02569066666666, "is_reserved": 0, "fusion_lat": 0.0, "fusion_lon": 0.0}, {"name": "717a79ada702ee0735b0c6dc65125fea", "is_disabled": 0, "lat": 38.906947333333335, "rental_uris": {"ios": "https://dc.lft.to/lastmile_qr_scan", "android": "https://dc.lft.to/lastmile_qr_scan"}, "bike_id": "717a79ada702ee0735b0c6dc65125fea", "type": "electric_scooter", "lon": -76.95188683333333, "is_reserved": 0, "fusion_lat": 0.0, "fusion_lon": 0.0}, {"name": "93a91f02093edf40007d87ef44a25382", "is_disabled": 0, "lat": 38.903837333333335, "rental_uris": {"ios": "https://dc.lft.to/lastmile_qr_scan", "android": "https://dc.lft.to/lastmile_qr_scan"}, "bike_id": "93a91f02093edf40007d87ef44a25382", "type": "electric_scooter", "lon": -77.038497, "is_reserved": 0, "fusion_lat": 0.0, "fusion_lon": 0.0}, {"name": "40167c0ac028fee9b4c932ab3304323e", "is_disabled": 0, "lat": 38.907157166666664, "rental_uris": {"ios": "https://dc.lft.to/lastmile_qr_scan", "android": "https://dc.lft.to/lastmile_qr_scan"}, "bike_id": "40167c0ac028fee9b4c932ab3304323e", "type": "electric_scooter", "lon": -77.02712683333333, "is_reserved": 0, "fusion_lat": 0.0, "fusion_lon": 0.0}, {"name": "c51565189bc6931cabb451d1bfd1545a", "is_disabled": 0, "lat": 38.871794, "rental_uris": {"ios": "https://dc.lft.to/lastmile_qr_scan", "android": "https://dc.lft.to/lastmile_qr_scan"}, "bike_id": "c51565189bc6931cabb451d1bfd1545a", "type": "electric_scooter", "lon": -77.00573566666667, "is_reserved": 0, "fusion_lat": 0.0, "fusion_lon": 0.0}, {"name": "751da1503d3cad2d64dc05f528029c4d", "is_disabled": 0, "lat": 38.83631533333333, "rental_uris": {"ios": "https://dc.lft.to/lastmile_qr_scan", "android": "https://dc.lft.to/lastmile_qr_scan"}, "bike_id": "751da1503d3cad2d64dc05f528029c4d", "type": "electric_bike", "lon": -77.0694875, "is_reserved": 0, "fusion_lat": 0.0, "fusion_lon": 0.0}, {"name": "1bcf0d3a6c5846b16b8ee27ad3312708", "is_disabled": 0, "lat": 38.897344333333336, "rental_uris": {"ios": "https://dc.lft.to/lastmile_qr_scan", "android": "https://dc.lft.to/lastmile_qr_scan"}, "bike_id": "1bcf0d3a6c5846b16b8ee27ad3312708", "type": "electric_scooter", "lon": -77.04737383333334, "is_reserved": 0, "fusion_lat": 0.0, "fusion_lon": 0.0}, {"name": "aad68e317fba4bb0c15b0ab2de833a41", "is_disabled": 0, "lat": 38.92126716666667, "rental_uris": {"ios": "https://dc.lft.to/lastmile_qr_scan", "android": "https://dc.lft.to/lastmile_qr_scan"}, "bike_id": "aad68e317fba4bb0c15b0ab2de833a41", "type": "electric_scooter", "lon": -77.042248, "is_reserved": 0, "fusion_lat": 0.0, "fusion_lon": 0.0}, {"name": "cf31d32f6fe84b09a2433942b06a30f6", "is_disabled": 0, "lat": 38.906629833333334, "rental_uris": {"ios": "https://dc.lft.to/lastmile_qr_scan", "android": "https://dc.lft.to/lastmile_qr_scan"}, "bike_id": "cf31d32f6fe84b09a2433942b06a30f6", "type": "electric_scooter", "lon": -77.0096, "is_reserved": 0, "fusion_lat": 0.0, "fusion_lon": 0.0}, {"name": "eb1a6dfd5fbbcaff954187816de669e2", "is_disabled": 0, "lat": 38.9201835, "rental_uris": {"ios": "https://dc.lft.to/lastmile_qr_scan", "android": "https://dc.lft.to/lastmile_qr_scan"}, "bike_id": "eb1a6dfd5fbbcaff954187816de669e2", "type": "electric_scooter", "lon": -77.04399616666667, "is_reserved": 0, "fusion_lat": 0.0, "fusion_lon": 0.0}, {"name": "5d13b74797349cdf4e8182530db6a82a", "is_disabled": 0, "lat": 38.924881666666664, "rental_uris": {"ios": "https://dc.lft.to/lastmile_qr_scan", "android": "https://dc.lft.to/lastmile_qr_scan"}, "bike_id": "5d13b74797349cdf4e8182530db6a82a", "type": "electric_scooter", "lon": -77.0213865, "is_reserved": 0, "fusion_lat": 0.0, "fusion_lon": 0.0}, {"name": "b5a3d177fd51c0b5725c2a736fb6e45c", "is_disabled": 0, "lat": 38.934883666666664, "rental_uris": {"ios": "https://dc.lft.to/lastmile_qr_scan", "android": "https://dc.lft.to/lastmile_qr_scan"}, "bike_id": "b5a3d177fd51c0b5725c2a736fb6e45c", "type": "electric_scooter", "lon": -77.0727265, "is_reserved": 0, "fusion_lat": 0.0, "fusion_lon": 0.0}, {"name": "2b359c8ff10f09918e317a782a2e0c25", "is_disabled": 0, "lat": 38.9186295, "rental_uris": {"ios": "https://dc.lft.to/lastmile_qr_scan", "android": "https://dc.lft.to/lastmile_qr_scan"}, "bike_id": "2b359c8ff10f09918e317a782a2e0c25", "type": "electric_bike", "lon": -76.96090166666667, "is_reserved": 0, "fusion_lat": 0.0, "fusion_lon": 0.0}, {"name": "703655cae7964b50ee2e1182ab6e0617", "is_disabled": 0, "lat": 38.91540333333333, "rental_uris": {"ios": "https://dc.lft.to/lastmile_qr_scan", "android": "https://dc.lft.to/lastmile_qr_scan"}, "bike_id": "703655cae7964b50ee2e1182ab6e0617", "type": "electric_scooter", "lon": -77.01216016666666, "is_reserved": 0, "fusion_lat": 0.0, "fusion_lon": 0.0}, {"name": "01280be976ca53a0dfc5bfffc2a1788d", "is_disabled": 0, "lat": 38.93770116666666, "rental_uris": {"ios": "https://dc.lft.to/lastmile_qr_scan", "android": "https://dc.lft.to/lastmile_qr_scan"}, "bike_id": "01280be976ca53a0dfc5bfffc2a1788d", "type": "electric_scooter", "lon": -77.03263533333333, "is_reserved": 0, "fusion_lat": 0.0, "fusion_lon": 0.0}, {"name": "8b4c15c622f5909b527859511cb99879", "is_disabled": 0, "lat": 38.902960666666665, "rental_uris": {"ios": "https://dc.lft.to/lastmile_qr_scan", "android": "https://dc.lft.to/lastmile_qr_scan"}, "bike_id": "8b4c15c622f5909b527859511cb99879", "type": "electric_scooter", "lon": -77.00611666666667, "is_reserved": 0, "fusion_lat": 0.0, "fusion_lon": 0.0}, {"name": "7280fac67aaac5bda35365a68c56e0c1", "is_disabled": 0, "lat": 38.9208825, "rental_uris": {"ios": "https://dc.lft.to/lastmile_qr_scan", "android": "https://dc.lft.to/lastmile_qr_scan"}, "bike_id": "7280fac67aaac5bda35365a68c56e0c1", "type": "electric_scooter", "lon": -77.0251345, "is_reserved": 0, "fusion_lat": 0.0, "fusion_lon": 0.0}, {"name": "67705b8b0fbe84a08beb64745e707ec6", "is_disabled": 0, "lat": 38.9154895, "rental_uris": {"ios": "https://dc.lft.to/lastmile_qr_scan", "android": "https://dc.lft.to/lastmile_qr_scan"}, "bike_id": "67705b8b0fbe84a08beb64745e707ec6", "type": "electric_scooter", "lon": -77.03853966666667, "is_reserved": 0, "fusion_lat": 0.0, "fusion_lon": 0.0}, {"name": "7968e87c9ed0e6253f2464d3c896c892", "is_disabled": 0, "lat": 38.99861283333333, "rental_uris": {"ios": "https://dc.lft.to/lastmile_qr_scan", "android": "https://dc.lft.to/lastmile_qr_scan"}, "bike_id": "7968e87c9ed0e6253f2464d3c896c892", "type": "electric_bike", "lon": -77.0268705, "is_reserved": 0, "fusion_lat": 0.0, "fusion_lon": 0.0}, {"name": "3dacc0a26938082a2e94e7b63860e248", "is_disabled": 0, "lat": 38.9156265, "rental_uris": {"ios": "https://dc.lft.to/lastmile_qr_scan", "android": "https://dc.lft.to/lastmile_qr_scan"}, "bike_id": "3dacc0a26938082a2e94e7b63860e248", "type": "electric_scooter", "lon": -77.0105805, "is_reserved": 0, "fusion_lat": 0.0, "fusion_lon": 0.0}, {"name": "c393dc79371ee37d7dcde48fa3856610", "is_disabled": 0, "lat": 38.919944666666666, "rental_uris": {"ios": "https://dc.lft.to/lastmile_qr_scan", "android": "https://dc.lft.to/lastmile_qr_scan"}, "bike_id": "c393dc79371ee37d7dcde48fa3856610", "type": "electric_scooter", "lon": -77.03284366666666, "is_reserved": 0, "fusion_lat": 0.0, "fusion_lon": 0.0}, {"name": "402918405f9725f3bc463875624b9e1e", "is_disabled": 0, "lat": 38.9097295, "rental_uris": {"ios": "https://dc.lft.to/lastmile_qr_scan", "android": "https://dc.lft.to/lastmile_qr_scan"}, "bike_id": "402918405f9725f3bc463875624b9e1e", "type": "electric_scooter", "lon": -77.026838, "is_reserved": 0, "fusion_lat": 0.0, "fusion_lon": 0.0}, {"name": "f9b4bb33bf959e65b43ea08ed145c8a1", "is_disabled": 0, "lat": 38.92683533333334, "rental_uris": {"ios": "https://dc.lft.to/lastmile_qr_scan", "android": "https://dc.lft.to/lastmile_qr_scan"}, "bike_id": "f9b4bb33bf959e65b43ea08ed145c8a1", "type": "electric_scooter", "lon": -77.02990966666667, "is_reserved": 0, "fusion_lat": 0.0, "fusion_lon": 0.0}, {"name": "4f8ece7b2323130f3068d7ffadcd3313", "is_disabled": 0, "lat": 38.92077183333333, "rental_uris": {"ios": "https://dc.lft.to/lastmile_qr_scan", "android": "https://dc.lft.to/lastmile_qr_scan"}, "bike_id": "4f8ece7b2323130f3068d7ffadcd3313", "type": "electric_bike", "lon": -76.98946666666667, "is_reserved": 0, "fusion_lat": 0.0, "fusion_lon": 0.0}, {"name": "316246ec86c208263158f64a34af768f", "is_disabled": 0, "lat": 38.90782133333333, "rental_uris": {"ios": "https://dc.lft.to/lastmile_qr_scan", "android": "https://dc.lft.to/lastmile_qr_scan"}, "bike_id": "316246ec86c208263158f64a34af768f", "type": "electric_scooter", "lon": -77.03183966666667, "is_reserved": 0, "fusion_lat": 0.0, "fusion_lon": 0.0}, {"name": "61bb9c3179b4cdb4b238e8cd8d936738", "is_disabled": 0, "lat": 38.905766666666665, "rental_uris": {"ios": "https://dc.lft.to/lastmile_qr_scan", "android": "https://dc.lft.to/lastmile_qr_scan"}, "bike_id": "61bb9c3179b4cdb4b238e8cd8d936738", "type": "electric_scooter", "lon": -77.04591133333334, "is_reserved": 0, "fusion_lat": 0.0, "fusion_lon": 0.0}, {"name": "fe71c1cbb3dacd917aaf07d5c37b5262", "is_disabled": 0, "lat": 38.88540883333334, "rental_uris": {"ios": "https://dc.lft.to/lastmile_qr_scan", "android": "https://dc.lft.to/lastmile_qr_scan"}, "bike_id": "fe71c1cbb3dacd917aaf07d5c37b5262", "type": "electric_scooter", "lon": -76.97890816666667, "is_reserved": 0, "fusion_lat": 0.0, "fusion_lon": 0.0}, {"name": "1bdde911a06ec5870fcd762165edfc69", "is_disabled": 0, "lat": 38.90034766666667, "rental_uris": {"ios": "https://dc.lft.to/lastmile_qr_scan", "android": "https://dc.lft.to/lastmile_qr_scan"}, "bike_id": "1bdde911a06ec5870fcd762165edfc69", "type": "electric_scooter", "lon": -77.01187833333333, "is_reserved": 0, "fusion_lat": 0.0, "fusion_lon": 0.0}, {"name": "e54f7249e75f803d0408857d338f9fc1", "is_disabled": 0, "lat": 38.870832666666665, "rental_uris": {"ios": "https://dc.lft.to/lastmile_qr_scan", "android": "https://dc.lft.to/lastmile_qr_scan"}, "bike_id": "e54f7249e75f803d0408857d338f9fc1", "type": "electric_scooter", "lon": -77.013794, "is_reserved": 0, "fusion_lat": 0.0, "fusion_lon": 0.0}, {"name": "06b39e26899471454be8de0c65c17d13", "is_disabled": 0, "lat": 38.88735916666667, "rental_uris": {"ios": "https://dc.lft.to/lastmile_qr_scan", "android": "https://dc.lft.to/lastmile_qr_scan"}, "bike_id": "06b39e26899471454be8de0c65c17d13", "type": "electric_scooter", "lon": -77.00321516666666, "is_reserved": 0, "fusion_lat": 0.0, "fusion_lon": 0.0}, {"name": "b71cce8932335ee78f714d9fb5b66989", "is_disabled": 0, "lat": 38.860413333333334, "rental_uris": {"ios": "https://dc.lft.to/lastmile_qr_scan", "android": "https://dc.lft.to/lastmile_qr_scan"}, "bike_id": "b71cce8932335ee78f714d9fb5b66989", "type": "electric_scooter", "lon": -77.00347583333334, "is_reserved": 0, "fusion_lat": 0.0, "fusion_lon": 0.0}, {"name": "4462ab0c5ecaebe7cf18494eb766a537", "is_disabled": 0, "lat": 38.887479, "rental_uris": {"ios": "https://dc.lft.to/lastmile_qr_scan", "android": "https://dc.lft.to/lastmile_qr_scan"}, "bike_id": "4462ab0c5ecaebe7cf18494eb766a537", "type": "electric_scooter", "lon": -77.01783466666667, "is_reserved": 0, "fusion_lat": 0.0, "fusion_lon": 0.0}, {"name": "32c2b47635bc8cacd5ad554f7b1d14f7", "is_disabled": 0, "lat": 38.92724416666667, "rental_uris": {"ios": "https://dc.lft.to/lastmile_qr_scan", "android": "https://dc.lft.to/lastmile_qr_scan"}, "bike_id": "32c2b47635bc8cacd5ad554f7b1d14f7", "type": "electric_scooter", "lon": -77.03061583333333, "is_reserved": 0, "fusion_lat": 0.0, "fusion_lon": 0.0}, {"name": "f3a679ce964c5dfa4ae490457e0b6b47", "is_disabled": 0, "lat": 38.8736685, "rental_uris": {"ios": "https://dc.lft.to/lastmile_qr_scan", "android": "https://dc.lft.to/lastmile_qr_scan"}, "bike_id": "f3a679ce964c5dfa4ae490457e0b6b47", "type": "electric_scooter", "lon": -77.00124616666666, "is_reserved": 0, "fusion_lat": 0.0, "fusion_lon": 0.0}, {"name": "a5e16bc1c286c4e1febc7a98fef6d5f1", "is_disabled": 0, "lat": 38.879542666666666, "rental_uris": {"ios": "https://dc.lft.to/lastmile_qr_scan", "android": "https://dc.lft.to/lastmile_qr_scan"}, "bike_id": "a5e16bc1c286c4e1febc7a98fef6d5f1", "type": "electric_scooter", "lon": -77.00605316666666, "is_reserved": 0, "fusion_lat": 0.0, "fusion_lon": 0.0}, {"name": "1a8414fed258d6c75925fb626fb3404c", "is_disabled": 0, "lat": 38.8928115, "rental_uris": {"ios": "https://dc.lft.to/lastmile_qr_scan", "android": "https://dc.lft.to/lastmile_qr_scan"}, "bike_id": "1a8414fed258d6c75925fb626fb3404c", "type": "electric_scooter", "lon": -76.93003166666666, "is_reserved": 0, "fusion_lat": 0.0, "fusion_lon": 0.0}, {"name": "c469259dbe00367ef42fab263105cd59", "is_disabled": 0, "lat": 38.90109016666667, "rental_uris": {"ios": "https://dc.lft.to/lastmile_qr_scan", "android": "https://dc.lft.to/lastmile_qr_scan"}, "bike_id": "c469259dbe00367ef42fab263105cd59", "type": "electric_scooter", "lon": -77.04994066666667, "is_reserved": 0, "fusion_lat": 0.0, "fusion_lon": 0.0}, {"name": "02304e1ec82052ae18add9c474db7e33", "is_disabled": 0, "lat": 38.907468, "rental_uris": {"ios": "https://dc.lft.to/lastmile_qr_scan", "android": "https://dc.lft.to/lastmile_qr_scan"}, "bike_id": "02304e1ec82052ae18add9c474db7e33", "type": "electric_scooter", "lon": -76.935518, "is_reserved": 0, "fusion_lat": 0.0, "fusion_lon": 0.0}, {"name": "31816ce851056ba828cb337066acb2ba", "is_disabled": 0, "lat": 38.9040445, "rental_uris": {"ios": "https://dc.lft.to/lastmile_qr_scan", "android": "https://dc.lft.to/lastmile_qr_scan"}, "bike_id": "31816ce851056ba828cb337066acb2ba", "type": "electric_scooter", "lon": -77.06809866666667, "is_reserved": 0, "fusion_lat": 0.0, "fusion_lon": 0.0}, {"name": "ebfa28c09db301dff711a4c4b37d2995", "is_disabled": 0, "lat": 38.926687, "rental_uris": {"ios": "https://dc.lft.to/lastmile_qr_scan", "android": "https://dc.lft.to/lastmile_qr_scan"}, "bike_id": "ebfa28c09db301dff711a4c4b37d2995", "type": "electric_scooter", "lon": -77.01471816666667, "is_reserved": 0, "fusion_lat": 0.0, "fusion_lon": 0.0}, {"name": "d85c4d62f57e6449bd87faf8467afbab", "is_disabled": 0, "lat": 38.922345166666666, "rental_uris": {"ios": "https://dc.lft.to/lastmile_qr_scan", "android": "https://dc.lft.to/lastmile_qr_scan"}, "bike_id": "d85c4d62f57e6449bd87faf8467afbab", "type": "electric_scooter", "lon": -77.04243116666666, "is_reserved": 0, "fusion_lat": 0.0, "fusion_lon": 0.0}, {"name": "f30c0f96a5d043182130067d9276f38e", "is_disabled": 0, "lat": 38.81248183333334, "rental_uris": {"ios": "https://dc.lft.to/lastmile_qr_scan", "android": "https://dc.lft.to/lastmile_qr_scan"}, "bike_id": "f30c0f96a5d043182130067d9276f38e", "type": "electric_bike", "lon": -77.11778416666667, "is_reserved": 0, "fusion_lat": 0.0, "fusion_lon": 0.0}, {"name": "c1f3901af60d451d4fd0378d0008d8d7", "is_disabled": 0, "lat": 38.8076285, "rental_uris": {"ios": "https://dc.lft.to/lastmile_qr_scan", "android": "https://dc.lft.to/lastmile_qr_scan"}, "bike_id": "c1f3901af60d451d4fd0378d0008d8d7", "type": "electric_bike", "lon": -77.09467216666667, "is_reserved": 0, "fusion_lat": 0.0, "fusion_lon": 0.0}, {"name": "2e6f3c961923602db6aae0cb6960db75", "is_disabled": 0, "lat": 38.89224883333333, "rental_uris": {"ios": "https://dc.lft.to/lastmile_qr_scan", "android": "https://dc.lft.to/lastmile_qr_scan"}, "bike_id": "2e6f3c961923602db6aae0cb6960db75", "type": "electric_scooter", "lon": -77.03337733333333, "is_reserved": 0, "fusion_lat": 0.0, "fusion_lon": 0.0}, {"name": "d402f75cd5649c531b3c2502ca309ac8", "is_disabled": 0, "lat": 38.900401, "rental_uris": {"ios": "https://dc.lft.to/lastmile_qr_scan", "android": "https://dc.lft.to/lastmile_qr_scan"}, "bike_id": "d402f75cd5649c531b3c2502ca309ac8", "type": "electric_scooter", "lon": -76.99148983333333, "is_reserved": 0, "fusion_lat": 0.0, "fusion_lon": 0.0}, {"name": "d6504eec38671b0485f2c3302e90c7e2", "is_disabled": 0, "lat": 38.89312016666667, "rental_uris": {"ios": "https://dc.lft.to/lastmile_qr_scan", "android": "https://dc.lft.to/lastmile_qr_scan"}, "bike_id": "d6504eec38671b0485f2c3302e90c7e2", "type": "electric_bike", "lon": -76.95093283333334, "is_reserved": 0, "fusion_lat": 0.0, "fusion_lon": 0.0}, {"name": "fbe6b442c99ae11625662da6466182c2", "is_disabled": 0, "lat": 38.892214333333335, "rental_uris": {"ios": "https://dc.lft.to/lastmile_qr_scan", "android": "https://dc.lft.to/lastmile_qr_scan"}, "bike_id": "fbe6b442c99ae11625662da6466182c2", "type": "electric_scooter", "lon": -77.02655266666666, "is_reserved": 0, "fusion_lat": 0.0, "fusion_lon": 0.0}, {"name": "2a5455806633648295a766e8fa84db6f", "is_disabled": 0, "lat": 38.90624916666667, "rental_uris": {"ios": "https://dc.lft.to/lastmile_qr_scan", "android": "https://dc.lft.to/lastmile_qr_scan"}, "bike_id": "2a5455806633648295a766e8fa84db6f", "type": "electric_scooter", "lon": -77.0259745, "is_reserved": 0, "fusion_lat": 0.0, "fusion_lon": 0.0}, {"name": "5e9e545082bc9215c153b8afeac20d8f", "is_disabled": 0, "lat": 38.92597383333333, "rental_uris": {"ios": "https://dc.lft.to/lastmile_qr_scan", "android": "https://dc.lft.to/lastmile_qr_scan"}, "bike_id": "5e9e545082bc9215c153b8afeac20d8f", "type": "electric_bike", "lon": -77.21010666666666, "is_reserved": 0, "fusion_lat": 0.0, "fusion_lon": 0.0}, {"name": "5af34b2ae83f206d9f8b423f04ccfadc", "is_disabled": 0, "lat": 38.90966983333333, "rental_uris": {"ios": "https://dc.lft.to/lastmile_qr_scan", "android": "https://dc.lft.to/lastmile_qr_scan"}, "bike_id": "5af34b2ae83f206d9f8b423f04ccfadc", "type": "electric_scooter", "lon": -77.04040833333333, "is_reserved": 0, "fusion_lat": 0.0, "fusion_lon": 0.0}, {"name": "9318f906f49addf7d4a499214c38b335", "is_disabled": 0, "lat": 38.844952, "rental_uris": {"ios": "https://dc.lft.to/lastmile_qr_scan", "android": "https://dc.lft.to/lastmile_qr_scan"}, "bike_id": "9318f906f49addf7d4a499214c38b335", "type": "electric_scooter", "lon": -76.99599483333333, "is_reserved": 0, "fusion_lat": 0.0, "fusion_lon": 0.0}, {"name": "2fc5454d185404edc95907cb9bba0168", "is_disabled": 0, "lat": 38.87397133333333, "rental_uris": {"ios": "https://dc.lft.to/lastmile_qr_scan", "android": "https://dc.lft.to/lastmile_qr_scan"}, "bike_id": "2fc5454d185404edc95907cb9bba0168", "type": "electric_scooter", "lon": -77.0145285, "is_reserved": 0, "fusion_lat": 0.0, "fusion_lon": 0.0}, {"name": "0b797158bb3d4d0880417d895bd6991a", "is_disabled": 0, "lat": 38.8876665, "rental_uris": {"ios": "https://dc.lft.to/lastmile_qr_scan", "android": "https://dc.lft.to/lastmile_qr_scan"}, "bike_id": "0b797158bb3d4d0880417d895bd6991a", "type": "electric_scooter", "lon": -77.01304566666667, "is_reserved": 0, "fusion_lat": 0.0, "fusion_lon": 0.0}, {"name": "9d6ea237ff245f63572e63e906b06adf", "is_disabled": 0, "lat": 38.900248166666664, "rental_uris": {"ios": "https://dc.lft.to/lastmile_qr_scan", "android": "https://dc.lft.to/lastmile_qr_scan"}, "bike_id": "9d6ea237ff245f63572e63e906b06adf", "type": "electric_scooter", "lon": -76.99972983333333, "is_reserved": 0, "fusion_lat": 0.0, "fusion_lon": 0.0}, {"name": "8d28c599beec90ff7c6b8cdd52756509", "is_disabled": 0, "lat": 38.9057375, "rental_uris": {"ios": "https://dc.lft.to/lastmile_qr_scan", "android": "https://dc.lft.to/lastmile_qr_scan"}, "bike_id": "8d28c599beec90ff7c6b8cdd52756509", "type": "electric_scooter", "lon": -77.00542916666667, "is_reserved": 0, "fusion_lat": 0.0, "fusion_lon": 0.0}, {"name": "97a1726f2655bf26082470e309bad018", "is_disabled": 0, "lat": 38.926916166666665, "rental_uris": {"ios": "https://dc.lft.to/lastmile_qr_scan", "android": "https://dc.lft.to/lastmile_qr_scan"}, "bike_id": "97a1726f2655bf26082470e309bad018", "type": "electric_scooter", "lon": -77.02182966666666, "is_reserved": 0, "fusion_lat": 0.0, "fusion_lon": 0.0}, {"name": "657d9990f5d31add0c226899af48ead0", "is_disabled": 0, "lat": 38.90851983333334, "rental_uris": {"ios": "https://dc.lft.to/lastmile_qr_scan", "android": "https://dc.lft.to/lastmile_qr_scan"}, "bike_id": "657d9990f5d31add0c226899af48ead0", "type": "electric_scooter", "lon": -77.02717666666666, "is_reserved": 0, "fusion_lat": 0.0, "fusion_lon": 0.0}, {"name": "7f9fe2e84b31a1de599811592404d4a9", "is_disabled": 0, "lat": 38.911112, "rental_uris": {"ios": "https://dc.lft.to/lastmile_qr_scan", "android": "https://dc.lft.to/lastmile_qr_scan"}, "bike_id": "7f9fe2e84b31a1de599811592404d4a9", "type": "electric_scooter", "lon": -77.04543666666666, "is_reserved": 0, "fusion_lat": 0.0, "fusion_lon": 0.0}, {"name": "3cd44df3375acacef8fc9846773189e0", "is_disabled": 0, "lat": 38.92962683333333, "rental_uris": {"ios": "https://dc.lft.to/lastmile_qr_scan", "android": "https://dc.lft.to/lastmile_qr_scan"}, "bike_id": "3cd44df3375acacef8fc9846773189e0", "type": "electric_scooter", "lon": -77.0114775, "is_reserved": 0, "fusion_lat": 0.0, "fusion_lon": 0.0}, {"name": "e082942aec80be5d1737f1dff94fa206", "is_disabled": 0, "lat": 38.899237, "rental_uris": {"ios": "https://dc.lft.to/lastmile_qr_scan", "android": "https://dc.lft.to/lastmile_qr_scan"}, "bike_id": "e082942aec80be5d1737f1dff94fa206", "type": "electric_scooter", "lon": -77.01270516666666, "is_reserved": 0, "fusion_lat": 0.0, "fusion_lon": 0.0}, {"name": "8fc09a35fd86a558848a35678d0119fb", "is_disabled": 0, "lat": 38.89961133333333, "rental_uris": {"ios": "https://dc.lft.to/lastmile_qr_scan", "android": "https://dc.lft.to/lastmile_qr_scan"}, "bike_id": "8fc09a35fd86a558848a35678d0119fb", "type": "electric_scooter", "lon": -77.02181733333333, "is_reserved": 0, "fusion_lat": 0.0, "fusion_lon": 0.0}, {"name": "00b34ab92b8f5a761ba8d50f7e55da14", "is_disabled": 0, "lat": 38.922518833333335, "rental_uris": {"ios": "https://dc.lft.to/lastmile_qr_scan", "android": "https://dc.lft.to/lastmile_qr_scan"}, "bike_id": "00b34ab92b8f5a761ba8d50f7e55da14", "type": "electric_scooter", "lon": -77.0425725, "is_reserved": 0, "fusion_lat": 0.0, "fusion_lon": 0.0}, {"name": "b2b8636996907d929c61a08ef9b9ba1f", "is_disabled": 0, "lat": 38.884343, "rental_uris": {"ios": "https://dc.lft.to/lastmile_qr_scan", "android": "https://dc.lft.to/lastmile_qr_scan"}, "bike_id": "b2b8636996907d929c61a08ef9b9ba1f", "type": "electric_scooter", "lon": -77.00707683333333, "is_reserved": 0, "fusion_lat": 0.0, "fusion_lon": 0.0}, {"name": "7c827917c59003ba2ee5a7d7ecbaff50", "is_disabled": 0, "lat": 38.8278615, "rental_uris": {"ios": "https://dc.lft.to/lastmile_qr_scan", "android": "https://dc.lft.to/lastmile_qr_scan"}, "bike_id": "7c827917c59003ba2ee5a7d7ecbaff50", "type": "electric_bike", "lon": -77.12485233333334, "is_reserved": 0, "fusion_lat": 0.0, "fusion_lon": 0.0}, {"name": "e20516921269aa7673e78a326a4c2f41", "is_disabled": 0, "lat": 38.90878516666667, "rental_uris": {"ios": "https://dc.lft.to/lastmile_qr_scan", "android": "https://dc.lft.to/lastmile_qr_scan"}, "bike_id": "e20516921269aa7673e78a326a4c2f41", "type": "electric_scooter", "lon": -77.04330083333333, "is_reserved": 0, "fusion_lat": 0.0, "fusion_lon": 0.0}, {"name": "163455f2fa0944a939884170ea686f19", "is_disabled": 0, "lat": 38.87964433333333, "rental_uris": {"ios": "https://dc.lft.to/lastmile_qr_scan", "android": "https://dc.lft.to/lastmile_qr_scan"}, "bike_id": "163455f2fa0944a939884170ea686f19", "type": "electric_scooter", "lon": -76.9853565, "is_reserved": 0, "fusion_lat": 0.0, "fusion_lon": 0.0}, {"name": "d135ccad81947992ebcd5f284624de5a", "is_disabled": 0, "lat": 38.939586, "rental_uris": {"ios": "https://dc.lft.to/lastmile_qr_scan", "android": "https://dc.lft.to/lastmile_qr_scan"}, "bike_id": "d135ccad81947992ebcd5f284624de5a", "type": "electric_scooter", "lon": -77.032913, "is_reserved": 0, "fusion_lat": 0.0, "fusion_lon": 0.0}, {"name": "45c89156e91c76a7725aaf4fd3a2120d", "is_disabled": 0, "lat": 38.921393, "rental_uris": {"ios": "https://dc.lft.to/lastmile_qr_scan", "android": "https://dc.lft.to/lastmile_qr_scan"}, "bike_id": "45c89156e91c76a7725aaf4fd3a2120d", "type": "electric_scooter", "lon": -77.0121945, "is_reserved": 0, "fusion_lat": 0.0, "fusion_lon": 0.0}, {"name": "56dd3f8f1412b6d25846d4ab2172ec28", "is_disabled": 0, "lat": 38.91768883333334, "rental_uris": {"ios": "https://dc.lft.to/lastmile_qr_scan", "android": "https://dc.lft.to/lastmile_qr_scan"}, "bike_id": "56dd3f8f1412b6d25846d4ab2172ec28", "type": "electric_scooter", "lon": -77.0385275, "is_reserved": 0, "fusion_lat": 0.0, "fusion_lon": 0.0}, {"name": "9dc1a4f704828474a47b4a47d238807b", "is_disabled": 0, "lat": 38.923398166666665, "rental_uris": {"ios": "https://dc.lft.to/lastmile_qr_scan", "android": "https://dc.lft.to/lastmile_qr_scan"}, "bike_id": "9dc1a4f704828474a47b4a47d238807b", "type": "electric_scooter", "lon": -77.01899366666666, "is_reserved": 0, "fusion_lat": 0.0, "fusion_lon": 0.0}, {"name": "b9776aafd049a124fa2c7f936d81565c", "is_disabled": 0, "lat": 38.90448333333333, "rental_uris": {"ios": "https://dc.lft.to/lastmile_qr_scan", "android": "https://dc.lft.to/lastmile_qr_scan"}, "bike_id": "b9776aafd049a124fa2c7f936d81565c", "type": "electric_scooter", "lon": -77.04885783333333, "is_reserved": 0, "fusion_lat": 0.0, "fusion_lon": 0.0}, {"name": "dbee9f55202ee90c813e655d2cd2ab38", "is_disabled": 0, "lat": 38.91578033333333, "rental_uris": {"ios": "https://dc.lft.to/lastmile_qr_scan", "android": "https://dc.lft.to/lastmile_qr_scan"}, "bike_id": "dbee9f55202ee90c813e655d2cd2ab38", "type": "electric_scooter", "lon": -76.983945, "is_reserved": 0, "fusion_lat": 0.0, "fusion_lon": 0.0}, {"name": "fc1513dd99626b9369555b49dbdc91a6", "is_disabled": 0, "lat": 38.918670166666665, "rental_uris": {"ios": "https://dc.lft.to/lastmile_qr_scan", "android": "https://dc.lft.to/lastmile_qr_scan"}, "bike_id": "fc1513dd99626b9369555b49dbdc91a6", "type": "electric_scooter", "lon": -77.03660016666667, "is_reserved": 0, "fusion_lat": 0.0, "fusion_lon": 0.0}, {"name": "8d6f0260a2a7595377eefbcad96c1f43", "is_disabled": 0, "lat": 38.887153, "rental_uris": {"ios": "https://dc.lft.to/lastmile_qr_scan", "android": "https://dc.lft.to/lastmile_qr_scan"}, "bike_id": "8d6f0260a2a7595377eefbcad96c1f43", "type": "electric_scooter", "lon": -77.02582033333333, "is_reserved": 0, "fusion_lat": 0.0, "fusion_lon": 0.0}, {"name": "7c124574fd9d53f37ff46a4b26c204a6", "is_disabled": 0, "lat": 38.9031255, "rental_uris": {"ios": "https://dc.lft.to/lastmile_qr_scan", "android": "https://dc.lft.to/lastmile_qr_scan"}, "bike_id": "7c124574fd9d53f37ff46a4b26c204a6", "type": "electric_scooter", "lon": -76.9780195, "is_reserved": 0, "fusion_lat": 0.0, "fusion_lon": 0.0}, {"name": "b54389520940a53ae9e826eec8a3e3c2", "is_disabled": 0, "lat": 38.9127985, "rental_uris": {"ios": "https://dc.lft.to/lastmile_qr_scan", "android": "https://dc.lft.to/lastmile_qr_scan"}, "bike_id": "b54389520940a53ae9e826eec8a3e3c2", "type": "electric_scooter", "lon": -77.03662783333333, "is_reserved": 0, "fusion_lat": 0.0, "fusion_lon": 0.0}, {"name": "2986789afd90a95bc4993e942f39a1ba", "is_disabled": 0, "lat": 38.912165, "rental_uris": {"ios": "https://dc.lft.to/lastmile_qr_scan", "android": "https://dc.lft.to/lastmile_qr_scan"}, "bike_id": "2986789afd90a95bc4993e942f39a1ba", "type": "electric_scooter", "lon": -77.031832, "is_reserved": 0, "fusion_lat": 0.0, "fusion_lon": 0.0}, {"name": "d090ebc2da04ccafa6a730b225b1dba4", "is_disabled": 0, "lat": 38.92531683333333, "rental_uris": {"ios": "https://dc.lft.to/lastmile_qr_scan", "android": "https://dc.lft.to/lastmile_qr_scan"}, "bike_id": "d090ebc2da04ccafa6a730b225b1dba4", "type": "electric_scooter", "lon": -77.04117616666667, "is_reserved": 0, "fusion_lat": 0.0, "fusion_lon": 0.0}, {"name": "43efd215d05b4110a0dd2df646069b1d", "is_disabled": 0, "lat": 38.879515833333336, "rental_uris": {"ios": "https://dc.lft.to/lastmile_qr_scan", "android": "https://dc.lft.to/lastmile_qr_scan"}, "bike_id": "43efd215d05b4110a0dd2df646069b1d", "type": "electric_scooter", "lon": -77.00616733333334, "is_reserved": 0, "fusion_lat": 0.0, "fusion_lon": 0.0}, {"name": "750b5b8a3d42af38f752214ca0c6e6c9", "is_disabled": 0, "lat": 38.821782, "rental_uris": {"ios": "https://dc.lft.to/lastmile_qr_scan", "android": "https://dc.lft.to/lastmile_qr_scan"}, "bike_id": "750b5b8a3d42af38f752214ca0c6e6c9", "type": "electric_bike", "lon": -77.00144033333333, "is_reserved": 0, "fusion_lat": 0.0, "fusion_lon": 0.0}, {"name": "f627b7bc344ad33a230647edbf0b19ea", "is_disabled": 0, "lat": 38.91034533333333, "rental_uris": {"ios": "https://dc.lft.to/lastmile_qr_scan", "android": "https://dc.lft.to/lastmile_qr_scan"}, "bike_id": "f627b7bc344ad33a230647edbf0b19ea", "type": "electric_scooter", "lon": -76.99344733333334, "is_reserved": 0, "fusion_lat": 0.0, "fusion_lon": 0.0}, {"name": "8ea933ab540a775b882aa1c199e5af7f", "is_disabled": 0, "lat": 38.90057083333333, "rental_uris": {"ios": "https://dc.lft.to/lastmile_qr_scan", "android": "https://dc.lft.to/lastmile_qr_scan"}, "bike_id": "8ea933ab540a775b882aa1c199e5af7f", "type": "electric_scooter", "lon": -77.0500055, "is_reserved": 0, "fusion_lat": 0.0, "fusion_lon": 0.0}, {"name": "c65d2854ef9b4031bccf8881e6f8a493", "is_disabled": 0, "lat": 38.90393183333333, "rental_uris": {"ios": "https://dc.lft.to/lastmile_qr_scan", "android": "https://dc.lft.to/lastmile_qr_scan"}, "bike_id": "c65d2854ef9b4031bccf8881e6f8a493", "type": "electric_scooter", "lon": -76.99010066666666, "is_reserved": 0, "fusion_lat": 0.0, "fusion_lon": 0.0}, {"name": "d673fbfd2d78618cd3d7cc3cef33c036", "is_disabled": 0, "lat": 38.88372316666667, "rental_uris": {"ios": "https://dc.lft.to/lastmile_qr_scan", "android": "https://dc.lft.to/lastmile_qr_scan"}, "bike_id": "d673fbfd2d78618cd3d7cc3cef33c036", "type": "electric_scooter", "lon": -77.01954933333333, "is_reserved": 0, "fusion_lat": 0.0, "fusion_lon": 0.0}, {"name": "613ac3c8f22b8c8461f5fc473b33b28f", "is_disabled": 0, "lat": 38.918100833333334, "rental_uris": {"ios": "https://dc.lft.to/lastmile_qr_scan", "android": "https://dc.lft.to/lastmile_qr_scan"}, "bike_id": "613ac3c8f22b8c8461f5fc473b33b28f", "type": "electric_scooter", "lon": -77.040264, "is_reserved": 0, "fusion_lat": 0.0, "fusion_lon": 0.0}, {"name": "839dc356af7335969c7e7e1868b26312", "is_disabled": 0, "lat": 38.9198665, "rental_uris": {"ios": "https://dc.lft.to/lastmile_qr_scan", "android": "https://dc.lft.to/lastmile_qr_scan"}, "bike_id": "839dc356af7335969c7e7e1868b26312", "type": "electric_scooter", "lon": -77.02177216666666, "is_reserved": 0, "fusion_lat": 0.0, "fusion_lon": 0.0}, {"name": "e1a758dd0934b59e5ed31137c3a673c2", "is_disabled": 0, "lat": 38.91124116666667, "rental_uris": {"ios": "https://dc.lft.to/lastmile_qr_scan", "android": "https://dc.lft.to/lastmile_qr_scan"}, "bike_id": "e1a758dd0934b59e5ed31137c3a673c2", "type": "electric_scooter", "lon": -77.04406916666667, "is_reserved": 0, "fusion_lat": 0.0, "fusion_lon": 0.0}, {"name": "a3574f83327999896416a60f5d606770", "is_disabled": 0, "lat": 38.842784, "rental_uris": {"ios": "https://dc.lft.to/lastmile_qr_scan", "android": "https://dc.lft.to/lastmile_qr_scan"}, "bike_id": "a3574f83327999896416a60f5d606770", "type": "electric_bike", "lon": -76.98839616666666, "is_reserved": 0, "fusion_lat": 0.0, "fusion_lon": 0.0}, {"name": "99309dbb4e7669c2cf19dd9821dea5e0", "is_disabled": 0, "lat": 38.91116183333333, "rental_uris": {"ios": "https://dc.lft.to/lastmile_qr_scan", "android": "https://dc.lft.to/lastmile_qr_scan"}, "bike_id": "99309dbb4e7669c2cf19dd9821dea5e0", "type": "electric_scooter", "lon": -77.00605383333334, "is_reserved": 0, "fusion_lat": 0.0, "fusion_lon": 0.0}, {"name": "be4865d3767a573e7dcebb6f0ea680f7", "is_disabled": 0, "lat": 38.918128, "rental_uris": {"ios": "https://dc.lft.to/lastmile_qr_scan", "android": "https://dc.lft.to/lastmile_qr_scan"}, "bike_id": "be4865d3767a573e7dcebb6f0ea680f7", "type": "electric_scooter", "lon": -77.04004433333333, "is_reserved": 0, "fusion_lat": 0.0, "fusion_lon": 0.0}, {"name": "47924b43e379daa4cb91be59ef3beb89", "is_disabled": 0, "lat": 38.8954675, "rental_uris": {"ios": "https://dc.lft.to/lastmile_qr_scan", "android": "https://dc.lft.to/lastmile_qr_scan"}, "bike_id": "47924b43e379daa4cb91be59ef3beb89", "type": "electric_scooter", "lon": -76.98338783333334, "is_reserved": 0, "fusion_lat": 0.0, "fusion_lon": 0.0}, {"name": "f57592629104f4d128ff4a77a75281d2", "is_disabled": 0, "lat": 38.905762, "rental_uris": {"ios": "https://dc.lft.to/lastmile_qr_scan", "android": "https://dc.lft.to/lastmile_qr_scan"}, "bike_id": "f57592629104f4d128ff4a77a75281d2", "type": "electric_bike", "lon": -77.06274116666667, "is_reserved": 0, "fusion_lat": 0.0, "fusion_lon": 0.0}, {"name": "2a45ce1faba101b506b5d080a79e38c7", "is_disabled": 0, "lat": 38.90202, "rental_uris": {"ios": "https://dc.lft.to/lastmile_qr_scan", "android": "https://dc.lft.to/lastmile_qr_scan"}, "bike_id": "2a45ce1faba101b506b5d080a79e38c7", "type": "electric_scooter", "lon": -77.0236925, "is_reserved": 0, "fusion_lat": 0.0, "fusion_lon": 0.0}, {"name": "dc35d80d5a0986c3e48751c1b7dd5997", "is_disabled": 0, "lat": 38.896019, "rental_uris": {"ios": "https://dc.lft.to/lastmile_qr_scan", "android": "https://dc.lft.to/lastmile_qr_scan"}, "bike_id": "dc35d80d5a0986c3e48751c1b7dd5997", "type": "electric_scooter", "lon": -77.00927833333333, "is_reserved": 0, "fusion_lat": 0.0, "fusion_lon": 0.0}, {"name": "bb57ec37755ee0f27ffd402da23ff5ca", "is_disabled": 0, "lat": 38.896097166666664, "rental_uris": {"ios": "https://dc.lft.to/lastmile_qr_scan", "android": "https://dc.lft.to/lastmile_qr_scan"}, "bike_id": "bb57ec37755ee0f27ffd402da23ff5ca", "type": "electric_scooter", "lon": -77.02668216666666, "is_reserved": 0, "fusion_lat": 0.0, "fusion_lon": 0.0}, {"name": "8e032248acca251dedafd888135d2798", "is_disabled": 0, "lat": 38.857941, "rental_uris": {"ios": "https://dc.lft.to/lastmile_qr_scan", "android": "https://dc.lft.to/lastmile_qr_scan"}, "bike_id": "8e032248acca251dedafd888135d2798", "type": "electric_bike", "lon": -76.98723466666667, "is_reserved": 0, "fusion_lat": 0.0, "fusion_lon": 0.0}, {"name": "fe8134b3a3d9f3be9b68f02fd8527ed3", "is_disabled": 0, "lat": 38.91701533333333, "rental_uris": {"ios": "https://dc.lft.to/lastmile_qr_scan", "android": "https://dc.lft.to/lastmile_qr_scan"}, "bike_id": "fe8134b3a3d9f3be9b68f02fd8527ed3", "type": "electric_scooter", "lon": -77.03586383333334, "is_reserved": 0, "fusion_lat": 0.0, "fusion_lon": 0.0}, {"name": "40adbe63820a201f68d61b52ea9a0954", "is_disabled": 0, "lat": 38.906794166666664, "rental_uris": {"ios": "https://dc.lft.to/lastmile_qr_scan", "android": "https://dc.lft.to/lastmile_qr_scan"}, "bike_id": "40adbe63820a201f68d61b52ea9a0954", "type": "electric_bike", "lon": -77.03650916666666, "is_reserved": 0, "fusion_lat": 0.0, "fusion_lon": 0.0}, {"name": "b537c4ed5354d2e8c259a129e77dac54", "is_disabled": 0, "lat": 38.89243883333333, "rental_uris": {"ios": "https://dc.lft.to/lastmile_qr_scan", "android": "https://dc.lft.to/lastmile_qr_scan"}, "bike_id": "b537c4ed5354d2e8c259a129e77dac54", "type": "electric_scooter", "lon": -77.03184283333333, "is_reserved": 0, "fusion_lat": 0.0, "fusion_lon": 0.0}, {"name": "9d56b14bbae1eb4b119dc0df59323afd", "is_disabled": 0, "lat": 38.909317333333334, "rental_uris": {"ios": "https://dc.lft.to/lastmile_qr_scan", "android": "https://dc.lft.to/lastmile_qr_scan"}, "bike_id": "9d56b14bbae1eb4b119dc0df59323afd", "type": "electric_scooter", "lon": -76.99970766666667, "is_reserved": 0, "fusion_lat": 0.0, "fusion_lon": 0.0}, {"name": "7c64fedfd6d395d553e79e1b8160cd60", "is_disabled": 0, "lat": 38.9383165, "rental_uris": {"ios": "https://dc.lft.to/lastmile_qr_scan", "android": "https://dc.lft.to/lastmile_qr_scan"}, "bike_id": "7c64fedfd6d395d553e79e1b8160cd60", "type": "electric_scooter", "lon": -76.99189983333333, "is_reserved": 0, "fusion_lat": 0.0, "fusion_lon": 0.0}, {"name": "e11862eece70d1af0a10e22a4344ccca", "is_disabled": 0, "lat": 38.90572616666667, "rental_uris": {"ios": "https://dc.lft.to/lastmile_qr_scan", "android": "https://dc.lft.to/lastmile_qr_scan"}, "bike_id": "e11862eece70d1af0a10e22a4344ccca", "type": "electric_scooter", "lon": -77.0039365, "is_reserved": 0, "fusion_lat": 0.0, "fusion_lon": 0.0}, {"name": "a0d8a60874b232ebfc74689dd4e85c06", "is_disabled": 0, "lat": 38.901011, "rental_uris": {"ios": "https://dc.lft.to/lastmile_qr_scan", "android": "https://dc.lft.to/lastmile_qr_scan"}, "bike_id": "a0d8a60874b232ebfc74689dd4e85c06", "type": "electric_scooter", "lon": -77.03190016666667, "is_reserved": 0, "fusion_lat": 0.0, "fusion_lon": 0.0}, {"name": "d0a7efb44c55ffc5a9d79b5974fdd06e", "is_disabled": 0, "lat": 38.91248, "rental_uris": {"ios": "https://dc.lft.to/lastmile_qr_scan", "android": "https://dc.lft.to/lastmile_qr_scan"}, "bike_id": "d0a7efb44c55ffc5a9d79b5974fdd06e", "type": "electric_bike", "lon": -77.04072366666666, "is_reserved": 0, "fusion_lat": 0.0, "fusion_lon": 0.0}, {"name": "a6d83f4060ac714a8baf90478dbdd45f", "is_disabled": 0, "lat": 38.90505616666667, "rental_uris": {"ios": "https://dc.lft.to/lastmile_qr_scan", "android": "https://dc.lft.to/lastmile_qr_scan"}, "bike_id": "a6d83f4060ac714a8baf90478dbdd45f", "type": "electric_scooter", "lon": -77.048903, "is_reserved": 0, "fusion_lat": 0.0, "fusion_lon": 0.0}, {"name": "c91bdc5f439a6e4f9e2c4e0827d41dce", "is_disabled": 0, "lat": 38.9039595, "rental_uris": {"ios": "https://dc.lft.to/lastmile_qr_scan", "android": "https://dc.lft.to/lastmile_qr_scan"}, "bike_id": "c91bdc5f439a6e4f9e2c4e0827d41dce", "type": "electric_scooter", "lon": -77.03853016666666, "is_reserved": 0, "fusion_lat": 0.0, "fusion_lon": 0.0}, {"name": "8ef9b6403af53db6286dd12ff5e41470", "is_disabled": 0, "lat": 38.900468833333335, "rental_uris": {"ios": "https://dc.lft.to/lastmile_qr_scan", "android": "https://dc.lft.to/lastmile_qr_scan"}, "bike_id": "8ef9b6403af53db6286dd12ff5e41470", "type": "electric_scooter", "lon": -77.00211133333333, "is_reserved": 0, "fusion_lat": 0.0, "fusion_lon": 0.0}, {"name": "65c380ad5ab8915c50ea304ddeeb5dc5", "is_disabled": 0, "lat": 38.917273333333334, "rental_uris": {"ios": "https://dc.lft.to/lastmile_qr_scan", "android": "https://dc.lft.to/lastmile_qr_scan"}, "bike_id": "65c380ad5ab8915c50ea304ddeeb5dc5", "type": "electric_scooter", "lon": -77.02702283333333, "is_reserved": 0, "fusion_lat": 0.0, "fusion_lon": 0.0}, {"name": "2d4af04e84f8fb4a811c40772460ab42", "is_disabled": 0, "lat": 38.909101, "rental_uris": {"ios": "https://dc.lft.to/lastmile_qr_scan", "android": "https://dc.lft.to/lastmile_qr_scan"}, "bike_id": "2d4af04e84f8fb4a811c40772460ab42", "type": "electric_scooter", "lon": -77.042108, "is_reserved": 0, "fusion_lat": 0.0, "fusion_lon": 0.0}, {"name": "2ac099282706ebd32f329b0c2304266d", "is_disabled": 0, "lat": 38.887202, "rental_uris": {"ios": "https://dc.lft.to/lastmile_qr_scan", "android": "https://dc.lft.to/lastmile_qr_scan"}, "bike_id": "2ac099282706ebd32f329b0c2304266d", "type": "electric_scooter", "lon": -77.02581866666667, "is_reserved": 0, "fusion_lat": 0.0, "fusion_lon": 0.0}, {"name": "5c645b8f9216a0ac1a5915ed42a67862", "is_disabled": 0, "lat": 38.90953566666666, "rental_uris": {"ios": "https://dc.lft.to/lastmile_qr_scan", "android": "https://dc.lft.to/lastmile_qr_scan"}, "bike_id": "5c645b8f9216a0ac1a5915ed42a67862", "type": "electric_bike", "lon": -76.98423466666667, "is_reserved": 0, "fusion_lat": 0.0, "fusion_lon": 0.0}, {"name": "733fc1f60f402f9af13294ee8f609f47", "is_disabled": 0, "lat": 38.889921666666666, "rental_uris": {"ios": "https://dc.lft.to/lastmile_qr_scan", "android": "https://dc.lft.to/lastmile_qr_scan"}, "bike_id": "733fc1f60f402f9af13294ee8f609f47", "type": "electric_bike", "lon": -77.07129833333333, "is_reserved": 0, "fusion_lat": 0.0, "fusion_lon": 0.0}, {"name": "fedf2f0a49700836598fc7765d767862", "is_disabled": 0, "lat": 38.89744, "rental_uris": {"ios": "https://dc.lft.to/lastmile_qr_scan", "android": "https://dc.lft.to/lastmile_qr_scan"}, "bike_id": "fedf2f0a49700836598fc7765d767862", "type": "electric_scooter", "lon": -77.0445095, "is_reserved": 0, "fusion_lat": 0.0, "fusion_lon": 0.0}, {"name": "9e40ebd6b2de808c5cbe78715daa65cc", "is_disabled": 0, "lat": 38.92844266666667, "rental_uris": {"ios": "https://dc.lft.to/lastmile_qr_scan", "android": "https://dc.lft.to/lastmile_qr_scan"}, "bike_id": "9e40ebd6b2de808c5cbe78715daa65cc", "type": "electric_bike", "lon": -77.02055266666666, "is_reserved": 0, "fusion_lat": 0.0, "fusion_lon": 0.0}, {"name": "b3d7cf5b71ef8314d21bac3042d8384a", "is_disabled": 0, "lat": 38.930609833333335, "rental_uris": {"ios": "https://dc.lft.to/lastmile_qr_scan", "android": "https://dc.lft.to/lastmile_qr_scan"}, "bike_id": "b3d7cf5b71ef8314d21bac3042d8384a", "type": "electric_bike", "lon": -77.03893083333334, "is_reserved": 0, "fusion_lat": 0.0, "fusion_lon": 0.0}, {"name": "84a92d4618f4e7d255654862d9e46307", "is_disabled": 0, "lat": 38.9057925, "rental_uris": {"ios": "https://dc.lft.to/lastmile_qr_scan", "android": "https://dc.lft.to/lastmile_qr_scan"}, "bike_id": "84a92d4618f4e7d255654862d9e46307", "type": "electric_scooter", "lon": -77.0080515, "is_reserved": 0, "fusion_lat": 0.0, "fusion_lon": 0.0}, {"name": "14d0803042ac37486c8719509116f125", "is_disabled": 0, "lat": 38.914861333333334, "rental_uris": {"ios": "https://dc.lft.to/lastmile_qr_scan", "android": "https://dc.lft.to/lastmile_qr_scan"}, "bike_id": "14d0803042ac37486c8719509116f125", "type": "electric_scooter", "lon": -77.04251683333334, "is_reserved": 0, "fusion_lat": 0.0, "fusion_lon": 0.0}, {"name": "1e9c755a108422678eb0ea4b33179696", "is_disabled": 0, "lat": 38.996832166666664, "rental_uris": {"ios": "https://dc.lft.to/lastmile_qr_scan", "android": "https://dc.lft.to/lastmile_qr_scan"}, "bike_id": "1e9c755a108422678eb0ea4b33179696", "type": "electric_bike", "lon": -77.02541883333333, "is_reserved": 0, "fusion_lat": 0.0, "fusion_lon": 0.0}, {"name": "f3ff54f495ef2432e1914a7ce5042f29", "is_disabled": 0, "lat": 38.92420933333333, "rental_uris": {"ios": "https://dc.lft.to/lastmile_qr_scan", "android": "https://dc.lft.to/lastmile_qr_scan"}, "bike_id": "f3ff54f495ef2432e1914a7ce5042f29", "type": "electric_scooter", "lon": -77.027016, "is_reserved": 0, "fusion_lat": 0.0, "fusion_lon": 0.0}, {"name": "0127b715b0eaea0ba21d5b59186cc7ff", "is_disabled": 0, "lat": 38.91604983333333, "rental_uris": {"ios": "https://dc.lft.to/lastmile_qr_scan", "android": "https://dc.lft.to/lastmile_qr_scan"}, "bike_id": "0127b715b0eaea0ba21d5b59186cc7ff", "type": "electric_scooter", "lon": -77.03230216666667, "is_reserved": 0, "fusion_lat": 0.0, "fusion_lon": 0.0}, {"name": "320ca71294df85e82a5d37ff3a7821a0", "is_disabled": 0, "lat": 38.921462, "rental_uris": {"ios": "https://dc.lft.to/lastmile_qr_scan", "android": "https://dc.lft.to/lastmile_qr_scan"}, "bike_id": "320ca71294df85e82a5d37ff3a7821a0", "type": "electric_scooter", "lon": -77.0436075, "is_reserved": 0, "fusion_lat": 0.0, "fusion_lon": 0.0}, {"name": "08421de6410aeae251b749b8bdab0bf2", "is_disabled": 0, "lat": 38.9081585, "rental_uris": {"ios": "https://dc.lft.to/lastmile_qr_scan", "android": "https://dc.lft.to/lastmile_qr_scan"}, "bike_id": "08421de6410aeae251b749b8bdab0bf2", "type": "electric_scooter", "lon": -77.041628, "is_reserved": 0, "fusion_lat": 0.0, "fusion_lon": 0.0}, {"name": "27cc0986b1ba5882fa55e1486dc639cf", "is_disabled": 0, "lat": 38.9076235, "rental_uris": {"ios": "https://dc.lft.to/lastmile_qr_scan", "android": "https://dc.lft.to/lastmile_qr_scan"}, "bike_id": "27cc0986b1ba5882fa55e1486dc639cf", "type": "electric_scooter", "lon": -77.03581666666666, "is_reserved": 0, "fusion_lat": 0.0, "fusion_lon": 0.0}, {"name": "878cea2e8c4bd05767ef3aa32799366f", "is_disabled": 0, "lat": 38.91267333333333, "rental_uris": {"ios": "https://dc.lft.to/lastmile_qr_scan", "android": "https://dc.lft.to/lastmile_qr_scan"}, "bike_id": "878cea2e8c4bd05767ef3aa32799366f", "type": "electric_scooter", "lon": -77.04035916666666, "is_reserved": 0, "fusion_lat": 0.0, "fusion_lon": 0.0}, {"name": "b2ef6a886fa93e69fe11e01b8ef2ea66", "is_disabled": 0, "lat": 38.8980565, "rental_uris": {"ios": "https://dc.lft.to/lastmile_qr_scan", "android": "https://dc.lft.to/lastmile_qr_scan"}, "bike_id": "b2ef6a886fa93e69fe11e01b8ef2ea66", "type": "electric_scooter", "lon": -77.04610283333334, "is_reserved": 0, "fusion_lat": 0.0, "fusion_lon": 0.0}, {"name": "5df0a56eb6110a66c6fd6bfc44566ebd", "is_disabled": 0, "lat": 38.876667166666664, "rental_uris": {"ios": "https://dc.lft.to/lastmile_qr_scan", "android": "https://dc.lft.to/lastmile_qr_scan"}, "bike_id": "5df0a56eb6110a66c6fd6bfc44566ebd", "type": "electric_scooter", "lon": -77.003038, "is_reserved": 0, "fusion_lat": 0.0, "fusion_lon": 0.0}, {"name": "426ec51cf0f66ae007d7babf802042ff", "is_disabled": 0, "lat": 38.90021633333333, "rental_uris": {"ios": "https://dc.lft.to/lastmile_qr_scan", "android": "https://dc.lft.to/lastmile_qr_scan"}, "bike_id": "426ec51cf0f66ae007d7babf802042ff", "type": "electric_scooter", "lon": -76.99979116666667, "is_reserved": 0, "fusion_lat": 0.0, "fusion_lon": 0.0}, {"name": "d50fc8d8b0b8f560bd49ac5af6d3ea34", "is_disabled": 0, "lat": 38.9276645, "rental_uris": {"ios": "https://dc.lft.to/lastmile_qr_scan", "android": "https://dc.lft.to/lastmile_qr_scan"}, "bike_id": "d50fc8d8b0b8f560bd49ac5af6d3ea34", "type": "electric_scooter", "lon": -77.03249316666667, "is_reserved": 0, "fusion_lat": 0.0, "fusion_lon": 0.0}, {"name": "a2b6fdae8ea808b57488fb0fe81c6c1f", "is_disabled": 0, "lat": 38.8973815, "rental_uris": {"ios": "https://dc.lft.to/lastmile_qr_scan", "android": "https://dc.lft.to/lastmile_qr_scan"}, "bike_id": "a2b6fdae8ea808b57488fb0fe81c6c1f", "type": "electric_scooter", "lon": -77.033004, "is_reserved": 0, "fusion_lat": 0.0, "fusion_lon": 0.0}, {"name": "7a2e043350ee7abc9c9c32909c225693", "is_disabled": 0, "lat": 38.90659466666666, "rental_uris": {"ios": "https://dc.lft.to/lastmile_qr_scan", "android": "https://dc.lft.to/lastmile_qr_scan"}, "bike_id": "7a2e043350ee7abc9c9c32909c225693", "type": "electric_scooter", "lon": -77.043263, "is_reserved": 0, "fusion_lat": 0.0, "fusion_lon": 0.0}, {"name": "d5c30393a6038c512e130120f04290d5", "is_disabled": 0, "lat": 38.92128983333333, "rental_uris": {"ios": "https://dc.lft.to/lastmile_qr_scan", "android": "https://dc.lft.to/lastmile_qr_scan"}, "bike_id": "d5c30393a6038c512e130120f04290d5", "type": "electric_scooter", "lon": -77.02516466666667, "is_reserved": 0, "fusion_lat": 0.0, "fusion_lon": 0.0}, {"name": "cbe687375fb5d37f3a73d108a1a3fcd9", "is_disabled": 0, "lat": 38.896127666666665, "rental_uris": {"ios": "https://dc.lft.to/lastmile_qr_scan", "android": "https://dc.lft.to/lastmile_qr_scan"}, "bike_id": "cbe687375fb5d37f3a73d108a1a3fcd9", "type": "electric_scooter", "lon": -77.00560133333333, "is_reserved": 0, "fusion_lat": 0.0, "fusion_lon": 0.0}, {"name": "f12b4152d720b7e55fe1d0c85bff4831", "is_disabled": 0, "lat": 38.903754, "rental_uris": {"ios": "https://dc.lft.to/lastmile_qr_scan", "android": "https://dc.lft.to/lastmile_qr_scan"}, "bike_id": "f12b4152d720b7e55fe1d0c85bff4831", "type": "electric_scooter", "lon": -77.00979283333334, "is_reserved": 0, "fusion_lat": 0.0, "fusion_lon": 0.0}, {"name": "ad04c76cfb82737b340c644a7b11dfce", "is_disabled": 0, "lat": 38.95009533333333, "rental_uris": {"ios": "https://dc.lft.to/lastmile_qr_scan", "android": "https://dc.lft.to/lastmile_qr_scan"}, "bike_id": "ad04c76cfb82737b340c644a7b11dfce", "type": "electric_scooter", "lon": -77.08059916666667, "is_reserved": 0, "fusion_lat": 0.0, "fusion_lon": 0.0}, {"name": "20dc1bc6489a6e1c57870032757ac1f9", "is_disabled": 0, "lat": 38.88374016666667, "rental_uris": {"ios": "https://dc.lft.to/lastmile_qr_scan", "android": "https://dc.lft.to/lastmile_qr_scan"}, "bike_id": "20dc1bc6489a6e1c57870032757ac1f9", "type": "electric_scooter", "lon": -76.9951885, "is_reserved": 0, "fusion_lat": 0.0, "fusion_lon": 0.0}, {"name": "14d488839488b6f95786ef4d2e423996", "is_disabled": 0, "lat": 38.89216716666667, "rental_uris": {"ios": "https://dc.lft.to/lastmile_qr_scan", "android": "https://dc.lft.to/lastmile_qr_scan"}, "bike_id": "14d488839488b6f95786ef4d2e423996", "type": "electric_scooter", "lon": -77.02658033333333, "is_reserved": 0, "fusion_lat": 0.0, "fusion_lon": 0.0}, {"name": "eb534b42c4fd871844874344c9e6f840", "is_disabled": 0, "lat": 38.917233833333334, "rental_uris": {"ios": "https://dc.lft.to/lastmile_qr_scan", "android": "https://dc.lft.to/lastmile_qr_scan"}, "bike_id": "eb534b42c4fd871844874344c9e6f840", "type": "electric_scooter", "lon": -77.02298183333333, "is_reserved": 0, "fusion_lat": 0.0, "fusion_lon": 0.0}, {"name": "a54885a9c2a97464316678e2ec161570", "is_disabled": 0, "lat": 38.909512, "rental_uris": {"ios": "https://dc.lft.to/lastmile_qr_scan", "android": "https://dc.lft.to/lastmile_qr_scan"}, "bike_id": "a54885a9c2a97464316678e2ec161570", "type": "electric_scooter", "lon": -77.02713916666667, "is_reserved": 0, "fusion_lat": 0.0, "fusion_lon": 0.0}, {"name": "7689ce07a22b9872340b0288dbdb674f", "is_disabled": 0, "lat": 38.921939, "rental_uris": {"ios": "https://dc.lft.to/lastmile_qr_scan", "android": "https://dc.lft.to/lastmile_qr_scan"}, "bike_id": "7689ce07a22b9872340b0288dbdb674f", "type": "electric_scooter", "lon": -77.0397635, "is_reserved": 0, "fusion_lat": 0.0, "fusion_lon": 0.0}, {"name": "55bd86cc2ee11d025e223935173dbd87", "is_disabled": 0, "lat": 38.90037816666667, "rental_uris": {"ios": "https://dc.lft.to/lastmile_qr_scan", "android": "https://dc.lft.to/lastmile_qr_scan"}, "bike_id": "55bd86cc2ee11d025e223935173dbd87", "type": "electric_scooter", "lon": -77.04147716666667, "is_reserved": 0, "fusion_lat": 0.0, "fusion_lon": 0.0}, {"name": "2842adacefdb1535b483f93528c3be3f", "is_disabled": 0, "lat": 38.94188166666667, "rental_uris": {"ios": "https://dc.lft.to/lastmile_qr_scan", "android": "https://dc.lft.to/lastmile_qr_scan"}, "bike_id": "2842adacefdb1535b483f93528c3be3f", "type": "electric_scooter", "lon": -77.026158, "is_reserved": 0, "fusion_lat": 0.0, "fusion_lon": 0.0}, {"name": "fa90751e4c01a9d0627ea9d18d4ff515", "is_disabled": 0, "lat": 38.914358, "rental_uris": {"ios": "https://dc.lft.to/lastmile_qr_scan", "android": "https://dc.lft.to/lastmile_qr_scan"}, "bike_id": "fa90751e4c01a9d0627ea9d18d4ff515", "type": "electric_scooter", "lon": -77.02198933333334, "is_reserved": 0, "fusion_lat": 0.0, "fusion_lon": 0.0}, {"name": "4d35ec91b2f27929bbb306637a053cf0", "is_disabled": 0, "lat": 38.90733633333333, "rental_uris": {"ios": "https://dc.lft.to/lastmile_qr_scan", "android": "https://dc.lft.to/lastmile_qr_scan"}, "bike_id": "4d35ec91b2f27929bbb306637a053cf0", "type": "electric_scooter", "lon": -77.04335533333334, "is_reserved": 0, "fusion_lat": 0.0, "fusion_lon": 0.0}, {"name": "c0307046c26bfc2852006293e809274e", "is_disabled": 0, "lat": 38.893571333333334, "rental_uris": {"ios": "https://dc.lft.to/lastmile_qr_scan", "android": "https://dc.lft.to/lastmile_qr_scan"}, "bike_id": "c0307046c26bfc2852006293e809274e", "type": "electric_scooter", "lon": -77.00336366666667, "is_reserved": 0, "fusion_lat": 0.0, "fusion_lon": 0.0}, {"name": "e5785320f1ec9f2dc74239a15dd96fe5", "is_disabled": 0, "lat": 38.92871616666667, "rental_uris": {"ios": "https://dc.lft.to/lastmile_qr_scan", "android": "https://dc.lft.to/lastmile_qr_scan"}, "bike_id": "e5785320f1ec9f2dc74239a15dd96fe5", "type": "electric_scooter", "lon": -77.03310116666667, "is_reserved": 0, "fusion_lat": 0.0, "fusion_lon": 0.0}, {"name": "191397f37c5ba83fc3521b86f382743c", "is_disabled": 0, "lat": 38.905529, "rental_uris": {"ios": "https://dc.lft.to/lastmile_qr_scan", "android": "https://dc.lft.to/lastmile_qr_scan"}, "bike_id": "191397f37c5ba83fc3521b86f382743c", "type": "electric_scooter", "lon": -76.99476433333334, "is_reserved": 0, "fusion_lat": 0.0, "fusion_lon": 0.0}, {"name": "c6778e33f7ba565dd4e0c130748b5108", "is_disabled": 0, "lat": 38.924118666666665, "rental_uris": {"ios": "https://dc.lft.to/lastmile_qr_scan", "android": "https://dc.lft.to/lastmile_qr_scan"}, "bike_id": "c6778e33f7ba565dd4e0c130748b5108", "type": "electric_scooter", "lon": -77.02711633333334, "is_reserved": 0, "fusion_lat": 0.0, "fusion_lon": 0.0}, {"name": "92d3f46434220d2d1a8a8686c65bf042", "is_disabled": 0, "lat": 38.90729116666667, "rental_uris": {"ios": "https://dc.lft.to/lastmile_qr_scan", "android": "https://dc.lft.to/lastmile_qr_scan"}, "bike_id": "92d3f46434220d2d1a8a8686c65bf042", "type": "electric_scooter", "lon": -77.03198883333333, "is_reserved": 0, "fusion_lat": 0.0, "fusion_lon": 0.0}, {"name": "fe326b1beef56c6768a9ac83378fe1cc", "is_disabled": 0, "lat": 38.91480216666667, "rental_uris": {"ios": "https://dc.lft.to/lastmile_qr_scan", "android": "https://dc.lft.to/lastmile_qr_scan"}, "bike_id": "fe326b1beef56c6768a9ac83378fe1cc", "type": "electric_scooter", "lon": -77.025752, "is_reserved": 0, "fusion_lat": 0.0, "fusion_lon": 0.0}, {"name": "057559bb70eb1127d47564925cb4bec4", "is_disabled": 0, "lat": 38.9010395, "rental_uris": {"ios": "https://dc.lft.to/lastmile_qr_scan", "android": "https://dc.lft.to/lastmile_qr_scan"}, "bike_id": "057559bb70eb1127d47564925cb4bec4", "type": "electric_scooter", "lon": -77.022205, "is_reserved": 0, "fusion_lat": 0.0, "fusion_lon": 0.0}, {"name": "dd0ad367561a4d27b78d70c90452330c", "is_disabled": 0, "lat": 38.86515383333333, "rental_uris": {"ios": "https://dc.lft.to/lastmile_qr_scan", "android": "https://dc.lft.to/lastmile_qr_scan"}, "bike_id": "dd0ad367561a4d27b78d70c90452330c", "type": "electric_bike", "lon": -77.12937433333333, "is_reserved": 0, "fusion_lat": 0.0, "fusion_lon": 0.0}, {"name": "d9933f76bfb63052df39be4159f4183a", "is_disabled": 0, "lat": 38.9174725, "rental_uris": {"ios": "https://dc.lft.to/lastmile_qr_scan", "android": "https://dc.lft.to/lastmile_qr_scan"}, "bike_id": "d9933f76bfb63052df39be4159f4183a", "type": "electric_scooter", "lon": -77.02275583333333, "is_reserved": 0, "fusion_lat": 0.0, "fusion_lon": 0.0}, {"name": "52c2ae7b6acc53d782f75f14bf2d0382", "is_disabled": 0, "lat": 38.905395666666664, "rental_uris": {"ios": "https://dc.lft.to/lastmile_qr_scan", "android": "https://dc.lft.to/lastmile_qr_scan"}, "bike_id": "52c2ae7b6acc53d782f75f14bf2d0382", "type": "electric_scooter", "lon": -77.0220935, "is_reserved": 0, "fusion_lat": 0.0, "fusion_lon": 0.0}, {"name": "16e1acca5684a814fbe8d561af343535", "is_disabled": 0, "lat": 38.906987, "rental_uris": {"ios": "https://dc.lft.to/lastmile_qr_scan", "android": "https://dc.lft.to/lastmile_qr_scan"}, "bike_id": "16e1acca5684a814fbe8d561af343535", "type": "electric_scooter", "lon": -77.03193916666666, "is_reserved": 0, "fusion_lat": 0.0, "fusion_lon": 0.0}, {"name": "ccec3bf0d2f0ae9f6984dd73a877da0b", "is_disabled": 0, "lat": 38.90022733333333, "rental_uris": {"ios": "https://dc.lft.to/lastmile_qr_scan", "android": "https://dc.lft.to/lastmile_qr_scan"}, "bike_id": "ccec3bf0d2f0ae9f6984dd73a877da0b", "type": "electric_scooter", "lon": -76.99858866666666, "is_reserved": 0, "fusion_lat": 0.0, "fusion_lon": 0.0}, {"name": "02c27f02684656cb08ca5eb4efc0178e", "is_disabled": 0, "lat": 38.91991566666667, "rental_uris": {"ios": "https://dc.lft.to/lastmile_qr_scan", "android": "https://dc.lft.to/lastmile_qr_scan"}, "bike_id": "02c27f02684656cb08ca5eb4efc0178e", "type": "electric_scooter", "lon": -77.0322425, "is_reserved": 0, "fusion_lat": 0.0, "fusion_lon": 0.0}, {"name": "17c37dfcf9dee285a031e7f6d42b4476", "is_disabled": 0, "lat": 38.9036625, "rental_uris": {"ios": "https://dc.lft.to/lastmile_qr_scan", "android": "https://dc.lft.to/lastmile_qr_scan"}, "bike_id": "17c37dfcf9dee285a031e7f6d42b4476", "type": "electric_scooter", "lon": -77.03446683333334, "is_reserved": 0, "fusion_lat": 0.0, "fusion_lon": 0.0}, {"name": "f7e99b6829482ce784a7a11605581c00", "is_disabled": 0, "lat": 38.92347083333333, "rental_uris": {"ios": "https://dc.lft.to/lastmile_qr_scan", "android": "https://dc.lft.to/lastmile_qr_scan"}, "bike_id": "f7e99b6829482ce784a7a11605581c00", "type": "electric_scooter", "lon": -77.05178216666667, "is_reserved": 0, "fusion_lat": 0.0, "fusion_lon": 0.0}, {"name": "de1cfaa40a4ade5bcecef479ff3ec13f", "is_disabled": 0, "lat": 38.914047333333336, "rental_uris": {"ios": "https://dc.lft.to/lastmile_qr_scan", "android": "https://dc.lft.to/lastmile_qr_scan"}, "bike_id": "de1cfaa40a4ade5bcecef479ff3ec13f", "type": "electric_scooter", "lon": -77.02210366666667, "is_reserved": 0, "fusion_lat": 0.0, "fusion_lon": 0.0}, {"name": "e4d81c53c960ec29e57782ddb5734f8b", "is_disabled": 0, "lat": 38.90569283333333, "rental_uris": {"ios": "https://dc.lft.to/lastmile_qr_scan", "android": "https://dc.lft.to/lastmile_qr_scan"}, "bike_id": "e4d81c53c960ec29e57782ddb5734f8b", "type": "electric_scooter", "lon": -77.016967, "is_reserved": 0, "fusion_lat": 0.0, "fusion_lon": 0.0}, {"name": "53e679d29e99646b6a4175967c330b3e", "is_disabled": 0, "lat": 38.90777416666667, "rental_uris": {"ios": "https://dc.lft.to/lastmile_qr_scan", "android": "https://dc.lft.to/lastmile_qr_scan"}, "bike_id": "53e679d29e99646b6a4175967c330b3e", "type": "electric_scooter", "lon": -77.03850916666667, "is_reserved": 0, "fusion_lat": 0.0, "fusion_lon": 0.0}, {"name": "1b8ba462167e5cea8223e6730148a043", "is_disabled": 0, "lat": 38.8881815, "rental_uris": {"ios": "https://dc.lft.to/lastmile_qr_scan", "android": "https://dc.lft.to/lastmile_qr_scan"}, "bike_id": "1b8ba462167e5cea8223e6730148a043", "type": "electric_scooter", "lon": -77.014913, "is_reserved": 0, "fusion_lat": 0.0, "fusion_lon": 0.0}, {"name": "e21d005b896e2e743d02a90dc7bcf8b7", "is_disabled": 0, "lat": 38.902712, "rental_uris": {"ios": "https://dc.lft.to/lastmile_qr_scan", "android": "https://dc.lft.to/lastmile_qr_scan"}, "bike_id": "e21d005b896e2e743d02a90dc7bcf8b7", "type": "electric_scooter", "lon": -77.03842116666667, "is_reserved": 0, "fusion_lat": 0.0, "fusion_lon": 0.0}, {"name": "39e291a5d4ff671b7421fcd2803d4f06", "is_disabled": 0, "lat": 38.901557833333335, "rental_uris": {"ios": "https://dc.lft.to/lastmile_qr_scan", "android": "https://dc.lft.to/lastmile_qr_scan"}, "bike_id": "39e291a5d4ff671b7421fcd2803d4f06", "type": "electric_scooter", "lon": -77.044225, "is_reserved": 0, "fusion_lat": 0.0, "fusion_lon": 0.0}, {"name": "fd2ff08504cf63338989a100162525fd", "is_disabled": 0, "lat": 38.898171833333336, "rental_uris": {"ios": "https://dc.lft.to/lastmile_qr_scan", "android": "https://dc.lft.to/lastmile_qr_scan"}, "bike_id": "fd2ff08504cf63338989a100162525fd", "type": "electric_bike", "lon": -77.006019, "is_reserved": 0, "fusion_lat": 0.0, "fusion_lon": 0.0}, {"name": "17e481ead8c7c9569398d909b831dcac", "is_disabled": 0, "lat": 38.91990633333333, "rental_uris": {"ios": "https://dc.lft.to/lastmile_qr_scan", "android": "https://dc.lft.to/lastmile_qr_scan"}, "bike_id": "17e481ead8c7c9569398d909b831dcac", "type": "electric_scooter", "lon": -77.032281, "is_reserved": 0, "fusion_lat": 0.0, "fusion_lon": 0.0}, {"name": "8a231aedf5a098a70033e40efe844f31", "is_disabled": 0, "lat": 38.90077683333333, "rental_uris": {"ios": "https://dc.lft.to/lastmile_qr_scan", "android": "https://dc.lft.to/lastmile_qr_scan"}, "bike_id": "8a231aedf5a098a70033e40efe844f31", "type": "electric_scooter", "lon": -77.04906933333334, "is_reserved": 0, "fusion_lat": 0.0, "fusion_lon": 0.0}, {"name": "ee38e118fe1b4023fdbd7ec16b664677", "is_disabled": 0, "lat": 38.92549566666667, "rental_uris": {"ios": "https://dc.lft.to/lastmile_qr_scan", "android": "https://dc.lft.to/lastmile_qr_scan"}, "bike_id": "ee38e118fe1b4023fdbd7ec16b664677", "type": "electric_scooter", "lon": -77.0429695, "is_reserved": 0, "fusion_lat": 0.0, "fusion_lon": 0.0}, {"name": "364a4431d4345f1949d9f0917a18aa42", "is_disabled": 0, "lat": 38.90571033333333, "rental_uris": {"ios": "https://dc.lft.to/lastmile_qr_scan", "android": "https://dc.lft.to/lastmile_qr_scan"}, "bike_id": "364a4431d4345f1949d9f0917a18aa42", "type": "electric_scooter", "lon": -77.04430016666667, "is_reserved": 0, "fusion_lat": 0.0, "fusion_lon": 0.0}, {"name": "7f911d766fff219e3613c504f720cc34", "is_disabled": 0, "lat": 38.91403233333333, "rental_uris": {"ios": "https://dc.lft.to/lastmile_qr_scan", "android": "https://dc.lft.to/lastmile_qr_scan"}, "bike_id": "7f911d766fff219e3613c504f720cc34", "type": "electric_scooter", "lon": -77.02209833333333, "is_reserved": 0, "fusion_lat": 0.0, "fusion_lon": 0.0}, {"name": "9b1a148a50ce046d311b5492501e57b4", "is_disabled": 0, "lat": 38.905671166666664, "rental_uris": {"ios": "https://dc.lft.to/lastmile_qr_scan", "android": "https://dc.lft.to/lastmile_qr_scan"}, "bike_id": "9b1a148a50ce046d311b5492501e57b4", "type": "electric_scooter", "lon": -77.02419383333333, "is_reserved": 0, "fusion_lat": 0.0, "fusion_lon": 0.0}, {"name": "3f2681131c359b7655fa1294bdb86917", "is_disabled": 0, "lat": 38.87759783333333, "rental_uris": {"ios": "https://dc.lft.to/lastmile_qr_scan", "android": "https://dc.lft.to/lastmile_qr_scan"}, "bike_id": "3f2681131c359b7655fa1294bdb86917", "type": "electric_scooter", "lon": -77.007633, "is_reserved": 0, "fusion_lat": 0.0, "fusion_lon": 0.0}, {"name": "76a0f98593bd2d0896f9c478cebba8ad", "is_disabled": 0, "lat": 38.9940975, "rental_uris": {"ios": "https://dc.lft.to/lastmile_qr_scan", "android": "https://dc.lft.to/lastmile_qr_scan"}, "bike_id": "76a0f98593bd2d0896f9c478cebba8ad", "type": "electric_bike", "lon": -77.0311905, "is_reserved": 0, "fusion_lat": 0.0, "fusion_lon": 0.0}, {"name": "518efd60e30cf9592a5cbbf44bfedccd", "is_disabled": 0, "lat": 38.87656966666667, "rental_uris": {"ios": "https://dc.lft.to/lastmile_qr_scan", "android": "https://dc.lft.to/lastmile_qr_scan"}, "bike_id": "518efd60e30cf9592a5cbbf44bfedccd", "type": "electric_scooter", "lon": -77.0011525, "is_reserved": 0, "fusion_lat": 0.0, "fusion_lon": 0.0}, {"name": "0349c38e28eeae227d0f6c08d5b7c726", "is_disabled": 0, "lat": 38.918182333333334, "rental_uris": {"ios": "https://dc.lft.to/lastmile_qr_scan", "android": "https://dc.lft.to/lastmile_qr_scan"}, "bike_id": "0349c38e28eeae227d0f6c08d5b7c726", "type": "electric_scooter", "lon": -77.0375365, "is_reserved": 0, "fusion_lat": 0.0, "fusion_lon": 0.0}, {"name": "9b8d74261b1efa6635393d3cd6cee1f4", "is_disabled": 0, "lat": 38.918133, "rental_uris": {"ios": "https://dc.lft.to/lastmile_qr_scan", "android": "https://dc.lft.to/lastmile_qr_scan"}, "bike_id": "9b8d74261b1efa6635393d3cd6cee1f4", "type": "electric_scooter", "lon": -77.02682583333333, "is_reserved": 0, "fusion_lat": 0.0, "fusion_lon": 0.0}, {"name": "2055c2f2b00b7a9d3197a33467e06cad", "is_disabled": 0, "lat": 38.917582833333334, "rental_uris": {"ios": "https://dc.lft.to/lastmile_qr_scan", "android": "https://dc.lft.to/lastmile_qr_scan"}, "bike_id": "2055c2f2b00b7a9d3197a33467e06cad", "type": "electric_scooter", "lon": -77.02808716666667, "is_reserved": 0, "fusion_lat": 0.0, "fusion_lon": 0.0}, {"name": "6892a368a79d181ec9f4d02c6998360d", "is_disabled": 0, "lat": 38.915809833333334, "rental_uris": {"ios": "https://dc.lft.to/lastmile_qr_scan", "android": "https://dc.lft.to/lastmile_qr_scan"}, "bike_id": "6892a368a79d181ec9f4d02c6998360d", "type": "electric_scooter", "lon": -77.01235866666667, "is_reserved": 0, "fusion_lat": 0.0, "fusion_lon": 0.0}, {"name": "a1cfaa27bcfbef6401ffdd5cc568fb68", "is_disabled": 0, "lat": 38.91966466666667, "rental_uris": {"ios": "https://dc.lft.to/lastmile_qr_scan", "android": "https://dc.lft.to/lastmile_qr_scan"}, "bike_id": "a1cfaa27bcfbef6401ffdd5cc568fb68", "type": "electric_scooter", "lon": -77.01210583333334, "is_reserved": 0, "fusion_lat": 0.0, "fusion_lon": 0.0}, {"name": "afb02226fc0a51cf330114d647750690", "is_disabled": 0, "lat": 38.906025, "rental_uris": {"ios": "https://dc.lft.to/lastmile_qr_scan", "android": "https://dc.lft.to/lastmile_qr_scan"}, "bike_id": "afb02226fc0a51cf330114d647750690", "type": "electric_bike", "lon": -77.0025375, "is_reserved": 0, "fusion_lat": 0.0, "fusion_lon": 0.0}, {"name": "295b5c75fdfda92bc85aeb75c52d7cb9", "is_disabled": 0, "lat": 38.92317166666667, "rental_uris": {"ios": "https://dc.lft.to/lastmile_qr_scan", "android": "https://dc.lft.to/lastmile_qr_scan"}, "bike_id": "295b5c75fdfda92bc85aeb75c52d7cb9", "type": "electric_scooter", "lon": -77.04031216666667, "is_reserved": 0, "fusion_lat": 0.0, "fusion_lon": 0.0}, {"name": "6ca8a7701d776f50677bfdcc095c4fbb", "is_disabled": 0, "lat": 38.906689166666666, "rental_uris": {"ios": "https://dc.lft.to/lastmile_qr_scan", "android": "https://dc.lft.to/lastmile_qr_scan"}, "bike_id": "6ca8a7701d776f50677bfdcc095c4fbb", "type": "electric_scooter", "lon": -77.02701966666666, "is_reserved": 0, "fusion_lat": 0.0, "fusion_lon": 0.0}, {"name": "9608d4045923b8648869ad2b38feda38", "is_disabled": 0, "lat": 38.924492, "rental_uris": {"ios": "https://dc.lft.to/lastmile_qr_scan", "android": "https://dc.lft.to/lastmile_qr_scan"}, "bike_id": "9608d4045923b8648869ad2b38feda38", "type": "electric_scooter", "lon": -77.02033683333333, "is_reserved": 0, "fusion_lat": 0.0, "fusion_lon": 0.0}, {"name": "47a4aa343990dfa5904ddf26e054fcba", "is_disabled": 0, "lat": 38.91834, "rental_uris": {"ios": "https://dc.lft.to/lastmile_qr_scan", "android": "https://dc.lft.to/lastmile_qr_scan"}, "bike_id": "47a4aa343990dfa5904ddf26e054fcba", "type": "electric_scooter", "lon": -77.03206066666667, "is_reserved": 0, "fusion_lat": 0.0, "fusion_lon": 0.0}, {"name": "b27b89ae970cd086561da8644f0e9832", "is_disabled": 0, "lat": 38.89665516666667, "rental_uris": {"ios": "https://dc.lft.to/lastmile_qr_scan", "android": "https://dc.lft.to/lastmile_qr_scan"}, "bike_id": "b27b89ae970cd086561da8644f0e9832", "type": "electric_scooter", "lon": -76.93208666666666, "is_reserved": 0, "fusion_lat": 0.0, "fusion_lon": 0.0}, {"name": "21075c451f83d1cec9b0ffc63563a9f7", "is_disabled": 0, "lat": 38.916384, "rental_uris": {"ios": "https://dc.lft.to/lastmile_qr_scan", "android": "https://dc.lft.to/lastmile_qr_scan"}, "bike_id": "21075c451f83d1cec9b0ffc63563a9f7", "type": "electric_scooter", "lon": -77.03208316666667, "is_reserved": 0, "fusion_lat": 0.0, "fusion_lon": 0.0}, {"name": "d9b770d620fa0f8e1d59f1c64f4a67e2", "is_disabled": 0, "lat": 38.923300166666664, "rental_uris": {"ios": "https://dc.lft.to/lastmile_qr_scan", "android": "https://dc.lft.to/lastmile_qr_scan"}, "bike_id": "d9b770d620fa0f8e1d59f1c64f4a67e2", "type": "electric_scooter", "lon": -77.019564, "is_reserved": 0, "fusion_lat": 0.0, "fusion_lon": 0.0}, {"name": "d96e40f590fa0793b6085fa16b3e2700", "is_disabled": 0, "lat": 38.92793616666667, "rental_uris": {"ios": "https://dc.lft.to/lastmile_qr_scan", "android": "https://dc.lft.to/lastmile_qr_scan"}, "bike_id": "d96e40f590fa0793b6085fa16b3e2700", "type": "electric_scooter", "lon": -77.0359475, "is_reserved": 0, "fusion_lat": 0.0, "fusion_lon": 0.0}, {"name": "8f2f690e1770b7ccdc6d3b687230210b", "is_disabled": 0, "lat": 38.88435166666667, "rental_uris": {"ios": "https://dc.lft.to/lastmile_qr_scan", "android": "https://dc.lft.to/lastmile_qr_scan"}, "bike_id": "8f2f690e1770b7ccdc6d3b687230210b", "type": "electric_scooter", "lon": -77.00707883333334, "is_reserved": 0, "fusion_lat": 0.0, "fusion_lon": 0.0},