{"data": {"bikes": [{"lon": -77.00223616666666, "bike_id": "6cecdc8fe5cbf38bfdcf986bc1d56034", "lat": 38.89202366666667, "fusion_lon": 0.0, "fusion_lat": 0.0, "type": "electric_scooter", "name": "6cecdc8fe5cbf38bfdcf986bc1d56034", "is_disabled": 0, "rental_uris": {"ios": "https://dc.lft.to/lastmile_qr_scan", "android": "https://dc.lft.to/lastmile_qr_scan"}, "is_reserved": 0}, {"lon": -77.01541833333333, "bike_id": "22f8747b2037176b69c529ac0fb521fc", "lat": 38.88329183333333, "fusion_lon": 0.0, "fusion_lat": 0.0, "type": "electric_scooter", "name": "22f8747b2037176b69c529ac0fb521fc", "is_disabled": 0, "rental_uris": {"ios": "https://dc.lft.to/lastmile_qr_scan", "android": "https://dc.lft.to/lastmile_qr_scan"}, "is_reserved": 0}, {"lon": -77.027069, "bike_id": "90877fd6f99427756d3e1ab30ae4c9ea", "lat": 38.90674116666667, "fusion_lon": 0.0, "fusion_lat": 0.0, "type": "electric_scooter", "name": "90877fd6f99427756d3e1ab30ae4c9ea", "is_disabled": 0, "rental_uris": {"ios": "https://dc.lft.to/lastmile_qr_scan", "android": "https://dc.lft.to/lastmile_qr_scan"}, "is_reserved": 0}, {"lon": -77.02688616666667, "bike_id": "1b75262f6c0d0693f1b76a06d5edadd2", "lat": 38.948903333333334, "fusion_lon": 0.0, "fusion_lat": 0.0, "type": "electric_scooter", "name": "1b75262f6c0d0693f1b76a06d5edadd2", "is_disabled": 0, "rental_uris": {"ios": "https://dc.lft.to/lastmile_qr_scan", "android": "https://dc.lft.to/lastmile_qr_scan"}, "is_reserved": 0}, {"lon": -77.015125, "bike_id": "a916f86058bd20c8dc13078c55c3772d", "lat": 38.9269765, "fusion_lon": 0.0, "fusion_lat": 0.0, "type": "electric_scooter", "name": "a916f86058bd20c8dc13078c55c3772d", "is_disabled": 0, "rental_uris": {"ios": "https://dc.lft.to/lastmile_qr_scan", "android": "https://dc.lft.to/lastmile_qr_scan"}, "is_reserved": 0}, {"lon": -77.03248066666667, "bike_id": "7e87b72a40987189209aa77b0aabf262", "lat": 38.897356, "fusion_lon": 0.0, "fusion_lat": 0.0, "type": "electric_bike", "name": "7e87b72a40987189209aa77b0aabf262", "is_disabled": 0, "rental_uris": {"ios": "https://dc.lft.to/lastmile_qr_scan", "android": "https://dc.lft.to/lastmile_qr_scan"}, "is_reserved": 0}, {"lon": -77.03170216666666, "bike_id": "16d28d3126747eb1d24e54e2d7078eb6", "lat": 38.884139833333336, "fusion_lon": 0.0, "fusion_lat": 0.0, "type": "electric_scooter", "name": "16d28d3126747eb1d24e54e2d7078eb6", "is_disabled": 0, "rental_uris": {"ios": "https://dc.lft.to/lastmile_qr_scan", "android": "https://dc.lft.to/lastmile_qr_scan"}, "is_reserved": 0}, {"lon": -77.06348383333334, "bike_id": "7fdc35f4e2b1ca601e3f65d0ea8e326e", "lat": 38.944526333333336, "fusion_lon": 0.0, "fusion_lat": 0.0, "type": "electric_scooter", "name": "7fdc35f4e2b1ca601e3f65d0ea8e326e", "is_disabled": 0, "rental_uris": {"ios": "https://dc.lft.to/lastmile_qr_scan", "android": "https://dc.lft.to/lastmile_qr_scan"}, "is_reserved": 0}, {"lon": -77.04488416666666, "bike_id": "e93424c41f2daca29fa461a69d846658", "lat": 38.900574666666664, "fusion_lon": 0.0, "fusion_lat": 0.0, "type": "electric_scooter", "name": "e93424c41f2daca29fa461a69d846658", "is_disabled": 0, "rental_uris": {"ios": "https://dc.lft.to/lastmile_qr_scan", "android": "https://dc.lft.to/lastmile_qr_scan"}, "is_reserved": 0}, {"lon": -77.02165883333333, "bike_id": "54fe4f9bdddbe097f50e431461315704", "lat": 38.94296333333333, "fusion_lon": 0.0, "fusion_lat": 0.0, "type": "electric_scooter", "name": "54fe4f9bdddbe097f50e431461315704", "is_disabled": 0, "rental_uris": {"ios": "https://dc.lft.to/lastmile_qr_scan", "android": "https://dc.lft.to/lastmile_qr_scan"}, "is_reserved": 0}, {"lon": -76.9861505, "bike_id": "60f987bec9acff349060e4aa763b3d87", "lat": 38.905898666666666, "fusion_lon": 0.0, "fusion_lat": 0.0, "type": "electric_scooter", "name": "60f987bec9acff349060e4aa763b3d87", "is_disabled": 0, "rental_uris": {"ios": "https://dc.lft.to/lastmile_qr_scan", "android": "https://dc.lft.to/lastmile_qr_scan"}, "is_reserved": 0}, {"lon": -76.93176866666667, "bike_id": "38805116bb6ea6a17c4217e8869e8607", "lat": 38.89887483333333, "fusion_lon": 0.0, "fusion_lat": 0.0, "type": "electric_scooter", "name": "38805116bb6ea6a17c4217e8869e8607", "is_disabled": 0, "rental_uris": {"ios": "https://dc.lft.to/lastmile_qr_scan", "android": "https://dc.lft.to/lastmile_qr_scan"}, "is_reserved": 0}, {"lon": -77.0014045, "bike_id": "a758dadeb30a8763bd0f8bdf2347e838", "lat": 38.842869, "fusion_lon": 0.0, "fusion_lat": 0.0, "type": "electric_scooter", "name": "a758dadeb30a8763bd0f8bdf2347e838", "is_disabled": 0, "rental_uris": {"ios": "https://dc.lft.to/lastmile_qr_scan", "android": "https://dc.lft.to/lastmile_qr_scan"}, "is_reserved": 0}, {"lon": -76.95019083333334, "bike_id": "02050d1d7bc2d8bc75009b27520d7ec1", "lat": 38.89403883333333, "fusion_lon": 0.0, "fusion_lat": 0.0, "type": "electric_scooter", "name": "02050d1d7bc2d8bc75009b27520d7ec1", "is_disabled": 0, "rental_uris": {"ios": "https://dc.lft.to/lastmile_qr_scan", "android": "https://dc.lft.to/lastmile_qr_scan"}, "is_reserved": 0}, {"lon": -77.043288, "bike_id": "22d94814a9f42e4b999812564d5d5eee", "lat": 38.918834, "fusion_lon": 0.0, "fusion_lat": 0.0, "type": "electric_scooter", "name": "22d94814a9f42e4b999812564d5d5eee", "is_disabled": 0, "rental_uris": {"ios": "https://dc.lft.to/lastmile_qr_scan", "android": "https://dc.lft.to/lastmile_qr_scan"}, "is_reserved": 0}, {"lon": -77.0272415, "bike_id": "4e19a67e56526f2f4cf6706881426185", "lat": 38.924757, "fusion_lon": 0.0, "fusion_lat": 0.0, "type": "electric_scooter", "name": "4e19a67e56526f2f4cf6706881426185", "is_disabled": 0, "rental_uris": {"ios": "https://dc.lft.to/lastmile_qr_scan", "android": "https://dc.lft.to/lastmile_qr_scan"}, "is_reserved": 0}, {"lon": -76.9853835, "bike_id": "62be36087e8c81e5a0464a7081c56d5a", "lat": 38.910227166666665, "fusion_lon": 0.0, "fusion_lat": 0.0, "type": "electric_scooter", "name": "62be36087e8c81e5a0464a7081c56d5a", "is_disabled": 0, "rental_uris": {"ios": "https://dc.lft.to/lastmile_qr_scan", "android": "https://dc.lft.to/lastmile_qr_scan"}, "is_reserved": 0}, {"lon": -77.03658583333333, "bike_id": "ab0648838eae902733b650bc554cd3da", "lat": 38.92107033333333, "fusion_lon": 0.0, "fusion_lat": 0.0, "type": "electric_scooter", "name": "ab0648838eae902733b650bc554cd3da", "is_disabled": 0, "rental_uris": {"ios": "https://dc.lft.to/lastmile_qr_scan", "android": "https://dc.lft.to/lastmile_qr_scan"}, "is_reserved": 0}, {"lon": -76.96466166666667, "bike_id": "672b2d8d12ca7892055a702832786839", "lat": 38.934492666666664, "fusion_lon": 0.0, "fusion_lat": 0.0, "type": "electric_scooter", "name": "672b2d8d12ca7892055a702832786839", "is_disabled": 0, "rental_uris": {"ios": "https://dc.lft.to/lastmile_qr_scan", "android": "https://dc.lft.to/lastmile_qr_scan"}, "is_reserved": 0}, {"lon": -77.02684066666667, "bike_id": "38bbbb3007361e09c7f3473254385fed", "lat": 38.9849005, "fusion_lon": 0.0, "fusion_lat": 0.0, "type": "electric_scooter", "name": "38bbbb3007361e09c7f3473254385fed", "is_disabled": 0, "rental_uris": {"ios": "https://dc.lft.to/lastmile_qr_scan", "android": "https://dc.lft.to/lastmile_qr_scan"}, "is_reserved": 0}, {"lon": -77.03286483333333, "bike_id": "4c319ee5c873cf19e70c64cd76edfef4", "lat": 38.88412616666667, "fusion_lon": 0.0, "fusion_lat": 0.0, "type": "electric_scooter", "name": "4c319ee5c873cf19e70c64cd76edfef4", "is_disabled": 0, "rental_uris": {"ios": "https://dc.lft.to/lastmile_qr_scan", "android": "https://dc.lft.to/lastmile_qr_scan"}, "is_reserved": 0}, {"lon": -77.04511916666667, "bike_id": "5c6a38ef4ef139b1c90cffd2a08736b8", "lat": 38.9072995, "fusion_lon": 0.0, "fusion_lat": 0.0, "type": "electric_scooter", "name": "5c6a38ef4ef139b1c90cffd2a08736b8", "is_disabled": 0, "rental_uris": {"ios": "https://dc.lft.to/lastmile_qr_scan", "android": "https://dc.lft.to/lastmile_qr_scan"}, "is_reserved": 0}, {"lon": -77.042544, "bike_id": "69ba62f5b30897c36b07e5075e64f83d", "lat": 38.9170335, "fusion_lon": 0.0, "fusion_lat": 0.0, "type": "electric_scooter", "name": "69ba62f5b30897c36b07e5075e64f83d", "is_disabled": 0, "rental_uris": {"ios": "https://dc.lft.to/lastmile_qr_scan", "android": "https://dc.lft.to/lastmile_qr_scan"}, "is_reserved": 0}, {"lon": -77.0242615, "bike_id": "6ea0d30a90d7b58f05da4ca7acf9e4c5", "lat": 38.914044833333335, "fusion_lon": 0.0, "fusion_lat": 0.0, "type": "electric_scooter", "name": "6ea0d30a90d7b58f05da4ca7acf9e4c5", "is_disabled": 0, "rental_uris": {"ios": "https://dc.lft.to/lastmile_qr_scan", "android": "https://dc.lft.to/lastmile_qr_scan"}, "is_reserved": 0}, {"lon": -76.985973, "bike_id": "21ce5f022f6fe252e9319e8a4293abd4", "lat": 38.90627816666667, "fusion_lon": 0.0, "fusion_lat": 0.0, "type": "electric_bike", "name": "21ce5f022f6fe252e9319e8a4293abd4", "is_disabled": 0, "rental_uris": {"ios": "https://dc.lft.to/lastmile_qr_scan", "android": "https://dc.lft.to/lastmile_qr_scan"}, "is_reserved": 0}, {"lon": -77.03399683333333, "bike_id": "28ad993a59ec8f73b5f4f7a1ccff4533", "lat": 38.938468666666665, "fusion_lon": 0.0, "fusion_lat": 0.0, "type": "electric_scooter", "name": "28ad993a59ec8f73b5f4f7a1ccff4533", "is_disabled": 0, "rental_uris": {"ios": "https://dc.lft.to/lastmile_qr_scan", "android": "https://dc.lft.to/lastmile_qr_scan"}, "is_reserved": 0}, {"lon": -77.04928583333333, "bike_id": "c79f92daacee14d2c09db5c06db734ee", "lat": 39.029344, "fusion_lon": 0.0, "fusion_lat": 0.0, "type": "electric_bike", "name": "c79f92daacee14d2c09db5c06db734ee", "is_disabled": 0, "rental_uris": {"ios": "https://dc.lft.to/lastmile_qr_scan", "android": "https://dc.lft.to/lastmile_qr_scan"}, "is_reserved": 0}, {"lon": -77.03255183333333, "bike_id": "74ca07cac64aff3deab8fea2323fea5a", "lat": 38.931361333333335, "fusion_lon": 0.0, "fusion_lat": 0.0, "type": "electric_scooter", "name": "74ca07cac64aff3deab8fea2323fea5a", "is_disabled": 0, "rental_uris": {"ios": "https://dc.lft.to/lastmile_qr_scan", "android": "https://dc.lft.to/lastmile_qr_scan"}, "is_reserved": 0}, {"lon": -77.02167, "bike_id": "93d0344b4bcf874083f8df2bb49b0de0", "lat": 38.88749816666667, "fusion_lon": 0.0, "fusion_lat": 0.0, "type": "electric_scooter", "name": "93d0344b4bcf874083f8df2bb49b0de0", "is_disabled": 0, "rental_uris": {"ios": "https://dc.lft.to/lastmile_qr_scan", "android": "https://dc.lft.to/lastmile_qr_scan"}, "is_reserved": 0}, {"lon": -76.98879266666667, "bike_id": "6fc661f0abeeb21f8c6d41c632fda0a9", "lat": 38.8665565, "fusion_lon": 0.0, "fusion_lat": 0.0, "type": "electric_scooter", "name": "6fc661f0abeeb21f8c6d41c632fda0a9", "is_disabled": 0, "rental_uris": {"ios": "https://dc.lft.to/lastmile_qr_scan", "android": "https://dc.lft.to/lastmile_qr_scan"}, "is_reserved": 0}, {"lon": -77.023047, "bike_id": "cdf33ea56d98ff53dcab10ca4d68d5ba", "lat": 38.94094716666667, "fusion_lon": 0.0, "fusion_lat": 0.0, "type": "electric_scooter", "name": "cdf33ea56d98ff53dcab10ca4d68d5ba", "is_disabled": 0, "rental_uris": {"ios": "https://dc.lft.to/lastmile_qr_scan", "android": "https://dc.lft.to/lastmile_qr_scan"}, "is_reserved": 0}, {"lon": -77.02400166666666, "bike_id": "f07ed0af52dee29559b9dfad5d6e2f95", "lat": 38.920159, "fusion_lon": 0.0, "fusion_lat": 0.0, "type": "electric_scooter", "name": "f07ed0af52dee29559b9dfad5d6e2f95", "is_disabled": 0, "rental_uris": {"ios": "https://dc.lft.to/lastmile_qr_scan", "android": "https://dc.lft.to/lastmile_qr_scan"}, "is_reserved": 0}, {"lon": -77.02157566666666, "bike_id": "dc45fdc76832a6dd963fc2e7f206ba15", "lat": 38.89221366666666, "fusion_lon": 0.0, "fusion_lat": 0.0, "type": "electric_scooter", "name": "dc45fdc76832a6dd963fc2e7f206ba15", "is_disabled": 0, "rental_uris": {"ios": "https://dc.lft.to/lastmile_qr_scan", "android": "https://dc.lft.to/lastmile_qr_scan"}, "is_reserved": 0}, {"lon": -77.039868, "bike_id": "ef3db9c1eae40913fc3c63cfb5b18ab9", "lat": 38.924548333333334, "fusion_lon": 0.0, "fusion_lat": 0.0, "type": "electric_scooter", "name": "ef3db9c1eae40913fc3c63cfb5b18ab9", "is_disabled": 0, "rental_uris": {"ios": "https://dc.lft.to/lastmile_qr_scan", "android": "https://dc.lft.to/lastmile_qr_scan"}, "is_reserved": 0}, {"lon": -77.01220166666667, "bike_id": "94407120a1dbc00d7095551566c0baeb", "lat": 38.89029716666667, "fusion_lon": 0.0, "fusion_lat": 0.0, "type": "electric_scooter", "name": "94407120a1dbc00d7095551566c0baeb", "is_disabled": 0, "rental_uris": {"ios": "https://dc.lft.to/lastmile_qr_scan", "android": "https://dc.lft.to/lastmile_qr_scan"}, "is_reserved": 0}, {"lon": -77.0260005, "bike_id": "d5f8fb549281c5e59037b40835a7569c", "lat": 38.926606666666665, "fusion_lon": 0.0, "fusion_lat": 0.0, "type": "electric_scooter", "name": "d5f8fb549281c5e59037b40835a7569c", "is_disabled": 0, "rental_uris": {"ios": "https://dc.lft.to/lastmile_qr_scan", "android": "https://dc.lft.to/lastmile_qr_scan"}, "is_reserved": 0}, {"lon": -77.00341583333334, "bike_id": "8859cf149dfc454b950cb48088742e19", "lat": 38.90601216666666, "fusion_lon": 0.0, "fusion_lat": 0.0, "type": "electric_scooter", "name": "8859cf149dfc454b950cb48088742e19", "is_disabled": 0, "rental_uris": {"ios": "https://dc.lft.to/lastmile_qr_scan", "android": "https://dc.lft.to/lastmile_qr_scan"}, "is_reserved": 0}, {"lon": -77.04653183333333, "bike_id": "46aa40b1b828a23dead8edca782611a9", "lat": 38.903422, "fusion_lon": 0.0, "fusion_lat": 0.0, "type": "electric_scooter", "name": "46aa40b1b828a23dead8edca782611a9", "is_disabled": 0, "rental_uris": {"ios": "https://dc.lft.to/lastmile_qr_scan", "android": "https://dc.lft.to/lastmile_qr_scan"}, "is_reserved": 0}, {"lon": -77.02400333333334, "bike_id": "e253eea8fe0f17c72da5655db78c4723", "lat": 38.934746833333335, "fusion_lon": 0.0, "fusion_lat": 0.0, "type": "electric_scooter", "name": "e253eea8fe0f17c72da5655db78c4723", "is_disabled": 0, "rental_uris": {"ios": "https://dc.lft.to/lastmile_qr_scan", "android": "https://dc.lft.to/lastmile_qr_scan"}, "is_reserved": 0}, {"lon": -77.04818916666666, "bike_id": "3ecf61a0a8c7dfceb1b6a36d69acd393", "lat": 38.91335316666667, "fusion_lon": 0.0, "fusion_lat": 0.0, "type": "electric_scooter", "name": "3ecf61a0a8c7dfceb1b6a36d69acd393", "is_disabled": 0, "rental_uris": {"ios": "https://dc.lft.to/lastmile_qr_scan", "android": "https://dc.lft.to/lastmile_qr_scan"}, "is_reserved": 0}, {"lon": -77.01150016666666, "bike_id": "f916ed0cc77e818e7fbfcfc5bb0ba9c2", "lat": 38.91118633333333, "fusion_lon": 0.0, "fusion_lat": 0.0, "type": "electric_scooter", "name": "f916ed0cc77e818e7fbfcfc5bb0ba9c2", "is_disabled": 0, "rental_uris": {"ios": "https://dc.lft.to/lastmile_qr_scan", "android": "https://dc.lft.to/lastmile_qr_scan"}, "is_reserved": 0}, {"lon": -77.03261633333334, "bike_id": "12040310ca95df4d484f693f8748bf4e", "lat": 38.934481, "fusion_lon": 0.0, "fusion_lat": 0.0, "type": "electric_scooter", "name": "12040310ca95df4d484f693f8748bf4e", "is_disabled": 0, "rental_uris": {"ios": "https://dc.lft.to/lastmile_qr_scan", "android": "https://dc.lft.to/lastmile_qr_scan"}, "is_reserved": 0}, {"lon": -77.01550833333333, "bike_id": "07d01df7378fd17f162bca7ea233f563", "lat": 38.8922115, "fusion_lon": 0.0, "fusion_lat": 0.0, "type": "electric_scooter", "name": "07d01df7378fd17f162bca7ea233f563", "is_disabled": 0, "rental_uris": {"ios": "https://dc.lft.to/lastmile_qr_scan", "android": "https://dc.lft.to/lastmile_qr_scan"}, "is_reserved": 0}, {"lon": -77.00204866666667, "bike_id": "53fe0604dcac7106dd4bb241018cdff7", "lat": 38.90849383333333, "fusion_lon": 0.0, "fusion_lat": 0.0, "type": "electric_scooter", "name": "53fe0604dcac7106dd4bb241018cdff7", "is_disabled": 0, "rental_uris": {"ios": "https://dc.lft.to/lastmile_qr_scan", "android": "https://dc.lft.to/lastmile_qr_scan"}, "is_reserved": 0}, {"lon": -77.01765766666666, "bike_id": "65006be11e233388f46a890ee32cb84d", "lat": 38.883167666666665, "fusion_lon": 0.0, "fusion_lat": 0.0, "type": "electric_scooter", "name": "65006be11e233388f46a890ee32cb84d", "is_disabled": 0, "rental_uris": {"ios": "https://dc.lft.to/lastmile_qr_scan", "android": "https://dc.lft.to/lastmile_qr_scan"}, "is_reserved": 0}, {"lon": -76.995189, "bike_id": "42485f37d87ad42c86c823d6e0c8d84c", "lat": 38.896141166666666, "fusion_lon": 0.0, "fusion_lat": 0.0, "type": "electric_scooter", "name": "42485f37d87ad42c86c823d6e0c8d84c", "is_disabled": 0, "rental_uris": {"ios": "https://dc.lft.to/lastmile_qr_scan", "android": "https://dc.lft.to/lastmile_qr_scan"}, "is_reserved": 0}, {"lon": -76.9479705, "bike_id": "82ba81a917d462fd1f7158e894f378a9", "lat": 38.86197333333333, "fusion_lon": 0.0, "fusion_lat": 0.0, "type": "electric_bike", "name": "82ba81a917d462fd1f7158e894f378a9", "is_disabled": 0, "rental_uris": {"ios": "https://dc.lft.to/lastmile_qr_scan", "android": "https://dc.lft.to/lastmile_qr_scan"}, "is_reserved": 0}, {"lon": -77.046583, "bike_id": "ac6695b789728753cb8b939935ae365f", "lat": 38.909068166666664, "fusion_lon": 0.0, "fusion_lat": 0.0, "type": "electric_scooter", "name": "ac6695b789728753cb8b939935ae365f", "is_disabled": 0, "rental_uris": {"ios": "https://dc.lft.to/lastmile_qr_scan", "android": "https://dc.lft.to/lastmile_qr_scan"}, "is_reserved": 0}, {"lon": -76.93749633333333, "bike_id": "0691aca9dc0dcb238601ebfb3aeec6e4", "lat": 38.89051466666667, "fusion_lon": 0.0, "fusion_lat": 0.0, "type": "electric_scooter", "name": "0691aca9dc0dcb238601ebfb3aeec6e4", "is_disabled": 0, "rental_uris": {"ios": "https://dc.lft.to/lastmile_qr_scan", "android": "https://dc.lft.to/lastmile_qr_scan"}, "is_reserved": 0}, {"lon": -76.99777233333333, "bike_id": "6042f4bd7ffebc1198992dd8efddafdf", "lat": 38.84309316666667, "fusion_lon": 0.0, "fusion_lat": 0.0, "type": "electric_scooter", "name": "6042f4bd7ffebc1198992dd8efddafdf", "is_disabled": 0, "rental_uris": {"ios": "https://dc.lft.to/lastmile_qr_scan", "android": "https://dc.lft.to/lastmile_qr_scan"}, "is_reserved": 0}, {"lon": -77.0411235, "bike_id": "25aab29f3e7319ae4a1fa5d0da2ead72", "lat": 38.898691666666664, "fusion_lon": 0.0, "fusion_lat": 0.0, "type": "electric_scooter", "name": "25aab29f3e7319ae4a1fa5d0da2ead72", "is_disabled": 0, "rental_uris": {"ios": "https://dc.lft.to/lastmile_qr_scan", "android": "https://dc.lft.to/lastmile_qr_scan"}, "is_reserved": 0}, {"lon": -76.9883965, "bike_id": "9ddede6933b1ce34c079a6398a1f175a", "lat": 38.90074333333333, "fusion_lon": 0.0, "fusion_lat": 0.0, "type": "electric_scooter", "name": "9ddede6933b1ce34c079a6398a1f175a", "is_disabled": 0, "rental_uris": {"ios": "https://dc.lft.to/lastmile_qr_scan", "android": "https://dc.lft.to/lastmile_qr_scan"}, "is_reserved": 0}, {"lon": -77.0230145, "bike_id": "6fb8ec5856632e51e5378bdebdbca7af", "lat": 38.92674816666667, "fusion_lon": 0.0, "fusion_lat": 0.0, "type": "electric_scooter", "name": "6fb8ec5856632e51e5378bdebdbca7af", "is_disabled": 0, "rental_uris": {"ios": "https://dc.lft.to/lastmile_qr_scan", "android": "https://dc.lft.to/lastmile_qr_scan"}, "is_reserved": 0}, {"lon": -77.04517716666666, "bike_id": "bba6e4977233fc77840a14acc8aa5e38", "lat": 38.942001166666664, "fusion_lon": 0.0, "fusion_lat": 0.0, "type": "electric_bike", "name": "bba6e4977233fc77840a14acc8aa5e38", "is_disabled": 0, "rental_uris": {"ios": "https://dc.lft.to/lastmile_qr_scan", "android": "https://dc.lft.to/lastmile_qr_scan"}, "is_reserved": 0}, {"lon": -77.04215466666666, "bike_id": "7dd4a9e25af514b34ba3ad8b631b3a7e", "lat": 38.892727, "fusion_lon": 0.0, "fusion_lat": 0.0, "type": "electric_scooter", "name": "7dd4a9e25af514b34ba3ad8b631b3a7e", "is_disabled": 0, "rental_uris": {"ios": "https://dc.lft.to/lastmile_qr_scan", "android": "https://dc.lft.to/lastmile_qr_scan"}, "is_reserved": 0}, {"lon": -77.03382816666667, "bike_id": "f63868513934cc573b7aeface499a8d5", "lat": 38.938822, "fusion_lon": 0.0, "fusion_lat": 0.0, "type": "electric_scooter", "name": "f63868513934cc573b7aeface499a8d5", "is_disabled": 0, "rental_uris": {"ios": "https://dc.lft.to/lastmile_qr_scan", "android": "https://dc.lft.to/lastmile_qr_scan"}, "is_reserved": 0}, {"lon": -77.0531225, "bike_id": "3ea431ea36118273266e6055aeb18e5b", "lat": 38.900770666666666, "fusion_lon": 0.0, "fusion_lat": 0.0, "type": "electric_scooter", "name": "3ea431ea36118273266e6055aeb18e5b", "is_disabled": 0, "rental_uris": {"ios": "https://dc.lft.to/lastmile_qr_scan", "android": "https://dc.lft.to/lastmile_qr_scan"}, "is_reserved": 0}, {"lon": -76.99546966666666, "bike_id": "42a71d3e00a642fb16b339671930ad54", "lat": 38.862018166666665, "fusion_lon": 0.0, "fusion_lat": 0.0, "type": "electric_scooter", "name": "42a71d3e00a642fb16b339671930ad54", "is_disabled": 0, "rental_uris": {"ios": "https://dc.lft.to/lastmile_qr_scan", "android": "https://dc.lft.to/lastmile_qr_scan"}, "is_reserved": 0}, {"lon": -77.02806683333333, "bike_id": "bcee27af3a289e781e46fd96b3ba7c66", "lat": 38.90671066666667, "fusion_lon": 0.0, "fusion_lat": 0.0, "type": "electric_scooter", "name": "bcee27af3a289e781e46fd96b3ba7c66", "is_disabled": 0, "rental_uris": {"ios": "https://dc.lft.to/lastmile_qr_scan", "android": "https://dc.lft.to/lastmile_qr_scan"}, "is_reserved": 0}, {"lon": -77.13929033333334, "bike_id": "4939428081a80a0e4a6288cbb980dba7", "lat": 38.87300716666667, "fusion_lon": 0.0, "fusion_lat": 0.0, "type": "electric_bike", "name": "4939428081a80a0e4a6288cbb980dba7", "is_disabled": 0, "rental_uris": {"ios": "https://dc.lft.to/lastmile_qr_scan", "android": "https://dc.lft.to/lastmile_qr_scan"}, "is_reserved": 0}, {"lon": -77.055691, "bike_id": "1760c0cbaef5b9387764ce35c4fa6d8c", "lat": 38.89733783333333, "fusion_lon": 0.0, "fusion_lat": 0.0, "type": "electric_scooter", "name": "1760c0cbaef5b9387764ce35c4fa6d8c", "is_disabled": 0, "rental_uris": {"ios": "https://dc.lft.to/lastmile_qr_scan", "android": "https://dc.lft.to/lastmile_qr_scan"}, "is_reserved": 0}, {"lon": -76.94654816666667, "bike_id": "8fbe00dc464a1aa09d6717a0904a8eda", "lat": 38.89822766666666, "fusion_lon": 0.0, "fusion_lat": 0.0, "type": "electric_scooter", "name": "8fbe00dc464a1aa09d6717a0904a8eda", "is_disabled": 0, "rental_uris": {"ios": "https://dc.lft.to/lastmile_qr_scan", "android": "https://dc.lft.to/lastmile_qr_scan"}, "is_reserved": 0}, {"lon": -76.98236233333333, "bike_id": "6877cac5cbc14f6340b61553cf67a967", "lat": 38.864754, "fusion_lon": 0.0, "fusion_lat": 0.0, "type": "electric_scooter", "name": "6877cac5cbc14f6340b61553cf67a967", "is_disabled": 0, "rental_uris": {"ios": "https://dc.lft.to/lastmile_qr_scan", "android": "https://dc.lft.to/lastmile_qr_scan"}, "is_reserved": 0}, {"lon": -76.99028683333333, "bike_id": "79c6398be29721ab6c1b9166695915e0", "lat": 38.89605816666667, "fusion_lon": 0.0, "fusion_lat": 0.0, "type": "electric_scooter", "name": "79c6398be29721ab6c1b9166695915e0", "is_disabled": 0, "rental_uris": {"ios": "https://dc.lft.to/lastmile_qr_scan", "android": "https://dc.lft.to/lastmile_qr_scan"}, "is_reserved": 0}, {"lon": -77.01780466666666, "bike_id": "c62bc965b76734f1441f2855e97865aa", "lat": 38.90044916666667, "fusion_lon": 0.0, "fusion_lat": 0.0, "type": "electric_scooter", "name": "c62bc965b76734f1441f2855e97865aa", "is_disabled": 0, "rental_uris": {"ios": "https://dc.lft.to/lastmile_qr_scan", "android": "https://dc.lft.to/lastmile_qr_scan"}, "is_reserved": 0}, {"lon": -77.03427483333333, "bike_id": "8dd5f0cba929e974ca1f000c852069f3", "lat": 38.965373166666666, "fusion_lon": 0.0, "fusion_lat": 0.0, "type": "electric_bike", "name": "8dd5f0cba929e974ca1f000c852069f3", "is_disabled": 0, "rental_uris": {"ios": "https://dc.lft.to/lastmile_qr_scan", "android": "https://dc.lft.to/lastmile_qr_scan"}, "is_reserved": 0}, {"lon": -77.021605, "bike_id": "0bca1030d421cdb3e810d6d0f3731001", "lat": 38.926167, "fusion_lon": 0.0, "fusion_lat": 0.0, "type": "electric_scooter", "name": "0bca1030d421cdb3e810d6d0f3731001", "is_disabled": 0, "rental_uris": {"ios": "https://dc.lft.to/lastmile_qr_scan", "android": "https://dc.lft.to/lastmile_qr_scan"}, "is_reserved": 0}, {"lon": -77.049003, "bike_id": "f12722d73c87aada7b30aae4b8a7dea3", "lat": 38.91604316666667, "fusion_lon": 0.0, "fusion_lat": 0.0, "type": "electric_scooter", "name": "f12722d73c87aada7b30aae4b8a7dea3", "is_disabled": 0, "rental_uris": {"ios": "https://dc.lft.to/lastmile_qr_scan", "android": "https://dc.lft.to/lastmile_qr_scan"}, "is_reserved": 0}, {"lon": -76.97207, "bike_id": "b83b520fe897c35cfd52da23b821a75c", "lat": 38.89292533333333, "fusion_lon": 0.0, "fusion_lat": 0.0, "type": "electric_bike", "name": "b83b520fe897c35cfd52da23b821a75c", "is_disabled": 0, "rental_uris": {"ios": "https://dc.lft.to/lastmile_qr_scan", "android": "https://dc.lft.to/lastmile_qr_scan"}, "is_reserved": 0}, {"lon": -77.0257705, "bike_id": "ea4038d0c6348121af22cf984728567a", "lat": 38.914058833333335, "fusion_lon": 0.0, "fusion_lat": 0.0, "type": "electric_scooter", "name": "ea4038d0c6348121af22cf984728567a", "is_disabled": 0, "rental_uris": {"ios": "https://dc.lft.to/lastmile_qr_scan", "android": "https://dc.lft.to/lastmile_qr_scan"}, "is_reserved": 0}, {"lon": -77.03073866666666, "bike_id": "000df4117407c14f5a9f7abcfbd8ad12", "lat": 38.885990166666666, "fusion_lon": 0.0, "fusion_lat": 0.0, "type": "electric_scooter", "name": "000df4117407c14f5a9f7abcfbd8ad12", "is_disabled": 0, "rental_uris": {"ios": "https://dc.lft.to/lastmile_qr_scan", "android": "https://dc.lft.to/lastmile_qr_scan"}, "is_reserved": 0}, {"lon": -77.003434, "bike_id": "471511eefb17d9b86eee8a06ae1ddd34", "lat": 38.895262, "fusion_lon": 0.0, "fusion_lat": 0.0, "type": "electric_scooter", "name": "471511eefb17d9b86eee8a06ae1ddd34", "is_disabled": 0, "rental_uris": {"ios": "https://dc.lft.to/lastmile_qr_scan", "android": "https://dc.lft.to/lastmile_qr_scan"}, "is_reserved": 0}, {"lon": -77.02113916666667, "bike_id": "b70dfa5f9740790e08c72929a7317862", "lat": 38.93009033333333, "fusion_lon": 0.0, "fusion_lat": 0.0, "type": "electric_scooter", "name": "b70dfa5f9740790e08c72929a7317862", "is_disabled": 0, "rental_uris": {"ios": "https://dc.lft.to/lastmile_qr_scan", "android": "https://dc.lft.to/lastmile_qr_scan"}, "is_reserved": 0}, {"lon": -77.047466, "bike_id": "35a2b6169ea55a11f7755ab44e7dd77a", "lat": 38.90969716666667, "fusion_lon": 0.0, "fusion_lat": 0.0, "type": "electric_scooter", "name": "35a2b6169ea55a11f7755ab44e7dd77a", "is_disabled": 0, "rental_uris": {"ios": "https://dc.lft.to/lastmile_qr_scan", "android": "https://dc.lft.to/lastmile_qr_scan"}, "is_reserved": 0}, {"lon": -77.0004435, "bike_id": "13128ffa278278b6bd97335da6283d2e", "lat": 38.90016083333333, "fusion_lon": 0.0, "fusion_lat": 0.0, "type": "electric_scooter", "name": "13128ffa278278b6bd97335da6283d2e", "is_disabled": 0, "rental_uris": {"ios": "https://dc.lft.to/lastmile_qr_scan", "android": "https://dc.lft.to/lastmile_qr_scan"}, "is_reserved": 0}, {"lon": -77.02988416666666, "bike_id": "e2cf92910d239551e8f129f7002a221a", "lat": 38.97444333333333, "fusion_lon": 0.0, "fusion_lat": 0.0, "type": "electric_bike", "name": "e2cf92910d239551e8f129f7002a221a", "is_disabled": 0, "rental_uris": {"ios": "https://dc.lft.to/lastmile_qr_scan", "android": "https://dc.lft.to/lastmile_qr_scan"}, "is_reserved": 0}, {"lon": -77.048678, "bike_id": "8e003cf987a38fff0fb7d74d248e6372", "lat": 38.89222183333333, "fusion_lon": 0.0, "fusion_lat": 0.0, "type": "electric_scooter", "name": "8e003cf987a38fff0fb7d74d248e6372", "is_disabled": 0, "rental_uris": {"ios": "https://dc.lft.to/lastmile_qr_scan", "android": "https://dc.lft.to/lastmile_qr_scan"}, "is_reserved": 0}, {"lon": -77.05017916666667, "bike_id": "3e90b07ffce04258ff9fcb44ae0fe61f", "lat": 38.8978235, "fusion_lon": 0.0, "fusion_lat": 0.0, "type": "electric_scooter", "name": "3e90b07ffce04258ff9fcb44ae0fe61f", "is_disabled": 0, "rental_uris": {"ios": "https://dc.lft.to/lastmile_qr_scan", "android": "https://dc.lft.to/lastmile_qr_scan"}, "is_reserved": 0}, {"lon": -77.0188655, "bike_id": "23845332b3e588a4a9cbc4328b0fd37d", "lat": 38.914897833333335, "fusion_lon": 0.0, "fusion_lat": 0.0, "type": "electric_scooter", "name": "23845332b3e588a4a9cbc4328b0fd37d", "is_disabled": 0, "rental_uris": {"ios": "https://dc.lft.to/lastmile_qr_scan", "android": "https://dc.lft.to/lastmile_qr_scan"}, "is_reserved": 0}, {"lon": -76.99769016666667, "bike_id": "a3060d62a00992fcb4c2f7639190ef75", "lat": 38.92451833333333, "fusion_lon": 0.0, "fusion_lat": 0.0, "type": "electric_scooter", "name": "a3060d62a00992fcb4c2f7639190ef75", "is_disabled": 0, "rental_uris": {"ios": "https://dc.lft.to/lastmile_qr_scan", "android": "https://dc.lft.to/lastmile_qr_scan"}, "is_reserved": 0}, {"lon": -77.05125333333334, "bike_id": "ecb07d91dff507fdcf03436c3840dc39", "lat": 38.92367016666667, "fusion_lon": 0.0, "fusion_lat": 0.0, "type": "electric_scooter", "name": "ecb07d91dff507fdcf03436c3840dc39", "is_disabled": 0, "rental_uris": {"ios": "https://dc.lft.to/lastmile_qr_scan", "android": "https://dc.lft.to/lastmile_qr_scan"}, "is_reserved": 0}, {"lon": -77.023084, "bike_id": "585cfa0d5674f6239254d970cc921085", "lat": 38.909567, "fusion_lon": 0.0, "fusion_lat": 0.0, "type": "electric_scooter", "name": "585cfa0d5674f6239254d970cc921085", "is_disabled": 0, "rental_uris": {"ios": "https://dc.lft.to/lastmile_qr_scan", "android": "https://dc.lft.to/lastmile_qr_scan"}, "is_reserved": 0}, {"lon": -77.058629, "bike_id": "d7509aa4b179de60bd68e1a39df9da6e", "lat": 38.93608283333333, "fusion_lon": 0.0, "fusion_lat": 0.0, "type": "electric_scooter", "name": "d7509aa4b179de60bd68e1a39df9da6e", "is_disabled": 0, "rental_uris": {"ios": "https://dc.lft.to/lastmile_qr_scan", "android": "https://dc.lft.to/lastmile_qr_scan"}, "is_reserved": 0}, {"lon": -76.99608666666667, "bike_id": "cf58a4386ea3f9e2c0a7a67236783956", "lat": 38.925519333333334, "fusion_lon": 0.0, "fusion_lat": 0.0, "type": "electric_scooter", "name": "cf58a4386ea3f9e2c0a7a67236783956", "is_disabled": 0, "rental_uris": {"ios": "https://dc.lft.to/lastmile_qr_scan", "android": "https://dc.lft.to/lastmile_qr_scan"}, "is_reserved": 0}, {"lon": -77.01103566666667, "bike_id": "e90aac80b46ca2e59beba592025c9db6", "lat": 38.9038105, "fusion_lon": 0.0, "fusion_lat": 0.0, "type": "electric_scooter", "name": "e90aac80b46ca2e59beba592025c9db6", "is_disabled": 0, "rental_uris": {"ios": "https://dc.lft.to/lastmile_qr_scan", "android": "https://dc.lft.to/lastmile_qr_scan"}, "is_reserved": 0}, {"lon": -77.02708166666666, "bike_id": "21550b905b861001f116a7dcaf61e54c", "lat": 38.91183933333333, "fusion_lon": 0.0, "fusion_lat": 0.0, "type": "electric_scooter", "name": "21550b905b861001f116a7dcaf61e54c", "is_disabled": 0, "rental_uris": {"ios": "https://dc.lft.to/lastmile_qr_scan", "android": "https://dc.lft.to/lastmile_qr_scan"}, "is_reserved": 0}, {"lon": -77.02374616666667, "bike_id": "f165dc30a33a7afdb913fd03ea44519d", "lat": 38.926633, "fusion_lon": 0.0, "fusion_lat": 0.0, "type": "electric_scooter", "name": "f165dc30a33a7afdb913fd03ea44519d", "is_disabled": 0, "rental_uris": {"ios": "https://dc.lft.to/lastmile_qr_scan", "android": "https://dc.lft.to/lastmile_qr_scan"}, "is_reserved": 0}, {"lon": -77.03344666666666, "bike_id": "9f5ede8876d0f1e44fb967d2ed06533b", "lat": 38.917053, "fusion_lon": 0.0, "fusion_lat": 0.0, "type": "electric_scooter", "name": "9f5ede8876d0f1e44fb967d2ed06533b", "is_disabled": 0, "rental_uris": {"ios": "https://dc.lft.to/lastmile_qr_scan", "android": "https://dc.lft.to/lastmile_qr_scan"}, "is_reserved": 0}, {"lon": -77.04896516666666, "bike_id": "18f1b64ba049edbdb46b58d1435efa28", "lat": 38.890029166666665, "fusion_lon": 0.0, "fusion_lat": 0.0, "type": "electric_scooter", "name": "18f1b64ba049edbdb46b58d1435efa28", "is_disabled": 0, "rental_uris": {"ios": "https://dc.lft.to/lastmile_qr_scan", "android": "https://dc.lft.to/lastmile_qr_scan"}, "is_reserved": 0}, {"lon": -77.03343066666666, "bike_id": "c6744c355123ea741f3e6008f73c27bc", "lat": 38.899641333333335, "fusion_lon": 0.0, "fusion_lat": 0.0, "type": "electric_scooter", "name": "c6744c355123ea741f3e6008f73c27bc", "is_disabled": 0, "rental_uris": {"ios": "https://dc.lft.to/lastmile_qr_scan", "android": "https://dc.lft.to/lastmile_qr_scan"}, "is_reserved": 0}, {"lon": -77.02171483333333, "bike_id": "5ce6a9f21c9eb6fa3f56c9a6613f8d10", "lat": 38.900229, "fusion_lon": 0.0, "fusion_lat": 0.0, "type": "electric_scooter", "name": "5ce6a9f21c9eb6fa3f56c9a6613f8d10", "is_disabled": 0, "rental_uris": {"ios": "https://dc.lft.to/lastmile_qr_scan", "android": "https://dc.lft.to/lastmile_qr_scan"}, "is_reserved": 0}, {"lon": -77.00636966666667, "bike_id": "8bca19d51ad23df9ddf6cb47c9c5ff03", "lat": 38.95600433333333, "fusion_lon": 0.0, "fusion_lat": 0.0, "type": "electric_scooter", "name": "8bca19d51ad23df9ddf6cb47c9c5ff03", "is_disabled": 0, "rental_uris": {"ios": "https://dc.lft.to/lastmile_qr_scan", "android": "https://dc.lft.to/lastmile_qr_scan"}, "is_reserved": 0}, {"lon": -77.03866433333333, "bike_id": "e6043d97ff3b4874c23d485a99c8a928", "lat": 38.921508333333335, "fusion_lon": 0.0, "fusion_lat": 0.0, "type": "electric_scooter", "name": "e6043d97ff3b4874c23d485a99c8a928", "is_disabled": 0, "rental_uris": {"ios": "https://dc.lft.to/lastmile_qr_scan", "android": "https://dc.lft.to/lastmile_qr_scan"}, "is_reserved": 0}, {"lon": -77.03660783333333, "bike_id": "26491767505e5806498cd5bb87a9ddff", "lat": 38.91754183333333, "fusion_lon": 0.0, "fusion_lat": 0.0, "type": "electric_scooter", "name": "26491767505e5806498cd5bb87a9ddff", "is_disabled": 0, "rental_uris": {"ios": "https://dc.lft.to/lastmile_qr_scan", "android": "https://dc.lft.to/lastmile_qr_scan"}, "is_reserved": 0}, {"lon": -77.01656683333333, "bike_id": "8383b1e527ad4b563253a82149009e25", "lat": 38.887648, "fusion_lon": 0.0, "fusion_lat": 0.0, "type": "electric_scooter", "name": "8383b1e527ad4b563253a82149009e25", "is_disabled": 0, "rental_uris": {"ios": "https://dc.lft.to/lastmile_qr_scan", "android": "https://dc.lft.to/lastmile_qr_scan"}, "is_reserved": 0}, {"lon": -77.05125683333333, "bike_id": "fe9ce36df2095a0a27a88cfb8b71b075", "lat": 38.9021745, "fusion_lon": 0.0, "fusion_lat": 0.0, "type": "electric_scooter", "name": "fe9ce36df2095a0a27a88cfb8b71b075", "is_disabled": 0, "rental_uris": {"ios": "https://dc.lft.to/lastmile_qr_scan", "android": "https://dc.lft.to/lastmile_qr_scan"}, "is_reserved": 0}, {"lon": -76.90597083333333, "bike_id": "758e7bfe87cadfae62b82cd5c794f302", "lat": 39.0045185, "fusion_lon": 0.0, "fusion_lat": 0.0, "type": "electric_bike", "name": "758e7bfe87cadfae62b82cd5c794f302", "is_disabled": 0, "rental_uris": {"ios": "https://dc.lft.to/lastmile_qr_scan", "android": "https://dc.lft.to/lastmile_qr_scan"}, "is_reserved": 0}, {"lon": -77.00991016666667, "bike_id": "580465f52ce450da92c6958ee2bf0692", "lat": 38.8730085, "fusion_lon": 0.0, "fusion_lat": 0.0, "type": "electric_scooter", "name": "580465f52ce450da92c6958ee2bf0692", "is_disabled": 0, "rental_uris": {"ios": "https://dc.lft.to/lastmile_qr_scan", "android": "https://dc.lft.to/lastmile_qr_scan"}, "is_reserved": 0}, {"lon": -77.00378316666666, "bike_id": "36d06e1ed8ef7665c13f37bd69587342", "lat": 38.897457, "fusion_lon": 0.0, "fusion_lat": 0.0, "type": "electric_scooter", "name": "36d06e1ed8ef7665c13f37bd69587342", "is_disabled": 0, "rental_uris": {"ios": "https://dc.lft.to/lastmile_qr_scan", "android": "https://dc.lft.to/lastmile_qr_scan"}, "is_reserved": 0}, {"lon": -76.98025133333333, "bike_id": "eb997ff7fb4543d42a5914f552198615", "lat": 38.9007805, "fusion_lon": 0.0, "fusion_lat": 0.0, "type": "electric_bike", "name": "eb997ff7fb4543d42a5914f552198615", "is_disabled": 0, "rental_uris": {"ios": "https://dc.lft.to/lastmile_qr_scan", "android": "https://dc.lft.to/lastmile_qr_scan"}, "is_reserved": 0}, {"lon": -76.986139, "bike_id": "bf8cfeab9d2dfe55afcd7aef11d5ed81", "lat": 38.93830066666666, "fusion_lon": 0.0, "fusion_lat": 0.0, "type": "electric_scooter", "name": "bf8cfeab9d2dfe55afcd7aef11d5ed81", "is_disabled": 0, "rental_uris": {"ios": "https://dc.lft.to/lastmile_qr_scan", "android": "https://dc.lft.to/lastmile_qr_scan"}, "is_reserved": 0}, {"lon": -77.023971, "bike_id": "964aca80038d61ab144d25965e866082", "lat": 38.934718, "fusion_lon": 0.0, "fusion_lat": 0.0, "type": "electric_scooter", "name": "964aca80038d61ab144d25965e866082", "is_disabled": 0, "rental_uris": {"ios": "https://dc.lft.to/lastmile_qr_scan", "android": "https://dc.lft.to/lastmile_qr_scan"}, "is_reserved": 0}, {"lon": -77.02973, "bike_id": "2e1a65c7275422549264d877236ac934", "lat": 38.907749, "fusion_lon": 0.0, "fusion_lat": 0.0, "type": "electric_scooter", "name": "2e1a65c7275422549264d877236ac934", "is_disabled": 0, "rental_uris": {"ios": "https://dc.lft.to/lastmile_qr_scan", "android": "https://dc.lft.to/lastmile_qr_scan"}, "is_reserved": 0}, {"lon": -76.94631183333334, "bike_id": "9a135d2cea4d24c26541c7c87daf785b", "lat": 38.898367666666665, "fusion_lon": 0.0, "fusion_lat": 0.0, "type": "electric_scooter", "name": "9a135d2cea4d24c26541c7c87daf785b", "is_disabled": 0, "rental_uris": {"ios": "https://dc.lft.to/lastmile_qr_scan", "android": "https://dc.lft.to/lastmile_qr_scan"}, "is_reserved": 0}, {"lon": -77.360908, "bike_id": "e681d512e2f2da7f64fefc08ac33d9a7", "lat": 38.93956933333333, "fusion_lon": 0.0, "fusion_lat": 0.0, "type": "electric_bike", "name": "e681d512e2f2da7f64fefc08ac33d9a7", "is_disabled": 0, "rental_uris": {"ios": "https://dc.lft.to/lastmile_qr_scan", "android": "https://dc.lft.to/lastmile_qr_scan"}, "is_reserved": 0}, {"lon": -76.977035, "bike_id": "5b6cc2cde32ddc4baeafd6eff11f32b8", "lat": 38.94918833333333, "fusion_lon": 0.0, "fusion_lat": 0.0, "type": "electric_bike", "name": "5b6cc2cde32ddc4baeafd6eff11f32b8", "is_disabled": 0, "rental_uris": {"ios": "https://dc.lft.to/lastmile_qr_scan", "android": "https://dc.lft.to/lastmile_qr_scan"}, "is_reserved": 0}, {"lon": -77.02006666666666, "bike_id": "c01a5ce411e744aa65f8bfc0ef08a820", "lat": 38.91312633333333, "fusion_lon": 0.0, "fusion_lat": 0.0, "type": "electric_scooter", "name": "c01a5ce411e744aa65f8bfc0ef08a820", "is_disabled": 0, "rental_uris": {"ios": "https://dc.lft.to/lastmile_qr_scan", "android": "https://dc.lft.to/lastmile_qr_scan"}, "is_reserved": 0}, {"lon": -77.04175583333334, "bike_id": "0f322163957ce82afe4bba7058d10b16", "lat": 38.916581, "fusion_lon": 0.0, "fusion_lat": 0.0, "type": "electric_scooter", "name": "0f322163957ce82afe4bba7058d10b16", "is_disabled": 0, "rental_uris": {"ios": "https://dc.lft.to/lastmile_qr_scan", "android": "https://dc.lft.to/lastmile_qr_scan"}, "is_reserved": 0}, {"lon": -76.89532016666666, "bike_id": "a664e278337ce3e263ecbb47e5dcec8f", "lat": 38.945509333333334, "fusion_lon": 0.0, "fusion_lat": 0.0, "type": "electric_bike", "name": "a664e278337ce3e263ecbb47e5dcec8f", "is_disabled": 0, "rental_uris": {"ios": "https://dc.lft.to/lastmile_qr_scan", "android": "https://dc.lft.to/lastmile_qr_scan"}, "is_reserved": 0}, {"lon": -77.094678, "bike_id": "4ad5936dc2d210f642946b38bd6e9ded", "lat": 38.807611333333334, "fusion_lon": 0.0, "fusion_lat": 0.0, "type": "electric_bike", "name": "4ad5936dc2d210f642946b38bd6e9ded", "is_disabled": 0, "rental_uris": {"ios": "https://dc.lft.to/lastmile_qr_scan", "android": "https://dc.lft.to/lastmile_qr_scan"}, "is_reserved": 0}, {"lon": -77.05595316666667, "bike_id": "b535394243221847f8ba375d362a22f0", "lat": 38.91618, "fusion_lon": 0.0, "fusion_lat": 0.0, "type": "electric_scooter", "name": "b535394243221847f8ba375d362a22f0", "is_disabled": 0, "rental_uris": {"ios": "https://dc.lft.to/lastmile_qr_scan", "android": "https://dc.lft.to/lastmile_qr_scan"}, "is_reserved": 0}, {"lon": -77.053361, "bike_id": "70918d7c619e4e62d1f30a102b30d171", "lat": 38.907186, "fusion_lon": 0.0, "fusion_lat": 0.0, "type": "electric_scooter", "name": "70918d7c619e4e62d1f30a102b30d171", "is_disabled": 0, "rental_uris": {"ios": "https://dc.lft.to/lastmile_qr_scan", "android": "https://dc.lft.to/lastmile_qr_scan"}, "is_reserved": 0}, {"lon": -77.0444235, "bike_id": "dbc6507f9b7ab7e273b829c9d457337f", "lat": 38.91781, "fusion_lon": 0.0, "fusion_lat": 0.0, "type": "electric_scooter", "name": "dbc6507f9b7ab7e273b829c9d457337f", "is_disabled": 0, "rental_uris": {"ios": "https://dc.lft.to/lastmile_qr_scan", "android": "https://dc.lft.to/lastmile_qr_scan"}, "is_reserved": 0}, {"lon": -77.038362, "bike_id": "0c869540baab4e23c060cc22bb61f745", "lat": 38.910965, "fusion_lon": 0.0, "fusion_lat": 0.0, "type": "electric_scooter", "name": "0c869540baab4e23c060cc22bb61f745", "is_disabled": 0, "rental_uris": {"ios": "https://dc.lft.to/lastmile_qr_scan", "android": "https://dc.lft.to/lastmile_qr_scan"}, "is_reserved": 0}, {"lon": -77.0215765, "bike_id": "012872a406986ec791f1d54faa8370eb", "lat": 38.89223766666667, "fusion_lon": 0.0, "fusion_lat": 0.0, "type": "electric_scooter", "name": "012872a406986ec791f1d54faa8370eb", "is_disabled": 0, "rental_uris": {"ios": "https://dc.lft.to/lastmile_qr_scan", "android": "https://dc.lft.to/lastmile_qr_scan"}, "is_reserved": 0}, {"lon": -77.02734916666667, "bike_id": "d2c17502f024a4b9ceb667fa68315fb4", "lat": 38.940951166666665, "fusion_lon": 0.0, "fusion_lat": 0.0, "type": "electric_scooter", "name": "d2c17502f024a4b9ceb667fa68315fb4", "is_disabled": 0, "rental_uris": {"ios": "https://dc.lft.to/lastmile_qr_scan", "android": "https://dc.lft.to/lastmile_qr_scan"}, "is_reserved": 0}, {"lon": -77.019815, "bike_id": "bc2e393725eb97bfc507365b55ad3876", "lat": 38.91496583333333, "fusion_lon": 0.0, "fusion_lat": 0.0, "type": "electric_scooter", "name": "bc2e393725eb97bfc507365b55ad3876", "is_disabled": 0, "rental_uris": {"ios": "https://dc.lft.to/lastmile_qr_scan", "android": "https://dc.lft.to/lastmile_qr_scan"}, "is_reserved": 0}, {"lon": -77.06134933333334, "bike_id": "1046ad581294505297d0b50e4b7fef01", "lat": 38.90530316666667, "fusion_lon": 0.0, "fusion_lat": 0.0, "type": "electric_scooter", "name": "1046ad581294505297d0b50e4b7fef01", "is_disabled": 0, "rental_uris": {"ios": "https://dc.lft.to/lastmile_qr_scan", "android": "https://dc.lft.to/lastmile_qr_scan"}, "is_reserved": 0}, {"lon": -77.00932983333334, "bike_id": "f4217c46b64b34be47266b5c5a6407a5", "lat": 38.8960165, "fusion_lon": 0.0, "fusion_lat": 0.0, "type": "electric_scooter", "name": "f4217c46b64b34be47266b5c5a6407a5", "is_disabled": 0, "rental_uris": {"ios": "https://dc.lft.to/lastmile_qr_scan", "android": "https://dc.lft.to/lastmile_qr_scan"}, "is_reserved": 0}, {"lon": -77.02447916666667, "bike_id": "44a9b2b059a0c583d5f61c89fac5bbb9", "lat": 38.93100033333333, "fusion_lon": 0.0, "fusion_lat": 0.0, "type": "electric_scooter", "name": "44a9b2b059a0c583d5f61c89fac5bbb9", "is_disabled": 0, "rental_uris": {"ios": "https://dc.lft.to/lastmile_qr_scan", "android": "https://dc.lft.to/lastmile_qr_scan"}, "is_reserved": 0}, {"lon": -77.07478733333333, "bike_id": "a9715c4a355a6c86f23cc1159962a956", "lat": 38.96313883333333, "fusion_lon": 0.0, "fusion_lat": 0.0, "type": "electric_scooter", "name": "a9715c4a355a6c86f23cc1159962a956", "is_disabled": 0, "rental_uris": {"ios": "https://dc.lft.to/lastmile_qr_scan", "android": "https://dc.lft.to/lastmile_qr_scan"}, "is_reserved": 0}, {"lon": -77.0354375, "bike_id": "35cd6533f48bef2ac13a9d40de3add6c", "lat": 38.9183745, "fusion_lon": 0.0, "fusion_lat": 0.0, "type": "electric_scooter", "name": "35cd6533f48bef2ac13a9d40de3add6c", "is_disabled": 0, "rental_uris": {"ios": "https://dc.lft.to/lastmile_qr_scan", "android": "https://dc.lft.to/lastmile_qr_scan"}, "is_reserved": 0}, {"lon": -77.03048383333334, "bike_id": "6eecae1412bd308f571c88c058caca89", "lat": 38.884339, "fusion_lon": 0.0, "fusion_lat": 0.0, "type": "electric_scooter", "name": "6eecae1412bd308f571c88c058caca89", "is_disabled": 0, "rental_uris": {"ios": "https://dc.lft.to/lastmile_qr_scan", "android": "https://dc.lft.to/lastmile_qr_scan"}, "is_reserved": 0}, {"lon": -77.02838966666667, "bike_id": "8d8116ff99594ed17aaf836fa0d98751", "lat": 38.8877305, "fusion_lon": 0.0, "fusion_lat": 0.0, "type": "electric_scooter", "name": "8d8116ff99594ed17aaf836fa0d98751", "is_disabled": 0, "rental_uris": {"ios": "https://dc.lft.to/lastmile_qr_scan", "android": "https://dc.lft.to/lastmile_qr_scan"}, "is_reserved": 0}, {"lon": -76.97812283333333, "bike_id": "2062296a671bbd8ea2e09a95b8fad41e", "lat": 38.90675616666667, "fusion_lon": 0.0, "fusion_lat": 0.0, "type": "electric_scooter", "name": "2062296a671bbd8ea2e09a95b8fad41e", "is_disabled": 0, "rental_uris": {"ios": "https://dc.lft.to/lastmile_qr_scan", "android": "https://dc.lft.to/lastmile_qr_scan"}, "is_reserved": 0}, {"lon": -77.00209233333334, "bike_id": "fef1a63c0bbd6fcec0c54ec19b86b73a", "lat": 38.91452066666667, "fusion_lon": 0.0, "fusion_lat": 0.0, "type": "electric_scooter", "name": "fef1a63c0bbd6fcec0c54ec19b86b73a", "is_disabled": 0, "rental_uris": {"ios": "https://dc.lft.to/lastmile_qr_scan", "android": "https://dc.lft.to/lastmile_qr_scan"}, "is_reserved": 0}, {"lon": -77.04008283333333, "bike_id": "bdb4e58a3f32bd9677a654e5938c5830", "lat": 38.910176166666666, "fusion_lon": 0.0, "fusion_lat": 0.0, "type": "electric_scooter", "name": "bdb4e58a3f32bd9677a654e5938c5830", "is_disabled": 0, "rental_uris": {"ios": "https://dc.lft.to/lastmile_qr_scan", "android": "https://dc.lft.to/lastmile_qr_scan"}, "is_reserved": 0}, {"lon": -77.00113, "bike_id": "83389f5647d11528fb0611217ea7f532", "lat": 38.917085, "fusion_lon": 0.0, "fusion_lat": 0.0, "type": "electric_scooter", "name": "83389f5647d11528fb0611217ea7f532", "is_disabled": 0, "rental_uris": {"ios": "https://dc.lft.to/lastmile_qr_scan", "android": "https://dc.lft.to/lastmile_qr_scan"}, "is_reserved": 0}, {"lon": -77.02860183333334, "bike_id": "c64bc695d02f88c048fa38383eab63bd", "lat": 38.88755416666667, "fusion_lon": 0.0, "fusion_lat": 0.0, "type": "electric_scooter", "name": "c64bc695d02f88c048fa38383eab63bd", "is_disabled": 0, "rental_uris": {"ios": "https://dc.lft.to/lastmile_qr_scan", "android": "https://dc.lft.to/lastmile_qr_scan"}, "is_reserved": 0}, {"lon": -77.00051516666667, "bike_id": "cbd0a6fb308402bacd9e335b8f81376d", "lat": 38.87664383333333, "fusion_lon": 0.0, "fusion_lat": 0.0, "type": "electric_scooter", "name": "cbd0a6fb308402bacd9e335b8f81376d", "is_disabled": 0, "rental_uris": {"ios": "https://dc.lft.to/lastmile_qr_scan", "android": "https://dc.lft.to/lastmile_qr_scan"}, "is_reserved": 0}, {"lon": -77.0278385, "bike_id": "68027f1f9bdc60ac499a37d39e09ae88", "lat": 38.9419275, "fusion_lon": 0.0, "fusion_lat": 0.0, "type": "electric_scooter", "name": "68027f1f9bdc60ac499a37d39e09ae88", "is_disabled": 0, "rental_uris": {"ios": "https://dc.lft.to/lastmile_qr_scan", "android": "https://dc.lft.to/lastmile_qr_scan"}, "is_reserved": 0}, {"lon": -77.0279195, "bike_id": "65fb15e78a34af885b07f8b5ca424fc5", "lat": 38.93425666666667, "fusion_lon": 0.0, "fusion_lat": 0.0, "type": "electric_scooter", "name": "65fb15e78a34af885b07f8b5ca424fc5", "is_disabled": 0, "rental_uris": {"ios": "https://dc.lft.to/lastmile_qr_scan", "android": "https://dc.lft.to/lastmile_qr_scan"}, "is_reserved": 0}, {"lon": -76.99913466666666, "bike_id": "2b000d4984acf43324b899d08741f1ca", "lat": 38.92458716666667, "fusion_lon": 0.0, "fusion_lat": 0.0, "type": "electric_scooter", "name": "2b000d4984acf43324b899d08741f1ca", "is_disabled": 0, "rental_uris": {"ios": "https://dc.lft.to/lastmile_qr_scan", "android": "https://dc.lft.to/lastmile_qr_scan"}, "is_reserved": 0}, {"lon": -77.0121635, "bike_id": "08d46a8a48f6e1bcdca2989948f9f678", "lat": 38.87188233333333, "fusion_lon": 0.0, "fusion_lat": 0.0, "type": "electric_scooter", "name": "08d46a8a48f6e1bcdca2989948f9f678", "is_disabled": 0, "rental_uris": {"ios": "https://dc.lft.to/lastmile_qr_scan", "android": "https://dc.lft.to/lastmile_qr_scan"}, "is_reserved": 0}, {"lon": -77.0335475, "bike_id": "89761b0afaed287e68bc2afb2de6949c", "lat": 38.90276883333333, "fusion_lon": 0.0, "fusion_lat": 0.0, "type": "electric_scooter", "name": "89761b0afaed287e68bc2afb2de6949c", "is_disabled": 0, "rental_uris": {"ios": "https://dc.lft.to/lastmile_qr_scan", "android": "https://dc.lft.to/lastmile_qr_scan"}, "is_reserved": 0}, {"lon": -77.01923283333333, "bike_id": "c3de75dddde9416210cc41b524aef8c0", "lat": 38.93467783333333, "fusion_lon": 0.0, "fusion_lat": 0.0, "type": "electric_scooter", "name": "c3de75dddde9416210cc41b524aef8c0", "is_disabled": 0, "rental_uris": {"ios": "https://dc.lft.to/lastmile_qr_scan", "android": "https://dc.lft.to/lastmile_qr_scan"}, "is_reserved": 0}, {"lon": -77.05253633333334, "bike_id": "66dd1e33c252a5f614e5fb06bf054ae8", "lat": 38.92736766666667, "fusion_lon": 0.0, "fusion_lat": 0.0, "type": "electric_scooter", "name": "66dd1e33c252a5f614e5fb06bf054ae8", "is_disabled": 0, "rental_uris": {"ios": "https://dc.lft.to/lastmile_qr_scan", "android": "https://dc.lft.to/lastmile_qr_scan"}, "is_reserved": 0}, {"lon": -77.02958083333333, "bike_id": "6783b9fc9bae8a3ea437101d0eb0a127", "lat": 38.9080195, "fusion_lon": 0.0, "fusion_lat": 0.0, "type": "electric_scooter", "name": "6783b9fc9bae8a3ea437101d0eb0a127", "is_disabled": 0, "rental_uris": {"ios": "https://dc.lft.to/lastmile_qr_scan", "android": "https://dc.lft.to/lastmile_qr_scan"}, "is_reserved": 0}, {"lon": -77.0220845, "bike_id": "f4b2fd0ca8eb117612e567ad95fd5b66", "lat": 38.9141725, "fusion_lon": 0.0, "fusion_lat": 0.0, "type": "electric_scooter", "name": "f4b2fd0ca8eb117612e567ad95fd5b66", "is_disabled": 0, "rental_uris": {"ios": "https://dc.lft.to/lastmile_qr_scan", "android": "https://dc.lft.to/lastmile_qr_scan"}, "is_reserved": 0}, {"lon": -76.98227816666666, "bike_id": "d6e023c78f638f5dee52b31fb5979e73", "lat": 38.886515333333335, "fusion_lon": 0.0, "fusion_lat": 0.0, "type": "electric_scooter", "name": "d6e023c78f638f5dee52b31fb5979e73", "is_disabled": 0, "rental_uris": {"ios": "https://dc.lft.to/lastmile_qr_scan", "android": "https://dc.lft.to/lastmile_qr_scan"}, "is_reserved": 0}, {"lon": -77.05725033333333, "bike_id": "26d2a5ac8ac0a134271c3f96ffb486ae", "lat": 38.9336575, "fusion_lon": 0.0, "fusion_lat": 0.0, "type": "electric_scooter", "name": "26d2a5ac8ac0a134271c3f96ffb486ae", "is_disabled": 0, "rental_uris": {"ios": "https://dc.lft.to/lastmile_qr_scan", "android": "https://dc.lft.to/lastmile_qr_scan"}, "is_reserved": 0}, {"lon": -77.16629116666667, "bike_id": "e52c0b500c6ec54fb92633d886433bdc", "lat": 38.88838883333333, "fusion_lon": 0.0, "fusion_lat": 0.0, "type": "electric_bike", "name": "e52c0b500c6ec54fb92633d886433bdc", "is_disabled": 0, "rental_uris": {"ios": "https://dc.lft.to/lastmile_qr_scan", "android": "https://dc.lft.to/lastmile_qr_scan"}, "is_reserved": 0}, {"lon": -77.072956, "bike_id": "2c7f38f42ed76333e41271be0a3edb9c", "lat": 38.92468366666667, "fusion_lon": 0.0, "fusion_lat": 0.0, "type": "electric_scooter", "name": "2c7f38f42ed76333e41271be0a3edb9c", "is_disabled": 0, "rental_uris": {"ios": "https://dc.lft.to/lastmile_qr_scan", "android": "https://dc.lft.to/lastmile_qr_scan"}, "is_reserved": 0}, {"lon": -77.11143316666667, "bike_id": "7811bfeedaef3972d93f65999766ae73", "lat": 38.85508983333333, "fusion_lon": 0.0, "fusion_lat": 0.0, "type": "electric_bike", "name": "7811bfeedaef3972d93f65999766ae73", "is_disabled": 0, "rental_uris": {"ios": "https://dc.lft.to/lastmile_qr_scan", "android": "https://dc.lft.to/lastmile_qr_scan"}, "is_reserved": 0}, {"lon": -77.10480333333334, "bike_id": "7ab12559f0e9750644f81fb500be0409", "lat": 38.856080166666665, "fusion_lon": 0.0, "fusion_lat": 0.0, "type": "electric_bike", "name": "7ab12559f0e9750644f81fb500be0409", "is_disabled": 0, "rental_uris": {"ios": "https://dc.lft.to/lastmile_qr_scan", "android": "https://dc.lft.to/lastmile_qr_scan"}, "is_reserved": 0}, {"lon": -77.01582966666666, "bike_id": "019de29065399773d452998eefe4187b", "lat": 38.88616066666667, "fusion_lon": 0.0, "fusion_lat": 0.0, "type": "electric_scooter", "name": "019de29065399773d452998eefe4187b", "is_disabled": 0, "rental_uris": {"ios": "https://dc.lft.to/lastmile_qr_scan", "android": "https://dc.lft.to/lastmile_qr_scan"}, "is_reserved": 0}, {"lon": -76.9730135, "bike_id": "27e0f29e2a37af913ecbeb8e3065bc54", "lat": 38.86588116666667, "fusion_lon": 0.0, "fusion_lat": 0.0, "type": "electric_scooter", "name": "27e0f29e2a37af913ecbeb8e3065bc54", "is_disabled": 0, "rental_uris": {"ios": "https://dc.lft.to/lastmile_qr_scan", "android": "https://dc.lft.to/lastmile_qr_scan"}, "is_reserved": 0}, {"lon": -77.02373466666667, "bike_id": "ce753336cd7f61cda04efa43ea03cb82", "lat": 38.902049166666664, "fusion_lon": 0.0, "fusion_lat": 0.0, "type": "electric_scooter", "name": "ce753336cd7f61cda04efa43ea03cb82", "is_disabled": 0, "rental_uris": {"ios": "https://dc.lft.to/lastmile_qr_scan", "android": "https://dc.lft.to/lastmile_qr_scan"}, "is_reserved": 0}, {"lon": -77.04472133333333, "bike_id": "23493bd4b2a796e564d9b2e50055b74d", "lat": 38.9156715, "fusion_lon": 0.0, "fusion_lat": 0.0, "type": "electric_scooter", "name": "23493bd4b2a796e564d9b2e50055b74d", "is_disabled": 0, "rental_uris": {"ios": "https://dc.lft.to/lastmile_qr_scan", "android": "https://dc.lft.to/lastmile_qr_scan"}, "is_reserved": 0}, {"lon": -77.0468935, "bike_id": "8a2f45d840b85f9a766f2ac348cfff04", "lat": 39.02397333333333, "fusion_lon": 0.0, "fusion_lat": 0.0, "type": "electric_bike", "name": "8a2f45d840b85f9a766f2ac348cfff04", "is_disabled": 0, "rental_uris": {"ios": "https://dc.lft.to/lastmile_qr_scan", "android": "https://dc.lft.to/lastmile_qr_scan"}, "is_reserved": 0}, {"lon": -77.0245365, "bike_id": "377bbfd4f1dec7965e9f9077ae21007d", "lat": 38.93793433333333, "fusion_lon": 0.0, "fusion_lat": 0.0, "type": "electric_scooter", "name": "377bbfd4f1dec7965e9f9077ae21007d", "is_disabled": 0, "rental_uris": {"ios": "https://dc.lft.to/lastmile_qr_scan", "android": "https://dc.lft.to/lastmile_qr_scan"}, "is_reserved": 0}, {"lon": -77.00733283333334, "bike_id": "0ecab1ab21e2d06b9464367a2d91e2d3", "lat": 38.87659283333333, "fusion_lon": 0.0, "fusion_lat": 0.0, "type": "electric_scooter", "name": "0ecab1ab21e2d06b9464367a2d91e2d3", "is_disabled": 0, "rental_uris": {"ios": "https://dc.lft.to/lastmile_qr_scan", "android": "https://dc.lft.to/lastmile_qr_scan"}, "is_reserved": 0}, {"lon": -77.00556166666667, "bike_id": "6f4d1455b2309aa4dcbba20d48e91637", "lat": 38.87472533333333, "fusion_lon": 0.0, "fusion_lat": 0.0, "type": "electric_scooter", "name": "6f4d1455b2309aa4dcbba20d48e91637", "is_disabled": 0, "rental_uris": {"ios": "https://dc.lft.to/lastmile_qr_scan", "android": "https://dc.lft.to/lastmile_qr_scan"}, "is_reserved": 0}, {"lon": -77.05594983333333, "bike_id": "19e23df17e1071566e56cff41caeee34", "lat": 38.93703633333333, "fusion_lon": 0.0, "fusion_lat": 0.0, "type": "electric_scooter", "name": "19e23df17e1071566e56cff41caeee34", "is_disabled": 0, "rental_uris": {"ios": "https://dc.lft.to/lastmile_qr_scan", "android": "https://dc.lft.to/lastmile_qr_scan"}, "is_reserved": 0}, {"lon": -77.053842, "bike_id": "82cdac4e5de7a88d1719a37ef440b30a", "lat": 38.927286333333335, "fusion_lon": 0.0, "fusion_lat": 0.0, "type": "electric_scooter", "name": "82cdac4e5de7a88d1719a37ef440b30a", "is_disabled": 0, "rental_uris": {"ios": "https://dc.lft.to/lastmile_qr_scan", "android": "https://dc.lft.to/lastmile_qr_scan"}, "is_reserved": 0}, {"lon": -76.99597783333333, "bike_id": "3ab95ef0110dbfd012954fad89e287a6", "lat": 38.8570155, "fusion_lon": 0.0, "fusion_lat": 0.0, "type": "electric_scooter", "name": "3ab95ef0110dbfd012954fad89e287a6", "is_disabled": 0, "rental_uris": {"ios": "https://dc.lft.to/lastmile_qr_scan", "android": "https://dc.lft.to/lastmile_qr_scan"}, "is_reserved": 0}, {"lon": -77.01363983333333, "bike_id": "66b8fbb1abbffbc583389eea08cdc0e7", "lat": 38.88709733333334, "fusion_lon": 0.0, "fusion_lat": 0.0, "type": "electric_scooter", "name": "66b8fbb1abbffbc583389eea08cdc0e7", "is_disabled": 0, "rental_uris": {"ios": "https://dc.lft.to/lastmile_qr_scan", "android": "https://dc.lft.to/lastmile_qr_scan"}, "is_reserved": 0}, {"lon": -77.03056016666666, "bike_id": "8cfc35ed787a3761464c3b73dc390f33", "lat": 38.89831383333333, "fusion_lon": 0.0, "fusion_lat": 0.0, "type": "electric_scooter", "name": "8cfc35ed787a3761464c3b73dc390f33", "is_disabled": 0, "rental_uris": {"ios": "https://dc.lft.to/lastmile_qr_scan", "android": "https://dc.lft.to/lastmile_qr_scan"}, "is_reserved": 0}, {"lon": -77.0258305, "bike_id": "2863b112b74b1dd92b85b28e8a750dd9", "lat": 38.9273455, "fusion_lon": 0.0, "fusion_lat": 0.0, "type": "electric_scooter", "name": "2863b112b74b1dd92b85b28e8a750dd9", "is_disabled": 0, "rental_uris": {"ios": "https://dc.lft.to/lastmile_qr_scan", "android": "https://dc.lft.to/lastmile_qr_scan"}, "is_reserved": 0}, {"lon": -77.04608583333334, "bike_id": "d90662d7cfce775d7d8589d434d0af0b", "lat": 38.916104, "fusion_lon": 0.0, "fusion_lat": 0.0, "type": "electric_scooter", "name": "d90662d7cfce775d7d8589d434d0af0b", "is_disabled": 0, "rental_uris": {"ios": "https://dc.lft.to/lastmile_qr_scan", "android": "https://dc.lft.to/lastmile_qr_scan"}, "is_reserved": 0}, {"lon": -77.02394833333334, "bike_id": "e6380f5cd4dcbdf6004301a15928c744", "lat": 38.92005266666666, "fusion_lon": 0.0, "fusion_lat": 0.0, "type": "electric_scooter", "name": "e6380f5cd4dcbdf6004301a15928c744", "is_disabled": 0, "rental_uris": {"ios": "https://dc.lft.to/lastmile_qr_scan", "android": "https://dc.lft.to/lastmile_qr_scan"}, "is_reserved": 0}, {"lon": -76.9882615, "bike_id": "031422be319f7ea73196588d0e3ed9de", "lat": 38.890763666666665, "fusion_lon": 0.0, "fusion_lat": 0.0, "type": "electric_scooter", "name": "031422be319f7ea73196588d0e3ed9de", "is_disabled": 0, "rental_uris": {"ios": "https://dc.lft.to/lastmile_qr_scan", "android": "https://dc.lft.to/lastmile_qr_scan"}, "is_reserved": 0}, {"lon": -77.02909183333334, "bike_id": "6f8d43d6aa7cfed174e12d1ab57ed489", "lat": 38.89841666666667, "fusion_lon": 0.0, "fusion_lat": 0.0, "type": "electric_scooter", "name": "6f8d43d6aa7cfed174e12d1ab57ed489", "is_disabled": 0, "rental_uris": {"ios": "https://dc.lft.to/lastmile_qr_scan", "android": "https://dc.lft.to/lastmile_qr_scan"}, "is_reserved": 0}, {"lon": -77.04698766666667, "bike_id": "206295c38266110b236437383340a957", "lat": 38.921242166666666, "fusion_lon": 0.0, "fusion_lat": 0.0, "type": "electric_scooter", "name": "206295c38266110b236437383340a957", "is_disabled": 0, "rental_uris": {"ios": "https://dc.lft.to/lastmile_qr_scan", "android": "https://dc.lft.to/lastmile_qr_scan"}, "is_reserved": 0}, {"lon": -76.98536516666667, "bike_id": "c61b53f9f79b9f463c28536d23a6e70c", "lat": 38.910299, "fusion_lon": 0.0, "fusion_lat": 0.0, "type": "electric_scooter", "name": "c61b53f9f79b9f463c28536d23a6e70c", "is_disabled": 0, "rental_uris": {"ios": "https://dc.lft.to/lastmile_qr_scan", "android": "https://dc.lft.to/lastmile_qr_scan"}, "is_reserved": 0}, {"lon": -77.034036, "bike_id": "b6a0feca03688ed312818ee2500d4f3f", "lat": 38.934166166666664, "fusion_lon": 0.0, "fusion_lat": 0.0, "type": "electric_scooter", "name": "b6a0feca03688ed312818ee2500d4f3f", "is_disabled": 0, "rental_uris": {"ios": "https://dc.lft.to/lastmile_qr_scan", "android": "https://dc.lft.to/lastmile_qr_scan"}, "is_reserved": 0}, {"lon": -77.02968616666666, "bike_id": "520a321b35146fc64d90ab5359960da7", "lat": 38.931951, "fusion_lon": 0.0, "fusion_lat": 0.0, "type": "electric_scooter", "name": "520a321b35146fc64d90ab5359960da7", "is_disabled": 0, "rental_uris": {"ios": "https://dc.lft.to/lastmile_qr_scan", "android": "https://dc.lft.to/lastmile_qr_scan"}, "is_reserved": 0}, {"lon": -76.98725733333333, "bike_id": "552a19da3058e07c0c50eccdb31b4040", "lat": 38.86714116666667, "fusion_lon": 0.0, "fusion_lat": 0.0, "type": "electric_scooter", "name": "552a19da3058e07c0c50eccdb31b4040", "is_disabled": 0, "rental_uris": {"ios": "https://dc.lft.to/lastmile_qr_scan", "android": "https://dc.lft.to/lastmile_qr_scan"}, "is_reserved": 0}, {"lon": -77.10600766666667, "bike_id": "a160c845af585e6496108fbaadafb8e4", "lat": 38.92899333333333, "fusion_lon": 0.0, "fusion_lat": 0.0, "type": "electric_bike", "name": "a160c845af585e6496108fbaadafb8e4", "is_disabled": 0, "rental_uris": {"ios": "https://dc.lft.to/lastmile_qr_scan", "android": "https://dc.lft.to/lastmile_qr_scan"}, "is_reserved": 0}, {"lon": -76.9917505, "bike_id": "2bb0192cda019c2df35960d9396102f3", "lat": 38.905103, "fusion_lon": 0.0, "fusion_lat": 0.0, "type": "electric_scooter", "name": "2bb0192cda019c2df35960d9396102f3", "is_disabled": 0, "rental_uris": {"ios": "https://dc.lft.to/lastmile_qr_scan", "android": "https://dc.lft.to/lastmile_qr_scan"}, "is_reserved": 0}, {"lon": -77.03123216666667, "bike_id": "5eeb7891a27c0cdaef55da1797316016", "lat": 38.917041833333336, "fusion_lon": 0.0, "fusion_lat": 0.0, "type": "electric_scooter", "name": "5eeb7891a27c0cdaef55da1797316016", "is_disabled": 0, "rental_uris": {"ios": "https://dc.lft.to/lastmile_qr_scan", "android": "https://dc.lft.to/lastmile_qr_scan"}, "is_reserved": 0}, {"lon": -77.032056, "bike_id": "0343f0c0e84e971d203afd7a14443f6c", "lat": 38.9206825, "fusion_lon": 0.0, "fusion_lat": 0.0, "type": "electric_scooter", "name": "0343f0c0e84e971d203afd7a14443f6c", "is_disabled": 0, "rental_uris": {"ios": "https://dc.lft.to/lastmile_qr_scan", "android": "https://dc.lft.to/lastmile_qr_scan"}, "is_reserved": 0}, {"lon": -77.02977916666667, "bike_id": "e69eb18a09bafc480815dc97355cf99d", "lat": 38.947413833333336, "fusion_lon": 0.0, "fusion_lat": 0.0, "type": "electric_scooter", "name": "e69eb18a09bafc480815dc97355cf99d", "is_disabled": 0, "rental_uris": {"ios": "https://dc.lft.to/lastmile_qr_scan", "android": "https://dc.lft.to/lastmile_qr_scan"}, "is_reserved": 0}, {"lon": -76.98594333333334, "bike_id": "599de231880a2bcf9a72a8a0280370a9", "lat": 38.8606215, "fusion_lon": 0.0, "fusion_lat": 0.0, "type": "electric_scooter", "name": "599de231880a2bcf9a72a8a0280370a9", "is_disabled": 0, "rental_uris": {"ios": "https://dc.lft.to/lastmile_qr_scan", "android": "https://dc.lft.to/lastmile_qr_scan"}, "is_reserved": 0}, {"lon": -77.0246125, "bike_id": "517ff78c8615dc205b5958628b3ca64d", "lat": 38.90096833333333, "fusion_lon": 0.0, "fusion_lat": 0.0, "type": "electric_scooter", "name": "517ff78c8615dc205b5958628b3ca64d", "is_disabled": 0, "rental_uris": {"ios": "https://dc.lft.to/lastmile_qr_scan", "android": "https://dc.lft.to/lastmile_qr_scan"}, "is_reserved": 0}, {"lon": -77.04405916666667, "bike_id": "8dfa10fc844f6aa6e09422f52cebcc5d", "lat": 38.934254333333335, "fusion_lon": 0.0, "fusion_lat": 0.0, "type": "electric_scooter", "name": "8dfa10fc844f6aa6e09422f52cebcc5d", "is_disabled": 0, "rental_uris": {"ios": "https://dc.lft.to/lastmile_qr_scan", "android": "https://dc.lft.to/lastmile_qr_scan"}, "is_reserved": 0}, {"lon": -76.96154783333333, "bike_id": "24560e3042cdd54d53668df13da26d44", "lat": 38.883620666666665, "fusion_lon": 0.0, "fusion_lat": 0.0, "type": "electric_scooter", "name": "24560e3042cdd54d53668df13da26d44", "is_disabled": 0, "rental_uris": {"ios": "https://dc.lft.to/lastmile_qr_scan", "android": "https://dc.lft.to/lastmile_qr_scan"}, "is_reserved": 0}, {"lon": -77.02477633333334, "bike_id": "57161264a0ddba7481f190faa6654922", "lat": 38.904074666666666, "fusion_lon": 0.0, "fusion_lat": 0.0, "type": "electric_scooter", "name": "57161264a0ddba7481f190faa6654922", "is_disabled": 0, "rental_uris": {"ios": "https://dc.lft.to/lastmile_qr_scan", "android": "https://dc.lft.to/lastmile_qr_scan"}, "is_reserved": 0}, {"lon": -77.041099, "bike_id": "1ab9e7863fb5c5596bc9933517b7203f", "lat": 38.92797183333333, "fusion_lon": 0.0, "fusion_lat": 0.0, "type": "electric_scooter", "name": "1ab9e7863fb5c5596bc9933517b7203f", "is_disabled": 0, "rental_uris": {"ios": "https://dc.lft.to/lastmile_qr_scan", "android": "https://dc.lft.to/lastmile_qr_scan"}, "is_reserved": 0}, {"lon": -77.0422505, "bike_id": "c0584a4d8cb93172b8bad1787b556fe3", "lat": 38.90936766666667, "fusion_lon": 0.0, "fusion_lat": 0.0, "type": "electric_scooter", "name": "c0584a4d8cb93172b8bad1787b556fe3", "is_disabled": 0, "rental_uris": {"ios": "https://dc.lft.to/lastmile_qr_scan", "android": "https://dc.lft.to/lastmile_qr_scan"}, "is_reserved": 0}, {"lon": -77.033317, "bike_id": "6a960bc05a2a9179b36d8f2c4c8af72e", "lat": 38.91705616666667, "fusion_lon": 0.0, "fusion_lat": 0.0, "type": "electric_scooter", "name": "6a960bc05a2a9179b36d8f2c4c8af72e", "is_disabled": 0, "rental_uris": {"ios": "https://dc.lft.to/lastmile_qr_scan", "android": "https://dc.lft.to/lastmile_qr_scan"}, "is_reserved": 0}, {"lon": -76.9626135, "bike_id": "3e17de2c761ae2b28bde60cf19eda6d6", "lat": 38.882486166666666, "fusion_lon": 0.0, "fusion_lat": 0.0, "type": "electric_bike", "name": "3e17de2c761ae2b28bde60cf19eda6d6", "is_disabled": 0, "rental_uris": {"ios": "https://dc.lft.to/lastmile_qr_scan", "android": "https://dc.lft.to/lastmile_qr_scan"}, "is_reserved": 0}, {"lon": -77.00934066666667, "bike_id": "e44c6a41c3445a33288a9c7e3fc8cc4c", "lat": 38.883115, "fusion_lon": 0.0, "fusion_lat": 0.0, "type": "electric_scooter", "name": "e44c6a41c3445a33288a9c7e3fc8cc4c", "is_disabled": 0, "rental_uris": {"ios": "https://dc.lft.to/lastmile_qr_scan", "android": "https://dc.lft.to/lastmile_qr_scan"}, "is_reserved": 0}, {"lon": -77.00969416666666, "bike_id": "0e68c9047ecb723e0373981bda2e3d8c", "lat": 38.90783966666667, "fusion_lon": 0.0, "fusion_lat": 0.0, "type": "electric_scooter", "name": "0e68c9047ecb723e0373981bda2e3d8c", "is_disabled": 0, "rental_uris": {"ios": "https://dc.lft.to/lastmile_qr_scan", "android": "https://dc.lft.to/lastmile_qr_scan"}, "is_reserved": 0}, {"lon": -76.99150833333333, "bike_id": "d00793d1265317465dfef09e16773b8e", "lat": 38.881991, "fusion_lon": 0.0, "fusion_lat": 0.0, "type": "electric_scooter", "name": "d00793d1265317465dfef09e16773b8e", "is_disabled": 0, "rental_uris": {"ios": "https://dc.lft.to/lastmile_qr_scan", "android": "https://dc.lft.to/lastmile_qr_scan"}, "is_reserved": 0}, {"lon": -77.06714, "bike_id": "3ecfbe64f7e4d71012f0e5fb884ee95f", "lat": 38.9036265, "fusion_lon": 0.0, "fusion_lat": 0.0, "type": "electric_scooter", "name": "3ecfbe64f7e4d71012f0e5fb884ee95f", "is_disabled": 0, "rental_uris": {"ios": "https://dc.lft.to/lastmile_qr_scan", "android": "https://dc.lft.to/lastmile_qr_scan"}, "is_reserved": 0}, {"lon": -77.02727933333334, "bike_id": "b35a41d62effb9f3ac6a7b1febf14449", "lat": 38.9056355, "fusion_lon": 0.0, "fusion_lat": 0.0, "type": "electric_scooter", "name": "b35a41d62effb9f3ac6a7b1febf14449", "is_disabled": 0, "rental_uris": {"ios": "https://dc.lft.to/lastmile_qr_scan", "android": "https://dc.lft.to/lastmile_qr_scan"}, "is_reserved": 0}, {"lon": -77.017657, "bike_id": "2a3112cbe47a390b05c111678fbdce05", "lat": 38.88590633333333, "fusion_lon": 0.0, "fusion_lat": 0.0, "type": "electric_scooter", "name": "2a3112cbe47a390b05c111678fbdce05", "is_disabled": 0, "rental_uris": {"ios": "https://dc.lft.to/lastmile_qr_scan", "android": "https://dc.lft.to/lastmile_qr_scan"}, "is_reserved": 0}, {"lon": -77.036584, "bike_id": "184981c615a68fc21043e48d6930a166", "lat": 38.936328, "fusion_lon": 0.0, "fusion_lat": 0.0, "type": "electric_scooter", "name": "184981c615a68fc21043e48d6930a166", "is_disabled": 0, "rental_uris": {"ios": "https://dc.lft.to/lastmile_qr_scan", "android": "https://dc.lft.to/lastmile_qr_scan"}, "is_reserved": 0}, {"lon": -77.04385016666667, "bike_id": "5dd370319b8e2de04b8de1bdb3520056", "lat": 38.921121166666666, "fusion_lon": 0.0, "fusion_lat": 0.0, "type": "electric_scooter", "name": "5dd370319b8e2de04b8de1bdb3520056", "is_disabled": 0, "rental_uris": {"ios": "https://dc.lft.to/lastmile_qr_scan", "android": "https://dc.lft.to/lastmile_qr_scan"}, "is_reserved": 0}, {"lon": -77.03265266666666, "bike_id": "34d517fab830883063af30fc58ca75d9", "lat": 38.92758033333333, "fusion_lon": 0.0, "fusion_lat": 0.0, "type": "electric_scooter", "name": "34d517fab830883063af30fc58ca75d9", "is_disabled": 0, "rental_uris": {"ios": "https://dc.lft.to/lastmile_qr_scan", "android": "https://dc.lft.to/lastmile_qr_scan"}, "is_reserved": 0}, {"lon": -77.03089133333333, "bike_id": "3ba0d135ee4d09b913187a67627003c1", "lat": 38.9339695, "fusion_lon": 0.0, "fusion_lat": 0.0, "type": "electric_scooter", "name": "3ba0d135ee4d09b913187a67627003c1", "is_disabled": 0, "rental_uris": {"ios": "https://dc.lft.to/lastmile_qr_scan", "android": "https://dc.lft.to/lastmile_qr_scan"}, "is_reserved": 0}, {"lon": -77.01511933333333, "bike_id": "7bd785c1f78a5338011a7c0aaa0b8a12", "lat": 38.89248416666667, "fusion_lon": 0.0, "fusion_lat": 0.0, "type": "electric_scooter", "name": "7bd785c1f78a5338011a7c0aaa0b8a12", "is_disabled": 0, "rental_uris": {"ios": "https://dc.lft.to/lastmile_qr_scan", "android": "https://dc.lft.to/lastmile_qr_scan"}, "is_reserved": 0}, {"lon": -76.99947533333334, "bike_id": "0da1cd138d351d2532351e6cfcd93b05", "lat": 38.903673166666664, "fusion_lon": 0.0, "fusion_lat": 0.0, "type": "electric_scooter", "name": "0da1cd138d351d2532351e6cfcd93b05", "is_disabled": 0, "rental_uris": {"ios": "https://dc.lft.to/lastmile_qr_scan", "android": "https://dc.lft.to/lastmile_qr_scan"}, "is_reserved": 0}, {"lon": -76.987841, "bike_id": "03eee3f4fb8bb0e4ed7296d0a5f56e36", "lat": 38.878514, "fusion_lon": 0.0, "fusion_lat": 0.0, "type": "electric_scooter", "name": "03eee3f4fb8bb0e4ed7296d0a5f56e36", "is_disabled": 0, "rental_uris": {"ios": "https://dc.lft.to/lastmile_qr_scan", "android": "https://dc.lft.to/lastmile_qr_scan"}, "is_reserved": 0}, {"lon": -77.03188583333333, "bike_id": "84da37b36aac1b4dc0d9604062225ec5", "lat": 38.916855166666664, "fusion_lon": 0.0, "fusion_lat": 0.0, "type": "electric_scooter", "name": "84da37b36aac1b4dc0d9604062225ec5", "is_disabled": 0, "rental_uris": {"ios": "https://dc.lft.to/lastmile_qr_scan", "android": "https://dc.lft.to/lastmile_qr_scan"}, "is_reserved": 0}, {"lon": -77.03420166666666, "bike_id": "ab24f5bf2cb4bbd62af17849fc61f9ab", "lat": 38.92741866666667, "fusion_lon": 0.0, "fusion_lat": 0.0, "type": "electric_scooter", "name": "ab24f5bf2cb4bbd62af17849fc61f9ab", "is_disabled": 0, "rental_uris": {"ios": "https://dc.lft.to/lastmile_qr_scan", "android": "https://dc.lft.to/lastmile_qr_scan"}, "is_reserved": 0}, {"lon": -77.0362375, "bike_id": "e783bc2980552594dbe894153ce26164", "lat": 38.9126755, "fusion_lon": 0.0, "fusion_lat": 0.0, "type": "electric_scooter", "name": "e783bc2980552594dbe894153ce26164", "is_disabled": 0, "rental_uris": {"ios": "https://dc.lft.to/lastmile_qr_scan", "android": "https://dc.lft.to/lastmile_qr_scan"}, "is_reserved": 0}, {"lon": -77.05243766666666, "bike_id": "43af56e2ce016df9faae558cc247d390", "lat": 38.900125333333335, "fusion_lon": 0.0, "fusion_lat": 0.0, "type": "electric_scooter", "name": "43af56e2ce016df9faae558cc247d390", "is_disabled": 0, "rental_uris": {"ios": "https://dc.lft.to/lastmile_qr_scan", "android": "https://dc.lft.to/lastmile_qr_scan"}, "is_reserved": 0}, {"lon": -77.06524716666667, "bike_id": "d37a31a1e93db48f2c5ea443c7d16d7d", "lat": 38.9475115, "fusion_lon": 0.0, "fusion_lat": 0.0, "type": "electric_scooter", "name": "d37a31a1e93db48f2c5ea443c7d16d7d", "is_disabled": 0, "rental_uris": {"ios": "https://dc.lft.to/lastmile_qr_scan", "android": "https://dc.lft.to/lastmile_qr_scan"}, "is_reserved": 0}, {"lon": -77.0092205, "bike_id": "c6a11a3f71eaaf3fce0a1d9c75bbaf41", "lat": 38.89557933333333, "fusion_lon": 0.0, "fusion_lat": 0.0, "type": "electric_scooter", "name": "c6a11a3f71eaaf3fce0a1d9c75bbaf41", "is_disabled": 0, "rental_uris": {"ios": "https://dc.lft.to/lastmile_qr_scan", "android": "https://dc.lft.to/lastmile_qr_scan"}, "is_reserved": 0}, {"lon": -77.00360483333333, "bike_id": "24cf248895a5389242742a9f988d791c", "lat": 38.915530333333336, "fusion_lon": 0.0, "fusion_lat": 0.0, "type": "electric_scooter", "name": "24cf248895a5389242742a9f988d791c", "is_disabled": 0, "rental_uris": {"ios": "https://dc.lft.to/lastmile_qr_scan", "android": "https://dc.lft.to/lastmile_qr_scan"}, "is_reserved": 0}, {"lon": -76.99882933333333, "bike_id": "4386ed6acd92ca576450f3b96da1198d", "lat": 38.9205525, "fusion_lon": 0.0, "fusion_lat": 0.0, "type": "electric_scooter", "name": "4386ed6acd92ca576450f3b96da1198d", "is_disabled": 0, "rental_uris": {"ios": "https://dc.lft.to/lastmile_qr_scan", "android": "https://dc.lft.to/lastmile_qr_scan"}, "is_reserved": 0}, {"lon": -76.98485283333333, "bike_id": "796f9d040c55b5bf96d816123a2b2fe0", "lat": 38.89900166666666, "fusion_lon": 0.0, "fusion_lat": 0.0, "type": "electric_scooter", "name": "796f9d040c55b5bf96d816123a2b2fe0", "is_disabled": 0, "rental_uris": {"ios": "https://dc.lft.to/lastmile_qr_scan", "android": "https://dc.lft.to/lastmile_qr_scan"}, "is_reserved": 0}, {"lon": -77.00289466666666, "bike_id": "41a2e81acce93abbdfdf1c27035aabf4", "lat": 38.9569985, "fusion_lon": 0.0, "fusion_lat": 0.0, "type": "electric_bike", "name": "41a2e81acce93abbdfdf1c27035aabf4", "is_disabled": 0, "rental_uris": {"ios": "https://dc.lft.to/lastmile_qr_scan", "android": "https://dc.lft.to/lastmile_qr_scan"}, "is_reserved": 0}, {"lon": -77.03396666666667, "bike_id": "c318f46c0568bbea9a34964699362f1d", "lat": 38.96031133333334, "fusion_lon": 0.0, "fusion_lat": 0.0, "type": "electric_bike", "name": "c318f46c0568bbea9a34964699362f1d", "is_disabled": 0, "rental_uris": {"ios": "https://dc.lft.to/lastmile_qr_scan", "android": "https://dc.lft.to/lastmile_qr_scan"}, "is_reserved": 0}, {"lon": -76.997784, "bike_id": "803d4c19713cfc58ce504f6bd7cd8b79", "lat": 38.84434916666667, "fusion_lon": 0.0, "fusion_lat": 0.0, "type": "electric_scooter", "name": "803d4c19713cfc58ce504f6bd7cd8b79", "is_disabled": 0, "rental_uris": {"ios": "https://dc.lft.to/lastmile_qr_scan", "android": "https://dc.lft.to/lastmile_qr_scan"}, "is_reserved": 0}, {"lon": -77.03193316666666, "bike_id": "a25e91db9d623e1360c59db187874c47", "lat": 38.91505433333333, "fusion_lon": 0.0, "fusion_lat": 0.0, "type": "electric_scooter", "name": "a25e91db9d623e1360c59db187874c47", "is_disabled": 0, "rental_uris": {"ios": "https://dc.lft.to/lastmile_qr_scan", "android": "https://dc.lft.to/lastmile_qr_scan"}, "is_reserved": 0}, {"lon": -77.03649316666667, "bike_id": "6aab9337eda431ad04b6a550bec8cc7f", "lat": 38.912969833333335, "fusion_lon": 0.0, "fusion_lat": 0.0, "type": "electric_scooter", "name": "6aab9337eda431ad04b6a550bec8cc7f", "is_disabled": 0, "rental_uris": {"ios": "https://dc.lft.to/lastmile_qr_scan", "android": "https://dc.lft.to/lastmile_qr_scan"}, "is_reserved": 0}, {"lon": -77.02262533333334, "bike_id": "1012d1b46ac310766f849dfa36182b14", "lat": 38.9274115, "fusion_lon": 0.0, "fusion_lat": 0.0, "type": "electric_scooter", "name": "1012d1b46ac310766f849dfa36182b14", "is_disabled": 0, "rental_uris": {"ios": "https://dc.lft.to/lastmile_qr_scan", "android": "https://dc.lft.to/lastmile_qr_scan"}, "is_reserved": 0}, {"lon": -77.0432085, "bike_id": "697cf472c586ea141b95531b925548c5", "lat": 38.91882583333334, "fusion_lon": 0.0, "fusion_lat": 0.0, "type": "electric_scooter", "name": "697cf472c586ea141b95531b925548c5", "is_disabled": 0, "rental_uris": {"ios": "https://dc.lft.to/lastmile_qr_scan", "android": "https://dc.lft.to/lastmile_qr_scan"}, "is_reserved": 0}, {"lon": -77.0008475, "bike_id": "cb375f24098b2df873dd2756aefb2e83", "lat": 38.894847666666664, "fusion_lon": 0.0, "fusion_lat": 0.0, "type": "electric_scooter", "name": "cb375f24098b2df873dd2756aefb2e83", "is_disabled": 0, "rental_uris": {"ios": "https://dc.lft.to/lastmile_qr_scan", "android": "https://dc.lft.to/lastmile_qr_scan"}, "is_reserved": 0}, {"lon": -77.0217385, "bike_id": "18cf1c8b14ed2d3cd7c766c63ba20d52", "lat": 38.900274333333336, "fusion_lon": 0.0, "fusion_lat": 0.0, "type": "electric_scooter", "name": "18cf1c8b14ed2d3cd7c766c63ba20d52", "is_disabled": 0, "rental_uris": {"ios": "https://dc.lft.to/lastmile_qr_scan", "android": "https://dc.lft.to/lastmile_qr_scan"}, "is_reserved": 0}, {"lon": -77.00740316666666, "bike_id": "768dbae2729af6a8bf9222683cb8ec7a", "lat": 38.87660133333333, "fusion_lon": 0.0, "fusion_lat": 0.0, "type": "electric_scooter", "name": "768dbae2729af6a8bf9222683cb8ec7a", "is_disabled": 0, "rental_uris": {"ios": "https://dc.lft.to/lastmile_qr_scan", "android": "https://dc.lft.to/lastmile_qr_scan"}, "is_reserved": 0}, {"lon": -76.98084116666666, "bike_id": "a7da6326410f0555d59ca891b4f12013", "lat": 38.90173516666667, "fusion_lon": 0.0, "fusion_lat": 0.0, "type": "electric_scooter", "name": "a7da6326410f0555d59ca891b4f12013", "is_disabled": 0, "rental_uris": {"ios": "https://dc.lft.to/lastmile_qr_scan", "android": "https://dc.lft.to/lastmile_qr_scan"}, "is_reserved": 0}, {"lon": -76.98333216666667, "bike_id": "c28f66aa64a467da6bc5372ed2a08b83", "lat": 38.900903666666665, "fusion_lon": 0.0, "fusion_lat": 0.0, "type": "electric_scooter", "name": "c28f66aa64a467da6bc5372ed2a08b83", "is_disabled": 0, "rental_uris": {"ios": "https://dc.lft.to/lastmile_qr_scan", "android": "https://dc.lft.to/lastmile_qr_scan"}, "is_reserved": 0}, {"lon": -77.06190016666666, "bike_id": "5bf7d599956c9f0c48c5feaca29d3907", "lat": 38.91059533333333, "fusion_lon": 0.0, "fusion_lat": 0.0, "type": "electric_scooter", "name": "5bf7d599956c9f0c48c5feaca29d3907", "is_disabled": 0, "rental_uris": {"ios": "https://dc.lft.to/lastmile_qr_scan", "android": "https://dc.lft.to/lastmile_qr_scan"}, "is_reserved": 0}, {"lon": -77.0019295, "bike_id": "1a2f683445178704d2dbb315a902a462", "lat": 38.911971, "fusion_lon": 0.0, "fusion_lat": 0.0, "type": "electric_scooter", "name": "1a2f683445178704d2dbb315a902a462", "is_disabled": 0, "rental_uris": {"ios": "https://dc.lft.to/lastmile_qr_scan", "android": "https://dc.lft.to/lastmile_qr_scan"}, "is_reserved": 0}, {"lon": -77.06350166666667, "bike_id": "ec635368bdc90651c778a217bb9aec96", "lat": 38.944514166666664, "fusion_lon": 0.0, "fusion_lat": 0.0, "type": "electric_scooter", "name": "ec635368bdc90651c778a217bb9aec96", "is_disabled": 0, "rental_uris": {"ios": "https://dc.lft.to/lastmile_qr_scan", "android": "https://dc.lft.to/lastmile_qr_scan"}, "is_reserved": 0}, {"lon": -77.022027, "bike_id": "ec04cbdad45a09c120ab47cf4a581439", "lat": 38.905477, "fusion_lon": 0.0, "fusion_lat": 0.0, "type": "electric_scooter", "name": "ec04cbdad45a09c120ab47cf4a581439", "is_disabled": 0, "rental_uris": {"ios": "https://dc.lft.to/lastmile_qr_scan", "android": "https://dc.lft.to/lastmile_qr_scan"}, "is_reserved": 0}, {"lon": -77.0053235, "bike_id": "24d8d2b338d6579251b1bceede22c7ce", "lat": 38.909617833333336, "fusion_lon": 0.0, "fusion_lat": 0.0, "type": "electric_scooter", "name": "24d8d2b338d6579251b1bceede22c7ce", "is_disabled": 0, "rental_uris": {"ios": "https://dc.lft.to/lastmile_qr_scan", "android": "https://dc.lft.to/lastmile_qr_scan"}, "is_reserved": 0}, {"lon": -76.94153666666666, "bike_id": "cdee296cdfb5be7d75e4aaeae1cde002", "lat": 38.879111, "fusion_lon": 0.0, "fusion_lat": 0.0, "type": "electric_scooter", "name": "cdee296cdfb5be7d75e4aaeae1cde002", "is_disabled": 0, "rental_uris": {"ios": "https://dc.lft.to/lastmile_qr_scan", "android": "https://dc.lft.to/lastmile_qr_scan"}, "is_reserved": 0}, {"lon": -77.00774983333334, "bike_id": "409e44f937917810c4f542bece49c73a", "lat": 38.897361833333335, "fusion_lon": 0.0, "fusion_lat": 0.0, "type": "electric_scooter", "name": "409e44f937917810c4f542bece49c73a", "is_disabled": 0, "rental_uris": {"ios": "https://dc.lft.to/lastmile_qr_scan", "android": "https://dc.lft.to/lastmile_qr_scan"}, "is_reserved": 0}, {"lon": -77.038528, "bike_id": "5494bbae13f0a59ab1e317b862ef07cd", "lat": 38.917493666666665, "fusion_lon": 0.0, "fusion_lat": 0.0, "type": "electric_scooter", "name": "5494bbae13f0a59ab1e317b862ef07cd", "is_disabled": 0, "rental_uris": {"ios": "https://dc.lft.to/lastmile_qr_scan", "android": "https://dc.lft.to/lastmile_qr_scan"}, "is_reserved": 0}, {"lon": -77.04473116666666, "bike_id": "70e530f20fb0951aacf8aa4f114ec162", "lat": 38.92142116666667, "fusion_lon": 0.0, "fusion_lat": 0.0, "type": "electric_scooter", "name": "70e530f20fb0951aacf8aa4f114ec162", "is_disabled": 0, "rental_uris": {"ios": "https://dc.lft.to/lastmile_qr_scan", "android": "https://dc.lft.to/lastmile_qr_scan"}, "is_reserved": 0}, {"lon": -77.03305883333333, "bike_id": "832b9315f78c62834c7aceabcfcfa79b", "lat": 38.92886883333333, "fusion_lon": 0.0, "fusion_lat": 0.0, "type": "electric_scooter", "name": "832b9315f78c62834c7aceabcfcfa79b", "is_disabled": 0, "rental_uris": {"ios": "https://dc.lft.to/lastmile_qr_scan", "android": "https://dc.lft.to/lastmile_qr_scan"}, "is_reserved": 0}, {"lon": -77.046088, "bike_id": "264307eb1612aafd1ac8a627a9548490", "lat": 38.921886, "fusion_lon": 0.0, "fusion_lat": 0.0, "type": "electric_scooter", "name": "264307eb1612aafd1ac8a627a9548490", "is_disabled": 0, "rental_uris": {"ios": "https://dc.lft.to/lastmile_qr_scan", "android": "https://dc.lft.to/lastmile_qr_scan"}, "is_reserved": 0}, {"lon": -77.00316683333334, "bike_id": "314567377ddd2ed8d0ef45e1c690bd15", "lat": 38.9190015, "fusion_lon": 0.0, "fusion_lat": 0.0, "type": "electric_bike", "name": "314567377ddd2ed8d0ef45e1c690bd15", "is_disabled": 0, "rental_uris": {"ios": "https://dc.lft.to/lastmile_qr_scan", "android": "https://dc.lft.to/lastmile_qr_scan"}, "is_reserved": 0}, {"lon": -76.99268283333333, "bike_id": "80b428469a0939a8103c7301db0ad1cf", "lat": 38.89772383333333, "fusion_lon": 0.0, "fusion_lat": 0.0, "type": "electric_scooter", "name": "80b428469a0939a8103c7301db0ad1cf", "is_disabled": 0, "rental_uris": {"ios": "https://dc.lft.to/lastmile_qr_scan", "android": "https://dc.lft.to/lastmile_qr_scan"}, "is_reserved": 0}, {"lon": -77.016051, "bike_id": "1c4778bb52fddc3356b1085c32292baf", "lat": 38.903603333333336, "fusion_lon": 0.0, "fusion_lat": 0.0, "type": "electric_scooter", "name": "1c4778bb52fddc3356b1085c32292baf", "is_disabled": 0, "rental_uris": {"ios": "https://dc.lft.to/lastmile_qr_scan", "android": "https://dc.lft.to/lastmile_qr_scan"}, "is_reserved": 0}, {"lon": -77.0043445, "bike_id": "b1282eab092c6fb5df3f5a4a02f90c2e", "lat": 38.87763283333334, "fusion_lon": 0.0, "fusion_lat": 0.0, "type": "electric_scooter", "name": "b1282eab092c6fb5df3f5a4a02f90c2e", "is_disabled": 0, "rental_uris": {"ios": "https://dc.lft.to/lastmile_qr_scan", "android": "https://dc.lft.to/lastmile_qr_scan"}, "is_reserved": 0}, {"lon": -77.03281883333334, "bike_id": "e6320f1e72cd67b6ede6c00373af2ff9", "lat": 38.934593166666666, "fusion_lon": 0.0, "fusion_lat": 0.0, "type": "electric_scooter", "name": "e6320f1e72cd67b6ede6c00373af2ff9", "is_disabled": 0, "rental_uris": {"ios": "https://dc.lft.to/lastmile_qr_scan", "android": "https://dc.lft.to/lastmile_qr_scan"}, "is_reserved": 0}, {"lon": -77.0249565, "bike_id": "c1fdef109a748abd7a70b2f815418f6f", "lat": 38.92598316666667, "fusion_lon": 0.0, "fusion_lat": 0.0, "type": "electric_scooter", "name": "c1fdef109a748abd7a70b2f815418f6f", "is_disabled": 0, "rental_uris": {"ios": "https://dc.lft.to/lastmile_qr_scan", "android": "https://dc.lft.to/lastmile_qr_scan"}, "is_reserved": 0}, {"lon": -76.98651816666667, "bike_id": "9bac29f6c9d9a031e9b67371c0a6ff09", "lat": 38.86744483333333, "fusion_lon": 0.0, "fusion_lat": 0.0, "type": "electric_scooter", "name": "9bac29f6c9d9a031e9b67371c0a6ff09", "is_disabled": 0, "rental_uris": {"ios": "https://dc.lft.to/lastmile_qr_scan", "android": "https://dc.lft.to/lastmile_qr_scan"}, "is_reserved": 0}, {"lon": -77.03438583333333, "bike_id": "2a1a899a4fb81c261289b8625603d32b", "lat": 38.93437983333333, "fusion_lon": 0.0, "fusion_lat": 0.0, "type": "electric_scooter", "name": "2a1a899a4fb81c261289b8625603d32b", "is_disabled": 0, "rental_uris": {"ios": "https://dc.lft.to/lastmile_qr_scan", "android": "https://dc.lft.to/lastmile_qr_scan"}, "is_reserved": 0}, {"lon": -77.00554066666666, "bike_id": "587a214c89ff2fd642d7e69736d962e1", "lat": 38.8747265, "fusion_lon": 0.0, "fusion_lat": 0.0, "type": "electric_scooter", "name": "587a214c89ff2fd642d7e69736d962e1", "is_disabled": 0, "rental_uris": {"ios": "https://dc.lft.to/lastmile_qr_scan", "android": "https://dc.lft.to/lastmile_qr_scan"}, "is_reserved": 0}, {"lon": -77.04896816666667, "bike_id": "fa492799358cd0e0c02c6cc3472a3baf", "lat": 38.89234916666667, "fusion_lon": 0.0, "fusion_lat": 0.0, "type": "electric_scooter", "name": "fa492799358cd0e0c02c6cc3472a3baf", "is_disabled": 0, "rental_uris": {"ios": "https://dc.lft.to/lastmile_qr_scan", "android": "https://dc.lft.to/lastmile_qr_scan"}, "is_reserved": 0}, {"lon": -77.01161366666666, "bike_id": "f59e0a35ebf803d247cffea237fe2ed1", "lat": 38.895802, "fusion_lon": 0.0, "fusion_lat": 0.0, "type": "electric_scooter", "name": "f59e0a35ebf803d247cffea237fe2ed1", "is_disabled": 0, "rental_uris": {"ios": "https://dc.lft.to/lastmile_qr_scan", "android": "https://dc.lft.to/lastmile_qr_scan"}, "is_reserved": 0}, {"lon": -77.04602316666667, "bike_id": "60013f883162c3878a2ddb6ac87c2184", "lat": 38.90773816666667, "fusion_lon": 0.0, "fusion_lat": 0.0, "type": "electric_scooter", "name": "60013f883162c3878a2ddb6ac87c2184", "is_disabled": 0, "rental_uris": {"ios": "https://dc.lft.to/lastmile_qr_scan", "android": "https://dc.lft.to/lastmile_qr_scan"}, "is_reserved": 0}, {"lon": -77.02163116666667, "bike_id": "763d7908709b92b1e43d696ed283a6ab", "lat": 38.9097235, "fusion_lon": 0.0, "fusion_lat": 0.0, "type": "electric_scooter", "name": "763d7908709b92b1e43d696ed283a6ab", "is_disabled": 0, "rental_uris": {"ios": "https://dc.lft.to/lastmile_qr_scan", "android": "https://dc.lft.to/lastmile_qr_scan"}, "is_reserved": 0}, {"lon": -76.95466516666667, "bike_id": "19e30a638669da0f6188471e5e6aa612", "lat": 38.88665366666667, "fusion_lon": 0.0, "fusion_lat": 0.0, "type": "electric_scooter", "name": "19e30a638669da0f6188471e5e6aa612", "is_disabled": 0, "rental_uris": {"ios": "https://dc.lft.to/lastmile_qr_scan", "android": "https://dc.lft.to/lastmile_qr_scan"}, "is_reserved": 0}, {"lon": -77.02539033333333, "bike_id": "f905d8a9b9cef2d1b70c1a9221db9d34", "lat": 38.927478, "fusion_lon": 0.0, "fusion_lat": 0.0, "type": "electric_scooter", "name": "f905d8a9b9cef2d1b70c1a9221db9d34", "is_disabled": 0, "rental_uris": {"ios": "https://dc.lft.to/lastmile_qr_scan", "android": "https://dc.lft.to/lastmile_qr_scan"}, "is_reserved": 0}, {"lon": -76.98499033333333, "bike_id": "4b7f4b39c74266a63ade147c43b92044", "lat": 38.920062333333334, "fusion_lon": 0.0, "fusion_lat": 0.0, "type": "electric_scooter", "name": "4b7f4b39c74266a63ade147c43b92044", "is_disabled": 0, "rental_uris": {"ios": "https://dc.lft.to/lastmile_qr_scan", "android": "https://dc.lft.to/lastmile_qr_scan"}, "is_reserved": 0}, {"lon": -77.03656833333334, "bike_id": "83917be2aed4eb6e3e0a4b2a2acfd0b9", "lat": 38.91756066666667, "fusion_lon": 0.0, "fusion_lat": 0.0, "type": "electric_scooter", "name": "83917be2aed4eb6e3e0a4b2a2acfd0b9", "is_disabled": 0, "rental_uris": {"ios": "https://dc.lft.to/lastmile_qr_scan", "android": "https://dc.lft.to/lastmile_qr_scan"}, "is_reserved": 0}, {"lon": -76.96386683333333, "bike_id": "10c8c7509e9f3398eb989598f77ef721", "lat": 38.95173033333333, "fusion_lon": 0.0, "fusion_lat": 0.0, "type": "electric_bike", "name": "10c8c7509e9f3398eb989598f77ef721", "is_disabled": 0, "rental_uris": {"ios": "https://dc.lft.to/lastmile_qr_scan", "android": "https://dc.lft.to/lastmile_qr_scan"}, "is_reserved": 0}, {"lon": -77.00786616666667, "bike_id": "bdc61323254cffcadbf9820e5c725a67", "lat": 38.896664666666666, "fusion_lon": 0.0, "fusion_lat": 0.0, "type": "electric_scooter", "name": "bdc61323254cffcadbf9820e5c725a67", "is_disabled": 0, "rental_uris": {"ios": "https://dc.lft.to/lastmile_qr_scan", "android": "https://dc.lft.to/lastmile_qr_scan"}, "is_reserved": 0}, {"lon": -77.0362395, "bike_id": "8e10460b6aa6b0bb4d948e7a552293ae", "lat": 38.9374245, "fusion_lon": 0.0, "fusion_lat": 0.0, "type": "electric_scooter", "name": "8e10460b6aa6b0bb4d948e7a552293ae", "is_disabled": 0, "rental_uris": {"ios": "https://dc.lft.to/lastmile_qr_scan", "android": "https://dc.lft.to/lastmile_qr_scan"}, "is_reserved": 0}, {"lon": -77.030698, "bike_id": "dc49380ef35d013d1ab1969adf7c1c27", "lat": 38.918207333333335, "fusion_lon": 0.0, "fusion_lat": 0.0, "type": "electric_scooter", "name": "dc49380ef35d013d1ab1969adf7c1c27", "is_disabled": 0, "rental_uris": {"ios": "https://dc.lft.to/lastmile_qr_scan", "android": "https://dc.lft.to/lastmile_qr_scan"}, "is_reserved": 0}, {"lon": -77.03291933333334, "bike_id": "05c77ff74745d7ecdb8416ea41e9deea", "lat": 38.904728666666664, "fusion_lon": 0.0, "fusion_lat": 0.0, "type": "electric_scooter", "name": "05c77ff74745d7ecdb8416ea41e9deea", "is_disabled": 0, "rental_uris": {"ios": "https://dc.lft.to/lastmile_qr_scan", "android": "https://dc.lft.to/lastmile_qr_scan"}, "is_reserved": 0}, {"lon": -77.01138316666666, "bike_id": "9b265fddf268b8310d050bf8336a0dfd", "lat": 38.90645266666667, "fusion_lon": 0.0, "fusion_lat": 0.0, "type": "electric_scooter", "name": "9b265fddf268b8310d050bf8336a0dfd", "is_disabled": 0, "rental_uris": {"ios": "https://dc.lft.to/lastmile_qr_scan", "android": "https://dc.lft.to/lastmile_qr_scan"}, "is_reserved": 0}, {"lon": -76.98591416666666, "bike_id": "021df1939809e41f1e61a0c6c58bd1b9", "lat": 38.908161666666665, "fusion_lon": 0.0, "fusion_lat": 0.0, "type": "electric_scooter", "name": "021df1939809e41f1e61a0c6c58bd1b9", "is_disabled": 0, "rental_uris": {"ios": "https://dc.lft.to/lastmile_qr_scan", "android": "https://dc.lft.to/lastmile_qr_scan"}, "is_reserved": 0}, {"lon": -76.93371983333333, "bike_id": "e0bfe125a49e8ab2219a9c8764ffbde1", "lat": 38.8990765, "fusion_lon": 0.0, "fusion_lat": 0.0, "type": "electric_scooter", "name": "e0bfe125a49e8ab2219a9c8764ffbde1", "is_disabled": 0, "rental_uris": {"ios": "https://dc.lft.to/lastmile_qr_scan", "android": "https://dc.lft.to/lastmile_qr_scan"}, "is_reserved": 0}, {"lon": -77.00137516666666, "bike_id": "27a86470c1fbe0143a47ef1845c07615", "lat": 38.925506, "fusion_lon": 0.0, "fusion_lat": 0.0, "type": "electric_bike", "name": "27a86470c1fbe0143a47ef1845c07615", "is_disabled": 0, "rental_uris": {"ios": "https://dc.lft.to/lastmile_qr_scan", "android": "https://dc.lft.to/lastmile_qr_scan"}, "is_reserved": 0}, {"lon": -76.94438883333333, "bike_id": "e0e09ad5b7301bd3d42431819b851926", "lat": 38.90045166666667, "fusion_lon": 0.0, "fusion_lat": 0.0, "type": "electric_scooter", "name": "e0e09ad5b7301bd3d42431819b851926", "is_disabled": 0, "rental_uris": {"ios": "https://dc.lft.to/lastmile_qr_scan", "android": "https://dc.lft.to/lastmile_qr_scan"}, "is_reserved": 0}, {"lon": -77.1009135, "bike_id": "c0bf86b588fe2a51635fbd2e8dca18a6", "lat": 38.95958433333333, "fusion_lon": 0.0, "fusion_lat": 0.0, "type": "electric_bike", "name": "c0bf86b588fe2a51635fbd2e8dca18a6", "is_disabled": 0, "rental_uris": {"ios": "https://dc.lft.to/lastmile_qr_scan", "android": "https://dc.lft.to/lastmile_qr_scan"}, "is_reserved": 0}, {"lon": -77.0271705, "bike_id": "a098266ec7f5e7afcb5a9aed054c3416", "lat": 38.906731, "fusion_lon": 0.0, "fusion_lat": 0.0, "type": "electric_scooter", "name": "a098266ec7f5e7afcb5a9aed054c3416", "is_disabled": 0, "rental_uris": {"ios": "https://dc.lft.to/lastmile_qr_scan", "android": "https://dc.lft.to/lastmile_qr_scan"}, "is_reserved": 0}, {"lon": -77.01158083333333, "bike_id": "138409c0087164e875473c033f763b00", "lat": 38.914086, "fusion_lon": 0.0, "fusion_lat": 0.0, "type": "electric_scooter", "name": "138409c0087164e875473c033f763b00", "is_disabled": 0, "rental_uris": {"ios": "https://dc.lft.to/lastmile_qr_scan", "android": "https://dc.lft.to/lastmile_qr_scan"}, "is_reserved": 0}, {"lon": -76.98783633333333, "bike_id": "d800365f411946e511be8becbfa971f1", "lat": 38.90658166666667, "fusion_lon": 0.0, "fusion_lat": 0.0, "type": "electric_scooter", "name": "d800365f411946e511be8becbfa971f1", "is_disabled": 0, "rental_uris": {"ios": "https://dc.lft.to/lastmile_qr_scan", "android": "https://dc.lft.to/lastmile_qr_scan"}, "is_reserved": 0}, {"lon": -76.983581, "bike_id": "fe524775d6b31c97c27834ebe987657e", "lat": 38.914993333333335, "fusion_lon": 0.0, "fusion_lat": 0.0, "type": "electric_scooter", "name": "fe524775d6b31c97c27834ebe987657e", "is_disabled": 0, "rental_uris": {"ios": "https://dc.lft.to/lastmile_qr_scan", "android": "https://dc.lft.to/lastmile_qr_scan"}, "is_reserved": 0}, {"lon": -77.01163416666667, "bike_id": "3696866f8a157ae7556a461ab9a2c473", "lat": 38.872385666666666, "fusion_lon": 0.0, "fusion_lat": 0.0, "type": "electric_bike", "name": "3696866f8a157ae7556a461ab9a2c473", "is_disabled": 0, "rental_uris": {"ios": "https://dc.lft.to/lastmile_qr_scan", "android": "https://dc.lft.to/lastmile_qr_scan"}, "is_reserved": 0}, {"lon": -77.01254816666666, "bike_id": "eb118cae41116613f77c3d2a18c299df", "lat": 38.9084495, "fusion_lon": 0.0, "fusion_lat": 0.0, "type": "electric_scooter", "name": "eb118cae41116613f77c3d2a18c299df", "is_disabled": 0, "rental_uris": {"ios": "https://dc.lft.to/lastmile_qr_scan", "android": "https://dc.lft.to/lastmile_qr_scan"}, "is_reserved": 0}, {"lon": -77.03047933333333, "bike_id": "eaa70346685b4f9b1ff76d9eb87725cc", "lat": 38.90804033333333, "fusion_lon": 0.0, "fusion_lat": 0.0, "type": "electric_scooter", "name": "eaa70346685b4f9b1ff76d9eb87725cc", "is_disabled": 0, "rental_uris": {"ios": "https://dc.lft.to/lastmile_qr_scan", "android": "https://dc.lft.to/lastmile_qr_scan"}, "is_reserved": 0}, {"lon": -76.99403316666667, "bike_id": "76756e27de7a7d905bc7924ef64b977f", "lat": 38.831408333333336, "fusion_lon": 0.0, "fusion_lat": 0.0, "type": "electric_bike", "name": "76756e27de7a7d905bc7924ef64b977f", "is_disabled": 0, "rental_uris": {"ios": "https://dc.lft.to/lastmile_qr_scan", "android": "https://dc.lft.to/lastmile_qr_scan"}, "is_reserved": 0}, {"lon": -77.04646633333333, "bike_id": "c2a6cf541110af08afc004ca49433da1", "lat": 38.915785666666665, "fusion_lon": 0.0, "fusion_lat": 0.0, "type": "electric_scooter", "name": "c2a6cf541110af08afc004ca49433da1", "is_disabled": 0, "rental_uris": {"ios": "https://dc.lft.to/lastmile_qr_scan", "android": "https://dc.lft.to/lastmile_qr_scan"}, "is_reserved": 0}, {"lon": -77.01771416666666, "bike_id": "cee6a789180a9a16ca87ca5d9ca3950a", "lat": 38.92108233333333, "fusion_lon": 0.0, "fusion_lat": 0.0, "type": "electric_scooter", "name": "cee6a789180a9a16ca87ca5d9ca3950a", "is_disabled": 0, "rental_uris": {"ios": "https://dc.lft.to/lastmile_qr_scan", "android": "https://dc.lft.to/lastmile_qr_scan"}, "is_reserved": 0}, {"lon": -77.03201316666667, "bike_id": "3ba4addb7693e3d6f746c6887e6f37f7", "lat": 38.9397025, "fusion_lon": 0.0, "fusion_lat": 0.0, "type": "electric_scooter", "name": "3ba4addb7693e3d6f746c6887e6f37f7", "is_disabled": 0, "rental_uris": {"ios": "https://dc.lft.to/lastmile_qr_scan", "android": "https://dc.lft.to/lastmile_qr_scan"}, "is_reserved": 0}, {"lon": -77.02914183333333, "bike_id": "2aa01aaf42475ce4e0aba9017cc223c3", "lat": 38.923706, "fusion_lon": 0.0, "fusion_lat": 0.0, "type": "electric_scooter", "name": "2aa01aaf42475ce4e0aba9017cc223c3", "is_disabled": 0, "rental_uris": {"ios": "https://dc.lft.to/lastmile_qr_scan", "android": "https://dc.lft.to/lastmile_qr_scan"}, "is_reserved": 0}, {"lon": -77.04423616666666, "bike_id": "ee7bc8a391bccd843707a95ceecd9209", "lat": 38.921252833333334, "fusion_lon": 0.0, "fusion_lat": 0.0, "type": "electric_scooter", "name": "ee7bc8a391bccd843707a95ceecd9209", "is_disabled": 0, "rental_uris": {"ios": "https://dc.lft.to/lastmile_qr_scan", "android": "https://dc.lft.to/lastmile_qr_scan"}, "is_reserved": 0}, {"lon": -77.01413383333333, "bike_id": "f85c441516a85c76175ad5f25d69cfae", "lat": 38.92845833333333, "fusion_lon": 0.0, "fusion_lat": 0.0, "type": "electric_scooter", "name": "f85c441516a85c76175ad5f25d69cfae", "is_disabled": 0, "rental_uris": {"ios": "https://dc.lft.to/lastmile_qr_scan", "android": "https://dc.lft.to/lastmile_qr_scan"}, "is_reserved": 0}, {"lon": -77.02498183333333, "bike_id": "52055ff944036cacbf9851fb7e5d536a", "lat": 38.90403533333333, "fusion_lon": 0.0, "fusion_lat": 0.0, "type": "electric_scooter", "name": "52055ff944036cacbf9851fb7e5d536a", "is_disabled": 0, "rental_uris": {"ios": "https://dc.lft.to/lastmile_qr_scan", "android": "https://dc.lft.to/lastmile_qr_scan"}, "is_reserved": 0}, {"lon": -77.03313666666666, "bike_id": "b2da854e6e2b9de949ec09436fa5c59b", "lat": 38.925574166666664, "fusion_lon": 0.0, "fusion_lat": 0.0, "type": "electric_scooter", "name": "b2da854e6e2b9de949ec09436fa5c59b", "is_disabled": 0, "rental_uris": {"ios": "https://dc.lft.to/lastmile_qr_scan", "android": "https://dc.lft.to/lastmile_qr_scan"}, "is_reserved": 0}, {"lon": -76.97728283333333, "bike_id": "749f05af1027e6ff9b7c4f52c5e5a27f", "lat": 38.872964333333336, "fusion_lon": 0.0, "fusion_lat": 0.0, "type": "electric_scooter", "name": "749f05af1027e6ff9b7c4f52c5e5a27f", "is_disabled": 0, "rental_uris": {"ios": "https://dc.lft.to/lastmile_qr_scan", "android": "https://dc.lft.to/lastmile_qr_scan"}, "is_reserved": 0}, {"lon": -77.0627825, "bike_id": "2e031e0e5d41abcac9cd30c7a9fc5e0a", "lat": 38.90553333333333, "fusion_lon": 0.0, "fusion_lat": 0.0, "type": "electric_scooter", "name": "2e031e0e5d41abcac9cd30c7a9fc5e0a", "is_disabled": 0, "rental_uris": {"ios": "https://dc.lft.to/lastmile_qr_scan", "android": "https://dc.lft.to/lastmile_qr_scan"}, "is_reserved": 0}, {"lon": -77.0443885, "bike_id": "974808e62af1708aeb39a25dcb5597eb", "lat": 38.921711, "fusion_lon": 0.0, "fusion_lat": 0.0, "type": "electric_scooter", "name": "974808e62af1708aeb39a25dcb5597eb", "is_disabled": 0, "rental_uris": {"ios": "https://dc.lft.to/lastmile_qr_scan", "android": "https://dc.lft.to/lastmile_qr_scan"}, "is_reserved": 0}, {"lon": -77.02794583333333, "bike_id": "da1d20ab994be0c7a2213c141c85bd76", "lat": 38.935416833333335, "fusion_lon": 0.0, "fusion_lat": 0.0, "type": "electric_scooter", "name": "da1d20ab994be0c7a2213c141c85bd76", "is_disabled": 0, "rental_uris": {"ios": "https://dc.lft.to/lastmile_qr_scan", "android": "https://dc.lft.to/lastmile_qr_scan"}, "is_reserved": 0}, {"lon": -77.03056516666666, "bike_id": "0337f943f21ad684cfa2df0ef62a0b3b", "lat": 38.91263283333333, "fusion_lon": 0.0, "fusion_lat": 0.0, "type": "electric_scooter", "name": "0337f943f21ad684cfa2df0ef62a0b3b", "is_disabled": 0, "rental_uris": {"ios": "https://dc.lft.to/lastmile_qr_scan", "android": "https://dc.lft.to/lastmile_qr_scan"}, "is_reserved": 0}, {"lon": -76.99058916666667, "bike_id": "ce4d851c5709bcc14e53ef862f80245c", "lat": 38.8635685, "fusion_lon": 0.0, "fusion_lat": 0.0, "type": "electric_scooter", "name": "ce4d851c5709bcc14e53ef862f80245c", "is_disabled": 0, "rental_uris": {"ios": "https://dc.lft.to/lastmile_qr_scan", "android": "https://dc.lft.to/lastmile_qr_scan"}, "is_reserved": 0}, {"lon": -77.02410583333334, "bike_id": "06ab62a67753af313aaf42374b9834b2", "lat": 38.919197833333335, "fusion_lon": 0.0, "fusion_lat": 0.0, "type": "electric_scooter", "name": "06ab62a67753af313aaf42374b9834b2", "is_disabled": 0, "rental_uris": {"ios": "https://dc.lft.to/lastmile_qr_scan", "android": "https://dc.lft.to/lastmile_qr_scan"}, "is_reserved": 0}, {"lon": -77.03637216666667, "bike_id": "e0b3dd129fd6db6ddd7bd44892120158", "lat": 38.92465333333333, "fusion_lon": 0.0, "fusion_lat": 0.0, "type": "electric_scooter", "name": "e0b3dd129fd6db6ddd7bd44892120158", "is_disabled": 0, "rental_uris": {"ios": "https://dc.lft.to/lastmile_qr_scan", "android": "https://dc.lft.to/lastmile_qr_scan"}, "is_reserved": 0}, {"lon": -77.041235, "bike_id": "6bc22d64e29adbcbc5239d5914e0c472", "lat": 38.921217166666665, "fusion_lon": 0.0, "fusion_lat": 0.0, "type": "electric_scooter", "name": "6bc22d64e29adbcbc5239d5914e0c472", "is_disabled": 0, "rental_uris": {"ios": "https://dc.lft.to/lastmile_qr_scan", "android": "https://dc.lft.to/lastmile_qr_scan"}, "is_reserved": 0}, {"lon": -77.03065033333333, "bike_id": "e4d7618412e1a6262e431b374ffec1f8", "lat": 38.907667333333336, "fusion_lon": 0.0, "fusion_lat": 0.0, "type": "electric_scooter", "name": "e4d7618412e1a6262e431b374ffec1f8", "is_disabled": 0, "rental_uris": {"ios": "https://dc.lft.to/lastmile_qr_scan", "android": "https://dc.lft.to/lastmile_qr_scan"}, "is_reserved": 0}, {"lon": -76.93366966666666, "bike_id": "dda5c510e8d2dcfe724427bd21718c8c", "lat": 38.899136166666665, "fusion_lon": 0.0, "fusion_lat": 0.0, "type": "electric_scooter", "name": "dda5c510e8d2dcfe724427bd21718c8c", "is_disabled": 0, "rental_uris": {"ios": "https://dc.lft.to/lastmile_qr_scan", "android": "https://dc.lft.to/lastmile_qr_scan"}, "is_reserved": 0},