{"data": {"bikes": [{"is_disabled": 0, "is_reserved": 0, "fusion_lat": 0.0, "lat": 38.90031416666667, "fusion_lon": 0.0, "rental_uris": {"ios": "https://dc.lft.to/lastmile_qr_scan", "android": "https://dc.lft.to/lastmile_qr_scan"}, "lon": -76.98829433333333, "bike_id": "485d66202f827a96d23983332b1af633", "type": "electric_scooter", "name": "485d66202f827a96d23983332b1af633"}, {"is_disabled": 0, "is_reserved": 0, "fusion_lat": 0.0, "lat": 38.9036815, "fusion_lon": 0.0, "rental_uris": {"ios": "https://dc.lft.to/lastmile_qr_scan", "android": "https://dc.lft.to/lastmile_qr_scan"}, "lon": -77.02777716666667, "bike_id": "d1f649ee731b3cf9438f2fb89ce7c973", "type": "electric_scooter", "name": "d1f649ee731b3cf9438f2fb89ce7c973"}, {"is_disabled": 0, "is_reserved": 0, "fusion_lat": 0.0, "lat": 38.906063, "fusion_lon": 0.0, "rental_uris": {"ios": "https://dc.lft.to/lastmile_qr_scan", "android": "https://dc.lft.to/lastmile_qr_scan"}, "lon": -77.12900683333334, "bike_id": "66e21a47e655d46b336d5f5038df8d66", "type": "electric_bike", "name": "66e21a47e655d46b336d5f5038df8d66"}, {"is_disabled": 0, "is_reserved": 0, "fusion_lat": 0.0, "lat": 38.892149333333336, "fusion_lon": 0.0, "rental_uris": {"ios": "https://dc.lft.to/lastmile_qr_scan", "android": "https://dc.lft.to/lastmile_qr_scan"}, "lon": -77.02423433333334, "bike_id": "4e1a220acfacf3de004d31f5b62ad698", "type": "electric_scooter", "name": "4e1a220acfacf3de004d31f5b62ad698"}, {"is_disabled": 0, "is_reserved": 0, "fusion_lat": 0.0, "lat": 38.90880816666667, "fusion_lon": 0.0, "rental_uris": {"ios": "https://dc.lft.to/lastmile_qr_scan", "android": "https://dc.lft.to/lastmile_qr_scan"}, "lon": -76.99815466666666, "bike_id": "f72caaf110faaa04a8826e5972bafd68", "type": "electric_scooter", "name": "f72caaf110faaa04a8826e5972bafd68"}, {"is_disabled": 0, "is_reserved": 0, "fusion_lat": 0.0, "lat": 38.9344345, "fusion_lon": 0.0, "rental_uris": {"ios": "https://dc.lft.to/lastmile_qr_scan", "android": "https://dc.lft.to/lastmile_qr_scan"}, "lon": -77.02980816666667, "bike_id": "129815532e7f36b39d1dc58122db5e26", "type": "electric_scooter", "name": "129815532e7f36b39d1dc58122db5e26"}, {"is_disabled": 0, "is_reserved": 0, "fusion_lat": 0.0, "lat": 38.9492445, "fusion_lon": 0.0, "rental_uris": {"ios": "https://dc.lft.to/lastmile_qr_scan", "android": "https://dc.lft.to/lastmile_qr_scan"}, "lon": -77.0194115, "bike_id": "704d7b801c318b22ae2742b438e0c301", "type": "electric_scooter", "name": "704d7b801c318b22ae2742b438e0c301"}, {"is_disabled": 0, "is_reserved": 0, "fusion_lat": 0.0, "lat": 38.9483465, "fusion_lon": 0.0, "rental_uris": {"ios": "https://dc.lft.to/lastmile_qr_scan", "android": "https://dc.lft.to/lastmile_qr_scan"}, "lon": -76.98242433333333, "bike_id": "54d7cf15e52eab26bb2df2881d4885f9", "type": "electric_scooter", "name": "54d7cf15e52eab26bb2df2881d4885f9"}, {"is_disabled": 0, "is_reserved": 0, "fusion_lat": 0.0, "lat": 38.9191655, "fusion_lon": 0.0, "rental_uris": {"ios": "https://dc.lft.to/lastmile_qr_scan", "android": "https://dc.lft.to/lastmile_qr_scan"}, "lon": -77.03430816666666, "bike_id": "64a3b98aeb563718548ca597a57a96e6", "type": "electric_scooter", "name": "64a3b98aeb563718548ca597a57a96e6"}, {"is_disabled": 0, "is_reserved": 0, "fusion_lat": 0.0, "lat": 38.90114916666667, "fusion_lon": 0.0, "rental_uris": {"ios": "https://dc.lft.to/lastmile_qr_scan", "android": "https://dc.lft.to/lastmile_qr_scan"}, "lon": -77.01798983333333, "bike_id": "22347d6742f40af15b54e7061396057b", "type": "electric_scooter", "name": "22347d6742f40af15b54e7061396057b"}, {"is_disabled": 0, "is_reserved": 0, "fusion_lat": 0.0, "lat": 38.910502, "fusion_lon": 0.0, "rental_uris": {"ios": "https://dc.lft.to/lastmile_qr_scan", "android": "https://dc.lft.to/lastmile_qr_scan"}, "lon": -77.044935, "bike_id": "96c2f398853eeada2483991a9f52c805", "type": "electric_scooter", "name": "96c2f398853eeada2483991a9f52c805"}, {"is_disabled": 0, "is_reserved": 0, "fusion_lat": 0.0, "lat": 38.9489855, "fusion_lon": 0.0, "rental_uris": {"ios": "https://dc.lft.to/lastmile_qr_scan", "android": "https://dc.lft.to/lastmile_qr_scan"}, "lon": -76.963747, "bike_id": "224a16e741e6a22b6a2ce8a5dc00bda6", "type": "electric_bike", "name": "224a16e741e6a22b6a2ce8a5dc00bda6"}, {"is_disabled": 0, "is_reserved": 0, "fusion_lat": 0.0, "lat": 38.9180955, "fusion_lon": 0.0, "rental_uris": {"ios": "https://dc.lft.to/lastmile_qr_scan", "android": "https://dc.lft.to/lastmile_qr_scan"}, "lon": -77.02783283333333, "bike_id": "4188076638cdce3eb6895c6f925afa4a", "type": "electric_scooter", "name": "4188076638cdce3eb6895c6f925afa4a"}, {"is_disabled": 0, "is_reserved": 0, "fusion_lat": 0.0, "lat": 38.912821666666666, "fusion_lon": 0.0, "rental_uris": {"ios": "https://dc.lft.to/lastmile_qr_scan", "android": "https://dc.lft.to/lastmile_qr_scan"}, "lon": -77.0451265, "bike_id": "5a52720ba78f5413c1525839400fce60", "type": "electric_scooter", "name": "5a52720ba78f5413c1525839400fce60"}, {"is_disabled": 0, "is_reserved": 0, "fusion_lat": 0.0, "lat": 38.93686916666667, "fusion_lon": 0.0, "rental_uris": {"ios": "https://dc.lft.to/lastmile_qr_scan", "android": "https://dc.lft.to/lastmile_qr_scan"}, "lon": -77.03623966666666, "bike_id": "4a490c5d0161bbd14a66b1778422438d", "type": "electric_scooter", "name": "4a490c5d0161bbd14a66b1778422438d"}, {"is_disabled": 0, "is_reserved": 0, "fusion_lat": 0.0, "lat": 38.936593, "fusion_lon": 0.0, "rental_uris": {"ios": "https://dc.lft.to/lastmile_qr_scan", "android": "https://dc.lft.to/lastmile_qr_scan"}, "lon": -77.06609133333333, "bike_id": "251d1d5e3fb8c0e61765de2e38192ce7", "type": "electric_scooter", "name": "251d1d5e3fb8c0e61765de2e38192ce7"}, {"is_disabled": 0, "is_reserved": 0, "fusion_lat": 0.0, "lat": 38.89494833333333, "fusion_lon": 0.0, "rental_uris": {"ios": "https://dc.lft.to/lastmile_qr_scan", "android": "https://dc.lft.to/lastmile_qr_scan"}, "lon": -77.022983, "bike_id": "2b36bd041be5e6de71e2b0203aba9078", "type": "electric_scooter", "name": "2b36bd041be5e6de71e2b0203aba9078"}, {"is_disabled": 0, "is_reserved": 0, "fusion_lat": 0.0, "lat": 38.90782816666667, "fusion_lon": 0.0, "rental_uris": {"ios": "https://dc.lft.to/lastmile_qr_scan", "android": "https://dc.lft.to/lastmile_qr_scan"}, "lon": -76.99742866666666, "bike_id": "894b082a6b8eea0f98ff38ac674d8d58", "type": "electric_scooter", "name": "894b082a6b8eea0f98ff38ac674d8d58"}, {"is_disabled": 0, "is_reserved": 0, "fusion_lat": 0.0, "lat": 38.9016285, "fusion_lon": 0.0, "rental_uris": {"ios": "https://dc.lft.to/lastmile_qr_scan", "android": "https://dc.lft.to/lastmile_qr_scan"}, "lon": -77.03251416666667, "bike_id": "ba3ffe0886029fa503272251d9cbaa6f", "type": "electric_scooter", "name": "ba3ffe0886029fa503272251d9cbaa6f"}, {"is_disabled": 0, "is_reserved": 0, "fusion_lat": 0.0, "lat": 38.93051666666667, "fusion_lon": 0.0, "rental_uris": {"ios": "https://dc.lft.to/lastmile_qr_scan", "android": "https://dc.lft.to/lastmile_qr_scan"}, "lon": -77.03810783333333, "bike_id": "65da4ea652455e51455ada1d2c5db17c", "type": "electric_scooter", "name": "65da4ea652455e51455ada1d2c5db17c"}, {"is_disabled": 0, "is_reserved": 0, "fusion_lat": 0.0, "lat": 38.917869333333336, "fusion_lon": 0.0, "rental_uris": {"ios": "https://dc.lft.to/lastmile_qr_scan", "android": "https://dc.lft.to/lastmile_qr_scan"}, "lon": -77.0234065, "bike_id": "801f7a6337549ee32c72e4b5925e846d", "type": "electric_scooter", "name": "801f7a6337549ee32c72e4b5925e846d"}, {"is_disabled": 0, "is_reserved": 0, "fusion_lat": 0.0, "lat": 38.915131, "fusion_lon": 0.0, "rental_uris": {"ios": "https://dc.lft.to/lastmile_qr_scan", "android": "https://dc.lft.to/lastmile_qr_scan"}, "lon": -77.0449305, "bike_id": "5efd473f4a238e720c3cabdecf855e45", "type": "electric_scooter", "name": "5efd473f4a238e720c3cabdecf855e45"}, {"is_disabled": 0, "is_reserved": 0, "fusion_lat": 0.0, "lat": 38.93173083333333, "fusion_lon": 0.0, "rental_uris": {"ios": "https://dc.lft.to/lastmile_qr_scan", "android": "https://dc.lft.to/lastmile_qr_scan"}, "lon": -77.02817633333333, "bike_id": "b827a83c941dbf1566a0e396ad41d68b", "type": "electric_scooter", "name": "b827a83c941dbf1566a0e396ad41d68b"}, {"is_disabled": 0, "is_reserved": 0, "fusion_lat": 0.0, "lat": 38.8757905, "fusion_lon": 0.0, "rental_uris": {"ios": "https://dc.lft.to/lastmile_qr_scan", "android": "https://dc.lft.to/lastmile_qr_scan"}, "lon": -77.2340865, "bike_id": "7e812b016141128a28af75e0c06e6f36", "type": "electric_bike", "name": "7e812b016141128a28af75e0c06e6f36"}, {"is_disabled": 0, "is_reserved": 0, "fusion_lat": 0.0, "lat": 38.8803765, "fusion_lon": 0.0, "rental_uris": {"ios": "https://dc.lft.to/lastmile_qr_scan", "android": "https://dc.lft.to/lastmile_qr_scan"}, "lon": -76.9272545, "bike_id": "c81c298da1229390b1bd360dbbfeb9af", "type": "electric_scooter", "name": "c81c298da1229390b1bd360dbbfeb9af"}, {"is_disabled": 0, "is_reserved": 0, "fusion_lat": 0.0, "lat": 38.89555883333333, "fusion_lon": 0.0, "rental_uris": {"ios": "https://dc.lft.to/lastmile_qr_scan", "android": "https://dc.lft.to/lastmile_qr_scan"}, "lon": -77.021753, "bike_id": "99f5cad34e51cf0936128ccf7170398a", "type": "electric_scooter", "name": "99f5cad34e51cf0936128ccf7170398a"}, {"is_disabled": 0, "is_reserved": 0, "fusion_lat": 0.0, "lat": 38.87070933333333, "fusion_lon": 0.0, "rental_uris": {"ios": "https://dc.lft.to/lastmile_qr_scan", "android": "https://dc.lft.to/lastmile_qr_scan"}, "lon": -76.98126333333333, "bike_id": "02a619c33953ed8eb290d0e817f1c722", "type": "electric_scooter", "name": "02a619c33953ed8eb290d0e817f1c722"}, {"is_disabled": 0, "is_reserved": 0, "fusion_lat": 0.0, "lat": 38.914376, "fusion_lon": 0.0, "rental_uris": {"ios": "https://dc.lft.to/lastmile_qr_scan", "android": "https://dc.lft.to/lastmile_qr_scan"}, "lon": -77.0228175, "bike_id": "a47e35e8f501ec0b622dbf0d6f7b0edc", "type": "electric_scooter", "name": "a47e35e8f501ec0b622dbf0d6f7b0edc"}, {"is_disabled": 0, "is_reserved": 0, "fusion_lat": 0.0, "lat": 38.914133666666665, "fusion_lon": 0.0, "rental_uris": {"ios": "https://dc.lft.to/lastmile_qr_scan", "android": "https://dc.lft.to/lastmile_qr_scan"}, "lon": -77.02234333333334, "bike_id": "63e0873d20c074823bfeab32195f163e", "type": "electric_scooter", "name": "63e0873d20c074823bfeab32195f163e"}, {"is_disabled": 0, "is_reserved": 0, "fusion_lat": 0.0, "lat": 38.9205535, "fusion_lon": 0.0, "rental_uris": {"ios": "https://dc.lft.to/lastmile_qr_scan", "android": "https://dc.lft.to/lastmile_qr_scan"}, "lon": -77.0243215, "bike_id": "5e544d10eb66bdb1896f7e72dfcc0473", "type": "electric_scooter", "name": "5e544d10eb66bdb1896f7e72dfcc0473"}, {"is_disabled": 0, "is_reserved": 0, "fusion_lat": 0.0, "lat": 38.902994166666666, "fusion_lon": 0.0, "rental_uris": {"ios": "https://dc.lft.to/lastmile_qr_scan", "android": "https://dc.lft.to/lastmile_qr_scan"}, "lon": -77.03211633333333, "bike_id": "1c5d7618ffbfd0b9a34a1770e85c76e0", "type": "electric_scooter", "name": "1c5d7618ffbfd0b9a34a1770e85c76e0"}, {"is_disabled": 0, "is_reserved": 0, "fusion_lat": 0.0, "lat": 38.89970133333333, "fusion_lon": 0.0, "rental_uris": {"ios": "https://dc.lft.to/lastmile_qr_scan", "android": "https://dc.lft.to/lastmile_qr_scan"}, "lon": -76.92632066666667, "bike_id": "af4642205214db59f5d1b5cd94cc1f33", "type": "electric_scooter", "name": "af4642205214db59f5d1b5cd94cc1f33"}, {"is_disabled": 0, "is_reserved": 0, "fusion_lat": 0.0, "lat": 39.03472283333333, "fusion_lon": 0.0, "rental_uris": {"ios": "https://dc.lft.to/lastmile_qr_scan", "android": "https://dc.lft.to/lastmile_qr_scan"}, "lon": -77.016595, "bike_id": "088877ca0798170bcf45ad52e218e7e1", "type": "electric_bike", "name": "088877ca0798170bcf45ad52e218e7e1"}, {"is_disabled": 0, "is_reserved": 0, "fusion_lat": 0.0, "lat": 38.90038116666667, "fusion_lon": 0.0, "rental_uris": {"ios": "https://dc.lft.to/lastmile_qr_scan", "android": "https://dc.lft.to/lastmile_qr_scan"}, "lon": -76.99869066666666, "bike_id": "0a6caa0abd1a10e041da66dd1b79d157", "type": "electric_scooter", "name": "0a6caa0abd1a10e041da66dd1b79d157"}, {"is_disabled": 0, "is_reserved": 0, "fusion_lat": 0.0, "lat": 39.084725666666664, "fusion_lon": 0.0, "rental_uris": {"ios": "https://dc.lft.to/lastmile_qr_scan", "android": "https://dc.lft.to/lastmile_qr_scan"}, "lon": -76.95068616666667, "bike_id": "a67c684e34b8eeeb2cfda054ee1f1a55", "type": "electric_bike", "name": "a67c684e34b8eeeb2cfda054ee1f1a55"}, {"is_disabled": 0, "is_reserved": 0, "fusion_lat": 0.0, "lat": 38.89196166666667, "fusion_lon": 0.0, "rental_uris": {"ios": "https://dc.lft.to/lastmile_qr_scan", "android": "https://dc.lft.to/lastmile_qr_scan"}, "lon": -77.02473, "bike_id": "3d188ef5f66f94cee2b7350d598fca08", "type": "electric_scooter", "name": "3d188ef5f66f94cee2b7350d598fca08"}, {"is_disabled": 0, "is_reserved": 0, "fusion_lat": 0.0, "lat": 38.95344816666667, "fusion_lon": 0.0, "rental_uris": {"ios": "https://dc.lft.to/lastmile_qr_scan", "android": "https://dc.lft.to/lastmile_qr_scan"}, "lon": -77.08147283333334, "bike_id": "ca1fd8617d8447c35f84093b42860e21", "type": "electric_scooter", "name": "ca1fd8617d8447c35f84093b42860e21"}, {"is_disabled": 0, "is_reserved": 0, "fusion_lat": 0.0, "lat": 38.90570983333333, "fusion_lon": 0.0, "rental_uris": {"ios": "https://dc.lft.to/lastmile_qr_scan", "android": "https://dc.lft.to/lastmile_qr_scan"}, "lon": -77.03267316666667, "bike_id": "fc2ccfa57c4d07078a38f294e4680da9", "type": "electric_scooter", "name": "fc2ccfa57c4d07078a38f294e4680da9"}, {"is_disabled": 0, "is_reserved": 0, "fusion_lat": 0.0, "lat": 38.92352116666667, "fusion_lon": 0.0, "rental_uris": {"ios": "https://dc.lft.to/lastmile_qr_scan", "android": "https://dc.lft.to/lastmile_qr_scan"}, "lon": -76.97206166666666, "bike_id": "752da24d63d6d4c82dab0eacadb7be5b", "type": "electric_scooter", "name": "752da24d63d6d4c82dab0eacadb7be5b"}, {"is_disabled": 0, "is_reserved": 0, "fusion_lat": 0.0, "lat": 38.90886166666667, "fusion_lon": 0.0, "rental_uris": {"ios": "https://dc.lft.to/lastmile_qr_scan", "android": "https://dc.lft.to/lastmile_qr_scan"}, "lon": -77.03393116666666, "bike_id": "e90f6a071ee3512e4c196b45e89bc01b", "type": "electric_scooter", "name": "e90f6a071ee3512e4c196b45e89bc01b"}, {"is_disabled": 0, "is_reserved": 0, "fusion_lat": 0.0, "lat": 38.88369433333333, "fusion_lon": 0.0, "rental_uris": {"ios": "https://dc.lft.to/lastmile_qr_scan", "android": "https://dc.lft.to/lastmile_qr_scan"}, "lon": -76.99518183333333, "bike_id": "431502f00b530dac3813a1e17d84a4a1", "type": "electric_scooter", "name": "431502f00b530dac3813a1e17d84a4a1"}, {"is_disabled": 0, "is_reserved": 0, "fusion_lat": 0.0, "lat": 38.88982433333334, "fusion_lon": 0.0, "rental_uris": {"ios": "https://dc.lft.to/lastmile_qr_scan", "android": "https://dc.lft.to/lastmile_qr_scan"}, "lon": -77.00347166666667, "bike_id": "5ec12c7a2d6834abe4f21181a006c35f", "type": "electric_scooter", "name": "5ec12c7a2d6834abe4f21181a006c35f"}, {"is_disabled": 0, "is_reserved": 0, "fusion_lat": 0.0, "lat": 38.89218533333333, "fusion_lon": 0.0, "rental_uris": {"ios": "https://dc.lft.to/lastmile_qr_scan", "android": "https://dc.lft.to/lastmile_qr_scan"}, "lon": -77.02353533333333, "bike_id": "f0689ed8414a4bed77770970bd605233", "type": "electric_scooter", "name": "f0689ed8414a4bed77770970bd605233"}, {"is_disabled": 0, "is_reserved": 0, "fusion_lat": 0.0, "lat": 38.927457833333335, "fusion_lon": 0.0, "rental_uris": {"ios": "https://dc.lft.to/lastmile_qr_scan", "android": "https://dc.lft.to/lastmile_qr_scan"}, "lon": -77.06462733333333, "bike_id": "30121b2877b81f63fe04cfe0c693f4f5", "type": "electric_scooter", "name": "30121b2877b81f63fe04cfe0c693f4f5"}, {"is_disabled": 0, "is_reserved": 0, "fusion_lat": 0.0, "lat": 38.917790333333336, "fusion_lon": 0.0, "rental_uris": {"ios": "https://dc.lft.to/lastmile_qr_scan", "android": "https://dc.lft.to/lastmile_qr_scan"}, "lon": -77.04668866666667, "bike_id": "f6653ed8e8836ce8b94bf4f5206b8a06", "type": "electric_scooter", "name": "f6653ed8e8836ce8b94bf4f5206b8a06"}, {"is_disabled": 0, "is_reserved": 0, "fusion_lat": 0.0, "lat": 38.89272016666666, "fusion_lon": 0.0, "rental_uris": {"ios": "https://dc.lft.to/lastmile_qr_scan", "android": "https://dc.lft.to/lastmile_qr_scan"}, "lon": -77.05036583333333, "bike_id": "6934ac23cfd1b88681b1a15b9532a6da", "type": "electric_scooter", "name": "6934ac23cfd1b88681b1a15b9532a6da"}, {"is_disabled": 0, "is_reserved": 0, "fusion_lat": 0.0, "lat": 38.83011833333333, "fusion_lon": 0.0, "rental_uris": {"ios": "https://dc.lft.to/lastmile_qr_scan", "android": "https://dc.lft.to/lastmile_qr_scan"}, "lon": -77.00808166666667, "bike_id": "ee7e2ec396a373a537e6bf74ca1ddeee", "type": "electric_bike", "name": "ee7e2ec396a373a537e6bf74ca1ddeee"}, {"is_disabled": 0, "is_reserved": 0, "fusion_lat": 0.0, "lat": 38.89993033333333, "fusion_lon": 0.0, "rental_uris": {"ios": "https://dc.lft.to/lastmile_qr_scan", "android": "https://dc.lft.to/lastmile_qr_scan"}, "lon": -77.0164095, "bike_id": "4cd3f2d0ee3fc6e71df1a499230936d5", "type": "electric_scooter", "name": "4cd3f2d0ee3fc6e71df1a499230936d5"}, {"is_disabled": 0, "is_reserved": 0, "fusion_lat": 0.0, "lat": 38.923671666666664, "fusion_lon": 0.0, "rental_uris": {"ios": "https://dc.lft.to/lastmile_qr_scan", "android": "https://dc.lft.to/lastmile_qr_scan"}, "lon": -77.0192085, "bike_id": "f3a964685a9fd8c002a0e52c2b9bd18b", "type": "electric_scooter", "name": "f3a964685a9fd8c002a0e52c2b9bd18b"}, {"is_disabled": 0, "is_reserved": 0, "fusion_lat": 0.0, "lat": 38.904876333333334, "fusion_lon": 0.0, "rental_uris": {"ios": "https://dc.lft.to/lastmile_qr_scan", "android": "https://dc.lft.to/lastmile_qr_scan"}, "lon": -77.00916683333334, "bike_id": "fbfbf2de06fa3cd96349d9528c17609f", "type": "electric_scooter", "name": "fbfbf2de06fa3cd96349d9528c17609f"}, {"is_disabled": 0, "is_reserved": 0, "fusion_lat": 0.0, "lat": 38.9002425, "fusion_lon": 0.0, "rental_uris": {"ios": "https://dc.lft.to/lastmile_qr_scan", "android": "https://dc.lft.to/lastmile_qr_scan"}, "lon": -77.03324516666666, "bike_id": "f5d5e7f1842a18dd1244c04b5d4c337d", "type": "electric_scooter", "name": "f5d5e7f1842a18dd1244c04b5d4c337d"}, {"is_disabled": 0, "is_reserved": 0, "fusion_lat": 0.0, "lat": 38.9302775, "fusion_lon": 0.0, "rental_uris": {"ios": "https://dc.lft.to/lastmile_qr_scan", "android": "https://dc.lft.to/lastmile_qr_scan"}, "lon": -77.023158, "bike_id": "b32f0c29629579ea690563286e6af498", "type": "electric_scooter", "name": "b32f0c29629579ea690563286e6af498"}, {"is_disabled": 0, "is_reserved": 0, "fusion_lat": 0.0, "lat": 38.90526333333333, "fusion_lon": 0.0, "rental_uris": {"ios": "https://dc.lft.to/lastmile_qr_scan", "android": "https://dc.lft.to/lastmile_qr_scan"}, "lon": -77.06201133333333, "bike_id": "5e28a1d3cfe558e592ccbc5ec813923f", "type": "electric_scooter", "name": "5e28a1d3cfe558e592ccbc5ec813923f"}, {"is_disabled": 0, "is_reserved": 0, "fusion_lat": 0.0, "lat": 38.913337166666665, "fusion_lon": 0.0, "rental_uris": {"ios": "https://dc.lft.to/lastmile_qr_scan", "android": "https://dc.lft.to/lastmile_qr_scan"}, "lon": -77.0457965, "bike_id": "a65c5bab97b9b883269ef0bcd6b9313a", "type": "electric_scooter", "name": "a65c5bab97b9b883269ef0bcd6b9313a"}, {"is_disabled": 0, "is_reserved": 0, "fusion_lat": 0.0, "lat": 38.953286166666665, "fusion_lon": 0.0, "rental_uris": {"ios": "https://dc.lft.to/lastmile_qr_scan", "android": "https://dc.lft.to/lastmile_qr_scan"}, "lon": -76.98250233333333, "bike_id": "0682f9c2b4c8bb4bf3f5e7ca771237ea", "type": "electric_bike", "name": "0682f9c2b4c8bb4bf3f5e7ca771237ea"}, {"is_disabled": 0, "is_reserved": 0, "fusion_lat": 0.0, "lat": 38.930425166666666, "fusion_lon": 0.0, "rental_uris": {"ios": "https://dc.lft.to/lastmile_qr_scan", "android": "https://dc.lft.to/lastmile_qr_scan"}, "lon": -77.03608316666667, "bike_id": "58dffa4e82f48191f47d85070468ab5a", "type": "electric_scooter", "name": "58dffa4e82f48191f47d85070468ab5a"}, {"is_disabled": 0, "is_reserved": 0, "fusion_lat": 0.0, "lat": 38.91805083333333, "fusion_lon": 0.0, "rental_uris": {"ios": "https://dc.lft.to/lastmile_qr_scan", "android": "https://dc.lft.to/lastmile_qr_scan"}, "lon": -77.0343825, "bike_id": "d306bb092d7da5af90e2ed8a86b97074", "type": "electric_scooter", "name": "d306bb092d7da5af90e2ed8a86b97074"}, {"is_disabled": 0, "is_reserved": 0, "fusion_lat": 0.0, "lat": 38.887699166666664, "fusion_lon": 0.0, "rental_uris": {"ios": "https://dc.lft.to/lastmile_qr_scan", "android": "https://dc.lft.to/lastmile_qr_scan"}, "lon": -77.01461083333334, "bike_id": "71ad9711d07358d61702f4ddf61f5942", "type": "electric_scooter", "name": "71ad9711d07358d61702f4ddf61f5942"}, {"is_disabled": 0, "is_reserved": 0, "fusion_lat": 0.0, "lat": 38.87926933333333, "fusion_lon": 0.0, "rental_uris": {"ios": "https://dc.lft.to/lastmile_qr_scan", "android": "https://dc.lft.to/lastmile_qr_scan"}, "lon": -77.02373016666667, "bike_id": "1496c5aa18adfaa129fee22959ed8119", "type": "electric_scooter", "name": "1496c5aa18adfaa129fee22959ed8119"}, {"is_disabled": 0, "is_reserved": 0, "fusion_lat": 0.0, "lat": 38.936118666666665, "fusion_lon": 0.0, "rental_uris": {"ios": "https://dc.lft.to/lastmile_qr_scan", "android": "https://dc.lft.to/lastmile_qr_scan"}, "lon": -76.949988, "bike_id": "6ff8f0a18b8466a1f1c30fa658cd01cd", "type": "electric_bike", "name": "6ff8f0a18b8466a1f1c30fa658cd01cd"}, {"is_disabled": 0, "is_reserved": 0, "fusion_lat": 0.0, "lat": 38.89748733333333, "fusion_lon": 0.0, "rental_uris": {"ios": "https://dc.lft.to/lastmile_qr_scan", "android": "https://dc.lft.to/lastmile_qr_scan"}, "lon": -77.054841, "bike_id": "5b01ad28152b226237f9080896d82459", "type": "electric_scooter", "name": "5b01ad28152b226237f9080896d82459"}, {"is_disabled": 0, "is_reserved": 0, "fusion_lat": 0.0, "lat": 38.896846, "fusion_lon": 0.0, "rental_uris": {"ios": "https://dc.lft.to/lastmile_qr_scan", "android": "https://dc.lft.to/lastmile_qr_scan"}, "lon": -76.93906916666667, "bike_id": "09953b50798b967bebe5c29b2ff3e24c", "type": "electric_scooter", "name": "09953b50798b967bebe5c29b2ff3e24c"}, {"is_disabled": 0, "is_reserved": 0, "fusion_lat": 0.0, "lat": 38.859372666666665, "fusion_lon": 0.0, "rental_uris": {"ios": "https://dc.lft.to/lastmile_qr_scan", "android": "https://dc.lft.to/lastmile_qr_scan"}, "lon": -76.98681866666666, "bike_id": "b85bbae606dbed9befd5b2584262ef38", "type": "electric_scooter", "name": "b85bbae606dbed9befd5b2584262ef38"}, {"is_disabled": 0, "is_reserved": 0, "fusion_lat": 0.0, "lat": 38.909347833333335, "fusion_lon": 0.0, "rental_uris": {"ios": "https://dc.lft.to/lastmile_qr_scan", "android": "https://dc.lft.to/lastmile_qr_scan"}, "lon": -77.01841283333333, "bike_id": "1f488a9409806bd4ba8b93e0318c2fc6", "type": "electric_scooter", "name": "1f488a9409806bd4ba8b93e0318c2fc6"}, {"is_disabled": 0, "is_reserved": 0, "fusion_lat": 0.0, "lat": 38.89083516666667, "fusion_lon": 0.0, "rental_uris": {"ios": "https://dc.lft.to/lastmile_qr_scan", "android": "https://dc.lft.to/lastmile_qr_scan"}, "lon": -76.9547285, "bike_id": "855a4ced99a9f9734f5e8d21b36d67a9", "type": "electric_bike", "name": "855a4ced99a9f9734f5e8d21b36d67a9"}, {"is_disabled": 0, "is_reserved": 0, "fusion_lat": 0.0, "lat": 38.929631, "fusion_lon": 0.0, "rental_uris": {"ios": "https://dc.lft.to/lastmile_qr_scan", "android": "https://dc.lft.to/lastmile_qr_scan"}, "lon": -76.9906695, "bike_id": "044f685388158ba8db44c35b5138ce52", "type": "electric_bike", "name": "044f685388158ba8db44c35b5138ce52"}, {"is_disabled": 0, "is_reserved": 0, "fusion_lat": 0.0, "lat": 38.9305925, "fusion_lon": 0.0, "rental_uris": {"ios": "https://dc.lft.to/lastmile_qr_scan", "android": "https://dc.lft.to/lastmile_qr_scan"}, "lon": -76.97328066666667, "bike_id": "c0fd284c49fcc6ddfa1b21e97a0fe524", "type": "electric_scooter", "name": "c0fd284c49fcc6ddfa1b21e97a0fe524"}, {"is_disabled": 0, "is_reserved": 0, "fusion_lat": 0.0, "lat": 38.92551533333334, "fusion_lon": 0.0, "rental_uris": {"ios": "https://dc.lft.to/lastmile_qr_scan", "android": "https://dc.lft.to/lastmile_qr_scan"}, "lon": -77.02711416666666, "bike_id": "6936214fc066e997d9a2fc2ccf7344b8", "type": "electric_scooter", "name": "6936214fc066e997d9a2fc2ccf7344b8"}, {"is_disabled": 0, "is_reserved": 0, "fusion_lat": 0.0, "lat": 38.95636666666667, "fusion_lon": 0.0, "rental_uris": {"ios": "https://dc.lft.to/lastmile_qr_scan", "android": "https://dc.lft.to/lastmile_qr_scan"}, "lon": -77.03634966666667, "bike_id": "9347adb6129add75239298746ea927fb", "type": "electric_scooter", "name": "9347adb6129add75239298746ea927fb"}, {"is_disabled": 0, "is_reserved": 0, "fusion_lat": 0.0, "lat": 38.93190383333334, "fusion_lon": 0.0, "rental_uris": {"ios": "https://dc.lft.to/lastmile_qr_scan", "android": "https://dc.lft.to/lastmile_qr_scan"}, "lon": -77.01871933333334, "bike_id": "053f0e0d6fec2c3651bf2f1e16725898", "type": "electric_scooter", "name": "053f0e0d6fec2c3651bf2f1e16725898"}, {"is_disabled": 0, "is_reserved": 0, "fusion_lat": 0.0, "lat": 38.91647733333333, "fusion_lon": 0.0, "rental_uris": {"ios": "https://dc.lft.to/lastmile_qr_scan", "android": "https://dc.lft.to/lastmile_qr_scan"}, "lon": -77.02178333333333, "bike_id": "568a16751ca42837fa7810487a82583d", "type": "electric_scooter", "name": "568a16751ca42837fa7810487a82583d"}, {"is_disabled": 0, "is_reserved": 0, "fusion_lat": 0.0, "lat": 38.926409166666666, "fusion_lon": 0.0, "rental_uris": {"ios": "https://dc.lft.to/lastmile_qr_scan", "android": "https://dc.lft.to/lastmile_qr_scan"}, "lon": -77.037014, "bike_id": "90666caf20d23f81ec6dad1e77d38264", "type": "electric_scooter", "name": "90666caf20d23f81ec6dad1e77d38264"}, {"is_disabled": 0, "is_reserved": 0, "fusion_lat": 0.0, "lat": 38.904354, "fusion_lon": 0.0, "rental_uris": {"ios": "https://dc.lft.to/lastmile_qr_scan", "android": "https://dc.lft.to/lastmile_qr_scan"}, "lon": -76.97233266666667, "bike_id": "2ca919a8d7a5d94fc4245050d5ad2eb7", "type": "electric_bike", "name": "2ca919a8d7a5d94fc4245050d5ad2eb7"}, {"is_disabled": 0, "is_reserved": 0, "fusion_lat": 0.0, "lat": 38.887389166666665, "fusion_lon": 0.0, "rental_uris": {"ios": "https://dc.lft.to/lastmile_qr_scan", "android": "https://dc.lft.to/lastmile_qr_scan"}, "lon": -76.9835665, "bike_id": "8be6c658a26eef75cbe8fbc072dfa3e0", "type": "electric_scooter", "name": "8be6c658a26eef75cbe8fbc072dfa3e0"}, {"is_disabled": 0, "is_reserved": 0, "fusion_lat": 0.0, "lat": 38.898508666666665, "fusion_lon": 0.0, "rental_uris": {"ios": "https://dc.lft.to/lastmile_qr_scan", "android": "https://dc.lft.to/lastmile_qr_scan"}, "lon": -76.927527, "bike_id": "dd27884695fd713a5947f77e748ec760", "type": "electric_scooter", "name": "dd27884695fd713a5947f77e748ec760"}, {"is_disabled": 0, "is_reserved": 0, "fusion_lat": 0.0, "lat": 38.832924166666665, "fusion_lon": 0.0, "rental_uris": {"ios": "https://dc.lft.to/lastmile_qr_scan", "android": "https://dc.lft.to/lastmile_qr_scan"}, "lon": -77.0841155, "bike_id": "52cdb458789c73b8a22cc210069518fb", "type": "electric_bike", "name": "52cdb458789c73b8a22cc210069518fb"}, {"is_disabled": 0, "is_reserved": 0, "fusion_lat": 0.0, "lat": 38.922400333333336, "fusion_lon": 0.0, "rental_uris": {"ios": "https://dc.lft.to/lastmile_qr_scan", "android": "https://dc.lft.to/lastmile_qr_scan"}, "lon": -77.04286366666666, "bike_id": "5f1cbab3560b831be50bcd211bfe265b", "type": "electric_scooter", "name": "5f1cbab3560b831be50bcd211bfe265b"}, {"is_disabled": 0, "is_reserved": 0, "fusion_lat": 0.0, "lat": 38.90245183333333, "fusion_lon": 0.0, "rental_uris": {"ios": "https://dc.lft.to/lastmile_qr_scan", "android": "https://dc.lft.to/lastmile_qr_scan"}, "lon": -77.03952283333334, "bike_id": "1e902ebccd79b975efcbaf2fa6f19b9e", "type": "electric_scooter", "name": "1e902ebccd79b975efcbaf2fa6f19b9e"}, {"is_disabled": 0, "is_reserved": 0, "fusion_lat": 0.0, "lat": 38.917119166666666, "fusion_lon": 0.0, "rental_uris": {"ios": "https://dc.lft.to/lastmile_qr_scan", "android": "https://dc.lft.to/lastmile_qr_scan"}, "lon": -77.02491683333334, "bike_id": "f832a5ca329ee639680c473f421fc416", "type": "electric_scooter", "name": "f832a5ca329ee639680c473f421fc416"}, {"is_disabled": 0, "is_reserved": 0, "fusion_lat": 0.0, "lat": 38.93316183333334, "fusion_lon": 0.0, "rental_uris": {"ios": "https://dc.lft.to/lastmile_qr_scan", "android": "https://dc.lft.to/lastmile_qr_scan"}, "lon": -77.0362795, "bike_id": "16f96206876bb513ae644ee418a22ce3", "type": "electric_scooter", "name": "16f96206876bb513ae644ee418a22ce3"}, {"is_disabled": 0, "is_reserved": 0, "fusion_lat": 0.0, "lat": 38.91816583333333, "fusion_lon": 0.0, "rental_uris": {"ios": "https://dc.lft.to/lastmile_qr_scan", "android": "https://dc.lft.to/lastmile_qr_scan"}, "lon": -77.03792416666667, "bike_id": "789077e4ee9647fbf1c1644643af3d19", "type": "electric_scooter", "name": "789077e4ee9647fbf1c1644643af3d19"}, {"is_disabled": 0, "is_reserved": 0, "fusion_lat": 0.0, "lat": 38.91643966666667, "fusion_lon": 0.0, "rental_uris": {"ios": "https://dc.lft.to/lastmile_qr_scan", "android": "https://dc.lft.to/lastmile_qr_scan"}, "lon": -77.0466465, "bike_id": "8b9bfc0b1d9762f3662f25afa80a32af", "type": "electric_scooter", "name": "8b9bfc0b1d9762f3662f25afa80a32af"}, {"is_disabled": 0, "is_reserved": 0, "fusion_lat": 0.0, "lat": 38.934515833333336, "fusion_lon": 0.0, "rental_uris": {"ios": "https://dc.lft.to/lastmile_qr_scan", "android": "https://dc.lft.to/lastmile_qr_scan"}, "lon": -77.02915616666667, "bike_id": "d75a1cb5411e4796550d3a615958b64e", "type": "electric_scooter", "name": "d75a1cb5411e4796550d3a615958b64e"}, {"is_disabled": 0, "is_reserved": 0, "fusion_lat": 0.0, "lat": 38.899463833333336, "fusion_lon": 0.0, "rental_uris": {"ios": "https://dc.lft.to/lastmile_qr_scan", "android": "https://dc.lft.to/lastmile_qr_scan"}, "lon": -76.93764316666666, "bike_id": "f582de44a79e4f0fad6c5958a4434833", "type": "electric_scooter", "name": "f582de44a79e4f0fad6c5958a4434833"}, {"is_disabled": 0, "is_reserved": 0, "fusion_lat": 0.0, "lat": 38.89224683333333, "fusion_lon": 0.0, "rental_uris": {"ios": "https://dc.lft.to/lastmile_qr_scan", "android": "https://dc.lft.to/lastmile_qr_scan"}, "lon": -77.03153633333334, "bike_id": "8ca1b3563a9936f8c9af58d440aaf4e6", "type": "electric_scooter", "name": "8ca1b3563a9936f8c9af58d440aaf4e6"}, {"is_disabled": 0, "is_reserved": 0, "fusion_lat": 0.0, "lat": 38.92835933333333, "fusion_lon": 0.0, "rental_uris": {"ios": "https://dc.lft.to/lastmile_qr_scan", "android": "https://dc.lft.to/lastmile_qr_scan"}, "lon": -77.05958616666666, "bike_id": "6a70368a4721c52cdf704c0493bc7e30", "type": "electric_bike", "name": "6a70368a4721c52cdf704c0493bc7e30"}, {"is_disabled": 0, "is_reserved": 0, "fusion_lat": 0.0, "lat": 38.8896965, "fusion_lon": 0.0, "rental_uris": {"ios": "https://dc.lft.to/lastmile_qr_scan", "android": "https://dc.lft.to/lastmile_qr_scan"}, "lon": -76.981773, "bike_id": "09feda6af182ae9898c7f152964843c8", "type": "electric_scooter", "name": "09feda6af182ae9898c7f152964843c8"}, {"is_disabled": 0, "is_reserved": 0, "fusion_lat": 0.0, "lat": 38.918070666666665, "fusion_lon": 0.0, "rental_uris": {"ios": "https://dc.lft.to/lastmile_qr_scan", "android": "https://dc.lft.to/lastmile_qr_scan"}, "lon": -77.0000715, "bike_id": "81c84e461fff16fc354969efbbb202a7", "type": "electric_scooter", "name": "81c84e461fff16fc354969efbbb202a7"}, {"is_disabled": 0, "is_reserved": 0, "fusion_lat": 0.0, "lat": 38.9117325, "fusion_lon": 0.0, "rental_uris": {"ios": "https://dc.lft.to/lastmile_qr_scan", "android": "https://dc.lft.to/lastmile_qr_scan"}, "lon": -77.01208583333333, "bike_id": "0577a7347a373f28dd1099e3a7ecbdbe", "type": "electric_scooter", "name": "0577a7347a373f28dd1099e3a7ecbdbe"}, {"is_disabled": 0, "is_reserved": 0, "fusion_lat": 0.0, "lat": 38.89886166666667, "fusion_lon": 0.0, "rental_uris": {"ios": "https://dc.lft.to/lastmile_qr_scan", "android": "https://dc.lft.to/lastmile_qr_scan"}, "lon": -76.98678733333334, "bike_id": "f62c16becd5a11780dac05fa8841d8cc", "type": "electric_scooter", "name": "f62c16becd5a11780dac05fa8841d8cc"}, {"is_disabled": 0, "is_reserved": 0, "fusion_lat": 0.0, "lat": 38.92385083333333, "fusion_lon": 0.0, "rental_uris": {"ios": "https://dc.lft.to/lastmile_qr_scan", "android": "https://dc.lft.to/lastmile_qr_scan"}, "lon": -77.04057133333333, "bike_id": "5d8a2398cbf86e4a557c9db3f9bf6dfc", "type": "electric_scooter", "name": "5d8a2398cbf86e4a557c9db3f9bf6dfc"}, {"is_disabled": 0, "is_reserved": 0, "fusion_lat": 0.0, "lat": 38.919826666666665, "fusion_lon": 0.0, "rental_uris": {"ios": "https://dc.lft.to/lastmile_qr_scan", "android": "https://dc.lft.to/lastmile_qr_scan"}, "lon": -77.0476955, "bike_id": "71632862f0a8165c54a6756ec4d3b870", "type": "electric_scooter", "name": "71632862f0a8165c54a6756ec4d3b870"}, {"is_disabled": 0, "is_reserved": 0, "fusion_lat": 0.0, "lat": 38.90460566666667, "fusion_lon": 0.0, "rental_uris": {"ios": "https://dc.lft.to/lastmile_qr_scan", "android": "https://dc.lft.to/lastmile_qr_scan"}, "lon": -76.932659, "bike_id": "2387d996ad1f1233cb3fb8c2a62b2b84", "type": "electric_scooter", "name": "2387d996ad1f1233cb3fb8c2a62b2b84"}, {"is_disabled": 0, "is_reserved": 0, "fusion_lat": 0.0, "lat": 38.96583566666666, "fusion_lon": 0.0, "rental_uris": {"ios": "https://dc.lft.to/lastmile_qr_scan", "android": "https://dc.lft.to/lastmile_qr_scan"}, "lon": -77.02758016666667, "bike_id": "fa2381651add8ef0fe29d21e4a8371c4", "type": "electric_scooter", "name": "fa2381651add8ef0fe29d21e4a8371c4"}, {"is_disabled": 0, "is_reserved": 0, "fusion_lat": 0.0, "lat": 38.932930166666665, "fusion_lon": 0.0, "rental_uris": {"ios": "https://dc.lft.to/lastmile_qr_scan", "android": "https://dc.lft.to/lastmile_qr_scan"}, "lon": -77.023178, "bike_id": "3bb685a554331209e37e6c3db2147428", "type": "electric_scooter", "name": "3bb685a554331209e37e6c3db2147428"}, {"is_disabled": 0, "is_reserved": 0, "fusion_lat": 0.0, "lat": 38.887560666666666, "fusion_lon": 0.0, "rental_uris": {"ios": "https://dc.lft.to/lastmile_qr_scan", "android": "https://dc.lft.to/lastmile_qr_scan"}, "lon": -77.03215533333334, "bike_id": "bee9bda809a9dece74df1e16be7f3512", "type": "electric_scooter", "name": "bee9bda809a9dece74df1e16be7f3512"}, {"is_disabled": 0, "is_reserved": 0, "fusion_lat": 0.0, "lat": 38.89196366666667, "fusion_lon": 0.0, "rental_uris": {"ios": "https://dc.lft.to/lastmile_qr_scan", "android": "https://dc.lft.to/lastmile_qr_scan"}, "lon": -77.04383483333334, "bike_id": "8fd1932749f0da3d347e483bc596fa23", "type": "electric_scooter", "name": "8fd1932749f0da3d347e483bc596fa23"}, {"is_disabled": 0, "is_reserved": 0, "fusion_lat": 0.0, "lat": 38.82207016666667, "fusion_lon": 0.0, "rental_uris": {"ios": "https://dc.lft.to/lastmile_qr_scan", "android": "https://dc.lft.to/lastmile_qr_scan"}, "lon": -76.97708583333333, "bike_id": "dc2dc7343286f38746a0dfaa4f71876f", "type": "electric_bike", "name": "dc2dc7343286f38746a0dfaa4f71876f"}, {"is_disabled": 0, "is_reserved": 0, "fusion_lat": 0.0, "lat": 38.915678166666666, "fusion_lon": 0.0, "rental_uris": {"ios": "https://dc.lft.to/lastmile_qr_scan", "android": "https://dc.lft.to/lastmile_qr_scan"}, "lon": -77.00084316666667, "bike_id": "db98e74be04f29113551b75e550a7673", "type": "electric_scooter", "name": "db98e74be04f29113551b75e550a7673"}, {"is_disabled": 0, "is_reserved": 0, "fusion_lat": 0.0, "lat": 38.907297, "fusion_lon": 0.0, "rental_uris": {"ios": "https://dc.lft.to/lastmile_qr_scan", "android": "https://dc.lft.to/lastmile_qr_scan"}, "lon": -77.03509183333334, "bike_id": "e267984ca665de3dfa7afce844661602", "type": "electric_scooter", "name": "e267984ca665de3dfa7afce844661602"}, {"is_disabled": 0, "is_reserved": 0, "fusion_lat": 0.0, "lat": 38.967762666666665, "fusion_lon": 0.0, "rental_uris": {"ios": "https://dc.lft.to/lastmile_qr_scan", "android": "https://dc.lft.to/lastmile_qr_scan"}, "lon": -76.9965095, "bike_id": "046d6c545e6db8a1308e14baa42b469d", "type": "electric_bike", "name": "046d6c545e6db8a1308e14baa42b469d"}, {"is_disabled": 0, "is_reserved": 0, "fusion_lat": 0.0, "lat": 38.93220266666667, "fusion_lon": 0.0, "rental_uris": {"ios": "https://dc.lft.to/lastmile_qr_scan", "android": "https://dc.lft.to/lastmile_qr_scan"}, "lon": -77.0337095, "bike_id": "58ee8fe66b9d75a62694d81b3c9b77c6", "type": "electric_scooter", "name": "58ee8fe66b9d75a62694d81b3c9b77c6"}, {"is_disabled": 0, "is_reserved": 0, "fusion_lat": 0.0, "lat": 38.911243666666664, "fusion_lon": 0.0, "rental_uris": {"ios": "https://dc.lft.to/lastmile_qr_scan", "android": "https://dc.lft.to/lastmile_qr_scan"}, "lon": -76.99746366666666, "bike_id": "c9255cc132430493e4f3faa6f27edf7a", "type": "electric_scooter", "name": "c9255cc132430493e4f3faa6f27edf7a"}, {"is_disabled": 0, "is_reserved": 0, "fusion_lat": 0.0, "lat": 38.907008, "fusion_lon": 0.0, "rental_uris": {"ios": "https://dc.lft.to/lastmile_qr_scan", "android": "https://dc.lft.to/lastmile_qr_scan"}, "lon": -76.98693166666666, "bike_id": "20f108b39a32cd060e77e590a54052cc", "type": "electric_scooter", "name": "20f108b39a32cd060e77e590a54052cc"}, {"is_disabled": 0, "is_reserved": 0, "fusion_lat": 0.0, "lat": 38.911931333333335, "fusion_lon": 0.0, "rental_uris": {"ios": "https://dc.lft.to/lastmile_qr_scan", "android": "https://dc.lft.to/lastmile_qr_scan"}, "lon": -77.03189916666666, "bike_id": "cdc075c735ac21e8ffa7521584c3d7aa", "type": "electric_scooter", "name": "cdc075c735ac21e8ffa7521584c3d7aa"}, {"is_disabled": 0, "is_reserved": 0, "fusion_lat": 0.0, "lat": 38.91485433333333, "fusion_lon": 0.0, "rental_uris": {"ios": "https://dc.lft.to/lastmile_qr_scan", "android": "https://dc.lft.to/lastmile_qr_scan"}, "lon": -77.04532266666666, "bike_id": "edb46c7dba852611742e65e7046222d8", "type": "electric_scooter", "name": "edb46c7dba852611742e65e7046222d8"}, {"is_disabled": 0, "is_reserved": 0, "fusion_lat": 0.0, "lat": 38.87164, "fusion_lon": 0.0, "rental_uris": {"ios": "https://dc.lft.to/lastmile_qr_scan", "android": "https://dc.lft.to/lastmile_qr_scan"}, "lon": -77.011649, "bike_id": "5badf3a46771c5b6db4ca9995e661c02", "type": "electric_scooter", "name": "5badf3a46771c5b6db4ca9995e661c02"}, {"is_disabled": 0, "is_reserved": 0, "fusion_lat": 0.0, "lat": 38.92351416666666, "fusion_lon": 0.0, "rental_uris": {"ios": "https://dc.lft.to/lastmile_qr_scan", "android": "https://dc.lft.to/lastmile_qr_scan"}, "lon": -77.00199733333334, "bike_id": "72a9e604210990a45b86f0bcff4fbf74", "type": "electric_scooter", "name": "72a9e604210990a45b86f0bcff4fbf74"}, {"is_disabled": 0, "is_reserved": 0, "fusion_lat": 0.0, "lat": 38.892330666666666, "fusion_lon": 0.0, "rental_uris": {"ios": "https://dc.lft.to/lastmile_qr_scan", "android": "https://dc.lft.to/lastmile_qr_scan"}, "lon": -77.02608633333334, "bike_id": "f00222ca5f7b1f0d679d5241f75228fd", "type": "electric_scooter", "name": "f00222ca5f7b1f0d679d5241f75228fd"}, {"is_disabled": 0, "is_reserved": 0, "fusion_lat": 0.0, "lat": 38.907602, "fusion_lon": 0.0, "rental_uris": {"ios": "https://dc.lft.to/lastmile_qr_scan", "android": "https://dc.lft.to/lastmile_qr_scan"}, "lon": -77.045345, "bike_id": "bb0b2b2b0bf62ca7c7aab0466b6a614d", "type": "electric_scooter", "name": "bb0b2b2b0bf62ca7c7aab0466b6a614d"}, {"is_disabled": 0, "is_reserved": 0, "fusion_lat": 0.0, "lat": 38.80733716666667, "fusion_lon": 0.0, "rental_uris": {"ios": "https://dc.lft.to/lastmile_qr_scan", "android": "https://dc.lft.to/lastmile_qr_scan"}, "lon": -76.99267233333333, "bike_id": "87a49820f6b07f92a4cdc78f78bd5e29", "type": "electric_bike", "name": "87a49820f6b07f92a4cdc78f78bd5e29"}, {"is_disabled": 0, "is_reserved": 0, "fusion_lat": 0.0, "lat": 38.91991433333333, "fusion_lon": 0.0, "rental_uris": {"ios": "https://dc.lft.to/lastmile_qr_scan", "android": "https://dc.lft.to/lastmile_qr_scan"}, "lon": -77.03246316666667, "bike_id": "725f27d8c8988b21d11b02ee40108b9e", "type": "electric_scooter", "name": "725f27d8c8988b21d11b02ee40108b9e"}, {"is_disabled": 0, "is_reserved": 0, "fusion_lat": 0.0, "lat": 38.962245833333334, "fusion_lon": 0.0, "rental_uris": {"ios": "https://dc.lft.to/lastmile_qr_scan", "android": "https://dc.lft.to/lastmile_qr_scan"}, "lon": -77.026221, "bike_id": "34373fb7fd78a1ac4591e7bfb8256d66", "type": "electric_bike", "name": "34373fb7fd78a1ac4591e7bfb8256d66"}, {"is_disabled": 0, "is_reserved": 0, "fusion_lat": 0.0, "lat": 38.923997, "fusion_lon": 0.0, "rental_uris": {"ios": "https://dc.lft.to/lastmile_qr_scan", "android": "https://dc.lft.to/lastmile_qr_scan"}, "lon": -77.035422, "bike_id": "9c965175e415c0262bfb3a340bfbd62a", "type": "electric_scooter", "name": "9c965175e415c0262bfb3a340bfbd62a"}, {"is_disabled": 0, "is_reserved": 0, "fusion_lat": 0.0, "lat": 38.924398, "fusion_lon": 0.0, "rental_uris": {"ios": "https://dc.lft.to/lastmile_qr_scan", "android": "https://dc.lft.to/lastmile_qr_scan"}, "lon": -77.0202835, "bike_id": "ce07e5cb2ab2d7f04407cdc906a22204", "type": "electric_scooter", "name": "ce07e5cb2ab2d7f04407cdc906a22204"}, {"is_disabled": 0, "is_reserved": 0, "fusion_lat": 0.0, "lat": 38.9570065, "fusion_lon": 0.0, "rental_uris": {"ios": "https://dc.lft.to/lastmile_qr_scan", "android": "https://dc.lft.to/lastmile_qr_scan"}, "lon": -77.35972583333333, "bike_id": "33646811a058e275f77698ec8d8da961", "type": "electric_bike", "name": "33646811a058e275f77698ec8d8da961"}, {"is_disabled": 0, "is_reserved": 0, "fusion_lat": 0.0, "lat": 38.92178833333333, "fusion_lon": 0.0, "rental_uris": {"ios": "https://dc.lft.to/lastmile_qr_scan", "android": "https://dc.lft.to/lastmile_qr_scan"}, "lon": -77.021071, "bike_id": "a727e608e5e2aa08130f7666a7ab9678", "type": "electric_scooter", "name": "a727e608e5e2aa08130f7666a7ab9678"}, {"is_disabled": 0, "is_reserved": 0, "fusion_lat": 0.0, "lat": 38.9082225, "fusion_lon": 0.0, "rental_uris": {"ios": "https://dc.lft.to/lastmile_qr_scan", "android": "https://dc.lft.to/lastmile_qr_scan"}, "lon": -77.00085183333333, "bike_id": "b0ef63ee8ccbee864452560fe7e72a89", "type": "electric_scooter", "name": "b0ef63ee8ccbee864452560fe7e72a89"}, {"is_disabled": 0, "is_reserved": 0, "fusion_lat": 0.0, "lat": 39.084269, "fusion_lon": 0.0, "rental_uris": {"ios": "https://dc.lft.to/lastmile_qr_scan", "android": "https://dc.lft.to/lastmile_qr_scan"}, "lon": -76.9514555, "bike_id": "fee11a362f88571424af386072349cc5", "type": "electric_bike", "name": "fee11a362f88571424af386072349cc5"}, {"is_disabled": 0, "is_reserved": 0, "fusion_lat": 0.0, "lat": 38.858992666666666, "fusion_lon": 0.0, "rental_uris": {"ios": "https://dc.lft.to/lastmile_qr_scan", "android": "https://dc.lft.to/lastmile_qr_scan"}, "lon": -77.09555266666666, "bike_id": "323fa51aab9a77a80e9d5f24228df088", "type": "electric_bike", "name": "323fa51aab9a77a80e9d5f24228df088"}, {"is_disabled": 0, "is_reserved": 0, "fusion_lat": 0.0, "lat": 38.8838245, "fusion_lon": 0.0, "rental_uris": {"ios": "https://dc.lft.to/lastmile_qr_scan", "android": "https://dc.lft.to/lastmile_qr_scan"}, "lon": -76.93042066666666, "bike_id": "880df9dee277d0b5b6e1e1630186f888", "type": "electric_scooter", "name": "880df9dee277d0b5b6e1e1630186f888"}, {"is_disabled": 0, "is_reserved": 0, "fusion_lat": 0.0, "lat": 38.92867433333333, "fusion_lon": 0.0, "rental_uris": {"ios": "https://dc.lft.to/lastmile_qr_scan", "android": "https://dc.lft.to/lastmile_qr_scan"}, "lon": -77.03834716666667, "bike_id": "fd6bf484a40b4776e9ecf86a75802ddb", "type": "electric_scooter", "name": "fd6bf484a40b4776e9ecf86a75802ddb"}, {"is_disabled": 0, "is_reserved": 0, "fusion_lat": 0.0, "lat": 38.892519, "fusion_lon": 0.0, "rental_uris": {"ios": "https://dc.lft.to/lastmile_qr_scan", "android": "https://dc.lft.to/lastmile_qr_scan"}, "lon": -77.05024616666667, "bike_id": "df780663e60da09de9e941fc5e3086ac", "type": "electric_scooter", "name": "df780663e60da09de9e941fc5e3086ac"}, {"is_disabled": 0, "is_reserved": 0, "fusion_lat": 0.0, "lat": 38.934627666666664, "fusion_lon": 0.0, "rental_uris": {"ios": "https://dc.lft.to/lastmile_qr_scan", "android": "https://dc.lft.to/lastmile_qr_scan"}, "lon": -77.027793, "bike_id": "61b2ea2532562592c59d3879e306c294", "type": "electric_scooter", "name": "61b2ea2532562592c59d3879e306c294"}, {"is_disabled": 0, "is_reserved": 0, "fusion_lat": 0.0, "lat": 38.88376266666667, "fusion_lon": 0.0, "rental_uris": {"ios": "https://dc.lft.to/lastmile_qr_scan", "android": "https://dc.lft.to/lastmile_qr_scan"}, "lon": -76.92371733333333, "bike_id": "6185f97d8bef8494fe037154718a10d4", "type": "electric_bike", "name": "6185f97d8bef8494fe037154718a10d4"}, {"is_disabled": 0, "is_reserved": 0, "fusion_lat": 0.0, "lat": 38.91932116666667, "fusion_lon": 0.0, "rental_uris": {"ios": "https://dc.lft.to/lastmile_qr_scan", "android": "https://dc.lft.to/lastmile_qr_scan"}, "lon": -77.04151566666667, "bike_id": "993ea008890e0125347ebce195da5da5", "type": "electric_scooter", "name": "993ea008890e0125347ebce195da5da5"}, {"is_disabled": 0, "is_reserved": 0, "fusion_lat": 0.0, "lat": 38.926506, "fusion_lon": 0.0, "rental_uris": {"ios": "https://dc.lft.to/lastmile_qr_scan", "android": "https://dc.lft.to/lastmile_qr_scan"}, "lon": -77.090215, "bike_id": "19f4c1869a8a7d101462f93bebb197ac", "type": "electric_bike", "name": "19f4c1869a8a7d101462f93bebb197ac"}, {"is_disabled": 0, "is_reserved": 0, "fusion_lat": 0.0, "lat": 38.939317833333334, "fusion_lon": 0.0, "rental_uris": {"ios": "https://dc.lft.to/lastmile_qr_scan", "android": "https://dc.lft.to/lastmile_qr_scan"}, "lon": -77.02591333333334, "bike_id": "98f17066ffa5d76ec3e2a1e79a00f333", "type": "electric_scooter", "name": "98f17066ffa5d76ec3e2a1e79a00f333"}, {"is_disabled": 0, "is_reserved": 0, "fusion_lat": 0.0, "lat": 38.903153833333334, "fusion_lon": 0.0, "rental_uris": {"ios": "https://dc.lft.to/lastmile_qr_scan", "android": "https://dc.lft.to/lastmile_qr_scan"}, "lon": -76.9754065, "bike_id": "b1bf5e58d91f2d13f02cc492fb4aea84", "type": "electric_scooter", "name": "b1bf5e58d91f2d13f02cc492fb4aea84"}, {"is_disabled": 0, "is_reserved": 0, "fusion_lat": 0.0, "lat": 38.89562516666667, "fusion_lon": 0.0, "rental_uris": {"ios": "https://dc.lft.to/lastmile_qr_scan", "android": "https://dc.lft.to/lastmile_qr_scan"}, "lon": -77.12734283333333, "bike_id": "bdff5751d2827cfda26eeab50c0d1686", "type": "electric_bike", "name": "bdff5751d2827cfda26eeab50c0d1686"}, {"is_disabled": 0, "is_reserved": 0, "fusion_lat": 0.0, "lat": 38.90569433333334, "fusion_lon": 0.0, "rental_uris": {"ios": "https://dc.lft.to/lastmile_qr_scan", "android": "https://dc.lft.to/lastmile_qr_scan"}, "lon": -77.005512, "bike_id": "d9ef5cf9ef11079b05db4df992f837e2", "type": "electric_scooter", "name": "d9ef5cf9ef11079b05db4df992f837e2"}, {"is_disabled": 0, "is_reserved": 0, "fusion_lat": 0.0, "lat": 38.9196395, "fusion_lon": 0.0, "rental_uris": {"ios": "https://dc.lft.to/lastmile_qr_scan", "android": "https://dc.lft.to/lastmile_qr_scan"}, "lon": -77.023716, "bike_id": "45a62b81cf666dbddd0894f258739346", "type": "electric_scooter", "name": "45a62b81cf666dbddd0894f258739346"}, {"is_disabled": 0, "is_reserved": 0, "fusion_lat": 0.0, "lat": 38.901504, "fusion_lon": 0.0, "rental_uris": {"ios": "https://dc.lft.to/lastmile_qr_scan", "android": "https://dc.lft.to/lastmile_qr_scan"}, "lon": -77.032202, "bike_id": "f607497c704563e77394789ae5ce30ed", "type": "electric_scooter", "name": "f607497c704563e77394789ae5ce30ed"}, {"is_disabled": 0, "is_reserved": 0, "fusion_lat": 0.0, "lat": 38.920658833333334, "fusion_lon": 0.0, "rental_uris": {"ios": "https://dc.lft.to/lastmile_qr_scan", "android": "https://dc.lft.to/lastmile_qr_scan"}, "lon": -77.04379433333334, "bike_id": "e1979ffe0508e93bdd8c2f7bde8c3d93", "type": "electric_scooter", "name": "e1979ffe0508e93bdd8c2f7bde8c3d93"}, {"is_disabled": 0, "is_reserved": 0, "fusion_lat": 0.0, "lat": 38.89708066666667, "fusion_lon": 0.0, "rental_uris": {"ios": "https://dc.lft.to/lastmile_qr_scan", "android": "https://dc.lft.to/lastmile_qr_scan"}, "lon": -76.93912216666666, "bike_id": "da1a3f50d25a42dbe271560082fd253b", "type": "electric_scooter", "name": "da1a3f50d25a42dbe271560082fd253b"}, {"is_disabled": 0, "is_reserved": 0, "fusion_lat": 0.0, "lat": 38.92626, "fusion_lon": 0.0, "rental_uris": {"ios": "https://dc.lft.to/lastmile_qr_scan", "android": "https://dc.lft.to/lastmile_qr_scan"}, "lon": -77.033222, "bike_id": "8f15ed778746806998cb88d8cad52047", "type": "electric_scooter", "name": "8f15ed778746806998cb88d8cad52047"}, {"is_disabled": 0, "is_reserved": 0, "fusion_lat": 0.0, "lat": 38.904660166666666, "fusion_lon": 0.0, "rental_uris": {"ios": "https://dc.lft.to/lastmile_qr_scan", "android": "https://dc.lft.to/lastmile_qr_scan"}, "lon": -77.05916066666667, "bike_id": "f3d0cba7cc725573cfa9db714361fe67", "type": "electric_scooter", "name": "f3d0cba7cc725573cfa9db714361fe67"}, {"is_disabled": 0, "is_reserved": 0, "fusion_lat": 0.0, "lat": 38.8902175, "fusion_lon": 0.0, "rental_uris": {"ios": "https://dc.lft.to/lastmile_qr_scan", "android": "https://dc.lft.to/lastmile_qr_scan"}, "lon": -76.93731, "bike_id": "c493a4bf7ef4a9da18f0547e775bd5d6", "type": "electric_scooter", "name": "c493a4bf7ef4a9da18f0547e775bd5d6"}, {"is_disabled": 0, "is_reserved": 0, "fusion_lat": 0.0, "lat": 38.911485166666665, "fusion_lon": 0.0, "rental_uris": {"ios": "https://dc.lft.to/lastmile_qr_scan", "android": "https://dc.lft.to/lastmile_qr_scan"}, "lon": -77.01103333333333, "bike_id": "23d3b171a48a6cfb78f2f821449f3ec1", "type": "electric_scooter", "name": "23d3b171a48a6cfb78f2f821449f3ec1"}, {"is_disabled": 0, "is_reserved": 0, "fusion_lat": 0.0, "lat": 38.97152916666667, "fusion_lon": 0.0, "rental_uris": {"ios": "https://dc.lft.to/lastmile_qr_scan", "android": "https://dc.lft.to/lastmile_qr_scan"}, "lon": -76.9836315, "bike_id": "f8a4dbb229ae0e6971f0d403ddaae3b4", "type": "electric_bike", "name": "f8a4dbb229ae0e6971f0d403ddaae3b4"}, {"is_disabled": 0, "is_reserved": 0, "fusion_lat": 0.0, "lat": 38.892322, "fusion_lon": 0.0, "rental_uris": {"ios": "https://dc.lft.to/lastmile_qr_scan", "android": "https://dc.lft.to/lastmile_qr_scan"}, "lon": -77.04360383333334, "bike_id": "7119ea9b1f5576f7810055b96a721970", "type": "electric_scooter", "name": "7119ea9b1f5576f7810055b96a721970"}, {"is_disabled": 0, "is_reserved": 0, "fusion_lat": 0.0, "lat": 38.88411716666667, "fusion_lon": 0.0, "rental_uris": {"ios": "https://dc.lft.to/lastmile_qr_scan", "android": "https://dc.lft.to/lastmile_qr_scan"}, "lon": -76.98360716666667, "bike_id": "8fc0276eb5af6aea3c280548ef911335", "type": "electric_scooter", "name": "8fc0276eb5af6aea3c280548ef911335"}, {"is_disabled": 0, "is_reserved": 0, "fusion_lat": 0.0, "lat": 38.89032666666667, "fusion_lon": 0.0, "rental_uris": {"ios": "https://dc.lft.to/lastmile_qr_scan", "android": "https://dc.lft.to/lastmile_qr_scan"}, "lon": -76.93758533333333, "bike_id": "519992b538e6f1a8ea6f635de8e6c1dd", "type": "electric_scooter", "name": "519992b538e6f1a8ea6f635de8e6c1dd"}, {"is_disabled": 0, "is_reserved": 0, "fusion_lat": 0.0, "lat": 38.924357, "fusion_lon": 0.0, "rental_uris": {"ios": "https://dc.lft.to/lastmile_qr_scan", "android": "https://dc.lft.to/lastmile_qr_scan"}, "lon": -77.02022866666667, "bike_id": "2a9cc7f3e8e1d8f3391af20610ce6579", "type": "electric_scooter", "name": "2a9cc7f3e8e1d8f3391af20610ce6579"}, {"is_disabled": 0, "is_reserved": 0, "fusion_lat": 0.0, "lat": 38.922507, "fusion_lon": 0.0, "rental_uris": {"ios": "https://dc.lft.to/lastmile_qr_scan", "android": "https://dc.lft.to/lastmile_qr_scan"}, "lon": -77.03653733333333, "bike_id": "5d0b0dfda6631be73eb1f8654fc09ee5", "type": "electric_scooter", "name": "5d0b0dfda6631be73eb1f8654fc09ee5"}, {"is_disabled": 0, "is_reserved": 0, "fusion_lat": 0.0, "lat": 38.896384833333336, "fusion_lon": 0.0, "rental_uris": {"ios": "https://dc.lft.to/lastmile_qr_scan", "android": "https://dc.lft.to/lastmile_qr_scan"}, "lon": -77.00748933333334, "bike_id": "a74dfacc2c5b532e8757bc4dbb854d63", "type": "electric_scooter", "name": "a74dfacc2c5b532e8757bc4dbb854d63"}, {"is_disabled": 0, "is_reserved": 0, "fusion_lat": 0.0, "lat": 38.90079633333333, "fusion_lon": 0.0, "rental_uris": {"ios": "https://dc.lft.to/lastmile_qr_scan", "android": "https://dc.lft.to/lastmile_qr_scan"}, "lon": -77.0383745, "bike_id": "573e0c88e63f237f28650d6bfc19efac", "type": "electric_scooter", "name": "573e0c88e63f237f28650d6bfc19efac"}, {"is_disabled": 0, "is_reserved": 0, "fusion_lat": 0.0, "lat": 38.8563995, "fusion_lon": 0.0, "rental_uris": {"ios": "https://dc.lft.to/lastmile_qr_scan", "android": "https://dc.lft.to/lastmile_qr_scan"}, "lon": -77.0683415, "bike_id": "c95c0a92fc52570b002a06e082dca060", "type": "electric_bike", "name": "c95c0a92fc52570b002a06e082dca060"}, {"is_disabled": 0, "is_reserved": 0, "fusion_lat": 0.0, "lat": 38.921718, "fusion_lon": 0.0, "rental_uris": {"ios": "https://dc.lft.to/lastmile_qr_scan", "android": "https://dc.lft.to/lastmile_qr_scan"}, "lon": -77.04233066666667, "bike_id": "aabc38298d6ceec3c8e468b5e831c472", "type": "electric_scooter", "name": "aabc38298d6ceec3c8e468b5e831c472"}, {"is_disabled": 0, "is_reserved": 0, "fusion_lat": 0.0, "lat": 38.86569766666667, "fusion_lon": 0.0, "rental_uris": {"ios": "https://dc.lft.to/lastmile_qr_scan", "android": "https://dc.lft.to/lastmile_qr_scan"}, "lon": -76.97473433333333, "bike_id": "bdf1f2fd73b1dccdbb252d2f5509b4f9", "type": "electric_bike", "name": "bdf1f2fd73b1dccdbb252d2f5509b4f9"}, {"is_disabled": 0, "is_reserved": 0, "fusion_lat": 0.0, "lat": 38.824193, "fusion_lon": 0.0, "rental_uris": {"ios": "https://dc.lft.to/lastmile_qr_scan", "android": "https://dc.lft.to/lastmile_qr_scan"}, "lon": -77.1203815, "bike_id": "3688558f696ab180c2dfb46fddb7a809", "type": "electric_bike", "name": "3688558f696ab180c2dfb46fddb7a809"}, {"is_disabled": 0, "is_reserved": 0, "fusion_lat": 0.0, "lat": 38.89728783333333, "fusion_lon": 0.0, "rental_uris": {"ios": "https://dc.lft.to/lastmile_qr_scan", "android": "https://dc.lft.to/lastmile_qr_scan"}, "lon": -77.02713433333334, "bike_id": "ee22888b2d9a6aec1eb20291fbc4135e", "type": "electric_scooter", "name": "ee22888b2d9a6aec1eb20291fbc4135e"}, {"is_disabled": 0, "is_reserved": 0, "fusion_lat": 0.0, "lat": 38.88217983333333, "fusion_lon": 0.0, "rental_uris": {"ios": "https://dc.lft.to/lastmile_qr_scan", "android": "https://dc.lft.to/lastmile_qr_scan"}, "lon": -76.9973775, "bike_id": "cd5b29d57f8d2546e32fb4e05ff29c4a", "type": "electric_scooter", "name": "cd5b29d57f8d2546e32fb4e05ff29c4a"}, {"is_disabled": 0, "is_reserved": 0, "fusion_lat": 0.0, "lat": 38.938502166666666, "fusion_lon": 0.0, "rental_uris": {"ios": "https://dc.lft.to/lastmile_qr_scan", "android": "https://dc.lft.to/lastmile_qr_scan"}, "lon": -77.02472416666667, "bike_id": "07bf1059d070ddab28e93126a5cb62cf", "type": "electric_scooter", "name": "07bf1059d070ddab28e93126a5cb62cf"}, {"is_disabled": 0, "is_reserved": 0, "fusion_lat": 0.0, "lat": 38.905206666666665, "fusion_lon": 0.0, "rental_uris": {"ios": "https://dc.lft.to/lastmile_qr_scan", "android": "https://dc.lft.to/lastmile_qr_scan"}, "lon": -77.06201866666666, "bike_id": "57b14dfa01a042773415183c6f293598", "type": "electric_scooter", "name": "57b14dfa01a042773415183c6f293598"}, {"is_disabled": 0, "is_reserved": 0, "fusion_lat": 0.0, "lat": 38.9474965, "fusion_lon": 0.0, "rental_uris": {"ios": "https://dc.lft.to/lastmile_qr_scan", "android": "https://dc.lft.to/lastmile_qr_scan"}, "lon": -77.02356016666667, "bike_id": "3e3bfbd05ad0ddfa96e56c91c53330cb", "type": "electric_scooter", "name": "3e3bfbd05ad0ddfa96e56c91c53330cb"}, {"is_disabled": 0, "is_reserved": 0, "fusion_lat": 0.0, "lat": 38.91820466666667, "fusion_lon": 0.0, "rental_uris": {"ios": "https://dc.lft.to/lastmile_qr_scan", "android": "https://dc.lft.to/lastmile_qr_scan"}, "lon": -77.0252795, "bike_id": "e937e638459c8f0f4fa2eee3e54c672c", "type": "electric_scooter", "name": "e937e638459c8f0f4fa2eee3e54c672c"}, {"is_disabled": 0, "is_reserved": 0, "fusion_lat": 0.0, "lat": 38.855916666666666, "fusion_lon": 0.0, "rental_uris": {"ios": "https://dc.lft.to/lastmile_qr_scan", "android": "https://dc.lft.to/lastmile_qr_scan"}, "lon": -76.97276966666666, "bike_id": "575f7afeda098c66bd97ed0fb5865556", "type": "electric_bike", "name": "575f7afeda098c66bd97ed0fb5865556"}, {"is_disabled": 0, "is_reserved": 0, "fusion_lat": 0.0, "lat": 38.92994083333333, "fusion_lon": 0.0, "rental_uris": {"ios": "https://dc.lft.to/lastmile_qr_scan", "android": "https://dc.lft.to/lastmile_qr_scan"}, "lon": -77.02332716666666, "bike_id": "0698053b526a46477c5fc6a9e323c2fc", "type": "electric_scooter", "name": "0698053b526a46477c5fc6a9e323c2fc"}, {"is_disabled": 0, "is_reserved": 0, "fusion_lat": 0.0, "lat": 38.9160005, "fusion_lon": 0.0, "rental_uris": {"ios": "https://dc.lft.to/lastmile_qr_scan", "android": "https://dc.lft.to/lastmile_qr_scan"}, "lon": -77.02293633333333, "bike_id": "7fdcfd72ef1e3a32cdda739570392caa", "type": "electric_scooter", "name": "7fdcfd72ef1e3a32cdda739570392caa"}, {"is_disabled": 0, "is_reserved": 0, "fusion_lat": 0.0, "lat": 38.892458, "fusion_lon": 0.0, "rental_uris": {"ios": "https://dc.lft.to/lastmile_qr_scan", "android": "https://dc.lft.to/lastmile_qr_scan"}, "lon": -77.04654583333334, "bike_id": "209a33b35450c3499b572dc585d2fa08", "type": "electric_scooter", "name": "209a33b35450c3499b572dc585d2fa08"}, {"is_disabled": 0, "is_reserved": 0, "fusion_lat": 0.0, "lat": 39.074379, "fusion_lon": 0.0, "rental_uris": {"ios": "https://dc.lft.to/lastmile_qr_scan", "android": "https://dc.lft.to/lastmile_qr_scan"}, "lon": -77.115414, "bike_id": "303750db166ec778544d2f63010191dc", "type": "electric_bike", "name": "303750db166ec778544d2f63010191dc"}, {"is_disabled": 0, "is_reserved": 0, "fusion_lat": 0.0, "lat": 38.80405716666667, "fusion_lon": 0.0, "rental_uris": {"ios": "https://dc.lft.to/lastmile_qr_scan", "android": "https://dc.lft.to/lastmile_qr_scan"}, "lon": -77.11332166666666, "bike_id": "8e70d7dc7d0cd928a66704baf0828e24", "type": "electric_bike", "name": "8e70d7dc7d0cd928a66704baf0828e24"}, {"is_disabled": 0, "is_reserved": 0, "fusion_lat": 0.0, "lat": 38.92605433333333, "fusion_lon": 0.0, "rental_uris": {"ios": "https://dc.lft.to/lastmile_qr_scan", "android": "https://dc.lft.to/lastmile_qr_scan"}, "lon": -77.02432783333333, "bike_id": "d10b73121777499f64337c05628d10aa", "type": "electric_bike", "name": "d10b73121777499f64337c05628d10aa"}, {"is_disabled": 0, "is_reserved": 0, "fusion_lat": 0.0, "lat": 38.918304666666664, "fusion_lon": 0.0, "rental_uris": {"ios": "https://dc.lft.to/lastmile_qr_scan", "android": "https://dc.lft.to/lastmile_qr_scan"}, "lon": -77.053147, "bike_id": "ef7c1ce6a07d93e00135f906b5ad67da", "type": "electric_scooter", "name": "ef7c1ce6a07d93e00135f906b5ad67da"}, {"is_disabled": 0, "is_reserved": 0, "fusion_lat": 0.0, "lat": 38.91922066666667, "fusion_lon": 0.0, "rental_uris": {"ios": "https://dc.lft.to/lastmile_qr_scan", "android": "https://dc.lft.to/lastmile_qr_scan"}, "lon": -77.0322095, "bike_id": "c5c5551941abdd43c72db98d253c4491", "type": "electric_scooter", "name": "c5c5551941abdd43c72db98d253c4491"}, {"is_disabled": 0, "is_reserved": 0, "fusion_lat": 0.0, "lat": 38.95669983333333, "fusion_lon": 0.0, "rental_uris": {"ios": "https://dc.lft.to/lastmile_qr_scan", "android": "https://dc.lft.to/lastmile_qr_scan"}, "lon": -77.03632216666666, "bike_id": "e1eb0cec397d1d52b6652b3cb8c651cc", "type": "electric_scooter", "name": "e1eb0cec397d1d52b6652b3cb8c651cc"}, {"is_disabled": 0, "is_reserved": 0, "fusion_lat": 0.0, "lat": 38.892380833333334, "fusion_lon": 0.0, "rental_uris": {"ios": "https://dc.lft.to/lastmile_qr_scan", "android": "https://dc.lft.to/lastmile_qr_scan"}, "lon": -77.03180566666667, "bike_id": "62a58fc97982dc2ee78b904fac05669f", "type": "electric_scooter", "name": "62a58fc97982dc2ee78b904fac05669f"}, {"is_disabled": 0, "is_reserved": 0, "fusion_lat": 0.0, "lat": 38.91415466666667, "fusion_lon": 0.0, "rental_uris": {"ios": "https://dc.lft.to/lastmile_qr_scan", "android": "https://dc.lft.to/lastmile_qr_scan"}, "lon": -77.02211783333334, "bike_id": "bcab1a88f71924793dc0a8cc1e6f94ba", "type": "electric_scooter", "name": "bcab1a88f71924793dc0a8cc1e6f94ba"}, {"is_disabled": 0, "is_reserved": 0, "fusion_lat": 0.0, "lat": 38.9052905, "fusion_lon": 0.0, "rental_uris": {"ios": "https://dc.lft.to/lastmile_qr_scan", "android": "https://dc.lft.to/lastmile_qr_scan"}, "lon": -77.05146133333334, "bike_id": "9a7ffc6fb14f17ed79c84a21bc4cb1e2", "type": "electric_scooter", "name": "9a7ffc6fb14f17ed79c84a21bc4cb1e2"}, {"is_disabled": 0, "is_reserved": 0, "fusion_lat": 0.0, "lat": 38.850787833333335, "fusion_lon": 0.0, "rental_uris": {"ios": "https://dc.lft.to/lastmile_qr_scan", "android": "https://dc.lft.to/lastmile_qr_scan"}, "lon": -76.98126883333333, "bike_id": "61b65c09ebd368ec14d4b634262bd01a", "type": "electric_bike", "name": "61b65c09ebd368ec14d4b634262bd01a"}, {"is_disabled": 0, "is_reserved": 0, "fusion_lat": 0.0, "lat": 38.92130783333333, "fusion_lon": 0.0, "rental_uris": {"ios": "https://dc.lft.to/lastmile_qr_scan", "android": "https://dc.lft.to/lastmile_qr_scan"}, "lon": -77.03660283333333, "bike_id": "27afa4701905731dab331849fc28abe2", "type": "electric_scooter", "name": "27afa4701905731dab331849fc28abe2"}, {"is_disabled": 0, "is_reserved": 0, "fusion_lat": 0.0, "lat": 38.87777333333333, "fusion_lon": 0.0, "rental_uris": {"ios": "https://dc.lft.to/lastmile_qr_scan", "android": "https://dc.lft.to/lastmile_qr_scan"}, "lon": -77.00205466666667, "bike_id": "bbdf2dceb290af8d7827fd7e60128bba", "type": "electric_scooter", "name": "bbdf2dceb290af8d7827fd7e60128bba"}, {"is_disabled": 0, "is_reserved": 0, "fusion_lat": 0.0, "lat": 38.91426633333333, "fusion_lon": 0.0, "rental_uris": {"ios": "https://dc.lft.to/lastmile_qr_scan", "android": "https://dc.lft.to/lastmile_qr_scan"}, "lon": -77.031866, "bike_id": "4cebc9c6319380ca9379c2907b3713c5", "type": "electric_scooter", "name": "4cebc9c6319380ca9379c2907b3713c5"}, {"is_disabled": 0, "is_reserved": 0, "fusion_lat": 0.0, "lat": 38.91550216666667, "fusion_lon": 0.0, "rental_uris": {"ios": "https://dc.lft.to/lastmile_qr_scan", "android": "https://dc.lft.to/lastmile_qr_scan"}, "lon": -77.03168266666667, "bike_id": "1086dc75ea7345d6adf2124096c64d05", "type": "electric_scooter", "name": "1086dc75ea7345d6adf2124096c64d05"}, {"is_disabled": 0, "is_reserved": 0, "fusion_lat": 0.0, "lat": 38.899135333333334, "fusion_lon": 0.0, "rental_uris": {"ios": "https://dc.lft.to/lastmile_qr_scan", "android": "https://dc.lft.to/lastmile_qr_scan"}, "lon": -77.03219716666666, "bike_id": "73c54b6c2d3e7c146996d038638665b1", "type": "electric_scooter", "name": "73c54b6c2d3e7c146996d038638665b1"}, {"is_disabled": 0, "is_reserved": 0, "fusion_lat": 0.0, "lat": 38.9122045, "fusion_lon": 0.0, "rental_uris": {"ios": "https://dc.lft.to/lastmile_qr_scan", "android": "https://dc.lft.to/lastmile_qr_scan"}, "lon": -77.006599, "bike_id": "79b37be3aa21be5511d874b273ed17fc", "type": "electric_scooter", "name": "79b37be3aa21be5511d874b273ed17fc"}, {"is_disabled": 0, "is_reserved": 0, "fusion_lat": 0.0, "lat": 38.8617685, "fusion_lon": 0.0, "rental_uris": {"ios": "https://dc.lft.to/lastmile_qr_scan", "android": "https://dc.lft.to/lastmile_qr_scan"}, "lon": -77.08825533333334, "bike_id": "ad4c7889d60b215bf96dd9b534c4fe77", "type": "electric_bike", "name": "ad4c7889d60b215bf96dd9b534c4fe77"}, {"is_disabled": 0, "is_reserved": 0, "fusion_lat": 0.0, "lat": 38.90065516666667, "fusion_lon": 0.0, "rental_uris": {"ios": "https://dc.lft.to/lastmile_qr_scan", "android": "https://dc.lft.to/lastmile_qr_scan"}, "lon": -76.98701133333333, "bike_id": "2cbc27c8747820f76fbec91ee29bb255", "type": "electric_scooter", "name": "2cbc27c8747820f76fbec91ee29bb255"}, {"is_disabled": 0, "is_reserved": 0, "fusion_lat": 0.0, "lat": 38.905137333333336, "fusion_lon": 0.0, "rental_uris": {"ios": "https://dc.lft.to/lastmile_qr_scan", "android": "https://dc.lft.to/lastmile_qr_scan"}, "lon": -77.041633, "bike_id": "e4be4e9e1b6c96f8e31eb03d783e161e", "type": "electric_scooter", "name": "e4be4e9e1b6c96f8e31eb03d783e161e"}, {"is_disabled": 0, "is_reserved": 0, "fusion_lat": 0.0, "lat": 38.919043, "fusion_lon": 0.0, "rental_uris": {"ios": "https://dc.lft.to/lastmile_qr_scan", "android": "https://dc.lft.to/lastmile_qr_scan"}, "lon": -77.10181666666666, "bike_id": "32e16f6ae96e389887915099bc45afff", "type": "electric_bike", "name": "32e16f6ae96e389887915099bc45afff"}, {"is_disabled": 0, "is_reserved": 0, "fusion_lat": 0.0, "lat": 38.90033233333333, "fusion_lon": 0.0, "rental_uris": {"ios": "https://dc.lft.to/lastmile_qr_scan", "android": "https://dc.lft.to/lastmile_qr_scan"}, "lon": -76.99846083333334, "bike_id": "90d4a923ce0e0242008253d8fd7bc5c9", "type": "electric_scooter", "name": "90d4a923ce0e0242008253d8fd7bc5c9"}, {"is_disabled": 0, "is_reserved": 0, "fusion_lat": 0.0, "lat": 38.89244083333333, "fusion_lon": 0.0, "rental_uris": {"ios": "https://dc.lft.to/lastmile_qr_scan", "android": "https://dc.lft.to/lastmile_qr_scan"}, "lon": -77.03956383333333, "bike_id": "e095fc4563547b297599daef35f1ea2c", "type": "electric_scooter", "name": "e095fc4563547b297599daef35f1ea2c"}, {"is_disabled": 0, "is_reserved": 0, "fusion_lat": 0.0, "lat": 38.842807, "fusion_lon": 0.0, "rental_uris": {"ios": "https://dc.lft.to/lastmile_qr_scan", "android": "https://dc.lft.to/lastmile_qr_scan"}, "lon": -76.98838416666666, "bike_id": "799cf95df2f99ad68f64a255e7a968ce", "type": "electric_bike", "name": "799cf95df2f99ad68f64a255e7a968ce"}, {"is_disabled": 0, "is_reserved": 0, "fusion_lat": 0.0, "lat": 38.9287845, "fusion_lon": 0.0, "rental_uris": {"ios": "https://dc.lft.to/lastmile_qr_scan", "android": "https://dc.lft.to/lastmile_qr_scan"}, "lon": -77.0259905, "bike_id": "08954fee8a40adc196cb6eddfcba0a85", "type": "electric_scooter", "name": "08954fee8a40adc196cb6eddfcba0a85"}, {"is_disabled": 0, "is_reserved": 0, "fusion_lat": 0.0, "lat": 38.917396333333336, "fusion_lon": 0.0, "rental_uris": {"ios": "https://dc.lft.to/lastmile_qr_scan", "android": "https://dc.lft.to/lastmile_qr_scan"}, "lon": -77.02402666666667, "bike_id": "cd71a0a01255eb926148b28e60b73dbf", "type": "electric_scooter", "name": "cd71a0a01255eb926148b28e60b73dbf"}, {"is_disabled": 0, "is_reserved": 0, "fusion_lat": 0.0, "lat": 38.921143, "fusion_lon": 0.0, "rental_uris": {"ios": "https://dc.lft.to/lastmile_qr_scan", "android": "https://dc.lft.to/lastmile_qr_scan"}, "lon": -77.03665216666667, "bike_id": "746a070db8b17b6f91504fe33c74aad7", "type": "electric_scooter", "name": "746a070db8b17b6f91504fe33c74aad7"}, {"is_disabled": 0, "is_reserved": 0, "fusion_lat": 0.0, "lat": 38.883933999999996, "fusion_lon": 0.0, "rental_uris": {"ios": "https://dc.lft.to/lastmile_qr_scan", "android": "https://dc.lft.to/lastmile_qr_scan"}, "lon": -77.0303395, "bike_id": "dc37e99cf2a5c2eb2081ba8ce887d141", "type": "electric_scooter", "name": "dc37e99cf2a5c2eb2081ba8ce887d141"}, {"is_disabled": 0, "is_reserved": 0, "fusion_lat": 0.0, "lat": 38.90231466666667, "fusion_lon": 0.0, "rental_uris": {"ios": "https://dc.lft.to/lastmile_qr_scan", "android": "https://dc.lft.to/lastmile_qr_scan"}, "lon": -77.05339783333334, "bike_id": "4d742c4d6b3005d7831c87bad562d14b", "type": "electric_scooter", "name": "4d742c4d6b3005d7831c87bad562d14b"}, {"is_disabled": 0, "is_reserved": 0, "fusion_lat": 0.0, "lat": 38.907841166666664, "fusion_lon": 0.0, "rental_uris": {"ios": "https://dc.lft.to/lastmile_qr_scan", "android": "https://dc.lft.to/lastmile_qr_scan"}, "lon": -77.04654083333334, "bike_id": "b8564510b61110fbad98153126d01145", "type": "electric_scooter", "name": "b8564510b61110fbad98153126d01145"}, {"is_disabled": 0, "is_reserved": 0, "fusion_lat": 0.0, "lat": 38.880763, "fusion_lon": 0.0, "rental_uris": {"ios": "https://dc.lft.to/lastmile_qr_scan", "android": "https://dc.lft.to/lastmile_qr_scan"}, "lon": -77.025962, "bike_id": "3bff159a21bf1a9d1eadc08e7796458f", "type": "electric_scooter", "name": "3bff159a21bf1a9d1eadc08e7796458f"}, {"is_disabled": 0, "is_reserved": 0, "fusion_lat": 0.0, "lat": 38.93613116666667, "fusion_lon": 0.0, "rental_uris": {"ios": "https://dc.lft.to/lastmile_qr_scan", "android": "https://dc.lft.to/lastmile_qr_scan"}, "lon": -77.03866316666667, "bike_id": "84a9afc76ca6931f15392b5ea1a5bd1a", "type": "electric_scooter", "name": "84a9afc76ca6931f15392b5ea1a5bd1a"}, {"is_disabled": 0, "is_reserved": 0, "fusion_lat": 0.0, "lat": 38.90900716666667, "fusion_lon": 0.0, "rental_uris": {"ios": "https://dc.lft.to/lastmile_qr_scan", "android": "https://dc.lft.to/lastmile_qr_scan"}, "lon": -76.99786083333333, "bike_id": "245a7da998e4e493c11c3049c014802c", "type": "electric_scooter", "name": "245a7da998e4e493c11c3049c014802c"}, {"is_disabled": 0, "is_reserved": 0, "fusion_lat": 0.0, "lat": 38.93416533333333, "fusion_lon": 0.0, "rental_uris": {"ios": "https://dc.lft.to/lastmile_qr_scan", "android": "https://dc.lft.to/lastmile_qr_scan"}, "lon": -77.04281733333333, "bike_id": "571cf7837ba9c3b45f644287c9632b32", "type": "electric_scooter", "name": "571cf7837ba9c3b45f644287c9632b32"}, {"is_disabled": 0, "is_reserved": 0, "fusion_lat": 0.0, "lat": 38.923011, "fusion_lon": 0.0, "rental_uris": {"ios": "https://dc.lft.to/lastmile_qr_scan", "android": "https://dc.lft.to/lastmile_qr_scan"}, "lon": -77.03528616666667, "bike_id": "089353776ba8c7e65a218ae1096a565d", "type": "electric_scooter", "name": "089353776ba8c7e65a218ae1096a565d"}, {"is_disabled": 0, "is_reserved": 0, "fusion_lat": 0.0, "lat": 38.9064, "fusion_lon": 0.0, "rental_uris": {"ios": "https://dc.lft.to/lastmile_qr_scan", "android": "https://dc.lft.to/lastmile_qr_scan"}, "lon": -77.06908433333334, "bike_id": "c65f3054fc6c1893128a0b964d486a3a", "type": "electric_scooter", "name": "c65f3054fc6c1893128a0b964d486a3a"}, {"is_disabled": 0, "is_reserved": 0, "fusion_lat": 0.0, "lat": 38.87642133333333, "fusion_lon": 0.0, "rental_uris": {"ios": "https://dc.lft.to/lastmile_qr_scan", "android": "https://dc.lft.to/lastmile_qr_scan"}, "lon": -76.99294983333333, "bike_id": "56d3cd41f0262157d2ef3a889ad4ef6b", "type": "electric_scooter", "name": "56d3cd41f0262157d2ef3a889ad4ef6b"}, {"is_disabled": 0, "is_reserved": 0, "fusion_lat": 0.0, "lat": 38.95428616666667, "fusion_lon": 0.0, "rental_uris": {"ios": "https://dc.lft.to/lastmile_qr_scan", "android": "https://dc.lft.to/lastmile_qr_scan"}, "lon": -76.9879955, "bike_id": "0c13568f683086263c5907a3f5876a51", "type": "electric_scooter", "name": "0c13568f683086263c5907a3f5876a51"}, {"is_disabled": 0, "is_reserved": 0, "fusion_lat": 0.0, "lat": 38.8646765, "fusion_lon": 0.0, "rental_uris": {"ios": "https://dc.lft.to/lastmile_qr_scan", "android": "https://dc.lft.to/lastmile_qr_scan"}, "lon": -76.97753816666666, "bike_id": "b37e51e3181509f06e7aab8e8dbd19ce", "type": "electric_scooter", "name": "b37e51e3181509f06e7aab8e8dbd19ce"}, {"is_disabled": 0, "is_reserved": 0, "fusion_lat": 0.0, "lat": 38.876763833333335, "fusion_lon": 0.0, "rental_uris": {"ios": "https://dc.lft.to/lastmile_qr_scan", "android": "https://dc.lft.to/lastmile_qr_scan"}, "lon": -77.000297, "bike_id": "997be8efeeba3926fb10c9a248d8024b", "type": "electric_bike", "name": "997be8efeeba3926fb10c9a248d8024b"}, {"is_disabled": 0, "is_reserved": 0, "fusion_lat": 0.0, "lat": 38.8913475, "fusion_lon": 0.0, "rental_uris": {"ios": "https://dc.lft.to/lastmile_qr_scan", "android": "https://dc.lft.to/lastmile_qr_scan"}, "lon": -76.99937716666666, "bike_id": "d9387cffe121183401adb890a989d53c", "type": "electric_scooter", "name": "d9387cffe121183401adb890a989d53c"}, {"is_disabled": 0, "is_reserved": 0, "fusion_lat": 0.0, "lat": 38.928799833333336, "fusion_lon": 0.0, "rental_uris": {"ios": "https://dc.lft.to/lastmile_qr_scan", "android": "https://dc.lft.to/lastmile_qr_scan"}, "lon": -77.013854, "bike_id": "c74c57adb203b6f731aeaae7f3762de0", "type": "electric_scooter", "name": "c74c57adb203b6f731aeaae7f3762de0"}, {"is_disabled": 0, "is_reserved": 0, "fusion_lat": 0.0, "lat": 38.909734666666665, "fusion_lon": 0.0, "rental_uris": {"ios": "https://dc.lft.to/lastmile_qr_scan", "android": "https://dc.lft.to/lastmile_qr_scan"}, "lon": -77.04668233333334, "bike_id": "fa129a0efd194c780675e0135854f17b", "type": "electric_scooter", "name": "fa129a0efd194c780675e0135854f17b"}, {"is_disabled": 0, "is_reserved": 0, "fusion_lat": 0.0, "lat": 38.903568, "fusion_lon": 0.0, "rental_uris": {"ios": "https://dc.lft.to/lastmile_qr_scan", "android": "https://dc.lft.to/lastmile_qr_scan"}, "lon": -77.06001983333333, "bike_id": "a9264acf30a180f50cef096e4837ed20", "type": "electric_scooter", "name": "a9264acf30a180f50cef096e4837ed20"}, {"is_disabled": 0, "is_reserved": 0, "fusion_lat": 0.0, "lat": 38.879082333333336, "fusion_lon": 0.0, "rental_uris": {"ios": "https://dc.lft.to/lastmile_qr_scan", "android": "https://dc.lft.to/lastmile_qr_scan"}, "lon": -76.995097, "bike_id": "4e4c2e0bcfb1d06392e78c9d0d71c303", "type": "electric_scooter", "name": "4e4c2e0bcfb1d06392e78c9d0d71c303"}, {"is_disabled": 0, "is_reserved": 0, "fusion_lat": 0.0, "lat": 38.904421, "fusion_lon": 0.0, "rental_uris": {"ios": "https://dc.lft.to/lastmile_qr_scan", "android": "https://dc.lft.to/lastmile_qr_scan"}, "lon": -76.9730545, "bike_id": "f8a6db66b526c1fd8f0f3d9146deae0e", "type": "electric_scooter", "name": "f8a6db66b526c1fd8f0f3d9146deae0e"}, {"is_disabled": 0, "is_reserved": 0, "fusion_lat": 0.0, "lat": 38.90526783333333, "fusion_lon": 0.0, "rental_uris": {"ios": "https://dc.lft.to/lastmile_qr_scan", "android": "https://dc.lft.to/lastmile_qr_scan"}, "lon": -77.059366, "bike_id": "72de0d81ec279335bd95716cdcf2bc7c", "type": "electric_scooter", "name": "72de0d81ec279335bd95716cdcf2bc7c"}, {"is_disabled": 0, "is_reserved": 0, "fusion_lat": 0.0, "lat": 38.963509333333334, "fusion_lon": 0.0, "rental_uris": {"ios": "https://dc.lft.to/lastmile_qr_scan", "android": "https://dc.lft.to/lastmile_qr_scan"}, "lon": -77.03443516666667, "bike_id": "334d53345630625adebcc5f4b9dedfa1", "type": "electric_scooter", "name": "334d53345630625adebcc5f4b9dedfa1"}, {"is_disabled": 0, "is_reserved": 0, "fusion_lat": 0.0, "lat": 38.842640333333335, "fusion_lon": 0.0, "rental_uris": {"ios": "https://dc.lft.to/lastmile_qr_scan", "android": "https://dc.lft.to/lastmile_qr_scan"}, "lon": -76.98861283333333, "bike_id": "60a0d5c9e12031ba3ee9b399a5ffcb5f", "type": "electric_scooter", "name": "60a0d5c9e12031ba3ee9b399a5ffcb5f"}, {"is_disabled": 0, "is_reserved": 0, "fusion_lat": 0.0, "lat": 38.8961295, "fusion_lon": 0.0, "rental_uris": {"ios": "https://dc.lft.to/lastmile_qr_scan", "android": "https://dc.lft.to/lastmile_qr_scan"}, "lon": -77.0060595, "bike_id": "e72b069ab98b5ed17833248631412ee4", "type": "electric_scooter", "name": "e72b069ab98b5ed17833248631412ee4"}, {"is_disabled": 0, "is_reserved": 0, "fusion_lat": 0.0, "lat": 38.896744166666664, "fusion_lon": 0.0, "rental_uris": {"ios": "https://dc.lft.to/lastmile_qr_scan", "android": "https://dc.lft.to/lastmile_qr_scan"}, "lon": -77.05465133333334, "bike_id": "ea938b1a887ee73429f471f34da74771", "type": "electric_scooter", "name": "ea938b1a887ee73429f471f34da74771"}, {"is_disabled": 0, "is_reserved": 0, "fusion_lat": 0.0, "lat": 38.9491965, "fusion_lon": 0.0, "rental_uris": {"ios": "https://dc.lft.to/lastmile_qr_scan", "android": "https://dc.lft.to/lastmile_qr_scan"}, "lon": -77.02315383333334, "bike_id": "b2c03589eaf7fd408eb816088477b927", "type": "electric_scooter", "name": "b2c03589eaf7fd408eb816088477b927"}, {"is_disabled": 0, "is_reserved": 0, "fusion_lat": 0.0, "lat": 38.93074883333333, "fusion_lon": 0.0, "rental_uris": {"ios": "https://dc.lft.to/lastmile_qr_scan", "android": "https://dc.lft.to/lastmile_qr_scan"}, "lon": -77.02345883333334, "bike_id": "dbf0173ecf92e84a362dd04b3af36e5a", "type": "electric_scooter", "name": "dbf0173ecf92e84a362dd04b3af36e5a"}, {"is_disabled": 0, "is_reserved": 0, "fusion_lat": 0.0, "lat": 38.884802666666666, "fusion_lon": 0.0, "rental_uris": {"ios": "https://dc.lft.to/lastmile_qr_scan", "android": "https://dc.lft.to/lastmile_qr_scan"}, "lon": -77.02670233333333, "bike_id": "135a4df5639c44236edad24b7b4d8779", "type": "electric_scooter", "name": "135a4df5639c44236edad24b7b4d8779"}, {"is_disabled": 0, "is_reserved": 0, "fusion_lat": 0.0, "lat": 38.900720166666666, "fusion_lon": 0.0, "rental_uris": {"ios": "https://dc.lft.to/lastmile_qr_scan", "android": "https://dc.lft.to/lastmile_qr_scan"}, "lon": -77.02216116666666, "bike_id": "c00a782eb0ba973f43cef9da796f985f", "type": "electric_scooter", "name": "c00a782eb0ba973f43cef9da796f985f"}, {"is_disabled": 0, "is_reserved": 0, "fusion_lat": 0.0, "lat": 38.83407666666667, "fusion_lon": 0.0, "rental_uris": {"ios": "https://dc.lft.to/lastmile_qr_scan", "android": "https://dc.lft.to/lastmile_qr_scan"}, "lon": -77.05007283333333, "bike_id": "42ba17f49d992cb0091d3834be076eeb", "type": "electric_bike", "name": "42ba17f49d992cb0091d3834be076eeb"}, {"is_disabled": 0, "is_reserved": 0, "fusion_lat": 0.0, "lat": 38.91834516666667, "fusion_lon": 0.0, "rental_uris": {"ios": "https://dc.lft.to/lastmile_qr_scan", "android": "https://dc.lft.to/lastmile_qr_scan"}, "lon": -77.04170166666667, "bike_id": "6a98449a7666b5c9ab0dc2a261822389", "type": "electric_scooter", "name": "6a98449a7666b5c9ab0dc2a261822389"}, {"is_disabled": 0, "is_reserved": 0, "fusion_lat": 0.0, "lat": 38.9368505, "fusion_lon": 0.0, "rental_uris": {"ios": "https://dc.lft.to/lastmile_qr_scan", "android": "https://dc.lft.to/lastmile_qr_scan"}, "lon": -77.056401, "bike_id": "00d781bc8d75075abc877d10d0524cc0", "type": "electric_bike", "name": "00d781bc8d75075abc877d10d0524cc0"}, {"is_disabled": 0, "is_reserved": 0, "fusion_lat": 0.0, "lat": 38.924326, "fusion_lon": 0.0, "rental_uris": {"ios": "https://dc.lft.to/lastmile_qr_scan", "android": "https://dc.lft.to/lastmile_qr_scan"}, "lon": -77.03404983333333, "bike_id": "22f0537157b9d931b32d7564d4790ba7", "type": "electric_scooter", "name": "22f0537157b9d931b32d7564d4790ba7"}, {"is_disabled": 0, "is_reserved": 0, "fusion_lat": 0.0, "lat": 38.8960565, "fusion_lon": 0.0, "rental_uris": {"ios": "https://dc.lft.to/lastmile_qr_scan", "android": "https://dc.lft.to/lastmile_qr_scan"}, "lon": -77.0454035, "bike_id": "960b4934f72eaac00e5cda388d99337a", "type": "electric_scooter", "name": "960b4934f72eaac00e5cda388d99337a"}, {"is_disabled": 0, "is_reserved": 0, "fusion_lat": 0.0, "lat": 38.88357533333333, "fusion_lon": 0.0, "rental_uris": {"ios": "https://dc.lft.to/lastmile_qr_scan", "android": "https://dc.lft.to/lastmile_qr_scan"}, "lon": -76.99514633333334, "bike_id": "eaf90787764fde7c45cea33d4010d89a", "type": "electric_scooter", "name": "eaf90787764fde7c45cea33d4010d89a"}, {"is_disabled": 0, "is_reserved": 0, "fusion_lat": 0.0, "lat": 38.89739183333333, "fusion_lon": 0.0, "rental_uris": {"ios": "https://dc.lft.to/lastmile_qr_scan", "android": "https://dc.lft.to/lastmile_qr_scan"}, "lon": -77.02122633333333, "bike_id": "70a3bf964173bcf08cb5c637619672d8", "type": "electric_scooter", "name": "70a3bf964173bcf08cb5c637619672d8"}, {"is_disabled": 0, "is_reserved": 0, "fusion_lat": 0.0, "lat": 38.94974416666667, "fusion_lon": 0.0, "rental_uris": {"ios": "https://dc.lft.to/lastmile_qr_scan", "android": "https://dc.lft.to/lastmile_qr_scan"}, "lon": -77.08084616666666, "bike_id": "bfc6e9e16bcc1307554f51037a671ffa", "type": "electric_scooter", "name": "bfc6e9e16bcc1307554f51037a671ffa"}, {"is_disabled": 0, "is_reserved": 0, "fusion_lat": 0.0, "lat": 38.89865916666667, "fusion_lon": 0.0, "rental_uris": {"ios": "https://dc.lft.to/lastmile_qr_scan", "android": "https://dc.lft.to/lastmile_qr_scan"}, "lon": -76.94662066666666, "bike_id": "731f7905c8ead08a267e71fe3fe39926", "type": "electric_scooter", "name": "731f7905c8ead08a267e71fe3fe39926"}, {"is_disabled": 0, "is_reserved": 0, "fusion_lat": 0.0, "lat": 38.857093, "fusion_lon": 0.0, "rental_uris": {"ios": "https://dc.lft.to/lastmile_qr_scan", "android": "https://dc.lft.to/lastmile_qr_scan"}, "lon": -76.98095083333334, "bike_id": "8d06d89988218ed19338312cde558608", "type": "electric_scooter", "name": "8d06d89988218ed19338312cde558608"}, {"is_disabled": 0, "is_reserved": 0, "fusion_lat": 0.0, "lat": 38.91914366666666, "fusion_lon": 0.0, "rental_uris": {"ios": "https://dc.lft.to/lastmile_qr_scan", "android": "https://dc.lft.to/lastmile_qr_scan"}, "lon": -77.03099966666667, "bike_id": "1720a58a29c6d699243e5a0de401347d", "type": "electric_scooter", "name": "1720a58a29c6d699243e5a0de401347d"}, {"is_disabled": 0, "is_reserved": 0, "fusion_lat": 0.0, "lat": 38.92410683333333, "fusion_lon": 0.0, "rental_uris": {"ios": "https://dc.lft.to/lastmile_qr_scan", "android": "https://dc.lft.to/lastmile_qr_scan"}, "lon": -77.02714433333334, "bike_id": "7d684b9a80d6dfa91ca15792e914ee4b", "type": "electric_scooter", "name": "7d684b9a80d6dfa91ca15792e914ee4b"}, {"is_disabled": 0, "is_reserved": 0, "fusion_lat": 0.0, "lat": 38.858387, "fusion_lon": 0.0, "rental_uris": {"ios": "https://dc.lft.to/lastmile_qr_scan", "android": "https://dc.lft.to/lastmile_qr_scan"}, "lon": -76.9881965, "bike_id": "aa45f7d3f3796ec636a7c9121ba490d7", "type": "electric_scooter", "name": "aa45f7d3f3796ec636a7c9121ba490d7"}, {"is_disabled": 0, "is_reserved": 0, "fusion_lat": 0.0, "lat": 38.921925333333334, "fusion_lon": 0.0, "rental_uris": {"ios": "https://dc.lft.to/lastmile_qr_scan", "android": "https://dc.lft.to/lastmile_qr_scan"}, "lon": -77.03788916666667, "bike_id": "d8ac96331b45e0871963fcd65b4d6c1d", "type": "electric_scooter", "name": "d8ac96331b45e0871963fcd65b4d6c1d"}, {"is_disabled": 0, "is_reserved": 0, "fusion_lat": 0.0, "lat": 38.9385555, "fusion_lon": 0.0, "rental_uris": {"ios": "https://dc.lft.to/lastmile_qr_scan", "android": "https://dc.lft.to/lastmile_qr_scan"}, "lon": -77.02631116666667, "bike_id": "0785ca7f01481033956be406e56b8d5e", "type": "electric_bike", "name": "0785ca7f01481033956be406e56b8d5e"}, {"is_disabled": 0, "is_reserved": 0, "fusion_lat": 0.0, "lat": 38.9231755, "fusion_lon": 0.0, "rental_uris": {"ios": "https://dc.lft.to/lastmile_qr_scan", "android": "https://dc.lft.to/lastmile_qr_scan"}, "lon": -77.02798366666667, "bike_id": "c04a386c72a30b111215a3034fbafbb6", "type": "electric_scooter", "name": "c04a386c72a30b111215a3034fbafbb6"}, {"is_disabled": 0, "is_reserved": 0, "fusion_lat": 0.0, "lat": 38.89735616666667, "fusion_lon": 0.0, "rental_uris": {"ios": "https://dc.lft.to/lastmile_qr_scan", "android": "https://dc.lft.to/lastmile_qr_scan"}, "lon": -77.02735233333334, "bike_id": "06094f7bbf8c79ffa6d22db6d9cc7688", "type": "electric_scooter", "name": "06094f7bbf8c79ffa6d22db6d9cc7688"}, {"is_disabled": 0, "is_reserved": 0, "fusion_lat": 0.0, "lat": 38.88741783333333, "fusion_lon": 0.0, "rental_uris": {"ios": "https://dc.lft.to/lastmile_qr_scan", "android": "https://dc.lft.to/lastmile_qr_scan"}, "lon": -77.0219995, "bike_id": "9a3490e1f9d709fdc707181f2fd8c2da", "type": "electric_scooter", "name": "9a3490e1f9d709fdc707181f2fd8c2da"}, {"is_disabled": 0, "is_reserved": 0, "fusion_lat": 0.0, "lat": 38.857882833333335, "fusion_lon": 0.0, "rental_uris": {"ios": "https://dc.lft.to/lastmile_qr_scan", "android": "https://dc.lft.to/lastmile_qr_scan"}, "lon": -76.9875205, "bike_id": "6e626bd9f1ff3ba309e335c85abe9b28", "type": "electric_bike", "name": "6e626bd9f1ff3ba309e335c85abe9b28"}, {"is_disabled": 0, "is_reserved": 0, "fusion_lat": 0.0, "lat": 38.91822116666667, "fusion_lon": 0.0, "rental_uris": {"ios": "https://dc.lft.to/lastmile_qr_scan", "android": "https://dc.lft.to/lastmile_qr_scan"}, "lon": -77.03995, "bike_id": "041024a0eb0f0e0d6fcb84c7a1b2dfe3", "type": "electric_scooter", "name": "041024a0eb0f0e0d6fcb84c7a1b2dfe3"}, {"is_disabled": 0, "is_reserved": 0, "fusion_lat": 0.0, "lat": 38.89251616666667, "fusion_lon": 0.0, "rental_uris": {"ios": "https://dc.lft.to/lastmile_qr_scan", "android": "https://dc.lft.to/lastmile_qr_scan"}, "lon": -77.04654016666667, "bike_id": "9dbf3c731db981233af9b953b67c6f44", "type": "electric_scooter", "name": "9dbf3c731db981233af9b953b67c6f44"}, {"is_disabled": 0, "is_reserved": 0, "fusion_lat": 0.0, "lat": 38.892002, "fusion_lon": 0.0, "rental_uris": {"ios": "https://dc.lft.to/lastmile_qr_scan", "android": "https://dc.lft.to/lastmile_qr_scan"}, "lon": -77.04391016666666, "bike_id": "ab44df5bdde3d0635b1ee8e1d84550ec", "type": "electric_scooter", "name": "ab44df5bdde3d0635b1ee8e1d84550ec"}, {"is_disabled": 0, "is_reserved": 0, "fusion_lat": 0.0, "lat": 38.90595533333333, "fusion_lon": 0.0, "rental_uris": {"ios": "https://dc.lft.to/lastmile_qr_scan", "android": "https://dc.lft.to/lastmile_qr_scan"}, "lon": -77.0467395, "bike_id": "579e8256e303ee247b4b961cea1ef3b6", "type": "electric_scooter", "name": "579e8256e303ee247b4b961cea1ef3b6"}, {"is_disabled": 0, "is_reserved": 0, "fusion_lat": 0.0, "lat": 38.90681266666667, "fusion_lon": 0.0, "rental_uris": {"ios": "https://dc.lft.to/lastmile_qr_scan", "android": "https://dc.lft.to/lastmile_qr_scan"}, "lon": -77.0096575, "bike_id": "5623369d71cb7ba6435c9735d08b817a", "type": "electric_scooter", "name": "5623369d71cb7ba6435c9735d08b817a"}, {"is_disabled": 0, "is_reserved": 0, "fusion_lat": 0.0, "lat": 38.9105495, "fusion_lon": 0.0, "rental_uris": {"ios": "https://dc.lft.to/lastmile_qr_scan", "android": "https://dc.lft.to/lastmile_qr_scan"}, "lon": -77.0197965, "bike_id": "59876c45ea34ccf720f61950adf550f8", "type": "electric_bike", "name": "59876c45ea34ccf720f61950adf550f8"}, {"is_disabled": 0, "is_reserved": 0, "fusion_lat": 0.0, "lat": 38.973738166666664, "fusion_lon": 0.0, "rental_uris": {"ios": "https://dc.lft.to/lastmile_qr_scan", "android": "https://dc.lft.to/lastmile_qr_scan"}, "lon": -77.01868466666667, "bike_id": "203d6eed8d9511bd6efd40efaaefcef1", "type": "electric_scooter", "name": "203d6eed8d9511bd6efd40efaaefcef1"}, {"is_disabled": 0, "is_reserved": 0, "fusion_lat": 0.0, "lat": 38.87735466666667, "fusion_lon": 0.0, "rental_uris": {"ios": "https://dc.lft.to/lastmile_qr_scan", "android": "https://dc.lft.to/lastmile_qr_scan"}, "lon": -77.14868383333334, "bike_id": "21b93ef3b9a7463db5bbe71f677e4b2e", "type": "electric_bike", "name": "21b93ef3b9a7463db5bbe71f677e4b2e"}, {"is_disabled": 0, "is_reserved": 0, "fusion_lat": 0.0, "lat": 38.8850735, "fusion_lon": 0.0, "rental_uris": {"ios": "https://dc.lft.to/lastmile_qr_scan", "android": "https://dc.lft.to/lastmile_qr_scan"}, "lon": -76.9962045, "bike_id": "f43836adea497e4a5a506b313598b5d3", "type": "electric_scooter", "name": "f43836adea497e4a5a506b313598b5d3"}, {"is_disabled": 0, "is_reserved": 0, "fusion_lat": 0.0, "lat": 38.881054166666665, "fusion_lon": 0.0, "rental_uris": {"ios": "https://dc.lft.to/lastmile_qr_scan", "android": "https://dc.lft.to/lastmile_qr_scan"}, "lon": -77.0123685, "bike_id": "e1023f94fda1357888d1f4c53984b4e7", "type": "electric_scooter", "name": "e1023f94fda1357888d1f4c53984b4e7"}, {"is_disabled": 0, "is_reserved": 0, "fusion_lat": 0.0, "lat": 38.89857583333333, "fusion_lon": 0.0, "rental_uris": {"ios": "https://dc.lft.to/lastmile_qr_scan", "android": "https://dc.lft.to/lastmile_qr_scan"}, "lon": -77.048792, "bike_id": "67e58bc83f49594ad17030820ec806ce", "type": "electric_scooter", "name": "67e58bc83f49594ad17030820ec806ce"}, {"is_disabled": 0, "is_reserved": 0, "fusion_lat": 0.0, "lat": 39.00528683333334, "fusion_lon": 0.0, "rental_uris": {"ios": "https://dc.lft.to/lastmile_qr_scan", "android": "https://dc.lft.to/lastmile_qr_scan"}, "lon": -77.10400633333333, "bike_id": "04532667f33d22f166035c3570d97fc7", "type": "electric_bike", "name": "04532667f33d22f166035c3570d97fc7"}, {"is_disabled": 0, "is_reserved": 0, "fusion_lat": 0.0, "lat": 38.9232225, "fusion_lon": 0.0, "rental_uris": {"ios": "https://dc.lft.to/lastmile_qr_scan", "android": "https://dc.lft.to/lastmile_qr_scan"}, "lon": -77.0441025, "bike_id": "a0b9bb059c9ee9a857aa1bf93cdda22e", "type": "electric_scooter", "name": "a0b9bb059c9ee9a857aa1bf93cdda22e"}, {"is_disabled": 0, "is_reserved": 0, "fusion_lat": 0.0, "lat": 38.995348166666666, "fusion_lon": 0.0, "rental_uris": {"ios": "https://dc.lft.to/lastmile_qr_scan", "android": "https://dc.lft.to/lastmile_qr_scan"}, "lon": -77.07454083333333, "bike_id": "35b595c201ca115d67fc1ef063227101", "type": "electric_bike", "name": "35b595c201ca115d67fc1ef063227101"}, {"is_disabled": 0, "is_reserved": 0, "fusion_lat": 0.0, "lat": 38.98212066666667, "fusion_lon": 0.0, "rental_uris": {"ios": "https://dc.lft.to/lastmile_qr_scan", "android": "https://dc.lft.to/lastmile_qr_scan"}, "lon": -76.97816333333333, "bike_id": "67a6513f46943ea4d3670bafdb37eae7", "type": "electric_bike", "name": "67a6513f46943ea4d3670bafdb37eae7"}, {"is_disabled": 0, "is_reserved": 0, "fusion_lat": 0.0, "lat": 38.871062333333334, "fusion_lon": 0.0, "rental_uris": {"ios": "https://dc.lft.to/lastmile_qr_scan", "android": "https://dc.lft.to/lastmile_qr_scan"}, "lon": -77.00792516666667, "bike_id": "b48147569c1544521f055d2abb0f8ee8", "type": "electric_scooter", "name": "b48147569c1544521f055d2abb0f8ee8"}, {"is_disabled": 0, "is_reserved": 0, "fusion_lat": 0.0, "lat": 38.92784666666667, "fusion_lon": 0.0, "rental_uris": {"ios": "https://dc.lft.to/lastmile_qr_scan", "android": "https://dc.lft.to/lastmile_qr_scan"}, "lon": -77.05262166666667, "bike_id": "9c1e1339675a8bbf716cc1f9ef3e0053", "type": "electric_scooter", "name": "9c1e1339675a8bbf716cc1f9ef3e0053"}, {"is_disabled": 0, "is_reserved": 0, "fusion_lat": 0.0, "lat": 38.936018, "fusion_lon": 0.0, "rental_uris": {"ios": "https://dc.lft.to/lastmile_qr_scan", "android": "https://dc.lft.to/lastmile_qr_scan"}, "lon": -77.055978, "bike_id": "8c177190e1ad4951e739c431a30dc601", "type": "electric_scooter", "name": "8c177190e1ad4951e739c431a30dc601"}, {"is_disabled": 0, "is_reserved": 0, "fusion_lat": 0.0, "lat": 38.921473166666665, "fusion_lon": 0.0, "rental_uris": {"ios": "https://dc.lft.to/lastmile_qr_scan", "android": "https://dc.lft.to/lastmile_qr_scan"}, "lon": -77.03655483333333, "bike_id": "783bceaf55719f8b063720aa647f33d3", "type": "electric_scooter", "name": "783bceaf55719f8b063720aa647f33d3"}, {"is_disabled": 0, "is_reserved": 0, "fusion_lat": 0.0, "lat": 38.898841, "fusion_lon": 0.0, "rental_uris": {"ios": "https://dc.lft.to/lastmile_qr_scan", "android": "https://dc.lft.to/lastmile_qr_scan"}, "lon": -76.9868075, "bike_id": "7c8a8c1255310b065b4d578bf6ed4dad", "type": "electric_scooter", "name": "7c8a8c1255310b065b4d578bf6ed4dad"}, {"is_disabled": 0, "is_reserved": 0, "fusion_lat": 0.0, "lat": 38.92611183333333, "fusion_lon": 0.0, "rental_uris": {"ios": "https://dc.lft.to/lastmile_qr_scan", "android": "https://dc.lft.to/lastmile_qr_scan"}, "lon": -77.00655416666666, "bike_id": "5409b774aee36abaaca0740d69fd4a1b", "type": "electric_scooter", "name": "5409b774aee36abaaca0740d69fd4a1b"}, {"is_disabled": 0, "is_reserved": 0, "fusion_lat": 0.0, "lat": 38.894833166666665, "fusion_lon": 0.0, "rental_uris": {"ios": "https://dc.lft.to/lastmile_qr_scan", "android": "https://dc.lft.to/lastmile_qr_scan"}, "lon": -77.041547, "bike_id": "a094942db08bdea438b827f9ce9a114b", "type": "electric_scooter", "name": "a094942db08bdea438b827f9ce9a114b"}, {"is_disabled": 0, "is_reserved": 0, "fusion_lat": 0.0, "lat": 38.85553, "fusion_lon": 0.0, "rental_uris": {"ios": "https://dc.lft.to/lastmile_qr_scan", "android": "https://dc.lft.to/lastmile_qr_scan"}, "lon": -77.06404933333333, "bike_id": "95fb1e0518a44c119f6be3fcb22fc4f9", "type": "electric_bike", "name": "95fb1e0518a44c119f6be3fcb22fc4f9"}, {"is_disabled": 0, "is_reserved": 0, "fusion_lat": 0.0, "lat": 38.92250833333333, "fusion_lon": 0.0, "rental_uris": {"ios": "https://dc.lft.to/lastmile_qr_scan", "android": "https://dc.lft.to/lastmile_qr_scan"}, "lon": -77.03653666666666, "bike_id": "e339e725f6894d6b94d6c9a3b936a93a", "type": "electric_scooter", "name": "e339e725f6894d6b94d6c9a3b936a93a"}, {"is_disabled": 0, "is_reserved": 0, "fusion_lat": 0.0, "lat": 38.983670833333335, "fusion_lon": 0.0, "rental_uris": {"ios": "https://dc.lft.to/lastmile_qr_scan", "android": "https://dc.lft.to/lastmile_qr_scan"}, "lon": -76.98851133333334, "bike_id": "51089feaaf31622518e76ae8a16fda87", "type": "electric_bike", "name": "51089feaaf31622518e76ae8a16fda87"}, {"is_disabled": 0, "is_reserved": 0, "fusion_lat": 0.0, "lat": 38.8422675, "fusion_lon": 0.0, "rental_uris": {"ios": "https://dc.lft.to/lastmile_qr_scan", "android": "https://dc.lft.to/lastmile_qr_scan"}, "lon": -76.94887966666667, "bike_id": "ad1bc221d0ba2fbbdb0eb0ddc79b5cb4", "type": "electric_bike", "name": "ad1bc221d0ba2fbbdb0eb0ddc79b5cb4"}, {"is_disabled": 0, "is_reserved": 0, "fusion_lat": 0.0, "lat": 38.927025, "fusion_lon": 0.0, "rental_uris": {"ios": "https://dc.lft.to/lastmile_qr_scan", "android": "https://dc.lft.to/lastmile_qr_scan"}, "lon": -77.03826066666667, "bike_id": "365d6c518c5436ad2d801f8482dd5973", "type": "electric_scooter", "name": "365d6c518c5436ad2d801f8482dd5973"}, {"is_disabled": 0, "is_reserved": 0, "fusion_lat": 0.0, "lat": 38.842294833333334, "fusion_lon": 0.0, "rental_uris": {"ios": "https://dc.lft.to/lastmile_qr_scan", "android": "https://dc.lft.to/lastmile_qr_scan"}, "lon": -77.00166966666667, "bike_id": "249ec0ffd6adee0002f0e2835a59b586", "type": "electric_scooter", "name": "249ec0ffd6adee0002f0e2835a59b586"}, {"is_disabled": 0, "is_reserved": 0, "fusion_lat": 0.0, "lat": 38.923265666666666, "fusion_lon": 0.0, "rental_uris": {"ios": "https://dc.lft.to/lastmile_qr_scan", "android": "https://dc.lft.to/lastmile_qr_scan"}, "lon": -77.056873, "bike_id": "08e3006b4c4d64edf7973e1a410f192f", "type": "electric_scooter", "name": "08e3006b4c4d64edf7973e1a410f192f"}, {"is_disabled": 0, "is_reserved": 0, "fusion_lat": 0.0, "lat": 38.918109666666666, "fusion_lon": 0.0, "rental_uris": {"ios": "https://dc.lft.to/lastmile_qr_scan", "android": "https://dc.lft.to/lastmile_qr_scan"}, "lon": -77.02714683333333, "bike_id": "83a9bdb2b653077484f1c44fc68e2eff", "type": "electric_scooter", "name": "83a9bdb2b653077484f1c44fc68e2eff"}, {"is_disabled": 0, "is_reserved": 0, "fusion_lat": 0.0, "lat": 38.899674, "fusion_lon": 0.0, "rental_uris": {"ios": "https://dc.lft.to/lastmile_qr_scan", "android": "https://dc.lft.to/lastmile_qr_scan"}, "lon": -77.022553, "bike_id": "316bb974a36fc6458068e5a5c3a080d8", "type": "electric_scooter", "name": "316bb974a36fc6458068e5a5c3a080d8"}, {"is_disabled": 0, "is_reserved": 0, "fusion_lat": 0.0, "lat": 38.92323733333333, "fusion_lon": 0.0, "rental_uris": {"ios": "https://dc.lft.to/lastmile_qr_scan", "android": "https://dc.lft.to/lastmile_qr_scan"}, "lon": -77.02074716666667, "bike_id": "e1a45b2c2c476c19752e031279ec7ed9", "type": "electric_scooter", "name": "e1a45b2c2c476c19752e031279ec7ed9"}, {"is_disabled": 0, "is_reserved": 0, "fusion_lat": 0.0, "lat": 38.957511833333335, "fusion_lon": 0.0, "rental_uris": {"ios": "https://dc.lft.to/lastmile_qr_scan", "android": "https://dc.lft.to/lastmile_qr_scan"}, "lon": -77.020613, "bike_id": "e3525b3e201702ec052736fb7ae50b82", "type": "electric_scooter", "name": "e3525b3e201702ec052736fb7ae50b82"}, {"is_disabled": 0, "is_reserved": 0, "fusion_lat": 0.0, "lat": 38.9214775, "fusion_lon": 0.0, "rental_uris": {"ios": "https://dc.lft.to/lastmile_qr_scan", "android": "https://dc.lft.to/lastmile_qr_scan"}, "lon": -77.036698, "bike_id": "93dc7ba609e6d5333627e3386bd5282e", "type": "electric_scooter", "name": "93dc7ba609e6d5333627e3386bd5282e"}, {"is_disabled": 0, "is_reserved": 0, "fusion_lat": 0.0, "lat": 38.871628333333334, "fusion_lon": 0.0, "rental_uris": {"ios": "https://dc.lft.to/lastmile_qr_scan", "android": "https://dc.lft.to/lastmile_qr_scan"}, "lon": -77.01359783333334, "bike_id": "dc811758878abebff228538d568e9980", "type": "electric_scooter", "name": "dc811758878abebff228538d568e9980"}, {"is_disabled": 0, "is_reserved": 0, "fusion_lat": 0.0, "lat": 38.89929383333333, "fusion_lon": 0.0, "rental_uris": {"ios": "https://dc.lft.to/lastmile_qr_scan", "android": "https://dc.lft.to/lastmile_qr_scan"}, "lon": -77.03229133333333, "bike_id": "855fd8201c278949cecc8540f91c673e", "type": "electric_scooter", "name": "855fd8201c278949cecc8540f91c673e"}, {"is_disabled": 0, "is_reserved": 0, "fusion_lat": 0.0, "lat": 38.90783183333333, "fusion_lon": 0.0, "rental_uris": {"ios": "https://dc.lft.to/lastmile_qr_scan", "android": "https://dc.lft.to/lastmile_qr_scan"}, "lon": -76.997149, "bike_id": "8cb18dabcca0a922183013fbe2296981", "type": "electric_scooter", "name": "8cb18dabcca0a922183013fbe2296981"}, {"is_disabled": 0, "is_reserved": 0, "fusion_lat": 0.0, "lat": 38.88428116666667, "fusion_lon": 0.0, "rental_uris": {"ios": "https://dc.lft.to/lastmile_qr_scan", "android": "https://dc.lft.to/lastmile_qr_scan"}, "lon": -77.02927516666666, "bike_id": "c530c30327b64ee655386244220237b9", "type": "electric_scooter", "name": "c530c30327b64ee655386244220237b9"}, {"is_disabled": 0, "is_reserved": 0, "fusion_lat": 0.0, "lat": 38.92100533333333, "fusion_lon": 0.0, "rental_uris": {"ios": "https://dc.lft.to/lastmile_qr_scan", "android": "https://dc.lft.to/lastmile_qr_scan"}, "lon": -77.01763033333333, "bike_id": "52c49da81f1c0e89fc58081de7cd98b3", "type": "electric_scooter", "name": "52c49da81f1c0e89fc58081de7cd98b3"}, {"is_disabled": 0, "is_reserved": 0, "fusion_lat": 0.0, "lat": 38.91605216666667, "fusion_lon": 0.0, "rental_uris": {"ios": "https://dc.lft.to/lastmile_qr_scan", "android": "https://dc.lft.to/lastmile_qr_scan"}, "lon": -77.02134033333333, "bike_id": "8a9f8d1447734cb488e2d023577af8bb", "type": "electric_scooter", "name": "8a9f8d1447734cb488e2d023577af8bb"}, {"is_disabled": 0, "is_reserved": 0, "fusion_lat": 0.0, "lat": 38.928242, "fusion_lon": 0.0, "rental_uris": {"ios": "https://dc.lft.to/lastmile_qr_scan", "android": "https://dc.lft.to/lastmile_qr_scan"}, "lon": -77.05420483333333, "bike_id": "5be23a3a4f730b60df0ef9ace5a40824", "type": "electric_scooter", "name": "5be23a3a4f730b60df0ef9ace5a40824"}, {"is_disabled": 0, "is_reserved": 0, "fusion_lat": 0.0, "lat": 38.91404383333333, "fusion_lon": 0.0, "rental_uris": {"ios": "https://dc.lft.to/lastmile_qr_scan", "android": "https://dc.lft.to/lastmile_qr_scan"}, "lon": -77.032176, "bike_id": "7c3dc07b5901fe7df376ad5e73c7ee30", "type": "electric_scooter", "name": "7c3dc07b5901fe7df376ad5e73c7ee30"}, {"is_disabled": 0, "is_reserved": 0, "fusion_lat": 0.0, "lat": 38.9066265, "fusion_lon": 0.0, "rental_uris": {"ios": "https://dc.lft.to/lastmile_qr_scan", "android": "https://dc.lft.to/lastmile_qr_scan"}, "lon": -77.00059233333333, "bike_id": "1d13449420c6e46c6076a9140dc6b081", "type": "electric_scooter", "name": "1d13449420c6e46c6076a9140dc6b081"}, {"is_disabled": 0, "is_reserved": 0, "fusion_lat": 0.0, "lat": 38.974770166666666, "fusion_lon": 0.0, "rental_uris": {"ios": "https://dc.lft.to/lastmile_qr_scan", "android": "https://dc.lft.to/lastmile_qr_scan"}, "lon": -77.01488983333333, "bike_id": "8eb6a6e91e90d552fba58b735e4884ae", "type": "electric_scooter", "name": "8eb6a6e91e90d552fba58b735e4884ae"}, {"is_disabled": 0, "is_reserved": 0, "fusion_lat": 0.0, "lat": 38.894833, "fusion_lon": 0.0, "rental_uris": {"ios": "https://dc.lft.to/lastmile_qr_scan", "android": "https://dc.lft.to/lastmile_qr_scan"}, "lon": -76.97881383333333, "bike_id": "a20a12dd06178b174112e5598d70a421", "type": "electric_scooter", "name": "a20a12dd06178b174112e5598d70a421"}, {"is_disabled": 0, "is_reserved": 0, "fusion_lat": 0.0, "lat": 38.9201345, "fusion_lon": 0.0, "rental_uris": {"ios": "https://dc.lft.to/lastmile_qr_scan", "android": "https://dc.lft.to/lastmile_qr_scan"}, "lon": -77.04169966666667, "bike_id": "2cf2bcea6f5747f8374c02a58d5ec724", "type": "electric_scooter", "name": "2cf2bcea6f5747f8374c02a58d5ec724"}, {"is_disabled": 0, "is_reserved": 0, "fusion_lat": 0.0, "lat": 38.908555, "fusion_lon": 0.0, "rental_uris": {"ios": "https://dc.lft.to/lastmile_qr_scan", "android": "https://dc.lft.to/lastmile_qr_scan"}, "lon": -77.04601216666667, "bike_id": "0adbe1eca3dd5343505d0fc50c5a4cf9", "type": "electric_scooter", "name": "0adbe1eca3dd5343505d0fc50c5a4cf9"}, {"is_disabled": 0, "is_reserved": 0, "fusion_lat": 0.0, "lat": 38.897468, "fusion_lon": 0.0, "rental_uris": {"ios": "https://dc.lft.to/lastmile_qr_scan", "android": "https://dc.lft.to/lastmile_qr_scan"}, "lon": -77.02131883333334, "bike_id": "cefd476e064f9344e73c4fb0fcc4e231", "type": "electric_scooter", "name": "cefd476e064f9344e73c4fb0fcc4e231"},