{"data": {"bikes": [{"fusion_lon": 0.0, "bike_id": "4a3b872887c97a0284ae3a26bd3de846", "name": "4a3b872887c97a0284ae3a26bd3de846", "type": "electric_scooter", "lon": -77.00740883333333, "rental_uris": {"android": "https://dc.lft.to/lastmile_qr_scan", "ios": "https://dc.lft.to/lastmile_qr_scan"}, "lat": 38.89847016666667, "is_reserved": 0, "is_disabled": 0, "fusion_lat": 0.0}, {"fusion_lon": 0.0, "bike_id": "00bf368db749c0b280356d2ae6cc74f1", "name": "00bf368db749c0b280356d2ae6cc74f1", "type": "electric_scooter", "lon": -77.031634, "rental_uris": {"android": "https://dc.lft.to/lastmile_qr_scan", "ios": "https://dc.lft.to/lastmile_qr_scan"}, "lat": 38.92720833333333, "is_reserved": 0, "is_disabled": 0, "fusion_lat": 0.0}, {"fusion_lon": 0.0, "bike_id": "c89a69c6fa06075da08138c50b44c158", "name": "c89a69c6fa06075da08138c50b44c158", "type": "electric_scooter", "lon": -77.03858566666666, "rental_uris": {"android": "https://dc.lft.to/lastmile_qr_scan", "ios": "https://dc.lft.to/lastmile_qr_scan"}, "lat": 38.91817616666667, "is_reserved": 0, "is_disabled": 0, "fusion_lat": 0.0}, {"fusion_lon": 0.0, "bike_id": "aa956340d62c8d0c22bdfdab07130e6d", "name": "aa956340d62c8d0c22bdfdab07130e6d", "type": "electric_scooter", "lon": -77.00735583333334, "rental_uris": {"android": "https://dc.lft.to/lastmile_qr_scan", "ios": "https://dc.lft.to/lastmile_qr_scan"}, "lat": 38.87665883333333, "is_reserved": 0, "is_disabled": 0, "fusion_lat": 0.0}, {"fusion_lon": 0.0, "bike_id": "a84ab9c73925554ecc4a9a299773e69f", "name": "a84ab9c73925554ecc4a9a299773e69f", "type": "electric_scooter", "lon": -77.0326515, "rental_uris": {"android": "https://dc.lft.to/lastmile_qr_scan", "ios": "https://dc.lft.to/lastmile_qr_scan"}, "lat": 38.93211466666666, "is_reserved": 0, "is_disabled": 0, "fusion_lat": 0.0}, {"fusion_lon": 0.0, "bike_id": "469b398ec47b4d69d83f4e3d9bac2455", "name": "469b398ec47b4d69d83f4e3d9bac2455", "type": "electric_scooter", "lon": -77.02576716666667, "rental_uris": {"android": "https://dc.lft.to/lastmile_qr_scan", "ios": "https://dc.lft.to/lastmile_qr_scan"}, "lat": 38.9250955, "is_reserved": 0, "is_disabled": 0, "fusion_lat": 0.0}, {"fusion_lon": 0.0, "bike_id": "c8d2ef3e3c66b03e074a6fec55253228", "name": "c8d2ef3e3c66b03e074a6fec55253228", "type": "electric_scooter", "lon": -76.9978975, "rental_uris": {"android": "https://dc.lft.to/lastmile_qr_scan", "ios": "https://dc.lft.to/lastmile_qr_scan"}, "lat": 38.95334483333333, "is_reserved": 0, "is_disabled": 0, "fusion_lat": 0.0}, {"fusion_lon": 0.0, "bike_id": "4ede9892fe04818a8aa912d57b227b04", "name": "4ede9892fe04818a8aa912d57b227b04", "type": "electric_bike", "lon": -76.982091, "rental_uris": {"android": "https://dc.lft.to/lastmile_qr_scan", "ios": "https://dc.lft.to/lastmile_qr_scan"}, "lat": 38.985049333333336, "is_reserved": 0, "is_disabled": 0, "fusion_lat": 0.0}, {"fusion_lon": 0.0, "bike_id": "9e1c5ea8e120f451b183033cb5e8d719", "name": "9e1c5ea8e120f451b183033cb5e8d719", "type": "electric_scooter", "lon": -77.0542815, "rental_uris": {"android": "https://dc.lft.to/lastmile_qr_scan", "ios": "https://dc.lft.to/lastmile_qr_scan"}, "lat": 38.92806383333333, "is_reserved": 0, "is_disabled": 0, "fusion_lat": 0.0}, {"fusion_lon": 0.0, "bike_id": "f4ebb712238f7ae77374796460cd2671", "name": "f4ebb712238f7ae77374796460cd2671", "type": "electric_scooter", "lon": -77.02408766666667, "rental_uris": {"android": "https://dc.lft.to/lastmile_qr_scan", "ios": "https://dc.lft.to/lastmile_qr_scan"}, "lat": 38.901066166666666, "is_reserved": 0, "is_disabled": 0, "fusion_lat": 0.0}, {"fusion_lon": 0.0, "bike_id": "1e1a3795fd642adec2412e452f1bd375", "name": "1e1a3795fd642adec2412e452f1bd375", "type": "electric_bike", "lon": -76.91660233333333, "rental_uris": {"android": "https://dc.lft.to/lastmile_qr_scan", "ios": "https://dc.lft.to/lastmile_qr_scan"}, "lat": 38.868601, "is_reserved": 0, "is_disabled": 0, "fusion_lat": 0.0}, {"fusion_lon": 0.0, "bike_id": "d110f65c763540bba8de5b8528e38fbc", "name": "d110f65c763540bba8de5b8528e38fbc", "type": "electric_scooter", "lon": -77.0384975, "rental_uris": {"android": "https://dc.lft.to/lastmile_qr_scan", "ios": "https://dc.lft.to/lastmile_qr_scan"}, "lat": 38.912103333333334, "is_reserved": 0, "is_disabled": 0, "fusion_lat": 0.0}, {"fusion_lon": 0.0, "bike_id": "0679d4fc7b3f33474b0dfa11000837d6", "name": "0679d4fc7b3f33474b0dfa11000837d6", "type": "electric_scooter", "lon": -77.02580983333333, "rental_uris": {"android": "https://dc.lft.to/lastmile_qr_scan", "ios": "https://dc.lft.to/lastmile_qr_scan"}, "lat": 38.925124833333335, "is_reserved": 0, "is_disabled": 0, "fusion_lat": 0.0}, {"fusion_lon": 0.0, "bike_id": "33bcd9c7993eafb351aaaca2d9391623", "name": "33bcd9c7993eafb351aaaca2d9391623", "type": "electric_bike", "lon": -77.041285, "rental_uris": {"android": "https://dc.lft.to/lastmile_qr_scan", "ios": "https://dc.lft.to/lastmile_qr_scan"}, "lat": 38.9103795, "is_reserved": 0, "is_disabled": 0, "fusion_lat": 0.0}, {"fusion_lon": 0.0, "bike_id": "2f53d0e649895f14a635ffbc62a8efd0", "name": "2f53d0e649895f14a635ffbc62a8efd0", "type": "electric_scooter", "lon": -77.02580633333334, "rental_uris": {"android": "https://dc.lft.to/lastmile_qr_scan", "ios": "https://dc.lft.to/lastmile_qr_scan"}, "lat": 38.89512766666667, "is_reserved": 0, "is_disabled": 0, "fusion_lat": 0.0}, {"fusion_lon": 0.0, "bike_id": "56325b3baff430081fa3ce15d2f60196", "name": "56325b3baff430081fa3ce15d2f60196", "type": "electric_scooter", "lon": -77.04197866666667, "rental_uris": {"android": "https://dc.lft.to/lastmile_qr_scan", "ios": "https://dc.lft.to/lastmile_qr_scan"}, "lat": 38.92337466666667, "is_reserved": 0, "is_disabled": 0, "fusion_lat": 0.0}, {"fusion_lon": 0.0, "bike_id": "e778e6cdfcac6cd904d4f05c7df3f89c", "name": "e778e6cdfcac6cd904d4f05c7df3f89c", "type": "electric_scooter", "lon": -77.04896966666666, "rental_uris": {"android": "https://dc.lft.to/lastmile_qr_scan", "ios": "https://dc.lft.to/lastmile_qr_scan"}, "lat": 38.903576666666666, "is_reserved": 0, "is_disabled": 0, "fusion_lat": 0.0}, {"fusion_lon": 0.0, "bike_id": "22a444278c21bfeb3e2dd564546c87ed", "name": "22a444278c21bfeb3e2dd564546c87ed", "type": "electric_scooter", "lon": -77.07124566666667, "rental_uris": {"android": "https://dc.lft.to/lastmile_qr_scan", "ios": "https://dc.lft.to/lastmile_qr_scan"}, "lat": 38.91977983333334, "is_reserved": 0, "is_disabled": 0, "fusion_lat": 0.0}, {"fusion_lon": 0.0, "bike_id": "d6017720f813adac0eb101562c33e0be", "name": "d6017720f813adac0eb101562c33e0be", "type": "electric_scooter", "lon": -76.94248916666666, "rental_uris": {"android": "https://dc.lft.to/lastmile_qr_scan", "ios": "https://dc.lft.to/lastmile_qr_scan"}, "lat": 38.89684116666667, "is_reserved": 0, "is_disabled": 0, "fusion_lat": 0.0}, {"fusion_lon": 0.0, "bike_id": "c9a27ee57ae35c27468b9a17922af8c5", "name": "c9a27ee57ae35c27468b9a17922af8c5", "type": "electric_scooter", "lon": -77.002122, "rental_uris": {"android": "https://dc.lft.to/lastmile_qr_scan", "ios": "https://dc.lft.to/lastmile_qr_scan"}, "lat": 38.89090916666667, "is_reserved": 0, "is_disabled": 0, "fusion_lat": 0.0}, {"fusion_lon": 0.0, "bike_id": "cfba328e84f3db3c6b2018d989327fec", "name": "cfba328e84f3db3c6b2018d989327fec", "type": "electric_scooter", "lon": -76.92215983333334, "rental_uris": {"android": "https://dc.lft.to/lastmile_qr_scan", "ios": "https://dc.lft.to/lastmile_qr_scan"}, "lat": 38.89940033333333, "is_reserved": 0, "is_disabled": 0, "fusion_lat": 0.0}, {"fusion_lon": 0.0, "bike_id": "189348f785913dc932014d414f878db2", "name": "189348f785913dc932014d414f878db2", "type": "electric_scooter", "lon": -77.024001, "rental_uris": {"android": "https://dc.lft.to/lastmile_qr_scan", "ios": "https://dc.lft.to/lastmile_qr_scan"}, "lat": 38.915079, "is_reserved": 0, "is_disabled": 0, "fusion_lat": 0.0}, {"fusion_lon": 0.0, "bike_id": "9712ec8dabc8559c16ad7046db24409f", "name": "9712ec8dabc8559c16ad7046db24409f", "type": "electric_scooter", "lon": -77.040041, "rental_uris": {"android": "https://dc.lft.to/lastmile_qr_scan", "ios": "https://dc.lft.to/lastmile_qr_scan"}, "lat": 38.91305083333334, "is_reserved": 0, "is_disabled": 0, "fusion_lat": 0.0}, {"fusion_lon": 0.0, "bike_id": "0c4d170a2b92515f5135a049422d2790", "name": "0c4d170a2b92515f5135a049422d2790", "type": "electric_bike", "lon": -77.12264983333333, "rental_uris": {"android": "https://dc.lft.to/lastmile_qr_scan", "ios": "https://dc.lft.to/lastmile_qr_scan"}, "lat": 38.897355, "is_reserved": 0, "is_disabled": 0, "fusion_lat": 0.0}, {"fusion_lon": 0.0, "bike_id": "88cd2d96a149dc3fac6d1dd6d1651388", "name": "88cd2d96a149dc3fac6d1dd6d1651388", "type": "electric_scooter", "lon": -77.03337416666666, "rental_uris": {"android": "https://dc.lft.to/lastmile_qr_scan", "ios": "https://dc.lft.to/lastmile_qr_scan"}, "lat": 38.89823116666667, "is_reserved": 0, "is_disabled": 0, "fusion_lat": 0.0}, {"fusion_lon": 0.0, "bike_id": "230abc5ef43b9e2c9a8111159f8f46bb", "name": "230abc5ef43b9e2c9a8111159f8f46bb", "type": "electric_scooter", "lon": -77.0239705, "rental_uris": {"android": "https://dc.lft.to/lastmile_qr_scan", "ios": "https://dc.lft.to/lastmile_qr_scan"}, "lat": 38.9058835, "is_reserved": 0, "is_disabled": 0, "fusion_lat": 0.0}, {"fusion_lon": 0.0, "bike_id": "d7f3e8a514e8679e532e85a9857ae11a", "name": "d7f3e8a514e8679e532e85a9857ae11a", "type": "electric_bike", "lon": -77.08573533333333, "rental_uris": {"android": "https://dc.lft.to/lastmile_qr_scan", "ios": "https://dc.lft.to/lastmile_qr_scan"}, "lat": 38.874151499999996, "is_reserved": 0, "is_disabled": 0, "fusion_lat": 0.0}, {"fusion_lon": 0.0, "bike_id": "78642888cb51ae68c678e9a32c1fe73d", "name": "78642888cb51ae68c678e9a32c1fe73d", "type": "electric_scooter", "lon": -77.040377, "rental_uris": {"android": "https://dc.lft.to/lastmile_qr_scan", "ios": "https://dc.lft.to/lastmile_qr_scan"}, "lat": 38.904897, "is_reserved": 0, "is_disabled": 0, "fusion_lat": 0.0}, {"fusion_lon": 0.0, "bike_id": "f3aa313b88da2c83f55994ec6e6011d4", "name": "f3aa313b88da2c83f55994ec6e6011d4", "type": "electric_bike", "lon": -76.97955216666666, "rental_uris": {"android": "https://dc.lft.to/lastmile_qr_scan", "ios": "https://dc.lft.to/lastmile_qr_scan"}, "lat": 38.95238166666667, "is_reserved": 0, "is_disabled": 0, "fusion_lat": 0.0}, {"fusion_lon": 0.0, "bike_id": "eba4c0f3c2dfdfd721640b4e4c847d5c", "name": "eba4c0f3c2dfdfd721640b4e4c847d5c", "type": "electric_scooter", "lon": -77.027968, "rental_uris": {"android": "https://dc.lft.to/lastmile_qr_scan", "ios": "https://dc.lft.to/lastmile_qr_scan"}, "lat": 38.930828166666664, "is_reserved": 0, "is_disabled": 0, "fusion_lat": 0.0}, {"fusion_lon": 0.0, "bike_id": "52c74b290d6a028ea0830ec4629080b4", "name": "52c74b290d6a028ea0830ec4629080b4", "type": "electric_scooter", "lon": -77.04030166666666, "rental_uris": {"android": "https://dc.lft.to/lastmile_qr_scan", "ios": "https://dc.lft.to/lastmile_qr_scan"}, "lat": 38.90006833333333, "is_reserved": 0, "is_disabled": 0, "fusion_lat": 0.0}, {"fusion_lon": 0.0, "bike_id": "9b642591bf4ef5a8f571fc3a99a345e4", "name": "9b642591bf4ef5a8f571fc3a99a345e4", "type": "electric_scooter", "lon": -77.031721, "rental_uris": {"android": "https://dc.lft.to/lastmile_qr_scan", "ios": "https://dc.lft.to/lastmile_qr_scan"}, "lat": 38.91935266666667, "is_reserved": 0, "is_disabled": 0, "fusion_lat": 0.0}, {"fusion_lon": 0.0, "bike_id": "ac2d650c4eb0d39bd96a6e05fe3bf032", "name": "ac2d650c4eb0d39bd96a6e05fe3bf032", "type": "electric_bike", "lon": -77.12624416666667, "rental_uris": {"android": "https://dc.lft.to/lastmile_qr_scan", "ios": "https://dc.lft.to/lastmile_qr_scan"}, "lat": 39.05814916666667, "is_reserved": 0, "is_disabled": 0, "fusion_lat": 0.0}, {"fusion_lon": 0.0, "bike_id": "e5752ca3dfd2945c84be76a9f8acabfb", "name": "e5752ca3dfd2945c84be76a9f8acabfb", "type": "electric_scooter", "lon": -77.00759933333333, "rental_uris": {"android": "https://dc.lft.to/lastmile_qr_scan", "ios": "https://dc.lft.to/lastmile_qr_scan"}, "lat": 38.915540166666666, "is_reserved": 0, "is_disabled": 0, "fusion_lat": 0.0}, {"fusion_lon": 0.0, "bike_id": "d91b1cc5c9e7d42e46e520349c08512b", "name": "d91b1cc5c9e7d42e46e520349c08512b", "type": "electric_scooter", "lon": -77.02378233333333, "rental_uris": {"android": "https://dc.lft.to/lastmile_qr_scan", "ios": "https://dc.lft.to/lastmile_qr_scan"}, "lat": 38.907302333333334, "is_reserved": 0, "is_disabled": 0, "fusion_lat": 0.0}, {"fusion_lon": 0.0, "bike_id": "95e434a35a8cc34d28c41220aea7a276", "name": "95e434a35a8cc34d28c41220aea7a276", "type": "electric_scooter", "lon": -77.04164966666667, "rental_uris": {"android": "https://dc.lft.to/lastmile_qr_scan", "ios": "https://dc.lft.to/lastmile_qr_scan"}, "lat": 38.90931166666667, "is_reserved": 0, "is_disabled": 0, "fusion_lat": 0.0}, {"fusion_lon": 0.0, "bike_id": "c56d5ae54f6e676c207d9c37a9aa1d78", "name": "c56d5ae54f6e676c207d9c37a9aa1d78", "type": "electric_scooter", "lon": -77.03349816666666, "rental_uris": {"android": "https://dc.lft.to/lastmile_qr_scan", "ios": "https://dc.lft.to/lastmile_qr_scan"}, "lat": 38.922338, "is_reserved": 0, "is_disabled": 0, "fusion_lat": 0.0}, {"fusion_lon": 0.0, "bike_id": "1f986bef5374c1053d4ce69171bf24da", "name": "1f986bef5374c1053d4ce69171bf24da", "type": "electric_scooter", "lon": -76.98858366666667, "rental_uris": {"android": "https://dc.lft.to/lastmile_qr_scan", "ios": "https://dc.lft.to/lastmile_qr_scan"}, "lat": 38.907036, "is_reserved": 0, "is_disabled": 0, "fusion_lat": 0.0}, {"fusion_lon": 0.0, "bike_id": "8250fdf304065ed1fe0d442e4f121efa", "name": "8250fdf304065ed1fe0d442e4f121efa", "type": "electric_scooter", "lon": -77.02956333333333, "rental_uris": {"android": "https://dc.lft.to/lastmile_qr_scan", "ios": "https://dc.lft.to/lastmile_qr_scan"}, "lat": 38.892271, "is_reserved": 0, "is_disabled": 0, "fusion_lat": 0.0}, {"fusion_lon": 0.0, "bike_id": "af68922b647ff0202f36fb372a4c46d4", "name": "af68922b647ff0202f36fb372a4c46d4", "type": "electric_scooter", "lon": -76.99816333333334, "rental_uris": {"android": "https://dc.lft.to/lastmile_qr_scan", "ios": "https://dc.lft.to/lastmile_qr_scan"}, "lat": 38.8443775, "is_reserved": 0, "is_disabled": 0, "fusion_lat": 0.0}, {"fusion_lon": 0.0, "bike_id": "1662ef8b855c2c04066ad369599e2d9b", "name": "1662ef8b855c2c04066ad369599e2d9b", "type": "electric_scooter", "lon": -77.03844733333334, "rental_uris": {"android": "https://dc.lft.to/lastmile_qr_scan", "ios": "https://dc.lft.to/lastmile_qr_scan"}, "lat": 38.9120755, "is_reserved": 0, "is_disabled": 0, "fusion_lat": 0.0}, {"fusion_lon": 0.0, "bike_id": "9c9b8ace6146044c35d4e26c4c522aad", "name": "9c9b8ace6146044c35d4e26c4c522aad", "type": "electric_bike", "lon": -77.17846233333333, "rental_uris": {"android": "https://dc.lft.to/lastmile_qr_scan", "ios": "https://dc.lft.to/lastmile_qr_scan"}, "lat": 39.08909933333333, "is_reserved": 0, "is_disabled": 0, "fusion_lat": 0.0}, {"fusion_lon": 0.0, "bike_id": "8f03c2f7a2626f5943025c793b52df1e", "name": "8f03c2f7a2626f5943025c793b52df1e", "type": "electric_scooter", "lon": -77.0175895, "rental_uris": {"android": "https://dc.lft.to/lastmile_qr_scan", "ios": "https://dc.lft.to/lastmile_qr_scan"}, "lat": 38.9167385, "is_reserved": 0, "is_disabled": 0, "fusion_lat": 0.0}, {"fusion_lon": 0.0, "bike_id": "106a3a9de504714bb856c913391e4418", "name": "106a3a9de504714bb856c913391e4418", "type": "electric_bike", "lon": -77.0430545, "rental_uris": {"android": "https://dc.lft.to/lastmile_qr_scan", "ios": "https://dc.lft.to/lastmile_qr_scan"}, "lat": 39.05447683333333, "is_reserved": 0, "is_disabled": 0, "fusion_lat": 0.0}, {"fusion_lon": 0.0, "bike_id": "96abae5656e6a8cf0d432aeec4eb2aba", "name": "96abae5656e6a8cf0d432aeec4eb2aba", "type": "electric_scooter", "lon": -77.036514, "rental_uris": {"android": "https://dc.lft.to/lastmile_qr_scan", "ios": "https://dc.lft.to/lastmile_qr_scan"}, "lat": 38.90300466666667, "is_reserved": 0, "is_disabled": 0, "fusion_lat": 0.0}, {"fusion_lon": 0.0, "bike_id": "fbfe66326dc3adbec5420732e52e8aa8", "name": "fbfe66326dc3adbec5420732e52e8aa8", "type": "electric_scooter", "lon": -76.9865835, "rental_uris": {"android": "https://dc.lft.to/lastmile_qr_scan", "ios": "https://dc.lft.to/lastmile_qr_scan"}, "lat": 38.90141533333333, "is_reserved": 0, "is_disabled": 0, "fusion_lat": 0.0}, {"fusion_lon": 0.0, "bike_id": "571ad6cc0635066eb3fcb11cec9ba535", "name": "571ad6cc0635066eb3fcb11cec9ba535", "type": "electric_scooter", "lon": -77.00566883333333, "rental_uris": {"android": "https://dc.lft.to/lastmile_qr_scan", "ios": "https://dc.lft.to/lastmile_qr_scan"}, "lat": 38.8850375, "is_reserved": 0, "is_disabled": 0, "fusion_lat": 0.0}, {"fusion_lon": 0.0, "bike_id": "663007db0a010742c1f43b0906609a1b", "name": "663007db0a010742c1f43b0906609a1b", "type": "electric_scooter", "lon": -77.02531666666667, "rental_uris": {"android": "https://dc.lft.to/lastmile_qr_scan", "ios": "https://dc.lft.to/lastmile_qr_scan"}, "lat": 38.900852, "is_reserved": 0, "is_disabled": 0, "fusion_lat": 0.0}, {"fusion_lon": 0.0, "bike_id": "46a959de84f95939cfd91a3f68d0fde6", "name": "46a959de84f95939cfd91a3f68d0fde6", "type": "electric_scooter", "lon": -77.02171216666666, "rental_uris": {"android": "https://dc.lft.to/lastmile_qr_scan", "ios": "https://dc.lft.to/lastmile_qr_scan"}, "lat": 38.9430015, "is_reserved": 0, "is_disabled": 0, "fusion_lat": 0.0}, {"fusion_lon": 0.0, "bike_id": "8a53fc9d36c3f5395afc232975c219fd", "name": "8a53fc9d36c3f5395afc232975c219fd", "type": "electric_scooter", "lon": -77.03205, "rental_uris": {"android": "https://dc.lft.to/lastmile_qr_scan", "ios": "https://dc.lft.to/lastmile_qr_scan"}, "lat": 38.91925416666667, "is_reserved": 0, "is_disabled": 0, "fusion_lat": 0.0}, {"fusion_lon": 0.0, "bike_id": "e24ff09e9054210b3c1c153480de1b04", "name": "e24ff09e9054210b3c1c153480de1b04", "type": "electric_scooter", "lon": -77.00099583333333, "rental_uris": {"android": "https://dc.lft.to/lastmile_qr_scan", "ios": "https://dc.lft.to/lastmile_qr_scan"}, "lat": 38.8974165, "is_reserved": 0, "is_disabled": 0, "fusion_lat": 0.0}, {"fusion_lon": 0.0, "bike_id": "78523d10503d5ee75011cad81a7ca77a", "name": "78523d10503d5ee75011cad81a7ca77a", "type": "electric_bike", "lon": -77.023846, "rental_uris": {"android": "https://dc.lft.to/lastmile_qr_scan", "ios": "https://dc.lft.to/lastmile_qr_scan"}, "lat": 38.90095433333333, "is_reserved": 0, "is_disabled": 0, "fusion_lat": 0.0}, {"fusion_lon": 0.0, "bike_id": "03c1918377a8880f5a2608ea5006e442", "name": "03c1918377a8880f5a2608ea5006e442", "type": "electric_bike", "lon": -77.13230833333333, "rental_uris": {"android": "https://dc.lft.to/lastmile_qr_scan", "ios": "https://dc.lft.to/lastmile_qr_scan"}, "lat": 38.869757166666666, "is_reserved": 0, "is_disabled": 0, "fusion_lat": 0.0}, {"fusion_lon": 0.0, "bike_id": "a901b0f4d2a49712563875b617927276", "name": "a901b0f4d2a49712563875b617927276", "type": "electric_scooter", "lon": -77.07167866666667, "rental_uris": {"android": "https://dc.lft.to/lastmile_qr_scan", "ios": "https://dc.lft.to/lastmile_qr_scan"}, "lat": 38.9078, "is_reserved": 0, "is_disabled": 0, "fusion_lat": 0.0}, {"fusion_lon": 0.0, "bike_id": "8629f77759c88a07821eafba78898566", "name": "8629f77759c88a07821eafba78898566", "type": "electric_scooter", "lon": -77.00374016666666, "rental_uris": {"android": "https://dc.lft.to/lastmile_qr_scan", "ios": "https://dc.lft.to/lastmile_qr_scan"}, "lat": 38.877574833333334, "is_reserved": 0, "is_disabled": 0, "fusion_lat": 0.0}, {"fusion_lon": 0.0, "bike_id": "a8b0a8246b1dbd6fac68907bb6c6698c", "name": "a8b0a8246b1dbd6fac68907bb6c6698c", "type": "electric_scooter", "lon": -77.04658833333333, "rental_uris": {"android": "https://dc.lft.to/lastmile_qr_scan", "ios": "https://dc.lft.to/lastmile_qr_scan"}, "lat": 38.90416183333333, "is_reserved": 0, "is_disabled": 0, "fusion_lat": 0.0}, {"fusion_lon": 0.0, "bike_id": "3558f9b7b2e8a8dec391b603d56e6727", "name": "3558f9b7b2e8a8dec391b603d56e6727", "type": "electric_scooter", "lon": -77.03334916666667, "rental_uris": {"android": "https://dc.lft.to/lastmile_qr_scan", "ios": "https://dc.lft.to/lastmile_qr_scan"}, "lat": 38.898250833333336, "is_reserved": 0, "is_disabled": 0, "fusion_lat": 0.0}, {"fusion_lon": 0.0, "bike_id": "144da44fe832ca7e31bcc7e43e490e3a", "name": "144da44fe832ca7e31bcc7e43e490e3a", "type": "electric_scooter", "lon": -77.00738983333333, "rental_uris": {"android": "https://dc.lft.to/lastmile_qr_scan", "ios": "https://dc.lft.to/lastmile_qr_scan"}, "lat": 38.876486166666666, "is_reserved": 0, "is_disabled": 0, "fusion_lat": 0.0}, {"fusion_lon": 0.0, "bike_id": "12eaaf7ed86a69da47b24c7a3d132165", "name": "12eaaf7ed86a69da47b24c7a3d132165", "type": "electric_scooter", "lon": -77.01114716666666, "rental_uris": {"android": "https://dc.lft.to/lastmile_qr_scan", "ios": "https://dc.lft.to/lastmile_qr_scan"}, "lat": 38.894997833333335, "is_reserved": 0, "is_disabled": 0, "fusion_lat": 0.0}, {"fusion_lon": 0.0, "bike_id": "d4fae4c384482d7f99acaf8e192474fa", "name": "d4fae4c384482d7f99acaf8e192474fa", "type": "electric_scooter", "lon": -77.02311766666666, "rental_uris": {"android": "https://dc.lft.to/lastmile_qr_scan", "ios": "https://dc.lft.to/lastmile_qr_scan"}, "lat": 38.91771033333333, "is_reserved": 0, "is_disabled": 0, "fusion_lat": 0.0}, {"fusion_lon": 0.0, "bike_id": "126336f13e994fca19ece198004f25e5", "name": "126336f13e994fca19ece198004f25e5", "type": "electric_scooter", "lon": -77.02714333333333, "rental_uris": {"android": "https://dc.lft.to/lastmile_qr_scan", "ios": "https://dc.lft.to/lastmile_qr_scan"}, "lat": 38.90754533333333, "is_reserved": 0, "is_disabled": 0, "fusion_lat": 0.0}, {"fusion_lon": 0.0, "bike_id": "4fa1cc1da2895ba58345ecc3b40710d2", "name": "4fa1cc1da2895ba58345ecc3b40710d2", "type": "electric_scooter", "lon": -77.01589466666667, "rental_uris": {"android": "https://dc.lft.to/lastmile_qr_scan", "ios": "https://dc.lft.to/lastmile_qr_scan"}, "lat": 38.8972955, "is_reserved": 0, "is_disabled": 0, "fusion_lat": 0.0}, {"fusion_lon": 0.0, "bike_id": "a1cda6125f2b5ca4b2a11f5ec097ee45", "name": "a1cda6125f2b5ca4b2a11f5ec097ee45", "type": "electric_scooter", "lon": -77.02716816666667, "rental_uris": {"android": "https://dc.lft.to/lastmile_qr_scan", "ios": "https://dc.lft.to/lastmile_qr_scan"}, "lat": 38.9067025, "is_reserved": 0, "is_disabled": 0, "fusion_lat": 0.0}, {"fusion_lon": 0.0, "bike_id": "df4c7d22313e13f5e15775899395a39f", "name": "df4c7d22313e13f5e15775899395a39f", "type": "electric_scooter", "lon": -77.06158983333333, "rental_uris": {"android": "https://dc.lft.to/lastmile_qr_scan", "ios": "https://dc.lft.to/lastmile_qr_scan"}, "lat": 38.9423265, "is_reserved": 0, "is_disabled": 0, "fusion_lat": 0.0}, {"fusion_lon": 0.0, "bike_id": "638f0d37a8b4d5ade0abb1890c869717", "name": "638f0d37a8b4d5ade0abb1890c869717", "type": "electric_scooter", "lon": -76.9315965, "rental_uris": {"android": "https://dc.lft.to/lastmile_qr_scan", "ios": "https://dc.lft.to/lastmile_qr_scan"}, "lat": 38.898840666666665, "is_reserved": 0, "is_disabled": 0, "fusion_lat": 0.0}, {"fusion_lon": 0.0, "bike_id": "f0d256b22c4347f15f883b009bf30c4a", "name": "f0d256b22c4347f15f883b009bf30c4a", "type": "electric_scooter", "lon": -77.00485566666667, "rental_uris": {"android": "https://dc.lft.to/lastmile_qr_scan", "ios": "https://dc.lft.to/lastmile_qr_scan"}, "lat": 38.9259365, "is_reserved": 0, "is_disabled": 0, "fusion_lat": 0.0}, {"fusion_lon": 0.0, "bike_id": "f7c7c5b75adf2ba2d6e80972ddc6253b", "name": "f7c7c5b75adf2ba2d6e80972ddc6253b", "type": "electric_scooter", "lon": -76.94118116666667, "rental_uris": {"android": "https://dc.lft.to/lastmile_qr_scan", "ios": "https://dc.lft.to/lastmile_qr_scan"}, "lat": 38.90796516666666, "is_reserved": 0, "is_disabled": 0, "fusion_lat": 0.0}, {"fusion_lon": 0.0, "bike_id": "5d001f1afd697977f99b06f642f9d7cc", "name": "5d001f1afd697977f99b06f642f9d7cc", "type": "electric_scooter", "lon": -77.007588, "rental_uris": {"android": "https://dc.lft.to/lastmile_qr_scan", "ios": "https://dc.lft.to/lastmile_qr_scan"}, "lat": 38.900446333333335, "is_reserved": 0, "is_disabled": 0, "fusion_lat": 0.0}, {"fusion_lon": 0.0, "bike_id": "35305bd1787c1ded2f8a5d4722dcab65", "name": "35305bd1787c1ded2f8a5d4722dcab65", "type": "electric_scooter", "lon": -77.02714066666667, "rental_uris": {"android": "https://dc.lft.to/lastmile_qr_scan", "ios": "https://dc.lft.to/lastmile_qr_scan"}, "lat": 38.91730966666667, "is_reserved": 0, "is_disabled": 0, "fusion_lat": 0.0}, {"fusion_lon": 0.0, "bike_id": "d065a787235f92be937498c7fb46bfeb", "name": "d065a787235f92be937498c7fb46bfeb", "type": "electric_scooter", "lon": -76.98683916666667, "rental_uris": {"android": "https://dc.lft.to/lastmile_qr_scan", "ios": "https://dc.lft.to/lastmile_qr_scan"}, "lat": 38.855687333333336, "is_reserved": 0, "is_disabled": 0, "fusion_lat": 0.0}, {"fusion_lon": 0.0, "bike_id": "ce5ab3f49066c093975ebe6e17296635", "name": "ce5ab3f49066c093975ebe6e17296635", "type": "electric_scooter", "lon": -77.01259316666666, "rental_uris": {"android": "https://dc.lft.to/lastmile_qr_scan", "ios": "https://dc.lft.to/lastmile_qr_scan"}, "lat": 38.874888166666665, "is_reserved": 0, "is_disabled": 0, "fusion_lat": 0.0}, {"fusion_lon": 0.0, "bike_id": "fd21cc993230ee804d72deb85dfee6f2", "name": "fd21cc993230ee804d72deb85dfee6f2", "type": "electric_scooter", "lon": -77.02648483333333, "rental_uris": {"android": "https://dc.lft.to/lastmile_qr_scan", "ios": "https://dc.lft.to/lastmile_qr_scan"}, "lat": 38.902697833333335, "is_reserved": 0, "is_disabled": 0, "fusion_lat": 0.0}, {"fusion_lon": 0.0, "bike_id": "10b702738c024a8c7ceee3572f3da051", "name": "10b702738c024a8c7ceee3572f3da051", "type": "electric_scooter", "lon": -77.02104233333333, "rental_uris": {"android": "https://dc.lft.to/lastmile_qr_scan", "ios": "https://dc.lft.to/lastmile_qr_scan"}, "lat": 38.89749966666667, "is_reserved": 0, "is_disabled": 0, "fusion_lat": 0.0}, {"fusion_lon": 0.0, "bike_id": "7c6258a94a61a8b9fbb3b3ae54c6da4b", "name": "7c6258a94a61a8b9fbb3b3ae54c6da4b", "type": "electric_bike", "lon": -77.12745483333333, "rental_uris": {"android": "https://dc.lft.to/lastmile_qr_scan", "ios": "https://dc.lft.to/lastmile_qr_scan"}, "lat": 38.8882655, "is_reserved": 0, "is_disabled": 0, "fusion_lat": 0.0}, {"fusion_lon": 0.0, "bike_id": "d731664333b45d6ed9135b8d86b04ced", "name": "d731664333b45d6ed9135b8d86b04ced", "type": "electric_scooter", "lon": -77.01505983333334, "rental_uris": {"android": "https://dc.lft.to/lastmile_qr_scan", "ios": "https://dc.lft.to/lastmile_qr_scan"}, "lat": 38.88484583333333, "is_reserved": 0, "is_disabled": 0, "fusion_lat": 0.0}, {"fusion_lon": 0.0, "bike_id": "f65b2cbe9b01a4d6a5bef24550442c3e", "name": "f65b2cbe9b01a4d6a5bef24550442c3e", "type": "electric_scooter", "lon": -76.98771816666667, "rental_uris": {"android": "https://dc.lft.to/lastmile_qr_scan", "ios": "https://dc.lft.to/lastmile_qr_scan"}, "lat": 38.9120355, "is_reserved": 0, "is_disabled": 0, "fusion_lat": 0.0}, {"fusion_lon": 0.0, "bike_id": "d7ea8f6ee02bab854b8cecfb75ff6845", "name": "d7ea8f6ee02bab854b8cecfb75ff6845", "type": "electric_scooter", "lon": -77.02427983333334, "rental_uris": {"android": "https://dc.lft.to/lastmile_qr_scan", "ios": "https://dc.lft.to/lastmile_qr_scan"}, "lat": 38.92757366666667, "is_reserved": 0, "is_disabled": 0, "fusion_lat": 0.0}, {"fusion_lon": 0.0, "bike_id": "c22dd7ee1a51fd65a966d75b7c5fb2dd", "name": "c22dd7ee1a51fd65a966d75b7c5fb2dd", "type": "electric_scooter", "lon": -77.00579683333333, "rental_uris": {"android": "https://dc.lft.to/lastmile_qr_scan", "ios": "https://dc.lft.to/lastmile_qr_scan"}, "lat": 38.871765833333335, "is_reserved": 0, "is_disabled": 0, "fusion_lat": 0.0}, {"fusion_lon": 0.0, "bike_id": "5420a7eb488fe8fb32eebba8e289a34d", "name": "5420a7eb488fe8fb32eebba8e289a34d", "type": "electric_scooter", "lon": -77.01308, "rental_uris": {"android": "https://dc.lft.to/lastmile_qr_scan", "ios": "https://dc.lft.to/lastmile_qr_scan"}, "lat": 38.901424, "is_reserved": 0, "is_disabled": 0, "fusion_lat": 0.0}, {"fusion_lon": 0.0, "bike_id": "8b1e7d5fbbe7b08c6f1d4e08f5bec987", "name": "8b1e7d5fbbe7b08c6f1d4e08f5bec987", "type": "electric_scooter", "lon": -77.02202116666666, "rental_uris": {"android": "https://dc.lft.to/lastmile_qr_scan", "ios": "https://dc.lft.to/lastmile_qr_scan"}, "lat": 38.91530866666667, "is_reserved": 0, "is_disabled": 0, "fusion_lat": 0.0}, {"fusion_lon": 0.0, "bike_id": "58e777cb89db75f46299cc6fbf2002f4", "name": "58e777cb89db75f46299cc6fbf2002f4", "type": "electric_scooter", "lon": -77.02217733333333, "rental_uris": {"android": "https://dc.lft.to/lastmile_qr_scan", "ios": "https://dc.lft.to/lastmile_qr_scan"}, "lat": 38.896130666666664, "is_reserved": 0, "is_disabled": 0, "fusion_lat": 0.0}, {"fusion_lon": 0.0, "bike_id": "bf4d149d75cc610ff7767af6a1df2e81", "name": "bf4d149d75cc610ff7767af6a1df2e81", "type": "electric_scooter", "lon": -77.02407116666667, "rental_uris": {"android": "https://dc.lft.to/lastmile_qr_scan", "ios": "https://dc.lft.to/lastmile_qr_scan"}, "lat": 38.894435, "is_reserved": 0, "is_disabled": 0, "fusion_lat": 0.0}, {"fusion_lon": 0.0, "bike_id": "106188de32c5b2e4f1f7759408e4be43", "name": "106188de32c5b2e4f1f7759408e4be43", "type": "electric_scooter", "lon": -77.092022, "rental_uris": {"android": "https://dc.lft.to/lastmile_qr_scan", "ios": "https://dc.lft.to/lastmile_qr_scan"}, "lat": 38.917198666666664, "is_reserved": 0, "is_disabled": 0, "fusion_lat": 0.0}, {"fusion_lon": 0.0, "bike_id": "4f4ffe3cc209e9dab795cd2b51370b81", "name": "4f4ffe3cc209e9dab795cd2b51370b81", "type": "electric_bike", "lon": -76.90758066666666, "rental_uris": {"android": "https://dc.lft.to/lastmile_qr_scan", "ios": "https://dc.lft.to/lastmile_qr_scan"}, "lat": 38.92440166666667, "is_reserved": 0, "is_disabled": 0, "fusion_lat": 0.0}, {"fusion_lon": 0.0, "bike_id": "85b14a25ebcd70f1514fc11c6f166e9f", "name": "85b14a25ebcd70f1514fc11c6f166e9f", "type": "electric_scooter", "lon": -77.004533, "rental_uris": {"android": "https://dc.lft.to/lastmile_qr_scan", "ios": "https://dc.lft.to/lastmile_qr_scan"}, "lat": 38.92897883333333, "is_reserved": 0, "is_disabled": 0, "fusion_lat": 0.0}, {"fusion_lon": 0.0, "bike_id": "3eb643e1ac44e34c19224e6781ecf1c3", "name": "3eb643e1ac44e34c19224e6781ecf1c3", "type": "electric_scooter", "lon": -77.03263683333333, "rental_uris": {"android": "https://dc.lft.to/lastmile_qr_scan", "ios": "https://dc.lft.to/lastmile_qr_scan"}, "lat": 38.935225333333335, "is_reserved": 0, "is_disabled": 0, "fusion_lat": 0.0}, {"fusion_lon": 0.0, "bike_id": "fe968b1b93fac03a80651b07929f9f8f", "name": "fe968b1b93fac03a80651b07929f9f8f", "type": "electric_scooter", "lon": -77.04686416666667, "rental_uris": {"android": "https://dc.lft.to/lastmile_qr_scan", "ios": "https://dc.lft.to/lastmile_qr_scan"}, "lat": 38.915874, "is_reserved": 0, "is_disabled": 0, "fusion_lat": 0.0}, {"fusion_lon": 0.0, "bike_id": "86fbd6f4b4b42fbed646d027ed793c8f", "name": "86fbd6f4b4b42fbed646d027ed793c8f", "type": "electric_scooter", "lon": -77.03945916666666, "rental_uris": {"android": "https://dc.lft.to/lastmile_qr_scan", "ios": "https://dc.lft.to/lastmile_qr_scan"}, "lat": 38.90437133333333, "is_reserved": 0, "is_disabled": 0, "fusion_lat": 0.0}, {"fusion_lon": 0.0, "bike_id": "5761cd82b30e8858c8fdf4562078f37f", "name": "5761cd82b30e8858c8fdf4562078f37f", "type": "electric_scooter", "lon": -77.03206683333333, "rental_uris": {"android": "https://dc.lft.to/lastmile_qr_scan", "ios": "https://dc.lft.to/lastmile_qr_scan"}, "lat": 38.89324666666667, "is_reserved": 0, "is_disabled": 0, "fusion_lat": 0.0}, {"fusion_lon": 0.0, "bike_id": "5949f49da3f225b28ccb3642aea26e7f", "name": "5949f49da3f225b28ccb3642aea26e7f", "type": "electric_scooter", "lon": -77.04395066666666, "rental_uris": {"android": "https://dc.lft.to/lastmile_qr_scan", "ios": "https://dc.lft.to/lastmile_qr_scan"}, "lat": 38.9111635, "is_reserved": 0, "is_disabled": 0, "fusion_lat": 0.0}, {"fusion_lon": 0.0, "bike_id": "855ac8f47cf77e58c1c5f2200776d900", "name": "855ac8f47cf77e58c1c5f2200776d900", "type": "electric_scooter", "lon": -77.021361, "rental_uris": {"android": "https://dc.lft.to/lastmile_qr_scan", "ios": "https://dc.lft.to/lastmile_qr_scan"}, "lat": 38.899670666666665, "is_reserved": 0, "is_disabled": 0, "fusion_lat": 0.0}, {"fusion_lon": 0.0, "bike_id": "368f6ff35af4bb04bfee7f9cb87f6d7b", "name": "368f6ff35af4bb04bfee7f9cb87f6d7b", "type": "electric_scooter", "lon": -77.0111215, "rental_uris": {"android": "https://dc.lft.to/lastmile_qr_scan", "ios": "https://dc.lft.to/lastmile_qr_scan"}, "lat": 38.89617466666667, "is_reserved": 0, "is_disabled": 0, "fusion_lat": 0.0}, {"fusion_lon": 0.0, "bike_id": "c3e1153b3c5beb6fddb47df172aee96f", "name": "c3e1153b3c5beb6fddb47df172aee96f", "type": "electric_scooter", "lon": -77.02685083333333, "rental_uris": {"android": "https://dc.lft.to/lastmile_qr_scan", "ios": "https://dc.lft.to/lastmile_qr_scan"}, "lat": 38.91259433333333, "is_reserved": 0, "is_disabled": 0, "fusion_lat": 0.0}, {"fusion_lon": 0.0, "bike_id": "397b9e4a4bdc281e6808ad82f6848df9", "name": "397b9e4a4bdc281e6808ad82f6848df9", "type": "electric_scooter", "lon": -77.00929883333333, "rental_uris": {"android": "https://dc.lft.to/lastmile_qr_scan", "ios": "https://dc.lft.to/lastmile_qr_scan"}, "lat": 38.8768215, "is_reserved": 0, "is_disabled": 0, "fusion_lat": 0.0}, {"fusion_lon": 0.0, "bike_id": "856ea22863b1431f7161f095fd474ab4", "name": "856ea22863b1431f7161f095fd474ab4", "type": "electric_bike", "lon": -76.92341766666667, "rental_uris": {"android": "https://dc.lft.to/lastmile_qr_scan", "ios": "https://dc.lft.to/lastmile_qr_scan"}, "lat": 38.88790866666667, "is_reserved": 0, "is_disabled": 0, "fusion_lat": 0.0}, {"fusion_lon": 0.0, "bike_id": "d504afd9fe4ec79721d41d0c8d42f719", "name": "d504afd9fe4ec79721d41d0c8d42f719", "type": "electric_scooter", "lon": -77.0326575, "rental_uris": {"android": "https://dc.lft.to/lastmile_qr_scan", "ios": "https://dc.lft.to/lastmile_qr_scan"}, "lat": 38.93523533333333, "is_reserved": 0, "is_disabled": 0, "fusion_lat": 0.0}, {"fusion_lon": 0.0, "bike_id": "ae952facfe15f0196122538f0967734b", "name": "ae952facfe15f0196122538f0967734b", "type": "electric_scooter", "lon": -77.030826, "rental_uris": {"android": "https://dc.lft.to/lastmile_qr_scan", "ios": "https://dc.lft.to/lastmile_qr_scan"}, "lat": 38.923801, "is_reserved": 0, "is_disabled": 0, "fusion_lat": 0.0}, {"fusion_lon": 0.0, "bike_id": "97ea354f5dbffe9a3fd4a3ebc525f33c", "name": "97ea354f5dbffe9a3fd4a3ebc525f33c", "type": "electric_scooter", "lon": -76.98549433333334, "rental_uris": {"android": "https://dc.lft.to/lastmile_qr_scan", "ios": "https://dc.lft.to/lastmile_qr_scan"}, "lat": 38.88001383333334, "is_reserved": 0, "is_disabled": 0, "fusion_lat": 0.0}, {"fusion_lon": 0.0, "bike_id": "13a59175e9f8eab8de5253a37d0ed1b0", "name": "13a59175e9f8eab8de5253a37d0ed1b0", "type": "electric_scooter", "lon": -77.00383716666667, "rental_uris": {"android": "https://dc.lft.to/lastmile_qr_scan", "ios": "https://dc.lft.to/lastmile_qr_scan"}, "lat": 38.905993, "is_reserved": 0, "is_disabled": 0, "fusion_lat": 0.0}, {"fusion_lon": 0.0, "bike_id": "cbd10235e65821f5ff2d662771fc6d4c", "name": "cbd10235e65821f5ff2d662771fc6d4c", "type": "electric_scooter", "lon": -77.03445033333334, "rental_uris": {"android": "https://dc.lft.to/lastmile_qr_scan", "ios": "https://dc.lft.to/lastmile_qr_scan"}, "lat": 38.904982, "is_reserved": 0, "is_disabled": 0, "fusion_lat": 0.0}, {"fusion_lon": 0.0, "bike_id": "ec6bb78a9d8bbac92faa722e52d47afd", "name": "ec6bb78a9d8bbac92faa722e52d47afd", "type": "electric_scooter", "lon": -77.01792216666666, "rental_uris": {"android": "https://dc.lft.to/lastmile_qr_scan", "ios": "https://dc.lft.to/lastmile_qr_scan"}, "lat": 38.941200333333335, "is_reserved": 0, "is_disabled": 0, "fusion_lat": 0.0}, {"fusion_lon": 0.0, "bike_id": "4560de1c9f0e057e5a776e862dd3001b", "name": "4560de1c9f0e057e5a776e862dd3001b", "type": "electric_scooter", "lon": -77.028772, "rental_uris": {"android": "https://dc.lft.to/lastmile_qr_scan", "ios": "https://dc.lft.to/lastmile_qr_scan"}, "lat": 38.922360166666664, "is_reserved": 0, "is_disabled": 0, "fusion_lat": 0.0}, {"fusion_lon": 0.0, "bike_id": "bbfca963f75041c6595cc9f4e0aada9b", "name": "bbfca963f75041c6595cc9f4e0aada9b", "type": "electric_scooter", "lon": -77.01177683333333, "rental_uris": {"android": "https://dc.lft.to/lastmile_qr_scan", "ios": "https://dc.lft.to/lastmile_qr_scan"}, "lat": 38.89741583333333, "is_reserved": 0, "is_disabled": 0, "fusion_lat": 0.0}, {"fusion_lon": 0.0, "bike_id": "cf94ed51a44b1da951c10b701e7b7db5", "name": "cf94ed51a44b1da951c10b701e7b7db5", "type": "electric_bike", "lon": -77.04901283333334, "rental_uris": {"android": "https://dc.lft.to/lastmile_qr_scan", "ios": "https://dc.lft.to/lastmile_qr_scan"}, "lat": 38.87493883333333, "is_reserved": 0, "is_disabled": 0, "fusion_lat": 0.0}, {"fusion_lon": 0.0, "bike_id": "986ca711af5015163fa0e6d3fe7080a2", "name": "986ca711af5015163fa0e6d3fe7080a2", "type": "electric_scooter", "lon": -77.030985, "rental_uris": {"android": "https://dc.lft.to/lastmile_qr_scan", "ios": "https://dc.lft.to/lastmile_qr_scan"}, "lat": 38.910995166666666, "is_reserved": 0, "is_disabled": 0, "fusion_lat": 0.0}, {"fusion_lon": 0.0, "bike_id": "804a162d3319e08c0e17856b6f041390", "name": "804a162d3319e08c0e17856b6f041390", "type": "electric_scooter", "lon": -77.0092625, "rental_uris": {"android": "https://dc.lft.to/lastmile_qr_scan", "ios": "https://dc.lft.to/lastmile_qr_scan"}, "lat": 38.898936666666664, "is_reserved": 0, "is_disabled": 0, "fusion_lat": 0.0}, {"fusion_lon": 0.0, "bike_id": "0961409b96f52e3b6ceb26b63ba1dfb9", "name": "0961409b96f52e3b6ceb26b63ba1dfb9", "type": "electric_scooter", "lon": -77.03049, "rental_uris": {"android": "https://dc.lft.to/lastmile_qr_scan", "ios": "https://dc.lft.to/lastmile_qr_scan"}, "lat": 38.88412683333333, "is_reserved": 0, "is_disabled": 0, "fusion_lat": 0.0}, {"fusion_lon": 0.0, "bike_id": "82e5fbc5559b18cfdf694c06cfc2b8ef", "name": "82e5fbc5559b18cfdf694c06cfc2b8ef", "type": "electric_scooter", "lon": -77.02934383333333, "rental_uris": {"android": "https://dc.lft.to/lastmile_qr_scan", "ios": "https://dc.lft.to/lastmile_qr_scan"}, "lat": 38.91417, "is_reserved": 0, "is_disabled": 0, "fusion_lat": 0.0}, {"fusion_lon": 0.0, "bike_id": "78efe2d2a3ac64b4ee097c57948c57d1", "name": "78efe2d2a3ac64b4ee097c57948c57d1", "type": "electric_scooter", "lon": -77.05917766666667, "rental_uris": {"android": "https://dc.lft.to/lastmile_qr_scan", "ios": "https://dc.lft.to/lastmile_qr_scan"}, "lat": 38.90999016666667, "is_reserved": 0, "is_disabled": 0, "fusion_lat": 0.0}, {"fusion_lon": 0.0, "bike_id": "c2a7ad5f1fd0432d9a0c7b5d5964ea4e", "name": "c2a7ad5f1fd0432d9a0c7b5d5964ea4e", "type": "electric_scooter", "lon": -77.03247333333333, "rental_uris": {"android": "https://dc.lft.to/lastmile_qr_scan", "ios": "https://dc.lft.to/lastmile_qr_scan"}, "lat": 38.905544, "is_reserved": 0, "is_disabled": 0, "fusion_lat": 0.0}, {"fusion_lon": 0.0, "bike_id": "45634b98521eb51569191d5c2dc688be", "name": "45634b98521eb51569191d5c2dc688be", "type": "electric_scooter", "lon": -77.04020283333334, "rental_uris": {"android": "https://dc.lft.to/lastmile_qr_scan", "ios": "https://dc.lft.to/lastmile_qr_scan"}, "lat": 38.91301033333333, "is_reserved": 0, "is_disabled": 0, "fusion_lat": 0.0}, {"fusion_lon": 0.0, "bike_id": "4176424a08d05a17556419103bddc71e", "name": "4176424a08d05a17556419103bddc71e", "type": "electric_scooter", "lon": -77.01903366666667, "rental_uris": {"android": "https://dc.lft.to/lastmile_qr_scan", "ios": "https://dc.lft.to/lastmile_qr_scan"}, "lat": 38.923446166666665, "is_reserved": 0, "is_disabled": 0, "fusion_lat": 0.0}, {"fusion_lon": 0.0, "bike_id": "276ed5f6f913c702740e1161f6f89d09", "name": "276ed5f6f913c702740e1161f6f89d09", "type": "electric_bike", "lon": -77.1002845, "rental_uris": {"android": "https://dc.lft.to/lastmile_qr_scan", "ios": "https://dc.lft.to/lastmile_qr_scan"}, "lat": 38.99067866666667, "is_reserved": 0, "is_disabled": 0, "fusion_lat": 0.0}, {"fusion_lon": 0.0, "bike_id": "ccb62a2ef879fcd157711db7620cacfe", "name": "ccb62a2ef879fcd157711db7620cacfe", "type": "electric_bike", "lon": -76.8749335, "rental_uris": {"android": "https://dc.lft.to/lastmile_qr_scan", "ios": "https://dc.lft.to/lastmile_qr_scan"}, "lat": 38.99091466666667, "is_reserved": 0, "is_disabled": 0, "fusion_lat": 0.0}, {"fusion_lon": 0.0, "bike_id": "25e663f94c4d5228835313111eef7589", "name": "25e663f94c4d5228835313111eef7589", "type": "electric_scooter", "lon": -77.02277983333333, "rental_uris": {"android": "https://dc.lft.to/lastmile_qr_scan", "ios": "https://dc.lft.to/lastmile_qr_scan"}, "lat": 38.87841383333333, "is_reserved": 0, "is_disabled": 0, "fusion_lat": 0.0}, {"fusion_lon": 0.0, "bike_id": "f9ee2f44e268f3efd47f23d8d40ef460", "name": "f9ee2f44e268f3efd47f23d8d40ef460", "type": "electric_scooter", "lon": -77.00328183333333, "rental_uris": {"android": "https://dc.lft.to/lastmile_qr_scan", "ios": "https://dc.lft.to/lastmile_qr_scan"}, "lat": 38.907135, "is_reserved": 0, "is_disabled": 0, "fusion_lat": 0.0}, {"fusion_lon": 0.0, "bike_id": "f2e6efb9c40843c018e7fad54a6ee456", "name": "f2e6efb9c40843c018e7fad54a6ee456", "type": "electric_scooter", "lon": -77.0279905, "rental_uris": {"android": "https://dc.lft.to/lastmile_qr_scan", "ios": "https://dc.lft.to/lastmile_qr_scan"}, "lat": 38.9509925, "is_reserved": 0, "is_disabled": 0, "fusion_lat": 0.0}, {"fusion_lon": 0.0, "bike_id": "81ba8fb66be1c65440e183a2d7643ec3", "name": "81ba8fb66be1c65440e183a2d7643ec3", "type": "electric_scooter", "lon": -76.98923033333334, "rental_uris": {"android": "https://dc.lft.to/lastmile_qr_scan", "ios": "https://dc.lft.to/lastmile_qr_scan"}, "lat": 38.86632733333333, "is_reserved": 0, "is_disabled": 0, "fusion_lat": 0.0}, {"fusion_lon": 0.0, "bike_id": "09391c0f964671d5ec18c05601508b6d", "name": "09391c0f964671d5ec18c05601508b6d", "type": "electric_scooter", "lon": -77.03268383333334, "rental_uris": {"android": "https://dc.lft.to/lastmile_qr_scan", "ios": "https://dc.lft.to/lastmile_qr_scan"}, "lat": 38.91567166666667, "is_reserved": 0, "is_disabled": 0, "fusion_lat": 0.0}, {"fusion_lon": 0.0, "bike_id": "f7b12ffcc74f971042ff115aa58e797a", "name": "f7b12ffcc74f971042ff115aa58e797a", "type": "electric_scooter", "lon": -76.97303283333333, "rental_uris": {"android": "https://dc.lft.to/lastmile_qr_scan", "ios": "https://dc.lft.to/lastmile_qr_scan"}, "lat": 38.919943833333335, "is_reserved": 0, "is_disabled": 0, "fusion_lat": 0.0}, {"fusion_lon": 0.0, "bike_id": "8725b46124ad7bdfe367add99558555f", "name": "8725b46124ad7bdfe367add99558555f", "type": "electric_scooter", "lon": -77.017514, "rental_uris": {"android": "https://dc.lft.to/lastmile_qr_scan", "ios": "https://dc.lft.to/lastmile_qr_scan"}, "lat": 38.908718666666665, "is_reserved": 0, "is_disabled": 0, "fusion_lat": 0.0}, {"fusion_lon": 0.0, "bike_id": "6bdd1f9aae42567965be336e4b751f5a", "name": "6bdd1f9aae42567965be336e4b751f5a", "type": "electric_bike", "lon": -77.01206333333333, "rental_uris": {"android": "https://dc.lft.to/lastmile_qr_scan", "ios": "https://dc.lft.to/lastmile_qr_scan"}, "lat": 38.87076733333333, "is_reserved": 0, "is_disabled": 0, "fusion_lat": 0.0}, {"fusion_lon": 0.0, "bike_id": "f4e25b2954557581b60c747564e16768", "name": "f4e25b2954557581b60c747564e16768", "type": "electric_scooter", "lon": -77.04395066666666, "rental_uris": {"android": "https://dc.lft.to/lastmile_qr_scan", "ios": "https://dc.lft.to/lastmile_qr_scan"}, "lat": 38.92281366666667, "is_reserved": 0, "is_disabled": 0, "fusion_lat": 0.0}, {"fusion_lon": 0.0, "bike_id": "752efa40728493148bae26b7a60d077e", "name": "752efa40728493148bae26b7a60d077e", "type": "electric_scooter", "lon": -76.96505366666666, "rental_uris": {"android": "https://dc.lft.to/lastmile_qr_scan", "ios": "https://dc.lft.to/lastmile_qr_scan"}, "lat": 38.876487166666664, "is_reserved": 0, "is_disabled": 0, "fusion_lat": 0.0}, {"fusion_lon": 0.0, "bike_id": "0cdd454e907ff5c6ce42069af3a9cbeb", "name": "0cdd454e907ff5c6ce42069af3a9cbeb", "type": "electric_scooter", "lon": -77.0321935, "rental_uris": {"android": "https://dc.lft.to/lastmile_qr_scan", "ios": "https://dc.lft.to/lastmile_qr_scan"}, "lat": 38.892208, "is_reserved": 0, "is_disabled": 0, "fusion_lat": 0.0}, {"fusion_lon": 0.0, "bike_id": "445a8aff1a1b358ac8833e63e22f92bf", "name": "445a8aff1a1b358ac8833e63e22f92bf", "type": "electric_scooter", "lon": -77.04664166666667, "rental_uris": {"android": "https://dc.lft.to/lastmile_qr_scan", "ios": "https://dc.lft.to/lastmile_qr_scan"}, "lat": 38.90417266666667, "is_reserved": 0, "is_disabled": 0, "fusion_lat": 0.0}, {"fusion_lon": 0.0, "bike_id": "99e667c58acd6bc28bb11cac7062765f", "name": "99e667c58acd6bc28bb11cac7062765f", "type": "electric_scooter", "lon": -77.04340016666667, "rental_uris": {"android": "https://dc.lft.to/lastmile_qr_scan", "ios": "https://dc.lft.to/lastmile_qr_scan"}, "lat": 38.903578333333336, "is_reserved": 0, "is_disabled": 0, "fusion_lat": 0.0}, {"fusion_lon": 0.0, "bike_id": "9eeac664b339e98b03644ff35c7e2cd1", "name": "9eeac664b339e98b03644ff35c7e2cd1", "type": "electric_bike", "lon": -76.9756695, "rental_uris": {"android": "https://dc.lft.to/lastmile_qr_scan", "ios": "https://dc.lft.to/lastmile_qr_scan"}, "lat": 38.92458, "is_reserved": 0, "is_disabled": 0, "fusion_lat": 0.0}, {"fusion_lon": 0.0, "bike_id": "7079ff2ba822aadad09ed89646bc726b", "name": "7079ff2ba822aadad09ed89646bc726b", "type": "electric_scooter", "lon": -77.05091916666667, "rental_uris": {"android": "https://dc.lft.to/lastmile_qr_scan", "ios": "https://dc.lft.to/lastmile_qr_scan"}, "lat": 38.905401499999996, "is_reserved": 0, "is_disabled": 0, "fusion_lat": 0.0}, {"fusion_lon": 0.0, "bike_id": "2d263ca32b7be975c5fd3d3f429bfabd", "name": "2d263ca32b7be975c5fd3d3f429bfabd", "type": "electric_scooter", "lon": -76.99489733333333, "rental_uris": {"android": "https://dc.lft.to/lastmile_qr_scan", "ios": "https://dc.lft.to/lastmile_qr_scan"}, "lat": 38.86243316666667, "is_reserved": 0, "is_disabled": 0, "fusion_lat": 0.0}, {"fusion_lon": 0.0, "bike_id": "9c7354a849085d005191d17e2c8b64e3", "name": "9c7354a849085d005191d17e2c8b64e3", "type": "electric_scooter", "lon": -77.00806866666667, "rental_uris": {"android": "https://dc.lft.to/lastmile_qr_scan", "ios": "https://dc.lft.to/lastmile_qr_scan"}, "lat": 38.876575833333334, "is_reserved": 0, "is_disabled": 0, "fusion_lat": 0.0}, {"fusion_lon": 0.0, "bike_id": "0fbdf6fd62ea4b9caaf1353695c07af6", "name": "0fbdf6fd62ea4b9caaf1353695c07af6", "type": "electric_scooter", "lon": -77.04899783333333, "rental_uris": {"android": "https://dc.lft.to/lastmile_qr_scan", "ios": "https://dc.lft.to/lastmile_qr_scan"}, "lat": 38.89257883333333, "is_reserved": 0, "is_disabled": 0, "fusion_lat": 0.0}, {"fusion_lon": 0.0, "bike_id": "409fad7bedfbd3a24249ed5feb536cfd", "name": "409fad7bedfbd3a24249ed5feb536cfd", "type": "electric_scooter", "lon": -77.04698, "rental_uris": {"android": "https://dc.lft.to/lastmile_qr_scan", "ios": "https://dc.lft.to/lastmile_qr_scan"}, "lat": 38.89743433333334, "is_reserved": 0, "is_disabled": 0, "fusion_lat": 0.0}, {"fusion_lon": 0.0, "bike_id": "7be88a6f0525531d769a62ff61f7bcc5", "name": "7be88a6f0525531d769a62ff61f7bcc5", "type": "electric_scooter", "lon": -77.0266255, "rental_uris": {"android": "https://dc.lft.to/lastmile_qr_scan", "ios": "https://dc.lft.to/lastmile_qr_scan"}, "lat": 38.9794165, "is_reserved": 0, "is_disabled": 0, "fusion_lat": 0.0}, {"fusion_lon": 0.0, "bike_id": "3e8606aeca33b4ba8b0a641d9ef8c98b", "name": "3e8606aeca33b4ba8b0a641d9ef8c98b", "type": "electric_scooter", "lon": -77.03266066666667, "rental_uris": {"android": "https://dc.lft.to/lastmile_qr_scan", "ios": "https://dc.lft.to/lastmile_qr_scan"}, "lat": 38.93209783333333, "is_reserved": 0, "is_disabled": 0, "fusion_lat": 0.0}, {"fusion_lon": 0.0, "bike_id": "cb3354e850c5286da20921de55bf47bf", "name": "cb3354e850c5286da20921de55bf47bf", "type": "electric_scooter", "lon": -77.0525215, "rental_uris": {"android": "https://dc.lft.to/lastmile_qr_scan", "ios": "https://dc.lft.to/lastmile_qr_scan"}, "lat": 38.9237335, "is_reserved": 0, "is_disabled": 0, "fusion_lat": 0.0}, {"fusion_lon": 0.0, "bike_id": "f11921c1eb5776744c5a574d119fcdca", "name": "f11921c1eb5776744c5a574d119fcdca", "type": "electric_scooter", "lon": -77.0238775, "rental_uris": {"android": "https://dc.lft.to/lastmile_qr_scan", "ios": "https://dc.lft.to/lastmile_qr_scan"}, "lat": 38.957376, "is_reserved": 0, "is_disabled": 0, "fusion_lat": 0.0}, {"fusion_lon": 0.0, "bike_id": "d1f22659dbb4d82e9384f182568f2878", "name": "d1f22659dbb4d82e9384f182568f2878", "type": "electric_scooter", "lon": -77.039399, "rental_uris": {"android": "https://dc.lft.to/lastmile_qr_scan", "ios": "https://dc.lft.to/lastmile_qr_scan"}, "lat": 38.902564166666664, "is_reserved": 0, "is_disabled": 0, "fusion_lat": 0.0}, {"fusion_lon": 0.0, "bike_id": "1229de46b97f5be2ec4175c3db5915e4", "name": "1229de46b97f5be2ec4175c3db5915e4", "type": "electric_bike", "lon": -76.98831516666667, "rental_uris": {"android": "https://dc.lft.to/lastmile_qr_scan", "ios": "https://dc.lft.to/lastmile_qr_scan"}, "lat": 38.9856235, "is_reserved": 0, "is_disabled": 0, "fusion_lat": 0.0}, {"fusion_lon": 0.0, "bike_id": "3b42df100bcd5216c23df77c4ee8d5f1", "name": "3b42df100bcd5216c23df77c4ee8d5f1", "type": "electric_scooter", "lon": -77.03444516666667, "rental_uris": {"android": "https://dc.lft.to/lastmile_qr_scan", "ios": "https://dc.lft.to/lastmile_qr_scan"}, "lat": 38.904827833333336, "is_reserved": 0, "is_disabled": 0, "fusion_lat": 0.0}, {"fusion_lon": 0.0, "bike_id": "3c64497fe97f9f8d7b9ee8ae317b828d", "name": "3c64497fe97f9f8d7b9ee8ae317b828d", "type": "electric_scooter", "lon": -77.04782566666667, "rental_uris": {"android": "https://dc.lft.to/lastmile_qr_scan", "ios": "https://dc.lft.to/lastmile_qr_scan"}, "lat": 38.90795466666667, "is_reserved": 0, "is_disabled": 0, "fusion_lat": 0.0}, {"fusion_lon": 0.0, "bike_id": "2f291bc4d4f26227f6cc5d09e0c6746a", "name": "2f291bc4d4f26227f6cc5d09e0c6746a", "type": "electric_scooter", "lon": -77.00212083333334, "rental_uris": {"android": "https://dc.lft.to/lastmile_qr_scan", "ios": "https://dc.lft.to/lastmile_qr_scan"}, "lat": 38.89998766666667, "is_reserved": 0, "is_disabled": 0, "fusion_lat": 0.0}, {"fusion_lon": 0.0, "bike_id": "9fe30fdf43d683539867c4069df25ada", "name": "9fe30fdf43d683539867c4069df25ada", "type": "electric_scooter", "lon": -77.04160983333334, "rental_uris": {"android": "https://dc.lft.to/lastmile_qr_scan", "ios": "https://dc.lft.to/lastmile_qr_scan"}, "lat": 38.91600533333333, "is_reserved": 0, "is_disabled": 0, "fusion_lat": 0.0}, {"fusion_lon": 0.0, "bike_id": "d766ce767589f5111e2a2a6c3fb9333c", "name": "d766ce767589f5111e2a2a6c3fb9333c", "type": "electric_scooter", "lon": -76.99463316666667, "rental_uris": {"android": "https://dc.lft.to/lastmile_qr_scan", "ios": "https://dc.lft.to/lastmile_qr_scan"}, "lat": 38.840278, "is_reserved": 0, "is_disabled": 0, "fusion_lat": 0.0}, {"fusion_lon": 0.0, "bike_id": "e1a7ed9bc881e994b2f2afa76acd7584", "name": "e1a7ed9bc881e994b2f2afa76acd7584", "type": "electric_scooter", "lon": -77.04278733333334, "rental_uris": {"android": "https://dc.lft.to/lastmile_qr_scan", "ios": "https://dc.lft.to/lastmile_qr_scan"}, "lat": 38.90837283333333, "is_reserved": 0, "is_disabled": 0, "fusion_lat": 0.0}, {"fusion_lon": 0.0, "bike_id": "b914c6add6bddc8cb5a5bb9e00b5c69f", "name": "b914c6add6bddc8cb5a5bb9e00b5c69f", "type": "electric_scooter", "lon": -77.02449283333333, "rental_uris": {"android": "https://dc.lft.to/lastmile_qr_scan", "ios": "https://dc.lft.to/lastmile_qr_scan"}, "lat": 38.928024666666666, "is_reserved": 0, "is_disabled": 0, "fusion_lat": 0.0}, {"fusion_lon": 0.0, "bike_id": "05c348a0ec997f7a3242306d112dcf51", "name": "05c348a0ec997f7a3242306d112dcf51", "type": "electric_scooter", "lon": -77.02939166666667, "rental_uris": {"android": "https://dc.lft.to/lastmile_qr_scan", "ios": "https://dc.lft.to/lastmile_qr_scan"}, "lat": 38.898817333333334, "is_reserved": 0, "is_disabled": 0, "fusion_lat": 0.0}, {"fusion_lon": 0.0, "bike_id": "b261f24eb59a5e777797a1c780fa27f8", "name": "b261f24eb59a5e777797a1c780fa27f8", "type": "electric_bike", "lon": -76.99566683333333, "rental_uris": {"android": "https://dc.lft.to/lastmile_qr_scan", "ios": "https://dc.lft.to/lastmile_qr_scan"}, "lat": 39.00789183333333, "is_reserved": 0, "is_disabled": 0, "fusion_lat": 0.0}, {"fusion_lon": 0.0, "bike_id": "f8ea5bf7212bad0c47fbcd37978deb36", "name": "f8ea5bf7212bad0c47fbcd37978deb36", "type": "electric_scooter", "lon": -77.02657916666666, "rental_uris": {"android": "https://dc.lft.to/lastmile_qr_scan", "ios": "https://dc.lft.to/lastmile_qr_scan"}, "lat": 38.896019333333335, "is_reserved": 0, "is_disabled": 0, "fusion_lat": 0.0}, {"fusion_lon": 0.0, "bike_id": "ab283d79d951210e33696b0569fa8181", "name": "ab283d79d951210e33696b0569fa8181", "type": "electric_scooter", "lon": -77.01817833333334, "rental_uris": {"android": "https://dc.lft.to/lastmile_qr_scan", "ios": "https://dc.lft.to/lastmile_qr_scan"}, "lat": 38.92164616666667, "is_reserved": 0, "is_disabled": 0, "fusion_lat": 0.0}, {"fusion_lon": 0.0, "bike_id": "fdf818c1224837cd0bdb308de6eda96b", "name": "fdf818c1224837cd0bdb308de6eda96b", "type": "electric_bike", "lon": -77.12504983333334, "rental_uris": {"android": "https://dc.lft.to/lastmile_qr_scan", "ios": "https://dc.lft.to/lastmile_qr_scan"}, "lat": 39.0242515, "is_reserved": 0, "is_disabled": 0, "fusion_lat": 0.0}, {"fusion_lon": 0.0, "bike_id": "624c0e45278e919a698249b77e1edaa6", "name": "624c0e45278e919a698249b77e1edaa6", "type": "electric_scooter", "lon": -77.03530966666666, "rental_uris": {"android": "https://dc.lft.to/lastmile_qr_scan", "ios": "https://dc.lft.to/lastmile_qr_scan"}, "lat": 38.92475566666667, "is_reserved": 0, "is_disabled": 0, "fusion_lat": 0.0}, {"fusion_lon": 0.0, "bike_id": "e22c8f34e4e2601ae9a9a6a8e7c93e39", "name": "e22c8f34e4e2601ae9a9a6a8e7c93e39", "type": "electric_scooter", "lon": -77.00892483333334, "rental_uris": {"android": "https://dc.lft.to/lastmile_qr_scan", "ios": "https://dc.lft.to/lastmile_qr_scan"}, "lat": 38.873375, "is_reserved": 0, "is_disabled": 0, "fusion_lat": 0.0}, {"fusion_lon": 0.0, "bike_id": "85840c5e74317c02931c0cccdc370050", "name": "85840c5e74317c02931c0cccdc370050", "type": "electric_scooter", "lon": -77.04680633333334, "rental_uris": {"android": "https://dc.lft.to/lastmile_qr_scan", "ios": "https://dc.lft.to/lastmile_qr_scan"}, "lat": 38.8950805, "is_reserved": 0, "is_disabled": 0, "fusion_lat": 0.0}, {"fusion_lon": 0.0, "bike_id": "1432a74964126c749a0fb1cafefa6f7b", "name": "1432a74964126c749a0fb1cafefa6f7b", "type": "electric_scooter", "lon": -76.98713983333333, "rental_uris": {"android": "https://dc.lft.to/lastmile_qr_scan", "ios": "https://dc.lft.to/lastmile_qr_scan"}, "lat": 38.86701583333333, "is_reserved": 0, "is_disabled": 0, "fusion_lat": 0.0}, {"fusion_lon": 0.0, "bike_id": "49835f424e2e8e6d93392be20d06dabc", "name": "49835f424e2e8e6d93392be20d06dabc", "type": "electric_scooter", "lon": -77.00295733333333, "rental_uris": {"android": "https://dc.lft.to/lastmile_qr_scan", "ios": "https://dc.lft.to/lastmile_qr_scan"}, "lat": 38.89196066666667, "is_reserved": 0, "is_disabled": 0, "fusion_lat": 0.0}, {"fusion_lon": 0.0, "bike_id": "6524f255c4c8365d6a203baede56cd5b", "name": "6524f255c4c8365d6a203baede56cd5b", "type": "electric_scooter", "lon": -76.97032783333333, "rental_uris": {"android": "https://dc.lft.to/lastmile_qr_scan", "ios": "https://dc.lft.to/lastmile_qr_scan"}, "lat": 38.919809, "is_reserved": 0, "is_disabled": 0, "fusion_lat": 0.0}, {"fusion_lon": 0.0, "bike_id": "12610afe539a2d3957a681071a3962b5", "name": "12610afe539a2d3957a681071a3962b5", "type": "electric_scooter", "lon": -77.03182916666667, "rental_uris": {"android": "https://dc.lft.to/lastmile_qr_scan", "ios": "https://dc.lft.to/lastmile_qr_scan"}, "lat": 38.886626166666666, "is_reserved": 0, "is_disabled": 0, "fusion_lat": 0.0}, {"fusion_lon": 0.0, "bike_id": "10bc426c1729c49daa6853f1bb61ea1b", "name": "10bc426c1729c49daa6853f1bb61ea1b", "type": "electric_scooter", "lon": -77.02157233333334, "rental_uris": {"android": "https://dc.lft.to/lastmile_qr_scan", "ios": "https://dc.lft.to/lastmile_qr_scan"}, "lat": 38.9260525, "is_reserved": 0, "is_disabled": 0, "fusion_lat": 0.0}, {"fusion_lon": 0.0, "bike_id": "b6c433b616fb87e313b465f0429785f9", "name": "b6c433b616fb87e313b465f0429785f9", "type": "electric_scooter", "lon": -77.04177466666667, "rental_uris": {"android": "https://dc.lft.to/lastmile_qr_scan", "ios": "https://dc.lft.to/lastmile_qr_scan"}, "lat": 38.907365, "is_reserved": 0, "is_disabled": 0, "fusion_lat": 0.0}, {"fusion_lon": 0.0, "bike_id": "231a786007e654a8670b2259bd81cd89", "name": "231a786007e654a8670b2259bd81cd89", "type": "electric_scooter", "lon": -77.00752966666667, "rental_uris": {"android": "https://dc.lft.to/lastmile_qr_scan", "ios": "https://dc.lft.to/lastmile_qr_scan"}, "lat": 38.90036933333333, "is_reserved": 0, "is_disabled": 0, "fusion_lat": 0.0}, {"fusion_lon": 0.0, "bike_id": "cc166a94104dd4f4854ff93576ff6a0c", "name": "cc166a94104dd4f4854ff93576ff6a0c", "type": "electric_scooter", "lon": -77.015571, "rental_uris": {"android": "https://dc.lft.to/lastmile_qr_scan", "ios": "https://dc.lft.to/lastmile_qr_scan"}, "lat": 38.91374016666666, "is_reserved": 0, "is_disabled": 0, "fusion_lat": 0.0}, {"fusion_lon": 0.0, "bike_id": "1c87530adc1cdb1a9b45da3e030e9b58", "name": "1c87530adc1cdb1a9b45da3e030e9b58", "type": "electric_scooter", "lon": -76.99209983333333, "rental_uris": {"android": "https://dc.lft.to/lastmile_qr_scan", "ios": "https://dc.lft.to/lastmile_qr_scan"}, "lat": 38.89520983333333, "is_reserved": 0, "is_disabled": 0, "fusion_lat": 0.0}, {"fusion_lon": 0.0, "bike_id": "f18f8c1b4463c417cb6718f20420a228", "name": "f18f8c1b4463c417cb6718f20420a228", "type": "electric_scooter", "lon": -77.06610566666667, "rental_uris": {"android": "https://dc.lft.to/lastmile_qr_scan", "ios": "https://dc.lft.to/lastmile_qr_scan"}, "lat": 38.904537833333336, "is_reserved": 0, "is_disabled": 0, "fusion_lat": 0.0}, {"fusion_lon": 0.0, "bike_id": "aa67b75ab419d5830f4ff8eb3f43a114", "name": "aa67b75ab419d5830f4ff8eb3f43a114", "type": "electric_scooter", "lon": -77.03346516666667, "rental_uris": {"android": "https://dc.lft.to/lastmile_qr_scan", "ios": "https://dc.lft.to/lastmile_qr_scan"}, "lat": 38.901413, "is_reserved": 0, "is_disabled": 0, "fusion_lat": 0.0}, {"fusion_lon": 0.0, "bike_id": "5bb5852a306adc10422ee6b5b87bd2ba", "name": "5bb5852a306adc10422ee6b5b87bd2ba", "type": "electric_scooter", "lon": -77.02468116666667, "rental_uris": {"android": "https://dc.lft.to/lastmile_qr_scan", "ios": "https://dc.lft.to/lastmile_qr_scan"}, "lat": 38.93769483333333, "is_reserved": 0, "is_disabled": 0, "fusion_lat": 0.0}, {"fusion_lon": 0.0, "bike_id": "932bbdf557b418ae2af18f1356cf7d9d", "name": "932bbdf557b418ae2af18f1356cf7d9d", "type": "electric_scooter", "lon": -77.044929, "rental_uris": {"android": "https://dc.lft.to/lastmile_qr_scan", "ios": "https://dc.lft.to/lastmile_qr_scan"}, "lat": 38.9091215, "is_reserved": 0, "is_disabled": 0, "fusion_lat": 0.0}, {"fusion_lon": 0.0, "bike_id": "c663bad473a15a919b2e9235ae8a24db", "name": "c663bad473a15a919b2e9235ae8a24db", "type": "electric_scooter", "lon": -76.9655535, "rental_uris": {"android": "https://dc.lft.to/lastmile_qr_scan", "ios": "https://dc.lft.to/lastmile_qr_scan"}, "lat": 38.91849916666666, "is_reserved": 0, "is_disabled": 0, "fusion_lat": 0.0}, {"fusion_lon": 0.0, "bike_id": "f095a0e78b3d0c155ca3741dfef4099a", "name": "f095a0e78b3d0c155ca3741dfef4099a", "type": "electric_scooter", "lon": -77.02960516666667, "rental_uris": {"android": "https://dc.lft.to/lastmile_qr_scan", "ios": "https://dc.lft.to/lastmile_qr_scan"}, "lat": 38.92144416666667, "is_reserved": 0, "is_disabled": 0, "fusion_lat": 0.0}, {"fusion_lon": 0.0, "bike_id": "a6de1ee7155d2b330aee00775fe15634", "name": "a6de1ee7155d2b330aee00775fe15634", "type": "electric_scooter", "lon": -76.98018733333333, "rental_uris": {"android": "https://dc.lft.to/lastmile_qr_scan", "ios": "https://dc.lft.to/lastmile_qr_scan"}, "lat": 38.86409333333334, "is_reserved": 0, "is_disabled": 0, "fusion_lat": 0.0}, {"fusion_lon": 0.0, "bike_id": "1213a190597bb22b5cf3ade411f61912", "name": "1213a190597bb22b5cf3ade411f61912", "type": "electric_scooter", "lon": -77.03659566666667, "rental_uris": {"android": "https://dc.lft.to/lastmile_qr_scan", "ios": "https://dc.lft.to/lastmile_qr_scan"}, "lat": 38.92293, "is_reserved": 0, "is_disabled": 0, "fusion_lat": 0.0}, {"fusion_lon": 0.0, "bike_id": "2daa86068506de02ea1cdc7945c91769", "name": "2daa86068506de02ea1cdc7945c91769", "type": "electric_scooter", "lon": -77.03957033333333, "rental_uris": {"android": "https://dc.lft.to/lastmile_qr_scan", "ios": "https://dc.lft.to/lastmile_qr_scan"}, "lat": 38.9012905, "is_reserved": 0, "is_disabled": 0, "fusion_lat": 0.0}, {"fusion_lon": 0.0, "bike_id": "8f645a58d29ec957a1112117ef4101e4", "name": "8f645a58d29ec957a1112117ef4101e4", "type": "electric_scooter", "lon": -77.02097266666667, "rental_uris": {"android": "https://dc.lft.to/lastmile_qr_scan", "ios": "https://dc.lft.to/lastmile_qr_scan"}, "lat": 38.947381, "is_reserved": 0, "is_disabled": 0, "fusion_lat": 0.0}, {"fusion_lon": 0.0, "bike_id": "6c6f10b9c0755424af59b25da2d1990e", "name": "6c6f10b9c0755424af59b25da2d1990e", "type": "electric_scooter", "lon": -77.00064283333333, "rental_uris": {"android": "https://dc.lft.to/lastmile_qr_scan", "ios": "https://dc.lft.to/lastmile_qr_scan"}, "lat": 38.892913, "is_reserved": 0, "is_disabled": 0, "fusion_lat": 0.0}, {"fusion_lon": 0.0, "bike_id": "0fe71e38c7f87c0ca3401f8c1e4b3dbe", "name": "0fe71e38c7f87c0ca3401f8c1e4b3dbe", "type": "electric_scooter", "lon": -77.05021333333333, "rental_uris": {"android": "https://dc.lft.to/lastmile_qr_scan", "ios": "https://dc.lft.to/lastmile_qr_scan"}, "lat": 38.896576, "is_reserved": 0, "is_disabled": 0, "fusion_lat": 0.0}, {"fusion_lon": 0.0, "bike_id": "214b47d7007b0768457fc1447f93993f", "name": "214b47d7007b0768457fc1447f93993f", "type": "electric_scooter", "lon": -77.05802366666667, "rental_uris": {"android": "https://dc.lft.to/lastmile_qr_scan", "ios": "https://dc.lft.to/lastmile_qr_scan"}, "lat": 38.902956, "is_reserved": 0, "is_disabled": 0, "fusion_lat": 0.0}, {"fusion_lon": 0.0, "bike_id": "b51dc3639984f550a32b96d8d7c59768", "name": "b51dc3639984f550a32b96d8d7c59768", "type": "electric_scooter", "lon": -77.040853, "rental_uris": {"android": "https://dc.lft.to/lastmile_qr_scan", "ios": "https://dc.lft.to/lastmile_qr_scan"}, "lat": 38.90490366666667, "is_reserved": 0, "is_disabled": 0, "fusion_lat": 0.0}, {"fusion_lon": 0.0, "bike_id": "5a45d8c5e4d405b98f15d8b3e5d50f42", "name": "5a45d8c5e4d405b98f15d8b3e5d50f42", "type": "electric_scooter", "lon": -77.04482983333334, "rental_uris": {"android": "https://dc.lft.to/lastmile_qr_scan", "ios": "https://dc.lft.to/lastmile_qr_scan"}, "lat": 38.90554616666667, "is_reserved": 0, "is_disabled": 0, "fusion_lat": 0.0}, {"fusion_lon": 0.0, "bike_id": "6b60243526ba5971aeb364e10890fdbe", "name": "6b60243526ba5971aeb364e10890fdbe", "type": "electric_scooter", "lon": -77.02176666666666, "rental_uris": {"android": "https://dc.lft.to/lastmile_qr_scan", "ios": "https://dc.lft.to/lastmile_qr_scan"}, "lat": 38.943103, "is_reserved": 0, "is_disabled": 0, "fusion_lat": 0.0}, {"fusion_lon": 0.0, "bike_id": "283afe263e64adf9a2b93fb643506292", "name": "283afe263e64adf9a2b93fb643506292", "type": "electric_scooter", "lon": -77.07251583333333, "rental_uris": {"android": "https://dc.lft.to/lastmile_qr_scan", "ios": "https://dc.lft.to/lastmile_qr_scan"}, "lat": 38.90786166666667, "is_reserved": 0, "is_disabled": 0, "fusion_lat": 0.0}, {"fusion_lon": 0.0, "bike_id": "4094b8349ae2e7266c533a15697aea9d", "name": "4094b8349ae2e7266c533a15697aea9d", "type": "electric_scooter", "lon": -77.00580983333333, "rental_uris": {"android": "https://dc.lft.to/lastmile_qr_scan", "ios": "https://dc.lft.to/lastmile_qr_scan"}, "lat": 38.8853455, "is_reserved": 0, "is_disabled": 0, "fusion_lat": 0.0}, {"fusion_lon": 0.0, "bike_id": "81f7e4a86f63a5937713d55103735e30", "name": "81f7e4a86f63a5937713d55103735e30", "type": "electric_scooter", "lon": -77.00574833333333, "rental_uris": {"android": "https://dc.lft.to/lastmile_qr_scan", "ios": "https://dc.lft.to/lastmile_qr_scan"}, "lat": 38.885486, "is_reserved": 0, "is_disabled": 0, "fusion_lat": 0.0}, {"fusion_lon": 0.0, "bike_id": "1acddc4bd228d010af250f4581ee05cf", "name": "1acddc4bd228d010af250f4581ee05cf", "type": "electric_scooter", "lon": -76.92404916666666, "rental_uris": {"android": "https://dc.lft.to/lastmile_qr_scan", "ios": "https://dc.lft.to/lastmile_qr_scan"}, "lat": 38.8898545, "is_reserved": 0, "is_disabled": 0, "fusion_lat": 0.0}, {"fusion_lon": 0.0, "bike_id": "20df124c5c8260105327891cc5d78393", "name": "20df124c5c8260105327891cc5d78393", "type": "electric_scooter", "lon": -77.01225183333334, "rental_uris": {"android": "https://dc.lft.to/lastmile_qr_scan", "ios": "https://dc.lft.to/lastmile_qr_scan"}, "lat": 38.86722666666667, "is_reserved": 0, "is_disabled": 0, "fusion_lat": 0.0}, {"fusion_lon": 0.0, "bike_id": "8646e706dd2e6ddbf4167de0bc28d0cf", "name": "8646e706dd2e6ddbf4167de0bc28d0cf", "type": "electric_scooter", "lon": -77.03211616666667, "rental_uris": {"android": "https://dc.lft.to/lastmile_qr_scan", "ios": "https://dc.lft.to/lastmile_qr_scan"}, "lat": 38.89407833333333, "is_reserved": 0, "is_disabled": 0, "fusion_lat": 0.0}, {"fusion_lon": 0.0, "bike_id": "6b5533e94758fc87056e55c0f056dc40", "name": "6b5533e94758fc87056e55c0f056dc40", "type": "electric_bike", "lon": -76.934109, "rental_uris": {"android": "https://dc.lft.to/lastmile_qr_scan", "ios": "https://dc.lft.to/lastmile_qr_scan"}, "lat": 38.946265833333335, "is_reserved": 0, "is_disabled": 0, "fusion_lat": 0.0}, {"fusion_lon": 0.0, "bike_id": "5934cf441b5e68b26ec9781f7f8bb496", "name": "5934cf441b5e68b26ec9781f7f8bb496", "type": "electric_scooter", "lon": -77.02954516666667, "rental_uris": {"android": "https://dc.lft.to/lastmile_qr_scan", "ios": "https://dc.lft.to/lastmile_qr_scan"}, "lat": 38.89345216666667, "is_reserved": 0, "is_disabled": 0, "fusion_lat": 0.0}, {"fusion_lon": 0.0, "bike_id": "dc956831ebd369f06314ce5bf9149c48", "name": "dc956831ebd369f06314ce5bf9149c48", "type": "electric_scooter", "lon": -77.021029, "rental_uris": {"android": "https://dc.lft.to/lastmile_qr_scan", "ios": "https://dc.lft.to/lastmile_qr_scan"}, "lat": 38.8961095, "is_reserved": 0, "is_disabled": 0, "fusion_lat": 0.0}, {"fusion_lon": 0.0, "bike_id": "e218538af8866311d30ab85f70743486", "name": "e218538af8866311d30ab85f70743486", "type": "electric_scooter", "lon": -77.02218883333333, "rental_uris": {"android": "https://dc.lft.to/lastmile_qr_scan", "ios": "https://dc.lft.to/lastmile_qr_scan"}, "lat": 38.93551633333333, "is_reserved": 0, "is_disabled": 0, "fusion_lat": 0.0}, {"fusion_lon": 0.0, "bike_id": "f9aa53cd61e4c7ed86fa2ca8af2f3b0f", "name": "f9aa53cd61e4c7ed86fa2ca8af2f3b0f", "type": "electric_scooter", "lon": -77.0125915, "rental_uris": {"android": "https://dc.lft.to/lastmile_qr_scan", "ios": "https://dc.lft.to/lastmile_qr_scan"}, "lat": 38.876313833333334, "is_reserved": 0, "is_disabled": 0, "fusion_lat": 0.0}, {"fusion_lon": 0.0, "bike_id": "b9856911aec022e8d1726f289e643dd0", "name": "b9856911aec022e8d1726f289e643dd0", "type": "electric_scooter", "lon": -76.96544633333333, "rental_uris": {"android": "https://dc.lft.to/lastmile_qr_scan", "ios": "https://dc.lft.to/lastmile_qr_scan"}, "lat": 38.91878483333333, "is_reserved": 0, "is_disabled": 0, "fusion_lat": 0.0}, {"fusion_lon": 0.0, "bike_id": "9bf4089de57b1573969fe01b9f3c5157", "name": "9bf4089de57b1573969fe01b9f3c5157", "type": "electric_scooter", "lon": -77.027551, "rental_uris": {"android": "https://dc.lft.to/lastmile_qr_scan", "ios": "https://dc.lft.to/lastmile_qr_scan"}, "lat": 38.954164, "is_reserved": 0, "is_disabled": 0, "fusion_lat": 0.0}, {"fusion_lon": 0.0, "bike_id": "f5e75017a7a39480d81371f8ac4f7ba9", "name": "f5e75017a7a39480d81371f8ac4f7ba9", "type": "electric_scooter", "lon": -76.93757, "rental_uris": {"android": "https://dc.lft.to/lastmile_qr_scan", "ios": "https://dc.lft.to/lastmile_qr_scan"}, "lat": 38.89039133333333, "is_reserved": 0, "is_disabled": 0, "fusion_lat": 0.0}, {"fusion_lon": 0.0, "bike_id": "6a2c135328ed76d457fc0146c778cc76", "name": "6a2c135328ed76d457fc0146c778cc76", "type": "electric_scooter", "lon": -77.003462, "rental_uris": {"android": "https://dc.lft.to/lastmile_qr_scan", "ios": "https://dc.lft.to/lastmile_qr_scan"}, "lat": 38.922709, "is_reserved": 0, "is_disabled": 0, "fusion_lat": 0.0}, {"fusion_lon": 0.0, "bike_id": "e1d335739a955333920df2e1908d7177", "name": "e1d335739a955333920df2e1908d7177", "type": "electric_bike", "lon": -76.90976783333333, "rental_uris": {"android": "https://dc.lft.to/lastmile_qr_scan", "ios": "https://dc.lft.to/lastmile_qr_scan"}, "lat": 38.85439783333333, "is_reserved": 0, "is_disabled": 0, "fusion_lat": 0.0}, {"fusion_lon": 0.0, "bike_id": "d33e20eb42be96bcad40bc904037dade", "name": "d33e20eb42be96bcad40bc904037dade", "type": "electric_scooter", "lon": -77.02584983333334, "rental_uris": {"android": "https://dc.lft.to/lastmile_qr_scan", "ios": "https://dc.lft.to/lastmile_qr_scan"}, "lat": 38.92791166666667, "is_reserved": 0, "is_disabled": 0, "fusion_lat": 0.0}, {"fusion_lon": 0.0, "bike_id": "212b4f2770804a5513e4c03177345a26", "name": "212b4f2770804a5513e4c03177345a26", "type": "electric_scooter", "lon": -77.00919083333334, "rental_uris": {"android": "https://dc.lft.to/lastmile_qr_scan", "ios": "https://dc.lft.to/lastmile_qr_scan"}, "lat": 38.896517, "is_reserved": 0, "is_disabled": 0, "fusion_lat": 0.0}, {"fusion_lon": 0.0, "bike_id": "3068e5f98375343e0a38b79bd7b2fec1", "name": "3068e5f98375343e0a38b79bd7b2fec1", "type": "electric_scooter", "lon": -77.0305375, "rental_uris": {"android": "https://dc.lft.to/lastmile_qr_scan", "ios": "https://dc.lft.to/lastmile_qr_scan"}, "lat": 38.901234, "is_reserved": 0, "is_disabled": 0, "fusion_lat": 0.0}, {"fusion_lon": 0.0, "bike_id": "1083203de572bc1d18330bf6d4fda622", "name": "1083203de572bc1d18330bf6d4fda622", "type": "electric_scooter", "lon": -77.03657166666666, "rental_uris": {"android": "https://dc.lft.to/lastmile_qr_scan", "ios": "https://dc.lft.to/lastmile_qr_scan"}, "lat": 38.93627883333333, "is_reserved": 0, "is_disabled": 0, "fusion_lat": 0.0}, {"fusion_lon": 0.0, "bike_id": "9c9fb2451c7afc28e13a7205da6be299", "name": "9c9fb2451c7afc28e13a7205da6be299", "type": "electric_scooter", "lon": -77.04333533333333, "rental_uris": {"android": "https://dc.lft.to/lastmile_qr_scan", "ios": "https://dc.lft.to/lastmile_qr_scan"}, "lat": 38.90728383333333, "is_reserved": 0, "is_disabled": 0, "fusion_lat": 0.0}, {"fusion_lon": 0.0, "bike_id": "cf5d0eceac67d86e944f6bbf5fa7dcf9", "name": "cf5d0eceac67d86e944f6bbf5fa7dcf9", "type": "electric_scooter", "lon": -77.06262283333334, "rental_uris": {"android": "https://dc.lft.to/lastmile_qr_scan", "ios": "https://dc.lft.to/lastmile_qr_scan"}, "lat": 38.90526833333333, "is_reserved": 0, "is_disabled": 0, "fusion_lat": 0.0}, {"fusion_lon": 0.0, "bike_id": "c71d887a45152ced858c068047cc8e08", "name": "c71d887a45152ced858c068047cc8e08", "type": "electric_scooter", "lon": -77.03854933333334, "rental_uris": {"android": "https://dc.lft.to/lastmile_qr_scan", "ios": "https://dc.lft.to/lastmile_qr_scan"}, "lat": 38.912916, "is_reserved": 0, "is_disabled": 0, "fusion_lat": 0.0}, {"fusion_lon": 0.0, "bike_id": "972732232294d8f06cffd8bb22d2c533", "name": "972732232294d8f06cffd8bb22d2c533", "type": "electric_scooter", "lon": -77.04168233333333, "rental_uris": {"android": "https://dc.lft.to/lastmile_qr_scan", "ios": "https://dc.lft.to/lastmile_qr_scan"}, "lat": 38.91338566666667, "is_reserved": 0, "is_disabled": 0, "fusion_lat": 0.0}, {"fusion_lon": 0.0, "bike_id": "efee1e890aa5f6a60f28744281ebc64d", "name": "efee1e890aa5f6a60f28744281ebc64d", "type": "electric_scooter", "lon": -77.00955233333333, "rental_uris": {"android": "https://dc.lft.to/lastmile_qr_scan", "ios": "https://dc.lft.to/lastmile_qr_scan"}, "lat": 38.8766535, "is_reserved": 0, "is_disabled": 0, "fusion_lat": 0.0}, {"fusion_lon": 0.0, "bike_id": "7b7347db668946d19f6aba72a135051a", "name": "7b7347db668946d19f6aba72a135051a", "type": "electric_scooter", "lon": -77.032074, "rental_uris": {"android": "https://dc.lft.to/lastmile_qr_scan", "ios": "https://dc.lft.to/lastmile_qr_scan"}, "lat": 38.887503333333335, "is_reserved": 0, "is_disabled": 0, "fusion_lat": 0.0}, {"fusion_lon": 0.0, "bike_id": "ccb4b62f41640e0397feea2aa7c2bd9b", "name": "ccb4b62f41640e0397feea2aa7c2bd9b", "type": "electric_scooter", "lon": -77.03794183333333, "rental_uris": {"android": "https://dc.lft.to/lastmile_qr_scan", "ios": "https://dc.lft.to/lastmile_qr_scan"}, "lat": 38.93598, "is_reserved": 0, "is_disabled": 0, "fusion_lat": 0.0}, {"fusion_lon": 0.0, "bike_id": "72d573302d17ade6a15820d3fe007e59", "name": "72d573302d17ade6a15820d3fe007e59", "type": "electric_scooter", "lon": -77.06096766666667, "rental_uris": {"android": "https://dc.lft.to/lastmile_qr_scan", "ios": "https://dc.lft.to/lastmile_qr_scan"}, "lat": 38.943694666666666, "is_reserved": 0, "is_disabled": 0, "fusion_lat": 0.0}, {"fusion_lon": 0.0, "bike_id": "bbac942bfad2e7256e7e2abf006e7c7f", "name": "bbac942bfad2e7256e7e2abf006e7c7f", "type": "electric_scooter", "lon": -77.01412133333334, "rental_uris": {"android": "https://dc.lft.to/lastmile_qr_scan", "ios": "https://dc.lft.to/lastmile_qr_scan"}, "lat": 38.928448, "is_reserved": 0, "is_disabled": 0, "fusion_lat": 0.0}, {"fusion_lon": 0.0, "bike_id": "de316353217d3062b80fe948db8a306c", "name": "de316353217d3062b80fe948db8a306c", "type": "electric_scooter", "lon": -77.052279, "rental_uris": {"android": "https://dc.lft.to/lastmile_qr_scan", "ios": "https://dc.lft.to/lastmile_qr_scan"}, "lat": 38.924687, "is_reserved": 0, "is_disabled": 0, "fusion_lat": 0.0}, {"fusion_lon": 0.0, "bike_id": "4c95ac58003ee71563d5fe3daa596552", "name": "4c95ac58003ee71563d5fe3daa596552", "type": "electric_scooter", "lon": -76.99612, "rental_uris": {"android": "https://dc.lft.to/lastmile_qr_scan", "ios": "https://dc.lft.to/lastmile_qr_scan"}, "lat": 38.8862195, "is_reserved": 0, "is_disabled": 0, "fusion_lat": 0.0}, {"fusion_lon": 0.0, "bike_id": "ca0bdfbb4be96f4450ecf6ee150f26c5", "name": "ca0bdfbb4be96f4450ecf6ee150f26c5", "type": "electric_bike", "lon": -76.98120083333333, "rental_uris": {"android": "https://dc.lft.to/lastmile_qr_scan", "ios": "https://dc.lft.to/lastmile_qr_scan"}, "lat": 38.89669133333334, "is_reserved": 0, "is_disabled": 0, "fusion_lat": 0.0}, {"fusion_lon": 0.0, "bike_id": "8152f6bfaea3469f9ceadc79cd12e23b", "name": "8152f6bfaea3469f9ceadc79cd12e23b", "type": "electric_scooter", "lon": -77.03206933333334, "rental_uris": {"android": "https://dc.lft.to/lastmile_qr_scan", "ios": "https://dc.lft.to/lastmile_qr_scan"}, "lat": 38.90762516666667, "is_reserved": 0, "is_disabled": 0, "fusion_lat": 0.0}, {"fusion_lon": 0.0, "bike_id": "915f14607a73cf4202e596c028ca7c58", "name": "915f14607a73cf4202e596c028ca7c58", "type": "electric_scooter", "lon": -76.9372055, "rental_uris": {"android": "https://dc.lft.to/lastmile_qr_scan", "ios": "https://dc.lft.to/lastmile_qr_scan"}, "lat": 38.8910775, "is_reserved": 0, "is_disabled": 0, "fusion_lat": 0.0}, {"fusion_lon": 0.0, "bike_id": "9061fc4677ea5840f94c307b4a0b2cfb", "name": "9061fc4677ea5840f94c307b4a0b2cfb", "type": "electric_scooter", "lon": -77.00337533333334, "rental_uris": {"android": "https://dc.lft.to/lastmile_qr_scan", "ios": "https://dc.lft.to/lastmile_qr_scan"}, "lat": 38.893608, "is_reserved": 0, "is_disabled": 0, "fusion_lat": 0.0}, {"fusion_lon": 0.0, "bike_id": "05ff68924893a1da1ead1d3ee1ddcc8d", "name": "05ff68924893a1da1ead1d3ee1ddcc8d", "type": "electric_bike", "lon": -77.10184433333333, "rental_uris": {"android": "https://dc.lft.to/lastmile_qr_scan", "ios": "https://dc.lft.to/lastmile_qr_scan"}, "lat": 38.91815716666667, "is_reserved": 0, "is_disabled": 0, "fusion_lat": 0.0}, {"fusion_lon": 0.0, "bike_id": "98e9ed9c0ef55f0fd3fa131aaf60fa4c", "name": "98e9ed9c0ef55f0fd3fa131aaf60fa4c", "type": "electric_scooter", "lon": -77.06409683333334, "rental_uris": {"android": "https://dc.lft.to/lastmile_qr_scan", "ios": "https://dc.lft.to/lastmile_qr_scan"}, "lat": 38.94328316666667, "is_reserved": 0, "is_disabled": 0, "fusion_lat": 0.0}, {"fusion_lon": 0.0, "bike_id": "2d68fab15598ea27ca8e2c33f40ccb6d", "name": "2d68fab15598ea27ca8e2c33f40ccb6d", "type": "electric_bike", "lon": -76.98329566666666, "rental_uris": {"android": "https://dc.lft.to/lastmile_qr_scan", "ios": "https://dc.lft.to/lastmile_qr_scan"}, "lat": 38.96607233333334, "is_reserved": 0, "is_disabled": 0, "fusion_lat": 0.0}, {"fusion_lon": 0.0, "bike_id": "54ab78a4d85cb1054a1583ae6d96d9fc", "name": "54ab78a4d85cb1054a1583ae6d96d9fc", "type": "electric_scooter", "lon": -77.00939533333333, "rental_uris": {"android": "https://dc.lft.to/lastmile_qr_scan", "ios": "https://dc.lft.to/lastmile_qr_scan"}, "lat": 38.876605166666664, "is_reserved": 0, "is_disabled": 0, "fusion_lat": 0.0}, {"fusion_lon": 0.0, "bike_id": "6d40cca50e4672eae951c60f54959353", "name": "6d40cca50e4672eae951c60f54959353", "type": "electric_scooter", "lon": -76.983735, "rental_uris": {"android": "https://dc.lft.to/lastmile_qr_scan", "ios": "https://dc.lft.to/lastmile_qr_scan"}, "lat": 38.9064655, "is_reserved": 0, "is_disabled": 0, "fusion_lat": 0.0}, {"fusion_lon": 0.0, "bike_id": "4892dc7c528a84deaf27bcf45e88f4a3", "name": "4892dc7c528a84deaf27bcf45e88f4a3", "type": "electric_scooter", "lon": -77.0258985, "rental_uris": {"android": "https://dc.lft.to/lastmile_qr_scan", "ios": "https://dc.lft.to/lastmile_qr_scan"}, "lat": 38.912805, "is_reserved": 0, "is_disabled": 0, "fusion_lat": 0.0}, {"fusion_lon": 0.0, "bike_id": "70f349635ffecfb3c3623dc112a7bd36", "name": "70f349635ffecfb3c3623dc112a7bd36", "type": "electric_bike", "lon": -77.11251866666667, "rental_uris": {"android": "https://dc.lft.to/lastmile_qr_scan", "ios": "https://dc.lft.to/lastmile_qr_scan"}, "lat": 38.81246516666667, "is_reserved": 0, "is_disabled": 0, "fusion_lat": 0.0}, {"fusion_lon": 0.0, "bike_id": "11249fc2076cc4567f865fc337954737", "name": "11249fc2076cc4567f865fc337954737", "type": "electric_scooter", "lon": -77.02790383333334, "rental_uris": {"android": "https://dc.lft.to/lastmile_qr_scan", "ios": "https://dc.lft.to/lastmile_qr_scan"}, "lat": 38.93084566666667, "is_reserved": 0, "is_disabled": 0, "fusion_lat": 0.0}, {"fusion_lon": 0.0, "bike_id": "ee07692e3e41e4c4ae9bbf9233605580", "name": "ee07692e3e41e4c4ae9bbf9233605580", "type": "electric_scooter", "lon": -77.0215975, "rental_uris": {"android": "https://dc.lft.to/lastmile_qr_scan", "ios": "https://dc.lft.to/lastmile_qr_scan"}, "lat": 38.926053833333334, "is_reserved": 0, "is_disabled": 0, "fusion_lat": 0.0}, {"fusion_lon": 0.0, "bike_id": "256d551d07f81f67fd6da10a6e92c4cd", "name": "256d551d07f81f67fd6da10a6e92c4cd", "type": "electric_scooter", "lon": -77.03266883333333, "rental_uris": {"android": "https://dc.lft.to/lastmile_qr_scan", "ios": "https://dc.lft.to/lastmile_qr_scan"}, "lat": 38.933315666666665, "is_reserved": 0, "is_disabled": 0, "fusion_lat": 0.0}, {"fusion_lon": 0.0, "bike_id": "3383656181a749823734889703f6940e", "name": "3383656181a749823734889703f6940e", "type": "electric_scooter", "lon": -76.99964033333333, "rental_uris": {"android": "https://dc.lft.to/lastmile_qr_scan", "ios": "https://dc.lft.to/lastmile_qr_scan"}, "lat": 38.8428605, "is_reserved": 0, "is_disabled": 0, "fusion_lat": 0.0}, {"fusion_lon": 0.0, "bike_id": "dddc4966f9ac8933b232f97761ff73ee", "name": "dddc4966f9ac8933b232f97761ff73ee", "type": "electric_bike", "lon": -76.9495535, "rental_uris": {"android": "https://dc.lft.to/lastmile_qr_scan", "ios": "https://dc.lft.to/lastmile_qr_scan"}, "lat": 38.935074, "is_reserved": 0, "is_disabled": 0, "fusion_lat": 0.0}, {"fusion_lon": 0.0, "bike_id": "51512e1441c4efa31f8f3dd8e96781bf", "name": "51512e1441c4efa31f8f3dd8e96781bf", "type": "electric_scooter", "lon": -77.01366433333334, "rental_uris": {"android": "https://dc.lft.to/lastmile_qr_scan", "ios": "https://dc.lft.to/lastmile_qr_scan"}, "lat": 38.88705566666667, "is_reserved": 0, "is_disabled": 0, "fusion_lat": 0.0}, {"fusion_lon": 0.0, "bike_id": "9e2e5abca942d92b997522586819b7d8", "name": "9e2e5abca942d92b997522586819b7d8", "type": "electric_scooter", "lon": -77.051204, "rental_uris": {"android": "https://dc.lft.to/lastmile_qr_scan", "ios": "https://dc.lft.to/lastmile_qr_scan"}, "lat": 38.9121805, "is_reserved": 0, "is_disabled": 0, "fusion_lat": 0.0}, {"fusion_lon": 0.0, "bike_id": "23bd13c1b65b3daabfe7df400c91fad9", "name": "23bd13c1b65b3daabfe7df400c91fad9", "type": "electric_scooter", "lon": -77.00206566666667, "rental_uris": {"android": "https://dc.lft.to/lastmile_qr_scan", "ios": "https://dc.lft.to/lastmile_qr_scan"}, "lat": 38.8934395, "is_reserved": 0, "is_disabled": 0, "fusion_lat": 0.0}, {"fusion_lon": 0.0, "bike_id": "0e86c0085668a3b2aa85f48752e807c2", "name": "0e86c0085668a3b2aa85f48752e807c2", "type": "electric_scooter", "lon": -77.0326635, "rental_uris": {"android": "https://dc.lft.to/lastmile_qr_scan", "ios": "https://dc.lft.to/lastmile_qr_scan"}, "lat": 38.92830766666667, "is_reserved": 0, "is_disabled": 0, "fusion_lat": 0.0}, {"fusion_lon": 0.0, "bike_id": "791aefd467000ac129c8e4cf7cd96170", "name": "791aefd467000ac129c8e4cf7cd96170", "type": "electric_scooter", "lon": -77.007379, "rental_uris": {"android": "https://dc.lft.to/lastmile_qr_scan", "ios": "https://dc.lft.to/lastmile_qr_scan"}, "lat": 38.8764705, "is_reserved": 0, "is_disabled": 0, "fusion_lat": 0.0}, {"fusion_lon": 0.0, "bike_id": "34c81413e57377b9064901ca67a90de9", "name": "34c81413e57377b9064901ca67a90de9", "type": "electric_scooter", "lon": -77.01113633333334, "rental_uris": {"android": "https://dc.lft.to/lastmile_qr_scan", "ios": "https://dc.lft.to/lastmile_qr_scan"}, "lat": 38.90368766666667, "is_reserved": 0, "is_disabled": 0, "fusion_lat": 0.0}, {"fusion_lon": 0.0, "bike_id": "48d8b09eb3fa7accedd3dd22b3921f51", "name": "48d8b09eb3fa7accedd3dd22b3921f51", "type": "electric_scooter", "lon": -77.04667866666666, "rental_uris": {"android": "https://dc.lft.to/lastmile_qr_scan", "ios": "https://dc.lft.to/lastmile_qr_scan"}, "lat": 38.90365, "is_reserved": 0, "is_disabled": 0, "fusion_lat": 0.0}, {"fusion_lon": 0.0, "bike_id": "7cf3b0592e050bfbf99ca2ada0701de2", "name": "7cf3b0592e050bfbf99ca2ada0701de2", "type": "electric_scooter", "lon": -77.0328275, "rental_uris": {"android": "https://dc.lft.to/lastmile_qr_scan", "ios": "https://dc.lft.to/lastmile_qr_scan"}, "lat": 38.938850333333335, "is_reserved": 0, "is_disabled": 0, "fusion_lat": 0.0}, {"fusion_lon": 0.0, "bike_id": "1cf1692d21bff730230e33c72de2283d", "name": "1cf1692d21bff730230e33c72de2283d", "type": "electric_scooter", "lon": -77.03877883333334, "rental_uris": {"android": "https://dc.lft.to/lastmile_qr_scan", "ios": "https://dc.lft.to/lastmile_qr_scan"}, "lat": 38.919794, "is_reserved": 0, "is_disabled": 0, "fusion_lat": 0.0}, {"fusion_lon": 0.0, "bike_id": "e469950e83a57d29ae35009aec0b80c3", "name": "e469950e83a57d29ae35009aec0b80c3", "type": "electric_scooter", "lon": -77.03416916666667, "rental_uris": {"android": "https://dc.lft.to/lastmile_qr_scan", "ios": "https://dc.lft.to/lastmile_qr_scan"}, "lat": 38.929488666666664, "is_reserved": 0, "is_disabled": 0, "fusion_lat": 0.0}, {"fusion_lon": 0.0, "bike_id": "237292ae2502557fd87e6d020f0cf5a7", "name": "237292ae2502557fd87e6d020f0cf5a7", "type": "electric_scooter", "lon": -77.01209566666667, "rental_uris": {"android": "https://dc.lft.to/lastmile_qr_scan", "ios": "https://dc.lft.to/lastmile_qr_scan"}, "lat": 38.89337033333334, "is_reserved": 0, "is_disabled": 0, "fusion_lat": 0.0}, {"fusion_lon": 0.0, "bike_id": "feb3d0c9de1a2a2f7260484a893826cb", "name": "feb3d0c9de1a2a2f7260484a893826cb", "type": "electric_scooter", "lon": -77.05209133333334, "rental_uris": {"android": "https://dc.lft.to/lastmile_qr_scan", "ios": "https://dc.lft.to/lastmile_qr_scan"}, "lat": 38.924353833333335, "is_reserved": 0, "is_disabled": 0, "fusion_lat": 0.0}, {"fusion_lon": 0.0, "bike_id": "fc9a768b89ff698255ec31e3a61fe145", "name": "fc9a768b89ff698255ec31e3a61fe145", "type": "electric_scooter", "lon": -76.9914765, "rental_uris": {"android": "https://dc.lft.to/lastmile_qr_scan", "ios": "https://dc.lft.to/lastmile_qr_scan"}, "lat": 38.87908566666667, "is_reserved": 0, "is_disabled": 0, "fusion_lat": 0.0}, {"fusion_lon": 0.0, "bike_id": "53c4aa0dcc648e8e59997a8cf82c6591", "name": "53c4aa0dcc648e8e59997a8cf82c6591", "type": "electric_bike", "lon": -76.9976195, "rental_uris": {"android": "https://dc.lft.to/lastmile_qr_scan", "ios": "https://dc.lft.to/lastmile_qr_scan"}, "lat": 39.00598133333333, "is_reserved": 0, "is_disabled": 0, "fusion_lat": 0.0}, {"fusion_lon": 0.0, "bike_id": "b033c646f123c4fac925dc50fe1029fc", "name": "b033c646f123c4fac925dc50fe1029fc", "type": "electric_scooter", "lon": -77.027806, "rental_uris": {"android": "https://dc.lft.to/lastmile_qr_scan", "ios": "https://dc.lft.to/lastmile_qr_scan"}, "lat": 38.881560666666665, "is_reserved": 0, "is_disabled": 0, "fusion_lat": 0.0}, {"fusion_lon": 0.0, "bike_id": "e3d6ccaf6f83cc1e725dcad37fecfc59", "name": "e3d6ccaf6f83cc1e725dcad37fecfc59", "type": "electric_scooter", "lon": -77.02802766666667, "rental_uris": {"android": "https://dc.lft.to/lastmile_qr_scan", "ios": "https://dc.lft.to/lastmile_qr_scan"}, "lat": 38.906207333333334, "is_reserved": 0, "is_disabled": 0, "fusion_lat": 0.0}, {"fusion_lon": 0.0, "bike_id": "38742298dcbb3132c64ffa364cbcf49c", "name": "38742298dcbb3132c64ffa364cbcf49c", "type": "electric_scooter", "lon": -77.04163566666666, "rental_uris": {"android": "https://dc.lft.to/lastmile_qr_scan", "ios": "https://dc.lft.to/lastmile_qr_scan"}, "lat": 38.90298133333334, "is_reserved": 0, "is_disabled": 0, "fusion_lat": 0.0}, {"fusion_lon": 0.0, "bike_id": "fa636295fff7d8bc614c9e62dcb92902", "name": "fa636295fff7d8bc614c9e62dcb92902", "type": "electric_scooter", "lon": -77.03065983333333, "rental_uris": {"android": "https://dc.lft.to/lastmile_qr_scan", "ios": "https://dc.lft.to/lastmile_qr_scan"}, "lat": 38.880460166666666, "is_reserved": 0, "is_disabled": 0, "fusion_lat": 0.0}, {"fusion_lon": 0.0, "bike_id": "8a13a697c1c1de18f23af97287bd15fe", "name": "8a13a697c1c1de18f23af97287bd15fe", "type": "electric_bike", "lon": -77.13179833333334, "rental_uris": {"android": "https://dc.lft.to/lastmile_qr_scan", "ios": "https://dc.lft.to/lastmile_qr_scan"}, "lat": 38.86909, "is_reserved": 0, "is_disabled": 0, "fusion_lat": 0.0}, {"fusion_lon": 0.0, "bike_id": "5a419036e529f771a400292e40132dd3", "name": "5a419036e529f771a400292e40132dd3", "type": "electric_bike", "lon": -77.0265515, "rental_uris": {"android": "https://dc.lft.to/lastmile_qr_scan", "ios": "https://dc.lft.to/lastmile_qr_scan"}, "lat": 38.988155166666665, "is_reserved": 0, "is_disabled": 0, "fusion_lat": 0.0}, {"fusion_lon": 0.0, "bike_id": "b86da83a8e6e8588927f84d949c46462", "name": "b86da83a8e6e8588927f84d949c46462", "type": "electric_scooter", "lon": -77.03378183333334, "rental_uris": {"android": "https://dc.lft.to/lastmile_qr_scan", "ios": "https://dc.lft.to/lastmile_qr_scan"}, "lat": 38.92543883333333, "is_reserved": 0, "is_disabled": 0, "fusion_lat": 0.0}, {"fusion_lon": 0.0, "bike_id": "afa75090673c3b82364ae782a5029f52", "name": "afa75090673c3b82364ae782a5029f52", "type": "electric_scooter", "lon": -77.02943266666666, "rental_uris": {"android": "https://dc.lft.to/lastmile_qr_scan", "ios": "https://dc.lft.to/lastmile_qr_scan"}, "lat": 38.90427366666667, "is_reserved": 0, "is_disabled": 0, "fusion_lat": 0.0}, {"fusion_lon": 0.0, "bike_id": "ce5a67ee68ecb111ed9a16db65f9c760", "name": "ce5a67ee68ecb111ed9a16db65f9c760", "type": "electric_scooter", "lon": -77.0221145, "rental_uris": {"android": "https://dc.lft.to/lastmile_qr_scan", "ios": "https://dc.lft.to/lastmile_qr_scan"}, "lat": 38.89537033333333, "is_reserved": 0, "is_disabled": 0, "fusion_lat": 0.0}, {"fusion_lon": 0.0, "bike_id": "d4fc3d23df1c422c76c920a705da70b5", "name": "d4fc3d23df1c422c76c920a705da70b5", "type": "electric_scooter", "lon": -77.03762233333333, "rental_uris": {"android": "https://dc.lft.to/lastmile_qr_scan", "ios": "https://dc.lft.to/lastmile_qr_scan"}, "lat": 38.924757, "is_reserved": 0, "is_disabled": 0, "fusion_lat": 0.0}, {"fusion_lon": 0.0, "bike_id": "04fc4a5708793a1b6621f544a4526cf4", "name": "04fc4a5708793a1b6621f544a4526cf4", "type": "electric_scooter", "lon": -76.98474616666667, "rental_uris": {"android": "https://dc.lft.to/lastmile_qr_scan", "ios": "https://dc.lft.to/lastmile_qr_scan"}, "lat": 38.928925666666665, "is_reserved": 0, "is_disabled": 0, "fusion_lat": 0.0}, {"fusion_lon": 0.0, "bike_id": "dab699da60703da3b9c3ed4f1b6da8ce", "name": "dab699da60703da3b9c3ed4f1b6da8ce", "type": "electric_scooter", "lon": -77.02374766666667, "rental_uris": {"android": "https://dc.lft.to/lastmile_qr_scan", "ios": "https://dc.lft.to/lastmile_qr_scan"}, "lat": 38.9073105, "is_reserved": 0, "is_disabled": 0, "fusion_lat": 0.0}, {"fusion_lon": 0.0, "bike_id": "8ce3a1b87ca22825e04021fdda811efe", "name": "8ce3a1b87ca22825e04021fdda811efe", "type": "electric_scooter", "lon": -77.011878, "rental_uris": {"android": "https://dc.lft.to/lastmile_qr_scan", "ios": "https://dc.lft.to/lastmile_qr_scan"}, "lat": 38.871573166666664, "is_reserved": 0, "is_disabled": 0, "fusion_lat": 0.0}, {"fusion_lon": 0.0, "bike_id": "980dbf366294f2477e348cbfb23abef5", "name": "980dbf366294f2477e348cbfb23abef5", "type": "electric_scooter", "lon": -77.03672816666666, "rental_uris": {"android": "https://dc.lft.to/lastmile_qr_scan", "ios": "https://dc.lft.to/lastmile_qr_scan"}, "lat": 38.9027585, "is_reserved": 0, "is_disabled": 0, "fusion_lat": 0.0}, {"fusion_lon": 0.0, "bike_id": "fe0d1f1bc58d4a07e15de0a41128dffd", "name": "fe0d1f1bc58d4a07e15de0a41128dffd", "type": "electric_scooter", "lon": -76.9295365, "rental_uris": {"android": "https://dc.lft.to/lastmile_qr_scan", "ios": "https://dc.lft.to/lastmile_qr_scan"}, "lat": 38.898792, "is_reserved": 0, "is_disabled": 0, "fusion_lat": 0.0}, {"fusion_lon": 0.0, "bike_id": "b31ce4c0ae2cc072e0eeb6ef715b888b", "name": "b31ce4c0ae2cc072e0eeb6ef715b888b", "type": "electric_scooter", "lon": -77.0409165, "rental_uris": {"android": "https://dc.lft.to/lastmile_qr_scan", "ios": "https://dc.lft.to/lastmile_qr_scan"}, "lat": 38.924018333333336, "is_reserved": 0, "is_disabled": 0, "fusion_lat": 0.0}, {"fusion_lon": 0.0, "bike_id": "95d3fb9187c2607a05c46ba722df1b88", "name": "95d3fb9187c2607a05c46ba722df1b88", "type": "electric_bike", "lon": -77.09577483333334, "rental_uris": {"android": "https://dc.lft.to/lastmile_qr_scan", "ios": "https://dc.lft.to/lastmile_qr_scan"}, "lat": 38.83791983333333, "is_reserved": 0, "is_disabled": 0, "fusion_lat": 0.0}, {"fusion_lon": 0.0, "bike_id": "12e9441c48ff9b868c0bf25dc2b82b1d", "name": "12e9441c48ff9b868c0bf25dc2b82b1d", "type": "electric_scooter", "lon": -76.99225966666667, "rental_uris": {"android": "https://dc.lft.to/lastmile_qr_scan", "ios": "https://dc.lft.to/lastmile_qr_scan"}, "lat": 38.8989055, "is_reserved": 0, "is_disabled": 0, "fusion_lat": 0.0}, {"fusion_lon": 0.0, "bike_id": "dc13e4664af2802d8b0545cb40a847b0", "name": "dc13e4664af2802d8b0545cb40a847b0", "type": "electric_scooter", "lon": -77.0382895, "rental_uris": {"android": "https://dc.lft.to/lastmile_qr_scan", "ios": "https://dc.lft.to/lastmile_qr_scan"}, "lat": 38.90393866666667, "is_reserved": 0, "is_disabled": 0, "fusion_lat": 0.0}, {"fusion_lon": 0.0, "bike_id": "a3e4a027b6e70b31a21673608fa7be04", "name": "a3e4a027b6e70b31a21673608fa7be04", "type": "electric_scooter", "lon": -77.04492116666667, "rental_uris": {"android": "https://dc.lft.to/lastmile_qr_scan", "ios": "https://dc.lft.to/lastmile_qr_scan"}, "lat": 38.914245666666666, "is_reserved": 0, "is_disabled": 0, "fusion_lat": 0.0}, {"fusion_lon": 0.0, "bike_id": "aefbbfaf50932b8a6cfeb06db0629227", "name": "aefbbfaf50932b8a6cfeb06db0629227", "type": "electric_scooter", "lon": -77.07320033333333, "rental_uris": {"android": "https://dc.lft.to/lastmile_qr_scan", "ios": "https://dc.lft.to/lastmile_qr_scan"}, "lat": 38.9120135, "is_reserved": 0, "is_disabled": 0, "fusion_lat": 0.0}, {"fusion_lon": 0.0, "bike_id": "35c9835f306f8be8c1f4f2ca28fd26ed", "name": "35c9835f306f8be8c1f4f2ca28fd26ed", "type": "electric_scooter", "lon": -77.02416383333333, "rental_uris": {"android": "https://dc.lft.to/lastmile_qr_scan", "ios": "https://dc.lft.to/lastmile_qr_scan"}, "lat": 38.90575666666667, "is_reserved": 0, "is_disabled": 0, "fusion_lat": 0.0}, {"fusion_lon": 0.0, "bike_id": "e12dd64813ef668bb9ff716b37a22133", "name": "e12dd64813ef668bb9ff716b37a22133", "type": "electric_scooter", "lon": -77.04664233333334, "rental_uris": {"android": "https://dc.lft.to/lastmile_qr_scan", "ios": "https://dc.lft.to/lastmile_qr_scan"}, "lat": 38.9041645, "is_reserved": 0, "is_disabled": 0, "fusion_lat": 0.0}, {"fusion_lon": 0.0, "bike_id": "c46989e8ee9824552eed06329edbcc4c", "name": "c46989e8ee9824552eed06329edbcc4c", "type": "electric_scooter", "lon": -77.02583433333334, "rental_uris": {"android": "https://dc.lft.to/lastmile_qr_scan", "ios": "https://dc.lft.to/lastmile_qr_scan"}, "lat": 38.8997745, "is_reserved": 0, "is_disabled": 0, "fusion_lat": 0.0}, {"fusion_lon": 0.0, "bike_id": "4bacbca6bd30d3892ac7be5702296a42", "name": "4bacbca6bd30d3892ac7be5702296a42", "type": "electric_scooter", "lon": -77.03703666666667, "rental_uris": {"android": "https://dc.lft.to/lastmile_qr_scan", "ios": "https://dc.lft.to/lastmile_qr_scan"}, "lat": 38.9264625, "is_reserved": 0, "is_disabled": 0, "fusion_lat": 0.0}, {"fusion_lon": 0.0, "bike_id": "e4e17710a0e9be89f41d6d6f8751fbd3", "name": "e4e17710a0e9be89f41d6d6f8751fbd3", "type": "electric_bike", "lon": -77.10733816666666, "rental_uris": {"android": "https://dc.lft.to/lastmile_qr_scan", "ios": "https://dc.lft.to/lastmile_qr_scan"}, "lat": 38.855317666666664, "is_reserved": 0, "is_disabled": 0, "fusion_lat": 0.0}, {"fusion_lon": 0.0, "bike_id": "c07056d5e3c6a3120d04d748b31515be", "name": "c07056d5e3c6a3120d04d748b31515be", "type": "electric_scooter", "lon": -77.03185133333334, "rental_uris": {"android": "https://dc.lft.to/lastmile_qr_scan", "ios": "https://dc.lft.to/lastmile_qr_scan"}, "lat": 38.921252333333335, "is_reserved": 0, "is_disabled": 0, "fusion_lat": 0.0}, {"fusion_lon": 0.0, "bike_id": "d0c2e7612c1ab04f9adead1933736b3e", "name": "d0c2e7612c1ab04f9adead1933736b3e", "type": "electric_bike", "lon": -76.96385016666666, "rental_uris": {"android": "https://dc.lft.to/lastmile_qr_scan", "ios": "https://dc.lft.to/lastmile_qr_scan"}, "lat": 38.97579783333333, "is_reserved": 0, "is_disabled": 0, "fusion_lat": 0.0}, {"fusion_lon": 0.0, "bike_id": "c37cd7111f495beb28580a82fbf55267", "name": "c37cd7111f495beb28580a82fbf55267", "type": "electric_scooter", "lon": -76.995326, "rental_uris": {"android": "https://dc.lft.to/lastmile_qr_scan", "ios": "https://dc.lft.to/lastmile_qr_scan"}, "lat": 38.900256666666664, "is_reserved": 0, "is_disabled": 0, "fusion_lat": 0.0}, {"fusion_lon": 0.0, "bike_id": "5c727fade110fc1de2933c1681fa7ff0", "name": "5c727fade110fc1de2933c1681fa7ff0", "type": "electric_bike", "lon": -76.8777415, "rental_uris": {"android": "https://dc.lft.to/lastmile_qr_scan", "ios": "https://dc.lft.to/lastmile_qr_scan"}, "lat": 38.99235216666667, "is_reserved": 0, "is_disabled": 0, "fusion_lat": 0.0}, {"fusion_lon": 0.0, "bike_id": "b6d2014df5a8798965292269a4677dc9", "name": "b6d2014df5a8798965292269a4677dc9", "type": "electric_bike", "lon": -76.94868266666667, "rental_uris": {"android": "https://dc.lft.to/lastmile_qr_scan", "ios": "https://dc.lft.to/lastmile_qr_scan"}, "lat": 38.889674166666666, "is_reserved": 0, "is_disabled": 0, "fusion_lat": 0.0}, {"fusion_lon": 0.0, "bike_id": "7de71eba6f34a44a7e88fb19d4b2cd83", "name": "7de71eba6f34a44a7e88fb19d4b2cd83", "type": "electric_scooter", "lon": -77.03277633333333, "rental_uris": {"android": "https://dc.lft.to/lastmile_qr_scan", "ios": "https://dc.lft.to/lastmile_qr_scan"}, "lat": 38.8989355, "is_reserved": 0, "is_disabled": 0, "fusion_lat": 0.0}, {"fusion_lon": 0.0, "bike_id": "6871f3f571dfb208955716b4d06cb540", "name": "6871f3f571dfb208955716b4d06cb540", "type": "electric_scooter", "lon": -77.04267466666667, "rental_uris": {"android": "https://dc.lft.to/lastmile_qr_scan", "ios": "https://dc.lft.to/lastmile_qr_scan"}, "lat": 38.897394166666665, "is_reserved": 0, "is_disabled": 0, "fusion_lat": 0.0}, {"fusion_lon": 0.0, "bike_id": "029f79ee3bfbf9126e2b70ead646f058", "name": "029f79ee3bfbf9126e2b70ead646f058", "type": "electric_scooter", "lon": -77.04472183333333, "rental_uris": {"android": "https://dc.lft.to/lastmile_qr_scan", "ios": "https://dc.lft.to/lastmile_qr_scan"}, "lat": 38.911197333333334, "is_reserved": 0, "is_disabled": 0, "fusion_lat": 0.0}, {"fusion_lon": 0.0, "bike_id": "50974fb9cb3d7b1ca69f476a21787a9f", "name": "50974fb9cb3d7b1ca69f476a21787a9f", "type": "electric_scooter", "lon": -77.02179283333334, "rental_uris": {"android": "https://dc.lft.to/lastmile_qr_scan", "ios": "https://dc.lft.to/lastmile_qr_scan"}, "lat": 38.89618883333333, "is_reserved": 0, "is_disabled": 0, "fusion_lat": 0.0}, {"fusion_lon": 0.0, "bike_id": "c525da030fa0482d0c0238debb800592", "name": "c525da030fa0482d0c0238debb800592", "type": "electric_bike", "lon": -76.98521583333333, "rental_uris": {"android": "https://dc.lft.to/lastmile_qr_scan", "ios": "https://dc.lft.to/lastmile_qr_scan"}, "lat": 38.91996183333333, "is_reserved": 0, "is_disabled": 0, "fusion_lat": 0.0}, {"fusion_lon": 0.0, "bike_id": "0c2876d867040a994e6e7986735a0428", "name": "0c2876d867040a994e6e7986735a0428", "type": "electric_scooter", "lon": -77.02575966666667, "rental_uris": {"android": "https://dc.lft.to/lastmile_qr_scan", "ios": "https://dc.lft.to/lastmile_qr_scan"}, "lat": 38.903603833333335, "is_reserved": 0, "is_disabled": 0, "fusion_lat": 0.0}, {"fusion_lon": 0.0, "bike_id": "8d42b0f761ea9709c0f962d1a186d2a0", "name": "8d42b0f761ea9709c0f962d1a186d2a0", "type": "electric_scooter", "lon": -77.0268235, "rental_uris": {"android": "https://dc.lft.to/lastmile_qr_scan", "ios": "https://dc.lft.to/lastmile_qr_scan"}, "lat": 38.896268666666664, "is_reserved": 0, "is_disabled": 0, "fusion_lat": 0.0}, {"fusion_lon": 0.0, "bike_id": "efe41ac9ba3cbd32044e8c804469da93", "name": "efe41ac9ba3cbd32044e8c804469da93", "type": "electric_scooter", "lon": -77.0096725, "rental_uris": {"android": "https://dc.lft.to/lastmile_qr_scan", "ios": "https://dc.lft.to/lastmile_qr_scan"}, "lat": 38.90788533333333, "is_reserved": 0, "is_disabled": 0, "fusion_lat": 0.0}, {"fusion_lon": 0.0, "bike_id": "c5dca5a03f41459c5a6845ee197ef573", "name": "c5dca5a03f41459c5a6845ee197ef573", "type": "electric_scooter", "lon": -77.0193005, "rental_uris": {"android": "https://dc.lft.to/lastmile_qr_scan", "ios": "https://dc.lft.to/lastmile_qr_scan"}, "lat": 38.944766666666666, "is_reserved": 0, "is_disabled": 0, "fusion_lat": 0.0}, {"fusion_lon": 0.0, "bike_id": "fba00a19947b185e3bf170728fe6f9a0", "name": "fba00a19947b185e3bf170728fe6f9a0", "type": "electric_scooter", "lon": -77.00331983333334, "rental_uris": {"android": "https://dc.lft.to/lastmile_qr_scan", "ios": "https://dc.lft.to/lastmile_qr_scan"}, "lat": 38.8959975, "is_reserved": 0, "is_disabled": 0, "fusion_lat": 0.0}, {"fusion_lon": 0.0, "bike_id": "d5b29ced6c6ca9efad50205f0cbd1783", "name": "d5b29ced6c6ca9efad50205f0cbd1783", "type": "electric_scooter", "lon": -76.97990633333333, "rental_uris": {"android": "https://dc.lft.to/lastmile_qr_scan", "ios": "https://dc.lft.to/lastmile_qr_scan"}, "lat": 38.88765383333333, "is_reserved": 0, "is_disabled": 0, "fusion_lat": 0.0},