{"data": {"bikes": [{"lon": -77.041739, "lat": 38.90632083333333, "name": "c7f46bf66f48d8bfe8c95b903c72ae87", "fusion_lat": 0.0, "fusion_lon": 0.0, "rental_uris": {"android": "https://dc.lft.to/lastmile_qr_scan", "ios": "https://dc.lft.to/lastmile_qr_scan"}, "is_reserved": 0, "is_disabled": 0, "type": "electric_scooter", "bike_id": "c7f46bf66f48d8bfe8c95b903c72ae87"}, {"lon": -77.03804233333334, "lat": 38.905642, "name": "bbcb59c9d7b4e7cd8a285f16cfcec2b4", "fusion_lat": 0.0, "fusion_lon": 0.0, "rental_uris": {"android": "https://dc.lft.to/lastmile_qr_scan", "ios": "https://dc.lft.to/lastmile_qr_scan"}, "is_reserved": 0, "is_disabled": 0, "type": "electric_scooter", "bike_id": "bbcb59c9d7b4e7cd8a285f16cfcec2b4"}, {"lon": -77.1068525, "lat": 38.935844333333335, "name": "3e9bba742c78d09186899a1b39372c4c", "fusion_lat": 0.0, "fusion_lon": 0.0, "rental_uris": {"android": "https://dc.lft.to/lastmile_qr_scan", "ios": "https://dc.lft.to/lastmile_qr_scan"}, "is_reserved": 0, "is_disabled": 0, "type": "electric_bike", "bike_id": "3e9bba742c78d09186899a1b39372c4c"}, {"lon": -77.0322525, "lat": 38.8922775, "name": "8801281c6535d561d5740e011d204909", "fusion_lat": 0.0, "fusion_lon": 0.0, "rental_uris": {"android": "https://dc.lft.to/lastmile_qr_scan", "ios": "https://dc.lft.to/lastmile_qr_scan"}, "is_reserved": 0, "is_disabled": 0, "type": "electric_scooter", "bike_id": "8801281c6535d561d5740e011d204909"}, {"lon": -77.02410116666667, "lat": 38.904326833333336, "name": "6ecb3df87601ad1a31b88b19a36d3005", "fusion_lat": 0.0, "fusion_lon": 0.0, "rental_uris": {"android": "https://dc.lft.to/lastmile_qr_scan", "ios": "https://dc.lft.to/lastmile_qr_scan"}, "is_reserved": 0, "is_disabled": 0, "type": "electric_scooter", "bike_id": "6ecb3df87601ad1a31b88b19a36d3005"}, {"lon": -77.0490105, "lat": 38.905455, "name": "f6b7a4441af739db698021d7cbaf97d9", "fusion_lat": 0.0, "fusion_lon": 0.0, "rental_uris": {"android": "https://dc.lft.to/lastmile_qr_scan", "ios": "https://dc.lft.to/lastmile_qr_scan"}, "is_reserved": 0, "is_disabled": 0, "type": "electric_scooter", "bike_id": "f6b7a4441af739db698021d7cbaf97d9"}, {"lon": -77.04657616666667, "lat": 38.893434, "name": "5a4316e0481c5362d722e821bda446f0", "fusion_lat": 0.0, "fusion_lon": 0.0, "rental_uris": {"android": "https://dc.lft.to/lastmile_qr_scan", "ios": "https://dc.lft.to/lastmile_qr_scan"}, "is_reserved": 0, "is_disabled": 0, "type": "electric_scooter", "bike_id": "5a4316e0481c5362d722e821bda446f0"}, {"lon": -76.9165435, "lat": 38.86859283333333, "name": "75b18305c26c38b52bbe43564f1d5d69", "fusion_lat": 0.0, "fusion_lon": 0.0, "rental_uris": {"android": "https://dc.lft.to/lastmile_qr_scan", "ios": "https://dc.lft.to/lastmile_qr_scan"}, "is_reserved": 0, "is_disabled": 0, "type": "electric_bike", "bike_id": "75b18305c26c38b52bbe43564f1d5d69"}, {"lon": -77.01744116666667, "lat": 38.902601, "name": "eae4a8c74a27a85554adf000c1bea411", "fusion_lat": 0.0, "fusion_lon": 0.0, "rental_uris": {"android": "https://dc.lft.to/lastmile_qr_scan", "ios": "https://dc.lft.to/lastmile_qr_scan"}, "is_reserved": 0, "is_disabled": 0, "type": "electric_scooter", "bike_id": "eae4a8c74a27a85554adf000c1bea411"}, {"lon": -77.10766666666666, "lat": 38.892302666666666, "name": "5d100a53ea6cde0b0396fe859bf509c5", "fusion_lat": 0.0, "fusion_lon": 0.0, "rental_uris": {"android": "https://dc.lft.to/lastmile_qr_scan", "ios": "https://dc.lft.to/lastmile_qr_scan"}, "is_reserved": 0, "is_disabled": 0, "type": "electric_bike", "bike_id": "5d100a53ea6cde0b0396fe859bf509c5"}, {"lon": -77.00213483333333, "lat": 38.902268, "name": "31571c69c6d25fc9622c99b82d59ed5d", "fusion_lat": 0.0, "fusion_lon": 0.0, "rental_uris": {"android": "https://dc.lft.to/lastmile_qr_scan", "ios": "https://dc.lft.to/lastmile_qr_scan"}, "is_reserved": 0, "is_disabled": 0, "type": "electric_scooter", "bike_id": "31571c69c6d25fc9622c99b82d59ed5d"}, {"lon": -77.02693166666667, "lat": 38.915171, "name": "cce01c005095c3e4002839885be0eb09", "fusion_lat": 0.0, "fusion_lon": 0.0, "rental_uris": {"android": "https://dc.lft.to/lastmile_qr_scan", "ios": "https://dc.lft.to/lastmile_qr_scan"}, "is_reserved": 0, "is_disabled": 0, "type": "electric_scooter", "bike_id": "cce01c005095c3e4002839885be0eb09"}, {"lon": -77.0293155, "lat": 38.903683666666666, "name": "a5d2d8440990d3ace17814fd765f278a", "fusion_lat": 0.0, "fusion_lon": 0.0, "rental_uris": {"android": "https://dc.lft.to/lastmile_qr_scan", "ios": "https://dc.lft.to/lastmile_qr_scan"}, "is_reserved": 0, "is_disabled": 0, "type": "electric_scooter", "bike_id": "a5d2d8440990d3ace17814fd765f278a"}, {"lon": -76.95411066666666, "lat": 38.89160116666667, "name": "bb73aa912dfff5addf2413164628ac8e", "fusion_lat": 0.0, "fusion_lon": 0.0, "rental_uris": {"android": "https://dc.lft.to/lastmile_qr_scan", "ios": "https://dc.lft.to/lastmile_qr_scan"}, "is_reserved": 0, "is_disabled": 0, "type": "electric_scooter", "bike_id": "bb73aa912dfff5addf2413164628ac8e"}, {"lon": -77.02973783333333, "lat": 38.9168295, "name": "a07a25ffddf05618a02198df7ba4c895", "fusion_lat": 0.0, "fusion_lon": 0.0, "rental_uris": {"android": "https://dc.lft.to/lastmile_qr_scan", "ios": "https://dc.lft.to/lastmile_qr_scan"}, "is_reserved": 0, "is_disabled": 0, "type": "electric_scooter", "bike_id": "a07a25ffddf05618a02198df7ba4c895"}, {"lon": -77.04339266666666, "lat": 38.89669166666667, "name": "287ab54f3f24aaaa1d296675114fcdfc", "fusion_lat": 0.0, "fusion_lon": 0.0, "rental_uris": {"android": "https://dc.lft.to/lastmile_qr_scan", "ios": "https://dc.lft.to/lastmile_qr_scan"}, "is_reserved": 0, "is_disabled": 0, "type": "electric_scooter", "bike_id": "287ab54f3f24aaaa1d296675114fcdfc"}, {"lon": -77.04353483333334, "lat": 38.90380433333333, "name": "5a5834189e9f41d935e9758d7acbe16e", "fusion_lat": 0.0, "fusion_lon": 0.0, "rental_uris": {"android": "https://dc.lft.to/lastmile_qr_scan", "ios": "https://dc.lft.to/lastmile_qr_scan"}, "is_reserved": 0, "is_disabled": 0, "type": "electric_scooter", "bike_id": "5a5834189e9f41d935e9758d7acbe16e"}, {"lon": -77.02981266666667, "lat": 38.922571, "name": "67dc247bf9eedb0b8b88afe6f4a170f0", "fusion_lat": 0.0, "fusion_lon": 0.0, "rental_uris": {"android": "https://dc.lft.to/lastmile_qr_scan", "ios": "https://dc.lft.to/lastmile_qr_scan"}, "is_reserved": 0, "is_disabled": 0, "type": "electric_scooter", "bike_id": "67dc247bf9eedb0b8b88afe6f4a170f0"}, {"lon": -77.02759433333334, "lat": 38.95617583333333, "name": "392a83aab9fb028dc62d1ead2b031aae", "fusion_lat": 0.0, "fusion_lon": 0.0, "rental_uris": {"android": "https://dc.lft.to/lastmile_qr_scan", "ios": "https://dc.lft.to/lastmile_qr_scan"}, "is_reserved": 0, "is_disabled": 0, "type": "electric_scooter", "bike_id": "392a83aab9fb028dc62d1ead2b031aae"}, {"lon": -77.04235866666667, "lat": 38.922766833333334, "name": "fbcca2ee8462704b5ac96ba61d35acb2", "fusion_lat": 0.0, "fusion_lon": 0.0, "rental_uris": {"android": "https://dc.lft.to/lastmile_qr_scan", "ios": "https://dc.lft.to/lastmile_qr_scan"}, "is_reserved": 0, "is_disabled": 0, "type": "electric_scooter", "bike_id": "fbcca2ee8462704b5ac96ba61d35acb2"}, {"lon": -77.02518616666667, "lat": 38.92641066666667, "name": "9c6783e50183051847e9febac9c2c770", "fusion_lat": 0.0, "fusion_lon": 0.0, "rental_uris": {"android": "https://dc.lft.to/lastmile_qr_scan", "ios": "https://dc.lft.to/lastmile_qr_scan"}, "is_reserved": 0, "is_disabled": 0, "type": "electric_scooter", "bike_id": "9c6783e50183051847e9febac9c2c770"}, {"lon": -77.02960166666666, "lat": 38.95426783333333, "name": "f33c72a708371698d0c1ae37b23fbd9c", "fusion_lat": 0.0, "fusion_lon": 0.0, "rental_uris": {"android": "https://dc.lft.to/lastmile_qr_scan", "ios": "https://dc.lft.to/lastmile_qr_scan"}, "is_reserved": 0, "is_disabled": 0, "type": "electric_scooter", "bike_id": "f33c72a708371698d0c1ae37b23fbd9c"}, {"lon": -77.00596316666666, "lat": 38.8748495, "name": "6ec2457b721d465b2ceccc527f13a99f", "fusion_lat": 0.0, "fusion_lon": 0.0, "rental_uris": {"android": "https://dc.lft.to/lastmile_qr_scan", "ios": "https://dc.lft.to/lastmile_qr_scan"}, "is_reserved": 0, "is_disabled": 0, "type": "electric_scooter", "bike_id": "6ec2457b721d465b2ceccc527f13a99f"}, {"lon": -77.06953, "lat": 38.99044033333333, "name": "c6702afa9cd395a675183f3e8af6e427", "fusion_lat": 0.0, "fusion_lon": 0.0, "rental_uris": {"android": "https://dc.lft.to/lastmile_qr_scan", "ios": "https://dc.lft.to/lastmile_qr_scan"}, "is_reserved": 0, "is_disabled": 0, "type": "electric_bike", "bike_id": "c6702afa9cd395a675183f3e8af6e427"}, {"lon": -76.93764783333333, "lat": 38.89971116666667, "name": "4693670aa1bac59f75409ded965fb80b", "fusion_lat": 0.0, "fusion_lon": 0.0, "rental_uris": {"android": "https://dc.lft.to/lastmile_qr_scan", "ios": "https://dc.lft.to/lastmile_qr_scan"}, "is_reserved": 0, "is_disabled": 0, "type": "electric_scooter", "bike_id": "4693670aa1bac59f75409ded965fb80b"}, {"lon": -77.04736983333333, "lat": 38.91123233333333, "name": "3bd57cf60059302f7a42cacdfb4495ce", "fusion_lat": 0.0, "fusion_lon": 0.0, "rental_uris": {"android": "https://dc.lft.to/lastmile_qr_scan", "ios": "https://dc.lft.to/lastmile_qr_scan"}, "is_reserved": 0, "is_disabled": 0, "type": "electric_scooter", "bike_id": "3bd57cf60059302f7a42cacdfb4495ce"}, {"lon": -77.04819083333334, "lat": 38.91110466666667, "name": "13ec388f14ac0c1fb5a4fec7982690b1", "fusion_lat": 0.0, "fusion_lon": 0.0, "rental_uris": {"android": "https://dc.lft.to/lastmile_qr_scan", "ios": "https://dc.lft.to/lastmile_qr_scan"}, "is_reserved": 0, "is_disabled": 0, "type": "electric_scooter", "bike_id": "13ec388f14ac0c1fb5a4fec7982690b1"}, {"lon": -76.98834633333334, "lat": 38.901773, "name": "9ccb07e9a4e324eb8f800bdec9aff078", "fusion_lat": 0.0, "fusion_lon": 0.0, "rental_uris": {"android": "https://dc.lft.to/lastmile_qr_scan", "ios": "https://dc.lft.to/lastmile_qr_scan"}, "is_reserved": 0, "is_disabled": 0, "type": "electric_scooter", "bike_id": "9ccb07e9a4e324eb8f800bdec9aff078"}, {"lon": -77.02828766666667, "lat": 38.9329, "name": "8b4762bc532f1d59d39ff1d16021f925", "fusion_lat": 0.0, "fusion_lon": 0.0, "rental_uris": {"android": "https://dc.lft.to/lastmile_qr_scan", "ios": "https://dc.lft.to/lastmile_qr_scan"}, "is_reserved": 0, "is_disabled": 0, "type": "electric_scooter", "bike_id": "8b4762bc532f1d59d39ff1d16021f925"}, {"lon": -77.36094233333333, "lat": 38.939656166666666, "name": "16252c3b80a8e0298feadad531ffe344", "fusion_lat": 0.0, "fusion_lon": 0.0, "rental_uris": {"android": "https://dc.lft.to/lastmile_qr_scan", "ios": "https://dc.lft.to/lastmile_qr_scan"}, "is_reserved": 0, "is_disabled": 0, "type": "electric_bike", "bike_id": "16252c3b80a8e0298feadad531ffe344"}, {"lon": -76.97982666666667, "lat": 38.877569, "name": "c51ad1b20804b1dbfca08c3b5d9522ba", "fusion_lat": 0.0, "fusion_lon": 0.0, "rental_uris": {"android": "https://dc.lft.to/lastmile_qr_scan", "ios": "https://dc.lft.to/lastmile_qr_scan"}, "is_reserved": 0, "is_disabled": 0, "type": "electric_bike", "bike_id": "c51ad1b20804b1dbfca08c3b5d9522ba"}, {"lon": -77.01876466666667, "lat": 38.90972416666666, "name": "5c3cd70edd320561af923b1d3dc40572", "fusion_lat": 0.0, "fusion_lon": 0.0, "rental_uris": {"android": "https://dc.lft.to/lastmile_qr_scan", "ios": "https://dc.lft.to/lastmile_qr_scan"}, "is_reserved": 0, "is_disabled": 0, "type": "electric_scooter", "bike_id": "5c3cd70edd320561af923b1d3dc40572"}, {"lon": -77.01236766666666, "lat": 38.915511, "name": "5c5ba4f7fd407001245d95b6137203fb", "fusion_lat": 0.0, "fusion_lon": 0.0, "rental_uris": {"android": "https://dc.lft.to/lastmile_qr_scan", "ios": "https://dc.lft.to/lastmile_qr_scan"}, "is_reserved": 0, "is_disabled": 0, "type": "electric_scooter", "bike_id": "5c5ba4f7fd407001245d95b6137203fb"}, {"lon": -76.97742916666667, "lat": 38.90506116666667, "name": "d057477448834ee87871e41b50a7e9a5", "fusion_lat": 0.0, "fusion_lon": 0.0, "rental_uris": {"android": "https://dc.lft.to/lastmile_qr_scan", "ios": "https://dc.lft.to/lastmile_qr_scan"}, "is_reserved": 0, "is_disabled": 0, "type": "electric_scooter", "bike_id": "d057477448834ee87871e41b50a7e9a5"}, {"lon": -77.04350833333334, "lat": 38.90541066666667, "name": "1eae14aad5007535111aff6a35f9b982", "fusion_lat": 0.0, "fusion_lon": 0.0, "rental_uris": {"android": "https://dc.lft.to/lastmile_qr_scan", "ios": "https://dc.lft.to/lastmile_qr_scan"}, "is_reserved": 0, "is_disabled": 0, "type": "electric_scooter", "bike_id": "1eae14aad5007535111aff6a35f9b982"}, {"lon": -77.0458295, "lat": 38.902234166666666, "name": "5a186b2522afc6f5ed4b82b3ee132dae", "fusion_lat": 0.0, "fusion_lon": 0.0, "rental_uris": {"android": "https://dc.lft.to/lastmile_qr_scan", "ios": "https://dc.lft.to/lastmile_qr_scan"}, "is_reserved": 0, "is_disabled": 0, "type": "electric_scooter", "bike_id": "5a186b2522afc6f5ed4b82b3ee132dae"}, {"lon": -77.05060966666667, "lat": 38.844016, "name": "511a747a4d9dd5c277cc0c283bf325db", "fusion_lat": 0.0, "fusion_lon": 0.0, "rental_uris": {"android": "https://dc.lft.to/lastmile_qr_scan", "ios": "https://dc.lft.to/lastmile_qr_scan"}, "is_reserved": 0, "is_disabled": 0, "type": "electric_bike", "bike_id": "511a747a4d9dd5c277cc0c283bf325db"}, {"lon": -77.032976, "lat": 38.9221695, "name": "6cdf3e2e3e975fb7762633854eee193d", "fusion_lat": 0.0, "fusion_lon": 0.0, "rental_uris": {"android": "https://dc.lft.to/lastmile_qr_scan", "ios": "https://dc.lft.to/lastmile_qr_scan"}, "is_reserved": 0, "is_disabled": 0, "type": "electric_scooter", "bike_id": "6cdf3e2e3e975fb7762633854eee193d"}, {"lon": -77.037932, "lat": 38.905809833333336, "name": "ab591280f767f434297d49513042382f", "fusion_lat": 0.0, "fusion_lon": 0.0, "rental_uris": {"android": "https://dc.lft.to/lastmile_qr_scan", "ios": "https://dc.lft.to/lastmile_qr_scan"}, "is_reserved": 0, "is_disabled": 0, "type": "electric_scooter", "bike_id": "ab591280f767f434297d49513042382f"}, {"lon": -76.94779883333334, "lat": 38.894430166666666, "name": "09762533ecf0ec3f1d3974478270a9d3", "fusion_lat": 0.0, "fusion_lon": 0.0, "rental_uris": {"android": "https://dc.lft.to/lastmile_qr_scan", "ios": "https://dc.lft.to/lastmile_qr_scan"}, "is_reserved": 0, "is_disabled": 0, "type": "electric_bike", "bike_id": "09762533ecf0ec3f1d3974478270a9d3"}, {"lon": -77.024052, "lat": 38.908667, "name": "b2b83c102c5e6432da5d3912395481e1", "fusion_lat": 0.0, "fusion_lon": 0.0, "rental_uris": {"android": "https://dc.lft.to/lastmile_qr_scan", "ios": "https://dc.lft.to/lastmile_qr_scan"}, "is_reserved": 0, "is_disabled": 0, "type": "electric_scooter", "bike_id": "b2b83c102c5e6432da5d3912395481e1"}, {"lon": -77.02536166666667, "lat": 38.94096866666667, "name": "ba160edcb23cee480afeb881b3c9b0e2", "fusion_lat": 0.0, "fusion_lon": 0.0, "rental_uris": {"android": "https://dc.lft.to/lastmile_qr_scan", "ios": "https://dc.lft.to/lastmile_qr_scan"}, "is_reserved": 0, "is_disabled": 0, "type": "electric_scooter", "bike_id": "ba160edcb23cee480afeb881b3c9b0e2"}, {"lon": -77.0313155, "lat": 38.91567333333333, "name": "ed5829816c6ac8b6a88f678b07be8bdd", "fusion_lat": 0.0, "fusion_lon": 0.0, "rental_uris": {"android": "https://dc.lft.to/lastmile_qr_scan", "ios": "https://dc.lft.to/lastmile_qr_scan"}, "is_reserved": 0, "is_disabled": 0, "type": "electric_scooter", "bike_id": "ed5829816c6ac8b6a88f678b07be8bdd"}, {"lon": -77.04887233333334, "lat": 38.90189916666667, "name": "babe5b962ced39c8250eb761da448dd0", "fusion_lat": 0.0, "fusion_lon": 0.0, "rental_uris": {"android": "https://dc.lft.to/lastmile_qr_scan", "ios": "https://dc.lft.to/lastmile_qr_scan"}, "is_reserved": 0, "is_disabled": 0, "type": "electric_scooter", "bike_id": "babe5b962ced39c8250eb761da448dd0"}, {"lon": -77.00716416666667, "lat": 38.91338, "name": "cc8ea8fb2c52df66dd7667f0d41f4f21", "fusion_lat": 0.0, "fusion_lon": 0.0, "rental_uris": {"android": "https://dc.lft.to/lastmile_qr_scan", "ios": "https://dc.lft.to/lastmile_qr_scan"}, "is_reserved": 0, "is_disabled": 0, "type": "electric_scooter", "bike_id": "cc8ea8fb2c52df66dd7667f0d41f4f21"}, {"lon": -76.92998366666667, "lat": 38.88798766666667, "name": "52c4156763d1cadd1a5a450f4dc9f445", "fusion_lat": 0.0, "fusion_lon": 0.0, "rental_uris": {"android": "https://dc.lft.to/lastmile_qr_scan", "ios": "https://dc.lft.to/lastmile_qr_scan"}, "is_reserved": 0, "is_disabled": 0, "type": "electric_bike", "bike_id": "52c4156763d1cadd1a5a450f4dc9f445"}, {"lon": -77.02789166666666, "lat": 38.9568285, "name": "6e2e3cf1d35040e1ff5c868c0b02138f", "fusion_lat": 0.0, "fusion_lon": 0.0, "rental_uris": {"android": "https://dc.lft.to/lastmile_qr_scan", "ios": "https://dc.lft.to/lastmile_qr_scan"}, "is_reserved": 0, "is_disabled": 0, "type": "electric_scooter", "bike_id": "6e2e3cf1d35040e1ff5c868c0b02138f"}, {"lon": -77.03959416666666, "lat": 38.91999766666667, "name": "c73524e048a93c1ffe05568620d58a61", "fusion_lat": 0.0, "fusion_lon": 0.0, "rental_uris": {"android": "https://dc.lft.to/lastmile_qr_scan", "ios": "https://dc.lft.to/lastmile_qr_scan"}, "is_reserved": 0, "is_disabled": 0, "type": "electric_scooter", "bike_id": "c73524e048a93c1ffe05568620d58a61"}, {"lon": -76.99029616666667, "lat": 38.86406266666667, "name": "a14a57a3ee3bf11cd16059e5147c8015", "fusion_lat": 0.0, "fusion_lon": 0.0, "rental_uris": {"android": "https://dc.lft.to/lastmile_qr_scan", "ios": "https://dc.lft.to/lastmile_qr_scan"}, "is_reserved": 0, "is_disabled": 0, "type": "electric_scooter", "bike_id": "a14a57a3ee3bf11cd16059e5147c8015"}, {"lon": -77.01597483333333, "lat": 38.89622416666667, "name": "cbe7c4a3adaf7edfa9f70bda63902d80", "fusion_lat": 0.0, "fusion_lon": 0.0, "rental_uris": {"android": "https://dc.lft.to/lastmile_qr_scan", "ios": "https://dc.lft.to/lastmile_qr_scan"}, "is_reserved": 0, "is_disabled": 0, "type": "electric_scooter", "bike_id": "cbe7c4a3adaf7edfa9f70bda63902d80"}, {"lon": -77.04070316666666, "lat": 38.904576166666665, "name": "607df144fac3290b91b9845da10eeb83", "fusion_lat": 0.0, "fusion_lon": 0.0, "rental_uris": {"android": "https://dc.lft.to/lastmile_qr_scan", "ios": "https://dc.lft.to/lastmile_qr_scan"}, "is_reserved": 0, "is_disabled": 0, "type": "electric_scooter", "bike_id": "607df144fac3290b91b9845da10eeb83"}, {"lon": -77.01360166666667, "lat": 38.876049, "name": "2bdbf3a6fac2899d7a52e4eddbf3dfbc", "fusion_lat": 0.0, "fusion_lon": 0.0, "rental_uris": {"android": "https://dc.lft.to/lastmile_qr_scan", "ios": "https://dc.lft.to/lastmile_qr_scan"}, "is_reserved": 0, "is_disabled": 0, "type": "electric_scooter", "bike_id": "2bdbf3a6fac2899d7a52e4eddbf3dfbc"}, {"lon": -77.05271116666667, "lat": 38.91025616666667, "name": "3d4f40b4d54063ed80aa25ef4ed99cb8", "fusion_lat": 0.0, "fusion_lon": 0.0, "rental_uris": {"android": "https://dc.lft.to/lastmile_qr_scan", "ios": "https://dc.lft.to/lastmile_qr_scan"}, "is_reserved": 0, "is_disabled": 0, "type": "electric_scooter", "bike_id": "3d4f40b4d54063ed80aa25ef4ed99cb8"}, {"lon": -77.02489033333333, "lat": 38.9057175, "name": "8bbbd749abb573b39eec8b10ecb93272", "fusion_lat": 0.0, "fusion_lon": 0.0, "rental_uris": {"android": "https://dc.lft.to/lastmile_qr_scan", "ios": "https://dc.lft.to/lastmile_qr_scan"}, "is_reserved": 0, "is_disabled": 0, "type": "electric_scooter", "bike_id": "8bbbd749abb573b39eec8b10ecb93272"}, {"lon": -77.005888, "lat": 38.915637333333336, "name": "d9faaa5a082bb9f8839444a8fe78c278", "fusion_lat": 0.0, "fusion_lon": 0.0, "rental_uris": {"android": "https://dc.lft.to/lastmile_qr_scan", "ios": "https://dc.lft.to/lastmile_qr_scan"}, "is_reserved": 0, "is_disabled": 0, "type": "electric_scooter", "bike_id": "d9faaa5a082bb9f8839444a8fe78c278"}, {"lon": -77.00437266666667, "lat": 38.87663766666667, "name": "7659ad543ff84067105c7d80b8c6087b", "fusion_lat": 0.0, "fusion_lon": 0.0, "rental_uris": {"android": "https://dc.lft.to/lastmile_qr_scan", "ios": "https://dc.lft.to/lastmile_qr_scan"}, "is_reserved": 0, "is_disabled": 0, "type": "electric_scooter", "bike_id": "7659ad543ff84067105c7d80b8c6087b"}, {"lon": -77.0365835, "lat": 38.930737, "name": "bfa85ca03c9cfa7ce0989b9781f3e220", "fusion_lat": 0.0, "fusion_lon": 0.0, "rental_uris": {"android": "https://dc.lft.to/lastmile_qr_scan", "ios": "https://dc.lft.to/lastmile_qr_scan"}, "is_reserved": 0, "is_disabled": 0, "type": "electric_scooter", "bike_id": "bfa85ca03c9cfa7ce0989b9781f3e220"}, {"lon": -77.02342883333333, "lat": 38.9620945, "name": "a3fac974fc35e709cbd1d10089337420", "fusion_lat": 0.0, "fusion_lon": 0.0, "rental_uris": {"android": "https://dc.lft.to/lastmile_qr_scan", "ios": "https://dc.lft.to/lastmile_qr_scan"}, "is_reserved": 0, "is_disabled": 0, "type": "electric_scooter", "bike_id": "a3fac974fc35e709cbd1d10089337420"}, {"lon": -77.04330583333333, "lat": 38.9222225, "name": "9e34e564795087bba5a10ff7fe97b382", "fusion_lat": 0.0, "fusion_lon": 0.0, "rental_uris": {"android": "https://dc.lft.to/lastmile_qr_scan", "ios": "https://dc.lft.to/lastmile_qr_scan"}, "is_reserved": 0, "is_disabled": 0, "type": "electric_scooter", "bike_id": "9e34e564795087bba5a10ff7fe97b382"}, {"lon": -77.03857416666666, "lat": 38.912864166666665, "name": "94deba6dea6a7c182ec5270a3f7da9cd", "fusion_lat": 0.0, "fusion_lon": 0.0, "rental_uris": {"android": "https://dc.lft.to/lastmile_qr_scan", "ios": "https://dc.lft.to/lastmile_qr_scan"}, "is_reserved": 0, "is_disabled": 0, "type": "electric_scooter", "bike_id": "94deba6dea6a7c182ec5270a3f7da9cd"}, {"lon": -77.042486, "lat": 38.90746, "name": "0576d75f25561a041acc8e170c7aa128", "fusion_lat": 0.0, "fusion_lon": 0.0, "rental_uris": {"android": "https://dc.lft.to/lastmile_qr_scan", "ios": "https://dc.lft.to/lastmile_qr_scan"}, "is_reserved": 0, "is_disabled": 0, "type": "electric_scooter", "bike_id": "0576d75f25561a041acc8e170c7aa128"}, {"lon": -77.04335933333333, "lat": 38.90367, "name": "1ace513764d8c071591df316a9972093", "fusion_lat": 0.0, "fusion_lon": 0.0, "rental_uris": {"android": "https://dc.lft.to/lastmile_qr_scan", "ios": "https://dc.lft.to/lastmile_qr_scan"}, "is_reserved": 0, "is_disabled": 0, "type": "electric_scooter", "bike_id": "1ace513764d8c071591df316a9972093"}, {"lon": -77.04387366666667, "lat": 38.929412666666664, "name": "463cf6973e92101b1a32d416a58a6570", "fusion_lat": 0.0, "fusion_lon": 0.0, "rental_uris": {"android": "https://dc.lft.to/lastmile_qr_scan", "ios": "https://dc.lft.to/lastmile_qr_scan"}, "is_reserved": 0, "is_disabled": 0, "type": "electric_scooter", "bike_id": "463cf6973e92101b1a32d416a58a6570"}, {"lon": -77.12503466666666, "lat": 39.02414783333333, "name": "227e0bdcdf035d4652798398a2bf7cbb", "fusion_lat": 0.0, "fusion_lon": 0.0, "rental_uris": {"android": "https://dc.lft.to/lastmile_qr_scan", "ios": "https://dc.lft.to/lastmile_qr_scan"}, "is_reserved": 0, "is_disabled": 0, "type": "electric_bike", "bike_id": "227e0bdcdf035d4652798398a2bf7cbb"}, {"lon": -77.04299466666667, "lat": 38.916235666666665, "name": "827e2b7add3ba0c0380cac0cd87e7881", "fusion_lat": 0.0, "fusion_lon": 0.0, "rental_uris": {"android": "https://dc.lft.to/lastmile_qr_scan", "ios": "https://dc.lft.to/lastmile_qr_scan"}, "is_reserved": 0, "is_disabled": 0, "type": "electric_scooter", "bike_id": "827e2b7add3ba0c0380cac0cd87e7881"}, {"lon": -77.22565216666666, "lat": 38.92966366666667, "name": "e64c7ec17188f2f6dae8df702fa9c747", "fusion_lat": 0.0, "fusion_lon": 0.0, "rental_uris": {"android": "https://dc.lft.to/lastmile_qr_scan", "ios": "https://dc.lft.to/lastmile_qr_scan"}, "is_reserved": 0, "is_disabled": 0, "type": "electric_bike", "bike_id": "e64c7ec17188f2f6dae8df702fa9c747"}, {"lon": -77.03294083333333, "lat": 38.908415166666664, "name": "f1992b48eadb012dc61f945429dc10ab", "fusion_lat": 0.0, "fusion_lon": 0.0, "rental_uris": {"android": "https://dc.lft.to/lastmile_qr_scan", "ios": "https://dc.lft.to/lastmile_qr_scan"}, "is_reserved": 0, "is_disabled": 0, "type": "electric_scooter", "bike_id": "f1992b48eadb012dc61f945429dc10ab"}, {"lon": -76.97927183333333, "lat": 38.8661245, "name": "d718b61291e32a710dee17bc756581ec", "fusion_lat": 0.0, "fusion_lon": 0.0, "rental_uris": {"android": "https://dc.lft.to/lastmile_qr_scan", "ios": "https://dc.lft.to/lastmile_qr_scan"}, "is_reserved": 0, "is_disabled": 0, "type": "electric_scooter", "bike_id": "d718b61291e32a710dee17bc756581ec"}, {"lon": -76.98837266666666, "lat": 38.900461166666666, "name": "49612eeda5d0621295eada38bf5dc9a0", "fusion_lat": 0.0, "fusion_lon": 0.0, "rental_uris": {"android": "https://dc.lft.to/lastmile_qr_scan", "ios": "https://dc.lft.to/lastmile_qr_scan"}, "is_reserved": 0, "is_disabled": 0, "type": "electric_scooter", "bike_id": "49612eeda5d0621295eada38bf5dc9a0"}, {"lon": -76.9984195, "lat": 38.888109166666666, "name": "1524eaf0e55398dcb6aeaca821e6ff98", "fusion_lat": 0.0, "fusion_lon": 0.0, "rental_uris": {"android": "https://dc.lft.to/lastmile_qr_scan", "ios": "https://dc.lft.to/lastmile_qr_scan"}, "is_reserved": 0, "is_disabled": 0, "type": "electric_scooter", "bike_id": "1524eaf0e55398dcb6aeaca821e6ff98"}, {"lon": -77.01921483333334, "lat": 38.8999345, "name": "f7d1e1715b6440be526900f570aec940", "fusion_lat": 0.0, "fusion_lon": 0.0, "rental_uris": {"android": "https://dc.lft.to/lastmile_qr_scan", "ios": "https://dc.lft.to/lastmile_qr_scan"}, "is_reserved": 0, "is_disabled": 0, "type": "electric_scooter", "bike_id": "f7d1e1715b6440be526900f570aec940"}, {"lon": -76.98560583333334, "lat": 38.899543666666666, "name": "68d24f4ff272c4121b69ee24b1380cdc", "fusion_lat": 0.0, "fusion_lon": 0.0, "rental_uris": {"android": "https://dc.lft.to/lastmile_qr_scan", "ios": "https://dc.lft.to/lastmile_qr_scan"}, "is_reserved": 0, "is_disabled": 0, "type": "electric_scooter", "bike_id": "68d24f4ff272c4121b69ee24b1380cdc"}, {"lon": -77.02440283333334, "lat": 38.90225066666667, "name": "c0be14a7a2024f0928a698e18b08f76c", "fusion_lat": 0.0, "fusion_lon": 0.0, "rental_uris": {"android": "https://dc.lft.to/lastmile_qr_scan", "ios": "https://dc.lft.to/lastmile_qr_scan"}, "is_reserved": 0, "is_disabled": 0, "type": "electric_scooter", "bike_id": "c0be14a7a2024f0928a698e18b08f76c"}, {"lon": -77.03974766666667, "lat": 38.8989435, "name": "b8bd21d634c65b1e2847a8d36cd508af", "fusion_lat": 0.0, "fusion_lon": 0.0, "rental_uris": {"android": "https://dc.lft.to/lastmile_qr_scan", "ios": "https://dc.lft.to/lastmile_qr_scan"}, "is_reserved": 0, "is_disabled": 0, "type": "electric_scooter", "bike_id": "b8bd21d634c65b1e2847a8d36cd508af"}, {"lon": -77.04142716666667, "lat": 38.92297, "name": "98c0b5c68a82da01083f715d69f29c16", "fusion_lat": 0.0, "fusion_lon": 0.0, "rental_uris": {"android": "https://dc.lft.to/lastmile_qr_scan", "ios": "https://dc.lft.to/lastmile_qr_scan"}, "is_reserved": 0, "is_disabled": 0, "type": "electric_scooter", "bike_id": "98c0b5c68a82da01083f715d69f29c16"}, {"lon": -77.02720033333334, "lat": 38.9095985, "name": "1a46b36d50e2ddcacf736ce6d8bb5f0e", "fusion_lat": 0.0, "fusion_lon": 0.0, "rental_uris": {"android": "https://dc.lft.to/lastmile_qr_scan", "ios": "https://dc.lft.to/lastmile_qr_scan"}, "is_reserved": 0, "is_disabled": 0, "type": "electric_scooter", "bike_id": "1a46b36d50e2ddcacf736ce6d8bb5f0e"}, {"lon": -77.02308366666666, "lat": 38.91784616666666, "name": "b26c1daa4373861369603d3d9b4c1abc", "fusion_lat": 0.0, "fusion_lon": 0.0, "rental_uris": {"android": "https://dc.lft.to/lastmile_qr_scan", "ios": "https://dc.lft.to/lastmile_qr_scan"}, "is_reserved": 0, "is_disabled": 0, "type": "electric_scooter", "bike_id": "b26c1daa4373861369603d3d9b4c1abc"}, {"lon": -77.01251983333333, "lat": 38.90868283333333, "name": "2597286f7f9b41053ac966d7fc5badd8", "fusion_lat": 0.0, "fusion_lon": 0.0, "rental_uris": {"android": "https://dc.lft.to/lastmile_qr_scan", "ios": "https://dc.lft.to/lastmile_qr_scan"}, "is_reserved": 0, "is_disabled": 0, "type": "electric_scooter", "bike_id": "2597286f7f9b41053ac966d7fc5badd8"}, {"lon": -77.01805366666666, "lat": 38.914381666666664, "name": "5bc308d393a764cf8ccf9d04c7bdd106", "fusion_lat": 0.0, "fusion_lon": 0.0, "rental_uris": {"android": "https://dc.lft.to/lastmile_qr_scan", "ios": "https://dc.lft.to/lastmile_qr_scan"}, "is_reserved": 0, "is_disabled": 0, "type": "electric_scooter", "bike_id": "5bc308d393a764cf8ccf9d04c7bdd106"}, {"lon": -77.02554116666667, "lat": 38.901021, "name": "72f62b3db17f4341b4f0eeb0f3b37a97", "fusion_lat": 0.0, "fusion_lon": 0.0, "rental_uris": {"android": "https://dc.lft.to/lastmile_qr_scan", "ios": "https://dc.lft.to/lastmile_qr_scan"}, "is_reserved": 0, "is_disabled": 0, "type": "electric_scooter", "bike_id": "72f62b3db17f4341b4f0eeb0f3b37a97"}, {"lon": -77.01776983333333, "lat": 38.9026825, "name": "49c0c3dd77166fc78575cfd5353cee68", "fusion_lat": 0.0, "fusion_lon": 0.0, "rental_uris": {"android": "https://dc.lft.to/lastmile_qr_scan", "ios": "https://dc.lft.to/lastmile_qr_scan"}, "is_reserved": 0, "is_disabled": 0, "type": "electric_scooter", "bike_id": "49c0c3dd77166fc78575cfd5353cee68"}, {"lon": -77.02250266666667, "lat": 38.924892166666666, "name": "4b8e92ed25d4b92d3eef0f5d8f79c2ed", "fusion_lat": 0.0, "fusion_lon": 0.0, "rental_uris": {"android": "https://dc.lft.to/lastmile_qr_scan", "ios": "https://dc.lft.to/lastmile_qr_scan"}, "is_reserved": 0, "is_disabled": 0, "type": "electric_scooter", "bike_id": "4b8e92ed25d4b92d3eef0f5d8f79c2ed"}, {"lon": -77.0375475, "lat": 38.908786166666665, "name": "4c73ceb982eb7d373de7c0660ce7a50c", "fusion_lat": 0.0, "fusion_lon": 0.0, "rental_uris": {"android": "https://dc.lft.to/lastmile_qr_scan", "ios": "https://dc.lft.to/lastmile_qr_scan"}, "is_reserved": 0, "is_disabled": 0, "type": "electric_scooter", "bike_id": "4c73ceb982eb7d373de7c0660ce7a50c"}, {"lon": -77.03504866666667, "lat": 38.92150266666667, "name": "bbf6333bef8075b883f7e923bbfec726", "fusion_lat": 0.0, "fusion_lon": 0.0, "rental_uris": {"android": "https://dc.lft.to/lastmile_qr_scan", "ios": "https://dc.lft.to/lastmile_qr_scan"}, "is_reserved": 0, "is_disabled": 0, "type": "electric_scooter", "bike_id": "bbf6333bef8075b883f7e923bbfec726"}, {"lon": -77.0137935, "lat": 38.9287105, "name": "a8c9522b35b4edb68489b3181b58daf5", "fusion_lat": 0.0, "fusion_lon": 0.0, "rental_uris": {"android": "https://dc.lft.to/lastmile_qr_scan", "ios": "https://dc.lft.to/lastmile_qr_scan"}, "is_reserved": 0, "is_disabled": 0, "type": "electric_scooter", "bike_id": "a8c9522b35b4edb68489b3181b58daf5"}, {"lon": -77.01448, "lat": 38.9120145, "name": "7802b38e63db7fd63f84be3432003a84", "fusion_lat": 0.0, "fusion_lon": 0.0, "rental_uris": {"android": "https://dc.lft.to/lastmile_qr_scan", "ios": "https://dc.lft.to/lastmile_qr_scan"}, "is_reserved": 0, "is_disabled": 0, "type": "electric_scooter", "bike_id": "7802b38e63db7fd63f84be3432003a84"}, {"lon": -77.02951533333334, "lat": 38.9324645, "name": "847e0c03b8293ea0e939809f7c65d7f4", "fusion_lat": 0.0, "fusion_lon": 0.0, "rental_uris": {"android": "https://dc.lft.to/lastmile_qr_scan", "ios": "https://dc.lft.to/lastmile_qr_scan"}, "is_reserved": 0, "is_disabled": 0, "type": "electric_scooter", "bike_id": "847e0c03b8293ea0e939809f7c65d7f4"}, {"lon": -77.00311933333333, "lat": 38.8922835, "name": "c9ca3ab0bbd6c34b91f57c548debc1a1", "fusion_lat": 0.0, "fusion_lon": 0.0, "rental_uris": {"android": "https://dc.lft.to/lastmile_qr_scan", "ios": "https://dc.lft.to/lastmile_qr_scan"}, "is_reserved": 0, "is_disabled": 0, "type": "electric_scooter", "bike_id": "c9ca3ab0bbd6c34b91f57c548debc1a1"}, {"lon": -76.96522083333333, "lat": 38.87481433333333, "name": "6367b9209a7dcecb6cc97cbdc0a3bab9", "fusion_lat": 0.0, "fusion_lon": 0.0, "rental_uris": {"android": "https://dc.lft.to/lastmile_qr_scan", "ios": "https://dc.lft.to/lastmile_qr_scan"}, "is_reserved": 0, "is_disabled": 0, "type": "electric_scooter", "bike_id": "6367b9209a7dcecb6cc97cbdc0a3bab9"}, {"lon": -77.02706333333333, "lat": 38.95004933333333, "name": "cdca52b16ec5496fe48e81fd3d665f9c", "fusion_lat": 0.0, "fusion_lon": 0.0, "rental_uris": {"android": "https://dc.lft.to/lastmile_qr_scan", "ios": "https://dc.lft.to/lastmile_qr_scan"}, "is_reserved": 0, "is_disabled": 0, "type": "electric_scooter", "bike_id": "cdca52b16ec5496fe48e81fd3d665f9c"}, {"lon": -77.03267633333333, "lat": 38.93342333333333, "name": "809cd9d7038150e4cb784f14dd1ee69f", "fusion_lat": 0.0, "fusion_lon": 0.0, "rental_uris": {"android": "https://dc.lft.to/lastmile_qr_scan", "ios": "https://dc.lft.to/lastmile_qr_scan"}, "is_reserved": 0, "is_disabled": 0, "type": "electric_scooter", "bike_id": "809cd9d7038150e4cb784f14dd1ee69f"}, {"lon": -77.06779966666667, "lat": 38.9521255, "name": "fb7d9d803bc3009506ff12bb9b90050d", "fusion_lat": 0.0, "fusion_lon": 0.0, "rental_uris": {"android": "https://dc.lft.to/lastmile_qr_scan", "ios": "https://dc.lft.to/lastmile_qr_scan"}, "is_reserved": 0, "is_disabled": 0, "type": "electric_scooter", "bike_id": "fb7d9d803bc3009506ff12bb9b90050d"}, {"lon": -77.03850516666667, "lat": 38.9320515, "name": "cc4cf08994fa05db08b013af0d8caf0c", "fusion_lat": 0.0, "fusion_lon": 0.0, "rental_uris": {"android": "https://dc.lft.to/lastmile_qr_scan", "ios": "https://dc.lft.to/lastmile_qr_scan"}, "is_reserved": 0, "is_disabled": 0, "type": "electric_scooter", "bike_id": "cc4cf08994fa05db08b013af0d8caf0c"}, {"lon": -77.03219766666666, "lat": 38.9199915, "name": "29e505ed3b1a95491c33a7bd7a167e76", "fusion_lat": 0.0, "fusion_lon": 0.0, "rental_uris": {"android": "https://dc.lft.to/lastmile_qr_scan", "ios": "https://dc.lft.to/lastmile_qr_scan"}, "is_reserved": 0, "is_disabled": 0, "type": "electric_scooter", "bike_id": "29e505ed3b1a95491c33a7bd7a167e76"}, {"lon": -77.02786666666667, "lat": 38.89860083333333, "name": "c61e0033ae2f0799c535a0a2bf795fb0", "fusion_lat": 0.0, "fusion_lon": 0.0, "rental_uris": {"android": "https://dc.lft.to/lastmile_qr_scan", "ios": "https://dc.lft.to/lastmile_qr_scan"}, "is_reserved": 0, "is_disabled": 0, "type": "electric_scooter", "bike_id": "c61e0033ae2f0799c535a0a2bf795fb0"}, {"lon": -77.0073645, "lat": 38.9552205, "name": "8bf0537fe5d53d9846d9107b5073488c", "fusion_lat": 0.0, "fusion_lon": 0.0, "rental_uris": {"android": "https://dc.lft.to/lastmile_qr_scan", "ios": "https://dc.lft.to/lastmile_qr_scan"}, "is_reserved": 0, "is_disabled": 0, "type": "electric_scooter", "bike_id": "8bf0537fe5d53d9846d9107b5073488c"}, {"lon": -77.00210716666666, "lat": 38.90217083333334, "name": "70380322310f7d8c1fc617131c066ff5", "fusion_lat": 0.0, "fusion_lon": 0.0, "rental_uris": {"android": "https://dc.lft.to/lastmile_qr_scan", "ios": "https://dc.lft.to/lastmile_qr_scan"}, "is_reserved": 0, "is_disabled": 0, "type": "electric_scooter", "bike_id": "70380322310f7d8c1fc617131c066ff5"}, {"lon": -77.02353916666667, "lat": 38.922747666666666, "name": "285ea56b540b31c23b8597560dd630f7", "fusion_lat": 0.0, "fusion_lon": 0.0, "rental_uris": {"android": "https://dc.lft.to/lastmile_qr_scan", "ios": "https://dc.lft.to/lastmile_qr_scan"}, "is_reserved": 0, "is_disabled": 0, "type": "electric_scooter", "bike_id": "285ea56b540b31c23b8597560dd630f7"}, {"lon": -77.03182033333333, "lat": 38.919226, "name": "87482e1d0cceb85b162e74120442ea43", "fusion_lat": 0.0, "fusion_lon": 0.0, "rental_uris": {"android": "https://dc.lft.to/lastmile_qr_scan", "ios": "https://dc.lft.to/lastmile_qr_scan"}, "is_reserved": 0, "is_disabled": 0, "type": "electric_scooter", "bike_id": "87482e1d0cceb85b162e74120442ea43"}, {"lon": -77.00036216666666, "lat": 38.87647166666667, "name": "4e10005c33ee2f1836f11c3b36a361ae", "fusion_lat": 0.0, "fusion_lon": 0.0, "rental_uris": {"android": "https://dc.lft.to/lastmile_qr_scan", "ios": "https://dc.lft.to/lastmile_qr_scan"}, "is_reserved": 0, "is_disabled": 0, "type": "electric_scooter", "bike_id": "4e10005c33ee2f1836f11c3b36a361ae"}, {"lon": -77.0250355, "lat": 38.939612333333336, "name": "2680ebd55095da11ac4b973865c0db5e", "fusion_lat": 0.0, "fusion_lon": 0.0, "rental_uris": {"android": "https://dc.lft.to/lastmile_qr_scan", "ios": "https://dc.lft.to/lastmile_qr_scan"}, "is_reserved": 0, "is_disabled": 0, "type": "electric_scooter", "bike_id": "2680ebd55095da11ac4b973865c0db5e"}, {"lon": -77.01966883333333, "lat": 38.9499315, "name": "1544e7416f959c0fbe177e65965f81c5", "fusion_lat": 0.0, "fusion_lon": 0.0, "rental_uris": {"android": "https://dc.lft.to/lastmile_qr_scan", "ios": "https://dc.lft.to/lastmile_qr_scan"}, "is_reserved": 0, "is_disabled": 0, "type": "electric_scooter", "bike_id": "1544e7416f959c0fbe177e65965f81c5"}, {"lon": -77.02820266666667, "lat": 38.928739, "name": "ceb5d856b5dad6b9c84399dd425daa90", "fusion_lat": 0.0, "fusion_lon": 0.0, "rental_uris": {"android": "https://dc.lft.to/lastmile_qr_scan", "ios": "https://dc.lft.to/lastmile_qr_scan"}, "is_reserved": 0, "is_disabled": 0, "type": "electric_scooter", "bike_id": "ceb5d856b5dad6b9c84399dd425daa90"}, {"lon": -77.12961816666666, "lat": 38.85219133333333, "name": "a70773b814d22a68e741b2acb96045a0", "fusion_lat": 0.0, "fusion_lon": 0.0, "rental_uris": {"android": "https://dc.lft.to/lastmile_qr_scan", "ios": "https://dc.lft.to/lastmile_qr_scan"}, "is_reserved": 0, "is_disabled": 0, "type": "electric_bike", "bike_id": "a70773b814d22a68e741b2acb96045a0"}, {"lon": -77.00918983333334, "lat": 38.910708166666666, "name": "f9873ef5453214c82620e306c49106e3", "fusion_lat": 0.0, "fusion_lon": 0.0, "rental_uris": {"android": "https://dc.lft.to/lastmile_qr_scan", "ios": "https://dc.lft.to/lastmile_qr_scan"}, "is_reserved": 0, "is_disabled": 0, "type": "electric_scooter", "bike_id": "f9873ef5453214c82620e306c49106e3"}, {"lon": -77.04514116666667, "lat": 38.89223116666667, "name": "320863ed754375e1fcf2befdf1500dd6", "fusion_lat": 0.0, "fusion_lon": 0.0, "rental_uris": {"android": "https://dc.lft.to/lastmile_qr_scan", "ios": "https://dc.lft.to/lastmile_qr_scan"}, "is_reserved": 0, "is_disabled": 0, "type": "electric_scooter", "bike_id": "320863ed754375e1fcf2befdf1500dd6"}, {"lon": -76.942139, "lat": 38.89675733333333, "name": "19a641f0d830b54eff4fc1b569378870", "fusion_lat": 0.0, "fusion_lon": 0.0, "rental_uris": {"android": "https://dc.lft.to/lastmile_qr_scan", "ios": "https://dc.lft.to/lastmile_qr_scan"}, "is_reserved": 0, "is_disabled": 0, "type": "electric_scooter", "bike_id": "19a641f0d830b54eff4fc1b569378870"}, {"lon": -77.03339833333334, "lat": 38.92156966666667, "name": "4898cd1a0e89fa6081533984463e727c", "fusion_lat": 0.0, "fusion_lon": 0.0, "rental_uris": {"android": "https://dc.lft.to/lastmile_qr_scan", "ios": "https://dc.lft.to/lastmile_qr_scan"}, "is_reserved": 0, "is_disabled": 0, "type": "electric_scooter", "bike_id": "4898cd1a0e89fa6081533984463e727c"}, {"lon": -77.09203983333333, "lat": 38.94135, "name": "2a450eb580d91a4765bad6459e2f4c16", "fusion_lat": 0.0, "fusion_lon": 0.0, "rental_uris": {"android": "https://dc.lft.to/lastmile_qr_scan", "ios": "https://dc.lft.to/lastmile_qr_scan"}, "is_reserved": 0, "is_disabled": 0, "type": "electric_scooter", "bike_id": "2a450eb580d91a4765bad6459e2f4c16"}, {"lon": -77.03268466666667, "lat": 38.93339366666667, "name": "5cb23fbd7cc8d6ff503fa36e8904644a", "fusion_lat": 0.0, "fusion_lon": 0.0, "rental_uris": {"android": "https://dc.lft.to/lastmile_qr_scan", "ios": "https://dc.lft.to/lastmile_qr_scan"}, "is_reserved": 0, "is_disabled": 0, "type": "electric_scooter", "bike_id": "5cb23fbd7cc8d6ff503fa36e8904644a"}, {"lon": -76.99519133333334, "lat": 38.894854, "name": "d778580b002d4a5e016439518160bd4c", "fusion_lat": 0.0, "fusion_lon": 0.0, "rental_uris": {"android": "https://dc.lft.to/lastmile_qr_scan", "ios": "https://dc.lft.to/lastmile_qr_scan"}, "is_reserved": 0, "is_disabled": 0, "type": "electric_scooter", "bike_id": "d778580b002d4a5e016439518160bd4c"}, {"lon": -77.00337083333334, "lat": 38.893598, "name": "3ab232952c75fc3273a6d425ad2c9d15", "fusion_lat": 0.0, "fusion_lon": 0.0, "rental_uris": {"android": "https://dc.lft.to/lastmile_qr_scan", "ios": "https://dc.lft.to/lastmile_qr_scan"}, "is_reserved": 0, "is_disabled": 0, "type": "electric_scooter", "bike_id": "3ab232952c75fc3273a6d425ad2c9d15"}, {"lon": -77.0119785, "lat": 38.900351, "name": "8eba24a184197d7a5bc2cfbb63430932", "fusion_lat": 0.0, "fusion_lon": 0.0, "rental_uris": {"android": "https://dc.lft.to/lastmile_qr_scan", "ios": "https://dc.lft.to/lastmile_qr_scan"}, "is_reserved": 0, "is_disabled": 0, "type": "electric_scooter", "bike_id": "8eba24a184197d7a5bc2cfbb63430932"}, {"lon": -77.00608133333333, "lat": 38.905819, "name": "009a9f42fbc1055c82ea4fa3c899531b", "fusion_lat": 0.0, "fusion_lon": 0.0, "rental_uris": {"android": "https://dc.lft.to/lastmile_qr_scan", "ios": "https://dc.lft.to/lastmile_qr_scan"}, "is_reserved": 0, "is_disabled": 0, "type": "electric_scooter", "bike_id": "009a9f42fbc1055c82ea4fa3c899531b"}, {"lon": -77.04634283333333, "lat": 38.89222616666667, "name": "16c42c4496a48c62cba93d6da560166f", "fusion_lat": 0.0, "fusion_lon": 0.0, "rental_uris": {"android": "https://dc.lft.to/lastmile_qr_scan", "ios": "https://dc.lft.to/lastmile_qr_scan"}, "is_reserved": 0, "is_disabled": 0, "type": "electric_scooter", "bike_id": "16c42c4496a48c62cba93d6da560166f"}, {"lon": -76.932298, "lat": 38.865975166666665, "name": "4cc9c28aca4c186a8de605bde692e0b7", "fusion_lat": 0.0, "fusion_lon": 0.0, "rental_uris": {"android": "https://dc.lft.to/lastmile_qr_scan", "ios": "https://dc.lft.to/lastmile_qr_scan"}, "is_reserved": 0, "is_disabled": 0, "type": "electric_bike", "bike_id": "4cc9c28aca4c186a8de605bde692e0b7"}, {"lon": -77.04093983333334, "lat": 38.9050195, "name": "f4fad923f9d8986493d0b500d8ce965e", "fusion_lat": 0.0, "fusion_lon": 0.0, "rental_uris": {"android": "https://dc.lft.to/lastmile_qr_scan", "ios": "https://dc.lft.to/lastmile_qr_scan"}, "is_reserved": 0, "is_disabled": 0, "type": "electric_scooter", "bike_id": "f4fad923f9d8986493d0b500d8ce965e"}, {"lon": -77.0222175, "lat": 38.91255616666667, "name": "6d3d99a28c7504f3ad01cdf4394efb2f", "fusion_lat": 0.0, "fusion_lon": 0.0, "rental_uris": {"android": "https://dc.lft.to/lastmile_qr_scan", "ios": "https://dc.lft.to/lastmile_qr_scan"}, "is_reserved": 0, "is_disabled": 0, "type": "electric_scooter", "bike_id": "6d3d99a28c7504f3ad01cdf4394efb2f"}, {"lon": -77.0364265, "lat": 38.9029665, "name": "aed03caec54adaeda8a1f50ee03e9ca9", "fusion_lat": 0.0, "fusion_lon": 0.0, "rental_uris": {"android": "https://dc.lft.to/lastmile_qr_scan", "ios": "https://dc.lft.to/lastmile_qr_scan"}, "is_reserved": 0, "is_disabled": 0, "type": "electric_scooter", "bike_id": "aed03caec54adaeda8a1f50ee03e9ca9"}, {"lon": -77.02486916666666, "lat": 38.9175945, "name": "c3a26088cd8f6fef983444db5443822e", "fusion_lat": 0.0, "fusion_lon": 0.0, "rental_uris": {"android": "https://dc.lft.to/lastmile_qr_scan", "ios": "https://dc.lft.to/lastmile_qr_scan"}, "is_reserved": 0, "is_disabled": 0, "type": "electric_scooter", "bike_id": "c3a26088cd8f6fef983444db5443822e"}, {"lon": -77.03162733333333, "lat": 38.8972495, "name": "85102e3b8f62c6f51d7c80ef598fc419", "fusion_lat": 0.0, "fusion_lon": 0.0, "rental_uris": {"android": "https://dc.lft.to/lastmile_qr_scan", "ios": "https://dc.lft.to/lastmile_qr_scan"}, "is_reserved": 0, "is_disabled": 0, "type": "electric_scooter", "bike_id": "85102e3b8f62c6f51d7c80ef598fc419"}, {"lon": -77.03187033333333, "lat": 38.89251483333334, "name": "e6032752b6545be70b12f6552f1b8d73", "fusion_lat": 0.0, "fusion_lon": 0.0, "rental_uris": {"android": "https://dc.lft.to/lastmile_qr_scan", "ios": "https://dc.lft.to/lastmile_qr_scan"}, "is_reserved": 0, "is_disabled": 0, "type": "electric_scooter", "bike_id": "e6032752b6545be70b12f6552f1b8d73"}, {"lon": -77.09166916666666, "lat": 38.96760533333333, "name": "d9a1d1c1161a859b61a3810a8ec0b271", "fusion_lat": 0.0, "fusion_lon": 0.0, "rental_uris": {"android": "https://dc.lft.to/lastmile_qr_scan", "ios": "https://dc.lft.to/lastmile_qr_scan"}, "is_reserved": 0, "is_disabled": 0, "type": "electric_bike", "bike_id": "d9a1d1c1161a859b61a3810a8ec0b271"}, {"lon": -77.01338666666666, "lat": 38.96612983333333, "name": "f778dc4f37098f983127c97bbe137987", "fusion_lat": 0.0, "fusion_lon": 0.0, "rental_uris": {"android": "https://dc.lft.to/lastmile_qr_scan", "ios": "https://dc.lft.to/lastmile_qr_scan"}, "is_reserved": 0, "is_disabled": 0, "type": "electric_scooter", "bike_id": "f778dc4f37098f983127c97bbe137987"}, {"lon": -77.02344833333333, "lat": 38.883693666666666, "name": "789e4ea0a86063fb40d15f2eb233bcae", "fusion_lat": 0.0, "fusion_lon": 0.0, "rental_uris": {"android": "https://dc.lft.to/lastmile_qr_scan", "ios": "https://dc.lft.to/lastmile_qr_scan"}, "is_reserved": 0, "is_disabled": 0, "type": "electric_scooter", "bike_id": "789e4ea0a86063fb40d15f2eb233bcae"}, {"lon": -76.96176083333333, "lat": 38.918639, "name": "4986210d94e733f5a6154419ff0aa31d", "fusion_lat": 0.0, "fusion_lon": 0.0, "rental_uris": {"android": "https://dc.lft.to/lastmile_qr_scan", "ios": "https://dc.lft.to/lastmile_qr_scan"}, "is_reserved": 0, "is_disabled": 0, "type": "electric_bike", "bike_id": "4986210d94e733f5a6154419ff0aa31d"}, {"lon": -77.04422516666666, "lat": 38.910596166666664, "name": "f922d3c20bdf048d3b52714b64739310", "fusion_lat": 0.0, "fusion_lon": 0.0, "rental_uris": {"android": "https://dc.lft.to/lastmile_qr_scan", "ios": "https://dc.lft.to/lastmile_qr_scan"}, "is_reserved": 0, "is_disabled": 0, "type": "electric_scooter", "bike_id": "f922d3c20bdf048d3b52714b64739310"}, {"lon": -77.03361333333334, "lat": 38.9096315, "name": "88a9f017804623c0beec78323d9e8412", "fusion_lat": 0.0, "fusion_lon": 0.0, "rental_uris": {"android": "https://dc.lft.to/lastmile_qr_scan", "ios": "https://dc.lft.to/lastmile_qr_scan"}, "is_reserved": 0, "is_disabled": 0, "type": "electric_scooter", "bike_id": "88a9f017804623c0beec78323d9e8412"}, {"lon": -77.04401066666667, "lat": 38.874292, "name": "30f4edf348f5d7ef48a7986ec1e834f9", "fusion_lat": 0.0, "fusion_lon": 0.0, "rental_uris": {"android": "https://dc.lft.to/lastmile_qr_scan", "ios": "https://dc.lft.to/lastmile_qr_scan"}, "is_reserved": 0, "is_disabled": 0, "type": "electric_scooter", "bike_id": "30f4edf348f5d7ef48a7986ec1e834f9"}, {"lon": -77.0312525, "lat": 38.973795333333335, "name": "9bab93a4b55a02384f5e0f25d4739401", "fusion_lat": 0.0, "fusion_lon": 0.0, "rental_uris": {"android": "https://dc.lft.to/lastmile_qr_scan", "ios": "https://dc.lft.to/lastmile_qr_scan"}, "is_reserved": 0, "is_disabled": 0, "type": "electric_scooter", "bike_id": "9bab93a4b55a02384f5e0f25d4739401"}, {"lon": -77.03786233333334, "lat": 38.9360775, "name": "1b55fb18a04fbf00d342de1a7abc6a2c", "fusion_lat": 0.0, "fusion_lon": 0.0, "rental_uris": {"android": "https://dc.lft.to/lastmile_qr_scan", "ios": "https://dc.lft.to/lastmile_qr_scan"}, "is_reserved": 0, "is_disabled": 0, "type": "electric_scooter", "bike_id": "1b55fb18a04fbf00d342de1a7abc6a2c"}, {"lon": -77.033712, "lat": 38.9103925, "name": "1d4874539536ecbff1dc078add5acb1f", "fusion_lat": 0.0, "fusion_lon": 0.0, "rental_uris": {"android": "https://dc.lft.to/lastmile_qr_scan", "ios": "https://dc.lft.to/lastmile_qr_scan"}, "is_reserved": 0, "is_disabled": 0, "type": "electric_scooter", "bike_id": "1d4874539536ecbff1dc078add5acb1f"}, {"lon": -77.04670816666666, "lat": 38.90400616666667, "name": "07014ab788015f24056db6370eb75c25", "fusion_lat": 0.0, "fusion_lon": 0.0, "rental_uris": {"android": "https://dc.lft.to/lastmile_qr_scan", "ios": "https://dc.lft.to/lastmile_qr_scan"}, "is_reserved": 0, "is_disabled": 0, "type": "electric_scooter", "bike_id": "07014ab788015f24056db6370eb75c25"}, {"lon": -77.04531383333334, "lat": 38.91258916666666, "name": "c8f5e0e3651b0535132ad64d94647702", "fusion_lat": 0.0, "fusion_lon": 0.0, "rental_uris": {"android": "https://dc.lft.to/lastmile_qr_scan", "ios": "https://dc.lft.to/lastmile_qr_scan"}, "is_reserved": 0, "is_disabled": 0, "type": "electric_scooter", "bike_id": "c8f5e0e3651b0535132ad64d94647702"}, {"lon": -77.05598483333333, "lat": 38.93697216666666, "name": "d77c2227aeedbd70872151819506e890", "fusion_lat": 0.0, "fusion_lon": 0.0, "rental_uris": {"android": "https://dc.lft.to/lastmile_qr_scan", "ios": "https://dc.lft.to/lastmile_qr_scan"}, "is_reserved": 0, "is_disabled": 0, "type": "electric_scooter", "bike_id": "d77c2227aeedbd70872151819506e890"}, {"lon": -77.02613916666667, "lat": 38.96201533333333, "name": "e34dc66bc1549c04f5a433c5c06271f1", "fusion_lat": 0.0, "fusion_lon": 0.0, "rental_uris": {"android": "https://dc.lft.to/lastmile_qr_scan", "ios": "https://dc.lft.to/lastmile_qr_scan"}, "is_reserved": 0, "is_disabled": 0, "type": "electric_bike", "bike_id": "e34dc66bc1549c04f5a433c5c06271f1"}, {"lon": -77.03691516666666, "lat": 38.91676133333333, "name": "542df3456d6f41b4f427124cc182118f", "fusion_lat": 0.0, "fusion_lon": 0.0, "rental_uris": {"android": "https://dc.lft.to/lastmile_qr_scan", "ios": "https://dc.lft.to/lastmile_qr_scan"}, "is_reserved": 0, "is_disabled": 0, "type": "electric_scooter", "bike_id": "542df3456d6f41b4f427124cc182118f"}, {"lon": -77.04633716666666, "lat": 38.89221283333333, "name": "f8e6c4cd39c450f61926d7cad35f8f1d", "fusion_lat": 0.0, "fusion_lon": 0.0, "rental_uris": {"android": "https://dc.lft.to/lastmile_qr_scan", "ios": "https://dc.lft.to/lastmile_qr_scan"}, "is_reserved": 0, "is_disabled": 0, "type": "electric_scooter", "bike_id": "f8e6c4cd39c450f61926d7cad35f8f1d"}, {"lon": -76.97503716666667, "lat": 38.919382, "name": "cbf68d8d1b11f710145d24c330115155", "fusion_lat": 0.0, "fusion_lon": 0.0, "rental_uris": {"android": "https://dc.lft.to/lastmile_qr_scan", "ios": "https://dc.lft.to/lastmile_qr_scan"}, "is_reserved": 0, "is_disabled": 0, "type": "electric_bike", "bike_id": "cbf68d8d1b11f710145d24c330115155"}, {"lon": -77.04139, "lat": 38.9168675, "name": "6e4b7243d32d339d4882a25e2d24ff2a", "fusion_lat": 0.0, "fusion_lon": 0.0, "rental_uris": {"android": "https://dc.lft.to/lastmile_qr_scan", "ios": "https://dc.lft.to/lastmile_qr_scan"}, "is_reserved": 0, "is_disabled": 0, "type": "electric_scooter", "bike_id": "6e4b7243d32d339d4882a25e2d24ff2a"}, {"lon": -76.9857515, "lat": 38.86157516666667, "name": "20b98752d4ce693063ebde5b0543510b", "fusion_lat": 0.0, "fusion_lon": 0.0, "rental_uris": {"android": "https://dc.lft.to/lastmile_qr_scan", "ios": "https://dc.lft.to/lastmile_qr_scan"}, "is_reserved": 0, "is_disabled": 0, "type": "electric_scooter", "bike_id": "20b98752d4ce693063ebde5b0543510b"}, {"lon": -76.9823215, "lat": 38.91656066666667, "name": "1d5b3f5802ae7d648ebcdaa151e37889", "fusion_lat": 0.0, "fusion_lon": 0.0, "rental_uris": {"android": "https://dc.lft.to/lastmile_qr_scan", "ios": "https://dc.lft.to/lastmile_qr_scan"}, "is_reserved": 0, "is_disabled": 0, "type": "electric_scooter", "bike_id": "1d5b3f5802ae7d648ebcdaa151e37889"}, {"lon": -77.03194283333333, "lat": 38.930698166666666, "name": "4542eb2e7af4a6dc2c21622e799a520b", "fusion_lat": 0.0, "fusion_lon": 0.0, "rental_uris": {"android": "https://dc.lft.to/lastmile_qr_scan", "ios": "https://dc.lft.to/lastmile_qr_scan"}, "is_reserved": 0, "is_disabled": 0, "type": "electric_scooter", "bike_id": "4542eb2e7af4a6dc2c21622e799a520b"}, {"lon": -77.0403035, "lat": 38.80425816666666, "name": "bd1b935f97473341c89cfb9bf34f0381", "fusion_lat": 0.0, "fusion_lon": 0.0, "rental_uris": {"android": "https://dc.lft.to/lastmile_qr_scan", "ios": "https://dc.lft.to/lastmile_qr_scan"}, "is_reserved": 0, "is_disabled": 0, "type": "electric_bike", "bike_id": "bd1b935f97473341c89cfb9bf34f0381"}, {"lon": -76.99609383333333, "lat": 38.88630283333333, "name": "24ee093ecce77360cc0e92d78a0d218b", "fusion_lat": 0.0, "fusion_lon": 0.0, "rental_uris": {"android": "https://dc.lft.to/lastmile_qr_scan", "ios": "https://dc.lft.to/lastmile_qr_scan"}, "is_reserved": 0, "is_disabled": 0, "type": "electric_scooter", "bike_id": "24ee093ecce77360cc0e92d78a0d218b"}, {"lon": -77.02977933333334, "lat": 38.91783083333333, "name": "6263669d05f62b0929c90517ff7fc688", "fusion_lat": 0.0, "fusion_lon": 0.0, "rental_uris": {"android": "https://dc.lft.to/lastmile_qr_scan", "ios": "https://dc.lft.to/lastmile_qr_scan"}, "is_reserved": 0, "is_disabled": 0, "type": "electric_scooter", "bike_id": "6263669d05f62b0929c90517ff7fc688"}, {"lon": -76.98378966666667, "lat": 38.86036416666666, "name": "218e1ddf77eea463f5f62992e1c5928e", "fusion_lat": 0.0, "fusion_lon": 0.0, "rental_uris": {"android": "https://dc.lft.to/lastmile_qr_scan", "ios": "https://dc.lft.to/lastmile_qr_scan"}, "is_reserved": 0, "is_disabled": 0, "type": "electric_scooter", "bike_id": "218e1ddf77eea463f5f62992e1c5928e"}, {"lon": -77.0162035, "lat": 38.91022016666667, "name": "3b7e72582b94b7c61b778497dbb7d92a", "fusion_lat": 0.0, "fusion_lon": 0.0, "rental_uris": {"android": "https://dc.lft.to/lastmile_qr_scan", "ios": "https://dc.lft.to/lastmile_qr_scan"}, "is_reserved": 0, "is_disabled": 0, "type": "electric_scooter", "bike_id": "3b7e72582b94b7c61b778497dbb7d92a"}, {"lon": -76.97561266666666, "lat": 38.90444033333333, "name": "6ef6dc3f2263c8829b640237dce84a2a", "fusion_lat": 0.0, "fusion_lon": 0.0, "rental_uris": {"android": "https://dc.lft.to/lastmile_qr_scan", "ios": "https://dc.lft.to/lastmile_qr_scan"}, "is_reserved": 0, "is_disabled": 0, "type": "electric_scooter", "bike_id": "6ef6dc3f2263c8829b640237dce84a2a"}, {"lon": -77.02593766666666, "lat": 38.89768216666667, "name": "b452715ebcb4986bbd2d4121b43992ba", "fusion_lat": 0.0, "fusion_lon": 0.0, "rental_uris": {"android": "https://dc.lft.to/lastmile_qr_scan", "ios": "https://dc.lft.to/lastmile_qr_scan"}, "is_reserved": 0, "is_disabled": 0, "type": "electric_scooter", "bike_id": "b452715ebcb4986bbd2d4121b43992ba"}, {"lon": -77.04869366666667, "lat": 38.901765166666664, "name": "5a77d309b308a1f97046d6de058db704", "fusion_lat": 0.0, "fusion_lon": 0.0, "rental_uris": {"android": "https://dc.lft.to/lastmile_qr_scan", "ios": "https://dc.lft.to/lastmile_qr_scan"}, "is_reserved": 0, "is_disabled": 0, "type": "electric_scooter", "bike_id": "5a77d309b308a1f97046d6de058db704"}, {"lon": -76.9907925, "lat": 38.8605055, "name": "74242d4b9ab7d1fa9fe6922bb8b050c6", "fusion_lat": 0.0, "fusion_lon": 0.0, "rental_uris": {"android": "https://dc.lft.to/lastmile_qr_scan", "ios": "https://dc.lft.to/lastmile_qr_scan"}, "is_reserved": 0, "is_disabled": 0, "type": "electric_scooter", "bike_id": "74242d4b9ab7d1fa9fe6922bb8b050c6"}, {"lon": -77.02408166666666, "lat": 38.9167885, "name": "6afde02f615f32834c83578783c5f806", "fusion_lat": 0.0, "fusion_lon": 0.0, "rental_uris": {"android": "https://dc.lft.to/lastmile_qr_scan", "ios": "https://dc.lft.to/lastmile_qr_scan"}, "is_reserved": 0, "is_disabled": 0, "type": "electric_scooter", "bike_id": "6afde02f615f32834c83578783c5f806"}, {"lon": -76.99981516666666, "lat": 38.83839033333334, "name": "cdfa16493b84d6d24aa98cca6dded3ce", "fusion_lat": 0.0, "fusion_lon": 0.0, "rental_uris": {"android": "https://dc.lft.to/lastmile_qr_scan", "ios": "https://dc.lft.to/lastmile_qr_scan"}, "is_reserved": 0, "is_disabled": 0, "type": "electric_scooter", "bike_id": "cdfa16493b84d6d24aa98cca6dded3ce"}, {"lon": -77.04039483333334, "lat": 38.9047025, "name": "a1707d6dabb292c2360b0211979b0528", "fusion_lat": 0.0, "fusion_lon": 0.0, "rental_uris": {"android": "https://dc.lft.to/lastmile_qr_scan", "ios": "https://dc.lft.to/lastmile_qr_scan"}, "is_reserved": 0, "is_disabled": 0, "type": "electric_scooter", "bike_id": "a1707d6dabb292c2360b0211979b0528"}, {"lon": -76.990064, "lat": 38.8650985, "name": "4ae3e6ff87d93c067941b9f7bac385ca", "fusion_lat": 0.0, "fusion_lon": 0.0, "rental_uris": {"android": "https://dc.lft.to/lastmile_qr_scan", "ios": "https://dc.lft.to/lastmile_qr_scan"}, "is_reserved": 0, "is_disabled": 0, "type": "electric_scooter", "bike_id": "4ae3e6ff87d93c067941b9f7bac385ca"}, {"lon": -77.03895016666667, "lat": 38.923333, "name": "f9331eaee32700ca126357c4826575ea", "fusion_lat": 0.0, "fusion_lon": 0.0, "rental_uris": {"android": "https://dc.lft.to/lastmile_qr_scan", "ios": "https://dc.lft.to/lastmile_qr_scan"}, "is_reserved": 0, "is_disabled": 0, "type": "electric_scooter", "bike_id": "f9331eaee32700ca126357c4826575ea"}, {"lon": -77.0429855, "lat": 38.922614, "name": "6960c512e5d476cd323e198a8acb432f", "fusion_lat": 0.0, "fusion_lon": 0.0, "rental_uris": {"android": "https://dc.lft.to/lastmile_qr_scan", "ios": "https://dc.lft.to/lastmile_qr_scan"}, "is_reserved": 0, "is_disabled": 0, "type": "electric_scooter", "bike_id": "6960c512e5d476cd323e198a8acb432f"}, {"lon": -77.02310666666666, "lat": 38.909184333333336, "name": "c472dd644183f1c3706a74b7fda7f1f4", "fusion_lat": 0.0, "fusion_lon": 0.0, "rental_uris": {"android": "https://dc.lft.to/lastmile_qr_scan", "ios": "https://dc.lft.to/lastmile_qr_scan"}, "is_reserved": 0, "is_disabled": 0, "type": "electric_scooter", "bike_id": "c472dd644183f1c3706a74b7fda7f1f4"}, {"lon": -77.041601, "lat": 38.91544666666667, "name": "b2483a8f9fac66f5c2c7fae8ffd029af", "fusion_lat": 0.0, "fusion_lon": 0.0, "rental_uris": {"android": "https://dc.lft.to/lastmile_qr_scan", "ios": "https://dc.lft.to/lastmile_qr_scan"}, "is_reserved": 0, "is_disabled": 0, "type": "electric_scooter", "bike_id": "b2483a8f9fac66f5c2c7fae8ffd029af"}, {"lon": -77.03921733333334, "lat": 38.91110416666667, "name": "0c1e1bacbbfb1d437e0342f21dd0ccb7", "fusion_lat": 0.0, "fusion_lon": 0.0, "rental_uris": {"android": "https://dc.lft.to/lastmile_qr_scan", "ios": "https://dc.lft.to/lastmile_qr_scan"}, "is_reserved": 0, "is_disabled": 0, "type": "electric_scooter", "bike_id": "0c1e1bacbbfb1d437e0342f21dd0ccb7"}, {"lon": -77.031055, "lat": 38.927547833333335, "name": "032cd0e41c7239ec7a0ff24529192b5d", "fusion_lat": 0.0, "fusion_lon": 0.0, "rental_uris": {"android": "https://dc.lft.to/lastmile_qr_scan", "ios": "https://dc.lft.to/lastmile_qr_scan"}, "is_reserved": 0, "is_disabled": 0, "type": "electric_scooter", "bike_id": "032cd0e41c7239ec7a0ff24529192b5d"}, {"lon": -77.049998, "lat": 38.892318, "name": "9e20b474348b7808955ca78e00c839d2", "fusion_lat": 0.0, "fusion_lon": 0.0, "rental_uris": {"android": "https://dc.lft.to/lastmile_qr_scan", "ios": "https://dc.lft.to/lastmile_qr_scan"}, "is_reserved": 0, "is_disabled": 0, "type": "electric_scooter", "bike_id": "9e20b474348b7808955ca78e00c839d2"}, {"lon": -77.03850383333334, "lat": 38.9113855, "name": "88707e401e7351388051a818e87058fd", "fusion_lat": 0.0, "fusion_lon": 0.0, "rental_uris": {"android": "https://dc.lft.to/lastmile_qr_scan", "ios": "https://dc.lft.to/lastmile_qr_scan"}, "is_reserved": 0, "is_disabled": 0, "type": "electric_scooter", "bike_id": "88707e401e7351388051a818e87058fd"}, {"lon": -77.00114216666667, "lat": 38.89436933333333, "name": "9f76defc78b347bea15e58bd3abada97", "fusion_lat": 0.0, "fusion_lon": 0.0, "rental_uris": {"android": "https://dc.lft.to/lastmile_qr_scan", "ios": "https://dc.lft.to/lastmile_qr_scan"}, "is_reserved": 0, "is_disabled": 0, "type": "electric_scooter", "bike_id": "9f76defc78b347bea15e58bd3abada97"}, {"lon": -77.01780583333333, "lat": 38.9026255, "name": "c4b66e0ea706a0ebbd650d2fe9e042d4", "fusion_lat": 0.0, "fusion_lon": 0.0, "rental_uris": {"android": "https://dc.lft.to/lastmile_qr_scan", "ios": "https://dc.lft.to/lastmile_qr_scan"}, "is_reserved": 0, "is_disabled": 0, "type": "electric_scooter", "bike_id": "c4b66e0ea706a0ebbd650d2fe9e042d4"}, {"lon": -77.04021033333333, "lat": 38.91420083333333, "name": "20b34eade2d5643ab904a328cad9ad30", "fusion_lat": 0.0, "fusion_lon": 0.0, "rental_uris": {"android": "https://dc.lft.to/lastmile_qr_scan", "ios": "https://dc.lft.to/lastmile_qr_scan"}, "is_reserved": 0, "is_disabled": 0, "type": "electric_scooter", "bike_id": "20b34eade2d5643ab904a328cad9ad30"}, {"lon": -77.03257466666666, "lat": 38.935311166666665, "name": "39aba9ea594e58d36436d445bc90bc9b", "fusion_lat": 0.0, "fusion_lon": 0.0, "rental_uris": {"android": "https://dc.lft.to/lastmile_qr_scan", "ios": "https://dc.lft.to/lastmile_qr_scan"}, "is_reserved": 0, "is_disabled": 0, "type": "electric_scooter", "bike_id": "39aba9ea594e58d36436d445bc90bc9b"}, {"lon": -77.02721533333333, "lat": 38.8922965, "name": "9a96d45a76ee28b30749c1ae48b328ce", "fusion_lat": 0.0, "fusion_lon": 0.0, "rental_uris": {"android": "https://dc.lft.to/lastmile_qr_scan", "ios": "https://dc.lft.to/lastmile_qr_scan"}, "is_reserved": 0, "is_disabled": 0, "type": "electric_scooter", "bike_id": "9a96d45a76ee28b30749c1ae48b328ce"}, {"lon": -77.07281766666667, "lat": 38.93181333333333, "name": "86983b7fbb2572c071d730b2e280ac37", "fusion_lat": 0.0, "fusion_lon": 0.0, "rental_uris": {"android": "https://dc.lft.to/lastmile_qr_scan", "ios": "https://dc.lft.to/lastmile_qr_scan"}, "is_reserved": 0, "is_disabled": 0, "type": "electric_scooter", "bike_id": "86983b7fbb2572c071d730b2e280ac37"}, {"lon": -76.93828516666667, "lat": 38.897619166666665, "name": "638c2586e5b488c08ce829189d65332a", "fusion_lat": 0.0, "fusion_lon": 0.0, "rental_uris": {"android": "https://dc.lft.to/lastmile_qr_scan", "ios": "https://dc.lft.to/lastmile_qr_scan"}, "is_reserved": 0, "is_disabled": 0, "type": "electric_scooter", "bike_id": "638c2586e5b488c08ce829189d65332a"}, {"lon": -77.00030616666666, "lat": 38.876462, "name": "d03425aaa5bf80959ab3869fdc7fadeb", "fusion_lat": 0.0, "fusion_lon": 0.0, "rental_uris": {"android": "https://dc.lft.to/lastmile_qr_scan", "ios": "https://dc.lft.to/lastmile_qr_scan"}, "is_reserved": 0, "is_disabled": 0, "type": "electric_scooter", "bike_id": "d03425aaa5bf80959ab3869fdc7fadeb"}, {"lon": -77.02469566666667, "lat": 38.91892, "name": "aa33a3a6b068dcb267f332fb3862e475", "fusion_lat": 0.0, "fusion_lon": 0.0, "rental_uris": {"android": "https://dc.lft.to/lastmile_qr_scan", "ios": "https://dc.lft.to/lastmile_qr_scan"}, "is_reserved": 0, "is_disabled": 0, "type": "electric_scooter", "bike_id": "aa33a3a6b068dcb267f332fb3862e475"}, {"lon": -76.94665466666666, "lat": 38.898725, "name": "650de156f8c1ca681eec786481c74ccc", "fusion_lat": 0.0, "fusion_lon": 0.0, "rental_uris": {"android": "https://dc.lft.to/lastmile_qr_scan", "ios": "https://dc.lft.to/lastmile_qr_scan"}, "is_reserved": 0, "is_disabled": 0, "type": "electric_scooter", "bike_id": "650de156f8c1ca681eec786481c74ccc"}, {"lon": -77.0033625, "lat": 38.89358683333333, "name": "1c965993ace242ab714c687b1ef26976", "fusion_lat": 0.0, "fusion_lon": 0.0, "rental_uris": {"android": "https://dc.lft.to/lastmile_qr_scan", "ios": "https://dc.lft.to/lastmile_qr_scan"}, "is_reserved": 0, "is_disabled": 0, "type": "electric_scooter", "bike_id": "1c965993ace242ab714c687b1ef26976"}, {"lon": -77.02806333333334, "lat": 38.93289883333333, "name": "ba757654722c034083faebf194ea98df", "fusion_lat": 0.0, "fusion_lon": 0.0, "rental_uris": {"android": "https://dc.lft.to/lastmile_qr_scan", "ios": "https://dc.lft.to/lastmile_qr_scan"}, "is_reserved": 0, "is_disabled": 0, "type": "electric_scooter", "bike_id": "ba757654722c034083faebf194ea98df"}, {"lon": -77.04684033333334, "lat": 38.921396333333334, "name": "8037d3416fc4f524a82a047be65d89fe", "fusion_lat": 0.0, "fusion_lon": 0.0, "rental_uris": {"android": "https://dc.lft.to/lastmile_qr_scan", "ios": "https://dc.lft.to/lastmile_qr_scan"}, "is_reserved": 0, "is_disabled": 0, "type": "electric_scooter", "bike_id": "8037d3416fc4f524a82a047be65d89fe"}, {"lon": -77.0474125, "lat": 38.91255783333333, "name": "845c35e3aefb6fbcf34105eb85fe8a61", "fusion_lat": 0.0, "fusion_lon": 0.0, "rental_uris": {"android": "https://dc.lft.to/lastmile_qr_scan", "ios": "https://dc.lft.to/lastmile_qr_scan"}, "is_reserved": 0, "is_disabled": 0, "type": "electric_scooter", "bike_id": "845c35e3aefb6fbcf34105eb85fe8a61"}, {"lon": -77.02623466666667, "lat": 38.896495, "name": "0349ea22536564d3b029a1757567b9c7", "fusion_lat": 0.0, "fusion_lon": 0.0, "rental_uris": {"android": "https://dc.lft.to/lastmile_qr_scan", "ios": "https://dc.lft.to/lastmile_qr_scan"}, "is_reserved": 0, "is_disabled": 0, "type": "electric_scooter", "bike_id": "0349ea22536564d3b029a1757567b9c7"}, {"lon": -77.03939183333334, "lat": 38.908261333333336, "name": "59b3f241d0b8b5876786f36943167848", "fusion_lat": 0.0, "fusion_lon": 0.0, "rental_uris": {"android": "https://dc.lft.to/lastmile_qr_scan", "ios": "https://dc.lft.to/lastmile_qr_scan"}, "is_reserved": 0, "is_disabled": 0, "type": "electric_scooter", "bike_id": "59b3f241d0b8b5876786f36943167848"}, {"lon": -77.02959483333333, "lat": 38.92414866666667, "name": "814bc0e84652c2b0e0eeb3215ec203e5", "fusion_lat": 0.0, "fusion_lon": 0.0, "rental_uris": {"android": "https://dc.lft.to/lastmile_qr_scan", "ios": "https://dc.lft.to/lastmile_qr_scan"}, "is_reserved": 0, "is_disabled": 0, "type": "electric_scooter", "bike_id": "814bc0e84652c2b0e0eeb3215ec203e5"}, {"lon": -76.9832575, "lat": 38.861715333333336, "name": "af6a5ea0ba4825c91c37d40de30b2ede", "fusion_lat": 0.0, "fusion_lon": 0.0, "rental_uris": {"android": "https://dc.lft.to/lastmile_qr_scan", "ios": "https://dc.lft.to/lastmile_qr_scan"}, "is_reserved": 0, "is_disabled": 0, "type": "electric_scooter", "bike_id": "af6a5ea0ba4825c91c37d40de30b2ede"}, {"lon": -77.15267316666667, "lat": 39.105668666666666, "name": "1ff3b1619c26d3c59269a6642f903acc", "fusion_lat": 0.0, "fusion_lon": 0.0, "rental_uris": {"android": "https://dc.lft.to/lastmile_qr_scan", "ios": "https://dc.lft.to/lastmile_qr_scan"}, "is_reserved": 0, "is_disabled": 0, "type": "electric_bike", "bike_id": "1ff3b1619c26d3c59269a6642f903acc"}, {"lon": -77.02364483333334, "lat": 38.925181333333335, "name": "a6701820057210d75a3b1231f0155776", "fusion_lat": 0.0, "fusion_lon": 0.0, "rental_uris": {"android": "https://dc.lft.to/lastmile_qr_scan", "ios": "https://dc.lft.to/lastmile_qr_scan"}, "is_reserved": 0, "is_disabled": 0, "type": "electric_scooter", "bike_id": "a6701820057210d75a3b1231f0155776"}, {"lon": -77.05302016666667, "lat": 38.925536, "name": "f8f590c04717a89157750294ddfa2875", "fusion_lat": 0.0, "fusion_lon": 0.0, "rental_uris": {"android": "https://dc.lft.to/lastmile_qr_scan", "ios": "https://dc.lft.to/lastmile_qr_scan"}, "is_reserved": 0, "is_disabled": 0, "type": "electric_scooter", "bike_id": "f8f590c04717a89157750294ddfa2875"}, {"lon": -77.03461633333333, "lat": 38.91818416666667, "name": "0704129f9cfa17c7c1e3ec1e27f589ca", "fusion_lat": 0.0, "fusion_lon": 0.0, "rental_uris": {"android": "https://dc.lft.to/lastmile_qr_scan", "ios": "https://dc.lft.to/lastmile_qr_scan"}, "is_reserved": 0, "is_disabled": 0, "type": "electric_scooter", "bike_id": "0704129f9cfa17c7c1e3ec1e27f589ca"}, {"lon": -77.038574, "lat": 38.90654416666667, "name": "d1f1c95f6a2168ff735b3e3806d13fde", "fusion_lat": 0.0, "fusion_lon": 0.0, "rental_uris": {"android": "https://dc.lft.to/lastmile_qr_scan", "ios": "https://dc.lft.to/lastmile_qr_scan"}, "is_reserved": 0, "is_disabled": 0, "type": "electric_scooter", "bike_id": "d1f1c95f6a2168ff735b3e3806d13fde"}, {"lon": -77.01385016666667, "lat": 38.92862683333333, "name": "60b97258b415b3cd6df930eee10874bf", "fusion_lat": 0.0, "fusion_lon": 0.0, "rental_uris": {"android": "https://dc.lft.to/lastmile_qr_scan", "ios": "https://dc.lft.to/lastmile_qr_scan"}, "is_reserved": 0, "is_disabled": 0, "type": "electric_scooter", "bike_id": "60b97258b415b3cd6df930eee10874bf"}, {"lon": -77.03029516666666, "lat": 38.91556033333333, "name": "83913757b2c43d0421ec7696ffc621d3", "fusion_lat": 0.0, "fusion_lon": 0.0, "rental_uris": {"android": "https://dc.lft.to/lastmile_qr_scan", "ios": "https://dc.lft.to/lastmile_qr_scan"}, "is_reserved": 0, "is_disabled": 0, "type": "electric_scooter", "bike_id": "83913757b2c43d0421ec7696ffc621d3"}, {"lon": -76.9575465, "lat": 38.884339, "name": "166ead57ee2f33976b03d6db92123629", "fusion_lat": 0.0, "fusion_lon": 0.0, "rental_uris": {"android": "https://dc.lft.to/lastmile_qr_scan", "ios": "https://dc.lft.to/lastmile_qr_scan"}, "is_reserved": 0, "is_disabled": 0, "type": "electric_scooter", "bike_id": "166ead57ee2f33976b03d6db92123629"}, {"lon": -77.0320435, "lat": 38.90788633333333, "name": "c4579efa8ce1cafc9d51d6b1a40149dc", "fusion_lat": 0.0, "fusion_lon": 0.0, "rental_uris": {"android": "https://dc.lft.to/lastmile_qr_scan", "ios": "https://dc.lft.to/lastmile_qr_scan"}, "is_reserved": 0, "is_disabled": 0, "type": "electric_scooter", "bike_id": "c4579efa8ce1cafc9d51d6b1a40149dc"}, {"lon": -77.04051983333333, "lat": 38.9271395, "name": "71e6da7e2da49169f6ae66e33ec03e8c", "fusion_lat": 0.0, "fusion_lon": 0.0, "rental_uris": {"android": "https://dc.lft.to/lastmile_qr_scan", "ios": "https://dc.lft.to/lastmile_qr_scan"}, "is_reserved": 0, "is_disabled": 0, "type": "electric_scooter", "bike_id": "71e6da7e2da49169f6ae66e33ec03e8c"}, {"lon": -76.99015333333334, "lat": 38.8610855, "name": "48dbafed1d094bebd58cf8cff23fbf65", "fusion_lat": 0.0, "fusion_lon": 0.0, "rental_uris": {"android": "https://dc.lft.to/lastmile_qr_scan", "ios": "https://dc.lft.to/lastmile_qr_scan"}, "is_reserved": 0, "is_disabled": 0, "type": "electric_scooter", "bike_id": "48dbafed1d094bebd58cf8cff23fbf65"}, {"lon": -77.02306316666666, "lat": 38.965676, "name": "e95b4eea7b1b3f5f05e7d615f21473f0", "fusion_lat": 0.0, "fusion_lon": 0.0, "rental_uris": {"android": "https://dc.lft.to/lastmile_qr_scan", "ios": "https://dc.lft.to/lastmile_qr_scan"}, "is_reserved": 0, "is_disabled": 0, "type": "electric_bike", "bike_id": "e95b4eea7b1b3f5f05e7d615f21473f0"}, {"lon": -77.0175255, "lat": 38.902645166666666, "name": "36c75f86ada85a2b87a74aa8d0b793b8", "fusion_lat": 0.0, "fusion_lon": 0.0, "rental_uris": {"android": "https://dc.lft.to/lastmile_qr_scan", "ios": "https://dc.lft.to/lastmile_qr_scan"}, "is_reserved": 0, "is_disabled": 0, "type": "electric_scooter", "bike_id": "36c75f86ada85a2b87a74aa8d0b793b8"}, {"lon": -77.04516533333333, "lat": 38.907798, "name": "125dda6d09d2316d6cdddec2ad504a99", "fusion_lat": 0.0, "fusion_lon": 0.0, "rental_uris": {"android": "https://dc.lft.to/lastmile_qr_scan", "ios": "https://dc.lft.to/lastmile_qr_scan"}, "is_reserved": 0, "is_disabled": 0, "type": "electric_scooter", "bike_id": "125dda6d09d2316d6cdddec2ad504a99"}, {"lon": -77.021725, "lat": 38.887503, "name": "507454aba66f70d1f23ddf5cbbe6c362", "fusion_lat": 0.0, "fusion_lon": 0.0, "rental_uris": {"android": "https://dc.lft.to/lastmile_qr_scan", "ios": "https://dc.lft.to/lastmile_qr_scan"}, "is_reserved": 0, "is_disabled": 0, "type": "electric_scooter", "bike_id": "507454aba66f70d1f23ddf5cbbe6c362"}, {"lon": -76.94767416666667, "lat": 38.900609333333335, "name": "a644a8a52f97d454fbae24cdda13eb5d", "fusion_lat": 0.0, "fusion_lon": 0.0, "rental_uris": {"android": "https://dc.lft.to/lastmile_qr_scan", "ios": "https://dc.lft.to/lastmile_qr_scan"}, "is_reserved": 0, "is_disabled": 0, "type": "electric_scooter", "bike_id": "a644a8a52f97d454fbae24cdda13eb5d"}, {"lon": -76.99632266666667, "lat": 38.84621116666667, "name": "c03c2c7874c504c81547d1ccb7882fc2", "fusion_lat": 0.0, "fusion_lon": 0.0, "rental_uris": {"android": "https://dc.lft.to/lastmile_qr_scan", "ios": "https://dc.lft.to/lastmile_qr_scan"}, "is_reserved": 0, "is_disabled": 0, "type": "electric_scooter", "bike_id": "c03c2c7874c504c81547d1ccb7882fc2"}, {"lon": -76.9986865, "lat": 38.900260833333334, "name": "dcfed14fafc48e5bab6ea54a5507d956", "fusion_lat": 0.0, "fusion_lon": 0.0, "rental_uris": {"android": "https://dc.lft.to/lastmile_qr_scan", "ios": "https://dc.lft.to/lastmile_qr_scan"}, "is_reserved": 0, "is_disabled": 0, "type": "electric_scooter", "bike_id": "dcfed14fafc48e5bab6ea54a5507d956"}, {"lon": -77.01968666666667, "lat": 38.90130166666667, "name": "13d24adc6a730d050386aac5c8eeeb38", "fusion_lat": 0.0, "fusion_lon": 0.0, "rental_uris": {"android": "https://dc.lft.to/lastmile_qr_scan", "ios": "https://dc.lft.to/lastmile_qr_scan"}, "is_reserved": 0, "is_disabled": 0, "type": "electric_scooter", "bike_id": "13d24adc6a730d050386aac5c8eeeb38"}, {"lon": -77.02473116666667, "lat": 38.938557833333334, "name": "1a0215782948d1088b2b776c4e8671d6", "fusion_lat": 0.0, "fusion_lon": 0.0, "rental_uris": {"android": "https://dc.lft.to/lastmile_qr_scan", "ios": "https://dc.lft.to/lastmile_qr_scan"}, "is_reserved": 0, "is_disabled": 0, "type": "electric_scooter", "bike_id": "1a0215782948d1088b2b776c4e8671d6"}, {"lon": -77.030742, "lat": 38.922552, "name": "1d91c48086fe319902327dc489739d8a", "fusion_lat": 0.0, "fusion_lon": 0.0, "rental_uris": {"android": "https://dc.lft.to/lastmile_qr_scan", "ios": "https://dc.lft.to/lastmile_qr_scan"}, "is_reserved": 0, "is_disabled": 0, "type": "electric_scooter", "bike_id": "1d91c48086fe319902327dc489739d8a"}, {"lon": -77.00343566666666, "lat": 38.8861735, "name": "6c9da3e7a069a7ccfa28136bad129df7", "fusion_lat": 0.0, "fusion_lon": 0.0, "rental_uris": {"android": "https://dc.lft.to/lastmile_qr_scan", "ios": "https://dc.lft.to/lastmile_qr_scan"}, "is_reserved": 0, "is_disabled": 0, "type": "electric_scooter", "bike_id": "6c9da3e7a069a7ccfa28136bad129df7"}, {"lon": -77.00863966666667, "lat": 38.827319, "name": "9614333c6b14d983d9deff09fdb15997", "fusion_lat": 0.0, "fusion_lon": 0.0, "rental_uris": {"android": "https://dc.lft.to/lastmile_qr_scan", "ios": "https://dc.lft.to/lastmile_qr_scan"}, "is_reserved": 0, "is_disabled": 0, "type": "electric_bike", "bike_id": "9614333c6b14d983d9deff09fdb15997"}, {"lon": -77.02479666666666, "lat": 38.938823166666666, "name": "060f13e47382032bfd8ad9afeece402c", "fusion_lat": 0.0, "fusion_lon": 0.0, "rental_uris": {"android": "https://dc.lft.to/lastmile_qr_scan", "ios": "https://dc.lft.to/lastmile_qr_scan"}, "is_reserved": 0, "is_disabled": 0, "type": "electric_scooter", "bike_id": "060f13e47382032bfd8ad9afeece402c"}, {"lon": -77.04447283333333, "lat": 38.90035966666667, "name": "a42e8587b1dcade39d4a192ce02024ba", "fusion_lat": 0.0, "fusion_lon": 0.0, "rental_uris": {"android": "https://dc.lft.to/lastmile_qr_scan", "ios": "https://dc.lft.to/lastmile_qr_scan"}, "is_reserved": 0, "is_disabled": 0, "type": "electric_scooter", "bike_id": "a42e8587b1dcade39d4a192ce02024ba"}, {"lon": -77.07271866666666, "lat": 38.9348575, "name": "7e08ec0ec46b63ab0c7a43b85ec27b2a", "fusion_lat": 0.0, "fusion_lon": 0.0, "rental_uris": {"android": "https://dc.lft.to/lastmile_qr_scan", "ios": "https://dc.lft.to/lastmile_qr_scan"}, "is_reserved": 0, "is_disabled": 0, "type": "electric_scooter", "bike_id": "7e08ec0ec46b63ab0c7a43b85ec27b2a"}, {"lon": -77.05316083333334, "lat": 38.90273766666667, "name": "4c7038c653e0514638e77b5a55c541c8", "fusion_lat": 0.0, "fusion_lon": 0.0, "rental_uris": {"android": "https://dc.lft.to/lastmile_qr_scan", "ios": "https://dc.lft.to/lastmile_qr_scan"}, "is_reserved": 0, "is_disabled": 0, "type": "electric_scooter", "bike_id": "4c7038c653e0514638e77b5a55c541c8"}, {"lon": -77.061735, "lat": 38.94311716666667, "name": "4aabd3055c08238398f9c25269741d0f", "fusion_lat": 0.0, "fusion_lon": 0.0, "rental_uris": {"android": "https://dc.lft.to/lastmile_qr_scan", "ios": "https://dc.lft.to/lastmile_qr_scan"}, "is_reserved": 0, "is_disabled": 0, "type": "electric_scooter", "bike_id": "4aabd3055c08238398f9c25269741d0f"}, {"lon": -77.044883, "lat": 38.90736883333334, "name": "0991dae67ebd650806cff2a14c724a99", "fusion_lat": 0.0, "fusion_lon": 0.0, "rental_uris": {"android": "https://dc.lft.to/lastmile_qr_scan", "ios": "https://dc.lft.to/lastmile_qr_scan"}, "is_reserved": 0, "is_disabled": 0, "type": "electric_scooter", "bike_id": "0991dae67ebd650806cff2a14c724a99"}, {"lon": -76.98567633333333, "lat": 38.85588166666667, "name": "3da132f21fea6cddcdebdefd8b598fd8", "fusion_lat": 0.0, "fusion_lon": 0.0, "rental_uris": {"android": "https://dc.lft.to/lastmile_qr_scan", "ios": "https://dc.lft.to/lastmile_qr_scan"}, "is_reserved": 0, "is_disabled": 0, "type": "electric_scooter", "bike_id": "3da132f21fea6cddcdebdefd8b598fd8"}, {"lon": -77.00373416666666, "lat": 38.887882833333336, "name": "7b575bfaa4a2634e2d30cbbba514adae", "fusion_lat": 0.0, "fusion_lon": 0.0, "rental_uris": {"android": "https://dc.lft.to/lastmile_qr_scan", "ios": "https://dc.lft.to/lastmile_qr_scan"}, "is_reserved": 0, "is_disabled": 0, "type": "electric_scooter", "bike_id": "7b575bfaa4a2634e2d30cbbba514adae"}, {"lon": -77.0320875, "lat": 38.9172035, "name": "862334e803c8f614dcf075e143f94a77", "fusion_lat": 0.0, "fusion_lon": 0.0, "rental_uris": {"android": "https://dc.lft.to/lastmile_qr_scan", "ios": "https://dc.lft.to/lastmile_qr_scan"}, "is_reserved": 0, "is_disabled": 0, "type": "electric_scooter", "bike_id": "862334e803c8f614dcf075e143f94a77"}, {"lon": -77.0514385, "lat": 38.90581816666667, "name": "2e401870bcc12891ace2555826f2ca15", "fusion_lat": 0.0, "fusion_lon": 0.0, "rental_uris": {"android": "https://dc.lft.to/lastmile_qr_scan", "ios": "https://dc.lft.to/lastmile_qr_scan"}, "is_reserved": 0, "is_disabled": 0, "type": "electric_scooter", "bike_id": "2e401870bcc12891ace2555826f2ca15"}, {"lon": -77.01949383333333, "lat": 38.92416983333333, "name": "206c01088e9345da8d1ba984502a8cea", "fusion_lat": 0.0, "fusion_lon": 0.0, "rental_uris": {"android": "https://dc.lft.to/lastmile_qr_scan", "ios": "https://dc.lft.to/lastmile_qr_scan"}, "is_reserved": 0, "is_disabled": 0, "type": "electric_scooter", "bike_id": "206c01088e9345da8d1ba984502a8cea"}, {"lon": -77.02609433333333, "lat": 38.90047333333333, "name": "df7b212a4423732f1f0679171253bc17", "fusion_lat": 0.0, "fusion_lon": 0.0, "rental_uris": {"android": "https://dc.lft.to/lastmile_qr_scan", "ios": "https://dc.lft.to/lastmile_qr_scan"}, "is_reserved": 0, "is_disabled": 0, "type": "electric_scooter", "bike_id": "df7b212a4423732f1f0679171253bc17"}, {"lon": -77.03464433333333, "lat": 38.908748833333334, "name": "7419fbbef4ee3d7bd66a488887379ca7", "fusion_lat": 0.0, "fusion_lon": 0.0, "rental_uris": {"android": "https://dc.lft.to/lastmile_qr_scan", "ios": "https://dc.lft.to/lastmile_qr_scan"}, "is_reserved": 0, "is_disabled": 0, "type": "electric_scooter", "bike_id": "7419fbbef4ee3d7bd66a488887379ca7"}, {"lon": -77.02299833333333, "lat": 38.916405833333336, "name": "811ea6067897f8d0e826a9f7757969bd", "fusion_lat": 0.0, "fusion_lon": 0.0, "rental_uris": {"android": "https://dc.lft.to/lastmile_qr_scan", "ios": "https://dc.lft.to/lastmile_qr_scan"}, "is_reserved": 0, "is_disabled": 0, "type": "electric_scooter", "bike_id": "811ea6067897f8d0e826a9f7757969bd"}, {"lon": -77.04217816666667, "lat": 38.907433166666664, "name": "aae4887e8485dacb67c059706b5f4697", "fusion_lat": 0.0, "fusion_lon": 0.0, "rental_uris": {"android": "https://dc.lft.to/lastmile_qr_scan", "ios": "https://dc.lft.to/lastmile_qr_scan"}, "is_reserved": 0, "is_disabled": 0, "type": "electric_bike", "bike_id": "aae4887e8485dacb67c059706b5f4697"}, {"lon": -77.028076, "lat": 38.930632333333335, "name": "58639abd77b588b58673f4b716751b20", "fusion_lat": 0.0, "fusion_lon": 0.0, "rental_uris": {"android": "https://dc.lft.to/lastmile_qr_scan", "ios": "https://dc.lft.to/lastmile_qr_scan"}, "is_reserved": 0, "is_disabled": 0, "type": "electric_scooter", "bike_id": "58639abd77b588b58673f4b716751b20"}, {"lon": -77.0415615, "lat": 38.91560616666666, "name": "86a2c4bbcc0254a5d3cdf35fb5f70e73", "fusion_lat": 0.0, "fusion_lon": 0.0, "rental_uris": {"android": "https://dc.lft.to/lastmile_qr_scan", "ios": "https://dc.lft.to/lastmile_qr_scan"}, "is_reserved": 0, "is_disabled": 0, "type": "electric_scooter", "bike_id": "86a2c4bbcc0254a5d3cdf35fb5f70e73"}, {"lon": -76.927089, "lat": 38.887694833333335, "name": "dba891a03cfa7e6a8f3c3525c89b60d6", "fusion_lat": 0.0, "fusion_lon": 0.0, "rental_uris": {"android": "https://dc.lft.to/lastmile_qr_scan", "ios": "https://dc.lft.to/lastmile_qr_scan"}, "is_reserved": 0, "is_disabled": 0, "type": "electric_scooter", "bike_id": "dba891a03cfa7e6a8f3c3525c89b60d6"}, {"lon": -77.12737833333334, "lat": 38.8956985, "name": "073acee63a85ea822af9f38bd09b5f34", "fusion_lat": 0.0, "fusion_lon": 0.0, "rental_uris": {"android": "https://dc.lft.to/lastmile_qr_scan", "ios": "https://dc.lft.to/lastmile_qr_scan"}, "is_reserved": 0, "is_disabled": 0, "type": "electric_bike", "bike_id": "073acee63a85ea822af9f38bd09b5f34"}, {"lon": -77.06993983333334, "lat": 38.94698783333333, "name": "0a9e06738f405d745659885c9966e445", "fusion_lat": 0.0, "fusion_lon": 0.0, "rental_uris": {"android": "https://dc.lft.to/lastmile_qr_scan", "ios": "https://dc.lft.to/lastmile_qr_scan"}, "is_reserved": 0, "is_disabled": 0, "type": "electric_scooter", "bike_id": "0a9e06738f405d745659885c9966e445"}, {"lon": -77.04632683333334, "lat": 38.9189655, "name": "46261b99e2eee1bbe4bd5aedaaa14657", "fusion_lat": 0.0, "fusion_lon": 0.0, "rental_uris": {"android": "https://dc.lft.to/lastmile_qr_scan", "ios": "https://dc.lft.to/lastmile_qr_scan"}, "is_reserved": 0, "is_disabled": 0, "type": "electric_scooter", "bike_id": "46261b99e2eee1bbe4bd5aedaaa14657"}, {"lon": -77.05002266666666, "lat": 38.892275, "name": "dd11529b9c7e78af2071e373a87c3002", "fusion_lat": 0.0, "fusion_lon": 0.0, "rental_uris": {"android": "https://dc.lft.to/lastmile_qr_scan", "ios": "https://dc.lft.to/lastmile_qr_scan"}, "is_reserved": 0, "is_disabled": 0, "type": "electric_scooter", "bike_id": "dd11529b9c7e78af2071e373a87c3002"}, {"lon": -76.98898433333333, "lat": 38.866945666666666, "name": "445f2d85624ea61620b0ae45c62321a0", "fusion_lat": 0.0, "fusion_lon": 0.0, "rental_uris": {"android": "https://dc.lft.to/lastmile_qr_scan", "ios": "https://dc.lft.to/lastmile_qr_scan"}, "is_reserved": 0, "is_disabled": 0, "type": "electric_scooter", "bike_id": "445f2d85624ea61620b0ae45c62321a0"}, {"lon": -76.9941035, "lat": 38.91005166666667, "name": "326b3c10f01b911db91b92d588a4c662", "fusion_lat": 0.0, "fusion_lon": 0.0, "rental_uris": {"android": "https://dc.lft.to/lastmile_qr_scan", "ios": "https://dc.lft.to/lastmile_qr_scan"}, "is_reserved": 0, "is_disabled": 0, "type": "electric_scooter", "bike_id": "326b3c10f01b911db91b92d588a4c662"}, {"lon": -77.01230683333333, "lat": 38.93042833333333, "name": "4419e3d911f0624eef1037ef847f46fb", "fusion_lat": 0.0, "fusion_lon": 0.0, "rental_uris": {"android": "https://dc.lft.to/lastmile_qr_scan", "ios": "https://dc.lft.to/lastmile_qr_scan"}, "is_reserved": 0, "is_disabled": 0, "type": "electric_scooter", "bike_id": "4419e3d911f0624eef1037ef847f46fb"}, {"lon": -76.9963065, "lat": 38.8462225, "name": "b4a310959a162aad4c45e62a0bc84af8", "fusion_lat": 0.0, "fusion_lon": 0.0, "rental_uris": {"android": "https://dc.lft.to/lastmile_qr_scan", "ios": "https://dc.lft.to/lastmile_qr_scan"}, "is_reserved": 0, "is_disabled": 0, "type": "electric_scooter", "bike_id": "b4a310959a162aad4c45e62a0bc84af8"}, {"lon": -77.026871, "lat": 38.90945833333333, "name": "c1b3195f6934f8d669e012f4ec9e1b91", "fusion_lat": 0.0, "fusion_lon": 0.0, "rental_uris": {"android": "https://dc.lft.to/lastmile_qr_scan", "ios": "https://dc.lft.to/lastmile_qr_scan"}, "is_reserved": 0, "is_disabled": 0, "type": "electric_scooter", "bike_id": "c1b3195f6934f8d669e012f4ec9e1b91"}, {"lon": -77.0321235, "lat": 38.90900833333333, "name": "89b0612e100903d457414dda80fb11ce", "fusion_lat": 0.0, "fusion_lon": 0.0, "rental_uris": {"android": "https://dc.lft.to/lastmile_qr_scan", "ios": "https://dc.lft.to/lastmile_qr_scan"}, "is_reserved": 0, "is_disabled": 0, "type": "electric_scooter", "bike_id": "89b0612e100903d457414dda80fb11ce"}, {"lon": -77.03727, "lat": 38.9170915, "name": "05097792618e39936bc7e081d9c30d5f", "fusion_lat": 0.0, "fusion_lon": 0.0, "rental_uris": {"android": "https://dc.lft.to/lastmile_qr_scan", "ios": "https://dc.lft.to/lastmile_qr_scan"}, "is_reserved": 0, "is_disabled": 0, "type": "electric_scooter", "bike_id": "05097792618e39936bc7e081d9c30d5f"}, {"lon": -77.02540883333333, "lat": 38.92072983333333, "name": "a91d3f6fbcb6b51d9e65e5fd3a43e70e", "fusion_lat": 0.0, "fusion_lon": 0.0, "rental_uris": {"android": "https://dc.lft.to/lastmile_qr_scan", "ios": "https://dc.lft.to/lastmile_qr_scan"}, "is_reserved": 0, "is_disabled": 0, "type": "electric_scooter", "bike_id": "a91d3f6fbcb6b51d9e65e5fd3a43e70e"}, {"lon": -77.00507616666667, "lat": 38.89699516666667, "name": "d9db4f8169e02a6877f3355d29268bea", "fusion_lat": 0.0, "fusion_lon": 0.0, "rental_uris": {"android": "https://dc.lft.to/lastmile_qr_scan", "ios": "https://dc.lft.to/lastmile_qr_scan"}, "is_reserved": 0, "is_disabled": 0, "type": "electric_scooter", "bike_id": "d9db4f8169e02a6877f3355d29268bea"}, {"lon": -77.03867466666667, "lat": 38.908120833333335, "name": "f51eaa5a166972798cb9832abe70d83a", "fusion_lat": 0.0, "fusion_lon": 0.0, "rental_uris": {"android": "https://dc.lft.to/lastmile_qr_scan", "ios": "https://dc.lft.to/lastmile_qr_scan"}, "is_reserved": 0, "is_disabled": 0, "type": "electric_scooter", "bike_id": "f51eaa5a166972798cb9832abe70d83a"}, {"lon": -77.033246, "lat": 38.896519166666664, "name": "e8d2280a4a098e8f766df2ae2599cf46", "fusion_lat": 0.0, "fusion_lon": 0.0, "rental_uris": {"android": "https://dc.lft.to/lastmile_qr_scan", "ios": "https://dc.lft.to/lastmile_qr_scan"}, "is_reserved": 0, "is_disabled": 0, "type": "electric_scooter", "bike_id": "e8d2280a4a098e8f766df2ae2599cf46"}, {"lon": -76.99180716666666, "lat": 38.905035833333336, "name": "ec0f233972e97b9bfed083432333c050", "fusion_lat": 0.0, "fusion_lon": 0.0, "rental_uris": {"android": "https://dc.lft.to/lastmile_qr_scan", "ios": "https://dc.lft.to/lastmile_qr_scan"}, "is_reserved": 0, "is_disabled": 0, "type": "electric_scooter", "bike_id": "ec0f233972e97b9bfed083432333c050"}, {"lon": -77.03756566666667, "lat": 38.903554166666666, "name": "28bb586ae2b8b01e8e8dde2b25629f60", "fusion_lat": 0.0, "fusion_lon": 0.0, "rental_uris": {"android": "https://dc.lft.to/lastmile_qr_scan", "ios": "https://dc.lft.to/lastmile_qr_scan"}, "is_reserved": 0, "is_disabled": 0, "type": "electric_scooter", "bike_id": "28bb586ae2b8b01e8e8dde2b25629f60"}, {"lon": -76.99018066666666, "lat": 38.85871133333333, "name": "3726b26220a24819941bdb15279f77d1", "fusion_lat": 0.0, "fusion_lon": 0.0, "rental_uris": {"android": "https://dc.lft.to/lastmile_qr_scan", "ios": "https://dc.lft.to/lastmile_qr_scan"}, "is_reserved": 0, "is_disabled": 0, "type": "electric_scooter", "bike_id": "3726b26220a24819941bdb15279f77d1"}, {"lon": -77.0484215, "lat": 38.91969116666667, "name": "87421b79cdf5068aa4141ce6ce66d1f2", "fusion_lat": 0.0, "fusion_lon": 0.0, "rental_uris": {"android": "https://dc.lft.to/lastmile_qr_scan", "ios": "https://dc.lft.to/lastmile_qr_scan"}, "is_reserved": 0, "is_disabled": 0, "type": "electric_scooter", "bike_id": "87421b79cdf5068aa4141ce6ce66d1f2"}, {"lon": -77.02557733333333, "lat": 38.89235566666667, "name": "859289c130eb035aee626fc59353b14f", "fusion_lat": 0.0, "fusion_lon": 0.0, "rental_uris": {"android": "https://dc.lft.to/lastmile_qr_scan", "ios": "https://dc.lft.to/lastmile_qr_scan"}, "is_reserved": 0, "is_disabled": 0, "type": "electric_scooter", "bike_id": "859289c130eb035aee626fc59353b14f"}, {"lon": -77.013856, "lat": 38.92867283333333, "name": "25d4ae3ef8a0c9e9bb7c1526bec879ed", "fusion_lat": 0.0, "fusion_lon": 0.0, "rental_uris": {"android": "https://dc.lft.to/lastmile_qr_scan", "ios": "https://dc.lft.to/lastmile_qr_scan"}, "is_reserved": 0, "is_disabled": 0, "type": "electric_scooter", "bike_id": "25d4ae3ef8a0c9e9bb7c1526bec879ed"}, {"lon": -77.03912616666666, "lat": 38.92183683333333, "name": "90074789d1e3b9e08b1e2e71b51fc219", "fusion_lat": 0.0, "fusion_lon": 0.0, "rental_uris": {"android": "https://dc.lft.to/lastmile_qr_scan", "ios": "https://dc.lft.to/lastmile_qr_scan"}, "is_reserved": 0, "is_disabled": 0, "type": "electric_scooter", "bike_id": "90074789d1e3b9e08b1e2e71b51fc219"}, {"lon": -77.01853766666666, "lat": 38.94000583333333, "name": "967d5d196d22dc50a2fda3a4c7abaf86", "fusion_lat": 0.0, "fusion_lon": 0.0, "rental_uris": {"android": "https://dc.lft.to/lastmile_qr_scan", "ios": "https://dc.lft.to/lastmile_qr_scan"}, "is_reserved": 0, "is_disabled": 0, "type": "electric_scooter", "bike_id": "967d5d196d22dc50a2fda3a4c7abaf86"}, {"lon": -77.02834933333334, "lat": 38.887704, "name": "fdc8ce32841a3040d36332346c5ca989", "fusion_lat": 0.0, "fusion_lon": 0.0, "rental_uris": {"android": "https://dc.lft.to/lastmile_qr_scan", "ios": "https://dc.lft.to/lastmile_qr_scan"}, "is_reserved": 0, "is_disabled": 0, "type": "electric_scooter", "bike_id": "fdc8ce32841a3040d36332346c5ca989"}, {"lon": -77.03823766666666, "lat": 38.90779333333333, "name": "fac05971bb3103d3bd3db2d70647690e", "fusion_lat": 0.0, "fusion_lon": 0.0, "rental_uris": {"android": "https://dc.lft.to/lastmile_qr_scan", "ios": "https://dc.lft.to/lastmile_qr_scan"}, "is_reserved": 0, "is_disabled": 0, "type": "electric_scooter", "bike_id": "fac05971bb3103d3bd3db2d70647690e"}, {"lon": -77.0328395, "lat": 38.93643466666666, "name": "c146df09e2e74e3278ff046c1ad52c65", "fusion_lat": 0.0, "fusion_lon": 0.0, "rental_uris": {"android": "https://dc.lft.to/lastmile_qr_scan", "ios": "https://dc.lft.to/lastmile_qr_scan"}, "is_reserved": 0, "is_disabled": 0, "type": "electric_scooter", "bike_id": "c146df09e2e74e3278ff046c1ad52c65"}, {"lon": -77.043775, "lat": 38.91114966666667, "name": "9f57ec2e8d791e6082f378e61823c1ec", "fusion_lat": 0.0, "fusion_lon": 0.0, "rental_uris": {"android": "https://dc.lft.to/lastmile_qr_scan", "ios": "https://dc.lft.to/lastmile_qr_scan"}, "is_reserved": 0, "is_disabled": 0, "type": "electric_scooter", "bike_id": "9f57ec2e8d791e6082f378e61823c1ec"}, {"lon": -77.04239516666667, "lat": 38.909419666666665, "name": "2d0b85f28b24673d8a322cd9df83d37c", "fusion_lat": 0.0, "fusion_lon": 0.0, "rental_uris": {"android": "https://dc.lft.to/lastmile_qr_scan", "ios": "https://dc.lft.to/lastmile_qr_scan"}, "is_reserved": 0, "is_disabled": 0, "type": "electric_scooter", "bike_id": "2d0b85f28b24673d8a322cd9df83d37c"}, {"lon": -77.016998, "lat": 38.920337833333335, "name": "f5262e73c3fd791e8b995481cf828330", "fusion_lat": 0.0, "fusion_lon": 0.0, "rental_uris": {"android": "https://dc.lft.to/lastmile_qr_scan", "ios": "https://dc.lft.to/lastmile_qr_scan"}, "is_reserved": 0, "is_disabled": 0, "type": "electric_scooter", "bike_id": "f5262e73c3fd791e8b995481cf828330"}, {"lon": -77.02404966666667, "lat": 38.91111716666666, "name": "a63b77308e01c71a744d8a6035a66c7f", "fusion_lat": 0.0, "fusion_lon": 0.0, "rental_uris": {"android": "https://dc.lft.to/lastmile_qr_scan", "ios": "https://dc.lft.to/lastmile_qr_scan"}, "is_reserved": 0, "is_disabled": 0, "type": "electric_scooter", "bike_id": "a63b77308e01c71a744d8a6035a66c7f"}, {"lon": -77.02692816666666, "lat": 38.912728, "name": "7a3beae430b1a2c35991bd395f4fa3ad", "fusion_lat": 0.0, "fusion_lon": 0.0, "rental_uris": {"android": "https://dc.lft.to/lastmile_qr_scan", "ios": "https://dc.lft.to/lastmile_qr_scan"}, "is_reserved": 0, "is_disabled": 0, "type": "electric_scooter", "bike_id": "7a3beae430b1a2c35991bd395f4fa3ad"}, {"lon": -77.00135283333333, "lat": 38.8999895, "name": "18d92aabaee77e8e7bd3925901522573", "fusion_lat": 0.0, "fusion_lon": 0.0, "rental_uris": {"android": "https://dc.lft.to/lastmile_qr_scan", "ios": "https://dc.lft.to/lastmile_qr_scan"}, "is_reserved": 0, "is_disabled": 0, "type": "electric_scooter", "bike_id": "18d92aabaee77e8e7bd3925901522573"}, {"lon": -77.04506116666667, "lat": 38.91279433333333, "name": "0e38d297ec22cc3777f5560fb6e22304", "fusion_lat": 0.0, "fusion_lon": 0.0, "rental_uris": {"android": "https://dc.lft.to/lastmile_qr_scan", "ios": "https://dc.lft.to/lastmile_qr_scan"}, "is_reserved": 0, "is_disabled": 0, "type": "electric_scooter", "bike_id": "0e38d297ec22cc3777f5560fb6e22304"}, {"lon": -76.90816333333333, "lat": 38.994562, "name": "1d4c2dd32ffd51e52dc9d4fbe6cd4e9b", "fusion_lat": 0.0, "fusion_lon": 0.0, "rental_uris": {"android": "https://dc.lft.to/lastmile_qr_scan", "ios": "https://dc.lft.to/lastmile_qr_scan"}, "is_reserved": 0, "is_disabled": 0, "type": "electric_bike", "bike_id": "1d4c2dd32ffd51e52dc9d4fbe6cd4e9b"}, {"lon": -77.03208933333333, "lat": 38.9297085, "name": "6430e9ca081bf52f0c0401d75e8bbcba", "fusion_lat": 0.0, "fusion_lon": 0.0, "rental_uris": {"android": "https://dc.lft.to/lastmile_qr_scan", "ios": "https://dc.lft.to/lastmile_qr_scan"}, "is_reserved": 0, "is_disabled": 0, "type": "electric_scooter", "bike_id": "6430e9ca081bf52f0c0401d75e8bbcba"}, {"lon": -77.03462833333333, "lat": 38.90739333333333, "name": "40b3045fa47e52c5c6b656132ed9568d", "fusion_lat": 0.0, "fusion_lon": 0.0, "rental_uris": {"android": "https://dc.lft.to/lastmile_qr_scan", "ios": "https://dc.lft.to/lastmile_qr_scan"}, "is_reserved": 0, "is_disabled": 0, "type": "electric_scooter", "bike_id": "40b3045fa47e52c5c6b656132ed9568d"}, {"lon": -77.03860233333333, "lat": 38.9128775, "name": "5a4909f7f00728e79e9e4a29f9bd3fff", "fusion_lat": 0.0, "fusion_lon": 0.0, "rental_uris": {"android": "https://dc.lft.to/lastmile_qr_scan", "ios": "https://dc.lft.to/lastmile_qr_scan"}, "is_reserved": 0, "is_disabled": 0, "type": "electric_scooter", "bike_id": "5a4909f7f00728e79e9e4a29f9bd3fff"}, {"lon": -77.065377, "lat": 38.93479633333333, "name": "d3738bff4cf61bd2aac9128abf3cbe42", "fusion_lat": 0.0, "fusion_lon": 0.0, "rental_uris": {"android": "https://dc.lft.to/lastmile_qr_scan", "ios": "https://dc.lft.to/lastmile_qr_scan"}, "is_reserved": 0, "is_disabled": 0, "type": "electric_scooter", "bike_id": "d3738bff4cf61bd2aac9128abf3cbe42"}, {"lon": -77.023089, "lat": 38.92712133333333, "name": "247ba2fb335770dc5c3596692d431af0", "fusion_lat": 0.0, "fusion_lon": 0.0, "rental_uris": {"android": "https://dc.lft.to/lastmile_qr_scan", "ios": "https://dc.lft.to/lastmile_qr_scan"}, "is_reserved": 0, "is_disabled": 0, "type": "electric_scooter", "bike_id": "247ba2fb335770dc5c3596692d431af0"}, {"lon": -77.07076683333334, "lat": 38.91940916666667, "name": "ea1e2b75280297335590763ebf473700", "fusion_lat": 0.0, "fusion_lon": 0.0, "rental_uris": {"android": "https://dc.lft.to/lastmile_qr_scan", "ios": "https://dc.lft.to/lastmile_qr_scan"}, "is_reserved": 0, "is_disabled": 0, "type": "electric_bike", "bike_id": "ea1e2b75280297335590763ebf473700"}, {"lon": -76.98435383333333, "lat": 38.914309, "name": "8ca20f3a07469ba94ff774e454490132", "fusion_lat": 0.0, "fusion_lon": 0.0, "rental_uris": {"android": "https://dc.lft.to/lastmile_qr_scan", "ios": "https://dc.lft.to/lastmile_qr_scan"}, "is_reserved": 0, "is_disabled": 0, "type": "electric_scooter", "bike_id": "8ca20f3a07469ba94ff774e454490132"}, {"lon": -77.04823816666666, "lat": 38.913378, "name": "d7f5ca5e6efe48c4f56fa9373cb007cf", "fusion_lat": 0.0, "fusion_lon": 0.0, "rental_uris": {"android": "https://dc.lft.to/lastmile_qr_scan", "ios": "https://dc.lft.to/lastmile_qr_scan"}, "is_reserved": 0, "is_disabled": 0, "type": "electric_scooter", "bike_id": "d7f5ca5e6efe48c4f56fa9373cb007cf"}, {"lon": -77.0337475, "lat": 38.899678, "name": "fb1a983282e6a2ba94fa228f88570c73", "fusion_lat": 0.0, "fusion_lon": 0.0, "rental_uris": {"android": "https://dc.lft.to/lastmile_qr_scan", "ios": "https://dc.lft.to/lastmile_qr_scan"}, "is_reserved": 0, "is_disabled": 0, "type": "electric_scooter", "bike_id": "fb1a983282e6a2ba94fa228f88570c73"}, {"lon": -77.02716683333334, "lat": 38.906798, "name": "80ac13bda97cec5a24a44b335e9f7060", "fusion_lat": 0.0, "fusion_lon": 0.0, "rental_uris": {"android": "https://dc.lft.to/lastmile_qr_scan", "ios": "https://dc.lft.to/lastmile_qr_scan"}, "is_reserved": 0, "is_disabled": 0, "type": "electric_scooter", "bike_id": "80ac13bda97cec5a24a44b335e9f7060"}, {"lon": -76.9835005, "lat": 38.91535616666667, "name": "a9b96327204c7c7ea6b77a9c14f65200", "fusion_lat": 0.0, "fusion_lon": 0.0, "rental_uris": {"android": "https://dc.lft.to/lastmile_qr_scan", "ios": "https://dc.lft.to/lastmile_qr_scan"}, "is_reserved": 0, "is_disabled": 0, "type": "electric_scooter", "bike_id": "a9b96327204c7c7ea6b77a9c14f65200"}, {"lon": -77.0270575, "lat": 38.931175, "name": "3649a767fcb9156c8b576fd8e346dcb7", "fusion_lat": 0.0, "fusion_lon": 0.0, "rental_uris": {"android": "https://dc.lft.to/lastmile_qr_scan", "ios": "https://dc.lft.to/lastmile_qr_scan"}, "is_reserved": 0, "is_disabled": 0, "type": "electric_bike", "bike_id": "3649a767fcb9156c8b576fd8e346dcb7"}, {"lon": -77.04224183333334, "lat": 38.911103833333335, "name": "0495fa63323dbef239f0c42d05a5bc24", "fusion_lat": 0.0, "fusion_lon": 0.0, "rental_uris": {"android": "https://dc.lft.to/lastmile_qr_scan", "ios": "https://dc.lft.to/lastmile_qr_scan"}, "is_reserved": 0, "is_disabled": 0, "type": "electric_scooter", "bike_id": "0495fa63323dbef239f0c42d05a5bc24"}, {"lon": -76.98824583333334, "lat": 38.880288666666665, "name": "a9d4af73070d6d17cb41c3e9afcbf8bb", "fusion_lat": 0.0, "fusion_lon": 0.0, "rental_uris": {"android": "https://dc.lft.to/lastmile_qr_scan", "ios": "https://dc.lft.to/lastmile_qr_scan"}, "is_reserved": 0, "is_disabled": 0, "type": "electric_scooter", "bike_id": "a9d4af73070d6d17cb41c3e9afcbf8bb"}, {"lon": -77.03201966666667, "lat": 38.886999333333335, "name": "4e0c668f95fa4361bf43af8c3e861b6d", "fusion_lat": 0.0, "fusion_lon": 0.0, "rental_uris": {"android": "https://dc.lft.to/lastmile_qr_scan", "ios": "https://dc.lft.to/lastmile_qr_scan"}, "is_reserved": 0, "is_disabled": 0, "type": "electric_scooter", "bike_id": "4e0c668f95fa4361bf43af8c3e861b6d"}, {"lon": -77.02169, "lat": 38.886359166666665, "name": "3dd854992803b977fb56797cc3eda99a", "fusion_lat": 0.0, "fusion_lon": 0.0, "rental_uris": {"android": "https://dc.lft.to/lastmile_qr_scan", "ios": "https://dc.lft.to/lastmile_qr_scan"}, "is_reserved": 0, "is_disabled": 0, "type": "electric_scooter", "bike_id": "3dd854992803b977fb56797cc3eda99a"}, {"lon": -77.10132533333334, "lat": 38.85211, "name": "d14ce7db52f3ae088f261a0d5b324baf", "fusion_lat": 0.0, "fusion_lon": 0.0, "rental_uris": {"android": "https://dc.lft.to/lastmile_qr_scan", "ios": "https://dc.lft.to/lastmile_qr_scan"}, "is_reserved": 0, "is_disabled": 0, "type": "electric_bike", "bike_id": "d14ce7db52f3ae088f261a0d5b324baf"}, {"lon": -77.02245666666667, "lat": 38.91281, "name": "e39e17a402a55ac55b9e0937aca52dbf", "fusion_lat": 0.0, "fusion_lon": 0.0, "rental_uris": {"android": "https://dc.lft.to/lastmile_qr_scan", "ios": "https://dc.lft.to/lastmile_qr_scan"}, "is_reserved": 0, "is_disabled": 0, "type": "electric_scooter", "bike_id": "e39e17a402a55ac55b9e0937aca52dbf"}, {"lon": -77.00135483333334, "lat": 38.9041355, "name": "2da2b871cde8554dee2f2e04451f6788", "fusion_lat": 0.0, "fusion_lon": 0.0, "rental_uris": {"android": "https://dc.lft.to/lastmile_qr_scan", "ios": "https://dc.lft.to/lastmile_qr_scan"}, "is_reserved": 0, "is_disabled": 0, "type": "electric_scooter", "bike_id": "2da2b871cde8554dee2f2e04451f6788"}, {"lon": -77.0218945, "lat": 38.922737166666664, "name": "3c18ac17f76b87999ae88e8bb2d9462f", "fusion_lat": 0.0, "fusion_lon": 0.0, "rental_uris": {"android": "https://dc.lft.to/lastmile_qr_scan", "ios": "https://dc.lft.to/lastmile_qr_scan"}, "is_reserved": 0, "is_disabled": 0, "type": "electric_scooter", "bike_id": "3c18ac17f76b87999ae88e8bb2d9462f"}, {"lon": -77.03164616666666, "lat": 38.914156166666665, "name": "167c523d63977b65189d7a99822a8873", "fusion_lat": 0.0, "fusion_lon": 0.0, "rental_uris": {"android": "https://dc.lft.to/lastmile_qr_scan", "ios": "https://dc.lft.to/lastmile_qr_scan"}, "is_reserved": 0, "is_disabled": 0, "type": "electric_scooter", "bike_id": "167c523d63977b65189d7a99822a8873"}, {"lon": -77.029779, "lat": 38.962315833333335, "name": "b8a7137e57f9a22a13203043b874f9d9", "fusion_lat": 0.0, "fusion_lon": 0.0, "rental_uris": {"android": "https://dc.lft.to/lastmile_qr_scan", "ios": "https://dc.lft.to/lastmile_qr_scan"}, "is_reserved": 0, "is_disabled": 0, "type": "electric_scooter", "bike_id": "b8a7137e57f9a22a13203043b874f9d9"}, {"lon": -77.04208783333333, "lat": 38.9333955, "name": "cb25740b71a826a97cd32932790f74c7", "fusion_lat": 0.0, "fusion_lon": 0.0, "rental_uris": {"android": "https://dc.lft.to/lastmile_qr_scan", "ios": "https://dc.lft.to/lastmile_qr_scan"}, "is_reserved": 0, "is_disabled": 0, "type": "electric_bike", "bike_id": "cb25740b71a826a97cd32932790f74c7"}, {"lon": -77.02718683333333, "lat": 38.918197166666666, "name": "24aa948b1350dcb1a746b6ff1c4612a2", "fusion_lat": 0.0, "fusion_lon": 0.0, "rental_uris": {"android": "https://dc.lft.to/lastmile_qr_scan", "ios": "https://dc.lft.to/lastmile_qr_scan"}, "is_reserved": 0, "is_disabled": 0, "type": "electric_scooter", "bike_id": "24aa948b1350dcb1a746b6ff1c4612a2"}, {"lon": -77.01325833333334, "lat": 38.89236533333333, "name": "fc528b99e118549b110f53e49d78f838", "fusion_lat": 0.0, "fusion_lon": 0.0, "rental_uris": {"android": "https://dc.lft.to/lastmile_qr_scan", "ios": "https://dc.lft.to/lastmile_qr_scan"}, "is_reserved": 0, "is_disabled": 0, "type": "electric_scooter", "bike_id": "fc528b99e118549b110f53e49d78f838"},