{"data": {"bikes": [{"is_reserved": 0, "is_disabled": 0, "fusion_lon": 0.0, "lat": 38.905773333333336, "name": "3c497d3566fca846cb7cc3b739a6d7a7", "bike_id": "3c497d3566fca846cb7cc3b739a6d7a7", "lon": -77.03283866666666, "fusion_lat": 0.0, "rental_uris": {"android": "https://dc.lft.to/lastmile_qr_scan", "ios": "https://dc.lft.to/lastmile_qr_scan"}, "type": "electric_scooter"}, {"is_reserved": 0, "is_disabled": 0, "fusion_lon": 0.0, "lat": 38.922973999999996, "name": "6e6a41f38ec2d07e6fc75d3456a44d89", "bike_id": "6e6a41f38ec2d07e6fc75d3456a44d89", "lon": -77.01954716666667, "fusion_lat": 0.0, "rental_uris": {"android": "https://dc.lft.to/lastmile_qr_scan", "ios": "https://dc.lft.to/lastmile_qr_scan"}, "type": "electric_scooter"}, {"is_reserved": 0, "is_disabled": 0, "fusion_lon": 0.0, "lat": 38.901801666666664, "name": "934df13fe5f3344dd6bfd8456ec988e5", "bike_id": "934df13fe5f3344dd6bfd8456ec988e5", "lon": -77.02220616666666, "fusion_lat": 0.0, "rental_uris": {"android": "https://dc.lft.to/lastmile_qr_scan", "ios": "https://dc.lft.to/lastmile_qr_scan"}, "type": "electric_scooter"}, {"is_reserved": 0, "is_disabled": 0, "fusion_lon": 0.0, "lat": 38.90869, "name": "4b01e9d07086824fa9e2b7ecc15c2a04", "bike_id": "4b01e9d07086824fa9e2b7ecc15c2a04", "lon": -77.02606233333333, "fusion_lat": 0.0, "rental_uris": {"android": "https://dc.lft.to/lastmile_qr_scan", "ios": "https://dc.lft.to/lastmile_qr_scan"}, "type": "electric_scooter"}, {"is_reserved": 0, "is_disabled": 0, "fusion_lon": 0.0, "lat": 38.9268, "name": "895fd5a85f86e311f61d138cd39d84ec", "bike_id": "895fd5a85f86e311f61d138cd39d84ec", "lon": -77.03232816666667, "fusion_lat": 0.0, "rental_uris": {"android": "https://dc.lft.to/lastmile_qr_scan", "ios": "https://dc.lft.to/lastmile_qr_scan"}, "type": "electric_scooter"}, {"is_reserved": 0, "is_disabled": 0, "fusion_lon": 0.0, "lat": 38.908479, "name": "7d280f7798037949bb468b066dc9dbe6", "bike_id": "7d280f7798037949bb468b066dc9dbe6", "lon": -77.0494435, "fusion_lat": 0.0, "rental_uris": {"android": "https://dc.lft.to/lastmile_qr_scan", "ios": "https://dc.lft.to/lastmile_qr_scan"}, "type": "electric_scooter"}, {"is_reserved": 0, "is_disabled": 0, "fusion_lon": 0.0, "lat": 38.93671116666667, "name": "22398c9aba19a8413066413717c4277e", "bike_id": "22398c9aba19a8413066413717c4277e", "lon": -77.036014, "fusion_lat": 0.0, "rental_uris": {"android": "https://dc.lft.to/lastmile_qr_scan", "ios": "https://dc.lft.to/lastmile_qr_scan"}, "type": "electric_scooter"}, {"is_reserved": 0, "is_disabled": 0, "fusion_lon": 0.0, "lat": 38.896085666666664, "name": "280c44e00e866a99370cc9baa670a96b", "bike_id": "280c44e00e866a99370cc9baa670a96b", "lon": -77.045158, "fusion_lat": 0.0, "rental_uris": {"android": "https://dc.lft.to/lastmile_qr_scan", "ios": "https://dc.lft.to/lastmile_qr_scan"}, "type": "electric_scooter"}, {"is_reserved": 0, "is_disabled": 0, "fusion_lon": 0.0, "lat": 38.920678333333335, "name": "1b0e72b95015cf66c2d20dc7801729bd", "bike_id": "1b0e72b95015cf66c2d20dc7801729bd", "lon": -77.0251815, "fusion_lat": 0.0, "rental_uris": {"android": "https://dc.lft.to/lastmile_qr_scan", "ios": "https://dc.lft.to/lastmile_qr_scan"}, "type": "electric_scooter"}, {"is_reserved": 0, "is_disabled": 0, "fusion_lon": 0.0, "lat": 38.86946966666667, "name": "8babfe6840c8f37b3c83336e8c9e1ac4", "bike_id": "8babfe6840c8f37b3c83336e8c9e1ac4", "lon": -77.13310516666667, "fusion_lat": 0.0, "rental_uris": {"android": "https://dc.lft.to/lastmile_qr_scan", "ios": "https://dc.lft.to/lastmile_qr_scan"}, "type": "electric_bike"}, {"is_reserved": 0, "is_disabled": 0, "fusion_lon": 0.0, "lat": 38.953117, "name": "719792369c1febdc0d970f96d8d65ab4", "bike_id": "719792369c1febdc0d970f96d8d65ab4", "lon": -76.98182733333333, "fusion_lat": 0.0, "rental_uris": {"android": "https://dc.lft.to/lastmile_qr_scan", "ios": "https://dc.lft.to/lastmile_qr_scan"}, "type": "electric_bike"}, {"is_reserved": 0, "is_disabled": 0, "fusion_lon": 0.0, "lat": 38.922347, "name": "cc730e1f59ecb7ef974870a3c1394c23", "bike_id": "cc730e1f59ecb7ef974870a3c1394c23", "lon": -77.02151416666666, "fusion_lat": 0.0, "rental_uris": {"android": "https://dc.lft.to/lastmile_qr_scan", "ios": "https://dc.lft.to/lastmile_qr_scan"}, "type": "electric_scooter"}, {"is_reserved": 0, "is_disabled": 0, "fusion_lon": 0.0, "lat": 38.894789833333334, "name": "923477f276570c99050bf2341b991275", "bike_id": "923477f276570c99050bf2341b991275", "lon": -76.99437483333334, "fusion_lat": 0.0, "rental_uris": {"android": "https://dc.lft.to/lastmile_qr_scan", "ios": "https://dc.lft.to/lastmile_qr_scan"}, "type": "electric_scooter"}, {"is_reserved": 0, "is_disabled": 0, "fusion_lon": 0.0, "lat": 38.92073716666667, "name": "0cc9513104b65a9b38bd1757a5c060d1", "bike_id": "0cc9513104b65a9b38bd1757a5c060d1", "lon": -77.02309816666667, "fusion_lat": 0.0, "rental_uris": {"android": "https://dc.lft.to/lastmile_qr_scan", "ios": "https://dc.lft.to/lastmile_qr_scan"}, "type": "electric_scooter"}, {"is_reserved": 0, "is_disabled": 0, "fusion_lon": 0.0, "lat": 38.903982666666664, "name": "c0749983b1c16cbf89c284ad0b11e062", "bike_id": "c0749983b1c16cbf89c284ad0b11e062", "lon": -77.00436866666666, "fusion_lat": 0.0, "rental_uris": {"android": "https://dc.lft.to/lastmile_qr_scan", "ios": "https://dc.lft.to/lastmile_qr_scan"}, "type": "electric_scooter"}, {"is_reserved": 0, "is_disabled": 0, "fusion_lon": 0.0, "lat": 38.93250066666667, "name": "78ec173ae103c3ab3e2604c57101515e", "bike_id": "78ec173ae103c3ab3e2604c57101515e", "lon": -77.032845, "fusion_lat": 0.0, "rental_uris": {"android": "https://dc.lft.to/lastmile_qr_scan", "ios": "https://dc.lft.to/lastmile_qr_scan"}, "type": "electric_scooter"}, {"is_reserved": 0, "is_disabled": 0, "fusion_lon": 0.0, "lat": 38.90170766666667, "name": "3629448401dab84aaa120792f909d31b", "bike_id": "3629448401dab84aaa120792f909d31b", "lon": -76.9808035, "fusion_lat": 0.0, "rental_uris": {"android": "https://dc.lft.to/lastmile_qr_scan", "ios": "https://dc.lft.to/lastmile_qr_scan"}, "type": "electric_scooter"}, {"is_reserved": 0, "is_disabled": 0, "fusion_lon": 0.0, "lat": 38.90706216666667, "name": "52658eca52a533f6822a1e9a328395d7", "bike_id": "52658eca52a533f6822a1e9a328395d7", "lon": -77.02968883333334, "fusion_lat": 0.0, "rental_uris": {"android": "https://dc.lft.to/lastmile_qr_scan", "ios": "https://dc.lft.to/lastmile_qr_scan"}, "type": "electric_scooter"}, {"is_reserved": 0, "is_disabled": 0, "fusion_lon": 0.0, "lat": 38.904236, "name": "472d0c536e3967147066f7f5cc53c439", "bike_id": "472d0c536e3967147066f7f5cc53c439", "lon": -77.03640983333334, "fusion_lat": 0.0, "rental_uris": {"android": "https://dc.lft.to/lastmile_qr_scan", "ios": "https://dc.lft.to/lastmile_qr_scan"}, "type": "electric_scooter"}, {"is_reserved": 0, "is_disabled": 0, "fusion_lon": 0.0, "lat": 38.917182833333335, "name": "9d1fa8cb521101d340aece140f2666f1", "bike_id": "9d1fa8cb521101d340aece140f2666f1", "lon": -77.03187033333333, "fusion_lat": 0.0, "rental_uris": {"android": "https://dc.lft.to/lastmile_qr_scan", "ios": "https://dc.lft.to/lastmile_qr_scan"}, "type": "electric_scooter"}, {"is_reserved": 0, "is_disabled": 0, "fusion_lon": 0.0, "lat": 38.99891983333333, "name": "33151c7d55040c139174619d7f7a6c53", "bike_id": "33151c7d55040c139174619d7f7a6c53", "lon": -76.9086815, "fusion_lat": 0.0, "rental_uris": {"android": "https://dc.lft.to/lastmile_qr_scan", "ios": "https://dc.lft.to/lastmile_qr_scan"}, "type": "electric_bike"}, {"is_reserved": 0, "is_disabled": 0, "fusion_lon": 0.0, "lat": 38.9275935, "name": "ac324533c9bbcae212a0dfe34477a5c7", "bike_id": "ac324533c9bbcae212a0dfe34477a5c7", "lon": -77.03207533333334, "fusion_lat": 0.0, "rental_uris": {"android": "https://dc.lft.to/lastmile_qr_scan", "ios": "https://dc.lft.to/lastmile_qr_scan"}, "type": "electric_scooter"}, {"is_reserved": 0, "is_disabled": 0, "fusion_lon": 0.0, "lat": 38.927894333333334, "name": "84cf1358e2d0a5eb9ff84e3df9984285", "bike_id": "84cf1358e2d0a5eb9ff84e3df9984285", "lon": -76.9963275, "fusion_lat": 0.0, "rental_uris": {"android": "https://dc.lft.to/lastmile_qr_scan", "ios": "https://dc.lft.to/lastmile_qr_scan"}, "type": "electric_scooter"}, {"is_reserved": 0, "is_disabled": 0, "fusion_lon": 0.0, "lat": 38.87037566666667, "name": "9cecaf9925ddf88b3cc412ddbff4ad3f", "bike_id": "9cecaf9925ddf88b3cc412ddbff4ad3f", "lon": -77.22904666666666, "fusion_lat": 0.0, "rental_uris": {"android": "https://dc.lft.to/lastmile_qr_scan", "ios": "https://dc.lft.to/lastmile_qr_scan"}, "type": "electric_bike"}, {"is_reserved": 0, "is_disabled": 0, "fusion_lon": 0.0, "lat": 38.917079333333334, "name": "7389432d93abf7f1a5759a3bce6810ea", "bike_id": "7389432d93abf7f1a5759a3bce6810ea", "lon": -77.0051425, "fusion_lat": 0.0, "rental_uris": {"android": "https://dc.lft.to/lastmile_qr_scan", "ios": "https://dc.lft.to/lastmile_qr_scan"}, "type": "electric_scooter"}, {"is_reserved": 0, "is_disabled": 0, "fusion_lon": 0.0, "lat": 38.90021016666667, "name": "1da97bd64f4df0e1d4526070f157e70d", "bike_id": "1da97bd64f4df0e1d4526070f157e70d", "lon": -77.00215916666667, "fusion_lat": 0.0, "rental_uris": {"android": "https://dc.lft.to/lastmile_qr_scan", "ios": "https://dc.lft.to/lastmile_qr_scan"}, "type": "electric_scooter"}, {"is_reserved": 0, "is_disabled": 0, "fusion_lon": 0.0, "lat": 38.892249666666665, "name": "72001abb143598f1f2d471b3f6d93f1d", "bike_id": "72001abb143598f1f2d471b3f6d93f1d", "lon": -77.04800883333333, "fusion_lat": 0.0, "rental_uris": {"android": "https://dc.lft.to/lastmile_qr_scan", "ios": "https://dc.lft.to/lastmile_qr_scan"}, "type": "electric_scooter"}, {"is_reserved": 0, "is_disabled": 0, "fusion_lon": 0.0, "lat": 38.90821016666666, "name": "804cfca9891f65eb31324a39051d9e4a", "bike_id": "804cfca9891f65eb31324a39051d9e4a", "lon": -77.00238133333333, "fusion_lat": 0.0, "rental_uris": {"android": "https://dc.lft.to/lastmile_qr_scan", "ios": "https://dc.lft.to/lastmile_qr_scan"}, "type": "electric_scooter"}, {"is_reserved": 0, "is_disabled": 0, "fusion_lon": 0.0, "lat": 38.90970466666667, "name": "f2f1e062ccabc1e3a59adfa1817236a6", "bike_id": "f2f1e062ccabc1e3a59adfa1817236a6", "lon": -77.04518816666666, "fusion_lat": 0.0, "rental_uris": {"android": "https://dc.lft.to/lastmile_qr_scan", "ios": "https://dc.lft.to/lastmile_qr_scan"}, "type": "electric_scooter"}, {"is_reserved": 0, "is_disabled": 0, "fusion_lon": 0.0, "lat": 38.9001655, "name": "07713ff9df34aa35e1d39b6180a8fd2f", "bike_id": "07713ff9df34aa35e1d39b6180a8fd2f", "lon": -77.04677133333334, "fusion_lat": 0.0, "rental_uris": {"android": "https://dc.lft.to/lastmile_qr_scan", "ios": "https://dc.lft.to/lastmile_qr_scan"}, "type": "electric_scooter"}, {"is_reserved": 0, "is_disabled": 0, "fusion_lon": 0.0, "lat": 38.91401616666667, "name": "dd3d195b430f2c6e60f553515b59aa75", "bike_id": "dd3d195b430f2c6e60f553515b59aa75", "lon": -77.0327455, "fusion_lat": 0.0, "rental_uris": {"android": "https://dc.lft.to/lastmile_qr_scan", "ios": "https://dc.lft.to/lastmile_qr_scan"}, "type": "electric_scooter"}, {"is_reserved": 0, "is_disabled": 0, "fusion_lon": 0.0, "lat": 38.924536, "name": "80bbb1e226a5ea595c504c2e26b7eb2d", "bike_id": "80bbb1e226a5ea595c504c2e26b7eb2d", "lon": -77.04021383333334, "fusion_lat": 0.0, "rental_uris": {"android": "https://dc.lft.to/lastmile_qr_scan", "ios": "https://dc.lft.to/lastmile_qr_scan"}, "type": "electric_scooter"}, {"is_reserved": 0, "is_disabled": 0, "fusion_lon": 0.0, "lat": 38.924452, "name": "bb5262038a942145698014369eb9b832", "bike_id": "bb5262038a942145698014369eb9b832", "lon": -77.0340135, "fusion_lat": 0.0, "rental_uris": {"android": "https://dc.lft.to/lastmile_qr_scan", "ios": "https://dc.lft.to/lastmile_qr_scan"}, "type": "electric_scooter"}, {"is_reserved": 0, "is_disabled": 0, "fusion_lon": 0.0, "lat": 38.89566133333334, "name": "4151edd1e53015f4a01262ffbec96caa", "bike_id": "4151edd1e53015f4a01262ffbec96caa", "lon": -76.99411133333334, "fusion_lat": 0.0, "rental_uris": {"android": "https://dc.lft.to/lastmile_qr_scan", "ios": "https://dc.lft.to/lastmile_qr_scan"}, "type": "electric_scooter"}, {"is_reserved": 0, "is_disabled": 0, "fusion_lon": 0.0, "lat": 38.9415135, "name": "f3bf897ee24daf9d803135063cf7c05f", "bike_id": "f3bf897ee24daf9d803135063cf7c05f", "lon": -77.0269685, "fusion_lat": 0.0, "rental_uris": {"android": "https://dc.lft.to/lastmile_qr_scan", "ios": "https://dc.lft.to/lastmile_qr_scan"}, "type": "electric_bike"}, {"is_reserved": 0, "is_disabled": 0, "fusion_lon": 0.0, "lat": 38.905741, "name": "c6df05164f1b19722ed4ec154d0aaefe", "bike_id": "c6df05164f1b19722ed4ec154d0aaefe", "lon": -77.00561033333334, "fusion_lat": 0.0, "rental_uris": {"android": "https://dc.lft.to/lastmile_qr_scan", "ios": "https://dc.lft.to/lastmile_qr_scan"}, "type": "electric_scooter"}, {"is_reserved": 0, "is_disabled": 0, "fusion_lon": 0.0, "lat": 38.927154333333334, "name": "06b6443242944181826bfdaea79b986e", "bike_id": "06b6443242944181826bfdaea79b986e", "lon": -77.021021, "fusion_lat": 0.0, "rental_uris": {"android": "https://dc.lft.to/lastmile_qr_scan", "ios": "https://dc.lft.to/lastmile_qr_scan"}, "type": "electric_scooter"}, {"is_reserved": 0, "is_disabled": 0, "fusion_lon": 0.0, "lat": 38.920017, "name": "882ef7306223a1363e06ca318c9a73e1", "bike_id": "882ef7306223a1363e06ca318c9a73e1", "lon": -77.02329966666667, "fusion_lat": 0.0, "rental_uris": {"android": "https://dc.lft.to/lastmile_qr_scan", "ios": "https://dc.lft.to/lastmile_qr_scan"}, "type": "electric_scooter"}, {"is_reserved": 0, "is_disabled": 0, "fusion_lon": 0.0, "lat": 38.883318333333335, "name": "ebc72d3b92424597e8fb9148b7fcf507", "bike_id": "ebc72d3b92424597e8fb9148b7fcf507", "lon": -77.01377, "fusion_lat": 0.0, "rental_uris": {"android": "https://dc.lft.to/lastmile_qr_scan", "ios": "https://dc.lft.to/lastmile_qr_scan"}, "type": "electric_scooter"}, {"is_reserved": 0, "is_disabled": 0, "fusion_lon": 0.0, "lat": 38.875941833333336, "name": "3b07819d81a7ceac1fd2b088be74e36c", "bike_id": "3b07819d81a7ceac1fd2b088be74e36c", "lon": -77.00067083333333, "fusion_lat": 0.0, "rental_uris": {"android": "https://dc.lft.to/lastmile_qr_scan", "ios": "https://dc.lft.to/lastmile_qr_scan"}, "type": "electric_scooter"}, {"is_reserved": 0, "is_disabled": 0, "fusion_lon": 0.0, "lat": 38.92365, "name": "00794be4fd8bc0acd70cf4d8f8adc57a", "bike_id": "00794be4fd8bc0acd70cf4d8f8adc57a", "lon": -77.02059216666666, "fusion_lat": 0.0, "rental_uris": {"android": "https://dc.lft.to/lastmile_qr_scan", "ios": "https://dc.lft.to/lastmile_qr_scan"}, "type": "electric_scooter"}, {"is_reserved": 0, "is_disabled": 0, "fusion_lon": 0.0, "lat": 38.915456, "name": "1f65dbb2cc7ed1ce14e2bd04631f1c06", "bike_id": "1f65dbb2cc7ed1ce14e2bd04631f1c06", "lon": -77.04441866666667, "fusion_lat": 0.0, "rental_uris": {"android": "https://dc.lft.to/lastmile_qr_scan", "ios": "https://dc.lft.to/lastmile_qr_scan"}, "type": "electric_scooter"}, {"is_reserved": 0, "is_disabled": 0, "fusion_lon": 0.0, "lat": 38.920626, "name": "7f21a3c7143ed6da794fd14441ddd138", "bike_id": "7f21a3c7143ed6da794fd14441ddd138", "lon": -77.03461183333333, "fusion_lat": 0.0, "rental_uris": {"android": "https://dc.lft.to/lastmile_qr_scan", "ios": "https://dc.lft.to/lastmile_qr_scan"}, "type": "electric_scooter"}, {"is_reserved": 0, "is_disabled": 0, "fusion_lon": 0.0, "lat": 38.923754333333335, "name": "24f619cf1b028b93992b02169fff8560", "bike_id": "24f619cf1b028b93992b02169fff8560", "lon": -77.03050316666666, "fusion_lat": 0.0, "rental_uris": {"android": "https://dc.lft.to/lastmile_qr_scan", "ios": "https://dc.lft.to/lastmile_qr_scan"}, "type": "electric_scooter"}, {"is_reserved": 0, "is_disabled": 0, "fusion_lon": 0.0, "lat": 38.905515666666666, "name": "4d43bc5192ffebccd51d23a412d5c5af", "bike_id": "4d43bc5192ffebccd51d23a412d5c5af", "lon": -77.0062055, "fusion_lat": 0.0, "rental_uris": {"android": "https://dc.lft.to/lastmile_qr_scan", "ios": "https://dc.lft.to/lastmile_qr_scan"}, "type": "electric_scooter"}, {"is_reserved": 0, "is_disabled": 0, "fusion_lon": 0.0, "lat": 38.908344166666666, "name": "16124ee03b6bb62171e1849b5d413ff6", "bike_id": "16124ee03b6bb62171e1849b5d413ff6", "lon": -77.07308066666667, "fusion_lat": 0.0, "rental_uris": {"android": "https://dc.lft.to/lastmile_qr_scan", "ios": "https://dc.lft.to/lastmile_qr_scan"}, "type": "electric_scooter"}, {"is_reserved": 0, "is_disabled": 0, "fusion_lon": 0.0, "lat": 38.91915016666667, "name": "a86c34c49f1c65078ec4392f147e0985", "bike_id": "a86c34c49f1c65078ec4392f147e0985", "lon": -77.03035933333334, "fusion_lat": 0.0, "rental_uris": {"android": "https://dc.lft.to/lastmile_qr_scan", "ios": "https://dc.lft.to/lastmile_qr_scan"}, "type": "electric_scooter"}, {"is_reserved": 0, "is_disabled": 0, "fusion_lon": 0.0, "lat": 38.91412183333333, "name": "d4504b48e3934d93677d84caf17d028e", "bike_id": "d4504b48e3934d93677d84caf17d028e", "lon": -77.02238783333334, "fusion_lat": 0.0, "rental_uris": {"android": "https://dc.lft.to/lastmile_qr_scan", "ios": "https://dc.lft.to/lastmile_qr_scan"}, "type": "electric_scooter"}, {"is_reserved": 0, "is_disabled": 0, "fusion_lon": 0.0, "lat": 38.89402833333333, "name": "f735a2f6a9dc9cf92f3823acf09b9403", "bike_id": "f735a2f6a9dc9cf92f3823acf09b9403", "lon": -77.02171, "fusion_lat": 0.0, "rental_uris": {"android": "https://dc.lft.to/lastmile_qr_scan", "ios": "https://dc.lft.to/lastmile_qr_scan"}, "type": "electric_scooter"}, {"is_reserved": 0, "is_disabled": 0, "fusion_lon": 0.0, "lat": 38.88958566666667, "name": "ba3f7a568828f66c7286b837b3903cf0", "bike_id": "ba3f7a568828f66c7286b837b3903cf0", "lon": -76.988277, "fusion_lat": 0.0, "rental_uris": {"android": "https://dc.lft.to/lastmile_qr_scan", "ios": "https://dc.lft.to/lastmile_qr_scan"}, "type": "electric_scooter"}, {"is_reserved": 0, "is_disabled": 0, "fusion_lon": 0.0, "lat": 38.898337, "name": "c2d6c68662f6391d63188a5cb4f0dd68", "bike_id": "c2d6c68662f6391d63188a5cb4f0dd68", "lon": -76.9464435, "fusion_lat": 0.0, "rental_uris": {"android": "https://dc.lft.to/lastmile_qr_scan", "ios": "https://dc.lft.to/lastmile_qr_scan"}, "type": "electric_scooter"}, {"is_reserved": 0, "is_disabled": 0, "fusion_lon": 0.0, "lat": 38.91119533333333, "name": "082a73329ee66d7bd61bbd99854a1fac", "bike_id": "082a73329ee66d7bd61bbd99854a1fac", "lon": -77.03833133333333, "fusion_lat": 0.0, "rental_uris": {"android": "https://dc.lft.to/lastmile_qr_scan", "ios": "https://dc.lft.to/lastmile_qr_scan"}, "type": "electric_scooter"}, {"is_reserved": 0, "is_disabled": 0, "fusion_lon": 0.0, "lat": 38.92470683333333, "name": "6d3fab6ec078bdef9c716603888c3a1c", "bike_id": "6d3fab6ec078bdef9c716603888c3a1c", "lon": -77.0221725, "fusion_lat": 0.0, "rental_uris": {"android": "https://dc.lft.to/lastmile_qr_scan", "ios": "https://dc.lft.to/lastmile_qr_scan"}, "type": "electric_scooter"}, {"is_reserved": 0, "is_disabled": 0, "fusion_lon": 0.0, "lat": 39.084338, "name": "46cac117099a33dca697c31bb56364d2", "bike_id": "46cac117099a33dca697c31bb56364d2", "lon": -76.95147716666666, "fusion_lat": 0.0, "rental_uris": {"android": "https://dc.lft.to/lastmile_qr_scan", "ios": "https://dc.lft.to/lastmile_qr_scan"}, "type": "electric_bike"}, {"is_reserved": 0, "is_disabled": 0, "fusion_lon": 0.0, "lat": 38.91946933333333, "name": "4e172c99167b2566a721d508066c91af", "bike_id": "4e172c99167b2566a721d508066c91af", "lon": -77.0219765, "fusion_lat": 0.0, "rental_uris": {"android": "https://dc.lft.to/lastmile_qr_scan", "ios": "https://dc.lft.to/lastmile_qr_scan"}, "type": "electric_scooter"}, {"is_reserved": 0, "is_disabled": 0, "fusion_lon": 0.0, "lat": 38.92070183333333, "name": "d238dbc522cc47b41f049bef966450a3", "bike_id": "d238dbc522cc47b41f049bef966450a3", "lon": -77.04557816666667, "fusion_lat": 0.0, "rental_uris": {"android": "https://dc.lft.to/lastmile_qr_scan", "ios": "https://dc.lft.to/lastmile_qr_scan"}, "type": "electric_scooter"}, {"is_reserved": 0, "is_disabled": 0, "fusion_lon": 0.0, "lat": 38.921349166666666, "name": "04e41f9bafcbc236ecc9e22dccb78f0c", "bike_id": "04e41f9bafcbc236ecc9e22dccb78f0c", "lon": -77.01168916666667, "fusion_lat": 0.0, "rental_uris": {"android": "https://dc.lft.to/lastmile_qr_scan", "ios": "https://dc.lft.to/lastmile_qr_scan"}, "type": "electric_scooter"}, {"is_reserved": 0, "is_disabled": 0, "fusion_lon": 0.0, "lat": 38.92051983333333, "name": "d8916ab9ca09bf9b2a8b391a9aa4e744", "bike_id": "d8916ab9ca09bf9b2a8b391a9aa4e744", "lon": -77.0242835, "fusion_lat": 0.0, "rental_uris": {"android": "https://dc.lft.to/lastmile_qr_scan", "ios": "https://dc.lft.to/lastmile_qr_scan"}, "type": "electric_scooter"}, {"is_reserved": 0, "is_disabled": 0, "fusion_lon": 0.0, "lat": 38.91064383333333, "name": "aebb5ce60b2ad400e3717253b92f9da7", "bike_id": "aebb5ce60b2ad400e3717253b92f9da7", "lon": -77.05388216666667, "fusion_lat": 0.0, "rental_uris": {"android": "https://dc.lft.to/lastmile_qr_scan", "ios": "https://dc.lft.to/lastmile_qr_scan"}, "type": "electric_scooter"}, {"is_reserved": 0, "is_disabled": 0, "fusion_lon": 0.0, "lat": 38.945375, "name": "57a777d33f3eb858fec3e30ad75bc494", "bike_id": "57a777d33f3eb858fec3e30ad75bc494", "lon": -77.34461933333333, "fusion_lat": 0.0, "rental_uris": {"android": "https://dc.lft.to/lastmile_qr_scan", "ios": "https://dc.lft.to/lastmile_qr_scan"}, "type": "electric_bike"}, {"is_reserved": 0, "is_disabled": 0, "fusion_lon": 0.0, "lat": 38.88235616666667, "name": "abb6677b8e94a185e527ff102a8031a9", "bike_id": "abb6677b8e94a185e527ff102a8031a9", "lon": -76.9949665, "fusion_lat": 0.0, "rental_uris": {"android": "https://dc.lft.to/lastmile_qr_scan", "ios": "https://dc.lft.to/lastmile_qr_scan"}, "type": "electric_scooter"}, {"is_reserved": 0, "is_disabled": 0, "fusion_lon": 0.0, "lat": 38.88398633333333, "name": "0ad218dc1b00abbe68e039757bfe136a", "bike_id": "0ad218dc1b00abbe68e039757bfe136a", "lon": -76.93040066666667, "fusion_lat": 0.0, "rental_uris": {"android": "https://dc.lft.to/lastmile_qr_scan", "ios": "https://dc.lft.to/lastmile_qr_scan"}, "type": "electric_scooter"}, {"is_reserved": 0, "is_disabled": 0, "fusion_lon": 0.0, "lat": 38.91852333333333, "name": "98d4c6a643872ed3ae6930ffa8e7d71a", "bike_id": "98d4c6a643872ed3ae6930ffa8e7d71a", "lon": -77.02536016666667, "fusion_lat": 0.0, "rental_uris": {"android": "https://dc.lft.to/lastmile_qr_scan", "ios": "https://dc.lft.to/lastmile_qr_scan"}, "type": "electric_scooter"}, {"is_reserved": 0, "is_disabled": 0, "fusion_lon": 0.0, "lat": 38.926022, "name": "2d4d163a98d5b8c436469db8044a4d8d", "bike_id": "2d4d163a98d5b8c436469db8044a4d8d", "lon": -77.0215775, "fusion_lat": 0.0, "rental_uris": {"android": "https://dc.lft.to/lastmile_qr_scan", "ios": "https://dc.lft.to/lastmile_qr_scan"}, "type": "electric_scooter"}, {"is_reserved": 0, "is_disabled": 0, "fusion_lon": 0.0, "lat": 38.90239416666667, "name": "258148a5214e54ad480dcbc0aa60eb50", "bike_id": "258148a5214e54ad480dcbc0aa60eb50", "lon": -77.04363283333333, "fusion_lat": 0.0, "rental_uris": {"android": "https://dc.lft.to/lastmile_qr_scan", "ios": "https://dc.lft.to/lastmile_qr_scan"}, "type": "electric_scooter"}, {"is_reserved": 0, "is_disabled": 0, "fusion_lon": 0.0, "lat": 38.9250585, "name": "3b36d91c5868a5815b40f9c3485cb4d4", "bike_id": "3b36d91c5868a5815b40f9c3485cb4d4", "lon": -77.0235445, "fusion_lat": 0.0, "rental_uris": {"android": "https://dc.lft.to/lastmile_qr_scan", "ios": "https://dc.lft.to/lastmile_qr_scan"}, "type": "electric_scooter"}, {"is_reserved": 0, "is_disabled": 0, "fusion_lon": 0.0, "lat": 38.9180475, "name": "c4528adb9b4826172183a2652e5610f1", "bike_id": "c4528adb9b4826172183a2652e5610f1", "lon": -77.02318166666667, "fusion_lat": 0.0, "rental_uris": {"android": "https://dc.lft.to/lastmile_qr_scan", "ios": "https://dc.lft.to/lastmile_qr_scan"}, "type": "electric_scooter"}, {"is_reserved": 0, "is_disabled": 0, "fusion_lon": 0.0, "lat": 38.88662133333333, "name": "019b982e06a47b26b7fedc19b357c036", "bike_id": "019b982e06a47b26b7fedc19b357c036", "lon": -76.93675483333334, "fusion_lat": 0.0, "rental_uris": {"android": "https://dc.lft.to/lastmile_qr_scan", "ios": "https://dc.lft.to/lastmile_qr_scan"}, "type": "electric_scooter"}, {"is_reserved": 0, "is_disabled": 0, "fusion_lon": 0.0, "lat": 38.91911183333333, "name": "13edabe4f2fec89483f997925610f76b", "bike_id": "13edabe4f2fec89483f997925610f76b", "lon": -77.009939, "fusion_lat": 0.0, "rental_uris": {"android": "https://dc.lft.to/lastmile_qr_scan", "ios": "https://dc.lft.to/lastmile_qr_scan"}, "type": "electric_scooter"}, {"is_reserved": 0, "is_disabled": 0, "fusion_lon": 0.0, "lat": 38.85790133333333, "name": "280f29416b7dff1aff4a656d5a9be0d9", "bike_id": "280f29416b7dff1aff4a656d5a9be0d9", "lon": -77.09963633333334, "fusion_lat": 0.0, "rental_uris": {"android": "https://dc.lft.to/lastmile_qr_scan", "ios": "https://dc.lft.to/lastmile_qr_scan"}, "type": "electric_bike"}, {"is_reserved": 0, "is_disabled": 0, "fusion_lon": 0.0, "lat": 38.87663966666667, "name": "a00d4c5a14818079e73a306fcb784d27", "bike_id": "a00d4c5a14818079e73a306fcb784d27", "lon": -77.01464316666667, "fusion_lat": 0.0, "rental_uris": {"android": "https://dc.lft.to/lastmile_qr_scan", "ios": "https://dc.lft.to/lastmile_qr_scan"}, "type": "electric_bike"}, {"is_reserved": 0, "is_disabled": 0, "fusion_lon": 0.0, "lat": 38.924708, "name": "cbf31d1325a3db7ca07bd511fafba038", "bike_id": "cbf31d1325a3db7ca07bd511fafba038", "lon": -77.037898, "fusion_lat": 0.0, "rental_uris": {"android": "https://dc.lft.to/lastmile_qr_scan", "ios": "https://dc.lft.to/lastmile_qr_scan"}, "type": "electric_scooter"}, {"is_reserved": 0, "is_disabled": 0, "fusion_lon": 0.0, "lat": 38.924203, "name": "a327c4a2f50de6ea3c5f337179eb8fac", "bike_id": "a327c4a2f50de6ea3c5f337179eb8fac", "lon": -77.021325, "fusion_lat": 0.0, "rental_uris": {"android": "https://dc.lft.to/lastmile_qr_scan", "ios": "https://dc.lft.to/lastmile_qr_scan"}, "type": "electric_scooter"}, {"is_reserved": 0, "is_disabled": 0, "fusion_lon": 0.0, "lat": 38.901637, "name": "e3d9d4f86a76a56975132f6171ae96f1", "bike_id": "e3d9d4f86a76a56975132f6171ae96f1", "lon": -77.04890833333333, "fusion_lat": 0.0, "rental_uris": {"android": "https://dc.lft.to/lastmile_qr_scan", "ios": "https://dc.lft.to/lastmile_qr_scan"}, "type": "electric_scooter"}, {"is_reserved": 0, "is_disabled": 0, "fusion_lon": 0.0, "lat": 38.950655, "name": "f94ba0768fe3ce2e990e27ae7c75b7b2", "bike_id": "f94ba0768fe3ce2e990e27ae7c75b7b2", "lon": -76.97084866666667, "fusion_lat": 0.0, "rental_uris": {"android": "https://dc.lft.to/lastmile_qr_scan", "ios": "https://dc.lft.to/lastmile_qr_scan"}, "type": "electric_bike"}, {"is_reserved": 0, "is_disabled": 0, "fusion_lon": 0.0, "lat": 38.90432333333333, "name": "cb342c72505dab6f67ca80a4207a21c1", "bike_id": "cb342c72505dab6f67ca80a4207a21c1", "lon": -77.043479, "fusion_lat": 0.0, "rental_uris": {"android": "https://dc.lft.to/lastmile_qr_scan", "ios": "https://dc.lft.to/lastmile_qr_scan"}, "type": "electric_scooter"}, {"is_reserved": 0, "is_disabled": 0, "fusion_lon": 0.0, "lat": 38.902101333333334, "name": "df9be518fcfbba7df84bdb8f2c0252ed", "bike_id": "df9be518fcfbba7df84bdb8f2c0252ed", "lon": -77.0282305, "fusion_lat": 0.0, "rental_uris": {"android": "https://dc.lft.to/lastmile_qr_scan", "ios": "https://dc.lft.to/lastmile_qr_scan"}, "type": "electric_scooter"}, {"is_reserved": 0, "is_disabled": 0, "fusion_lon": 0.0, "lat": 38.91855, "name": "2251f22c772601d766357d5ae8fbbd8b", "bike_id": "2251f22c772601d766357d5ae8fbbd8b", "lon": -77.03213066666666, "fusion_lat": 0.0, "rental_uris": {"android": "https://dc.lft.to/lastmile_qr_scan", "ios": "https://dc.lft.to/lastmile_qr_scan"}, "type": "electric_scooter"}, {"is_reserved": 0, "is_disabled": 0, "fusion_lon": 0.0, "lat": 38.92231566666667, "name": "65367cf7210243437b06bcf9240e8fde", "bike_id": "65367cf7210243437b06bcf9240e8fde", "lon": -77.0211815, "fusion_lat": 0.0, "rental_uris": {"android": "https://dc.lft.to/lastmile_qr_scan", "ios": "https://dc.lft.to/lastmile_qr_scan"}, "type": "electric_scooter"}, {"is_reserved": 0, "is_disabled": 0, "fusion_lon": 0.0, "lat": 38.89747416666667, "name": "6bac3b8ca1ec2b7e9282bcd553a993e2", "bike_id": "6bac3b8ca1ec2b7e9282bcd553a993e2", "lon": -77.03207983333333, "fusion_lat": 0.0, "rental_uris": {"android": "https://dc.lft.to/lastmile_qr_scan", "ios": "https://dc.lft.to/lastmile_qr_scan"}, "type": "electric_scooter"}, {"is_reserved": 0, "is_disabled": 0, "fusion_lon": 0.0, "lat": 38.90238333333333, "name": "95348e9e7f4dfd247a54e3f6859de20d", "bike_id": "95348e9e7f4dfd247a54e3f6859de20d", "lon": -77.001978, "fusion_lat": 0.0, "rental_uris": {"android": "https://dc.lft.to/lastmile_qr_scan", "ios": "https://dc.lft.to/lastmile_qr_scan"}, "type": "electric_scooter"}, {"is_reserved": 0, "is_disabled": 0, "fusion_lon": 0.0, "lat": 38.92065066666667, "name": "b03f8daeee2932beea4ef0ae602b3d88", "bike_id": "b03f8daeee2932beea4ef0ae602b3d88", "lon": -77.034718, "fusion_lat": 0.0, "rental_uris": {"android": "https://dc.lft.to/lastmile_qr_scan", "ios": "https://dc.lft.to/lastmile_qr_scan"}, "type": "electric_scooter"}, {"is_reserved": 0, "is_disabled": 0, "fusion_lon": 0.0, "lat": 38.938665, "name": "aa84ac3db35ab5d08e591638a0930314", "bike_id": "aa84ac3db35ab5d08e591638a0930314", "lon": -77.03046133333334, "fusion_lat": 0.0, "rental_uris": {"android": "https://dc.lft.to/lastmile_qr_scan", "ios": "https://dc.lft.to/lastmile_qr_scan"}, "type": "electric_scooter"}, {"is_reserved": 0, "is_disabled": 0, "fusion_lon": 0.0, "lat": 38.909082, "name": "1d4267ebd6184dd94a8a03dc65d85cfc", "bike_id": "1d4267ebd6184dd94a8a03dc65d85cfc", "lon": -77.0727385, "fusion_lat": 0.0, "rental_uris": {"android": "https://dc.lft.to/lastmile_qr_scan", "ios": "https://dc.lft.to/lastmile_qr_scan"}, "type": "electric_scooter"}, {"is_reserved": 0, "is_disabled": 0, "fusion_lon": 0.0, "lat": 38.876656, "name": "96b5dc9e9ec00150434d3f2fb4f9284f", "bike_id": "96b5dc9e9ec00150434d3f2fb4f9284f", "lon": -77.00410683333334, "fusion_lat": 0.0, "rental_uris": {"android": "https://dc.lft.to/lastmile_qr_scan", "ios": "https://dc.lft.to/lastmile_qr_scan"}, "type": "electric_scooter"}, {"is_reserved": 0, "is_disabled": 0, "fusion_lon": 0.0, "lat": 38.88278316666667, "name": "4fdf732041d1eec22a6ec13fc9e7aff1", "bike_id": "4fdf732041d1eec22a6ec13fc9e7aff1", "lon": -76.93237833333333, "fusion_lat": 0.0, "rental_uris": {"android": "https://dc.lft.to/lastmile_qr_scan", "ios": "https://dc.lft.to/lastmile_qr_scan"}, "type": "electric_bike"}, {"is_reserved": 0, "is_disabled": 0, "fusion_lon": 0.0, "lat": 38.91455233333333, "name": "6c3ab165aa7403acb5a5b3aa5e28e381", "bike_id": "6c3ab165aa7403acb5a5b3aa5e28e381", "lon": -76.97286016666666, "fusion_lat": 0.0, "rental_uris": {"android": "https://dc.lft.to/lastmile_qr_scan", "ios": "https://dc.lft.to/lastmile_qr_scan"}, "type": "electric_bike"}, {"is_reserved": 0, "is_disabled": 0, "fusion_lon": 0.0, "lat": 38.92453, "name": "00c67ac7b555a5f3d7fcd783976250c0", "bike_id": "00c67ac7b555a5f3d7fcd783976250c0", "lon": -77.03285116666666, "fusion_lat": 0.0, "rental_uris": {"android": "https://dc.lft.to/lastmile_qr_scan", "ios": "https://dc.lft.to/lastmile_qr_scan"}, "type": "electric_scooter"}, {"is_reserved": 0, "is_disabled": 0, "fusion_lon": 0.0, "lat": 38.8521435, "name": "681d59f67f087e4d5eb27dcbd2fbd84b", "bike_id": "681d59f67f087e4d5eb27dcbd2fbd84b", "lon": -76.9937515, "fusion_lat": 0.0, "rental_uris": {"android": "https://dc.lft.to/lastmile_qr_scan", "ios": "https://dc.lft.to/lastmile_qr_scan"}, "type": "electric_bike"}, {"is_reserved": 0, "is_disabled": 0, "fusion_lon": 0.0, "lat": 38.89836066666667, "name": "c584852233e8aa17ea31ea96e2cc9953", "bike_id": "c584852233e8aa17ea31ea96e2cc9953", "lon": -77.02278316666667, "fusion_lat": 0.0, "rental_uris": {"android": "https://dc.lft.to/lastmile_qr_scan", "ios": "https://dc.lft.to/lastmile_qr_scan"}, "type": "electric_scooter"}, {"is_reserved": 0, "is_disabled": 0, "fusion_lon": 0.0, "lat": 38.922457666666666, "name": "61e4347f6b6fad9caeba233f34cf2536", "bike_id": "61e4347f6b6fad9caeba233f34cf2536", "lon": -77.03519483333334, "fusion_lat": 0.0, "rental_uris": {"android": "https://dc.lft.to/lastmile_qr_scan", "ios": "https://dc.lft.to/lastmile_qr_scan"}, "type": "electric_scooter"}, {"is_reserved": 0, "is_disabled": 0, "fusion_lon": 0.0, "lat": 38.92083383333333, "name": "6ccdbfc10ea2d7d9bcbbda729b90108a", "bike_id": "6ccdbfc10ea2d7d9bcbbda729b90108a", "lon": -77.02535316666666, "fusion_lat": 0.0, "rental_uris": {"android": "https://dc.lft.to/lastmile_qr_scan", "ios": "https://dc.lft.to/lastmile_qr_scan"}, "type": "electric_scooter"}, {"is_reserved": 0, "is_disabled": 0, "fusion_lon": 0.0, "lat": 38.94452283333333, "name": "932d5889e272106dcd2ea98fe0d41f60", "bike_id": "932d5889e272106dcd2ea98fe0d41f60", "lon": -77.06352683333333, "fusion_lat": 0.0, "rental_uris": {"android": "https://dc.lft.to/lastmile_qr_scan", "ios": "https://dc.lft.to/lastmile_qr_scan"}, "type": "electric_scooter"}, {"is_reserved": 0, "is_disabled": 0, "fusion_lon": 0.0, "lat": 38.92244983333333, "name": "374b13e6d8095e5dd14436fd99b32457", "bike_id": "374b13e6d8095e5dd14436fd99b32457", "lon": -77.02853466666667, "fusion_lat": 0.0, "rental_uris": {"android": "https://dc.lft.to/lastmile_qr_scan", "ios": "https://dc.lft.to/lastmile_qr_scan"}, "type": "electric_scooter"}, {"is_reserved": 0, "is_disabled": 0, "fusion_lon": 0.0, "lat": 38.9192015, "name": "5663ba9de03230842341c6bf9e667dc5", "bike_id": "5663ba9de03230842341c6bf9e667dc5", "lon": -77.07890283333333, "fusion_lat": 0.0, "rental_uris": {"android": "https://dc.lft.to/lastmile_qr_scan", "ios": "https://dc.lft.to/lastmile_qr_scan"}, "type": "electric_scooter"}, {"is_reserved": 0, "is_disabled": 0, "fusion_lon": 0.0, "lat": 38.89738066666666, "name": "48512398e725237bb9a87c61256169ec", "bike_id": "48512398e725237bb9a87c61256169ec", "lon": -77.03117833333333, "fusion_lat": 0.0, "rental_uris": {"android": "https://dc.lft.to/lastmile_qr_scan", "ios": "https://dc.lft.to/lastmile_qr_scan"}, "type": "electric_scooter"}, {"is_reserved": 0, "is_disabled": 0, "fusion_lon": 0.0, "lat": 38.877123166666664, "name": "136dc34502bb575d22fc0dcff6f4c01e", "bike_id": "136dc34502bb575d22fc0dcff6f4c01e", "lon": -77.01645783333333, "fusion_lat": 0.0, "rental_uris": {"android": "https://dc.lft.to/lastmile_qr_scan", "ios": "https://dc.lft.to/lastmile_qr_scan"}, "type": "electric_scooter"}, {"is_reserved": 0, "is_disabled": 0, "fusion_lon": 0.0, "lat": 38.92131083333334, "name": "065b24647b37561808f15df89515b37e", "bike_id": "065b24647b37561808f15df89515b37e", "lon": -77.01803266666667, "fusion_lat": 0.0, "rental_uris": {"android": "https://dc.lft.to/lastmile_qr_scan", "ios": "https://dc.lft.to/lastmile_qr_scan"}, "type": "electric_scooter"}, {"is_reserved": 0, "is_disabled": 0, "fusion_lon": 0.0, "lat": 38.9296365, "name": "075bbeeb5bff976d9c1447dfb730c44a", "bike_id": "075bbeeb5bff976d9c1447dfb730c44a", "lon": -77.0419995, "fusion_lat": 0.0, "rental_uris": {"android": "https://dc.lft.to/lastmile_qr_scan", "ios": "https://dc.lft.to/lastmile_qr_scan"}, "type": "electric_scooter"}, {"is_reserved": 0, "is_disabled": 0, "fusion_lon": 0.0, "lat": 38.92223583333333, "name": "d0f25b08fd9c3a3782da642e45809030", "bike_id": "d0f25b08fd9c3a3782da642e45809030", "lon": -77.04334583333333, "fusion_lat": 0.0, "rental_uris": {"android": "https://dc.lft.to/lastmile_qr_scan", "ios": "https://dc.lft.to/lastmile_qr_scan"}, "type": "electric_scooter"}, {"is_reserved": 0, "is_disabled": 0, "fusion_lon": 0.0, "lat": 38.914064, "name": "2eae8cce8cf137de1ee8478680c2ef41", "bike_id": "2eae8cce8cf137de1ee8478680c2ef41", "lon": -77.03173333333334, "fusion_lat": 0.0, "rental_uris": {"android": "https://dc.lft.to/lastmile_qr_scan", "ios": "https://dc.lft.to/lastmile_qr_scan"}, "type": "electric_scooter"}, {"is_reserved": 0, "is_disabled": 0, "fusion_lon": 0.0, "lat": 38.912286, "name": "215f8b966a08ec3ed09ac38c462fe4b6", "bike_id": "215f8b966a08ec3ed09ac38c462fe4b6", "lon": -77.07752283333333, "fusion_lat": 0.0, "rental_uris": {"android": "https://dc.lft.to/lastmile_qr_scan", "ios": "https://dc.lft.to/lastmile_qr_scan"}, "type": "electric_scooter"}, {"is_reserved": 0, "is_disabled": 0, "fusion_lon": 0.0, "lat": 38.91351016666667, "name": "e46061dd3687790026e2c538073d299c", "bike_id": "e46061dd3687790026e2c538073d299c", "lon": -77.03188483333334, "fusion_lat": 0.0, "rental_uris": {"android": "https://dc.lft.to/lastmile_qr_scan", "ios": "https://dc.lft.to/lastmile_qr_scan"}, "type": "electric_scooter"}, {"is_reserved": 0, "is_disabled": 0, "fusion_lon": 0.0, "lat": 38.913146833333336, "name": "9296baed7dfe5498127b47da3c10d654", "bike_id": "9296baed7dfe5498127b47da3c10d654", "lon": -77.046705, "fusion_lat": 0.0, "rental_uris": {"android": "https://dc.lft.to/lastmile_qr_scan", "ios": "https://dc.lft.to/lastmile_qr_scan"}, "type": "electric_scooter"}, {"is_reserved": 0, "is_disabled": 0, "fusion_lon": 0.0, "lat": 38.900367833333334, "name": "8ddc5a76ce589449a1ceb17088ddee9e", "bike_id": "8ddc5a76ce589449a1ceb17088ddee9e", "lon": -76.9986115, "fusion_lat": 0.0, "rental_uris": {"android": "https://dc.lft.to/lastmile_qr_scan", "ios": "https://dc.lft.to/lastmile_qr_scan"}, "type": "electric_scooter"}, {"is_reserved": 0, "is_disabled": 0, "fusion_lon": 0.0, "lat": 38.92183766666667, "name": "c5ce76a94118ac20cf5109d67ebb3da5", "bike_id": "c5ce76a94118ac20cf5109d67ebb3da5", "lon": -77.04015466666667, "fusion_lat": 0.0, "rental_uris": {"android": "https://dc.lft.to/lastmile_qr_scan", "ios": "https://dc.lft.to/lastmile_qr_scan"}, "type": "electric_scooter"}, {"is_reserved": 0, "is_disabled": 0, "fusion_lon": 0.0, "lat": 38.910243333333334, "name": "76d25b778cc838365a934357a084a5b5", "bike_id": "76d25b778cc838365a934357a084a5b5", "lon": -77.02938983333334, "fusion_lat": 0.0, "rental_uris": {"android": "https://dc.lft.to/lastmile_qr_scan", "ios": "https://dc.lft.to/lastmile_qr_scan"}, "type": "electric_scooter"}, {"is_reserved": 0, "is_disabled": 0, "fusion_lon": 0.0, "lat": 38.92073833333333, "name": "ca66c85edf4d01472627325e45103ff1", "bike_id": "ca66c85edf4d01472627325e45103ff1", "lon": -77.04189283333334, "fusion_lat": 0.0, "rental_uris": {"android": "https://dc.lft.to/lastmile_qr_scan", "ios": "https://dc.lft.to/lastmile_qr_scan"}, "type": "electric_scooter"}, {"is_reserved": 0, "is_disabled": 0, "fusion_lon": 0.0, "lat": 38.92548266666667, "name": "0236a180a0c0686e704d905abf2133d5", "bike_id": "0236a180a0c0686e704d905abf2133d5", "lon": -77.03807133333333, "fusion_lat": 0.0, "rental_uris": {"android": "https://dc.lft.to/lastmile_qr_scan", "ios": "https://dc.lft.to/lastmile_qr_scan"}, "type": "electric_scooter"}, {"is_reserved": 0, "is_disabled": 0, "fusion_lon": 0.0, "lat": 38.91805883333333, "name": "7db4f1c109f74101d93164be8a0df149", "bike_id": "7db4f1c109f74101d93164be8a0df149", "lon": -77.03438083333333, "fusion_lat": 0.0, "rental_uris": {"android": "https://dc.lft.to/lastmile_qr_scan", "ios": "https://dc.lft.to/lastmile_qr_scan"}, "type": "electric_scooter"}, {"is_reserved": 0, "is_disabled": 0, "fusion_lon": 0.0, "lat": 38.91270566666667, "name": "3eb4c3c12910c1599e55f7e209d025de", "bike_id": "3eb4c3c12910c1599e55f7e209d025de", "lon": -77.03198666666667, "fusion_lat": 0.0, "rental_uris": {"android": "https://dc.lft.to/lastmile_qr_scan", "ios": "https://dc.lft.to/lastmile_qr_scan"}, "type": "electric_scooter"}, {"is_reserved": 0, "is_disabled": 0, "fusion_lon": 0.0, "lat": 38.92452083333333, "name": "6170875d6f397df0970a92301f5514b0", "bike_id": "6170875d6f397df0970a92301f5514b0", "lon": -77.040213, "fusion_lat": 0.0, "rental_uris": {"android": "https://dc.lft.to/lastmile_qr_scan", "ios": "https://dc.lft.to/lastmile_qr_scan"}, "type": "electric_scooter"}, {"is_reserved": 0, "is_disabled": 0, "fusion_lon": 0.0, "lat": 38.926899666666664, "name": "0718cbc78046235e21c051f87e976c80", "bike_id": "0718cbc78046235e21c051f87e976c80", "lon": -77.00768433333333, "fusion_lat": 0.0, "rental_uris": {"android": "https://dc.lft.to/lastmile_qr_scan", "ios": "https://dc.lft.to/lastmile_qr_scan"}, "type": "electric_scooter"}, {"is_reserved": 0, "is_disabled": 0, "fusion_lon": 0.0, "lat": 38.9132475, "name": "44c5e5fd97696c81681306f6434ad915", "bike_id": "44c5e5fd97696c81681306f6434ad915", "lon": -77.03207966666666, "fusion_lat": 0.0, "rental_uris": {"android": "https://dc.lft.to/lastmile_qr_scan", "ios": "https://dc.lft.to/lastmile_qr_scan"}, "type": "electric_scooter"}, {"is_reserved": 0, "is_disabled": 0, "fusion_lon": 0.0, "lat": 38.90366483333333, "name": "76ec273b12c2af8de40ec707ec5d180b", "bike_id": "76ec273b12c2af8de40ec707ec5d180b", "lon": -77.00730933333334, "fusion_lat": 0.0, "rental_uris": {"android": "https://dc.lft.to/lastmile_qr_scan", "ios": "https://dc.lft.to/lastmile_qr_scan"}, "type": "electric_scooter"}, {"is_reserved": 0, "is_disabled": 0, "fusion_lon": 0.0, "lat": 38.92761633333333, "name": "8a62346c518b2934daa2604973ba7d1b", "bike_id": "8a62346c518b2934daa2604973ba7d1b", "lon": -77.0320515, "fusion_lat": 0.0, "rental_uris": {"android": "https://dc.lft.to/lastmile_qr_scan", "ios": "https://dc.lft.to/lastmile_qr_scan"}, "type": "electric_scooter"}, {"is_reserved": 0, "is_disabled": 0, "fusion_lon": 0.0, "lat": 38.92897716666667, "name": "6d3bafd289b493f8d29c8a54720c1bd5", "bike_id": "6d3bafd289b493f8d29c8a54720c1bd5", "lon": -77.0325425, "fusion_lat": 0.0, "rental_uris": {"android": "https://dc.lft.to/lastmile_qr_scan", "ios": "https://dc.lft.to/lastmile_qr_scan"}, "type": "electric_scooter"}, {"is_reserved": 0, "is_disabled": 0, "fusion_lon": 0.0, "lat": 38.9178965, "name": "bb039b4f2e1018a6705748ef41ab7cd7", "bike_id": "bb039b4f2e1018a6705748ef41ab7cd7", "lon": -77.0424795, "fusion_lat": 0.0, "rental_uris": {"android": "https://dc.lft.to/lastmile_qr_scan", "ios": "https://dc.lft.to/lastmile_qr_scan"}, "type": "electric_scooter"}, {"is_reserved": 0, "is_disabled": 0, "fusion_lon": 0.0, "lat": 38.910515, "name": "8db61583778b3dc242a6e26f6711f8fb", "bike_id": "8db61583778b3dc242a6e26f6711f8fb", "lon": -77.02206216666667, "fusion_lat": 0.0, "rental_uris": {"android": "https://dc.lft.to/lastmile_qr_scan", "ios": "https://dc.lft.to/lastmile_qr_scan"}, "type": "electric_scooter"}, {"is_reserved": 0, "is_disabled": 0, "fusion_lon": 0.0, "lat": 38.910002666666664, "name": "ebbe3d85f4a7593095bc110ab712d370", "bike_id": "ebbe3d85f4a7593095bc110ab712d370", "lon": -77.03221383333333, "fusion_lat": 0.0, "rental_uris": {"android": "https://dc.lft.to/lastmile_qr_scan", "ios": "https://dc.lft.to/lastmile_qr_scan"}, "type": "electric_scooter"}, {"is_reserved": 0, "is_disabled": 0, "fusion_lon": 0.0, "lat": 38.9191935, "name": "bbe22180ab60c5c2ca3f53ea073187d7", "bike_id": "bbe22180ab60c5c2ca3f53ea073187d7", "lon": -77.03178233333334, "fusion_lat": 0.0, "rental_uris": {"android": "https://dc.lft.to/lastmile_qr_scan", "ios": "https://dc.lft.to/lastmile_qr_scan"}, "type": "electric_scooter"}, {"is_reserved": 0, "is_disabled": 0, "fusion_lon": 0.0, "lat": 38.9043385, "name": "a679ef8c3ff3bb61cc0e894eeb34aa5c", "bike_id": "a679ef8c3ff3bb61cc0e894eeb34aa5c", "lon": -77.051491, "fusion_lat": 0.0, "rental_uris": {"android": "https://dc.lft.to/lastmile_qr_scan", "ios": "https://dc.lft.to/lastmile_qr_scan"}, "type": "electric_scooter"}, {"is_reserved": 0, "is_disabled": 0, "fusion_lon": 0.0, "lat": 38.882698833333336, "name": "0d59f3e6b6f75d334a3f54ebec47f8b1", "bike_id": "0d59f3e6b6f75d334a3f54ebec47f8b1", "lon": -76.99016766666666, "fusion_lat": 0.0, "rental_uris": {"android": "https://dc.lft.to/lastmile_qr_scan", "ios": "https://dc.lft.to/lastmile_qr_scan"}, "type": "electric_scooter"}, {"is_reserved": 0, "is_disabled": 0, "fusion_lon": 0.0, "lat": 38.928577, "name": "9d6186c88658d01634f94efaad91df7c", "bike_id": "9d6186c88658d01634f94efaad91df7c", "lon": -77.05435016666667, "fusion_lat": 0.0, "rental_uris": {"android": "https://dc.lft.to/lastmile_qr_scan", "ios": "https://dc.lft.to/lastmile_qr_scan"}, "type": "electric_scooter"}, {"is_reserved": 0, "is_disabled": 0, "fusion_lon": 0.0, "lat": 38.890163333333334, "name": "a7292bc335f32ea01bee04c9577239ec", "bike_id": "a7292bc335f32ea01bee04c9577239ec", "lon": -76.937424, "fusion_lat": 0.0, "rental_uris": {"android": "https://dc.lft.to/lastmile_qr_scan", "ios": "https://dc.lft.to/lastmile_qr_scan"}, "type": "electric_scooter"}, {"is_reserved": 0, "is_disabled": 0, "fusion_lon": 0.0, "lat": 38.89234233333333, "name": "98dcb1d287a74d7f11329455256f063d", "bike_id": "98dcb1d287a74d7f11329455256f063d", "lon": -77.0319895, "fusion_lat": 0.0, "rental_uris": {"android": "https://dc.lft.to/lastmile_qr_scan", "ios": "https://dc.lft.to/lastmile_qr_scan"}, "type": "electric_scooter"}, {"is_reserved": 0, "is_disabled": 0, "fusion_lon": 0.0, "lat": 38.88454983333333, "name": "cb87f95ccbc578d796954b0f56b7b3db", "bike_id": "cb87f95ccbc578d796954b0f56b7b3db", "lon": -76.926209, "fusion_lat": 0.0, "rental_uris": {"android": "https://dc.lft.to/lastmile_qr_scan", "ios": "https://dc.lft.to/lastmile_qr_scan"}, "type": "electric_scooter"}, {"is_reserved": 0, "is_disabled": 0, "fusion_lon": 0.0, "lat": 38.849664, "name": "8b07a739ae99d1c72da14bc61ddfbd47", "bike_id": "8b07a739ae99d1c72da14bc61ddfbd47", "lon": -77.08925333333333, "fusion_lat": 0.0, "rental_uris": {"android": "https://dc.lft.to/lastmile_qr_scan", "ios": "https://dc.lft.to/lastmile_qr_scan"}, "type": "electric_bike"}, {"is_reserved": 0, "is_disabled": 0, "fusion_lon": 0.0, "lat": 38.904057, "name": "b42fa8fd4d5c869f3f9310f83cbdd8d9", "bike_id": "b42fa8fd4d5c869f3f9310f83cbdd8d9", "lon": -77.01871, "fusion_lat": 0.0, "rental_uris": {"android": "https://dc.lft.to/lastmile_qr_scan", "ios": "https://dc.lft.to/lastmile_qr_scan"}, "type": "electric_scooter"}, {"is_reserved": 0, "is_disabled": 0, "fusion_lon": 0.0, "lat": 38.91816083333333, "name": "dfd2ade7e7eb82d21fdb5054baf4161b", "bike_id": "dfd2ade7e7eb82d21fdb5054baf4161b", "lon": -77.02477016666667, "fusion_lat": 0.0, "rental_uris": {"android": "https://dc.lft.to/lastmile_qr_scan", "ios": "https://dc.lft.to/lastmile_qr_scan"}, "type": "electric_scooter"}, {"is_reserved": 0, "is_disabled": 0, "fusion_lon": 0.0, "lat": 38.9112545, "name": "73b1ba787f541ce30491924d7e21793e", "bike_id": "73b1ba787f541ce30491924d7e21793e", "lon": -77.02199666666667, "fusion_lat": 0.0, "rental_uris": {"android": "https://dc.lft.to/lastmile_qr_scan", "ios": "https://dc.lft.to/lastmile_qr_scan"}, "type": "electric_scooter"}, {"is_reserved": 0, "is_disabled": 0, "fusion_lon": 0.0, "lat": 38.92182366666667, "name": "9c9932b2f588c0222157f8690672fff1", "bike_id": "9c9932b2f588c0222157f8690672fff1", "lon": -77.0366355, "fusion_lat": 0.0, "rental_uris": {"android": "https://dc.lft.to/lastmile_qr_scan", "ios": "https://dc.lft.to/lastmile_qr_scan"}, "type": "electric_scooter"}, {"is_reserved": 0, "is_disabled": 0, "fusion_lon": 0.0, "lat": 38.90188966666667, "name": "840e5b7dbead9d83fd01aa31079f5c27", "bike_id": "840e5b7dbead9d83fd01aa31079f5c27", "lon": -77.0126685, "fusion_lat": 0.0, "rental_uris": {"android": "https://dc.lft.to/lastmile_qr_scan", "ios": "https://dc.lft.to/lastmile_qr_scan"}, "type": "electric_scooter"}, {"is_reserved": 0, "is_disabled": 0, "fusion_lon": 0.0, "lat": 38.9196045, "name": "dd67126a36690f57a3722da6572697fb", "bike_id": "dd67126a36690f57a3722da6572697fb", "lon": -77.014398, "fusion_lat": 0.0, "rental_uris": {"android": "https://dc.lft.to/lastmile_qr_scan", "ios": "https://dc.lft.to/lastmile_qr_scan"}, "type": "electric_scooter"}, {"is_reserved": 0, "is_disabled": 0, "fusion_lon": 0.0, "lat": 38.90167066666667, "name": "f5375916616b45e7862c8515efe0f37e", "bike_id": "f5375916616b45e7862c8515efe0f37e", "lon": -76.94981983333334, "fusion_lat": 0.0, "rental_uris": {"android": "https://dc.lft.to/lastmile_qr_scan", "ios": "https://dc.lft.to/lastmile_qr_scan"}, "type": "electric_scooter"}, {"is_reserved": 0, "is_disabled": 0, "fusion_lon": 0.0, "lat": 38.935898333333334, "name": "340f8f611e88a7f0a10991f5c1768928", "bike_id": "340f8f611e88a7f0a10991f5c1768928", "lon": -77.05845133333334, "fusion_lat": 0.0, "rental_uris": {"android": "https://dc.lft.to/lastmile_qr_scan", "ios": "https://dc.lft.to/lastmile_qr_scan"}, "type": "electric_scooter"}, {"is_reserved": 0, "is_disabled": 0, "fusion_lon": 0.0, "lat": 38.9265005, "name": "544572356cafc6b0fb68ed0e297a8d30", "bike_id": "544572356cafc6b0fb68ed0e297a8d30", "lon": -77.09023733333333, "fusion_lat": 0.0, "rental_uris": {"android": "https://dc.lft.to/lastmile_qr_scan", "ios": "https://dc.lft.to/lastmile_qr_scan"}, "type": "electric_bike"}, {"is_reserved": 0, "is_disabled": 0, "fusion_lon": 0.0, "lat": 38.9210915, "name": "b005b5fb715ad14621ce70b101469b33", "bike_id": "b005b5fb715ad14621ce70b101469b33", "lon": -77.043921, "fusion_lat": 0.0, "rental_uris": {"android": "https://dc.lft.to/lastmile_qr_scan", "ios": "https://dc.lft.to/lastmile_qr_scan"}, "type": "electric_scooter"}, {"is_reserved": 0, "is_disabled": 0, "fusion_lon": 0.0, "lat": 38.915498, "name": "1388ea5113aa9ab480ad7db50b1e921f", "bike_id": "1388ea5113aa9ab480ad7db50b1e921f", "lon": -77.03677516666667, "fusion_lat": 0.0, "rental_uris": {"android": "https://dc.lft.to/lastmile_qr_scan", "ios": "https://dc.lft.to/lastmile_qr_scan"}, "type": "electric_scooter"}, {"is_reserved": 0, "is_disabled": 0, "fusion_lon": 0.0, "lat": 38.90272916666667, "name": "050e8db87b3592934525419e0801898c", "bike_id": "050e8db87b3592934525419e0801898c", "lon": -77.06026766666666, "fusion_lat": 0.0, "rental_uris": {"android": "https://dc.lft.to/lastmile_qr_scan", "ios": "https://dc.lft.to/lastmile_qr_scan"}, "type": "electric_scooter"}, {"is_reserved": 0, "is_disabled": 0, "fusion_lon": 0.0, "lat": 38.949783, "name": "0618e25ca098a85ebfb06639fcbe376c", "bike_id": "0618e25ca098a85ebfb06639fcbe376c", "lon": -77.02433733333334, "fusion_lat": 0.0, "rental_uris": {"android": "https://dc.lft.to/lastmile_qr_scan", "ios": "https://dc.lft.to/lastmile_qr_scan"}, "type": "electric_scooter"}, {"is_reserved": 0, "is_disabled": 0, "fusion_lon": 0.0, "lat": 38.934496833333334, "name": "507ac10960be953703a2284ea93b2863", "bike_id": "507ac10960be953703a2284ea93b2863", "lon": -77.08967016666666, "fusion_lat": 0.0, "rental_uris": {"android": "https://dc.lft.to/lastmile_qr_scan", "ios": "https://dc.lft.to/lastmile_qr_scan"}, "type": "electric_scooter"}, {"is_reserved": 0, "is_disabled": 0, "fusion_lon": 0.0, "lat": 38.97323316666667, "name": "7287fd9c396150f3845fad719a136b9c", "bike_id": "7287fd9c396150f3845fad719a136b9c", "lon": -77.02685416666667, "fusion_lat": 0.0, "rental_uris": {"android": "https://dc.lft.to/lastmile_qr_scan", "ios": "https://dc.lft.to/lastmile_qr_scan"}, "type": "electric_scooter"}, {"is_reserved": 0, "is_disabled": 0, "fusion_lon": 0.0, "lat": 38.92409116666666, "name": "43c5a6e308004c8fdcb903dd6a21f876", "bike_id": "43c5a6e308004c8fdcb903dd6a21f876", "lon": -77.02716266666667, "fusion_lat": 0.0, "rental_uris": {"android": "https://dc.lft.to/lastmile_qr_scan", "ios": "https://dc.lft.to/lastmile_qr_scan"}, "type": "electric_scooter"}, {"is_reserved": 0, "is_disabled": 0, "fusion_lon": 0.0, "lat": 38.92690833333333, "name": "d58cac01aa403deff5b85f69e86bc6c1", "bike_id": "d58cac01aa403deff5b85f69e86bc6c1", "lon": -77.0151085, "fusion_lat": 0.0, "rental_uris": {"android": "https://dc.lft.to/lastmile_qr_scan", "ios": "https://dc.lft.to/lastmile_qr_scan"}, "type": "electric_scooter"}, {"is_reserved": 0, "is_disabled": 0, "fusion_lon": 0.0, "lat": 38.9244665, "name": "5faaa300f5e3b1a990206b16fe9539bb", "bike_id": "5faaa300f5e3b1a990206b16fe9539bb", "lon": -77.02139783333334, "fusion_lat": 0.0, "rental_uris": {"android": "https://dc.lft.to/lastmile_qr_scan", "ios": "https://dc.lft.to/lastmile_qr_scan"}, "type": "electric_scooter"}, {"is_reserved": 0, "is_disabled": 0, "fusion_lon": 0.0, "lat": 38.879795, "name": "46c158126baae1b7bd3ab50b5de62a7f", "bike_id": "46c158126baae1b7bd3ab50b5de62a7f", "lon": -77.02428166666667, "fusion_lat": 0.0, "rental_uris": {"android": "https://dc.lft.to/lastmile_qr_scan", "ios": "https://dc.lft.to/lastmile_qr_scan"}, "type": "electric_scooter"}, {"is_reserved": 0, "is_disabled": 0, "fusion_lon": 0.0, "lat": 38.9212075, "name": "aa82e795821ea722e43108de3478dc20", "bike_id": "aa82e795821ea722e43108de3478dc20", "lon": -77.02067933333333, "fusion_lat": 0.0, "rental_uris": {"android": "https://dc.lft.to/lastmile_qr_scan", "ios": "https://dc.lft.to/lastmile_qr_scan"}, "type": "electric_scooter"}, {"is_reserved": 0, "is_disabled": 0, "fusion_lon": 0.0, "lat": 38.92463983333333, "name": "d7c8205cb1923f3f31a6a98592f98aed", "bike_id": "d7c8205cb1923f3f31a6a98592f98aed", "lon": -77.041966, "fusion_lat": 0.0, "rental_uris": {"android": "https://dc.lft.to/lastmile_qr_scan", "ios": "https://dc.lft.to/lastmile_qr_scan"}, "type": "electric_scooter"}, {"is_reserved": 0, "is_disabled": 0, "fusion_lon": 0.0, "lat": 38.90584166666667, "name": "8ccb57068c59bad21acee6e24d0187d9", "bike_id": "8ccb57068c59bad21acee6e24d0187d9", "lon": -77.03422766666667, "fusion_lat": 0.0, "rental_uris": {"android": "https://dc.lft.to/lastmile_qr_scan", "ios": "https://dc.lft.to/lastmile_qr_scan"}, "type": "electric_scooter"}, {"is_reserved": 0, "is_disabled": 0, "fusion_lon": 0.0, "lat": 38.92027183333333, "name": "0778d32474682df1a882efa6cc514b13", "bike_id": "0778d32474682df1a882efa6cc514b13", "lon": -77.01814783333333, "fusion_lat": 0.0, "rental_uris": {"android": "https://dc.lft.to/lastmile_qr_scan", "ios": "https://dc.lft.to/lastmile_qr_scan"}, "type": "electric_scooter"}, {"is_reserved": 0, "is_disabled": 0, "fusion_lon": 0.0, "lat": 38.910582166666664, "name": "b6751cb46da64f3c231477801438e209", "bike_id": "b6751cb46da64f3c231477801438e209", "lon": -77.04240333333334, "fusion_lat": 0.0, "rental_uris": {"android": "https://dc.lft.to/lastmile_qr_scan", "ios": "https://dc.lft.to/lastmile_qr_scan"}, "type": "electric_scooter"}, {"is_reserved": 0, "is_disabled": 0, "fusion_lon": 0.0, "lat": 38.936476666666664, "name": "f3b70d012a201624e0c368c12f67dd5b", "bike_id": "f3b70d012a201624e0c368c12f67dd5b", "lon": -77.02456466666666, "fusion_lat": 0.0, "rental_uris": {"android": "https://dc.lft.to/lastmile_qr_scan", "ios": "https://dc.lft.to/lastmile_qr_scan"}, "type": "electric_scooter"}, {"is_reserved": 0, "is_disabled": 0, "fusion_lon": 0.0, "lat": 38.89972066666667, "name": "24a6e9cc99f973dd26d4be7618748694", "bike_id": "24a6e9cc99f973dd26d4be7618748694", "lon": -77.0557515, "fusion_lat": 0.0, "rental_uris": {"android": "https://dc.lft.to/lastmile_qr_scan", "ios": "https://dc.lft.to/lastmile_qr_scan"}, "type": "electric_scooter"}, {"is_reserved": 0, "is_disabled": 0, "fusion_lon": 0.0, "lat": 38.90636833333333, "name": "234937943589d25806fd13a089f57863", "bike_id": "234937943589d25806fd13a089f57863", "lon": -77.016922, "fusion_lat": 0.0, "rental_uris": {"android": "https://dc.lft.to/lastmile_qr_scan", "ios": "https://dc.lft.to/lastmile_qr_scan"}, "type": "electric_scooter"}, {"is_reserved": 0, "is_disabled": 0, "fusion_lon": 0.0, "lat": 38.97337983333333, "name": "3160011ea357b0577c0874ff2bea1422", "bike_id": "3160011ea357b0577c0874ff2bea1422", "lon": -76.99581216666667, "fusion_lat": 0.0, "rental_uris": {"android": "https://dc.lft.to/lastmile_qr_scan", "ios": "https://dc.lft.to/lastmile_qr_scan"}, "type": "electric_bike"}, {"is_reserved": 0, "is_disabled": 0, "fusion_lon": 0.0, "lat": 38.921256666666665, "name": "cab680010619dd2b8db22ee140b1c6ee", "bike_id": "cab680010619dd2b8db22ee140b1c6ee", "lon": -77.02067783333334, "fusion_lat": 0.0, "rental_uris": {"android": "https://dc.lft.to/lastmile_qr_scan", "ios": "https://dc.lft.to/lastmile_qr_scan"}, "type": "electric_scooter"}, {"is_reserved": 0, "is_disabled": 0, "fusion_lon": 0.0, "lat": 39.0423345, "name": "e4044ab8dded8b416bc660849dd7b25e", "bike_id": "e4044ab8dded8b416bc660849dd7b25e", "lon": -76.99731833333334, "fusion_lat": 0.0, "rental_uris": {"android": "https://dc.lft.to/lastmile_qr_scan", "ios": "https://dc.lft.to/lastmile_qr_scan"}, "type": "electric_bike"}, {"is_reserved": 0, "is_disabled": 0, "fusion_lon": 0.0, "lat": 38.9026145, "name": "25661b109bfef687af8ea3908a98a80d", "bike_id": "25661b109bfef687af8ea3908a98a80d", "lon": -77.06446416666667, "fusion_lat": 0.0, "rental_uris": {"android": "https://dc.lft.to/lastmile_qr_scan", "ios": "https://dc.lft.to/lastmile_qr_scan"}, "type": "electric_scooter"}, {"is_reserved": 0, "is_disabled": 0, "fusion_lon": 0.0, "lat": 38.905043, "name": "4c67317870267cb877e0c33cde01c148", "bike_id": "4c67317870267cb877e0c33cde01c148", "lon": -77.0547665, "fusion_lat": 0.0, "rental_uris": {"android": "https://dc.lft.to/lastmile_qr_scan", "ios": "https://dc.lft.to/lastmile_qr_scan"}, "type": "electric_scooter"}, {"is_reserved": 0, "is_disabled": 0, "fusion_lon": 0.0, "lat": 38.920544, "name": "5a8a13c92c29f6fa37db67b81f5a79a1", "bike_id": "5a8a13c92c29f6fa37db67b81f5a79a1", "lon": -76.98435066666667, "fusion_lat": 0.0, "rental_uris": {"android": "https://dc.lft.to/lastmile_qr_scan", "ios": "https://dc.lft.to/lastmile_qr_scan"}, "type": "electric_scooter"}, {"is_reserved": 0, "is_disabled": 0, "fusion_lon": 0.0, "lat": 38.92404233333333, "name": "bab5bc583f746a290023158eb3e6957b", "bike_id": "bab5bc583f746a290023158eb3e6957b", "lon": -77.0203405, "fusion_lat": 0.0, "rental_uris": {"android": "https://dc.lft.to/lastmile_qr_scan", "ios": "https://dc.lft.to/lastmile_qr_scan"}, "type": "electric_scooter"}, {"is_reserved": 0, "is_disabled": 0, "fusion_lon": 0.0, "lat": 38.85879216666667, "name": "89f1d68f074303517724d31ac4cd4ebf", "bike_id": "89f1d68f074303517724d31ac4cd4ebf", "lon": -76.98941383333333, "fusion_lat": 0.0, "rental_uris": {"android": "https://dc.lft.to/lastmile_qr_scan", "ios": "https://dc.lft.to/lastmile_qr_scan"}, "type": "electric_scooter"}, {"is_reserved": 0, "is_disabled": 0, "fusion_lon": 0.0, "lat": 38.935294999999996, "name": "4410e2ec56c773cb67ced3f435008feb", "bike_id": "4410e2ec56c773cb67ced3f435008feb", "lon": -77.0235075, "fusion_lat": 0.0, "rental_uris": {"android": "https://dc.lft.to/lastmile_qr_scan", "ios": "https://dc.lft.to/lastmile_qr_scan"}, "type": "electric_scooter"}, {"is_reserved": 0, "is_disabled": 0, "fusion_lon": 0.0, "lat": 38.919439833333335, "name": "7f658ff6a940474959ea21b3fc96b045", "bike_id": "7f658ff6a940474959ea21b3fc96b045", "lon": -77.01792833333333, "fusion_lat": 0.0, "rental_uris": {"android": "https://dc.lft.to/lastmile_qr_scan", "ios": "https://dc.lft.to/lastmile_qr_scan"}, "type": "electric_scooter"}, {"is_reserved": 0, "is_disabled": 0, "fusion_lon": 0.0, "lat": 38.929629166666665, "name": "31b0b732b2a8e0024929a594aa27743e", "bike_id": "31b0b732b2a8e0024929a594aa27743e", "lon": -77.04112316666667, "fusion_lat": 0.0, "rental_uris": {"android": "https://dc.lft.to/lastmile_qr_scan", "ios": "https://dc.lft.to/lastmile_qr_scan"}, "type": "electric_scooter"}, {"is_reserved": 0, "is_disabled": 0, "fusion_lon": 0.0, "lat": 38.91345533333333, "name": "5b49fc81856a00088744370650998270", "bike_id": "5b49fc81856a00088744370650998270", "lon": -77.020487, "fusion_lat": 0.0, "rental_uris": {"android": "https://dc.lft.to/lastmile_qr_scan", "ios": "https://dc.lft.to/lastmile_qr_scan"}, "type": "electric_scooter"}, {"is_reserved": 0, "is_disabled": 0, "fusion_lon": 0.0, "lat": 38.913259333333336, "name": "82778a48269446b5037236d4ca03268a", "bike_id": "82778a48269446b5037236d4ca03268a", "lon": -77.045454, "fusion_lat": 0.0, "rental_uris": {"android": "https://dc.lft.to/lastmile_qr_scan", "ios": "https://dc.lft.to/lastmile_qr_scan"}, "type": "electric_scooter"}, {"is_reserved": 0, "is_disabled": 0, "fusion_lon": 0.0, "lat": 38.90545183333333, "name": "065cb3163a633f384aed33ce543e5f74", "bike_id": "065cb3163a633f384aed33ce543e5f74", "lon": -77.0061785, "fusion_lat": 0.0, "rental_uris": {"android": "https://dc.lft.to/lastmile_qr_scan", "ios": "https://dc.lft.to/lastmile_qr_scan"}, "type": "electric_scooter"}, {"is_reserved": 0, "is_disabled": 0, "fusion_lon": 0.0, "lat": 38.897431166666664, "name": "664fa9725c39413defd790d19acfebfd", "bike_id": "664fa9725c39413defd790d19acfebfd", "lon": -77.00076566666667, "fusion_lat": 0.0, "rental_uris": {"android": "https://dc.lft.to/lastmile_qr_scan", "ios": "https://dc.lft.to/lastmile_qr_scan"}, "type": "electric_scooter"}, {"is_reserved": 0, "is_disabled": 0, "fusion_lon": 0.0, "lat": 38.938598166666665, "name": "d164eac2ed9940fdf4e70ecb05b149c7", "bike_id": "d164eac2ed9940fdf4e70ecb05b149c7", "lon": -76.99436633333333, "fusion_lat": 0.0, "rental_uris": {"android": "https://dc.lft.to/lastmile_qr_scan", "ios": "https://dc.lft.to/lastmile_qr_scan"}, "type": "electric_scooter"}, {"is_reserved": 0, "is_disabled": 0, "fusion_lon": 0.0, "lat": 38.909627666666665, "name": "0aa7de8dd853f72093ab1b4c17cf5926", "bike_id": "0aa7de8dd853f72093ab1b4c17cf5926", "lon": -77.047399, "fusion_lat": 0.0, "rental_uris": {"android": "https://dc.lft.to/lastmile_qr_scan", "ios": "https://dc.lft.to/lastmile_qr_scan"}, "type": "electric_scooter"}, {"is_reserved": 0, "is_disabled": 0, "fusion_lon": 0.0, "lat": 38.916125666666666, "name": "a0cd2a1900b73d66d666f12601ecb43c", "bike_id": "a0cd2a1900b73d66d666f12601ecb43c", "lon": -77.0486425, "fusion_lat": 0.0, "rental_uris": {"android": "https://dc.lft.to/lastmile_qr_scan", "ios": "https://dc.lft.to/lastmile_qr_scan"}, "type": "electric_scooter"}, {"is_reserved": 0, "is_disabled": 0, "fusion_lon": 0.0, "lat": 38.89958516666667, "name": "6e344f3a636443b503545e4f98c25bac", "bike_id": "6e344f3a636443b503545e4f98c25bac", "lon": -77.04508616666666, "fusion_lat": 0.0, "rental_uris": {"android": "https://dc.lft.to/lastmile_qr_scan", "ios": "https://dc.lft.to/lastmile_qr_scan"}, "type": "electric_scooter"}, {"is_reserved": 0, "is_disabled": 0, "fusion_lon": 0.0, "lat": 38.891275, "name": "34d48fcdf61458f071dc8593aa96856b", "bike_id": "34d48fcdf61458f071dc8593aa96856b", "lon": -76.94060816666666, "fusion_lat": 0.0, "rental_uris": {"android": "https://dc.lft.to/lastmile_qr_scan", "ios": "https://dc.lft.to/lastmile_qr_scan"}, "type": "electric_bike"}, {"is_reserved": 0, "is_disabled": 0, "fusion_lon": 0.0, "lat": 38.907249666666665, "name": "6f87a15d7adddc3cd70468c9ac240827", "bike_id": "6f87a15d7adddc3cd70468c9ac240827", "lon": -77.0232435, "fusion_lat": 0.0, "rental_uris": {"android": "https://dc.lft.to/lastmile_qr_scan", "ios": "https://dc.lft.to/lastmile_qr_scan"}, "type": "electric_scooter"}, {"is_reserved": 0, "is_disabled": 0, "fusion_lon": 0.0, "lat": 38.92121783333333, "name": "c1f8a48269a2db87403b42211acb7a89", "bike_id": "c1f8a48269a2db87403b42211acb7a89", "lon": -77.03658983333334, "fusion_lat": 0.0, "rental_uris": {"android": "https://dc.lft.to/lastmile_qr_scan", "ios": "https://dc.lft.to/lastmile_qr_scan"}, "type": "electric_scooter"}, {"is_reserved": 0, "is_disabled": 0, "fusion_lon": 0.0, "lat": 38.93196866666667, "name": "083f2414b52977dead48ac3cae6a5afd", "bike_id": "083f2414b52977dead48ac3cae6a5afd", "lon": -77.03752083333333, "fusion_lat": 0.0, "rental_uris": {"android": "https://dc.lft.to/lastmile_qr_scan", "ios": "https://dc.lft.to/lastmile_qr_scan"}, "type": "electric_scooter"}, {"is_reserved": 0, "is_disabled": 0, "fusion_lon": 0.0, "lat": 38.923281, "name": "1b6f1ca9553916a2705e9c754807898a", "bike_id": "1b6f1ca9553916a2705e9c754807898a", "lon": -77.0568155, "fusion_lat": 0.0, "rental_uris": {"android": "https://dc.lft.to/lastmile_qr_scan", "ios": "https://dc.lft.to/lastmile_qr_scan"}, "type": "electric_scooter"}, {"is_reserved": 0, "is_disabled": 0, "fusion_lon": 0.0, "lat": 38.913613, "name": "42b7f875f955435351175c12800d202a", "bike_id": "42b7f875f955435351175c12800d202a", "lon": -77.03345716666666, "fusion_lat": 0.0, "rental_uris": {"android": "https://dc.lft.to/lastmile_qr_scan", "ios": "https://dc.lft.to/lastmile_qr_scan"}, "type": "electric_scooter"}, {"is_reserved": 0, "is_disabled": 0, "fusion_lon": 0.0, "lat": 38.905318666666666, "name": "e1dbcac208a339a3e56f1a8934a8142c", "bike_id": "e1dbcac208a339a3e56f1a8934a8142c", "lon": -77.00912283333334, "fusion_lat": 0.0, "rental_uris": {"android": "https://dc.lft.to/lastmile_qr_scan", "ios": "https://dc.lft.to/lastmile_qr_scan"}, "type": "electric_scooter"}, {"is_reserved": 0, "is_disabled": 0, "fusion_lon": 0.0, "lat": 38.903888333333335, "name": "99f33dbb8267b7046d934b7ed6a67c72", "bike_id": "99f33dbb8267b7046d934b7ed6a67c72", "lon": -77.040398, "fusion_lat": 0.0, "rental_uris": {"android": "https://dc.lft.to/lastmile_qr_scan", "ios": "https://dc.lft.to/lastmile_qr_scan"}, "type": "electric_scooter"}, {"is_reserved": 0, "is_disabled": 0, "fusion_lon": 0.0, "lat": 38.929026, "name": "2646a461477e4fa18c1702fd1cc997ac", "bike_id": "2646a461477e4fa18c1702fd1cc997ac", "lon": -77.03261483333333, "fusion_lat": 0.0, "rental_uris": {"android": "https://dc.lft.to/lastmile_qr_scan", "ios": "https://dc.lft.to/lastmile_qr_scan"}, "type": "electric_scooter"}, {"is_reserved": 0, "is_disabled": 0, "fusion_lon": 0.0, "lat": 38.922423333333334, "name": "b40797f4fa085b9bda39fa72ed536b59", "bike_id": "b40797f4fa085b9bda39fa72ed536b59", "lon": -77.022581, "fusion_lat": 0.0, "rental_uris": {"android": "https://dc.lft.to/lastmile_qr_scan", "ios": "https://dc.lft.to/lastmile_qr_scan"}, "type": "electric_scooter"}, {"is_reserved": 0, "is_disabled": 0, "fusion_lon": 0.0, "lat": 38.91753116666667, "name": "24e905a2723bb183aded2beab33a9d27", "bike_id": "24e905a2723bb183aded2beab33a9d27", "lon": -77.02498183333333, "fusion_lat": 0.0, "rental_uris": {"android": "https://dc.lft.to/lastmile_qr_scan", "ios": "https://dc.lft.to/lastmile_qr_scan"}, "type": "electric_scooter"}, {"is_reserved": 0, "is_disabled": 0, "fusion_lon": 0.0, "lat": 38.911042333333334, "name": "26b95a6758819a06a667675eb3ce08da", "bike_id": "26b95a6758819a06a667675eb3ce08da", "lon": -76.9970825, "fusion_lat": 0.0, "rental_uris": {"android": "https://dc.lft.to/lastmile_qr_scan", "ios": "https://dc.lft.to/lastmile_qr_scan"}, "type": "electric_scooter"}, {"is_reserved": 0, "is_disabled": 0, "fusion_lon": 0.0, "lat": 38.895651666666666, "name": "8ad2db11cbd2a8d53eaadbed6f357f98", "bike_id": "8ad2db11cbd2a8d53eaadbed6f357f98", "lon": -76.99409833333333, "fusion_lat": 0.0, "rental_uris": {"android": "https://dc.lft.to/lastmile_qr_scan", "ios": "https://dc.lft.to/lastmile_qr_scan"}, "type": "electric_scooter"}, {"is_reserved": 0, "is_disabled": 0, "fusion_lon": 0.0, "lat": 38.91628816666667, "name": "73c91c8fe8cb9750f8b03293de65e02b", "bike_id": "73c91c8fe8cb9750f8b03293de65e02b", "lon": -77.04626266666666, "fusion_lat": 0.0, "rental_uris": {"android": "https://dc.lft.to/lastmile_qr_scan", "ios": "https://dc.lft.to/lastmile_qr_scan"}, "type": "electric_scooter"}, {"is_reserved": 0, "is_disabled": 0, "fusion_lon": 0.0, "lat": 38.89482433333333, "name": "2d79a5776011e0e4666ab6e6bfae3fab", "bike_id": "2d79a5776011e0e4666ab6e6bfae3fab", "lon": -77.02020316666666, "fusion_lat": 0.0, "rental_uris": {"android": "https://dc.lft.to/lastmile_qr_scan", "ios": "https://dc.lft.to/lastmile_qr_scan"}, "type": "electric_scooter"}, {"is_reserved": 0, "is_disabled": 0, "fusion_lon": 0.0, "lat": 38.8887745, "name": "ee47573069b506c565d3ecc52021fa7e", "bike_id": "ee47573069b506c565d3ecc52021fa7e", "lon": -76.986755, "fusion_lat": 0.0, "rental_uris": {"android": "https://dc.lft.to/lastmile_qr_scan", "ios": "https://dc.lft.to/lastmile_qr_scan"}, "type": "electric_scooter"}, {"is_reserved": 0, "is_disabled": 0, "fusion_lon": 0.0, "lat": 38.9331045, "name": "2e870477880267cafbf2daf02c6171b7", "bike_id": "2e870477880267cafbf2daf02c6171b7", "lon": -77.03090633333333, "fusion_lat": 0.0, "rental_uris": {"android": "https://dc.lft.to/lastmile_qr_scan", "ios": "https://dc.lft.to/lastmile_qr_scan"}, "type": "electric_scooter"}, {"is_reserved": 0, "is_disabled": 0, "fusion_lon": 0.0, "lat": 38.9027275, "name": "d8abe72d318696111136f269cf45e40b", "bike_id": "d8abe72d318696111136f269cf45e40b", "lon": -77.06016716666667, "fusion_lat": 0.0, "rental_uris": {"android": "https://dc.lft.to/lastmile_qr_scan", "ios": "https://dc.lft.to/lastmile_qr_scan"}, "type": "electric_scooter"}, {"is_reserved": 0, "is_disabled": 0, "fusion_lon": 0.0, "lat": 38.90718416666667, "name": "8963b172e8bf8abb23a8eefd28e05249", "bike_id": "8963b172e8bf8abb23a8eefd28e05249", "lon": -77.03213366666667, "fusion_lat": 0.0, "rental_uris": {"android": "https://dc.lft.to/lastmile_qr_scan", "ios": "https://dc.lft.to/lastmile_qr_scan"}, "type": "electric_scooter"}, {"is_reserved": 0, "is_disabled": 0, "fusion_lon": 0.0, "lat": 38.92466066666667, "name": "4d1a4558610f21431959cc0f5f718c2a", "bike_id": "4d1a4558610f21431959cc0f5f718c2a", "lon": -77.02713816666666, "fusion_lat": 0.0, "rental_uris": {"android": "https://dc.lft.to/lastmile_qr_scan", "ios": "https://dc.lft.to/lastmile_qr_scan"}, "type": "electric_scooter"}, {"is_reserved": 0, "is_disabled": 0, "fusion_lon": 0.0, "lat": 38.9359025, "name": "5486aca02de691ec88167cd02bfe2f5c", "bike_id": "5486aca02de691ec88167cd02bfe2f5c", "lon": -77.05847866666667, "fusion_lat": 0.0, "rental_uris": {"android": "https://dc.lft.to/lastmile_qr_scan", "ios": "https://dc.lft.to/lastmile_qr_scan"}, "type": "electric_scooter"}, {"is_reserved": 0, "is_disabled": 0, "fusion_lon": 0.0, "lat": 38.88790433333333, "name": "03df94dbda2e2e537627cb644badd861", "bike_id": "03df94dbda2e2e537627cb644badd861", "lon": -77.01596166666667, "fusion_lat": 0.0, "rental_uris": {"android": "https://dc.lft.to/lastmile_qr_scan", "ios": "https://dc.lft.to/lastmile_qr_scan"}, "type": "electric_scooter"}, {"is_reserved": 0, "is_disabled": 0, "fusion_lon": 0.0, "lat": 38.9535515, "name": "9a5d02b0d79aaff7057f278a5270983f", "bike_id": "9a5d02b0d79aaff7057f278a5270983f", "lon": -76.98093516666667, "fusion_lat": 0.0, "rental_uris": {"android": "https://dc.lft.to/lastmile_qr_scan", "ios": "https://dc.lft.to/lastmile_qr_scan"}, "type": "electric_bike"}, {"is_reserved": 0, "is_disabled": 0, "fusion_lon": 0.0, "lat": 38.89852116666667, "name": "bdf43bca8efb8f331cb33a713f2aa4c1", "bike_id": "bdf43bca8efb8f331cb33a713f2aa4c1", "lon": -76.93188166666667, "fusion_lat": 0.0, "rental_uris": {"android": "https://dc.lft.to/lastmile_qr_scan", "ios": "https://dc.lft.to/lastmile_qr_scan"}, "type": "electric_bike"}, {"is_reserved": 0, "is_disabled": 0, "fusion_lon": 0.0, "lat": 38.923085, "name": "396ada5e4a935ee8596f7f9360287664", "bike_id": "396ada5e4a935ee8596f7f9360287664", "lon": -77.031102, "fusion_lat": 0.0, "rental_uris": {"android": "https://dc.lft.to/lastmile_qr_scan", "ios": "https://dc.lft.to/lastmile_qr_scan"}, "type": "electric_scooter"}, {"is_reserved": 0, "is_disabled": 0, "fusion_lon": 0.0, "lat": 38.923328833333336, "name": "931c870fd2d3ecac50607540b55d7703", "bike_id": "931c870fd2d3ecac50607540b55d7703", "lon": -77.05675866666667, "fusion_lat": 0.0, "rental_uris": {"android": "https://dc.lft.to/lastmile_qr_scan", "ios": "https://dc.lft.to/lastmile_qr_scan"}, "type": "electric_scooter"}, {"is_reserved": 0, "is_disabled": 0, "fusion_lon": 0.0, "lat": 38.875741166666664, "name": "5e0d9e9f990cc2636c56bf1d74b3ebc5", "bike_id": "5e0d9e9f990cc2636c56bf1d74b3ebc5", "lon": -77.00578916666667, "fusion_lat": 0.0, "rental_uris": {"android": "https://dc.lft.to/lastmile_qr_scan", "ios": "https://dc.lft.to/lastmile_qr_scan"}, "type": "electric_scooter"}, {"is_reserved": 0, "is_disabled": 0, "fusion_lon": 0.0, "lat": 38.89609, "name": "449130fe4e65d6016f9f7a604e152830", "bike_id": "449130fe4e65d6016f9f7a604e152830", "lon": -77.04651733333333, "fusion_lat": 0.0, "rental_uris": {"android": "https://dc.lft.to/lastmile_qr_scan", "ios": "https://dc.lft.to/lastmile_qr_scan"}, "type": "electric_scooter"}, {"is_reserved": 0, "is_disabled": 0, "fusion_lon": 0.0, "lat": 38.9092635, "name": "99e63e74875d0922852525d0ee3a9b9f", "bike_id": "99e63e74875d0922852525d0ee3a9b9f", "lon": -76.9847, "fusion_lat": 0.0, "rental_uris": {"android": "https://dc.lft.to/lastmile_qr_scan", "ios": "https://dc.lft.to/lastmile_qr_scan"}, "type": "electric_scooter"}, {"is_reserved": 0, "is_disabled": 0, "fusion_lon": 0.0, "lat": 38.90664733333333, "name": "a6367006d0e4c241284f926390e9ab00", "bike_id": "a6367006d0e4c241284f926390e9ab00", "lon": -77.02718883333333, "fusion_lat": 0.0, "rental_uris": {"android": "https://dc.lft.to/lastmile_qr_scan", "ios": "https://dc.lft.to/lastmile_qr_scan"}, "type": "electric_scooter"}, {"is_reserved": 0, "is_disabled": 0, "fusion_lon": 0.0, "lat": 38.85244516666667, "name": "bd80260abfbdce01ef377c82587ff444", "bike_id": "bd80260abfbdce01ef377c82587ff444", "lon": -77.11428366666667, "fusion_lat": 0.0, "rental_uris": {"android": "https://dc.lft.to/lastmile_qr_scan", "ios": "https://dc.lft.to/lastmile_qr_scan"}, "type": "electric_bike"}, {"is_reserved": 0, "is_disabled": 0, "fusion_lon": 0.0, "lat": 38.91722433333333, "name": "ee5aaa398c1547accb132ddd86f4f203", "bike_id": "ee5aaa398c1547accb132ddd86f4f203", "lon": -77.0269795, "fusion_lat": 0.0, "rental_uris": {"android": "https://dc.lft.to/lastmile_qr_scan", "ios": "https://dc.lft.to/lastmile_qr_scan"}, "type": "electric_scooter"}, {"is_reserved": 0, "is_disabled": 0, "fusion_lon": 0.0, "lat": 38.988364833333335, "name": "f4ba6f766df4bba0df479747073d1931", "bike_id": "f4ba6f766df4bba0df479747073d1931", "lon": -77.02653283333333, "fusion_lat": 0.0, "rental_uris": {"android": "https://dc.lft.to/lastmile_qr_scan", "ios": "https://dc.lft.to/lastmile_qr_scan"}, "type": "electric_bike"}, {"is_reserved": 0, "is_disabled": 0, "fusion_lon": 0.0, "lat": 38.92170083333333, "name": "bdf489d9d2c69dd4f653e814a87b35ec", "bike_id": "bdf489d9d2c69dd4f653e814a87b35ec", "lon": -77.03327916666667, "fusion_lat": 0.0, "rental_uris": {"android": "https://dc.lft.to/lastmile_qr_scan", "ios": "https://dc.lft.to/lastmile_qr_scan"}, "type": "electric_scooter"}, {"is_reserved": 0, "is_disabled": 0, "fusion_lon": 0.0, "lat": 38.897389833333335, "name": "2382e273217d1b93573e483acc4e29dd", "bike_id": "2382e273217d1b93573e483acc4e29dd", "lon": -77.01902, "fusion_lat": 0.0, "rental_uris": {"android": "https://dc.lft.to/lastmile_qr_scan", "ios": "https://dc.lft.to/lastmile_qr_scan"}, "type": "electric_scooter"}, {"is_reserved": 0, "is_disabled": 0, "fusion_lon": 0.0, "lat": 38.914110666666666, "name": "d30d7f98e2ae59b5afb537f129c56850", "bike_id": "d30d7f98e2ae59b5afb537f129c56850", "lon": -77.03167783333333, "fusion_lat": 0.0, "rental_uris": {"android": "https://dc.lft.to/lastmile_qr_scan", "ios": "https://dc.lft.to/lastmile_qr_scan"}, "type": "electric_scooter"}, {"is_reserved": 0, "is_disabled": 0, "fusion_lon": 0.0, "lat": 38.886249666666664, "name": "61ae39c5cdea384d43440cc77e4117b2", "bike_id": "61ae39c5cdea384d43440cc77e4117b2", "lon": -77.03178316666667, "fusion_lat": 0.0, "rental_uris": {"android": "https://dc.lft.to/lastmile_qr_scan", "ios": "https://dc.lft.to/lastmile_qr_scan"}, "type": "electric_scooter"}, {"is_reserved": 0, "is_disabled": 0, "fusion_lon": 0.0, "lat": 38.897594, "name": "a3fa0bf1efa064e55f637f792fa951a0", "bike_id": "a3fa0bf1efa064e55f637f792fa951a0", "lon": -77.02708966666667, "fusion_lat": 0.0, "rental_uris": {"android": "https://dc.lft.to/lastmile_qr_scan", "ios": "https://dc.lft.to/lastmile_qr_scan"}, "type": "electric_scooter"}, {"is_reserved": 0, "is_disabled": 0, "fusion_lon": 0.0, "lat": 38.92280816666667, "name": "d9033edc80fb8d1b6b3574bec93c5003", "bike_id": "d9033edc80fb8d1b6b3574bec93c5003", "lon": -77.02973833333333, "fusion_lat": 0.0, "rental_uris": {"android": "https://dc.lft.to/lastmile_qr_scan", "ios": "https://dc.lft.to/lastmile_qr_scan"}, "type": "electric_scooter"}, {"is_reserved": 0, "is_disabled": 0, "fusion_lon": 0.0, "lat": 38.7830995, "name": "5400bf9442f2e631fdfb3ce2e8a3b2f2", "bike_id": "5400bf9442f2e631fdfb3ce2e8a3b2f2", "lon": -77.114149, "fusion_lat": 0.0, "rental_uris": {"android": "https://dc.lft.to/lastmile_qr_scan", "ios": "https://dc.lft.to/lastmile_qr_scan"}, "type": "electric_bike"}, {"is_reserved": 0, "is_disabled": 0, "fusion_lon": 0.0, "lat": 38.944832166666664, "name": "735dffbe02557467766b85724d65edac", "bike_id": "735dffbe02557467766b85724d65edac", "lon": -77.0639755, "fusion_lat": 0.0, "rental_uris": {"android": "https://dc.lft.to/lastmile_qr_scan", "ios": "https://dc.lft.to/lastmile_qr_scan"}, "type": "electric_scooter"}, {"is_reserved": 0, "is_disabled": 0, "fusion_lon": 0.0, "lat": 38.893292833333334, "name": "2fd7541b228eb444e152e04da5d64d8e", "bike_id": "2fd7541b228eb444e152e04da5d64d8e", "lon": -76.93930416666667, "fusion_lat": 0.0, "rental_uris": {"android": "https://dc.lft.to/lastmile_qr_scan", "ios": "https://dc.lft.to/lastmile_qr_scan"}, "type": "electric_scooter"}, {"is_reserved": 0, "is_disabled": 0, "fusion_lon": 0.0, "lat": 38.926162166666664, "name": "636a350f936faeda2c944260b1249cdd", "bike_id": "636a350f936faeda2c944260b1249cdd", "lon": -77.02161416666667, "fusion_lat": 0.0, "rental_uris": {"android": "https://dc.lft.to/lastmile_qr_scan", "ios": "https://dc.lft.to/lastmile_qr_scan"}, "type": "electric_scooter"}, {"is_reserved": 0, "is_disabled": 0, "fusion_lon": 0.0, "lat": 38.90179666666667, "name": "a45d73a348773e9793cfc81c327916cb", "bike_id": "a45d73a348773e9793cfc81c327916cb", "lon": -77.0012155, "fusion_lat": 0.0, "rental_uris": {"android": "https://dc.lft.to/lastmile_qr_scan", "ios": "https://dc.lft.to/lastmile_qr_scan"}, "type": "electric_scooter"}, {"is_reserved": 0, "is_disabled": 0, "fusion_lon": 0.0, "lat": 38.93752383333333, "name": "91a7c1706b9fa8a491a78e8673ef3954", "bike_id": "91a7c1706b9fa8a491a78e8673ef3954", "lon": -77.02446166666667, "fusion_lat": 0.0, "rental_uris": {"android": "https://dc.lft.to/lastmile_qr_scan", "ios": "https://dc.lft.to/lastmile_qr_scan"}, "type": "electric_scooter"}, {"is_reserved": 0, "is_disabled": 0, "fusion_lon": 0.0, "lat": 38.8849885, "name": "94c219ba62a7b7d9f6879ef898048ee3", "bike_id": "94c219ba62a7b7d9f6879ef898048ee3", "lon": -77.02084716666667, "fusion_lat": 0.0, "rental_uris": {"android": "https://dc.lft.to/lastmile_qr_scan", "ios": "https://dc.lft.to/lastmile_qr_scan"}, "type": "electric_scooter"}, {"is_reserved": 0, "is_disabled": 0, "fusion_lon": 0.0, "lat": 38.9069695, "name": "ecf16f9ee9947cdf14a10d23a415573a", "bike_id": "ecf16f9ee9947cdf14a10d23a415573a", "lon": -76.98852133333334, "fusion_lat": 0.0, "rental_uris": {"android": "https://dc.lft.to/lastmile_qr_scan", "ios": "https://dc.lft.to/lastmile_qr_scan"}, "type": "electric_scooter"}, {"is_reserved": 0, "is_disabled": 0, "fusion_lon": 0.0, "lat": 38.91542116666667, "name": "a0c96231cbf94377ffc5babcb6334529", "bike_id": "a0c96231cbf94377ffc5babcb6334529", "lon": -77.04436466666667, "fusion_lat": 0.0, "rental_uris": {"android": "https://dc.lft.to/lastmile_qr_scan", "ios": "https://dc.lft.to/lastmile_qr_scan"}, "type": "electric_scooter"}, {"is_reserved": 0, "is_disabled": 0, "fusion_lon": 0.0, "lat": 38.8922465, "name": "8c55e33310fbd75e5d1fe6bbfa283a62", "bike_id": "8c55e33310fbd75e5d1fe6bbfa283a62", "lon": -77.04678733333333, "fusion_lat": 0.0, "rental_uris": {"android": "https://dc.lft.to/lastmile_qr_scan", "ios": "https://dc.lft.to/lastmile_qr_scan"}, "type": "electric_scooter"}, {"is_reserved": 0, "is_disabled": 0, "fusion_lon": 0.0, "lat": 38.93535416666667, "name": "65eccd28e4fa5a8b0eb9182acf41a6a0", "bike_id": "65eccd28e4fa5a8b0eb9182acf41a6a0", "lon": -77.05828983333333, "fusion_lat": 0.0, "rental_uris": {"android": "https://dc.lft.to/lastmile_qr_scan", "ios": "https://dc.lft.to/lastmile_qr_scan"}, "type": "electric_scooter"}, {"is_reserved": 0, "is_disabled": 0, "fusion_lon": 0.0, "lat": 38.89320016666667, "name": "c8e0c9c0622903bc8a2c24062f49fc43", "bike_id": "c8e0c9c0622903bc8a2c24062f49fc43", "lon": -76.93969483333333, "fusion_lat": 0.0, "rental_uris": {"android": "https://dc.lft.to/lastmile_qr_scan", "ios": "https://dc.lft.to/lastmile_qr_scan"}, "type": "electric_scooter"}, {"is_reserved": 0, "is_disabled": 0, "fusion_lon": 0.0, "lat": 38.920658, "name": "3c5136bdd8c20a3962e18306d83facfe", "bike_id": "3c5136bdd8c20a3962e18306d83facfe", "lon": -77.025193, "fusion_lat": 0.0, "rental_uris": {"android": "https://dc.lft.to/lastmile_qr_scan", "ios": "https://dc.lft.to/lastmile_qr_scan"}, "type": "electric_scooter"}, {"is_reserved": 0, "is_disabled": 0, "fusion_lon": 0.0, "lat": 38.91592166666667, "name": "579c169ddad0114e24f2f75b8df461e7", "bike_id": "579c169ddad0114e24f2f75b8df461e7", "lon": -77.03853866666667, "fusion_lat": 0.0, "rental_uris": {"android": "https://dc.lft.to/lastmile_qr_scan", "ios": "https://dc.lft.to/lastmile_qr_scan"}, "type": "electric_scooter"}, {"is_reserved": 0, "is_disabled": 0, "fusion_lon": 0.0, "lat": 38.89489916666667, "name": "c3f86152ede79afb9b39b3fb9d895a2a", "bike_id": "c3f86152ede79afb9b39b3fb9d895a2a", "lon": -76.94893066666667, "fusion_lat": 0.0, "rental_uris": {"android": "https://dc.lft.to/lastmile_qr_scan", "ios": "https://dc.lft.to/lastmile_qr_scan"}, "type": "electric_scooter"}, {"is_reserved": 0, "is_disabled": 0, "fusion_lon": 0.0, "lat": 38.938776, "name": "06e38dfa75f6b9b88c50a6959b4ac064", "bike_id": "06e38dfa75f6b9b88c50a6959b4ac064", "lon": -77.02485133333333, "fusion_lat": 0.0, "rental_uris": {"android": "https://dc.lft.to/lastmile_qr_scan", "ios": "https://dc.lft.to/lastmile_qr_scan"}, "type": "electric_scooter"}, {"is_reserved": 0, "is_disabled": 0, "fusion_lon": 0.0, "lat": 38.9003685, "name": "0bae6b632c18ebb5d647cf2382029ffa", "bike_id": "0bae6b632c18ebb5d647cf2382029ffa", "lon": -77.04102816666666, "fusion_lat": 0.0, "rental_uris": {"android": "https://dc.lft.to/lastmile_qr_scan", "ios": "https://dc.lft.to/lastmile_qr_scan"}, "type": "electric_scooter"}, {"is_reserved": 0, "is_disabled": 0, "fusion_lon": 0.0, "lat": 38.847556166666664, "name": "84b33dfd3ed624a274535c4a454f2707", "bike_id": "84b33dfd3ed624a274535c4a454f2707", "lon": -77.05377816666666, "fusion_lat": 0.0, "rental_uris": {"android": "https://dc.lft.to/lastmile_qr_scan", "ios": "https://dc.lft.to/lastmile_qr_scan"}, "type": "electric_bike"}, {"is_reserved": 0, "is_disabled": 0, "fusion_lon": 0.0, "lat": 38.9287225, "name": "9e19d54cf2f74db292221bec0524bc7f", "bike_id": "9e19d54cf2f74db292221bec0524bc7f", "lon": -77.01361816666666, "fusion_lat": 0.0, "rental_uris": {"android": "https://dc.lft.to/lastmile_qr_scan", "ios": "https://dc.lft.to/lastmile_qr_scan"}, "type": "electric_scooter"}, {"is_reserved": 0, "is_disabled": 0, "fusion_lon": 0.0, "lat": 38.904036833333336, "name": "2072dc041a382d3fc88e609031a4a530", "bike_id": "2072dc041a382d3fc88e609031a4a530", "lon": -77.037417, "fusion_lat": 0.0, "rental_uris": {"android": "https://dc.lft.to/lastmile_qr_scan", "ios": "https://dc.lft.to/lastmile_qr_scan"}, "type": "electric_scooter"}, {"is_reserved": 0, "is_disabled": 0, "fusion_lon": 0.0, "lat": 38.9266475, "name": "40a0bfd53ae8b4f65f8b0fa892bb9ac4", "bike_id": "40a0bfd53ae8b4f65f8b0fa892bb9ac4", "lon": -77.015236, "fusion_lat": 0.0, "rental_uris": {"android": "https://dc.lft.to/lastmile_qr_scan", "ios": "https://dc.lft.to/lastmile_qr_scan"}, "type": "electric_scooter"}, {"is_reserved": 0, "is_disabled": 0, "fusion_lon": 0.0, "lat": 38.89217583333333, "name": "1d34a27ec1bb01a37ca3a3ce31713799", "bike_id": "1d34a27ec1bb01a37ca3a3ce31713799", "lon": -77.02371133333334, "fusion_lat": 0.0, "rental_uris": {"android": "https://dc.lft.to/lastmile_qr_scan", "ios": "https://dc.lft.to/lastmile_qr_scan"}, "type": "electric_scooter"}, {"is_reserved": 0, "is_disabled": 0, "fusion_lon": 0.0, "lat": 38.92471033333333, "name": "1653e97ccd8d814053279f79a683ae47", "bike_id": "1653e97ccd8d814053279f79a683ae47", "lon": -77.02201233333334, "fusion_lat": 0.0, "rental_uris": {"android": "https://dc.lft.to/lastmile_qr_scan", "ios": "https://dc.lft.to/lastmile_qr_scan"}, "type": "electric_scooter"}, {"is_reserved": 0, "is_disabled": 0, "fusion_lon": 0.0, "lat": 38.922366833333335, "name": "06883d5e8a47b7587b028eb0ab409908", "bike_id": "06883d5e8a47b7587b028eb0ab409908", "lon": -77.03664966666666, "fusion_lat": 0.0, "rental_uris": {"android": "https://dc.lft.to/lastmile_qr_scan", "ios": "https://dc.lft.to/lastmile_qr_scan"}, "type": "electric_scooter"}, {"is_reserved": 0, "is_disabled": 0, "fusion_lon": 0.0, "lat": 38.895027166666665, "name": "fc2b2cad80051a45e85a2fb582f28eb0", "bike_id": "fc2b2cad80051a45e85a2fb582f28eb0", "lon": -76.93478166666667, "fusion_lat": 0.0, "rental_uris": {"android": "https://dc.lft.to/lastmile_qr_scan", "ios": "https://dc.lft.to/lastmile_qr_scan"}, "type": "electric_scooter"}, {"is_reserved": 0, "is_disabled": 0, "fusion_lon": 0.0, "lat": 38.90408866666667, "name": "313b5dfac3504c53ed7f5095e349589c", "bike_id": "313b5dfac3504c53ed7f5095e349589c", "lon": -76.97333533333334, "fusion_lat": 0.0, "rental_uris": {"android": "https://dc.lft.to/lastmile_qr_scan", "ios": "https://dc.lft.to/lastmile_qr_scan"}, "type": "electric_scooter"}, {"is_reserved": 0, "is_disabled": 0, "fusion_lon": 0.0, "lat": 38.9050875, "name": "8b6997424cf3db9312aefbad7f4d91f6", "bike_id": "8b6997424cf3db9312aefbad7f4d91f6", "lon": -77.0297835, "fusion_lat": 0.0, "rental_uris": {"android": "https://dc.lft.to/lastmile_qr_scan", "ios": "https://dc.lft.to/lastmile_qr_scan"}, "type": "electric_scooter"}, {"is_reserved": 0, "is_disabled": 0, "fusion_lon": 0.0, "lat": 38.9223705, "name": "82f82a136a604e110f7e00cfffe6359e", "bike_id": "82f82a136a604e110f7e00cfffe6359e", "lon": -77.02854316666667, "fusion_lat": 0.0, "rental_uris": {"android": "https://dc.lft.to/lastmile_qr_scan", "ios": "https://dc.lft.to/lastmile_qr_scan"}, "type": "electric_scooter"}, {"is_reserved": 0, "is_disabled": 0, "fusion_lon": 0.0, "lat": 38.920872833333334, "name": "26b6fcb8e4107df7b3aff70f0b69c28b", "bike_id": "26b6fcb8e4107df7b3aff70f0b69c28b", "lon": -77.02539266666666, "fusion_lat": 0.0, "rental_uris": {"android": "https://dc.lft.to/lastmile_qr_scan", "ios": "https://dc.lft.to/lastmile_qr_scan"}, "type": "electric_scooter"}, {"is_reserved": 0, "is_disabled": 0, "fusion_lon": 0.0, "lat": 38.896238333333336, "name": "e64b4ca0d1a0d8c4a7380ad1acf3bba4", "bike_id": "e64b4ca0d1a0d8c4a7380ad1acf3bba4", "lon": -77.01911166666666, "fusion_lat": 0.0, "rental_uris": {"android": "https://dc.lft.to/lastmile_qr_scan", "ios": "https://dc.lft.to/lastmile_qr_scan"}, "type": "electric_scooter"}, {"is_reserved": 0, "is_disabled": 0, "fusion_lon": 0.0, "lat": 38.8968255, "name": "0a01cdf8356f6ab600fb19aa5d6a603c", "bike_id": "0a01cdf8356f6ab600fb19aa5d6a603c", "lon": -76.9279345, "fusion_lat": 0.0, "rental_uris": {"android": "https://dc.lft.to/lastmile_qr_scan", "ios": "https://dc.lft.to/lastmile_qr_scan"}, "type": "electric_scooter"}, {"is_reserved": 0, "is_disabled": 0, "fusion_lon": 0.0, "lat": 38.962142166666666, "name": "4efca7a0ef33de385d30d214140d5327", "bike_id": "4efca7a0ef33de385d30d214140d5327", "lon": -77.02789666666666, "fusion_lat": 0.0, "rental_uris": {"android": "https://dc.lft.to/lastmile_qr_scan", "ios": "https://dc.lft.to/lastmile_qr_scan"}, "type": "electric_scooter"}, {"is_reserved": 0, "is_disabled": 0, "fusion_lon": 0.0, "lat": 38.922110333333336, "name": "96c314d60c0af4985ef2ad06f9e64b39", "bike_id": "96c314d60c0af4985ef2ad06f9e64b39", "lon": -77.0423815, "fusion_lat": 0.0, "rental_uris": {"android": "https://dc.lft.to/lastmile_qr_scan", "ios": "https://dc.lft.to/lastmile_qr_scan"}, "type": "electric_scooter"}, {"is_reserved": 0, "is_disabled": 0, "fusion_lon": 0.0, "lat": 38.897415333333335, "name": "05874b5384d82b2704b06b1faa22e5cd", "bike_id": "05874b5384d82b2704b06b1faa22e5cd", "lon": -77.02489633333333, "fusion_lat": 0.0, "rental_uris": {"android": "https://dc.lft.to/lastmile_qr_scan", "ios": "https://dc.lft.to/lastmile_qr_scan"}, "type": "electric_scooter"}, {"is_reserved": 0, "is_disabled": 0, "fusion_lon": 0.0, "lat": 38.91259683333333, "name": "217489a364002939d355cd531f3744a7", "bike_id": "217489a364002939d355cd531f3744a7", "lon": -77.03666766666667, "fusion_lat": 0.0, "rental_uris": {"android": "https://dc.lft.to/lastmile_qr_scan", "ios": "https://dc.lft.to/lastmile_qr_scan"}, "type": "electric_scooter"}, {"is_reserved": 0, "is_disabled": 0, "fusion_lon": 0.0, "lat": 38.85704616666666, "name": "3fcd3bd899ff75111c3cb0393b26bee4", "bike_id": "3fcd3bd899ff75111c3cb0393b26bee4", "lon": -76.98215483333334, "fusion_lat": 0.0, "rental_uris": {"android": "https://dc.lft.to/lastmile_qr_scan", "ios": "https://dc.lft.to/lastmile_qr_scan"}, "type": "electric_scooter"}, {"is_reserved": 0, "is_disabled": 0, "fusion_lon": 0.0, "lat": 38.920610333333336, "name": "4b5f7d25c55c7ff1b7bfdba7b79d9590", "bike_id": "4b5f7d25c55c7ff1b7bfdba7b79d9590", "lon": -77.03307583333333, "fusion_lat": 0.0, "rental_uris": {"android": "https://dc.lft.to/lastmile_qr_scan", "ios": "https://dc.lft.to/lastmile_qr_scan"}, "type": "electric_scooter"}, {"is_reserved": 0, "is_disabled": 0, "fusion_lon": 0.0, "lat": 38.95739866666667, "name": "b978e66a054da9509975be00811150db", "bike_id": "b978e66a054da9509975be00811150db", "lon": -76.98085366666666, "fusion_lat": 0.0, "rental_uris": {"android": "https://dc.lft.to/lastmile_qr_scan", "ios": "https://dc.lft.to/lastmile_qr_scan"}, "type": "electric_bike"}, {"is_reserved": 0, "is_disabled": 0, "fusion_lon": 0.0, "lat": 38.93112983333333, "name": "4b28e8cf378008880c06cae74193f6ba", "bike_id": "4b28e8cf378008880c06cae74193f6ba", "lon": -77.0209825, "fusion_lat": 0.0, "rental_uris": {"android": "https://dc.lft.to/lastmile_qr_scan", "ios": "https://dc.lft.to/lastmile_qr_scan"}, "type": "electric_scooter"}, {"is_reserved": 0, "is_disabled": 0, "fusion_lon": 0.0, "lat": 38.900098666666665, "name": "c8c9b2e2b52b47e3dd5adf1131933a64", "bike_id": "c8c9b2e2b52b47e3dd5adf1131933a64", "lon": -76.99096316666666, "fusion_lat": 0.0, "rental_uris": {"android": "https://dc.lft.to/lastmile_qr_scan", "ios": "https://dc.lft.to/lastmile_qr_scan"}, "type": "electric_scooter"}, {"is_reserved": 0, "is_disabled": 0, "fusion_lon": 0.0, "lat": 38.899684, "name": "cd336cda8de02670157fc14fad8e53f8", "bike_id": "cd336cda8de02670157fc14fad8e53f8", "lon": -77.04204183333333, "fusion_lat": 0.0, "rental_uris": {"android": "https://dc.lft.to/lastmile_qr_scan", "ios": "https://dc.lft.to/lastmile_qr_scan"}, "type": "electric_scooter"}, {"is_reserved": 0, "is_disabled": 0, "fusion_lon": 0.0, "lat": 38.88790016666667, "name": "e2133830d7de894295934fb532fd8423", "bike_id": "e2133830d7de894295934fb532fd8423", "lon": -76.95335316666667, "fusion_lat": 0.0, "rental_uris": {"android": "https://dc.lft.to/lastmile_qr_scan", "ios": "https://dc.lft.to/lastmile_qr_scan"}, "type": "electric_scooter"}, {"is_reserved": 0, "is_disabled": 0, "fusion_lon": 0.0, "lat": 38.925097, "name": "e7b12e1787dff146e9a89039b79cbaa9", "bike_id": "e7b12e1787dff146e9a89039b79cbaa9", "lon": -77.02576716666667, "fusion_lat": 0.0, "rental_uris": {"android": "https://dc.lft.to/lastmile_qr_scan", "ios": "https://dc.lft.to/lastmile_qr_scan"}, "type": "electric_scooter"}, {"is_reserved": 0, "is_disabled": 0, "fusion_lon": 0.0, "lat": 38.87934883333333, "name": "152c0bde5397e54008c14a40f4b0348c", "bike_id": "152c0bde5397e54008c14a40f4b0348c", "lon": -76.99376116666667, "fusion_lat": 0.0, "rental_uris": {"android": "https://dc.lft.to/lastmile_qr_scan", "ios": "https://dc.lft.to/lastmile_qr_scan"}, "type": "electric_scooter"}, {"is_reserved": 0, "is_disabled": 0, "fusion_lon": 0.0, "lat": 38.90138833333334, "name": "0109585919c867485160489fed5370d9", "bike_id": "0109585919c867485160489fed5370d9", "lon": -76.98966533333333, "fusion_lat": 0.0, "rental_uris": {"android": "https://dc.lft.to/lastmile_qr_scan", "ios": "https://dc.lft.to/lastmile_qr_scan"}, "type": "electric_scooter"}, {"is_reserved": 0, "is_disabled": 0, "fusion_lon": 0.0, "lat": 38.89633766666667, "name": "4d6ba5d231c0d3d9f0847887e5ab3db6", "bike_id": "4d6ba5d231c0d3d9f0847887e5ab3db6", "lon": -76.92963266666666, "fusion_lat": 0.0, "rental_uris": {"android": "https://dc.lft.to/lastmile_qr_scan", "ios": "https://dc.lft.to/lastmile_qr_scan"}, "type": "electric_scooter"}, {"is_reserved": 0, "is_disabled": 0, "fusion_lon": 0.0, "lat": 38.90200816666667, "name": "b9204093c88e3fbfefd9bc768c2dee27", "bike_id": "b9204093c88e3fbfefd9bc768c2dee27", "lon": -76.998473, "fusion_lat": 0.0, "rental_uris": {"android": "https://dc.lft.to/lastmile_qr_scan", "ios": "https://dc.lft.to/lastmile_qr_scan"}, "type": "electric_scooter"}, {"is_reserved": 0, "is_disabled": 0, "fusion_lon": 0.0, "lat": 38.9573465, "name": "a2cb76d6bff5f306fe0624670a017ffb", "bike_id": "a2cb76d6bff5f306fe0624670a017ffb", "lon": -77.02751533333333, "fusion_lat": 0.0, "rental_uris": {"android": "https://dc.lft.to/lastmile_qr_scan", "ios": "https://dc.lft.to/lastmile_qr_scan"}, "type": "electric_scooter"}, {"is_reserved": 0, "is_disabled": 0, "fusion_lon": 0.0, "lat": 38.908475, "name": "cc75ae89d73bad56815afdf559d8038f", "bike_id": "cc75ae89d73bad56815afdf559d8038f", "lon": -77.04534716666667, "fusion_lat": 0.0, "rental_uris": {"android": "https://dc.lft.to/lastmile_qr_scan", "ios": "https://dc.lft.to/lastmile_qr_scan"}, "type": "electric_scooter"}, {"is_reserved": 0, "is_disabled": 0, "fusion_lon": 0.0, "lat": 38.93146383333333, "name": "43e11b850e69602804996057641078c7", "bike_id": "43e11b850e69602804996057641078c7", "lon": -77.0394125, "fusion_lat": 0.0, "rental_uris": {"android": "https://dc.lft.to/lastmile_qr_scan", "ios": "https://dc.lft.to/lastmile_qr_scan"}, "type": "electric_scooter"}, {"is_reserved": 0, "is_disabled": 0, "fusion_lon": 0.0, "lat": 38.8288655, "name": "d697724926f47cb3bb8736fd773e9c40", "bike_id": "d697724926f47cb3bb8736fd773e9c40", "lon": -77.0121125, "fusion_lat": 0.0, "rental_uris": {"android": "https://dc.lft.to/lastmile_qr_scan", "ios": "https://dc.lft.to/lastmile_qr_scan"}, "type": "electric_bike"}, {"is_reserved": 0, "is_disabled": 0, "fusion_lon": 0.0, "lat": 38.917234, "name": "9ce406ce00feee25de05fec01307aec9", "bike_id": "9ce406ce00feee25de05fec01307aec9", "lon": -77.0320875, "fusion_lat": 0.0, "rental_uris": {"android": "https://dc.lft.to/lastmile_qr_scan", "ios": "https://dc.lft.to/lastmile_qr_scan"}, "type": "electric_scooter"}, {"is_reserved": 0, "is_disabled": 0, "fusion_lon": 0.0, "lat": 38.96149716666667, "name": "36cef148f68fb0a04aa7a03dfd300e1d", "bike_id": "36cef148f68fb0a04aa7a03dfd300e1d", "lon": -76.99781283333333, "fusion_lat": 0.0, "rental_uris": {"android": "https://dc.lft.to/lastmile_qr_scan", "ios": "https://dc.lft.to/lastmile_qr_scan"}, "type": "electric_bike"}, {"is_reserved": 0, "is_disabled": 0, "fusion_lon": 0.0, "lat": 38.93277533333333, "name": "5730ccb039dc668e75b7e7cb8b9b4452", "bike_id": "5730ccb039dc668e75b7e7cb8b9b4452", "lon": -77.0265585, "fusion_lat": 0.0, "rental_uris": {"android": "https://dc.lft.to/lastmile_qr_scan", "ios": "https://dc.lft.to/lastmile_qr_scan"}, "type": "electric_scooter"}, {"is_reserved": 0, "is_disabled": 0, "fusion_lon": 0.0, "lat": 38.88108783333333, "name": "ee98cece02d9869ab7012fd41e532d2f", "bike_id": "ee98cece02d9869ab7012fd41e532d2f", "lon": -77.0166955, "fusion_lat": 0.0, "rental_uris": {"android": "https://dc.lft.to/lastmile_qr_scan", "ios": "https://dc.lft.to/lastmile_qr_scan"}, "type": "electric_bike"}, {"is_reserved": 0, "is_disabled": 0, "fusion_lon": 0.0, "lat": 38.935313, "name": "139da2cfd379502ddc35cf79dce756e7", "bike_id": "139da2cfd379502ddc35cf79dce756e7", "lon": -77.02367633333333, "fusion_lat": 0.0, "rental_uris": {"android": "https://dc.lft.to/lastmile_qr_scan", "ios": "https://dc.lft.to/lastmile_qr_scan"}, "type": "electric_scooter"}, {"is_reserved": 0, "is_disabled": 0, "fusion_lon": 0.0, "lat": 38.924991, "name": "8d49379ded5cef21e19cfa2bfc05bd6a", "bike_id": "8d49379ded5cef21e19cfa2bfc05bd6a", "lon": -77.02158366666667, "fusion_lat": 0.0, "rental_uris": {"android": "https://dc.lft.to/lastmile_qr_scan", "ios": "https://dc.lft.to/lastmile_qr_scan"}, "type": "electric_scooter"}, {"is_reserved": 0, "is_disabled": 0, "fusion_lon": 0.0, "lat": 38.919345, "name": "0f267e80dc8257fd0efb3f05efcb8172", "bike_id": "0f267e80dc8257fd0efb3f05efcb8172", "lon": -77.04562333333334, "fusion_lat": 0.0, "rental_uris": {"android": "https://dc.lft.to/lastmile_qr_scan", "ios": "https://dc.lft.to/lastmile_qr_scan"}, "type": "electric_scooter"}, {"is_reserved": 0, "is_disabled": 0, "fusion_lon": 0.0, "lat": 38.9121825, "name": "2d612afdd72b06011efc791dda9f187c", "bike_id": "2d612afdd72b06011efc791dda9f187c", "lon": -77.03205566666666, "fusion_lat": 0.0, "rental_uris": {"android": "https://dc.lft.to/lastmile_qr_scan", "ios": "https://dc.lft.to/lastmile_qr_scan"}, "type": "electric_scooter"}, {"is_reserved": 0, "is_disabled": 0, "fusion_lon": 0.0, "lat": 38.93013116666667, "name": "fb186b035405e274a8d4555f4653cf36", "bike_id": "fb186b035405e274a8d4555f4653cf36", "lon": -77.06192383333334, "fusion_lat": 0.0, "rental_uris": {"android": "https://dc.lft.to/lastmile_qr_scan", "ios": "https://dc.lft.to/lastmile_qr_scan"}, "type": "electric_scooter"}, {"is_reserved": 0, "is_disabled": 0, "fusion_lon": 0.0, "lat": 38.9114365, "name": "375d037efe1cf6f45150a472996d671e", "bike_id": "375d037efe1cf6f45150a472996d671e", "lon": -77.02195483333334, "fusion_lat": 0.0, "rental_uris": {"android": "https://dc.lft.to/lastmile_qr_scan", "ios": "https://dc.lft.to/lastmile_qr_scan"}, "type": "electric_scooter"}, {"is_reserved": 0, "is_disabled": 0, "fusion_lon": 0.0, "lat": 38.897484166666665, "name": "1709ce631c6d6e53fef6a235559a7a03", "bike_id": "1709ce631c6d6e53fef6a235559a7a03", "lon": -77.019022, "fusion_lat": 0.0, "rental_uris": {"android": "https://dc.lft.to/lastmile_qr_scan", "ios": "https://dc.lft.to/lastmile_qr_scan"}, "type": "electric_scooter"}, {"is_reserved": 0, "is_disabled": 0, "fusion_lon": 0.0, "lat": 38.92642766666667, "name": "7d327c59d3aabdfd7f4b5e938f16ba1c", "bike_id": "7d327c59d3aabdfd7f4b5e938f16ba1c", "lon": -77.03854166666666, "fusion_lat": 0.0, "rental_uris": {"android": "https://dc.lft.to/lastmile_qr_scan", "ios": "https://dc.lft.to/lastmile_qr_scan"}, "type": "electric_scooter"}, {"is_reserved": 0, "is_disabled": 0, "fusion_lon": 0.0, "lat": 38.92431833333333, "name": "e571ab78dd0d2ec920bffc1ac7ed901f", "bike_id": "e571ab78dd0d2ec920bffc1ac7ed901f", "lon": -77.00322116666666, "fusion_lat": 0.0, "rental_uris": {"android": "https://dc.lft.to/lastmile_qr_scan", "ios": "https://dc.lft.to/lastmile_qr_scan"}, "type": "electric_scooter"}, {"is_reserved": 0, "is_disabled": 0, "fusion_lon": 0.0, "lat": 38.888163, "name": "51d0784ee399e6fddeaf7e87ed9268fe", "bike_id": "51d0784ee399e6fddeaf7e87ed9268fe", "lon": -76.977024, "fusion_lat": 0.0, "rental_uris": {"android": "https://dc.lft.to/lastmile_qr_scan", "ios": "https://dc.lft.to/lastmile_qr_scan"}, "type": "electric_scooter"}, {"is_reserved": 0, "is_disabled": 0, "fusion_lon": 0.0, "lat": 38.89703516666667, "name": "ba4c5071e63c79b90450ec8b38dc77ca", "bike_id": "ba4c5071e63c79b90450ec8b38dc77ca", "lon": -76.939197, "fusion_lat": 0.0, "rental_uris": {"android": "https://dc.lft.to/lastmile_qr_scan", "ios": "https://dc.lft.to/lastmile_qr_scan"}, "type": "electric_scooter"}, {"is_reserved": 0, "is_disabled": 0, "fusion_lon": 0.0, "lat": 38.90262466666667, "name": "0630a19711b95c1aae43de81439cb0ac", "bike_id": "0630a19711b95c1aae43de81439cb0ac", "lon": -76.99850616666667, "fusion_lat": 0.0, "rental_uris": {"android": "https://dc.lft.to/lastmile_qr_scan", "ios": "https://dc.lft.to/lastmile_qr_scan"}, "type": "electric_scooter"}, {"is_reserved": 0, "is_disabled": 0, "fusion_lon": 0.0, "lat": 38.89362333333333, "name": "8eabe4b7a403a13248ff65170efe3f2b", "bike_id": "8eabe4b7a403a13248ff65170efe3f2b", "lon": -77.04620966666667, "fusion_lat": 0.0, "rental_uris": {"android": "https://dc.lft.to/lastmile_qr_scan", "ios": "https://dc.lft.to/lastmile_qr_scan"}, "type": "electric_scooter"}, {"is_reserved": 0, "is_disabled": 0, "fusion_lon": 0.0, "lat": 38.8765935, "name": "a81db0a16b539202a22ea79e17eec568", "bike_id": "a81db0a16b539202a22ea79e17eec568", "lon": -77.01172233333334, "fusion_lat": 0.0, "rental_uris": {"android": "https://dc.lft.to/lastmile_qr_scan", "ios": "https://dc.lft.to/lastmile_qr_scan"}, "type": "electric_scooter"},