{"data": {"bikes": [{"is_disabled": 0, "fusion_lon": 0.0, "fusion_lat": 0.0, "lat": 38.91996133333333, "type": "electric_scooter", "lon": -77.03285483333333, "bike_id": "8a5ae61e70c6e039ea0ebdfcb6aa3839", "rental_uris": {"android": "https://dc.lft.to/lastmile_qr_scan", "ios": "https://dc.lft.to/lastmile_qr_scan"}, "name": "8a5ae61e70c6e039ea0ebdfcb6aa3839", "is_reserved": 0}, {"is_disabled": 0, "fusion_lon": 0.0, "fusion_lat": 0.0, "lat": 38.91814983333333, "type": "electric_scooter", "lon": -77.0417665, "bike_id": "864f0797e20308ae50982e9afe57751a", "rental_uris": {"android": "https://dc.lft.to/lastmile_qr_scan", "ios": "https://dc.lft.to/lastmile_qr_scan"}, "name": "864f0797e20308ae50982e9afe57751a", "is_reserved": 0}, {"is_disabled": 0, "fusion_lon": 0.0, "fusion_lat": 0.0, "lat": 38.92611433333333, "type": "electric_scooter", "lon": -77.02157166666667, "bike_id": "f666425d72e66a9aa93deffd5dc41466", "rental_uris": {"android": "https://dc.lft.to/lastmile_qr_scan", "ios": "https://dc.lft.to/lastmile_qr_scan"}, "name": "f666425d72e66a9aa93deffd5dc41466", "is_reserved": 0}, {"is_disabled": 0, "fusion_lon": 0.0, "fusion_lat": 0.0, "lat": 39.000156, "type": "electric_bike", "lon": -76.87283533333333, "bike_id": "404a3dcec6dec46c71c533ef02186a64", "rental_uris": {"android": "https://dc.lft.to/lastmile_qr_scan", "ios": "https://dc.lft.to/lastmile_qr_scan"}, "name": "404a3dcec6dec46c71c533ef02186a64", "is_reserved": 0}, {"is_disabled": 0, "fusion_lon": 0.0, "fusion_lat": 0.0, "lat": 38.828725166666665, "type": "electric_bike", "lon": -77.11220866666666, "bike_id": "1fdf37d95ff448196dcf4bb8f7d62dcc", "rental_uris": {"android": "https://dc.lft.to/lastmile_qr_scan", "ios": "https://dc.lft.to/lastmile_qr_scan"}, "name": "1fdf37d95ff448196dcf4bb8f7d62dcc", "is_reserved": 0}, {"is_disabled": 0, "fusion_lon": 0.0, "fusion_lat": 0.0, "lat": 38.91400316666667, "type": "electric_scooter", "lon": -77.02188, "bike_id": "d6d660e789ca250f671bc7ea382f538b", "rental_uris": {"android": "https://dc.lft.to/lastmile_qr_scan", "ios": "https://dc.lft.to/lastmile_qr_scan"}, "name": "d6d660e789ca250f671bc7ea382f538b", "is_reserved": 0}, {"is_disabled": 0, "fusion_lon": 0.0, "fusion_lat": 0.0, "lat": 38.9247855, "type": "electric_scooter", "lon": -77.02714983333334, "bike_id": "c9d86026ef6de8321ab841c94f427385", "rental_uris": {"android": "https://dc.lft.to/lastmile_qr_scan", "ios": "https://dc.lft.to/lastmile_qr_scan"}, "name": "c9d86026ef6de8321ab841c94f427385", "is_reserved": 0}, {"is_disabled": 0, "fusion_lon": 0.0, "fusion_lat": 0.0, "lat": 39.0037695, "type": "electric_bike", "lon": -77.01294066666667, "bike_id": "88ed8f70b5ac77e9c2f0df877f631613", "rental_uris": {"android": "https://dc.lft.to/lastmile_qr_scan", "ios": "https://dc.lft.to/lastmile_qr_scan"}, "name": "88ed8f70b5ac77e9c2f0df877f631613", "is_reserved": 0}, {"is_disabled": 0, "fusion_lon": 0.0, "fusion_lat": 0.0, "lat": 38.9180865, "type": "electric_scooter", "lon": -77.03124366666667, "bike_id": "c74b71a1ddc7101d012e84f8e109b904", "rental_uris": {"android": "https://dc.lft.to/lastmile_qr_scan", "ios": "https://dc.lft.to/lastmile_qr_scan"}, "name": "c74b71a1ddc7101d012e84f8e109b904", "is_reserved": 0}, {"is_disabled": 0, "fusion_lon": 0.0, "fusion_lat": 0.0, "lat": 38.917100166666664, "type": "electric_scooter", "lon": -77.02615966666667, "bike_id": "71d6104dc8640fb64f7508d9a1083b8f", "rental_uris": {"android": "https://dc.lft.to/lastmile_qr_scan", "ios": "https://dc.lft.to/lastmile_qr_scan"}, "name": "71d6104dc8640fb64f7508d9a1083b8f", "is_reserved": 0}, {"is_disabled": 0, "fusion_lon": 0.0, "fusion_lat": 0.0, "lat": 38.95149716666667, "type": "electric_scooter", "lon": -77.03766133333333, "bike_id": "498ad94982140fd921b7a7b99785744b", "rental_uris": {"android": "https://dc.lft.to/lastmile_qr_scan", "ios": "https://dc.lft.to/lastmile_qr_scan"}, "name": "498ad94982140fd921b7a7b99785744b", "is_reserved": 0}, {"is_disabled": 0, "fusion_lon": 0.0, "fusion_lat": 0.0, "lat": 38.89219933333333, "type": "electric_scooter", "lon": -77.02628283333334, "bike_id": "a424e9e5100e12d39b90b41c420c4dd7", "rental_uris": {"android": "https://dc.lft.to/lastmile_qr_scan", "ios": "https://dc.lft.to/lastmile_qr_scan"}, "name": "a424e9e5100e12d39b90b41c420c4dd7", "is_reserved": 0}, {"is_disabled": 0, "fusion_lon": 0.0, "fusion_lat": 0.0, "lat": 38.965583333333335, "type": "electric_bike", "lon": -77.0229605, "bike_id": "29c22a76a94c20bc5218836bc6d832a1", "rental_uris": {"android": "https://dc.lft.to/lastmile_qr_scan", "ios": "https://dc.lft.to/lastmile_qr_scan"}, "name": "29c22a76a94c20bc5218836bc6d832a1", "is_reserved": 0}, {"is_disabled": 0, "fusion_lon": 0.0, "fusion_lat": 0.0, "lat": 38.90712033333333, "type": "electric_scooter", "lon": -77.027161, "bike_id": "c36067111962a7e837ec0f1620b1cd36", "rental_uris": {"android": "https://dc.lft.to/lastmile_qr_scan", "ios": "https://dc.lft.to/lastmile_qr_scan"}, "name": "c36067111962a7e837ec0f1620b1cd36", "is_reserved": 0}, {"is_disabled": 0, "fusion_lon": 0.0, "fusion_lat": 0.0, "lat": 38.9174745, "type": "electric_scooter", "lon": -77.0415135, "bike_id": "5e6f438b28761f94d7b0be33dfeb09d0", "rental_uris": {"android": "https://dc.lft.to/lastmile_qr_scan", "ios": "https://dc.lft.to/lastmile_qr_scan"}, "name": "5e6f438b28761f94d7b0be33dfeb09d0", "is_reserved": 0}, {"is_disabled": 0, "fusion_lon": 0.0, "fusion_lat": 0.0, "lat": 38.90704433333333, "type": "electric_scooter", "lon": -77.02391416666667, "bike_id": "be038ec0a5f254f7079575867e2a6cbd", "rental_uris": {"android": "https://dc.lft.to/lastmile_qr_scan", "ios": "https://dc.lft.to/lastmile_qr_scan"}, "name": "be038ec0a5f254f7079575867e2a6cbd", "is_reserved": 0}, {"is_disabled": 0, "fusion_lon": 0.0, "fusion_lat": 0.0, "lat": 38.940455666666665, "type": "electric_scooter", "lon": -77.02491266666667, "bike_id": "86f397f07f82bfa977037b4f0b6e04d4", "rental_uris": {"android": "https://dc.lft.to/lastmile_qr_scan", "ios": "https://dc.lft.to/lastmile_qr_scan"}, "name": "86f397f07f82bfa977037b4f0b6e04d4", "is_reserved": 0}, {"is_disabled": 0, "fusion_lon": 0.0, "fusion_lat": 0.0, "lat": 38.899576, "type": "electric_scooter", "lon": -77.0522105, "bike_id": "75d0b74f897d689544f9cd72ef8f49c3", "rental_uris": {"android": "https://dc.lft.to/lastmile_qr_scan", "ios": "https://dc.lft.to/lastmile_qr_scan"}, "name": "75d0b74f897d689544f9cd72ef8f49c3", "is_reserved": 0}, {"is_disabled": 0, "fusion_lon": 0.0, "fusion_lat": 0.0, "lat": 38.84108766666667, "type": "electric_bike", "lon": -77.08942633333334, "bike_id": "2caf081b74f072924895977b89bbd776", "rental_uris": {"android": "https://dc.lft.to/lastmile_qr_scan", "ios": "https://dc.lft.to/lastmile_qr_scan"}, "name": "2caf081b74f072924895977b89bbd776", "is_reserved": 0}, {"is_disabled": 0, "fusion_lon": 0.0, "fusion_lat": 0.0, "lat": 38.942981333333336, "type": "electric_scooter", "lon": -77.03357466666667, "bike_id": "446bdcd48a2ea008523328c86a0631df", "rental_uris": {"android": "https://dc.lft.to/lastmile_qr_scan", "ios": "https://dc.lft.to/lastmile_qr_scan"}, "name": "446bdcd48a2ea008523328c86a0631df", "is_reserved": 0}, {"is_disabled": 0, "fusion_lon": 0.0, "fusion_lat": 0.0, "lat": 38.964437333333336, "type": "electric_bike", "lon": -76.97724733333334, "bike_id": "121139de774fd76e0bddb20338428764", "rental_uris": {"android": "https://dc.lft.to/lastmile_qr_scan", "ios": "https://dc.lft.to/lastmile_qr_scan"}, "name": "121139de774fd76e0bddb20338428764", "is_reserved": 0}, {"is_disabled": 0, "fusion_lon": 0.0, "fusion_lat": 0.0, "lat": 38.8874355, "type": "electric_scooter", "lon": -77.016039, "bike_id": "895867811f231e096759821564db53b7", "rental_uris": {"android": "https://dc.lft.to/lastmile_qr_scan", "ios": "https://dc.lft.to/lastmile_qr_scan"}, "name": "895867811f231e096759821564db53b7", "is_reserved": 0}, {"is_disabled": 0, "fusion_lon": 0.0, "fusion_lat": 0.0, "lat": 39.029978166666666, "type": "electric_bike", "lon": -77.1065045, "bike_id": "b60d39fdad64bbf71d411e91d9fad707", "rental_uris": {"android": "https://dc.lft.to/lastmile_qr_scan", "ios": "https://dc.lft.to/lastmile_qr_scan"}, "name": "b60d39fdad64bbf71d411e91d9fad707", "is_reserved": 0}, {"is_disabled": 0, "fusion_lon": 0.0, "fusion_lat": 0.0, "lat": 38.928854666666666, "type": "electric_scooter", "lon": -77.02308583333334, "bike_id": "cb905fdb818175a125272bfeab54eaa1", "rental_uris": {"android": "https://dc.lft.to/lastmile_qr_scan", "ios": "https://dc.lft.to/lastmile_qr_scan"}, "name": "cb905fdb818175a125272bfeab54eaa1", "is_reserved": 0}, {"is_disabled": 0, "fusion_lon": 0.0, "fusion_lat": 0.0, "lat": 38.842900666666665, "type": "electric_scooter", "lon": -76.99948383333333, "bike_id": "a0b7abe6a723ce357160d206b616dffc", "rental_uris": {"android": "https://dc.lft.to/lastmile_qr_scan", "ios": "https://dc.lft.to/lastmile_qr_scan"}, "name": "a0b7abe6a723ce357160d206b616dffc", "is_reserved": 0}, {"is_disabled": 0, "fusion_lon": 0.0, "fusion_lat": 0.0, "lat": 38.9605055, "type": "electric_scooter", "lon": -77.08572433333333, "bike_id": "23b5b8b0a01761848fefffd0736e0089", "rental_uris": {"android": "https://dc.lft.to/lastmile_qr_scan", "ios": "https://dc.lft.to/lastmile_qr_scan"}, "name": "23b5b8b0a01761848fefffd0736e0089", "is_reserved": 0}, {"is_disabled": 0, "fusion_lon": 0.0, "fusion_lat": 0.0, "lat": 38.89548933333333, "type": "electric_scooter", "lon": -76.94873133333333, "bike_id": "9e95de938204bfb4d7fa8bca471dc914", "rental_uris": {"android": "https://dc.lft.to/lastmile_qr_scan", "ios": "https://dc.lft.to/lastmile_qr_scan"}, "name": "9e95de938204bfb4d7fa8bca471dc914", "is_reserved": 0}, {"is_disabled": 0, "fusion_lon": 0.0, "fusion_lat": 0.0, "lat": 38.86518816666667, "type": "electric_scooter", "lon": -76.98967766666667, "bike_id": "2bcd1dc8a51a0de8f8e1bf2f5a67d7dc", "rental_uris": {"android": "https://dc.lft.to/lastmile_qr_scan", "ios": "https://dc.lft.to/lastmile_qr_scan"}, "name": "2bcd1dc8a51a0de8f8e1bf2f5a67d7dc", "is_reserved": 0}, {"is_disabled": 0, "fusion_lon": 0.0, "fusion_lat": 0.0, "lat": 38.9018185, "type": "electric_scooter", "lon": -77.05020366666666, "bike_id": "94ce85d92a0da43f1f93bc4aa1cc8e68", "rental_uris": {"android": "https://dc.lft.to/lastmile_qr_scan", "ios": "https://dc.lft.to/lastmile_qr_scan"}, "name": "94ce85d92a0da43f1f93bc4aa1cc8e68", "is_reserved": 0}, {"is_disabled": 0, "fusion_lon": 0.0, "fusion_lat": 0.0, "lat": 38.893306, "type": "electric_scooter", "lon": -77.02125516666666, "bike_id": "4e61de8be952d95643243ff62fb7cc36", "rental_uris": {"android": "https://dc.lft.to/lastmile_qr_scan", "ios": "https://dc.lft.to/lastmile_qr_scan"}, "name": "4e61de8be952d95643243ff62fb7cc36", "is_reserved": 0}, {"is_disabled": 0, "fusion_lon": 0.0, "fusion_lat": 0.0, "lat": 38.9315025, "type": "electric_scooter", "lon": -77.04129066666667, "bike_id": "0f5fa2d1f81a7093572388b7c2b4607b", "rental_uris": {"android": "https://dc.lft.to/lastmile_qr_scan", "ios": "https://dc.lft.to/lastmile_qr_scan"}, "name": "0f5fa2d1f81a7093572388b7c2b4607b", "is_reserved": 0}, {"is_disabled": 0, "fusion_lon": 0.0, "fusion_lat": 0.0, "lat": 38.9037265, "type": "electric_scooter", "lon": -77.03975883333334, "bike_id": "967080adcc9678bec9da50e28c67a61f", "rental_uris": {"android": "https://dc.lft.to/lastmile_qr_scan", "ios": "https://dc.lft.to/lastmile_qr_scan"}, "name": "967080adcc9678bec9da50e28c67a61f", "is_reserved": 0}, {"is_disabled": 0, "fusion_lon": 0.0, "fusion_lat": 0.0, "lat": 38.90871766666667, "type": "electric_scooter", "lon": -77.030115, "bike_id": "d99bdaead5613ea0010a624da408027d", "rental_uris": {"android": "https://dc.lft.to/lastmile_qr_scan", "ios": "https://dc.lft.to/lastmile_qr_scan"}, "name": "d99bdaead5613ea0010a624da408027d", "is_reserved": 0}, {"is_disabled": 0, "fusion_lon": 0.0, "fusion_lat": 0.0, "lat": 39.02296233333333, "type": "electric_bike", "lon": -77.02102516666666, "bike_id": "b0505458946b623fec0c28bd3deaf8e1", "rental_uris": {"android": "https://dc.lft.to/lastmile_qr_scan", "ios": "https://dc.lft.to/lastmile_qr_scan"}, "name": "b0505458946b623fec0c28bd3deaf8e1", "is_reserved": 0}, {"is_disabled": 0, "fusion_lon": 0.0, "fusion_lat": 0.0, "lat": 38.89841233333333, "type": "electric_scooter", "lon": -76.94495183333333, "bike_id": "84edd44017649bdd1f51eefb530e3213", "rental_uris": {"android": "https://dc.lft.to/lastmile_qr_scan", "ios": "https://dc.lft.to/lastmile_qr_scan"}, "name": "84edd44017649bdd1f51eefb530e3213", "is_reserved": 0}, {"is_disabled": 0, "fusion_lon": 0.0, "fusion_lat": 0.0, "lat": 38.888793166666666, "type": "electric_bike", "lon": -77.02855716666667, "bike_id": "5528a3f39674c5cc378edc34a5d56418", "rental_uris": {"android": "https://dc.lft.to/lastmile_qr_scan", "ios": "https://dc.lft.to/lastmile_qr_scan"}, "name": "5528a3f39674c5cc378edc34a5d56418", "is_reserved": 0}, {"is_disabled": 0, "fusion_lon": 0.0, "fusion_lat": 0.0, "lat": 38.9097085, "type": "electric_scooter", "lon": -77.04805683333333, "bike_id": "06a67ae15ff857051569d8e9be728582", "rental_uris": {"android": "https://dc.lft.to/lastmile_qr_scan", "ios": "https://dc.lft.to/lastmile_qr_scan"}, "name": "06a67ae15ff857051569d8e9be728582", "is_reserved": 0}, {"is_disabled": 0, "fusion_lon": 0.0, "fusion_lat": 0.0, "lat": 38.8318865, "type": "electric_bike", "lon": -77.076838, "bike_id": "2a7ea4aea81af38bd1e485eb9793388d", "rental_uris": {"android": "https://dc.lft.to/lastmile_qr_scan", "ios": "https://dc.lft.to/lastmile_qr_scan"}, "name": "2a7ea4aea81af38bd1e485eb9793388d", "is_reserved": 0}, {"is_disabled": 0, "fusion_lon": 0.0, "fusion_lat": 0.0, "lat": 38.955580499999996, "type": "electric_bike", "lon": -76.9354025, "bike_id": "ef997e4c66fbadbc81abeb888d7251a1", "rental_uris": {"android": "https://dc.lft.to/lastmile_qr_scan", "ios": "https://dc.lft.to/lastmile_qr_scan"}, "name": "ef997e4c66fbadbc81abeb888d7251a1", "is_reserved": 0}, {"is_disabled": 0, "fusion_lon": 0.0, "fusion_lat": 0.0, "lat": 38.90961316666667, "type": "electric_scooter", "lon": -77.022801, "bike_id": "320daf26bbe1e3ec502c3bdb813cd460", "rental_uris": {"android": "https://dc.lft.to/lastmile_qr_scan", "ios": "https://dc.lft.to/lastmile_qr_scan"}, "name": "320daf26bbe1e3ec502c3bdb813cd460", "is_reserved": 0}, {"is_disabled": 0, "fusion_lon": 0.0, "fusion_lat": 0.0, "lat": 38.9259025, "type": "electric_scooter", "lon": -77.0553365, "bike_id": "ab9843740e3b9454a784f8108eefb548", "rental_uris": {"android": "https://dc.lft.to/lastmile_qr_scan", "ios": "https://dc.lft.to/lastmile_qr_scan"}, "name": "ab9843740e3b9454a784f8108eefb548", "is_reserved": 0}, {"is_disabled": 0, "fusion_lon": 0.0, "fusion_lat": 0.0, "lat": 38.91556116666667, "type": "electric_scooter", "lon": -77.0380285, "bike_id": "b00d9be2f92e2d0ca4f2ae83785b6058", "rental_uris": {"android": "https://dc.lft.to/lastmile_qr_scan", "ios": "https://dc.lft.to/lastmile_qr_scan"}, "name": "b00d9be2f92e2d0ca4f2ae83785b6058", "is_reserved": 0}, {"is_disabled": 0, "fusion_lon": 0.0, "fusion_lat": 0.0, "lat": 38.83317816666667, "type": "electric_scooter", "lon": -77.0001015, "bike_id": "4f9d39342d615e57c27692237a114cee", "rental_uris": {"android": "https://dc.lft.to/lastmile_qr_scan", "ios": "https://dc.lft.to/lastmile_qr_scan"}, "name": "4f9d39342d615e57c27692237a114cee", "is_reserved": 0}, {"is_disabled": 0, "fusion_lon": 0.0, "fusion_lat": 0.0, "lat": 38.88676483333333, "type": "electric_scooter", "lon": -77.0019995, "bike_id": "1b532263841f5a71653e61183bc1f6b6", "rental_uris": {"android": "https://dc.lft.to/lastmile_qr_scan", "ios": "https://dc.lft.to/lastmile_qr_scan"}, "name": "1b532263841f5a71653e61183bc1f6b6", "is_reserved": 0}, {"is_disabled": 0, "fusion_lon": 0.0, "fusion_lat": 0.0, "lat": 38.87480816666667, "type": "electric_scooter", "lon": -77.0106825, "bike_id": "9c29db248193f26b86dbc91f93c4df19", "rental_uris": {"android": "https://dc.lft.to/lastmile_qr_scan", "ios": "https://dc.lft.to/lastmile_qr_scan"}, "name": "9c29db248193f26b86dbc91f93c4df19", "is_reserved": 0}, {"is_disabled": 0, "fusion_lon": 0.0, "fusion_lat": 0.0, "lat": 38.95172816666667, "type": "electric_scooter", "lon": -77.0565535, "bike_id": "52d5ccf835300ce630c7e69768b0bc42", "rental_uris": {"android": "https://dc.lft.to/lastmile_qr_scan", "ios": "https://dc.lft.to/lastmile_qr_scan"}, "name": "52d5ccf835300ce630c7e69768b0bc42", "is_reserved": 0}, {"is_disabled": 0, "fusion_lon": 0.0, "fusion_lat": 0.0, "lat": 38.91334716666667, "type": "electric_scooter", "lon": -77.04860666666667, "bike_id": "8efa38bee32ce3a9f03adf331e6f9e4b", "rental_uris": {"android": "https://dc.lft.to/lastmile_qr_scan", "ios": "https://dc.lft.to/lastmile_qr_scan"}, "name": "8efa38bee32ce3a9f03adf331e6f9e4b", "is_reserved": 0}, {"is_disabled": 0, "fusion_lon": 0.0, "fusion_lat": 0.0, "lat": 38.8287265, "type": "electric_bike", "lon": -77.11223183333334, "bike_id": "929564230b7196da77015dd12e7563cf", "rental_uris": {"android": "https://dc.lft.to/lastmile_qr_scan", "ios": "https://dc.lft.to/lastmile_qr_scan"}, "name": "929564230b7196da77015dd12e7563cf", "is_reserved": 0}, {"is_disabled": 0, "fusion_lon": 0.0, "fusion_lat": 0.0, "lat": 38.88965966666667, "type": "electric_bike", "lon": -76.94863566666666, "bike_id": "1dcafded01f00daa2b292d321e0e1022", "rental_uris": {"android": "https://dc.lft.to/lastmile_qr_scan", "ios": "https://dc.lft.to/lastmile_qr_scan"}, "name": "1dcafded01f00daa2b292d321e0e1022", "is_reserved": 0}, {"is_disabled": 0, "fusion_lon": 0.0, "fusion_lat": 0.0, "lat": 38.932922, "type": "electric_scooter", "lon": -77.0239165, "bike_id": "3b68c671c052d696ef87217ef92b33ff", "rental_uris": {"android": "https://dc.lft.to/lastmile_qr_scan", "ios": "https://dc.lft.to/lastmile_qr_scan"}, "name": "3b68c671c052d696ef87217ef92b33ff", "is_reserved": 0}, {"is_disabled": 0, "fusion_lon": 0.0, "fusion_lat": 0.0, "lat": 38.91991383333333, "type": "electric_scooter", "lon": -77.0328375, "bike_id": "34aefbb21400dbd65c4ba95c3f06f9dc", "rental_uris": {"android": "https://dc.lft.to/lastmile_qr_scan", "ios": "https://dc.lft.to/lastmile_qr_scan"}, "name": "34aefbb21400dbd65c4ba95c3f06f9dc", "is_reserved": 0}, {"is_disabled": 0, "fusion_lon": 0.0, "fusion_lat": 0.0, "lat": 38.9757145, "type": "electric_bike", "lon": -76.96402766666667, "bike_id": "e10441eff6df4cb9932b51182feeeff0", "rental_uris": {"android": "https://dc.lft.to/lastmile_qr_scan", "ios": "https://dc.lft.to/lastmile_qr_scan"}, "name": "e10441eff6df4cb9932b51182feeeff0", "is_reserved": 0}, {"is_disabled": 0, "fusion_lon": 0.0, "fusion_lat": 0.0, "lat": 38.907774833333335, "type": "electric_scooter", "lon": -77.03261683333334, "bike_id": "cc9c11c66616f9e3903e70bc368027fd", "rental_uris": {"android": "https://dc.lft.to/lastmile_qr_scan", "ios": "https://dc.lft.to/lastmile_qr_scan"}, "name": "cc9c11c66616f9e3903e70bc368027fd", "is_reserved": 0}, {"is_disabled": 0, "fusion_lon": 0.0, "fusion_lat": 0.0, "lat": 38.88817983333333, "type": "electric_bike", "lon": -77.1273835, "bike_id": "25be6cee722b2d75f532f13a34ba9a65", "rental_uris": {"android": "https://dc.lft.to/lastmile_qr_scan", "ios": "https://dc.lft.to/lastmile_qr_scan"}, "name": "25be6cee722b2d75f532f13a34ba9a65", "is_reserved": 0}, {"is_disabled": 0, "fusion_lon": 0.0, "fusion_lat": 0.0, "lat": 38.90823733333333, "type": "electric_bike", "lon": -76.94156083333333, "bike_id": "797370378d17b36cb8b09bdeabcdc0db", "rental_uris": {"android": "https://dc.lft.to/lastmile_qr_scan", "ios": "https://dc.lft.to/lastmile_qr_scan"}, "name": "797370378d17b36cb8b09bdeabcdc0db", "is_reserved": 0}, {"is_disabled": 0, "fusion_lon": 0.0, "fusion_lat": 0.0, "lat": 38.88736466666667, "type": "electric_scooter", "lon": -77.02272383333333, "bike_id": "ead946a9883dffad0e98bfb2b6f353aa", "rental_uris": {"android": "https://dc.lft.to/lastmile_qr_scan", "ios": "https://dc.lft.to/lastmile_qr_scan"}, "name": "ead946a9883dffad0e98bfb2b6f353aa", "is_reserved": 0}, {"is_disabled": 0, "fusion_lon": 0.0, "fusion_lat": 0.0, "lat": 38.99088733333333, "type": "electric_bike", "lon": -76.87496883333333, "bike_id": "616d880d7033f9af60513459803869c3", "rental_uris": {"android": "https://dc.lft.to/lastmile_qr_scan", "ios": "https://dc.lft.to/lastmile_qr_scan"}, "name": "616d880d7033f9af60513459803869c3", "is_reserved": 0}, {"is_disabled": 0, "fusion_lon": 0.0, "fusion_lat": 0.0, "lat": 38.89218116666667, "type": "electric_scooter", "lon": -77.03214316666667, "bike_id": "a4233c5123c9695a8edf84b6b6fb9838", "rental_uris": {"android": "https://dc.lft.to/lastmile_qr_scan", "ios": "https://dc.lft.to/lastmile_qr_scan"}, "name": "a4233c5123c9695a8edf84b6b6fb9838", "is_reserved": 0}, {"is_disabled": 0, "fusion_lon": 0.0, "fusion_lat": 0.0, "lat": 38.915979666666665, "type": "electric_scooter", "lon": -77.02346683333333, "bike_id": "cf6267598f995f21ef25af52e32f6fe3", "rental_uris": {"android": "https://dc.lft.to/lastmile_qr_scan", "ios": "https://dc.lft.to/lastmile_qr_scan"}, "name": "cf6267598f995f21ef25af52e32f6fe3", "is_reserved": 0}, {"is_disabled": 0, "fusion_lon": 0.0, "fusion_lat": 0.0, "lat": 38.90751266666667, "type": "electric_scooter", "lon": -77.03845916666667, "bike_id": "5d0495ffa311766f89d2feabd87b737a", "rental_uris": {"android": "https://dc.lft.to/lastmile_qr_scan", "ios": "https://dc.lft.to/lastmile_qr_scan"}, "name": "5d0495ffa311766f89d2feabd87b737a", "is_reserved": 0}, {"is_disabled": 0, "fusion_lon": 0.0, "fusion_lat": 0.0, "lat": 38.880098833333335, "type": "electric_scooter", "lon": -77.02424866666667, "bike_id": "c179edf76b4dde2f16f23e6eae34b8ee", "rental_uris": {"android": "https://dc.lft.to/lastmile_qr_scan", "ios": "https://dc.lft.to/lastmile_qr_scan"}, "name": "c179edf76b4dde2f16f23e6eae34b8ee", "is_reserved": 0}, {"is_disabled": 0, "fusion_lon": 0.0, "fusion_lat": 0.0, "lat": 38.91633233333334, "type": "electric_scooter", "lon": -77.046209, "bike_id": "ce0330e04413613574e24ca45985854b", "rental_uris": {"android": "https://dc.lft.to/lastmile_qr_scan", "ios": "https://dc.lft.to/lastmile_qr_scan"}, "name": "ce0330e04413613574e24ca45985854b", "is_reserved": 0}, {"is_disabled": 0, "fusion_lon": 0.0, "fusion_lat": 0.0, "lat": 38.9180245, "type": "electric_scooter", "lon": -77.0244365, "bike_id": "c5ed1f899e5ead45e61609ccd229e4db", "rental_uris": {"android": "https://dc.lft.to/lastmile_qr_scan", "ios": "https://dc.lft.to/lastmile_qr_scan"}, "name": "c5ed1f899e5ead45e61609ccd229e4db", "is_reserved": 0}, {"is_disabled": 0, "fusion_lon": 0.0, "fusion_lat": 0.0, "lat": 38.9243585, "type": "electric_scooter", "lon": -77.0403105, "bike_id": "d1cd62c6a45fe3977dffbc48fee5c15c", "rental_uris": {"android": "https://dc.lft.to/lastmile_qr_scan", "ios": "https://dc.lft.to/lastmile_qr_scan"}, "name": "d1cd62c6a45fe3977dffbc48fee5c15c", "is_reserved": 0}, {"is_disabled": 0, "fusion_lon": 0.0, "fusion_lat": 0.0, "lat": 38.930413, "type": "electric_scooter", "lon": -77.036176, "bike_id": "077256689e6d6d410295143554889922", "rental_uris": {"android": "https://dc.lft.to/lastmile_qr_scan", "ios": "https://dc.lft.to/lastmile_qr_scan"}, "name": "077256689e6d6d410295143554889922", "is_reserved": 0}, {"is_disabled": 0, "fusion_lon": 0.0, "fusion_lat": 0.0, "lat": 38.92031933333333, "type": "electric_scooter", "lon": -77.02585166666667, "bike_id": "7fd9ba98248ec22cf0c590c8f3a78999", "rental_uris": {"android": "https://dc.lft.to/lastmile_qr_scan", "ios": "https://dc.lft.to/lastmile_qr_scan"}, "name": "7fd9ba98248ec22cf0c590c8f3a78999", "is_reserved": 0}, {"is_disabled": 0, "fusion_lon": 0.0, "fusion_lat": 0.0, "lat": 38.956264166666664, "type": "electric_scooter", "lon": -77.02459266666666, "bike_id": "bc52127294a991cb22f28db6400d03ab", "rental_uris": {"android": "https://dc.lft.to/lastmile_qr_scan", "ios": "https://dc.lft.to/lastmile_qr_scan"}, "name": "bc52127294a991cb22f28db6400d03ab", "is_reserved": 0}, {"is_disabled": 0, "fusion_lon": 0.0, "fusion_lat": 0.0, "lat": 38.903562666666666, "type": "electric_scooter", "lon": -77.007424, "bike_id": "d2da05a95ac1309a27ed58d737f7d5b7", "rental_uris": {"android": "https://dc.lft.to/lastmile_qr_scan", "ios": "https://dc.lft.to/lastmile_qr_scan"}, "name": "d2da05a95ac1309a27ed58d737f7d5b7", "is_reserved": 0}, {"is_disabled": 0, "fusion_lon": 0.0, "fusion_lat": 0.0, "lat": 38.86340233333333, "type": "electric_scooter", "lon": -76.9825925, "bike_id": "1aee786afc1d6f5e3f8d9d8c6571fd76", "rental_uris": {"android": "https://dc.lft.to/lastmile_qr_scan", "ios": "https://dc.lft.to/lastmile_qr_scan"}, "name": "1aee786afc1d6f5e3f8d9d8c6571fd76", "is_reserved": 0}, {"is_disabled": 0, "fusion_lon": 0.0, "fusion_lat": 0.0, "lat": 38.895253833333335, "type": "electric_scooter", "lon": -77.02836783333333, "bike_id": "12c0606447e825e1ad635a44739b7cc1", "rental_uris": {"android": "https://dc.lft.to/lastmile_qr_scan", "ios": "https://dc.lft.to/lastmile_qr_scan"}, "name": "12c0606447e825e1ad635a44739b7cc1", "is_reserved": 0}, {"is_disabled": 0, "fusion_lon": 0.0, "fusion_lat": 0.0, "lat": 38.952108333333335, "type": "electric_scooter", "lon": -77.0363015, "bike_id": "e5016f4dce68b6ef954ccf829231b71e", "rental_uris": {"android": "https://dc.lft.to/lastmile_qr_scan", "ios": "https://dc.lft.to/lastmile_qr_scan"}, "name": "e5016f4dce68b6ef954ccf829231b71e", "is_reserved": 0}, {"is_disabled": 0, "fusion_lon": 0.0, "fusion_lat": 0.0, "lat": 38.98825216666667, "type": "electric_bike", "lon": -76.9875325, "bike_id": "623da41f9a80a1113fbdf537edca001c", "rental_uris": {"android": "https://dc.lft.to/lastmile_qr_scan", "ios": "https://dc.lft.to/lastmile_qr_scan"}, "name": "623da41f9a80a1113fbdf537edca001c", "is_reserved": 0}, {"is_disabled": 0, "fusion_lon": 0.0, "fusion_lat": 0.0, "lat": 38.907003333333336, "type": "electric_scooter", "lon": -77.02693716666667, "bike_id": "9c4146eceff5e7af55c9ad678f578f7a", "rental_uris": {"android": "https://dc.lft.to/lastmile_qr_scan", "ios": "https://dc.lft.to/lastmile_qr_scan"}, "name": "9c4146eceff5e7af55c9ad678f578f7a", "is_reserved": 0}, {"is_disabled": 0, "fusion_lon": 0.0, "fusion_lat": 0.0, "lat": 38.90952216666667, "type": "electric_scooter", "lon": -77.03282866666666, "bike_id": "1080a42d19bf48e88142d7793d05c5f7", "rental_uris": {"android": "https://dc.lft.to/lastmile_qr_scan", "ios": "https://dc.lft.to/lastmile_qr_scan"}, "name": "1080a42d19bf48e88142d7793d05c5f7", "is_reserved": 0}, {"is_disabled": 0, "fusion_lon": 0.0, "fusion_lat": 0.0, "lat": 38.920338, "type": "electric_scooter", "lon": -77.02587383333334, "bike_id": "5328a6d7b397ed4db90744bb70573fcb", "rental_uris": {"android": "https://dc.lft.to/lastmile_qr_scan", "ios": "https://dc.lft.to/lastmile_qr_scan"}, "name": "5328a6d7b397ed4db90744bb70573fcb", "is_reserved": 0}, {"is_disabled": 0, "fusion_lon": 0.0, "fusion_lat": 0.0, "lat": 38.88513966666667, "type": "electric_scooter", "lon": -76.998447, "bike_id": "1af394252a57c6bfd44c00b29183e4d8", "rental_uris": {"android": "https://dc.lft.to/lastmile_qr_scan", "ios": "https://dc.lft.to/lastmile_qr_scan"}, "name": "1af394252a57c6bfd44c00b29183e4d8", "is_reserved": 0}, {"is_disabled": 0, "fusion_lon": 0.0, "fusion_lat": 0.0, "lat": 38.875421333333335, "type": "electric_scooter", "lon": -77.00537766666666, "bike_id": "e701d55405f2d2e22d2946def2c0a0c4", "rental_uris": {"android": "https://dc.lft.to/lastmile_qr_scan", "ios": "https://dc.lft.to/lastmile_qr_scan"}, "name": "e701d55405f2d2e22d2946def2c0a0c4", "is_reserved": 0}, {"is_disabled": 0, "fusion_lon": 0.0, "fusion_lat": 0.0, "lat": 38.936984333333335, "type": "electric_scooter", "lon": -77.055974, "bike_id": "41fb09d512509564f158ef6eb8d90239", "rental_uris": {"android": "https://dc.lft.to/lastmile_qr_scan", "ios": "https://dc.lft.to/lastmile_qr_scan"}, "name": "41fb09d512509564f158ef6eb8d90239", "is_reserved": 0}, {"is_disabled": 0, "fusion_lon": 0.0, "fusion_lat": 0.0, "lat": 38.85648233333333, "type": "electric_bike", "lon": -77.0852735, "bike_id": "d0a7fc4143a164d3231d1968258346ce", "rental_uris": {"android": "https://dc.lft.to/lastmile_qr_scan", "ios": "https://dc.lft.to/lastmile_qr_scan"}, "name": "d0a7fc4143a164d3231d1968258346ce", "is_reserved": 0}, {"is_disabled": 0, "fusion_lon": 0.0, "fusion_lat": 0.0, "lat": 38.90373566666667, "type": "electric_scooter", "lon": -77.0535615, "bike_id": "b2ec692ccb1bd90f21cb8a71cd9b4934", "rental_uris": {"android": "https://dc.lft.to/lastmile_qr_scan", "ios": "https://dc.lft.to/lastmile_qr_scan"}, "name": "b2ec692ccb1bd90f21cb8a71cd9b4934", "is_reserved": 0}, {"is_disabled": 0, "fusion_lon": 0.0, "fusion_lat": 0.0, "lat": 38.913133333333334, "type": "electric_scooter", "lon": -77.01434416666666, "bike_id": "21c1b7d919c18cc4443567980a30c6e9", "rental_uris": {"android": "https://dc.lft.to/lastmile_qr_scan", "ios": "https://dc.lft.to/lastmile_qr_scan"}, "name": "21c1b7d919c18cc4443567980a30c6e9", "is_reserved": 0}, {"is_disabled": 0, "fusion_lon": 0.0, "fusion_lat": 0.0, "lat": 38.88609066666667, "type": "electric_scooter", "lon": -77.005735, "bike_id": "4a80b89e1d2ed7f80c1ec0cc07baccc8", "rental_uris": {"android": "https://dc.lft.to/lastmile_qr_scan", "ios": "https://dc.lft.to/lastmile_qr_scan"}, "name": "4a80b89e1d2ed7f80c1ec0cc07baccc8", "is_reserved": 0}, {"is_disabled": 0, "fusion_lon": 0.0, "fusion_lat": 0.0, "lat": 38.8493065, "type": "electric_bike", "lon": -77.1001645, "bike_id": "a15692ea28494ba8e5fd85c2fa08d4a3", "rental_uris": {"android": "https://dc.lft.to/lastmile_qr_scan", "ios": "https://dc.lft.to/lastmile_qr_scan"}, "name": "a15692ea28494ba8e5fd85c2fa08d4a3", "is_reserved": 0}, {"is_disabled": 0, "fusion_lon": 0.0, "fusion_lat": 0.0, "lat": 38.8705645, "type": "electric_scooter", "lon": -76.98088266666667, "bike_id": "10a4f99179de87b2c5632cb0a23e9d8e", "rental_uris": {"android": "https://dc.lft.to/lastmile_qr_scan", "ios": "https://dc.lft.to/lastmile_qr_scan"}, "name": "10a4f99179de87b2c5632cb0a23e9d8e", "is_reserved": 0}, {"is_disabled": 0, "fusion_lon": 0.0, "fusion_lat": 0.0, "lat": 38.95635516666667, "type": "electric_scooter", "lon": -77.090986, "bike_id": "781233b0e7dadaa0fb66aec6cbd2a4e3", "rental_uris": {"android": "https://dc.lft.to/lastmile_qr_scan", "ios": "https://dc.lft.to/lastmile_qr_scan"}, "name": "781233b0e7dadaa0fb66aec6cbd2a4e3", "is_reserved": 0}, {"is_disabled": 0, "fusion_lon": 0.0, "fusion_lat": 0.0, "lat": 38.88684933333333, "type": "electric_scooter", "lon": -76.98799566666666, "bike_id": "cf37397cfdd60498131d0c48b9cc3198", "rental_uris": {"android": "https://dc.lft.to/lastmile_qr_scan", "ios": "https://dc.lft.to/lastmile_qr_scan"}, "name": "cf37397cfdd60498131d0c48b9cc3198", "is_reserved": 0}, {"is_disabled": 0, "fusion_lon": 0.0, "fusion_lat": 0.0, "lat": 38.92111633333333, "type": "electric_scooter", "lon": -77.03184833333333, "bike_id": "1e8e22af46fbf679c9b1c88513207b4b", "rental_uris": {"android": "https://dc.lft.to/lastmile_qr_scan", "ios": "https://dc.lft.to/lastmile_qr_scan"}, "name": "1e8e22af46fbf679c9b1c88513207b4b", "is_reserved": 0}, {"is_disabled": 0, "fusion_lon": 0.0, "fusion_lat": 0.0, "lat": 38.907625333333336, "type": "electric_scooter", "lon": -77.00099566666667, "bike_id": "28ceb4fea35881e48df697c14d2398d8", "rental_uris": {"android": "https://dc.lft.to/lastmile_qr_scan", "ios": "https://dc.lft.to/lastmile_qr_scan"}, "name": "28ceb4fea35881e48df697c14d2398d8", "is_reserved": 0}, {"is_disabled": 0, "fusion_lon": 0.0, "fusion_lat": 0.0, "lat": 38.91698183333333, "type": "electric_scooter", "lon": -77.01167533333333, "bike_id": "8ffdee4a6f51198d5c44719d9ab253ea", "rental_uris": {"android": "https://dc.lft.to/lastmile_qr_scan", "ios": "https://dc.lft.to/lastmile_qr_scan"}, "name": "8ffdee4a6f51198d5c44719d9ab253ea", "is_reserved": 0}, {"is_disabled": 0, "fusion_lon": 0.0, "fusion_lat": 0.0, "lat": 38.947501, "type": "electric_scooter", "lon": -77.02980066666667, "bike_id": "accaff89f6494819e5022cdc1dec63ad", "rental_uris": {"android": "https://dc.lft.to/lastmile_qr_scan", "ios": "https://dc.lft.to/lastmile_qr_scan"}, "name": "accaff89f6494819e5022cdc1dec63ad", "is_reserved": 0}, {"is_disabled": 0, "fusion_lon": 0.0, "fusion_lat": 0.0, "lat": 38.931092166666666, "type": "electric_scooter", "lon": -77.01247633333334, "bike_id": "ac9e5df7f0821705bd6cf6cd35811cf9", "rental_uris": {"android": "https://dc.lft.to/lastmile_qr_scan", "ios": "https://dc.lft.to/lastmile_qr_scan"}, "name": "ac9e5df7f0821705bd6cf6cd35811cf9", "is_reserved": 0}, {"is_disabled": 0, "fusion_lon": 0.0, "fusion_lat": 0.0, "lat": 38.897659166666664, "type": "electric_scooter", "lon": -76.99268066666667, "bike_id": "aeb524638461b3deb226eb060759699a", "rental_uris": {"android": "https://dc.lft.to/lastmile_qr_scan", "ios": "https://dc.lft.to/lastmile_qr_scan"}, "name": "aeb524638461b3deb226eb060759699a", "is_reserved": 0}, {"is_disabled": 0, "fusion_lon": 0.0, "fusion_lat": 0.0, "lat": 38.90503183333333, "type": "electric_scooter", "lon": -77.049732, "bike_id": "6e424bead72dbaa418d00d721f94dc36", "rental_uris": {"android": "https://dc.lft.to/lastmile_qr_scan", "ios": "https://dc.lft.to/lastmile_qr_scan"}, "name": "6e424bead72dbaa418d00d721f94dc36", "is_reserved": 0}, {"is_disabled": 0, "fusion_lon": 0.0, "fusion_lat": 0.0, "lat": 38.90954583333333, "type": "electric_scooter", "lon": -77.04522233333333, "bike_id": "9203492e6653dc837a9ea2daebd04193", "rental_uris": {"android": "https://dc.lft.to/lastmile_qr_scan", "ios": "https://dc.lft.to/lastmile_qr_scan"}, "name": "9203492e6653dc837a9ea2daebd04193", "is_reserved": 0}, {"is_disabled": 0, "fusion_lon": 0.0, "fusion_lat": 0.0, "lat": 38.927466, "type": "electric_scooter", "lon": -77.0248475, "bike_id": "fdc952cbf81dce280c889489687d6937", "rental_uris": {"android": "https://dc.lft.to/lastmile_qr_scan", "ios": "https://dc.lft.to/lastmile_qr_scan"}, "name": "fdc952cbf81dce280c889489687d6937", "is_reserved": 0}, {"is_disabled": 0, "fusion_lon": 0.0, "fusion_lat": 0.0, "lat": 38.90733183333333, "type": "electric_scooter", "lon": -77.03450716666667, "bike_id": "329f6f911c2a8ae0a97bd364bc4cb46c", "rental_uris": {"android": "https://dc.lft.to/lastmile_qr_scan", "ios": "https://dc.lft.to/lastmile_qr_scan"}, "name": "329f6f911c2a8ae0a97bd364bc4cb46c", "is_reserved": 0}, {"is_disabled": 0, "fusion_lon": 0.0, "fusion_lat": 0.0, "lat": 38.903549166666664, "type": "electric_scooter", "lon": -77.03911216666667, "bike_id": "68bbe3a775ccc9c132cbbe8954f2b07a", "rental_uris": {"android": "https://dc.lft.to/lastmile_qr_scan", "ios": "https://dc.lft.to/lastmile_qr_scan"}, "name": "68bbe3a775ccc9c132cbbe8954f2b07a", "is_reserved": 0}, {"is_disabled": 0, "fusion_lon": 0.0, "fusion_lat": 0.0, "lat": 39.0958795, "type": "electric_bike", "lon": -77.14778166666666, "bike_id": "36def706f7426acaf91326de441a57a0", "rental_uris": {"android": "https://dc.lft.to/lastmile_qr_scan", "ios": "https://dc.lft.to/lastmile_qr_scan"}, "name": "36def706f7426acaf91326de441a57a0", "is_reserved": 0}, {"is_disabled": 0, "fusion_lon": 0.0, "fusion_lat": 0.0, "lat": 38.895002833333336, "type": "electric_scooter", "lon": -76.94876983333333, "bike_id": "4018f28ed39646c95154cc30fb0948c3", "rental_uris": {"android": "https://dc.lft.to/lastmile_qr_scan", "ios": "https://dc.lft.to/lastmile_qr_scan"}, "name": "4018f28ed39646c95154cc30fb0948c3", "is_reserved": 0}, {"is_disabled": 0, "fusion_lon": 0.0, "fusion_lat": 0.0, "lat": 38.919370666666666, "type": "electric_scooter", "lon": -77.08130616666666, "bike_id": "d908206ea0c1d3776b81b4dca89dd93f", "rental_uris": {"android": "https://dc.lft.to/lastmile_qr_scan", "ios": "https://dc.lft.to/lastmile_qr_scan"}, "name": "d908206ea0c1d3776b81b4dca89dd93f", "is_reserved": 0}, {"is_disabled": 0, "fusion_lon": 0.0, "fusion_lat": 0.0, "lat": 38.90002666666667, "type": "electric_scooter", "lon": -77.03213366666667, "bike_id": "44486b5f2ed91c290257f28cd186136e", "rental_uris": {"android": "https://dc.lft.to/lastmile_qr_scan", "ios": "https://dc.lft.to/lastmile_qr_scan"}, "name": "44486b5f2ed91c290257f28cd186136e", "is_reserved": 0}, {"is_disabled": 0, "fusion_lon": 0.0, "fusion_lat": 0.0, "lat": 38.85526566666667, "type": "electric_bike", "lon": -77.107162, "bike_id": "0531cef97fe6ce444c4888ede9d7cd67", "rental_uris": {"android": "https://dc.lft.to/lastmile_qr_scan", "ios": "https://dc.lft.to/lastmile_qr_scan"}, "name": "0531cef97fe6ce444c4888ede9d7cd67", "is_reserved": 0}, {"is_disabled": 0, "fusion_lon": 0.0, "fusion_lat": 0.0, "lat": 38.89841233333333, "type": "electric_scooter", "lon": -76.9456195, "bike_id": "c099ff7161d18389b4563cd096ff1efc", "rental_uris": {"android": "https://dc.lft.to/lastmile_qr_scan", "ios": "https://dc.lft.to/lastmile_qr_scan"}, "name": "c099ff7161d18389b4563cd096ff1efc", "is_reserved": 0}, {"is_disabled": 0, "fusion_lon": 0.0, "fusion_lat": 0.0, "lat": 38.8603, "type": "electric_scooter", "lon": -76.99693, "bike_id": "d725c7a449b26250f143de7627be5305", "rental_uris": {"android": "https://dc.lft.to/lastmile_qr_scan", "ios": "https://dc.lft.to/lastmile_qr_scan"}, "name": "d725c7a449b26250f143de7627be5305", "is_reserved": 0}, {"is_disabled": 0, "fusion_lon": 0.0, "fusion_lat": 0.0, "lat": 38.90632733333333, "type": "electric_scooter", "lon": -77.0249835, "bike_id": "ff8154424fc19fa6973c9e94636c1827", "rental_uris": {"android": "https://dc.lft.to/lastmile_qr_scan", "ios": "https://dc.lft.to/lastmile_qr_scan"}, "name": "ff8154424fc19fa6973c9e94636c1827", "is_reserved": 0}, {"is_disabled": 0, "fusion_lon": 0.0, "fusion_lat": 0.0, "lat": 38.9993175, "type": "electric_bike", "lon": -77.00123683333334, "bike_id": "eb00df1caa341670f96585c8de867241", "rental_uris": {"android": "https://dc.lft.to/lastmile_qr_scan", "ios": "https://dc.lft.to/lastmile_qr_scan"}, "name": "eb00df1caa341670f96585c8de867241", "is_reserved": 0}, {"is_disabled": 0, "fusion_lon": 0.0, "fusion_lat": 0.0, "lat": 38.85915766666667, "type": "electric_scooter", "lon": -76.98781816666667, "bike_id": "4d4f33ea8269d56fdaa90e25b53e852d", "rental_uris": {"android": "https://dc.lft.to/lastmile_qr_scan", "ios": "https://dc.lft.to/lastmile_qr_scan"}, "name": "4d4f33ea8269d56fdaa90e25b53e852d", "is_reserved": 0}, {"is_disabled": 0, "fusion_lon": 0.0, "fusion_lat": 0.0, "lat": 38.93114883333333, "type": "electric_scooter", "lon": -77.02359533333333, "bike_id": "36a42eb529fd7ef49845fc410f035cdb", "rental_uris": {"android": "https://dc.lft.to/lastmile_qr_scan", "ios": "https://dc.lft.to/lastmile_qr_scan"}, "name": "36a42eb529fd7ef49845fc410f035cdb", "is_reserved": 0}, {"is_disabled": 0, "fusion_lon": 0.0, "fusion_lat": 0.0, "lat": 38.90521316666667, "type": "electric_scooter", "lon": -77.06518266666667, "bike_id": "5b0746d0c71562ebb485a733876364b3", "rental_uris": {"android": "https://dc.lft.to/lastmile_qr_scan", "ios": "https://dc.lft.to/lastmile_qr_scan"}, "name": "5b0746d0c71562ebb485a733876364b3", "is_reserved": 0}, {"is_disabled": 0, "fusion_lon": 0.0, "fusion_lat": 0.0, "lat": 38.92318616666667, "type": "electric_scooter", "lon": -77.04521983333333, "bike_id": "3143c245fc865147d6e749bec94159a2", "rental_uris": {"android": "https://dc.lft.to/lastmile_qr_scan", "ios": "https://dc.lft.to/lastmile_qr_scan"}, "name": "3143c245fc865147d6e749bec94159a2", "is_reserved": 0}, {"is_disabled": 0, "fusion_lon": 0.0, "fusion_lat": 0.0, "lat": 38.92270633333333, "type": "electric_scooter", "lon": -77.04237233333333, "bike_id": "0f51e5ba13baa2fc382d093c9437dbc5", "rental_uris": {"android": "https://dc.lft.to/lastmile_qr_scan", "ios": "https://dc.lft.to/lastmile_qr_scan"}, "name": "0f51e5ba13baa2fc382d093c9437dbc5", "is_reserved": 0}, {"is_disabled": 0, "fusion_lon": 0.0, "fusion_lat": 0.0, "lat": 38.92371216666667, "type": "electric_scooter", "lon": -77.02814666666667, "bike_id": "a397b5940be6924ee8524f2a7f64aa30", "rental_uris": {"android": "https://dc.lft.to/lastmile_qr_scan", "ios": "https://dc.lft.to/lastmile_qr_scan"}, "name": "a397b5940be6924ee8524f2a7f64aa30", "is_reserved": 0}, {"is_disabled": 0, "fusion_lon": 0.0, "fusion_lat": 0.0, "lat": 38.9281075, "type": "electric_scooter", "lon": -77.01417133333334, "bike_id": "eea93736a59f69cd96300b4b67335dcd", "rental_uris": {"android": "https://dc.lft.to/lastmile_qr_scan", "ios": "https://dc.lft.to/lastmile_qr_scan"}, "name": "eea93736a59f69cd96300b4b67335dcd", "is_reserved": 0}, {"is_disabled": 0, "fusion_lon": 0.0, "fusion_lat": 0.0, "lat": 38.93491733333333, "type": "electric_scooter", "lon": -77.02606433333334, "bike_id": "94a2cf44ea711e452d4f911f32e192ac", "rental_uris": {"android": "https://dc.lft.to/lastmile_qr_scan", "ios": "https://dc.lft.to/lastmile_qr_scan"}, "name": "94a2cf44ea711e452d4f911f32e192ac", "is_reserved": 0}, {"is_disabled": 0, "fusion_lon": 0.0, "fusion_lat": 0.0, "lat": 38.89247483333333, "type": "electric_scooter", "lon": -77.02001533333333, "bike_id": "2fb473a9c55509161dd72e90a137a9f7", "rental_uris": {"android": "https://dc.lft.to/lastmile_qr_scan", "ios": "https://dc.lft.to/lastmile_qr_scan"}, "name": "2fb473a9c55509161dd72e90a137a9f7", "is_reserved": 0}, {"is_disabled": 0, "fusion_lon": 0.0, "fusion_lat": 0.0, "lat": 38.920781, "type": "electric_scooter", "lon": -77.02299316666667, "bike_id": "a0c4166ea1bb925c7c07a3b25925562f", "rental_uris": {"android": "https://dc.lft.to/lastmile_qr_scan", "ios": "https://dc.lft.to/lastmile_qr_scan"}, "name": "a0c4166ea1bb925c7c07a3b25925562f", "is_reserved": 0}, {"is_disabled": 0, "fusion_lon": 0.0, "fusion_lat": 0.0, "lat": 38.90572683333333, "type": "electric_scooter", "lon": -77.02173583333334, "bike_id": "2e05c7b48342fb87f1614541ca8813ef", "rental_uris": {"android": "https://dc.lft.to/lastmile_qr_scan", "ios": "https://dc.lft.to/lastmile_qr_scan"}, "name": "2e05c7b48342fb87f1614541ca8813ef", "is_reserved": 0}, {"is_disabled": 0, "fusion_lon": 0.0, "fusion_lat": 0.0, "lat": 38.905721, "type": "electric_scooter", "lon": -77.04350883333333, "bike_id": "e5d722693c2a78bd1faab1f2b30ec71a", "rental_uris": {"android": "https://dc.lft.to/lastmile_qr_scan", "ios": "https://dc.lft.to/lastmile_qr_scan"}, "name": "e5d722693c2a78bd1faab1f2b30ec71a", "is_reserved": 0}, {"is_disabled": 0, "fusion_lon": 0.0, "fusion_lat": 0.0, "lat": 38.89386316666667, "type": "electric_scooter", "lon": -76.94996583333334, "bike_id": "7154b565c3882c13f1c2dc7e148fccf1", "rental_uris": {"android": "https://dc.lft.to/lastmile_qr_scan", "ios": "https://dc.lft.to/lastmile_qr_scan"}, "name": "7154b565c3882c13f1c2dc7e148fccf1", "is_reserved": 0}, {"is_disabled": 0, "fusion_lon": 0.0, "fusion_lat": 0.0, "lat": 38.91187566666667, "type": "electric_scooter", "lon": -77.03710966666667, "bike_id": "1cddd4a313ed6889590f4df17d6b654a", "rental_uris": {"android": "https://dc.lft.to/lastmile_qr_scan", "ios": "https://dc.lft.to/lastmile_qr_scan"}, "name": "1cddd4a313ed6889590f4df17d6b654a", "is_reserved": 0}, {"is_disabled": 0, "fusion_lon": 0.0, "fusion_lat": 0.0, "lat": 38.912468, "type": "electric_scooter", "lon": -77.0366525, "bike_id": "a6b1502fb3a67660f6ef07f2f7ee80e8", "rental_uris": {"android": "https://dc.lft.to/lastmile_qr_scan", "ios": "https://dc.lft.to/lastmile_qr_scan"}, "name": "a6b1502fb3a67660f6ef07f2f7ee80e8", "is_reserved": 0}, {"is_disabled": 0, "fusion_lon": 0.0, "fusion_lat": 0.0, "lat": 38.901347, "type": "electric_scooter", "lon": -77.020028, "bike_id": "f45bd9fda157b6c1b61b8734a4413cf5", "rental_uris": {"android": "https://dc.lft.to/lastmile_qr_scan", "ios": "https://dc.lft.to/lastmile_qr_scan"}, "name": "f45bd9fda157b6c1b61b8734a4413cf5", "is_reserved": 0}, {"is_disabled": 0, "fusion_lon": 0.0, "fusion_lat": 0.0, "lat": 38.956188, "type": "electric_scooter", "lon": -77.03574016666667, "bike_id": "78bff4accbf68450e5a0a3b83d1fa593", "rental_uris": {"android": "https://dc.lft.to/lastmile_qr_scan", "ios": "https://dc.lft.to/lastmile_qr_scan"}, "name": "78bff4accbf68450e5a0a3b83d1fa593", "is_reserved": 0}, {"is_disabled": 0, "fusion_lon": 0.0, "fusion_lat": 0.0, "lat": 38.91962783333334, "type": "electric_scooter", "lon": -77.02715333333333, "bike_id": "73641d752142d9f78e522d035fe39ad6", "rental_uris": {"android": "https://dc.lft.to/lastmile_qr_scan", "ios": "https://dc.lft.to/lastmile_qr_scan"}, "name": "73641d752142d9f78e522d035fe39ad6", "is_reserved": 0}, {"is_disabled": 0, "fusion_lon": 0.0, "fusion_lat": 0.0, "lat": 38.902837166666664, "type": "electric_scooter", "lon": -77.02423116666667, "bike_id": "9704a8d0ef8902ef749e90f85b10c990", "rental_uris": {"android": "https://dc.lft.to/lastmile_qr_scan", "ios": "https://dc.lft.to/lastmile_qr_scan"}, "name": "9704a8d0ef8902ef749e90f85b10c990", "is_reserved": 0}, {"is_disabled": 0, "fusion_lon": 0.0, "fusion_lat": 0.0, "lat": 38.910326, "type": "electric_scooter", "lon": -76.99338266666666, "bike_id": "d4683e68f7e563b5081768f68ae474ec", "rental_uris": {"android": "https://dc.lft.to/lastmile_qr_scan", "ios": "https://dc.lft.to/lastmile_qr_scan"}, "name": "d4683e68f7e563b5081768f68ae474ec", "is_reserved": 0}, {"is_disabled": 0, "fusion_lon": 0.0, "fusion_lat": 0.0, "lat": 38.92392316666667, "type": "electric_scooter", "lon": -77.02963066666666, "bike_id": "ec0de53af56b11e6d0d77ac39695d647", "rental_uris": {"android": "https://dc.lft.to/lastmile_qr_scan", "ios": "https://dc.lft.to/lastmile_qr_scan"}, "name": "ec0de53af56b11e6d0d77ac39695d647", "is_reserved": 0}, {"is_disabled": 0, "fusion_lon": 0.0, "fusion_lat": 0.0, "lat": 38.910803666666666, "type": "electric_scooter", "lon": -77.01512233333334, "bike_id": "3d678b8e9ac4089def598b17bb80fb02", "rental_uris": {"android": "https://dc.lft.to/lastmile_qr_scan", "ios": "https://dc.lft.to/lastmile_qr_scan"}, "name": "3d678b8e9ac4089def598b17bb80fb02", "is_reserved": 0}, {"is_disabled": 0, "fusion_lon": 0.0, "fusion_lat": 0.0, "lat": 38.9006675, "type": "electric_scooter", "lon": -77.04912066666667, "bike_id": "1a041d22b25a641be9379f4090b38474", "rental_uris": {"android": "https://dc.lft.to/lastmile_qr_scan", "ios": "https://dc.lft.to/lastmile_qr_scan"}, "name": "1a041d22b25a641be9379f4090b38474", "is_reserved": 0}, {"is_disabled": 0, "fusion_lon": 0.0, "fusion_lat": 0.0, "lat": 38.92229, "type": "electric_scooter", "lon": -76.97532016666666, "bike_id": "6ca73dec202cc18621a6e0421723ec78", "rental_uris": {"android": "https://dc.lft.to/lastmile_qr_scan", "ios": "https://dc.lft.to/lastmile_qr_scan"}, "name": "6ca73dec202cc18621a6e0421723ec78", "is_reserved": 0}, {"is_disabled": 0, "fusion_lon": 0.0, "fusion_lat": 0.0, "lat": 38.88470233333334, "type": "electric_scooter", "lon": -76.9522355, "bike_id": "7792e1162e2cba1e4f3d93a5bd6946d1", "rental_uris": {"android": "https://dc.lft.to/lastmile_qr_scan", "ios": "https://dc.lft.to/lastmile_qr_scan"}, "name": "7792e1162e2cba1e4f3d93a5bd6946d1", "is_reserved": 0}, {"is_disabled": 0, "fusion_lon": 0.0, "fusion_lat": 0.0, "lat": 38.9266785, "type": "electric_scooter", "lon": -77.10310566666666, "bike_id": "8871e2f5733b7d5b1a4a887d759d9bc0", "rental_uris": {"android": "https://dc.lft.to/lastmile_qr_scan", "ios": "https://dc.lft.to/lastmile_qr_scan"}, "name": "8871e2f5733b7d5b1a4a887d759d9bc0", "is_reserved": 0}, {"is_disabled": 0, "fusion_lon": 0.0, "fusion_lat": 0.0, "lat": 38.90717866666667, "type": "electric_scooter", "lon": -77.034361, "bike_id": "d054c3b16f3dfc3b09b3013576ac3a80", "rental_uris": {"android": "https://dc.lft.to/lastmile_qr_scan", "ios": "https://dc.lft.to/lastmile_qr_scan"}, "name": "d054c3b16f3dfc3b09b3013576ac3a80", "is_reserved": 0}, {"is_disabled": 0, "fusion_lon": 0.0, "fusion_lat": 0.0, "lat": 38.928973, "type": "electric_scooter", "lon": -77.024083, "bike_id": "3482ad6616e619531eb30159e870dfe9", "rental_uris": {"android": "https://dc.lft.to/lastmile_qr_scan", "ios": "https://dc.lft.to/lastmile_qr_scan"}, "name": "3482ad6616e619531eb30159e870dfe9", "is_reserved": 0}, {"is_disabled": 0, "fusion_lon": 0.0, "fusion_lat": 0.0, "lat": 38.925342, "type": "electric_scooter", "lon": -77.07333483333333, "bike_id": "2790299034bdef27dfbbbb52b9a8645b", "rental_uris": {"android": "https://dc.lft.to/lastmile_qr_scan", "ios": "https://dc.lft.to/lastmile_qr_scan"}, "name": "2790299034bdef27dfbbbb52b9a8645b", "is_reserved": 0}, {"is_disabled": 0, "fusion_lon": 0.0, "fusion_lat": 0.0, "lat": 38.9083875, "type": "electric_bike", "lon": -77.04023183333334, "bike_id": "ad2f4b8ecad4ba7772cce2f82e8993ac", "rental_uris": {"android": "https://dc.lft.to/lastmile_qr_scan", "ios": "https://dc.lft.to/lastmile_qr_scan"}, "name": "ad2f4b8ecad4ba7772cce2f82e8993ac", "is_reserved": 0}, {"is_disabled": 0, "fusion_lon": 0.0, "fusion_lat": 0.0, "lat": 38.89663783333334, "type": "electric_scooter", "lon": -77.0434075, "bike_id": "215ba659c7c1fd20f2343d77740ba56b", "rental_uris": {"android": "https://dc.lft.to/lastmile_qr_scan", "ios": "https://dc.lft.to/lastmile_qr_scan"}, "name": "215ba659c7c1fd20f2343d77740ba56b", "is_reserved": 0}, {"is_disabled": 0, "fusion_lon": 0.0, "fusion_lat": 0.0, "lat": 38.89769616666667, "type": "electric_scooter", "lon": -77.02492633333334, "bike_id": "9327fe4dd4483afa7081f079ec0dd5fb", "rental_uris": {"android": "https://dc.lft.to/lastmile_qr_scan", "ios": "https://dc.lft.to/lastmile_qr_scan"}, "name": "9327fe4dd4483afa7081f079ec0dd5fb", "is_reserved": 0}, {"is_disabled": 0, "fusion_lon": 0.0, "fusion_lat": 0.0, "lat": 38.9181425, "type": "electric_scooter", "lon": -77.03808916666667, "bike_id": "00d6931369d81a00c5dc038ef8aba973", "rental_uris": {"android": "https://dc.lft.to/lastmile_qr_scan", "ios": "https://dc.lft.to/lastmile_qr_scan"}, "name": "00d6931369d81a00c5dc038ef8aba973", "is_reserved": 0}, {"is_disabled": 0, "fusion_lon": 0.0, "fusion_lat": 0.0, "lat": 38.907568166666664, "type": "electric_scooter", "lon": -77.0075575, "bike_id": "27c3e75cd54c34c9b308fbdf87d808f7", "rental_uris": {"android": "https://dc.lft.to/lastmile_qr_scan", "ios": "https://dc.lft.to/lastmile_qr_scan"}, "name": "27c3e75cd54c34c9b308fbdf87d808f7", "is_reserved": 0}, {"is_disabled": 0, "fusion_lon": 0.0, "fusion_lat": 0.0, "lat": 38.941799333333336, "type": "electric_scooter", "lon": -77.03653, "bike_id": "a6229e8f8ad6038e7278f3ab6478b2f5", "rental_uris": {"android": "https://dc.lft.to/lastmile_qr_scan", "ios": "https://dc.lft.to/lastmile_qr_scan"}, "name": "a6229e8f8ad6038e7278f3ab6478b2f5", "is_reserved": 0}, {"is_disabled": 0, "fusion_lon": 0.0, "fusion_lat": 0.0, "lat": 38.956465333333334, "type": "electric_scooter", "lon": -77.01499583333333, "bike_id": "38e4561e4f4b9890bcae06b6bcf3cc51", "rental_uris": {"android": "https://dc.lft.to/lastmile_qr_scan", "ios": "https://dc.lft.to/lastmile_qr_scan"}, "name": "38e4561e4f4b9890bcae06b6bcf3cc51", "is_reserved": 0}, {"is_disabled": 0, "fusion_lon": 0.0, "fusion_lat": 0.0, "lat": 38.9107575, "type": "electric_scooter", "lon": -77.067913, "bike_id": "32019789078f2884ad8f0d22325fbef5", "rental_uris": {"android": "https://dc.lft.to/lastmile_qr_scan", "ios": "https://dc.lft.to/lastmile_qr_scan"}, "name": "32019789078f2884ad8f0d22325fbef5", "is_reserved": 0}, {"is_disabled": 0, "fusion_lon": 0.0, "fusion_lat": 0.0, "lat": 38.92912233333333, "type": "electric_scooter", "lon": -77.03181316666667, "bike_id": "b07d080bfc47b9ffb9a64c453a402979", "rental_uris": {"android": "https://dc.lft.to/lastmile_qr_scan", "ios": "https://dc.lft.to/lastmile_qr_scan"}, "name": "b07d080bfc47b9ffb9a64c453a402979", "is_reserved": 0}, {"is_disabled": 0, "fusion_lon": 0.0, "fusion_lat": 0.0, "lat": 38.936674, "type": "electric_bike", "lon": -76.952055, "bike_id": "266832659693da9bc1d381fda4bb7f6c", "rental_uris": {"android": "https://dc.lft.to/lastmile_qr_scan", "ios": "https://dc.lft.to/lastmile_qr_scan"}, "name": "266832659693da9bc1d381fda4bb7f6c", "is_reserved": 0}, {"is_disabled": 0, "fusion_lon": 0.0, "fusion_lat": 0.0, "lat": 38.9305985, "type": "electric_scooter", "lon": -77.07349633333334, "bike_id": "f3ce21dc49bd1a866f73af73f1c57d1f", "rental_uris": {"android": "https://dc.lft.to/lastmile_qr_scan", "ios": "https://dc.lft.to/lastmile_qr_scan"}, "name": "f3ce21dc49bd1a866f73af73f1c57d1f", "is_reserved": 0}, {"is_disabled": 0, "fusion_lon": 0.0, "fusion_lat": 0.0, "lat": 38.9532355, "type": "electric_scooter", "lon": -77.06853416666667, "bike_id": "d794e767b4d095dbee706caf1cefcab1", "rental_uris": {"android": "https://dc.lft.to/lastmile_qr_scan", "ios": "https://dc.lft.to/lastmile_qr_scan"}, "name": "d794e767b4d095dbee706caf1cefcab1", "is_reserved": 0}, {"is_disabled": 0, "fusion_lon": 0.0, "fusion_lat": 0.0, "lat": 38.92215483333333, "type": "electric_scooter", "lon": -77.04334733333333, "bike_id": "0d81d430a6b27bfdf658e95bf8583054", "rental_uris": {"android": "https://dc.lft.to/lastmile_qr_scan", "ios": "https://dc.lft.to/lastmile_qr_scan"}, "name": "0d81d430a6b27bfdf658e95bf8583054", "is_reserved": 0}, {"is_disabled": 0, "fusion_lon": 0.0, "fusion_lat": 0.0, "lat": 38.91640866666667, "type": "electric_scooter", "lon": -77.021784, "bike_id": "ba89dcc312db4461197cc33a83738541", "rental_uris": {"android": "https://dc.lft.to/lastmile_qr_scan", "ios": "https://dc.lft.to/lastmile_qr_scan"}, "name": "ba89dcc312db4461197cc33a83738541", "is_reserved": 0}, {"is_disabled": 0, "fusion_lon": 0.0, "fusion_lat": 0.0, "lat": 38.956065, "type": "electric_scooter", "lon": -77.02782683333334, "bike_id": "74c4c212938dc5efc3be281c60186f6b", "rental_uris": {"android": "https://dc.lft.to/lastmile_qr_scan", "ios": "https://dc.lft.to/lastmile_qr_scan"}, "name": "74c4c212938dc5efc3be281c60186f6b", "is_reserved": 0}, {"is_disabled": 0, "fusion_lon": 0.0, "fusion_lat": 0.0, "lat": 38.892674166666666, "type": "electric_scooter", "lon": -77.032136, "bike_id": "1591bb1d01a579bb99705100dfffc0f3", "rental_uris": {"android": "https://dc.lft.to/lastmile_qr_scan", "ios": "https://dc.lft.to/lastmile_qr_scan"}, "name": "1591bb1d01a579bb99705100dfffc0f3", "is_reserved": 0}, {"is_disabled": 0, "fusion_lon": 0.0, "fusion_lat": 0.0, "lat": 38.88254933333333, "type": "electric_bike", "lon": -77.00058516666667, "bike_id": "0a8021976544e622d5c59682fd3e973e", "rental_uris": {"android": "https://dc.lft.to/lastmile_qr_scan", "ios": "https://dc.lft.to/lastmile_qr_scan"}, "name": "0a8021976544e622d5c59682fd3e973e", "is_reserved": 0}, {"is_disabled": 0, "fusion_lon": 0.0, "fusion_lat": 0.0, "lat": 38.88576533333333, "type": "electric_scooter", "lon": -76.91909166666667, "bike_id": "1dc919c6f45bb22d4f02a0d1fe301645", "rental_uris": {"android": "https://dc.lft.to/lastmile_qr_scan", "ios": "https://dc.lft.to/lastmile_qr_scan"}, "name": "1dc919c6f45bb22d4f02a0d1fe301645", "is_reserved": 0}, {"is_disabled": 0, "fusion_lon": 0.0, "fusion_lat": 0.0, "lat": 39.03879216666667, "type": "electric_bike", "lon": -77.1091025, "bike_id": "37822a1e27711c8e6d4d550e670e14f3", "rental_uris": {"android": "https://dc.lft.to/lastmile_qr_scan", "ios": "https://dc.lft.to/lastmile_qr_scan"}, "name": "37822a1e27711c8e6d4d550e670e14f3", "is_reserved": 0}, {"is_disabled": 0, "fusion_lon": 0.0, "fusion_lat": 0.0, "lat": 38.90474116666667, "type": "electric_scooter", "lon": -77.02714866666666, "bike_id": "a278a3bf3c44458c2a457461eb7789ab", "rental_uris": {"android": "https://dc.lft.to/lastmile_qr_scan", "ios": "https://dc.lft.to/lastmile_qr_scan"}, "name": "a278a3bf3c44458c2a457461eb7789ab", "is_reserved": 0}, {"is_disabled": 0, "fusion_lon": 0.0, "fusion_lat": 0.0, "lat": 38.91815116666667, "type": "electric_scooter", "lon": -77.03448733333333, "bike_id": "a682a5d56367ab76e68f73ab6c7f73f4", "rental_uris": {"android": "https://dc.lft.to/lastmile_qr_scan", "ios": "https://dc.lft.to/lastmile_qr_scan"}, "name": "a682a5d56367ab76e68f73ab6c7f73f4", "is_reserved": 0}, {"is_disabled": 0, "fusion_lon": 0.0, "fusion_lat": 0.0, "lat": 38.892185, "type": "electric_scooter", "lon": -77.02259116666667, "bike_id": "80683405cac07fafaff2d27176b08ff7", "rental_uris": {"android": "https://dc.lft.to/lastmile_qr_scan", "ios": "https://dc.lft.to/lastmile_qr_scan"}, "name": "80683405cac07fafaff2d27176b08ff7", "is_reserved": 0}, {"is_disabled": 0, "fusion_lon": 0.0, "fusion_lat": 0.0, "lat": 38.889918, "type": "electric_scooter", "lon": -77.01503766666667, "bike_id": "989ba71b11eca7d71eec977eb1721105", "rental_uris": {"android": "https://dc.lft.to/lastmile_qr_scan", "ios": "https://dc.lft.to/lastmile_qr_scan"}, "name": "989ba71b11eca7d71eec977eb1721105", "is_reserved": 0}, {"is_disabled": 0, "fusion_lon": 0.0, "fusion_lat": 0.0, "lat": 38.919168666666664, "type": "electric_scooter", "lon": -77.03028, "bike_id": "ec72a6a3cb74e7fd1d9df627d4ef10ed", "rental_uris": {"android": "https://dc.lft.to/lastmile_qr_scan", "ios": "https://dc.lft.to/lastmile_qr_scan"}, "name": "ec72a6a3cb74e7fd1d9df627d4ef10ed", "is_reserved": 0}, {"is_disabled": 0, "fusion_lon": 0.0, "fusion_lat": 0.0, "lat": 38.910320166666665, "type": "electric_scooter", "lon": -77.01370566666667, "bike_id": "1b15594d8bd668a424036a76c268f6ab", "rental_uris": {"android": "https://dc.lft.to/lastmile_qr_scan", "ios": "https://dc.lft.to/lastmile_qr_scan"}, "name": "1b15594d8bd668a424036a76c268f6ab", "is_reserved": 0}, {"is_disabled": 0, "fusion_lon": 0.0, "fusion_lat": 0.0, "lat": 38.90919066666667, "type": "electric_scooter", "lon": -77.03201683333333, "bike_id": "76b32b9f07d37b39e50e3e4bb763df40", "rental_uris": {"android": "https://dc.lft.to/lastmile_qr_scan", "ios": "https://dc.lft.to/lastmile_qr_scan"}, "name": "76b32b9f07d37b39e50e3e4bb763df40", "is_reserved": 0}, {"is_disabled": 0, "fusion_lon": 0.0, "fusion_lat": 0.0, "lat": 38.92281333333333, "type": "electric_scooter", "lon": -77.02353783333334, "bike_id": "93a31672edee783cf9ae021a33f9908b", "rental_uris": {"android": "https://dc.lft.to/lastmile_qr_scan", "ios": "https://dc.lft.to/lastmile_qr_scan"}, "name": "93a31672edee783cf9ae021a33f9908b", "is_reserved": 0}, {"is_disabled": 0, "fusion_lon": 0.0, "fusion_lat": 0.0, "lat": 38.905663833333335, "type": "electric_scooter", "lon": -77.00427033333334, "bike_id": "8859a5464eff34ad66be66937b496783", "rental_uris": {"android": "https://dc.lft.to/lastmile_qr_scan", "ios": "https://dc.lft.to/lastmile_qr_scan"}, "name": "8859a5464eff34ad66be66937b496783", "is_reserved": 0}, {"is_disabled": 0, "fusion_lon": 0.0, "fusion_lat": 0.0, "lat": 38.94981683333334, "type": "electric_scooter", "lon": -77.027025, "bike_id": "f1f224cf4df22d83e029bb9d5bce2f01", "rental_uris": {"android": "https://dc.lft.to/lastmile_qr_scan", "ios": "https://dc.lft.to/lastmile_qr_scan"}, "name": "f1f224cf4df22d83e029bb9d5bce2f01", "is_reserved": 0}, {"is_disabled": 0, "fusion_lon": 0.0, "fusion_lat": 0.0, "lat": 38.895489833333336, "type": "electric_scooter", "lon": -77.01098883333333, "bike_id": "8b0744a28b18735c195669f9361d683a", "rental_uris": {"android": "https://dc.lft.to/lastmile_qr_scan", "ios": "https://dc.lft.to/lastmile_qr_scan"}, "name": "8b0744a28b18735c195669f9361d683a", "is_reserved": 0}, {"is_disabled": 0, "fusion_lon": 0.0, "fusion_lat": 0.0, "lat": 38.9051995, "type": "electric_scooter", "lon": -77.00207683333333, "bike_id": "abc87a1c4e9e10964d89959c6d6b5976", "rental_uris": {"android": "https://dc.lft.to/lastmile_qr_scan", "ios": "https://dc.lft.to/lastmile_qr_scan"}, "name": "abc87a1c4e9e10964d89959c6d6b5976", "is_reserved": 0}, {"is_disabled": 0, "fusion_lon": 0.0, "fusion_lat": 0.0, "lat": 38.8923885, "type": "electric_scooter", "lon": -77.03352733333334, "bike_id": "2eae5853ad2da8dc76d101e680f70bad", "rental_uris": {"android": "https://dc.lft.to/lastmile_qr_scan", "ios": "https://dc.lft.to/lastmile_qr_scan"}, "name": "2eae5853ad2da8dc76d101e680f70bad", "is_reserved": 0}, {"is_disabled": 0, "fusion_lon": 0.0, "fusion_lat": 0.0, "lat": 38.90039933333333, "type": "electric_scooter", "lon": -77.01218616666667, "bike_id": "b0a4df8b90520d67e92b744bf7e15a37", "rental_uris": {"android": "https://dc.lft.to/lastmile_qr_scan", "ios": "https://dc.lft.to/lastmile_qr_scan"}, "name": "b0a4df8b90520d67e92b744bf7e15a37", "is_reserved": 0}, {"is_disabled": 0, "fusion_lon": 0.0, "fusion_lat": 0.0, "lat": 38.8337685, "type": "electric_scooter", "lon": -76.99293666666667, "bike_id": "495f2d824fa4c548a3b15e1525b80758", "rental_uris": {"android": "https://dc.lft.to/lastmile_qr_scan", "ios": "https://dc.lft.to/lastmile_qr_scan"}, "name": "495f2d824fa4c548a3b15e1525b80758", "is_reserved": 0}, {"is_disabled": 0, "fusion_lon": 0.0, "fusion_lat": 0.0, "lat": 38.924574666666665, "type": "electric_scooter", "lon": -77.0404105, "bike_id": "25bf729c291280aa68ddc647be4a8b02", "rental_uris": {"android": "https://dc.lft.to/lastmile_qr_scan", "ios": "https://dc.lft.to/lastmile_qr_scan"}, "name": "25bf729c291280aa68ddc647be4a8b02", "is_reserved": 0}, {"is_disabled": 0, "fusion_lon": 0.0, "fusion_lat": 0.0, "lat": 38.919092, "type": "electric_scooter", "lon": -77.01750883333334, "bike_id": "f92bb94450a682ea4bcf359218cf0d77", "rental_uris": {"android": "https://dc.lft.to/lastmile_qr_scan", "ios": "https://dc.lft.to/lastmile_qr_scan"}, "name": "f92bb94450a682ea4bcf359218cf0d77", "is_reserved": 0}, {"is_disabled": 0, "fusion_lon": 0.0, "fusion_lat": 0.0, "lat": 38.92331316666667, "type": "electric_scooter", "lon": -77.056779, "bike_id": "afaf83c93f679c6b5c09567deec17d38", "rental_uris": {"android": "https://dc.lft.to/lastmile_qr_scan", "ios": "https://dc.lft.to/lastmile_qr_scan"}, "name": "afaf83c93f679c6b5c09567deec17d38", "is_reserved": 0}, {"is_disabled": 0, "fusion_lon": 0.0, "fusion_lat": 0.0, "lat": 38.90950083333333, "type": "electric_scooter", "lon": -77.03275016666667, "bike_id": "7f9e6303b2f9a5001146ddefa9d2989c", "rental_uris": {"android": "https://dc.lft.to/lastmile_qr_scan", "ios": "https://dc.lft.to/lastmile_qr_scan"}, "name": "7f9e6303b2f9a5001146ddefa9d2989c", "is_reserved": 0}, {"is_disabled": 0, "fusion_lon": 0.0, "fusion_lat": 0.0, "lat": 38.89222183333333, "type": "electric_scooter", "lon": -77.03335433333334, "bike_id": "687cee729bb6fcbb1b6dd3789b10fdbd", "rental_uris": {"android": "https://dc.lft.to/lastmile_qr_scan", "ios": "https://dc.lft.to/lastmile_qr_scan"}, "name": "687cee729bb6fcbb1b6dd3789b10fdbd", "is_reserved": 0}, {"is_disabled": 0, "fusion_lon": 0.0, "fusion_lat": 0.0, "lat": 38.94176216666666, "type": "electric_scooter", "lon": -77.02387633333333, "bike_id": "910a5d93e88f0a531c97b40bb8fa727b", "rental_uris": {"android": "https://dc.lft.to/lastmile_qr_scan", "ios": "https://dc.lft.to/lastmile_qr_scan"}, "name": "910a5d93e88f0a531c97b40bb8fa727b", "is_reserved": 0}, {"is_disabled": 0, "fusion_lon": 0.0, "fusion_lat": 0.0, "lat": 38.928787166666666, "type": "electric_scooter", "lon": -77.02703683333333, "bike_id": "79832181b365c08e484710b06450222c", "rental_uris": {"android": "https://dc.lft.to/lastmile_qr_scan", "ios": "https://dc.lft.to/lastmile_qr_scan"}, "name": "79832181b365c08e484710b06450222c", "is_reserved": 0}, {"is_disabled": 0, "fusion_lon": 0.0, "fusion_lat": 0.0, "lat": 38.94454966666667, "type": "electric_scooter", "lon": -77.00658933333334, "bike_id": "0dc876d868fe3ad7e775c77aabe5478b", "rental_uris": {"android": "https://dc.lft.to/lastmile_qr_scan", "ios": "https://dc.lft.to/lastmile_qr_scan"}, "name": "0dc876d868fe3ad7e775c77aabe5478b", "is_reserved": 0}, {"is_disabled": 0, "fusion_lon": 0.0, "fusion_lat": 0.0, "lat": 38.920525833333336, "type": "electric_scooter", "lon": -77.03390083333333, "bike_id": "4da9699f449eb81686a19f2d8d134ef9", "rental_uris": {"android": "https://dc.lft.to/lastmile_qr_scan", "ios": "https://dc.lft.to/lastmile_qr_scan"}, "name": "4da9699f449eb81686a19f2d8d134ef9", "is_reserved": 0}, {"is_disabled": 0, "fusion_lon": 0.0, "fusion_lat": 0.0, "lat": 38.889887, "type": "electric_scooter", "lon": -77.00165283333334, "bike_id": "6b4f974a263db93a2a73c9d5a6cc1e2b", "rental_uris": {"android": "https://dc.lft.to/lastmile_qr_scan", "ios": "https://dc.lft.to/lastmile_qr_scan"}, "name": "6b4f974a263db93a2a73c9d5a6cc1e2b", "is_reserved": 0}, {"is_disabled": 0, "fusion_lon": 0.0, "fusion_lat": 0.0, "lat": 38.897371666666665, "type": "electric_scooter", "lon": -77.00995233333333, "bike_id": "d73bc71a39e0aadc59982db3f6c08e08", "rental_uris": {"android": "https://dc.lft.to/lastmile_qr_scan", "ios": "https://dc.lft.to/lastmile_qr_scan"}, "name": "d73bc71a39e0aadc59982db3f6c08e08", "is_reserved": 0}, {"is_disabled": 0, "fusion_lon": 0.0, "fusion_lat": 0.0, "lat": 38.93274266666667, "type": "electric_scooter", "lon": -76.99687383333334, "bike_id": "fdc74dcc30992af0affbf26bad2ef25d", "rental_uris": {"android": "https://dc.lft.to/lastmile_qr_scan", "ios": "https://dc.lft.to/lastmile_qr_scan"}, "name": "fdc74dcc30992af0affbf26bad2ef25d", "is_reserved": 0}, {"is_disabled": 0, "fusion_lon": 0.0, "fusion_lat": 0.0, "lat": 38.894259, "type": "electric_scooter", "lon": -77.01099383333333, "bike_id": "d2158f7d45fe81f73cde14c34dfc7312", "rental_uris": {"android": "https://dc.lft.to/lastmile_qr_scan", "ios": "https://dc.lft.to/lastmile_qr_scan"}, "name": "d2158f7d45fe81f73cde14c34dfc7312", "is_reserved": 0}, {"is_disabled": 0, "fusion_lon": 0.0, "fusion_lat": 0.0, "lat": 38.9346685, "type": "electric_scooter", "lon": -77.06882333333333, "bike_id": "24d0f9fe4e068f84af392531a50d905c", "rental_uris": {"android": "https://dc.lft.to/lastmile_qr_scan", "ios": "https://dc.lft.to/lastmile_qr_scan"}, "name": "24d0f9fe4e068f84af392531a50d905c", "is_reserved": 0}, {"is_disabled": 0, "fusion_lon": 0.0, "fusion_lat": 0.0, "lat": 38.972560666666666, "type": "electric_bike", "lon": -76.99168866666666, "bike_id": "4035b0f805f1b8cc514f94510d9be597", "rental_uris": {"android": "https://dc.lft.to/lastmile_qr_scan", "ios": "https://dc.lft.to/lastmile_qr_scan"}, "name": "4035b0f805f1b8cc514f94510d9be597", "is_reserved": 0}, {"is_disabled": 0, "fusion_lon": 0.0, "fusion_lat": 0.0, "lat": 38.8393125, "type": "electric_bike", "lon": -77.07901516666666, "bike_id": "d0377956619020f7fece2d9e88eec74d", "rental_uris": {"android": "https://dc.lft.to/lastmile_qr_scan", "ios": "https://dc.lft.to/lastmile_qr_scan"}, "name": "d0377956619020f7fece2d9e88eec74d", "is_reserved": 0}, {"is_disabled": 0, "fusion_lon": 0.0, "fusion_lat": 0.0, "lat": 38.812688, "type": "electric_bike", "lon": -77.06172483333333, "bike_id": "0354f54727b19c4eada048bc812aa07c", "rental_uris": {"android": "https://dc.lft.to/lastmile_qr_scan", "ios": "https://dc.lft.to/lastmile_qr_scan"}, "name": "0354f54727b19c4eada048bc812aa07c", "is_reserved": 0}, {"is_disabled": 0, "fusion_lon": 0.0, "fusion_lat": 0.0, "lat": 38.917690666666665, "type": "electric_scooter", "lon": -77.04740983333333, "bike_id": "c4a0a5ee7f726404e1843b916399f304", "rental_uris": {"android": "https://dc.lft.to/lastmile_qr_scan", "ios": "https://dc.lft.to/lastmile_qr_scan"}, "name": "c4a0a5ee7f726404e1843b916399f304", "is_reserved": 0}, {"is_disabled": 0, "fusion_lon": 0.0, "fusion_lat": 0.0, "lat": 38.919162166666666, "type": "electric_scooter", "lon": -77.03397816666667, "bike_id": "f3bb392229083e4c63614cf2b7e4e8a2", "rental_uris": {"android": "https://dc.lft.to/lastmile_qr_scan", "ios": "https://dc.lft.to/lastmile_qr_scan"}, "name": "f3bb392229083e4c63614cf2b7e4e8a2", "is_reserved": 0}, {"is_disabled": 0, "fusion_lon": 0.0, "fusion_lat": 0.0, "lat": 38.897344333333336, "type": "electric_scooter", "lon": -77.02484833333334, "bike_id": "6cb4a36b3e49123986ee4c7f23c168fb", "rental_uris": {"android": "https://dc.lft.to/lastmile_qr_scan", "ios": "https://dc.lft.to/lastmile_qr_scan"}, "name": "6cb4a36b3e49123986ee4c7f23c168fb", "is_reserved": 0}, {"is_disabled": 0, "fusion_lon": 0.0, "fusion_lat": 0.0, "lat": 38.8937035, "type": "electric_scooter", "lon": -76.97815, "bike_id": "f603c4f4f62d3dabb26304582b8d15df", "rental_uris": {"android": "https://dc.lft.to/lastmile_qr_scan", "ios": "https://dc.lft.to/lastmile_qr_scan"}, "name": "f603c4f4f62d3dabb26304582b8d15df", "is_reserved": 0}, {"is_disabled": 0, "fusion_lon": 0.0, "fusion_lat": 0.0, "lat": 38.89307683333333, "type": "electric_scooter", "lon": -77.022041, "bike_id": "59cb9d426dc223eb8f915374e0abb3e8", "rental_uris": {"android": "https://dc.lft.to/lastmile_qr_scan", "ios": "https://dc.lft.to/lastmile_qr_scan"}, "name": "59cb9d426dc223eb8f915374e0abb3e8", "is_reserved": 0}, {"is_disabled": 0, "fusion_lon": 0.0, "fusion_lat": 0.0, "lat": 38.90513466666667, "type": "electric_scooter", "lon": -77.0514165, "bike_id": "3004d646aaf862795a87ead437c89b3f", "rental_uris": {"android": "https://dc.lft.to/lastmile_qr_scan", "ios": "https://dc.lft.to/lastmile_qr_scan"}, "name": "3004d646aaf862795a87ead437c89b3f", "is_reserved": 0}, {"is_disabled": 0, "fusion_lon": 0.0, "fusion_lat": 0.0, "lat": 38.89997666666667, "type": "electric_scooter", "lon": -77.032104, "bike_id": "6cc0f19b1865fc43c5078d55f049ed59", "rental_uris": {"android": "https://dc.lft.to/lastmile_qr_scan", "ios": "https://dc.lft.to/lastmile_qr_scan"}, "name": "6cc0f19b1865fc43c5078d55f049ed59", "is_reserved": 0}, {"is_disabled": 0, "fusion_lon": 0.0, "fusion_lat": 0.0, "lat": 38.958813666666664, "type": "electric_bike", "lon": -76.9248375, "bike_id": "3ebc4019326f1c33970bedf041633f5d", "rental_uris": {"android": "https://dc.lft.to/lastmile_qr_scan", "ios": "https://dc.lft.to/lastmile_qr_scan"}, "name": "3ebc4019326f1c33970bedf041633f5d", "is_reserved": 0}, {"is_disabled": 0, "fusion_lon": 0.0, "fusion_lat": 0.0, "lat": 38.885265833333335, "type": "electric_scooter", "lon": -76.99801616666667, "bike_id": "81a9c6bc887ac5d450bd0ceb63b70787", "rental_uris": {"android": "https://dc.lft.to/lastmile_qr_scan", "ios": "https://dc.lft.to/lastmile_qr_scan"}, "name": "81a9c6bc887ac5d450bd0ceb63b70787", "is_reserved": 0}, {"is_disabled": 0, "fusion_lon": 0.0, "fusion_lat": 0.0, "lat": 38.91689616666667, "type": "electric_scooter", "lon": -77.02597466666667, "bike_id": "89d4be0710da5dc2d8d218b361b0618d", "rental_uris": {"android": "https://dc.lft.to/lastmile_qr_scan", "ios": "https://dc.lft.to/lastmile_qr_scan"}, "name": "89d4be0710da5dc2d8d218b361b0618d", "is_reserved": 0}, {"is_disabled": 0, "fusion_lon": 0.0, "fusion_lat": 0.0, "lat": 38.858647, "type": "electric_scooter", "lon": -76.990259, "bike_id": "f4f27e345494657f7d7bd74b01824bbc", "rental_uris": {"android": "https://dc.lft.to/lastmile_qr_scan", "ios": "https://dc.lft.to/lastmile_qr_scan"}, "name": "f4f27e345494657f7d7bd74b01824bbc", "is_reserved": 0}, {"is_disabled": 0, "fusion_lon": 0.0, "fusion_lat": 0.0, "lat": 38.90957, "type": "electric_scooter", "lon": -77.03420866666667, "bike_id": "f05cb718896bcdee3bef9f9b0850a0e3", "rental_uris": {"android": "https://dc.lft.to/lastmile_qr_scan", "ios": "https://dc.lft.to/lastmile_qr_scan"}, "name": "f05cb718896bcdee3bef9f9b0850a0e3", "is_reserved": 0}, {"is_disabled": 0, "fusion_lon": 0.0, "fusion_lat": 0.0, "lat": 38.916573666666665, "type": "electric_scooter", "lon": -77.04651383333334, "bike_id": "7cf8ae6644d9fe0c38523d0174480b37", "rental_uris": {"android": "https://dc.lft.to/lastmile_qr_scan", "ios": "https://dc.lft.to/lastmile_qr_scan"}, "name": "7cf8ae6644d9fe0c38523d0174480b37", "is_reserved": 0}, {"is_disabled": 0, "fusion_lon": 0.0, "fusion_lat": 0.0, "lat": 38.907671666666666, "type": "electric_scooter", "lon": -77.03196216666667, "bike_id": "63151ad6510ebbb81bd8047242d0d8e4", "rental_uris": {"android": "https://dc.lft.to/lastmile_qr_scan", "ios": "https://dc.lft.to/lastmile_qr_scan"}, "name": "63151ad6510ebbb81bd8047242d0d8e4", "is_reserved": 0}, {"is_disabled": 0, "fusion_lon": 0.0, "fusion_lat": 0.0, "lat": 38.907186333333335, "type": "electric_scooter", "lon": -77.0343445, "bike_id": "7b43326bb267c88c4599408ed3d2f1d4", "rental_uris": {"android": "https://dc.lft.to/lastmile_qr_scan", "ios": "https://dc.lft.to/lastmile_qr_scan"}, "name": "7b43326bb267c88c4599408ed3d2f1d4", "is_reserved": 0}, {"is_disabled": 0, "fusion_lon": 0.0, "fusion_lat": 0.0, "lat": 38.90694716666667, "type": "electric_scooter", "lon": -77.063033, "bike_id": "665a2c5f4c37d77bedb69126450d0fad", "rental_uris": {"android": "https://dc.lft.to/lastmile_qr_scan", "ios": "https://dc.lft.to/lastmile_qr_scan"}, "name": "665a2c5f4c37d77bedb69126450d0fad", "is_reserved": 0}, {"is_disabled": 0, "fusion_lon": 0.0, "fusion_lat": 0.0, "lat": 38.978236333333335, "type": "electric_bike", "lon": -76.92893166666667, "bike_id": "f2f43dbb24eeef060b1ec762d3a6baae", "rental_uris": {"android": "https://dc.lft.to/lastmile_qr_scan", "ios": "https://dc.lft.to/lastmile_qr_scan"}, "name": "f2f43dbb24eeef060b1ec762d3a6baae", "is_reserved": 0}, {"is_disabled": 0, "fusion_lon": 0.0, "fusion_lat": 0.0, "lat": 38.90706733333333, "type": "electric_scooter", "lon": -77.03059983333333, "bike_id": "422a7e969d8973f3dfd21ee53087752a", "rental_uris": {"android": "https://dc.lft.to/lastmile_qr_scan", "ios": "https://dc.lft.to/lastmile_qr_scan"}, "name": "422a7e969d8973f3dfd21ee53087752a", "is_reserved": 0}, {"is_disabled": 0, "fusion_lon": 0.0, "fusion_lat": 0.0, "lat": 38.900368, "type": "electric_scooter", "lon": -77.02393983333333, "bike_id": "c5feb55eee6820ae95cc64e5275b4a7b", "rental_uris": {"android": "https://dc.lft.to/lastmile_qr_scan", "ios": "https://dc.lft.to/lastmile_qr_scan"}, "name": "c5feb55eee6820ae95cc64e5275b4a7b", "is_reserved": 0}, {"is_disabled": 0, "fusion_lon": 0.0, "fusion_lat": 0.0, "lat": 38.89640766666667, "type": "electric_scooter", "lon": -77.04348333333333, "bike_id": "88c448a681926e090cb922ef9df5012b", "rental_uris": {"android": "https://dc.lft.to/lastmile_qr_scan", "ios": "https://dc.lft.to/lastmile_qr_scan"}, "name": "88c448a681926e090cb922ef9df5012b", "is_reserved": 0}, {"is_disabled": 0, "fusion_lon": 0.0, "fusion_lat": 0.0, "lat": 38.90143116666667, "type": "electric_scooter", "lon": -77.04148883333333, "bike_id": "b95ea4439b115d722c1b26bedd30bd8f", "rental_uris": {"android": "https://dc.lft.to/lastmile_qr_scan", "ios": "https://dc.lft.to/lastmile_qr_scan"}, "name": "b95ea4439b115d722c1b26bedd30bd8f", "is_reserved": 0}, {"is_disabled": 0, "fusion_lon": 0.0, "fusion_lat": 0.0, "lat": 38.827223833333335, "type": "electric_bike", "lon": -77.00865383333333, "bike_id": "6eeb2777a25a0c05cba92097630149b1", "rental_uris": {"android": "https://dc.lft.to/lastmile_qr_scan", "ios": "https://dc.lft.to/lastmile_qr_scan"}, "name": "6eeb2777a25a0c05cba92097630149b1", "is_reserved": 0}, {"is_disabled": 0, "fusion_lon": 0.0, "fusion_lat": 0.0, "lat": 38.89768433333333, "type": "electric_scooter", "lon": -77.02204466666667, "bike_id": "1b5e8f90bbecdee0d65c7e1f64ef95ea", "rental_uris": {"android": "https://dc.lft.to/lastmile_qr_scan", "ios": "https://dc.lft.to/lastmile_qr_scan"}, "name": "1b5e8f90bbecdee0d65c7e1f64ef95ea", "is_reserved": 0}, {"is_disabled": 0, "fusion_lon": 0.0, "fusion_lat": 0.0, "lat": 38.888605, "type": "electric_scooter", "lon": -76.97737266666667, "bike_id": "e0858000a6b38e5bf99fa122abd66a21", "rental_uris": {"android": "https://dc.lft.to/lastmile_qr_scan", "ios": "https://dc.lft.to/lastmile_qr_scan"}, "name": "e0858000a6b38e5bf99fa122abd66a21", "is_reserved": 0}, {"is_disabled": 0, "fusion_lon": 0.0, "fusion_lat": 0.0, "lat": 38.90980366666667, "type": "electric_scooter", "lon": -77.02859116666667, "bike_id": "a54556c89341dc3e41233c04c5cfc6bb", "rental_uris": {"android": "https://dc.lft.to/lastmile_qr_scan", "ios": "https://dc.lft.to/lastmile_qr_scan"}, "name": "a54556c89341dc3e41233c04c5cfc6bb", "is_reserved": 0}, {"is_disabled": 0, "fusion_lon": 0.0, "fusion_lat": 0.0, "lat": 38.898435166666665, "type": "electric_scooter", "lon": -77.03354483333334, "bike_id": "74da549bd561355f85b7807fee59629a", "rental_uris": {"android": "https://dc.lft.to/lastmile_qr_scan", "ios": "https://dc.lft.to/lastmile_qr_scan"}, "name": "74da549bd561355f85b7807fee59629a", "is_reserved": 0}, {"is_disabled": 0, "fusion_lon": 0.0, "fusion_lat": 0.0, "lat": 38.93532666666667, "type": "electric_scooter", "lon": -77.02379133333334, "bike_id": "fc50106b3a08d94306609a444c37b46a", "rental_uris": {"android": "https://dc.lft.to/lastmile_qr_scan", "ios": "https://dc.lft.to/lastmile_qr_scan"}, "name": "fc50106b3a08d94306609a444c37b46a", "is_reserved": 0}, {"is_disabled": 0, "fusion_lon": 0.0, "fusion_lat": 0.0, "lat": 38.915441333333334, "type": "electric_scooter", "lon": -77.0417265, "bike_id": "a17f4228fc5540cf458a863cd2deb00a", "rental_uris": {"android": "https://dc.lft.to/lastmile_qr_scan", "ios": "https://dc.lft.to/lastmile_qr_scan"}, "name": "a17f4228fc5540cf458a863cd2deb00a", "is_reserved": 0}, {"is_disabled": 0, "fusion_lon": 0.0, "fusion_lat": 0.0, "lat": 38.8948805, "type": "electric_scooter", "lon": -77.021921, "bike_id": "7454a4849e52568be3bfcbdc9fe337ab", "rental_uris": {"android": "https://dc.lft.to/lastmile_qr_scan", "ios": "https://dc.lft.to/lastmile_qr_scan"}, "name": "7454a4849e52568be3bfcbdc9fe337ab", "is_reserved": 0}, {"is_disabled": 0, "fusion_lon": 0.0, "fusion_lat": 0.0, "lat": 38.906225166666665, "type": "electric_scooter", "lon": -77.02800433333333, "bike_id": "0b7497b73b9ccf8121494f06d1c20d5d", "rental_uris": {"android": "https://dc.lft.to/lastmile_qr_scan", "ios": "https://dc.lft.to/lastmile_qr_scan"}, "name": "0b7497b73b9ccf8121494f06d1c20d5d", "is_reserved": 0}, {"is_disabled": 0, "fusion_lon": 0.0, "fusion_lat": 0.0, "lat": 38.893672333333335, "type": "electric_scooter", "lon": -77.02267583333334, "bike_id": "9917e710a20f9c4c2d20299218d5c621", "rental_uris": {"android": "https://dc.lft.to/lastmile_qr_scan", "ios": "https://dc.lft.to/lastmile_qr_scan"}, "name": "9917e710a20f9c4c2d20299218d5c621", "is_reserved": 0}, {"is_disabled": 0, "fusion_lon": 0.0, "fusion_lat": 0.0, "lat": 38.91569116666667, "type": "electric_scooter", "lon": -77.04629716666666, "bike_id": "7aaac6dc54cce42dac8940a57b28b035", "rental_uris": {"android": "https://dc.lft.to/lastmile_qr_scan", "ios": "https://dc.lft.to/lastmile_qr_scan"}, "name": "7aaac6dc54cce42dac8940a57b28b035", "is_reserved": 0}, {"is_disabled": 0, "fusion_lon": 0.0, "fusion_lat": 0.0, "lat": 38.94198633333333, "type": "electric_scooter", "lon": -77.024108, "bike_id": "9c0cc2cad5c87701270203b2dabd41b0", "rental_uris": {"android": "https://dc.lft.to/lastmile_qr_scan", "ios": "https://dc.lft.to/lastmile_qr_scan"}, "name": "9c0cc2cad5c87701270203b2dabd41b0", "is_reserved": 0}, {"is_disabled": 0, "fusion_lon": 0.0, "fusion_lat": 0.0, "lat": 38.9254525, "type": "electric_scooter", "lon": -77.02559916666667, "bike_id": "ca315bd85fe5a1c503b69dd5ff18a1b6", "rental_uris": {"android": "https://dc.lft.to/lastmile_qr_scan", "ios": "https://dc.lft.to/lastmile_qr_scan"}, "name": "ca315bd85fe5a1c503b69dd5ff18a1b6", "is_reserved": 0}, {"is_disabled": 0, "fusion_lon": 0.0, "fusion_lat": 0.0, "lat": 38.90669, "type": "electric_scooter", "lon": -77.02711383333333, "bike_id": "ab789c1da002632e2bd70447ab6f7312", "rental_uris": {"android": "https://dc.lft.to/lastmile_qr_scan", "ios": "https://dc.lft.to/lastmile_qr_scan"}, "name": "ab789c1da002632e2bd70447ab6f7312", "is_reserved": 0}, {"is_disabled": 0, "fusion_lon": 0.0, "fusion_lat": 0.0, "lat": 38.89484566666667, "type": "electric_scooter", "lon": -77.02195966666666, "bike_id": "8e79bff1cb28e97adbaf36fbf6e9e823", "rental_uris": {"android": "https://dc.lft.to/lastmile_qr_scan", "ios": "https://dc.lft.to/lastmile_qr_scan"}, "name": "8e79bff1cb28e97adbaf36fbf6e9e823", "is_reserved": 0}, {"is_disabled": 0, "fusion_lon": 0.0, "fusion_lat": 0.0, "lat": 38.90023733333334, "type": "electric_scooter", "lon": -77.0397925, "bike_id": "10b5dff14a757081c25de250b6c77c0a", "rental_uris": {"android": "https://dc.lft.to/lastmile_qr_scan", "ios": "https://dc.lft.to/lastmile_qr_scan"}, "name": "10b5dff14a757081c25de250b6c77c0a", "is_reserved": 0}, {"is_disabled": 0, "fusion_lon": 0.0, "fusion_lat": 0.0, "lat": 38.831511666666664, "type": "electric_bike", "lon": -76.99693716666667, "bike_id": "7dc785ed930294e43b738d72b1f666ec", "rental_uris": {"android": "https://dc.lft.to/lastmile_qr_scan", "ios": "https://dc.lft.to/lastmile_qr_scan"}, "name": "7dc785ed930294e43b738d72b1f666ec", "is_reserved": 0}, {"is_disabled": 0, "fusion_lon": 0.0, "fusion_lat": 0.0, "lat": 38.897969333333336, "type": "electric_scooter", "lon": -76.93054383333333, "bike_id": "65b0ebafa562aec114dea8f9c363059a", "rental_uris": {"android": "https://dc.lft.to/lastmile_qr_scan", "ios": "https://dc.lft.to/lastmile_qr_scan"}, "name": "65b0ebafa562aec114dea8f9c363059a", "is_reserved": 0}, {"is_disabled": 0, "fusion_lon": 0.0, "fusion_lat": 0.0, "lat": 38.915612833333334, "type": "electric_scooter", "lon": -77.0117115, "bike_id": "32e69bbf4ed41d843452e1415e72de07", "rental_uris": {"android": "https://dc.lft.to/lastmile_qr_scan", "ios": "https://dc.lft.to/lastmile_qr_scan"}, "name": "32e69bbf4ed41d843452e1415e72de07", "is_reserved": 0}, {"is_disabled": 0, "fusion_lon": 0.0, "fusion_lat": 0.0, "lat": 38.94979583333333, "type": "electric_scooter", "lon": -77.0270385, "bike_id": "cfc50dc726d90db292effe4e8adc6886", "rental_uris": {"android": "https://dc.lft.to/lastmile_qr_scan", "ios": "https://dc.lft.to/lastmile_qr_scan"}, "name": "cfc50dc726d90db292effe4e8adc6886", "is_reserved": 0}, {"is_disabled": 0, "fusion_lon": 0.0, "fusion_lat": 0.0, "lat": 38.98813533333333, "type": "electric_bike", "lon": -77.02658, "bike_id": "ceee62bc07753f06ac27007ba5812243", "rental_uris": {"android": "https://dc.lft.to/lastmile_qr_scan", "ios": "https://dc.lft.to/lastmile_qr_scan"}, "name": "ceee62bc07753f06ac27007ba5812243", "is_reserved": 0}, {"is_disabled": 0, "fusion_lon": 0.0, "fusion_lat": 0.0, "lat": 38.92658933333333, "type": "electric_scooter", "lon": -77.02304783333334, "bike_id": "7490baa1a750c203370285c4432643ee", "rental_uris": {"android": "https://dc.lft.to/lastmile_qr_scan", "ios": "https://dc.lft.to/lastmile_qr_scan"}, "name": "7490baa1a750c203370285c4432643ee", "is_reserved": 0}, {"is_disabled": 0, "fusion_lon": 0.0, "fusion_lat": 0.0, "lat": 38.95310683333334, "type": "electric_scooter", "lon": -77.03601466666667, "bike_id": "cb8af7c4d9dff40679e0ac1ffae624fd", "rental_uris": {"android": "https://dc.lft.to/lastmile_qr_scan", "ios": "https://dc.lft.to/lastmile_qr_scan"}, "name": "cb8af7c4d9dff40679e0ac1ffae624fd", "is_reserved": 0}, {"is_disabled": 0, "fusion_lon": 0.0, "fusion_lat": 0.0, "lat": 38.899963, "type": "electric_scooter", "lon": -77.03320733333334, "bike_id": "6fc40a647cbb70eea79662a66d4a845f", "rental_uris": {"android": "https://dc.lft.to/lastmile_qr_scan", "ios": "https://dc.lft.to/lastmile_qr_scan"}, "name": "6fc40a647cbb70eea79662a66d4a845f", "is_reserved": 0}, {"is_disabled": 0, "fusion_lon": 0.0, "fusion_lat": 0.0, "lat": 38.919351166666665, "type": "electric_bike", "lon": -76.97503966666666, "bike_id": "e21999ad8a085a4ee1cce7719a59641a", "rental_uris": {"android": "https://dc.lft.to/lastmile_qr_scan", "ios": "https://dc.lft.to/lastmile_qr_scan"}, "name": "e21999ad8a085a4ee1cce7719a59641a", "is_reserved": 0}, {"is_disabled": 0, "fusion_lon": 0.0, "fusion_lat": 0.0, "lat": 38.909591, "type": "electric_scooter", "lon": -77.02377333333334, "bike_id": "5d0809335bca54f70ffc464a73681b77", "rental_uris": {"android": "https://dc.lft.to/lastmile_qr_scan", "ios": "https://dc.lft.to/lastmile_qr_scan"}, "name": "5d0809335bca54f70ffc464a73681b77", "is_reserved": 0}, {"is_disabled": 0, "fusion_lon": 0.0, "fusion_lat": 0.0, "lat": 38.943012, "type": "electric_scooter", "lon": -77.02762966666667, "bike_id": "4993b0738849db9f6bdbaf242883c652", "rental_uris": {"android": "https://dc.lft.to/lastmile_qr_scan", "ios": "https://dc.lft.to/lastmile_qr_scan"}, "name": "4993b0738849db9f6bdbaf242883c652", "is_reserved": 0}, {"is_disabled": 0, "fusion_lon": 0.0, "fusion_lat": 0.0, "lat": 38.894074333333336, "type": "electric_scooter", "lon": -77.01085383333333, "bike_id": "82c2a92bf36e6be9d1c1991fffe3f9b4", "rental_uris": {"android": "https://dc.lft.to/lastmile_qr_scan", "ios": "https://dc.lft.to/lastmile_qr_scan"}, "name": "82c2a92bf36e6be9d1c1991fffe3f9b4", "is_reserved": 0}, {"is_disabled": 0, "fusion_lon": 0.0, "fusion_lat": 0.0, "lat": 38.936237166666665, "type": "electric_scooter", "lon": -77.03650716666667, "bike_id": "aa3153d26c41c252a0575019a54647c8", "rental_uris": {"android": "https://dc.lft.to/lastmile_qr_scan", "ios": "https://dc.lft.to/lastmile_qr_scan"}, "name": "aa3153d26c41c252a0575019a54647c8", "is_reserved": 0}, {"is_disabled": 0, "fusion_lon": 0.0, "fusion_lat": 0.0, "lat": 38.90488966666667, "type": "electric_scooter", "lon": -77.051362, "bike_id": "3ab65603c9c286d6565b96c7734014d1", "rental_uris": {"android": "https://dc.lft.to/lastmile_qr_scan", "ios": "https://dc.lft.to/lastmile_qr_scan"}, "name": "3ab65603c9c286d6565b96c7734014d1", "is_reserved": 0}, {"is_disabled": 0, "fusion_lon": 0.0, "fusion_lat": 0.0, "lat": 38.92334183333333, "type": "electric_scooter", "lon": -77.0419035, "bike_id": "74bec1a8c3fa387c3f6dd70bf8db0b72", "rental_uris": {"android": "https://dc.lft.to/lastmile_qr_scan", "ios": "https://dc.lft.to/lastmile_qr_scan"}, "name": "74bec1a8c3fa387c3f6dd70bf8db0b72", "is_reserved": 0}, {"is_disabled": 0, "fusion_lon": 0.0, "fusion_lat": 0.0, "lat": 38.9138075, "type": "electric_scooter", "lon": -77.0459925, "bike_id": "e423990e6e38eee41d6fd7f43fa3f7e1", "rental_uris": {"android": "https://dc.lft.to/lastmile_qr_scan", "ios": "https://dc.lft.to/lastmile_qr_scan"}, "name": "e423990e6e38eee41d6fd7f43fa3f7e1", "is_reserved": 0}, {"is_disabled": 0, "fusion_lon": 0.0, "fusion_lat": 0.0, "lat": 38.86956166666667, "type": "electric_scooter", "lon": -76.96034083333333, "bike_id": "0379c91dbb6031eb38cb153fd4c1ace0", "rental_uris": {"android": "https://dc.lft.to/lastmile_qr_scan", "ios": "https://dc.lft.to/lastmile_qr_scan"}, "name": "0379c91dbb6031eb38cb153fd4c1ace0", "is_reserved": 0}, {"is_disabled": 0, "fusion_lon": 0.0, "fusion_lat": 0.0, "lat": 38.81027383333333, "type": "electric_bike", "lon": -77.08433883333333, "bike_id": "4eb6c68554e26a3716e29f2e00343104", "rental_uris": {"android": "https://dc.lft.to/lastmile_qr_scan", "ios": "https://dc.lft.to/lastmile_qr_scan"}, "name": "4eb6c68554e26a3716e29f2e00343104", "is_reserved": 0}, {"is_disabled": 0, "fusion_lon": 0.0, "fusion_lat": 0.0, "lat": 38.91560583333333, "type": "electric_scooter", "lon": -77.00767883333333, "bike_id": "f3a9e2373138d30a1d4714e6ebf739e0", "rental_uris": {"android": "https://dc.lft.to/lastmile_qr_scan", "ios": "https://dc.lft.to/lastmile_qr_scan"}, "name": "f3a9e2373138d30a1d4714e6ebf739e0", "is_reserved": 0}, {"is_disabled": 0, "fusion_lon": 0.0, "fusion_lat": 0.0, "lat": 38.855063666666666, "type": "electric_bike", "lon": -76.95835266666667, "bike_id": "58d81eee97404113245f80f712479665", "rental_uris": {"android": "https://dc.lft.to/lastmile_qr_scan", "ios": "https://dc.lft.to/lastmile_qr_scan"}, "name": "58d81eee97404113245f80f712479665", "is_reserved": 0}, {"is_disabled": 0, "fusion_lon": 0.0, "fusion_lat": 0.0, "lat": 38.909611, "type": "electric_scooter", "lon": -77.0156855, "bike_id": "b4bf147de823da9bb9027c9c4d3758f4", "rental_uris": {"android": "https://dc.lft.to/lastmile_qr_scan", "ios": "https://dc.lft.to/lastmile_qr_scan"}, "name": "b4bf147de823da9bb9027c9c4d3758f4", "is_reserved": 0}, {"is_disabled": 0, "fusion_lon": 0.0, "fusion_lat": 0.0, "lat": 38.89723466666667, "type": "electric_scooter", "lon": -77.0479185, "bike_id": "ae28aa5130e153c4e5b489c83dfe5cb9", "rental_uris": {"android": "https://dc.lft.to/lastmile_qr_scan", "ios": "https://dc.lft.to/lastmile_qr_scan"}, "name": "ae28aa5130e153c4e5b489c83dfe5cb9", "is_reserved": 0}, {"is_disabled": 0, "fusion_lon": 0.0, "fusion_lat": 0.0, "lat": 38.924727833333336, "type": "electric_scooter", "lon": -77.03479933333334, "bike_id": "235ea3490c47ec87eced37286f01ca68", "rental_uris": {"android": "https://dc.lft.to/lastmile_qr_scan", "ios": "https://dc.lft.to/lastmile_qr_scan"}, "name": "235ea3490c47ec87eced37286f01ca68", "is_reserved": 0}, {"is_disabled": 0, "fusion_lon": 0.0, "fusion_lat": 0.0, "lat": 38.9275495, "type": "electric_scooter", "lon": -77.00593533333333, "bike_id": "5132ae2a7d4327a788d5b53e43dc58b2", "rental_uris": {"android": "https://dc.lft.to/lastmile_qr_scan", "ios": "https://dc.lft.to/lastmile_qr_scan"}, "name": "5132ae2a7d4327a788d5b53e43dc58b2", "is_reserved": 0}, {"is_disabled": 0, "fusion_lon": 0.0, "fusion_lat": 0.0, "lat": 38.88499233333334, "type": "electric_scooter", "lon": -76.996519, "bike_id": "08fe9f028023383e740f0b6f57e65afb", "rental_uris": {"android": "https://dc.lft.to/lastmile_qr_scan", "ios": "https://dc.lft.to/lastmile_qr_scan"}, "name": "08fe9f028023383e740f0b6f57e65afb", "is_reserved": 0}, {"is_disabled": 0, "fusion_lon": 0.0, "fusion_lat": 0.0, "lat": 38.903937166666665, "type": "electric_scooter", "lon": -76.9900715, "bike_id": "0b25b4baf846b868e7bc03cc75577cfc", "rental_uris": {"android": "https://dc.lft.to/lastmile_qr_scan", "ios": "https://dc.lft.to/lastmile_qr_scan"}, "name": "0b25b4baf846b868e7bc03cc75577cfc", "is_reserved": 0}, {"is_disabled": 0, "fusion_lon": 0.0, "fusion_lat": 0.0, "lat": 38.9193545, "type": "electric_scooter", "lon": -76.98073283333333, "bike_id": "8cc7907b8e511c23c15b91b2e5c29907", "rental_uris": {"android": "https://dc.lft.to/lastmile_qr_scan", "ios": "https://dc.lft.to/lastmile_qr_scan"}, "name": "8cc7907b8e511c23c15b91b2e5c29907", "is_reserved": 0}, {"is_disabled": 0, "fusion_lon": 0.0, "fusion_lat": 0.0, "lat": 38.9232735, "type": "electric_scooter", "lon": -77.041825, "bike_id": "b942d5cae73e5d6f93f5eea06dc8a0e7", "rental_uris": {"android": "https://dc.lft.to/lastmile_qr_scan", "ios": "https://dc.lft.to/lastmile_qr_scan"}, "name": "b942d5cae73e5d6f93f5eea06dc8a0e7", "is_reserved": 0}, {"is_disabled": 0, "fusion_lon": 0.0, "fusion_lat": 0.0, "lat": 38.9307705, "type": "electric_scooter", "lon": -77.03628733333333, "bike_id": "c7df64a1602988a3731afa25ea917004", "rental_uris": {"android": "https://dc.lft.to/lastmile_qr_scan", "ios": "https://dc.lft.to/lastmile_qr_scan"}, "name": "c7df64a1602988a3731afa25ea917004", "is_reserved": 0}, {"is_disabled": 0, "fusion_lon": 0.0, "fusion_lat": 0.0, "lat": 38.909553, "type": "electric_scooter", "lon": -77.02742266666667, "bike_id": "e952e120072b986470b022deb79d1337", "rental_uris": {"android": "https://dc.lft.to/lastmile_qr_scan", "ios": "https://dc.lft.to/lastmile_qr_scan"}, "name": "e952e120072b986470b022deb79d1337", "is_reserved": 0}, {"is_disabled": 0, "fusion_lon": 0.0, "fusion_lat": 0.0, "lat": 39.02685866666667, "type": "electric_bike", "lon": -77.1259565, "bike_id": "6197a3bcb10cd1993d07da1fb8ee26b4", "rental_uris": {"android": "https://dc.lft.to/lastmile_qr_scan", "ios": "https://dc.lft.to/lastmile_qr_scan"}, "name": "6197a3bcb10cd1993d07da1fb8ee26b4", "is_reserved": 0}, {"is_disabled": 0, "fusion_lon": 0.0, "fusion_lat": 0.0, "lat": 38.91396, "type": "electric_scooter", "lon": -77.023865, "bike_id": "c488efc52511c7538aedd3f027ece5e7", "rental_uris": {"android": "https://dc.lft.to/lastmile_qr_scan", "ios": "https://dc.lft.to/lastmile_qr_scan"}, "name": "c488efc52511c7538aedd3f027ece5e7", "is_reserved": 0}, {"is_disabled": 0, "fusion_lon": 0.0, "fusion_lat": 0.0, "lat": 38.9163005, "type": "electric_scooter", "lon": -77.04091383333333, "bike_id": "0b5a4dcf979d4bca9094a61dfef9ce84", "rental_uris": {"android": "https://dc.lft.to/lastmile_qr_scan", "ios": "https://dc.lft.to/lastmile_qr_scan"}, "name": "0b5a4dcf979d4bca9094a61dfef9ce84", "is_reserved": 0}, {"is_disabled": 0, "fusion_lon": 0.0, "fusion_lat": 0.0, "lat": 38.92162416666667, "type": "electric_scooter", "lon": -77.03390416666667, "bike_id": "e3288a45c97175ebcd7e20869b1da360", "rental_uris": {"android": "https://dc.lft.to/lastmile_qr_scan", "ios": "https://dc.lft.to/lastmile_qr_scan"}, "name": "e3288a45c97175ebcd7e20869b1da360", "is_reserved": 0}, {"is_disabled": 0, "fusion_lon": 0.0, "fusion_lat": 0.0, "lat": 38.92315633333333, "type": "electric_scooter", "lon": -77.04008433333334, "bike_id": "103779a049d24158e107631217365176", "rental_uris": {"android": "https://dc.lft.to/lastmile_qr_scan", "ios": "https://dc.lft.to/lastmile_qr_scan"}, "name": "103779a049d24158e107631217365176", "is_reserved": 0}, {"is_disabled": 0, "fusion_lon": 0.0, "fusion_lat": 0.0, "lat": 38.900413, "type": "electric_scooter", "lon": -77.04655533333333, "bike_id": "42f0e4fe60c347b4ae75cc3eaab84e1d", "rental_uris": {"android": "https://dc.lft.to/lastmile_qr_scan", "ios": "https://dc.lft.to/lastmile_qr_scan"}, "name": "42f0e4fe60c347b4ae75cc3eaab84e1d", "is_reserved": 0}, {"is_disabled": 0, "fusion_lon": 0.0, "fusion_lat": 0.0, "lat": 38.920544, "type": "electric_scooter", "lon": -77.04192066666667, "bike_id": "e45ae46777bfea28772f866f41d8b164", "rental_uris": {"android": "https://dc.lft.to/lastmile_qr_scan", "ios": "https://dc.lft.to/lastmile_qr_scan"}, "name": "e45ae46777bfea28772f866f41d8b164", "is_reserved": 0}, {"is_disabled": 0, "fusion_lon": 0.0, "fusion_lat": 0.0, "lat": 38.8984365, "type": "electric_scooter", "lon": -77.03350866666666, "bike_id": "2d35ebe0a22a8203bd777b77a52c95b3", "rental_uris": {"android": "https://dc.lft.to/lastmile_qr_scan", "ios": "https://dc.lft.to/lastmile_qr_scan"}, "name": "2d35ebe0a22a8203bd777b77a52c95b3", "is_reserved": 0}, {"is_disabled": 0, "fusion_lon": 0.0, "fusion_lat": 0.0, "lat": 38.9237535, "type": "electric_scooter", "lon": -77.03024516666666, "bike_id": "608a3580e36c13fbd59b033996d33c94", "rental_uris": {"android": "https://dc.lft.to/lastmile_qr_scan", "ios": "https://dc.lft.to/lastmile_qr_scan"}, "name": "608a3580e36c13fbd59b033996d33c94", "is_reserved": 0}, {"is_disabled": 0, "fusion_lon": 0.0, "fusion_lat": 0.0, "lat": 38.89832416666667, "type": "electric_scooter", "lon": -76.9463445, "bike_id": "946802c81b4675a29e6e5e3cf0615d11", "rental_uris": {"android": "https://dc.lft.to/lastmile_qr_scan", "ios": "https://dc.lft.to/lastmile_qr_scan"}, "name": "946802c81b4675a29e6e5e3cf0615d11", "is_reserved": 0}, {"is_disabled": 0, "fusion_lon": 0.0, "fusion_lat": 0.0, "lat": 38.962623666666666, "type": "electric_scooter", "lon": -77.02901183333333, "bike_id": "eaa1bdb3cdc214833946efe402f8cfd6", "rental_uris": {"android": "https://dc.lft.to/lastmile_qr_scan", "ios": "https://dc.lft.to/lastmile_qr_scan"}, "name": "eaa1bdb3cdc214833946efe402f8cfd6", "is_reserved": 0}, {"is_disabled": 0, "fusion_lon": 0.0, "fusion_lat": 0.0, "lat": 38.907881, "type": "electric_scooter", "lon": -77.03048533333333, "bike_id": "be026b44c425f27e0795f26b44f3ae6b", "rental_uris": {"android": "https://dc.lft.to/lastmile_qr_scan", "ios": "https://dc.lft.to/lastmile_qr_scan"}, "name": "be026b44c425f27e0795f26b44f3ae6b", "is_reserved": 0}, {"is_disabled": 0, "fusion_lon": 0.0, "fusion_lat": 0.0, "lat": 38.904756, "type": "electric_bike", "lon": -76.95055416666666, "bike_id": "f5a00dd593ceb077abff3263dc2f48c7", "rental_uris": {"android": "https://dc.lft.to/lastmile_qr_scan", "ios": "https://dc.lft.to/lastmile_qr_scan"}, "name": "f5a00dd593ceb077abff3263dc2f48c7", "is_reserved": 0}, {"is_disabled": 0, "fusion_lon": 0.0, "fusion_lat": 0.0, "lat": 38.919991, "type": "electric_scooter", "lon": -77.02535516666667, "bike_id": "1054fa7f9313abe76a3f021f6371198e", "rental_uris": {"android": "https://dc.lft.to/lastmile_qr_scan", "ios": "https://dc.lft.to/lastmile_qr_scan"}, "name": "1054fa7f9313abe76a3f021f6371198e", "is_reserved": 0}, {"is_disabled": 0, "fusion_lon": 0.0, "fusion_lat": 0.0, "lat": 38.9302785, "type": "electric_scooter", "lon": -77.034514, "bike_id": "e7756158a847d974b59016ab64b8fa2c", "rental_uris": {"android": "https://dc.lft.to/lastmile_qr_scan", "ios": "https://dc.lft.to/lastmile_qr_scan"}, "name": "e7756158a847d974b59016ab64b8fa2c", "is_reserved": 0}, {"is_disabled": 0, "fusion_lon": 0.0, "fusion_lat": 0.0, "lat": 38.82775816666667, "type": "electric_bike", "lon": -77.11079283333333, "bike_id": "744cd71bf6c30803e1de60721848e285", "rental_uris": {"android": "https://dc.lft.to/lastmile_qr_scan", "ios": "https://dc.lft.to/lastmile_qr_scan"}, "name": "744cd71bf6c30803e1de60721848e285", "is_reserved": 0}, {"is_disabled": 0, "fusion_lon": 0.0, "fusion_lat": 0.0, "lat": 38.91776616666667, "type": "electric_scooter", "lon": -77.0365725, "bike_id": "26ec32e0c310278e8ec8c05bb803ae0c", "rental_uris": {"android": "https://dc.lft.to/lastmile_qr_scan", "ios": "https://dc.lft.to/lastmile_qr_scan"}, "name": "26ec32e0c310278e8ec8c05bb803ae0c", "is_reserved": 0}, {"is_disabled": 0, "fusion_lon": 0.0, "fusion_lat": 0.0, "lat": 38.905019333333335, "type": "electric_scooter", "lon": -77.0652215, "bike_id": "ccac787f4a8071b3a043124ca5d10a57", "rental_uris": {"android": "https://dc.lft.to/lastmile_qr_scan", "ios": "https://dc.lft.to/lastmile_qr_scan"}, "name": "ccac787f4a8071b3a043124ca5d10a57", "is_reserved": 0}, {"is_disabled": 0, "fusion_lon": 0.0, "fusion_lat": 0.0, "lat": 38.91265883333333, "type": "electric_scooter", "lon": -77.02565133333333, "bike_id": "8ea41f3ba74046b99fab9cbbfc46679c", "rental_uris": {"android": "https://dc.lft.to/lastmile_qr_scan", "ios": "https://dc.lft.to/lastmile_qr_scan"}, "name": "8ea41f3ba74046b99fab9cbbfc46679c", "is_reserved": 0}, {"is_disabled": 0, "fusion_lon": 0.0, "fusion_lat": 0.0, "lat": 38.91575383333333, "type": "electric_bike", "lon": -77.06928916666666, "bike_id": "3715dc0140afb5a51846d536431b98d2", "rental_uris": {"android": "https://dc.lft.to/lastmile_qr_scan", "ios": "https://dc.lft.to/lastmile_qr_scan"}, "name": "3715dc0140afb5a51846d536431b98d2", "is_reserved": 0}, {"is_disabled": 0, "fusion_lon": 0.0, "fusion_lat": 0.0, "lat": 38.89030733333333, "type": "electric_scooter", "lon": -77.00140683333333, "bike_id": "0cbab1e1b6709c178f5efe6dcba57ac8", "rental_uris": {"android": "https://dc.lft.to/lastmile_qr_scan", "ios": "https://dc.lft.to/lastmile_qr_scan"}, "name": "0cbab1e1b6709c178f5efe6dcba57ac8", "is_reserved": 0}, {"is_disabled": 0, "fusion_lon": 0.0, "fusion_lat": 0.0, "lat": 38.90121083333333, "type": "electric_scooter", "lon": -77.03050183333333, "bike_id": "52410142cd62661fb3f0f70472273c4b", "rental_uris": {"android": "https://dc.lft.to/lastmile_qr_scan", "ios": "https://dc.lft.to/lastmile_qr_scan"}, "name": "52410142cd62661fb3f0f70472273c4b", "is_reserved": 0}, {"is_disabled": 0, "fusion_lon": 0.0, "fusion_lat": 0.0, "lat": 38.91637266666667, "type": "electric_scooter", "lon": -77.034595, "bike_id": "5bda62b4722867f36d40c6bba7eee797", "rental_uris": {"android": "https://dc.lft.to/lastmile_qr_scan", "ios": "https://dc.lft.to/lastmile_qr_scan"}, "name": "5bda62b4722867f36d40c6bba7eee797", "is_reserved": 0}, {"is_disabled": 0, "fusion_lon": 0.0, "fusion_lat": 0.0, "lat": 38.88249066666667, "type": "electric_scooter", "lon": -77.00346883333333, "bike_id": "3e901782a2a9d4f46784b0faeca6a89c", "rental_uris": {"android": "https://dc.lft.to/lastmile_qr_scan", "ios": "https://dc.lft.to/lastmile_qr_scan"}, "name": "3e901782a2a9d4f46784b0faeca6a89c", "is_reserved": 0}, {"is_disabled": 0, "fusion_lon": 0.0, "fusion_lat": 0.0, "lat": 38.9045945, "type": "electric_scooter", "lon": -77.0382175, "bike_id": "2aeaf256f45dad42cac7fa8a5ce91b7c", "rental_uris": {"android": "https://dc.lft.to/lastmile_qr_scan", "ios": "https://dc.lft.to/lastmile_qr_scan"}, "name": "2aeaf256f45dad42cac7fa8a5ce91b7c", "is_reserved": 0}, {"is_disabled": 0, "fusion_lon": 0.0, "fusion_lat": 0.0, "lat": 38.9631295, "type": "electric_bike", "lon": -77.05768333333333, "bike_id": "8b1a214a1eb1ed710fb99ea956925700", "rental_uris": {"android": "https://dc.lft.to/lastmile_qr_scan", "ios": "https://dc.lft.to/lastmile_qr_scan"}, "name": "8b1a214a1eb1ed710fb99ea956925700", "is_reserved": 0}, {"is_disabled": 0, "fusion_lon": 0.0, "fusion_lat": 0.0, "lat": 38.91708033333333, "type": "electric_scooter", "lon": -77.03673966666666, "bike_id": "f50f82435603543a17f6c00bcd8604f7", "rental_uris": {"android": "https://dc.lft.to/lastmile_qr_scan", "ios": "https://dc.lft.to/lastmile_qr_scan"}, "name": "f50f82435603543a17f6c00bcd8604f7", "is_reserved": 0}, {"is_disabled": 0, "fusion_lon": 0.0, "fusion_lat": 0.0, "lat": 38.86843866666667, "type": "electric_bike", "lon": -77.0972845, "bike_id": "dbfa1734e4b782e62af1f54122c895c7", "rental_uris": {"android": "https://dc.lft.to/lastmile_qr_scan", "ios": "https://dc.lft.to/lastmile_qr_scan"}, "name": "dbfa1734e4b782e62af1f54122c895c7", "is_reserved": 0}, {"is_disabled": 0, "fusion_lon": 0.0, "fusion_lat": 0.0, "lat": 38.9306335, "type": "electric_scooter", "lon": -77.03191883333334, "bike_id": "d9eb8404eac08956ab6b5c8b5dc222f8", "rental_uris": {"android": "https://dc.lft.to/lastmile_qr_scan", "ios": "https://dc.lft.to/lastmile_qr_scan"}, "name": "d9eb8404eac08956ab6b5c8b5dc222f8", "is_reserved": 0},