{"data": {"bikes": [{"lon": -77.04155066666667, "bike_id": "aecd3a208cd38e14322609375a00d9a8", "lat": 38.912661, "fusion_lon": 0.0, "fusion_lat": 0.0, "type": "electric_scooter", "name": "aecd3a208cd38e14322609375a00d9a8", "is_disabled": 0, "rental_uris": {"ios": "https://dc.lft.to/lastmile_qr_scan", "android": "https://dc.lft.to/lastmile_qr_scan"}, "is_reserved": 0}, {"lon": -77.025588, "bike_id": "d69df44ecca7b419a72c1aed5ac4108f", "lat": 38.90726133333333, "fusion_lon": 0.0, "fusion_lat": 0.0, "type": "electric_scooter", "name": "d69df44ecca7b419a72c1aed5ac4108f", "is_disabled": 0, "rental_uris": {"ios": "https://dc.lft.to/lastmile_qr_scan", "android": "https://dc.lft.to/lastmile_qr_scan"}, "is_reserved": 0}, {"lon": -77.03146133333334, "bike_id": "d3406c82541a9a6bad1bce5e50d5121f", "lat": 38.92024883333333, "fusion_lon": 0.0, "fusion_lat": 0.0, "type": "electric_scooter", "name": "d3406c82541a9a6bad1bce5e50d5121f", "is_disabled": 0, "rental_uris": {"ios": "https://dc.lft.to/lastmile_qr_scan", "android": "https://dc.lft.to/lastmile_qr_scan"}, "is_reserved": 0}, {"lon": -77.00750216666667, "bike_id": "9e28d4f6e816df5ada8d646ceffaac26", "lat": 38.8983105, "fusion_lon": 0.0, "fusion_lat": 0.0, "type": "electric_scooter", "name": "9e28d4f6e816df5ada8d646ceffaac26", "is_disabled": 0, "rental_uris": {"ios": "https://dc.lft.to/lastmile_qr_scan", "android": "https://dc.lft.to/lastmile_qr_scan"}, "is_reserved": 0}, {"lon": -77.07710033333333, "bike_id": "1e36c02235511d435c71dbe1db8624d5", "lat": 38.956951833333335, "fusion_lon": 0.0, "fusion_lat": 0.0, "type": "electric_bike", "name": "1e36c02235511d435c71dbe1db8624d5", "is_disabled": 0, "rental_uris": {"ios": "https://dc.lft.to/lastmile_qr_scan", "android": "https://dc.lft.to/lastmile_qr_scan"}, "is_reserved": 0}, {"lon": -76.97617366666667, "bike_id": "7ff02995f8bb2c27f2048aa6a512a260", "lat": 38.90383816666667, "fusion_lon": 0.0, "fusion_lat": 0.0, "type": "electric_scooter", "name": "7ff02995f8bb2c27f2048aa6a512a260", "is_disabled": 0, "rental_uris": {"ios": "https://dc.lft.to/lastmile_qr_scan", "android": "https://dc.lft.to/lastmile_qr_scan"}, "is_reserved": 0}, {"lon": -77.0449505, "bike_id": "51f024337463a85fa733e74c610644d9", "lat": 38.9085095, "fusion_lon": 0.0, "fusion_lat": 0.0, "type": "electric_scooter", "name": "51f024337463a85fa733e74c610644d9", "is_disabled": 0, "rental_uris": {"ios": "https://dc.lft.to/lastmile_qr_scan", "android": "https://dc.lft.to/lastmile_qr_scan"}, "is_reserved": 0}, {"lon": -77.04821533333333, "bike_id": "7457233a97e78322d58526b9c9acfb48", "lat": 38.911078333333336, "fusion_lon": 0.0, "fusion_lat": 0.0, "type": "electric_scooter", "name": "7457233a97e78322d58526b9c9acfb48", "is_disabled": 0, "rental_uris": {"ios": "https://dc.lft.to/lastmile_qr_scan", "android": "https://dc.lft.to/lastmile_qr_scan"}, "is_reserved": 0}, {"lon": -76.99895833333333, "bike_id": "fac069d95ae12ef24797df5b738cda44", "lat": 38.909521166666664, "fusion_lon": 0.0, "fusion_lat": 0.0, "type": "electric_scooter", "name": "fac069d95ae12ef24797df5b738cda44", "is_disabled": 0, "rental_uris": {"ios": "https://dc.lft.to/lastmile_qr_scan", "android": "https://dc.lft.to/lastmile_qr_scan"}, "is_reserved": 0}, {"lon": -77.044576, "bike_id": "1ea00700e0ac586207fb83739f398c2a", "lat": 38.918531333333334, "fusion_lon": 0.0, "fusion_lat": 0.0, "type": "electric_scooter", "name": "1ea00700e0ac586207fb83739f398c2a", "is_disabled": 0, "rental_uris": {"ios": "https://dc.lft.to/lastmile_qr_scan", "android": "https://dc.lft.to/lastmile_qr_scan"}, "is_reserved": 0}, {"lon": -77.02001066666666, "bike_id": "fe56d7a008557713dd9a531cf2ecf089", "lat": 38.91577683333333, "fusion_lon": 0.0, "fusion_lat": 0.0, "type": "electric_scooter", "name": "fe56d7a008557713dd9a531cf2ecf089", "is_disabled": 0, "rental_uris": {"ios": "https://dc.lft.to/lastmile_qr_scan", "android": "https://dc.lft.to/lastmile_qr_scan"}, "is_reserved": 0}, {"lon": -76.93610816666667, "bike_id": "669a08341f68af501bbe100df825b22a", "lat": 38.89682533333333, "fusion_lon": 0.0, "fusion_lat": 0.0, "type": "electric_scooter", "name": "669a08341f68af501bbe100df825b22a", "is_disabled": 0, "rental_uris": {"ios": "https://dc.lft.to/lastmile_qr_scan", "android": "https://dc.lft.to/lastmile_qr_scan"}, "is_reserved": 0}, {"lon": -76.99938283333333, "bike_id": "a9c1a260db75daeaaceb84f2d73eef3e", "lat": 38.8430025, "fusion_lon": 0.0, "fusion_lat": 0.0, "type": "electric_scooter", "name": "a9c1a260db75daeaaceb84f2d73eef3e", "is_disabled": 0, "rental_uris": {"ios": "https://dc.lft.to/lastmile_qr_scan", "android": "https://dc.lft.to/lastmile_qr_scan"}, "is_reserved": 0}, {"lon": -77.03764366666667, "bike_id": "f33071a380bfce1c6c8da84c25cdaffc", "lat": 38.9028385, "fusion_lon": 0.0, "fusion_lat": 0.0, "type": "electric_scooter", "name": "f33071a380bfce1c6c8da84c25cdaffc", "is_disabled": 0, "rental_uris": {"ios": "https://dc.lft.to/lastmile_qr_scan", "android": "https://dc.lft.to/lastmile_qr_scan"}, "is_reserved": 0}, {"lon": -77.01865516666666, "bike_id": "b4002b9e8dfb7cc1d562527ced5a6815", "lat": 38.9736875, "fusion_lon": 0.0, "fusion_lat": 0.0, "type": "electric_scooter", "name": "b4002b9e8dfb7cc1d562527ced5a6815", "is_disabled": 0, "rental_uris": {"ios": "https://dc.lft.to/lastmile_qr_scan", "android": "https://dc.lft.to/lastmile_qr_scan"}, "is_reserved": 0}, {"lon": -77.070121, "bike_id": "96efdaedb89de34f5d7737a7fed7dbfa", "lat": 38.958509, "fusion_lon": 0.0, "fusion_lat": 0.0, "type": "electric_scooter", "name": "96efdaedb89de34f5d7737a7fed7dbfa", "is_disabled": 0, "rental_uris": {"ios": "https://dc.lft.to/lastmile_qr_scan", "android": "https://dc.lft.to/lastmile_qr_scan"}, "is_reserved": 0}, {"lon": -76.948773, "bike_id": "921c0e1443bd33a07e2d66c2dd35b0f1", "lat": 38.89545733333333, "fusion_lon": 0.0, "fusion_lat": 0.0, "type": "electric_scooter", "name": "921c0e1443bd33a07e2d66c2dd35b0f1", "is_disabled": 0, "rental_uris": {"ios": "https://dc.lft.to/lastmile_qr_scan", "android": "https://dc.lft.to/lastmile_qr_scan"}, "is_reserved": 0}, {"lon": -76.99719883333333, "bike_id": "cc3b07202fe64656e6296114c473ad3b", "lat": 38.9005375, "fusion_lon": 0.0, "fusion_lat": 0.0, "type": "electric_scooter", "name": "cc3b07202fe64656e6296114c473ad3b", "is_disabled": 0, "rental_uris": {"ios": "https://dc.lft.to/lastmile_qr_scan", "android": "https://dc.lft.to/lastmile_qr_scan"}, "is_reserved": 0}, {"lon": -77.0109085, "bike_id": "a11312feb42c0ea4eec667728fb1c2c6", "lat": 38.917601833333336, "fusion_lon": 0.0, "fusion_lat": 0.0, "type": "electric_scooter", "name": "a11312feb42c0ea4eec667728fb1c2c6", "is_disabled": 0, "rental_uris": {"ios": "https://dc.lft.to/lastmile_qr_scan", "android": "https://dc.lft.to/lastmile_qr_scan"}, "is_reserved": 0}, {"lon": -76.992561, "bike_id": "dec87783177c167f7a4394f39a3e26e8", "lat": 38.9234885, "fusion_lon": 0.0, "fusion_lat": 0.0, "type": "electric_bike", "name": "dec87783177c167f7a4394f39a3e26e8", "is_disabled": 0, "rental_uris": {"ios": "https://dc.lft.to/lastmile_qr_scan", "android": "https://dc.lft.to/lastmile_qr_scan"}, "is_reserved": 0}, {"lon": -77.0807325, "bike_id": "5d20843895326d0a55c4f317fdf8f85c", "lat": 38.9631405, "fusion_lon": 0.0, "fusion_lat": 0.0, "type": "electric_bike", "name": "5d20843895326d0a55c4f317fdf8f85c", "is_disabled": 0, "rental_uris": {"ios": "https://dc.lft.to/lastmile_qr_scan", "android": "https://dc.lft.to/lastmile_qr_scan"}, "is_reserved": 0}, {"lon": -77.02091483333334, "bike_id": "375861db5095409a103177c08626dd45", "lat": 38.9452755, "fusion_lon": 0.0, "fusion_lat": 0.0, "type": "electric_scooter", "name": "375861db5095409a103177c08626dd45", "is_disabled": 0, "rental_uris": {"ios": "https://dc.lft.to/lastmile_qr_scan", "android": "https://dc.lft.to/lastmile_qr_scan"}, "is_reserved": 0}, {"lon": -76.99382966666667, "bike_id": "35fb22bcdf694f7e01ce91b519909176", "lat": 38.971836, "fusion_lon": 0.0, "fusion_lat": 0.0, "type": "electric_bike", "name": "35fb22bcdf694f7e01ce91b519909176", "is_disabled": 0, "rental_uris": {"ios": "https://dc.lft.to/lastmile_qr_scan", "android": "https://dc.lft.to/lastmile_qr_scan"}, "is_reserved": 0}, {"lon": -77.03165583333333, "bike_id": "6bc38032972d374b2a6a84a5cc3d2b81", "lat": 38.936031, "fusion_lon": 0.0, "fusion_lat": 0.0, "type": "electric_scooter", "name": "6bc38032972d374b2a6a84a5cc3d2b81", "is_disabled": 0, "rental_uris": {"ios": "https://dc.lft.to/lastmile_qr_scan", "android": "https://dc.lft.to/lastmile_qr_scan"}, "is_reserved": 0}, {"lon": -77.00341483333334, "bike_id": "47849c6f72b48401141d1abc80554587", "lat": 38.895237, "fusion_lon": 0.0, "fusion_lat": 0.0, "type": "electric_scooter", "name": "47849c6f72b48401141d1abc80554587", "is_disabled": 0, "rental_uris": {"ios": "https://dc.lft.to/lastmile_qr_scan", "android": "https://dc.lft.to/lastmile_qr_scan"}, "is_reserved": 0}, {"lon": -77.0319365, "bike_id": "21c99b93c5468ad92f7603779d47f28d", "lat": 38.90847733333333, "fusion_lon": 0.0, "fusion_lat": 0.0, "type": "electric_scooter", "name": "21c99b93c5468ad92f7603779d47f28d", "is_disabled": 0, "rental_uris": {"ios": "https://dc.lft.to/lastmile_qr_scan", "android": "https://dc.lft.to/lastmile_qr_scan"}, "is_reserved": 0}, {"lon": -76.99634716666667, "bike_id": "1b3045d0c39984981e745ec712af446c", "lat": 38.900178333333336, "fusion_lon": 0.0, "fusion_lat": 0.0, "type": "electric_scooter", "name": "1b3045d0c39984981e745ec712af446c", "is_disabled": 0, "rental_uris": {"ios": "https://dc.lft.to/lastmile_qr_scan", "android": "https://dc.lft.to/lastmile_qr_scan"}, "is_reserved": 0}, {"lon": -77.02718633333333, "bike_id": "204c6bbb992411666cb57ab65f4758a1", "lat": 38.90908433333333, "fusion_lon": 0.0, "fusion_lat": 0.0, "type": "electric_scooter", "name": "204c6bbb992411666cb57ab65f4758a1", "is_disabled": 0, "rental_uris": {"ios": "https://dc.lft.to/lastmile_qr_scan", "android": "https://dc.lft.to/lastmile_qr_scan"}, "is_reserved": 0}, {"lon": -77.04198033333333, "bike_id": "560f0344d8f5fefe714bbcd3bbe705d7", "lat": 38.919715, "fusion_lon": 0.0, "fusion_lat": 0.0, "type": "electric_scooter", "name": "560f0344d8f5fefe714bbcd3bbe705d7", "is_disabled": 0, "rental_uris": {"ios": "https://dc.lft.to/lastmile_qr_scan", "android": "https://dc.lft.to/lastmile_qr_scan"}, "is_reserved": 0}, {"lon": -77.03232816666667, "bike_id": "ce550a2a468c66f3ac82497d9f8f6b5b", "lat": 38.91401966666667, "fusion_lon": 0.0, "fusion_lat": 0.0, "type": "electric_scooter", "name": "ce550a2a468c66f3ac82497d9f8f6b5b", "is_disabled": 0, "rental_uris": {"ios": "https://dc.lft.to/lastmile_qr_scan", "android": "https://dc.lft.to/lastmile_qr_scan"}, "is_reserved": 0}, {"lon": -77.02397216666667, "bike_id": "8444d400947f14a223100090267d6c85", "lat": 38.896429499999996, "fusion_lon": 0.0, "fusion_lat": 0.0, "type": "electric_scooter", "name": "8444d400947f14a223100090267d6c85", "is_disabled": 0, "rental_uris": {"ios": "https://dc.lft.to/lastmile_qr_scan", "android": "https://dc.lft.to/lastmile_qr_scan"}, "is_reserved": 0}, {"lon": -77.0328485, "bike_id": "9688c3a34478c4eddf1b7423cae8ad63", "lat": 38.94658883333334, "fusion_lon": 0.0, "fusion_lat": 0.0, "type": "electric_scooter", "name": "9688c3a34478c4eddf1b7423cae8ad63", "is_disabled": 0, "rental_uris": {"ios": "https://dc.lft.to/lastmile_qr_scan", "android": "https://dc.lft.to/lastmile_qr_scan"}, "is_reserved": 0}, {"lon": -77.05142533333333, "bike_id": "58475dfe0c74bcc339d9700d98ba0a54", "lat": 38.898559666666664, "fusion_lon": 0.0, "fusion_lat": 0.0, "type": "electric_scooter", "name": "58475dfe0c74bcc339d9700d98ba0a54", "is_disabled": 0, "rental_uris": {"ios": "https://dc.lft.to/lastmile_qr_scan", "android": "https://dc.lft.to/lastmile_qr_scan"}, "is_reserved": 0}, {"lon": -77.00758083333334, "bike_id": "2948c1df2b3a1fbcc6425dc35dcdc977", "lat": 38.8973085, "fusion_lon": 0.0, "fusion_lat": 0.0, "type": "electric_scooter", "name": "2948c1df2b3a1fbcc6425dc35dcdc977", "is_disabled": 0, "rental_uris": {"ios": "https://dc.lft.to/lastmile_qr_scan", "android": "https://dc.lft.to/lastmile_qr_scan"}, "is_reserved": 0}, {"lon": -77.02152916666667, "bike_id": "d01cbcf808c2a2e072e77a8259d068ab", "lat": 38.89408266666667, "fusion_lon": 0.0, "fusion_lat": 0.0, "type": "electric_scooter", "name": "d01cbcf808c2a2e072e77a8259d068ab", "is_disabled": 0, "rental_uris": {"ios": "https://dc.lft.to/lastmile_qr_scan", "android": "https://dc.lft.to/lastmile_qr_scan"}, "is_reserved": 0}, {"lon": -76.9893975, "bike_id": "2eb4da2fb69dba71b6a45d078b26218a", "lat": 38.9183795, "fusion_lon": 0.0, "fusion_lat": 0.0, "type": "electric_scooter", "name": "2eb4da2fb69dba71b6a45d078b26218a", "is_disabled": 0, "rental_uris": {"ios": "https://dc.lft.to/lastmile_qr_scan", "android": "https://dc.lft.to/lastmile_qr_scan"}, "is_reserved": 0}, {"lon": -77.01105033333333, "bike_id": "0b122ef5fbf31a52dce345f74416b942", "lat": 38.90970516666667, "fusion_lon": 0.0, "fusion_lat": 0.0, "type": "electric_scooter", "name": "0b122ef5fbf31a52dce345f74416b942", "is_disabled": 0, "rental_uris": {"ios": "https://dc.lft.to/lastmile_qr_scan", "android": "https://dc.lft.to/lastmile_qr_scan"}, "is_reserved": 0}, {"lon": -77.04974833333333, "bike_id": "8c7518ad4f82b340f88395e002b76886", "lat": 38.894617333333336, "fusion_lon": 0.0, "fusion_lat": 0.0, "type": "electric_scooter", "name": "8c7518ad4f82b340f88395e002b76886", "is_disabled": 0, "rental_uris": {"ios": "https://dc.lft.to/lastmile_qr_scan", "android": "https://dc.lft.to/lastmile_qr_scan"}, "is_reserved": 0}, {"lon": -77.01769183333333, "bike_id": "78183fd5c23161a0258334c775b2b201", "lat": 38.97593333333333, "fusion_lon": 0.0, "fusion_lat": 0.0, "type": "electric_scooter", "name": "78183fd5c23161a0258334c775b2b201", "is_disabled": 0, "rental_uris": {"ios": "https://dc.lft.to/lastmile_qr_scan", "android": "https://dc.lft.to/lastmile_qr_scan"}, "is_reserved": 0}, {"lon": -77.04374066666666, "bike_id": "bda09e554829c214f22e463023c231e9", "lat": 38.8985485, "fusion_lon": 0.0, "fusion_lat": 0.0, "type": "electric_scooter", "name": "bda09e554829c214f22e463023c231e9", "is_disabled": 0, "rental_uris": {"ios": "https://dc.lft.to/lastmile_qr_scan", "android": "https://dc.lft.to/lastmile_qr_scan"}, "is_reserved": 0}, {"lon": -77.026528, "bike_id": "609d1e16a290ec54f8e826b031422592", "lat": 38.938586, "fusion_lon": 0.0, "fusion_lat": 0.0, "type": "electric_scooter", "name": "609d1e16a290ec54f8e826b031422592", "is_disabled": 0, "rental_uris": {"ios": "https://dc.lft.to/lastmile_qr_scan", "android": "https://dc.lft.to/lastmile_qr_scan"}, "is_reserved": 0}, {"lon": -77.04506483333333, "bike_id": "cb98cef8460d5b5ceafc0784173b042d", "lat": 38.892397833333334, "fusion_lon": 0.0, "fusion_lat": 0.0, "type": "electric_scooter", "name": "cb98cef8460d5b5ceafc0784173b042d", "is_disabled": 0, "rental_uris": {"ios": "https://dc.lft.to/lastmile_qr_scan", "android": "https://dc.lft.to/lastmile_qr_scan"}, "is_reserved": 0}, {"lon": -77.04956166666666, "bike_id": "073ee0697de6ebad26d9cd5d1994f257", "lat": 38.908466833333335, "fusion_lon": 0.0, "fusion_lat": 0.0, "type": "electric_scooter", "name": "073ee0697de6ebad26d9cd5d1994f257", "is_disabled": 0, "rental_uris": {"ios": "https://dc.lft.to/lastmile_qr_scan", "android": "https://dc.lft.to/lastmile_qr_scan"}, "is_reserved": 0}, {"lon": -77.0710125, "bike_id": "27ba791a2031786c5dcb5eaa0354778c", "lat": 38.92250333333333, "fusion_lon": 0.0, "fusion_lat": 0.0, "type": "electric_scooter", "name": "27ba791a2031786c5dcb5eaa0354778c", "is_disabled": 0, "rental_uris": {"ios": "https://dc.lft.to/lastmile_qr_scan", "android": "https://dc.lft.to/lastmile_qr_scan"}, "is_reserved": 0}, {"lon": -76.98497233333333, "bike_id": "936b21db67a5f3509ec09ec80db1ac0f", "lat": 38.8783415, "fusion_lon": 0.0, "fusion_lat": 0.0, "type": "electric_scooter", "name": "936b21db67a5f3509ec09ec80db1ac0f", "is_disabled": 0, "rental_uris": {"ios": "https://dc.lft.to/lastmile_qr_scan", "android": "https://dc.lft.to/lastmile_qr_scan"}, "is_reserved": 0}, {"lon": -77.0253265, "bike_id": "530b2203119daf26cf83843f25c88ee6", "lat": 38.918146, "fusion_lon": 0.0, "fusion_lat": 0.0, "type": "electric_scooter", "name": "530b2203119daf26cf83843f25c88ee6", "is_disabled": 0, "rental_uris": {"ios": "https://dc.lft.to/lastmile_qr_scan", "android": "https://dc.lft.to/lastmile_qr_scan"}, "is_reserved": 0}, {"lon": -77.05227583333334, "bike_id": "669feb8e0800ea61fbb30cccbe1d9a5e", "lat": 38.924955, "fusion_lon": 0.0, "fusion_lat": 0.0, "type": "electric_scooter", "name": "669feb8e0800ea61fbb30cccbe1d9a5e", "is_disabled": 0, "rental_uris": {"ios": "https://dc.lft.to/lastmile_qr_scan", "android": "https://dc.lft.to/lastmile_qr_scan"}, "is_reserved": 0}, {"lon": -76.93724016666667, "bike_id": "5c2d545ee8939fa297860e1cc2e25c5b", "lat": 38.88662983333333, "fusion_lon": 0.0, "fusion_lat": 0.0, "type": "electric_scooter", "name": "5c2d545ee8939fa297860e1cc2e25c5b", "is_disabled": 0, "rental_uris": {"ios": "https://dc.lft.to/lastmile_qr_scan", "android": "https://dc.lft.to/lastmile_qr_scan"}, "is_reserved": 0}, {"lon": -77.04142183333333, "bike_id": "d006d5caa5b85ff10669fc975cc152fb", "lat": 38.9061105, "fusion_lon": 0.0, "fusion_lat": 0.0, "type": "electric_scooter", "name": "d006d5caa5b85ff10669fc975cc152fb", "is_disabled": 0, "rental_uris": {"ios": "https://dc.lft.to/lastmile_qr_scan", "android": "https://dc.lft.to/lastmile_qr_scan"}, "is_reserved": 0}, {"lon": -77.033443, "bike_id": "faa3076b7610a460401d46e4376a6827", "lat": 38.92883616666667, "fusion_lon": 0.0, "fusion_lat": 0.0, "type": "electric_scooter", "name": "faa3076b7610a460401d46e4376a6827", "is_disabled": 0, "rental_uris": {"ios": "https://dc.lft.to/lastmile_qr_scan", "android": "https://dc.lft.to/lastmile_qr_scan"}, "is_reserved": 0}, {"lon": -77.04470166666667, "bike_id": "c13c4f8f2f960d7f1e2b4c48c189c928", "lat": 38.9153055, "fusion_lon": 0.0, "fusion_lat": 0.0, "type": "electric_scooter", "name": "c13c4f8f2f960d7f1e2b4c48c189c928", "is_disabled": 0, "rental_uris": {"ios": "https://dc.lft.to/lastmile_qr_scan", "android": "https://dc.lft.to/lastmile_qr_scan"}, "is_reserved": 0}, {"lon": -77.05213933333333, "bike_id": "338dba3a30a778d0bfcf7eec930efd6c", "lat": 38.9156595, "fusion_lon": 0.0, "fusion_lat": 0.0, "type": "electric_scooter", "name": "338dba3a30a778d0bfcf7eec930efd6c", "is_disabled": 0, "rental_uris": {"ios": "https://dc.lft.to/lastmile_qr_scan", "android": "https://dc.lft.to/lastmile_qr_scan"}, "is_reserved": 0}, {"lon": -77.03286816666666, "bike_id": "063186d283042384660bb5ac6c84dab8", "lat": 38.93641083333333, "fusion_lon": 0.0, "fusion_lat": 0.0, "type": "electric_scooter", "name": "063186d283042384660bb5ac6c84dab8", "is_disabled": 0, "rental_uris": {"ios": "https://dc.lft.to/lastmile_qr_scan", "android": "https://dc.lft.to/lastmile_qr_scan"}, "is_reserved": 0}, {"lon": -77.0446465, "bike_id": "c7553f812a5dd4590d3f4ec973cd136f", "lat": 38.91849633333333, "fusion_lon": 0.0, "fusion_lat": 0.0, "type": "electric_scooter", "name": "c7553f812a5dd4590d3f4ec973cd136f", "is_disabled": 0, "rental_uris": {"ios": "https://dc.lft.to/lastmile_qr_scan", "android": "https://dc.lft.to/lastmile_qr_scan"}, "is_reserved": 0}, {"lon": -77.0073885, "bike_id": "5cfe647aa9d1fb85a01c034823397c87", "lat": 38.925442, "fusion_lon": 0.0, "fusion_lat": 0.0, "type": "electric_scooter", "name": "5cfe647aa9d1fb85a01c034823397c87", "is_disabled": 0, "rental_uris": {"ios": "https://dc.lft.to/lastmile_qr_scan", "android": "https://dc.lft.to/lastmile_qr_scan"}, "is_reserved": 0}, {"lon": -76.957613, "bike_id": "8c9940ae9744334764f8f00f58243806", "lat": 38.884311, "fusion_lon": 0.0, "fusion_lat": 0.0, "type": "electric_scooter", "name": "8c9940ae9744334764f8f00f58243806", "is_disabled": 0, "rental_uris": {"ios": "https://dc.lft.to/lastmile_qr_scan", "android": "https://dc.lft.to/lastmile_qr_scan"}, "is_reserved": 0}, {"lon": -77.04125783333333, "bike_id": "6b585a3ac91410bc7358adcc8241310a", "lat": 38.911889, "fusion_lon": 0.0, "fusion_lat": 0.0, "type": "electric_scooter", "name": "6b585a3ac91410bc7358adcc8241310a", "is_disabled": 0, "rental_uris": {"ios": "https://dc.lft.to/lastmile_qr_scan", "android": "https://dc.lft.to/lastmile_qr_scan"}, "is_reserved": 0}, {"lon": -77.0019385, "bike_id": "489080b876f5497ca3ce7c70c593bca3", "lat": 38.90377316666667, "fusion_lon": 0.0, "fusion_lat": 0.0, "type": "electric_scooter", "name": "489080b876f5497ca3ce7c70c593bca3", "is_disabled": 0, "rental_uris": {"ios": "https://dc.lft.to/lastmile_qr_scan", "android": "https://dc.lft.to/lastmile_qr_scan"}, "is_reserved": 0}, {"lon": -77.01022283333333, "bike_id": "6707f5543b824a0b1688041973ff4649", "lat": 38.91705233333333, "fusion_lon": 0.0, "fusion_lat": 0.0, "type": "electric_scooter", "name": "6707f5543b824a0b1688041973ff4649", "is_disabled": 0, "rental_uris": {"ios": "https://dc.lft.to/lastmile_qr_scan", "android": "https://dc.lft.to/lastmile_qr_scan"}, "is_reserved": 0}, {"lon": -76.9496615, "bike_id": "e40f861a46031ff4e26330f250cfe367", "lat": 38.904981666666664, "fusion_lon": 0.0, "fusion_lat": 0.0, "type": "electric_scooter", "name": "e40f861a46031ff4e26330f250cfe367", "is_disabled": 0, "rental_uris": {"ios": "https://dc.lft.to/lastmile_qr_scan", "android": "https://dc.lft.to/lastmile_qr_scan"}, "is_reserved": 0}, {"lon": -77.0312965, "bike_id": "a22d9923803f4095cb02f48b117193ad", "lat": 38.9149725, "fusion_lon": 0.0, "fusion_lat": 0.0, "type": "electric_scooter", "name": "a22d9923803f4095cb02f48b117193ad", "is_disabled": 0, "rental_uris": {"ios": "https://dc.lft.to/lastmile_qr_scan", "android": "https://dc.lft.to/lastmile_qr_scan"}, "is_reserved": 0}, {"lon": -77.064604, "bike_id": "0402dd5d369df0f2e3f57de18659453f", "lat": 38.910428833333334, "fusion_lon": 0.0, "fusion_lat": 0.0, "type": "electric_scooter", "name": "0402dd5d369df0f2e3f57de18659453f", "is_disabled": 0, "rental_uris": {"ios": "https://dc.lft.to/lastmile_qr_scan", "android": "https://dc.lft.to/lastmile_qr_scan"}, "is_reserved": 0}, {"lon": -77.03499233333334, "bike_id": "a567ff1fc5506ff6e1f9b657afe4c501", "lat": 38.916939666666664, "fusion_lon": 0.0, "fusion_lat": 0.0, "type": "electric_scooter", "name": "a567ff1fc5506ff6e1f9b657afe4c501", "is_disabled": 0, "rental_uris": {"ios": "https://dc.lft.to/lastmile_qr_scan", "android": "https://dc.lft.to/lastmile_qr_scan"}, "is_reserved": 0}, {"lon": -77.036456, "bike_id": "01d81432fa1eb874d763f7a6e1e31021", "lat": 38.92266, "fusion_lon": 0.0, "fusion_lat": 0.0, "type": "electric_scooter", "name": "01d81432fa1eb874d763f7a6e1e31021", "is_disabled": 0, "rental_uris": {"ios": "https://dc.lft.to/lastmile_qr_scan", "android": "https://dc.lft.to/lastmile_qr_scan"}, "is_reserved": 0}, {"lon": -77.023868, "bike_id": "b38403850068f0bc0a5623efa4baa48b", "lat": 38.909544833333335, "fusion_lon": 0.0, "fusion_lat": 0.0, "type": "electric_scooter", "name": "b38403850068f0bc0a5623efa4baa48b", "is_disabled": 0, "rental_uris": {"ios": "https://dc.lft.to/lastmile_qr_scan", "android": "https://dc.lft.to/lastmile_qr_scan"}, "is_reserved": 0}, {"lon": -77.02710566666667, "bike_id": "c72230bf133a3e94716b1de0435f5933", "lat": 38.924663, "fusion_lon": 0.0, "fusion_lat": 0.0, "type": "electric_scooter", "name": "c72230bf133a3e94716b1de0435f5933", "is_disabled": 0, "rental_uris": {"ios": "https://dc.lft.to/lastmile_qr_scan", "android": "https://dc.lft.to/lastmile_qr_scan"}, "is_reserved": 0}, {"lon": -77.0181405, "bike_id": "2909f7510c5c6750431c538580ea4c62", "lat": 38.96483683333334, "fusion_lon": 0.0, "fusion_lat": 0.0, "type": "electric_scooter", "name": "2909f7510c5c6750431c538580ea4c62", "is_disabled": 0, "rental_uris": {"ios": "https://dc.lft.to/lastmile_qr_scan", "android": "https://dc.lft.to/lastmile_qr_scan"}, "is_reserved": 0}, {"lon": -76.96140266666667, "bike_id": "b7688beac798579576a29347c4fd9f5c", "lat": 38.94211766666667, "fusion_lon": 0.0, "fusion_lat": 0.0, "type": "electric_bike", "name": "b7688beac798579576a29347c4fd9f5c", "is_disabled": 0, "rental_uris": {"ios": "https://dc.lft.to/lastmile_qr_scan", "android": "https://dc.lft.to/lastmile_qr_scan"}, "is_reserved": 0}, {"lon": -77.04475333333333, "bike_id": "1b260df7824f29a9249debe20e5b1836", "lat": 38.91080616666667, "fusion_lon": 0.0, "fusion_lat": 0.0, "type": "electric_scooter", "name": "1b260df7824f29a9249debe20e5b1836", "is_disabled": 0, "rental_uris": {"ios": "https://dc.lft.to/lastmile_qr_scan", "android": "https://dc.lft.to/lastmile_qr_scan"}, "is_reserved": 0}, {"lon": -77.03243033333334, "bike_id": "b6a25c2eaf4b71ea39362f9181578dd2", "lat": 38.908678, "fusion_lon": 0.0, "fusion_lat": 0.0, "type": "electric_scooter", "name": "b6a25c2eaf4b71ea39362f9181578dd2", "is_disabled": 0, "rental_uris": {"ios": "https://dc.lft.to/lastmile_qr_scan", "android": "https://dc.lft.to/lastmile_qr_scan"}, "is_reserved": 0}, {"lon": -77.0352445, "bike_id": "8c7b5be49f6101a95168eaf5421309d0", "lat": 38.92534083333334, "fusion_lon": 0.0, "fusion_lat": 0.0, "type": "electric_scooter", "name": "8c7b5be49f6101a95168eaf5421309d0", "is_disabled": 0, "rental_uris": {"ios": "https://dc.lft.to/lastmile_qr_scan", "android": "https://dc.lft.to/lastmile_qr_scan"}, "is_reserved": 0}, {"lon": -77.02767066666667, "bike_id": "4f99c652685f382cd5670b9f68a0753d", "lat": 38.96568416666667, "fusion_lon": 0.0, "fusion_lat": 0.0, "type": "electric_bike", "name": "4f99c652685f382cd5670b9f68a0753d", "is_disabled": 0, "rental_uris": {"ios": "https://dc.lft.to/lastmile_qr_scan", "android": "https://dc.lft.to/lastmile_qr_scan"}, "is_reserved": 0}, {"lon": -77.01855083333334, "bike_id": "77730209f49c9780cf49ea77111fb8aa", "lat": 38.8734075, "fusion_lon": 0.0, "fusion_lat": 0.0, "type": "electric_scooter", "name": "77730209f49c9780cf49ea77111fb8aa", "is_disabled": 0, "rental_uris": {"ios": "https://dc.lft.to/lastmile_qr_scan", "android": "https://dc.lft.to/lastmile_qr_scan"}, "is_reserved": 0}, {"lon": -76.9951875, "bike_id": "7e589c9bb7f8bc5f6720a990b15e2ddf", "lat": 38.89725716666667, "fusion_lon": 0.0, "fusion_lat": 0.0, "type": "electric_scooter", "name": "7e589c9bb7f8bc5f6720a990b15e2ddf", "is_disabled": 0, "rental_uris": {"ios": "https://dc.lft.to/lastmile_qr_scan", "android": "https://dc.lft.to/lastmile_qr_scan"}, "is_reserved": 0}, {"lon": -76.988241, "bike_id": "e87402f28e6cff9bc02afd4018b52c64", "lat": 38.8908405, "fusion_lon": 0.0, "fusion_lat": 0.0, "type": "electric_scooter", "name": "e87402f28e6cff9bc02afd4018b52c64", "is_disabled": 0, "rental_uris": {"ios": "https://dc.lft.to/lastmile_qr_scan", "android": "https://dc.lft.to/lastmile_qr_scan"}, "is_reserved": 0}, {"lon": -76.95657033333333, "bike_id": "0b117b986299be391ccfabb666170b16", "lat": 38.89612283333334, "fusion_lon": 0.0, "fusion_lat": 0.0, "type": "electric_scooter", "name": "0b117b986299be391ccfabb666170b16", "is_disabled": 0, "rental_uris": {"ios": "https://dc.lft.to/lastmile_qr_scan", "android": "https://dc.lft.to/lastmile_qr_scan"}, "is_reserved": 0}, {"lon": -76.8840295, "bike_id": "74a96512277dc01df9efb663d718d3f4", "lat": 38.9316915, "fusion_lon": 0.0, "fusion_lat": 0.0, "type": "electric_bike", "name": "74a96512277dc01df9efb663d718d3f4", "is_disabled": 0, "rental_uris": {"ios": "https://dc.lft.to/lastmile_qr_scan", "android": "https://dc.lft.to/lastmile_qr_scan"}, "is_reserved": 0}, {"lon": -77.04658116666667, "bike_id": "1ee3478c0ea0206eff2d3abb16a47206", "lat": 39.05501316666667, "fusion_lon": 0.0, "fusion_lat": 0.0, "type": "electric_bike", "name": "1ee3478c0ea0206eff2d3abb16a47206", "is_disabled": 0, "rental_uris": {"ios": "https://dc.lft.to/lastmile_qr_scan", "android": "https://dc.lft.to/lastmile_qr_scan"}, "is_reserved": 0}, {"lon": -77.03843316666666, "bike_id": "64b57cb2ec5b0f5311d256a74e5897f2", "lat": 38.911127, "fusion_lon": 0.0, "fusion_lat": 0.0, "type": "electric_scooter", "name": "64b57cb2ec5b0f5311d256a74e5897f2", "is_disabled": 0, "rental_uris": {"ios": "https://dc.lft.to/lastmile_qr_scan", "android": "https://dc.lft.to/lastmile_qr_scan"}, "is_reserved": 0}, {"lon": -77.16236266666667, "bike_id": "9d010ed1bfdcfc6e8edb2b7e7e0a20d8", "lat": 38.88659233333333, "fusion_lon": 0.0, "fusion_lat": 0.0, "type": "electric_bike", "name": "9d010ed1bfdcfc6e8edb2b7e7e0a20d8", "is_disabled": 0, "rental_uris": {"ios": "https://dc.lft.to/lastmile_qr_scan", "android": "https://dc.lft.to/lastmile_qr_scan"}, "is_reserved": 0}, {"lon": -77.03627966666667, "bike_id": "82fc72be93f4ac4dd23fcdebb0ab86df", "lat": 38.903809833333334, "fusion_lon": 0.0, "fusion_lat": 0.0, "type": "electric_scooter", "name": "82fc72be93f4ac4dd23fcdebb0ab86df", "is_disabled": 0, "rental_uris": {"ios": "https://dc.lft.to/lastmile_qr_scan", "android": "https://dc.lft.to/lastmile_qr_scan"}, "is_reserved": 0}, {"lon": -77.02295866666667, "bike_id": "191885b43a4657439551c5157a075ec8", "lat": 38.92326933333333, "fusion_lon": 0.0, "fusion_lat": 0.0, "type": "electric_bike", "name": "191885b43a4657439551c5157a075ec8", "is_disabled": 0, "rental_uris": {"ios": "https://dc.lft.to/lastmile_qr_scan", "android": "https://dc.lft.to/lastmile_qr_scan"}, "is_reserved": 0}, {"lon": -77.01199916666667, "bike_id": "fcd7fded78c8da2842cca597b493cc28", "lat": 38.89316383333333, "fusion_lon": 0.0, "fusion_lat": 0.0, "type": "electric_scooter", "name": "fcd7fded78c8da2842cca597b493cc28", "is_disabled": 0, "rental_uris": {"ios": "https://dc.lft.to/lastmile_qr_scan", "android": "https://dc.lft.to/lastmile_qr_scan"}, "is_reserved": 0}, {"lon": -77.023074, "bike_id": "a31b9cd999e43f2ccad9c9044e933aa9", "lat": 38.92705266666667, "fusion_lon": 0.0, "fusion_lat": 0.0, "type": "electric_scooter", "name": "a31b9cd999e43f2ccad9c9044e933aa9", "is_disabled": 0, "rental_uris": {"ios": "https://dc.lft.to/lastmile_qr_scan", "android": "https://dc.lft.to/lastmile_qr_scan"}, "is_reserved": 0}, {"lon": -77.0249055, "bike_id": "42e31f560d85883b3c8ddee39c628f97", "lat": 38.941824833333335, "fusion_lon": 0.0, "fusion_lat": 0.0, "type": "electric_scooter", "name": "42e31f560d85883b3c8ddee39c628f97", "is_disabled": 0, "rental_uris": {"ios": "https://dc.lft.to/lastmile_qr_scan", "android": "https://dc.lft.to/lastmile_qr_scan"}, "is_reserved": 0}, {"lon": -77.00477233333334, "bike_id": "4c2886a2d226c660898e5b83c65f3ec0", "lat": 38.8773605, "fusion_lon": 0.0, "fusion_lat": 0.0, "type": "electric_scooter", "name": "4c2886a2d226c660898e5b83c65f3ec0", "is_disabled": 0, "rental_uris": {"ios": "https://dc.lft.to/lastmile_qr_scan", "android": "https://dc.lft.to/lastmile_qr_scan"}, "is_reserved": 0}, {"lon": -77.05342333333333, "bike_id": "39259562bc1711fb79b4ce71de0c9198", "lat": 38.92690233333333, "fusion_lon": 0.0, "fusion_lat": 0.0, "type": "electric_scooter", "name": "39259562bc1711fb79b4ce71de0c9198", "is_disabled": 0, "rental_uris": {"ios": "https://dc.lft.to/lastmile_qr_scan", "android": "https://dc.lft.to/lastmile_qr_scan"}, "is_reserved": 0}, {"lon": -77.02939233333333, "bike_id": "283a11d7cf563edeccfd02cf3150009c", "lat": 38.90004033333334, "fusion_lon": 0.0, "fusion_lat": 0.0, "type": "electric_scooter", "name": "283a11d7cf563edeccfd02cf3150009c", "is_disabled": 0, "rental_uris": {"ios": "https://dc.lft.to/lastmile_qr_scan", "android": "https://dc.lft.to/lastmile_qr_scan"}, "is_reserved": 0}, {"lon": -77.07793233333334, "bike_id": "54489c5850aca6d761d5e52a63f6c0ed", "lat": 38.9960485, "fusion_lon": 0.0, "fusion_lat": 0.0, "type": "electric_bike", "name": "54489c5850aca6d761d5e52a63f6c0ed", "is_disabled": 0, "rental_uris": {"ios": "https://dc.lft.to/lastmile_qr_scan", "android": "https://dc.lft.to/lastmile_qr_scan"}, "is_reserved": 0}, {"lon": -77.04398816666667, "bike_id": "bf2fd26b6855e93984d98a308ac1ff93", "lat": 38.9228215, "fusion_lon": 0.0, "fusion_lat": 0.0, "type": "electric_scooter", "name": "bf2fd26b6855e93984d98a308ac1ff93", "is_disabled": 0, "rental_uris": {"ios": "https://dc.lft.to/lastmile_qr_scan", "android": "https://dc.lft.to/lastmile_qr_scan"}, "is_reserved": 0}, {"lon": -77.02743016666666, "bike_id": "523a24769e1877eaba6e398da219c6d3", "lat": 38.88149933333333, "fusion_lon": 0.0, "fusion_lat": 0.0, "type": "electric_scooter", "name": "523a24769e1877eaba6e398da219c6d3", "is_disabled": 0, "rental_uris": {"ios": "https://dc.lft.to/lastmile_qr_scan", "android": "https://dc.lft.to/lastmile_qr_scan"}, "is_reserved": 0}, {"lon": -76.995805, "bike_id": "93dfa9be63d4cb719ba6a074d841860f", "lat": 38.862183, "fusion_lon": 0.0, "fusion_lat": 0.0, "type": "electric_scooter", "name": "93dfa9be63d4cb719ba6a074d841860f", "is_disabled": 0, "rental_uris": {"ios": "https://dc.lft.to/lastmile_qr_scan", "android": "https://dc.lft.to/lastmile_qr_scan"}, "is_reserved": 0}, {"lon": -76.99776416666667, "bike_id": "b981862fc0b1bf3430d1525ed444687b", "lat": 38.91053633333333, "fusion_lon": 0.0, "fusion_lat": 0.0, "type": "electric_scooter", "name": "b981862fc0b1bf3430d1525ed444687b", "is_disabled": 0, "rental_uris": {"ios": "https://dc.lft.to/lastmile_qr_scan", "android": "https://dc.lft.to/lastmile_qr_scan"}, "is_reserved": 0}, {"lon": -77.02422916666667, "bike_id": "3da78b044771559a2761b7340e78dff4", "lat": 38.92231683333333, "fusion_lon": 0.0, "fusion_lat": 0.0, "type": "electric_bike", "name": "3da78b044771559a2761b7340e78dff4", "is_disabled": 0, "rental_uris": {"ios": "https://dc.lft.to/lastmile_qr_scan", "android": "https://dc.lft.to/lastmile_qr_scan"}, "is_reserved": 0}, {"lon": -77.0093085, "bike_id": "69b155ffd10e57d3b0b07bfa5e21ceb4", "lat": 38.91807466666667, "fusion_lon": 0.0, "fusion_lat": 0.0, "type": "electric_scooter", "name": "69b155ffd10e57d3b0b07bfa5e21ceb4", "is_disabled": 0, "rental_uris": {"ios": "https://dc.lft.to/lastmile_qr_scan", "android": "https://dc.lft.to/lastmile_qr_scan"}, "is_reserved": 0}, {"lon": -76.92922416666667, "bike_id": "8bdbbe9b52fe4a7fcb41ae335d60bae7", "lat": 38.892901, "fusion_lon": 0.0, "fusion_lat": 0.0, "type": "electric_scooter", "name": "8bdbbe9b52fe4a7fcb41ae335d60bae7", "is_disabled": 0, "rental_uris": {"ios": "https://dc.lft.to/lastmile_qr_scan", "android": "https://dc.lft.to/lastmile_qr_scan"}, "is_reserved": 0}, {"lon": -77.04473983333334, "bike_id": "d1e62c99f8f485bb79ff419f0515e031", "lat": 38.9189335, "fusion_lon": 0.0, "fusion_lat": 0.0, "type": "electric_scooter", "name": "d1e62c99f8f485bb79ff419f0515e031", "is_disabled": 0, "rental_uris": {"ios": "https://dc.lft.to/lastmile_qr_scan", "android": "https://dc.lft.to/lastmile_qr_scan"}, "is_reserved": 0}, {"lon": -77.04559416666666, "bike_id": "f8170c27d1f45459a08a2bb201d16b1e", "lat": 38.89608583333333, "fusion_lon": 0.0, "fusion_lat": 0.0, "type": "electric_scooter", "name": "f8170c27d1f45459a08a2bb201d16b1e", "is_disabled": 0, "rental_uris": {"ios": "https://dc.lft.to/lastmile_qr_scan", "android": "https://dc.lft.to/lastmile_qr_scan"}, "is_reserved": 0}, {"lon": -77.04405766666666, "bike_id": "9ce73f39dbb61f2bd9b68eb67bc078b7", "lat": 38.8955785, "fusion_lon": 0.0, "fusion_lat": 0.0, "type": "electric_scooter", "name": "9ce73f39dbb61f2bd9b68eb67bc078b7", "is_disabled": 0, "rental_uris": {"ios": "https://dc.lft.to/lastmile_qr_scan", "android": "https://dc.lft.to/lastmile_qr_scan"}, "is_reserved": 0}, {"lon": -77.03196033333333, "bike_id": "5defd0941acd7b81c7a9e979e431bbf1", "lat": 38.91825516666667, "fusion_lon": 0.0, "fusion_lat": 0.0, "type": "electric_scooter", "name": "5defd0941acd7b81c7a9e979e431bbf1", "is_disabled": 0, "rental_uris": {"ios": "https://dc.lft.to/lastmile_qr_scan", "android": "https://dc.lft.to/lastmile_qr_scan"}, "is_reserved": 0}, {"lon": -77.0387665, "bike_id": "c1549665f7f8f646342b7e8e33396732", "lat": 38.923160333333335, "fusion_lon": 0.0, "fusion_lat": 0.0, "type": "electric_scooter", "name": "c1549665f7f8f646342b7e8e33396732", "is_disabled": 0, "rental_uris": {"ios": "https://dc.lft.to/lastmile_qr_scan", "android": "https://dc.lft.to/lastmile_qr_scan"}, "is_reserved": 0}, {"lon": -77.01304716666667, "bike_id": "7b6f78991c62a1907df525f71d9d9537", "lat": 38.9299955, "fusion_lon": 0.0, "fusion_lat": 0.0, "type": "electric_scooter", "name": "7b6f78991c62a1907df525f71d9d9537", "is_disabled": 0, "rental_uris": {"ios": "https://dc.lft.to/lastmile_qr_scan", "android": "https://dc.lft.to/lastmile_qr_scan"}, "is_reserved": 0}, {"lon": -77.03150833333333, "bike_id": "b2403d0fbbbe7ceb1c350b21809a4a65", "lat": 38.90626733333333, "fusion_lon": 0.0, "fusion_lat": 0.0, "type": "electric_scooter", "name": "b2403d0fbbbe7ceb1c350b21809a4a65", "is_disabled": 0, "rental_uris": {"ios": "https://dc.lft.to/lastmile_qr_scan", "android": "https://dc.lft.to/lastmile_qr_scan"}, "is_reserved": 0}, {"lon": -77.00446066666666, "bike_id": "a9a712e7a47983b0d8c2218100cc864d", "lat": 38.8954465, "fusion_lon": 0.0, "fusion_lat": 0.0, "type": "electric_bike", "name": "a9a712e7a47983b0d8c2218100cc864d", "is_disabled": 0, "rental_uris": {"ios": "https://dc.lft.to/lastmile_qr_scan", "android": "https://dc.lft.to/lastmile_qr_scan"}, "is_reserved": 0}, {"lon": -77.02720516666666, "bike_id": "7c75f8a82dc1397d321621e2d2b8e1ce", "lat": 38.911818333333336, "fusion_lon": 0.0, "fusion_lat": 0.0, "type": "electric_scooter", "name": "7c75f8a82dc1397d321621e2d2b8e1ce", "is_disabled": 0, "rental_uris": {"ios": "https://dc.lft.to/lastmile_qr_scan", "android": "https://dc.lft.to/lastmile_qr_scan"}, "is_reserved": 0}, {"lon": -77.00634366666667, "bike_id": "9b1a2a43f704399abdf226c983c3c431", "lat": 38.955981666666666, "fusion_lon": 0.0, "fusion_lat": 0.0, "type": "electric_scooter", "name": "9b1a2a43f704399abdf226c983c3c431", "is_disabled": 0, "rental_uris": {"ios": "https://dc.lft.to/lastmile_qr_scan", "android": "https://dc.lft.to/lastmile_qr_scan"}, "is_reserved": 0}, {"lon": -77.02775983333333, "bike_id": "606bb8dc337934d95bfb9e9f1234a23c", "lat": 38.8975725, "fusion_lon": 0.0, "fusion_lat": 0.0, "type": "electric_scooter", "name": "606bb8dc337934d95bfb9e9f1234a23c", "is_disabled": 0, "rental_uris": {"ios": "https://dc.lft.to/lastmile_qr_scan", "android": "https://dc.lft.to/lastmile_qr_scan"}, "is_reserved": 0}, {"lon": -77.01098366666666, "bike_id": "55f87a4af9e7c3f96347b06fd2171fa7", "lat": 38.90374883333333, "fusion_lon": 0.0, "fusion_lat": 0.0, "type": "electric_scooter", "name": "55f87a4af9e7c3f96347b06fd2171fa7", "is_disabled": 0, "rental_uris": {"ios": "https://dc.lft.to/lastmile_qr_scan", "android": "https://dc.lft.to/lastmile_qr_scan"}, "is_reserved": 0}, {"lon": -77.0060865, "bike_id": "ca0f032641b52a4a4a12d0367e638d63", "lat": 38.905800166666666, "fusion_lon": 0.0, "fusion_lat": 0.0, "type": "electric_scooter", "name": "ca0f032641b52a4a4a12d0367e638d63", "is_disabled": 0, "rental_uris": {"ios": "https://dc.lft.to/lastmile_qr_scan", "android": "https://dc.lft.to/lastmile_qr_scan"}, "is_reserved": 0}, {"lon": -76.98593433333333, "bike_id": "67930a52d1ec126c44f83dfb1d04264e", "lat": 38.90810966666667, "fusion_lon": 0.0, "fusion_lat": 0.0, "type": "electric_scooter", "name": "67930a52d1ec126c44f83dfb1d04264e", "is_disabled": 0, "rental_uris": {"ios": "https://dc.lft.to/lastmile_qr_scan", "android": "https://dc.lft.to/lastmile_qr_scan"}, "is_reserved": 0}, {"lon": -77.03222233333334, "bike_id": "df07407481e874814e14c3523e64920c", "lat": 38.911365833333335, "fusion_lon": 0.0, "fusion_lat": 0.0, "type": "electric_scooter", "name": "df07407481e874814e14c3523e64920c", "is_disabled": 0, "rental_uris": {"ios": "https://dc.lft.to/lastmile_qr_scan", "android": "https://dc.lft.to/lastmile_qr_scan"}, "is_reserved": 0}, {"lon": -77.01897233333334, "bike_id": "1abe70d9ba139985293897b32cc72fc2", "lat": 38.923746, "fusion_lon": 0.0, "fusion_lat": 0.0, "type": "electric_scooter", "name": "1abe70d9ba139985293897b32cc72fc2", "is_disabled": 0, "rental_uris": {"ios": "https://dc.lft.to/lastmile_qr_scan", "android": "https://dc.lft.to/lastmile_qr_scan"}, "is_reserved": 0}, {"lon": -76.98500216666666, "bike_id": "5152da2cb6b1bc8c6b13ece3869ac255", "lat": 38.92004416666666, "fusion_lon": 0.0, "fusion_lat": 0.0, "type": "electric_scooter", "name": "5152da2cb6b1bc8c6b13ece3869ac255", "is_disabled": 0, "rental_uris": {"ios": "https://dc.lft.to/lastmile_qr_scan", "android": "https://dc.lft.to/lastmile_qr_scan"}, "is_reserved": 0}, {"lon": -77.01158183333334, "bike_id": "af856a518a8771c82f1f1632065440aa", "lat": 38.91408033333333, "fusion_lon": 0.0, "fusion_lat": 0.0, "type": "electric_scooter", "name": "af856a518a8771c82f1f1632065440aa", "is_disabled": 0, "rental_uris": {"ios": "https://dc.lft.to/lastmile_qr_scan", "android": "https://dc.lft.to/lastmile_qr_scan"}, "is_reserved": 0}, {"lon": -77.01258783333333, "bike_id": "a4fd0583ed0dfa53158fafc58022474d", "lat": 38.90844716666667, "fusion_lon": 0.0, "fusion_lat": 0.0, "type": "electric_scooter", "name": "a4fd0583ed0dfa53158fafc58022474d", "is_disabled": 0, "rental_uris": {"ios": "https://dc.lft.to/lastmile_qr_scan", "android": "https://dc.lft.to/lastmile_qr_scan"}, "is_reserved": 0}, {"lon": -77.00793033333333, "bike_id": "7a0ab5e495d447b02021d59b254d9f99", "lat": 38.896666833333335, "fusion_lon": 0.0, "fusion_lat": 0.0, "type": "electric_scooter", "name": "7a0ab5e495d447b02021d59b254d9f99", "is_disabled": 0, "rental_uris": {"ios": "https://dc.lft.to/lastmile_qr_scan", "android": "https://dc.lft.to/lastmile_qr_scan"}, "is_reserved": 0}, {"lon": -77.05333783333333, "bike_id": "3fccadbb092acf1ccd35d73c89c1b257", "lat": 38.9233365, "fusion_lon": 0.0, "fusion_lat": 0.0, "type": "electric_scooter", "name": "3fccadbb092acf1ccd35d73c89c1b257", "is_disabled": 0, "rental_uris": {"ios": "https://dc.lft.to/lastmile_qr_scan", "android": "https://dc.lft.to/lastmile_qr_scan"}, "is_reserved": 0}, {"lon": -77.04259016666667, "bike_id": "5eb06c172036f53d5e2207c93123d66c", "lat": 38.9105825, "fusion_lon": 0.0, "fusion_lat": 0.0, "type": "electric_scooter", "name": "5eb06c172036f53d5e2207c93123d66c", "is_disabled": 0, "rental_uris": {"ios": "https://dc.lft.to/lastmile_qr_scan", "android": "https://dc.lft.to/lastmile_qr_scan"}, "is_reserved": 0}, {"lon": -77.025413, "bike_id": "e250e6d591608e5613e93cfae2efe261", "lat": 38.92743133333333, "fusion_lon": 0.0, "fusion_lat": 0.0, "type": "electric_scooter", "name": "e250e6d591608e5613e93cfae2efe261", "is_disabled": 0, "rental_uris": {"ios": "https://dc.lft.to/lastmile_qr_scan", "android": "https://dc.lft.to/lastmile_qr_scan"}, "is_reserved": 0}, {"lon": -76.93365683333333, "bike_id": "f5342c23971f70f930e2d4196f92dfdb", "lat": 38.8991765, "fusion_lon": 0.0, "fusion_lat": 0.0, "type": "electric_scooter", "name": "f5342c23971f70f930e2d4196f92dfdb", "is_disabled": 0, "rental_uris": {"ios": "https://dc.lft.to/lastmile_qr_scan", "android": "https://dc.lft.to/lastmile_qr_scan"}, "is_reserved": 0}, {"lon": -77.03696216666667, "bike_id": "999db9f74e5b748f266e12860373cd0a", "lat": 38.927848166666664, "fusion_lon": 0.0, "fusion_lat": 0.0, "type": "electric_scooter", "name": "999db9f74e5b748f266e12860373cd0a", "is_disabled": 0, "rental_uris": {"ios": "https://dc.lft.to/lastmile_qr_scan", "android": "https://dc.lft.to/lastmile_qr_scan"}, "is_reserved": 0}, {"lon": -77.03274933333333, "bike_id": "1d5d6160c671eeb3eb68a456e71cc013", "lat": 38.904649666666664, "fusion_lon": 0.0, "fusion_lat": 0.0, "type": "electric_scooter", "name": "1d5d6160c671eeb3eb68a456e71cc013", "is_disabled": 0, "rental_uris": {"ios": "https://dc.lft.to/lastmile_qr_scan", "android": "https://dc.lft.to/lastmile_qr_scan"}, "is_reserved": 0}, {"lon": -77.10096566666667, "bike_id": "c7b099f21cd2311fb54c46706f2a3048", "lat": 38.959514166666665, "fusion_lon": 0.0, "fusion_lat": 0.0, "type": "electric_bike", "name": "c7b099f21cd2311fb54c46706f2a3048", "is_disabled": 0, "rental_uris": {"ios": "https://dc.lft.to/lastmile_qr_scan", "android": "https://dc.lft.to/lastmile_qr_scan"}, "is_reserved": 0}, {"lon": -77.03254183333334, "bike_id": "59f284696abaab6b14c45b8f3b5d24a4", "lat": 38.90967, "fusion_lon": 0.0, "fusion_lat": 0.0, "type": "electric_scooter", "name": "59f284696abaab6b14c45b8f3b5d24a4", "is_disabled": 0, "rental_uris": {"ios": "https://dc.lft.to/lastmile_qr_scan", "android": "https://dc.lft.to/lastmile_qr_scan"}, "is_reserved": 0}, {"lon": -76.99409883333334, "bike_id": "0c05dfcb44b29e00db7fbd3888539a07", "lat": 38.831369, "fusion_lon": 0.0, "fusion_lat": 0.0, "type": "electric_bike", "name": "0c05dfcb44b29e00db7fbd3888539a07", "is_disabled": 0, "rental_uris": {"ios": "https://dc.lft.to/lastmile_qr_scan", "android": "https://dc.lft.to/lastmile_qr_scan"}, "is_reserved": 0}, {"lon": -76.94442383333333, "bike_id": "b1b799c151455818c0291b3e980894d5", "lat": 38.90043033333333, "fusion_lon": 0.0, "fusion_lat": 0.0, "type": "electric_scooter", "name": "b1b799c151455818c0291b3e980894d5", "is_disabled": 0, "rental_uris": {"ios": "https://dc.lft.to/lastmile_qr_scan", "android": "https://dc.lft.to/lastmile_qr_scan"}, "is_reserved": 0}, {"lon": -77.03162033333334, "bike_id": "ea9b96c195e74625b0e9eb5636bbb0af", "lat": 38.918222666666665, "fusion_lon": 0.0, "fusion_lat": 0.0, "type": "electric_scooter", "name": "ea9b96c195e74625b0e9eb5636bbb0af", "is_disabled": 0, "rental_uris": {"ios": "https://dc.lft.to/lastmile_qr_scan", "android": "https://dc.lft.to/lastmile_qr_scan"}, "is_reserved": 0}, {"lon": -77.03182083333333, "bike_id": "fa696dc990c43e14b19a99a789544f26", "lat": 38.9191895, "fusion_lon": 0.0, "fusion_lat": 0.0, "type": "electric_scooter", "name": "fa696dc990c43e14b19a99a789544f26", "is_disabled": 0, "rental_uris": {"ios": "https://dc.lft.to/lastmile_qr_scan", "android": "https://dc.lft.to/lastmile_qr_scan"}, "is_reserved": 0}, {"lon": -77.0340345, "bike_id": "6200c60bda9fb22b18803ddc33431273", "lat": 38.903572, "fusion_lon": 0.0, "fusion_lat": 0.0, "type": "electric_scooter", "name": "6200c60bda9fb22b18803ddc33431273", "is_disabled": 0, "rental_uris": {"ios": "https://dc.lft.to/lastmile_qr_scan", "android": "https://dc.lft.to/lastmile_qr_scan"}, "is_reserved": 0}, {"lon": -77.03280466666666, "bike_id": "78274a87857cd4709b2f591ca410eb84", "lat": 38.93768416666666, "fusion_lon": 0.0, "fusion_lat": 0.0, "type": "electric_scooter", "name": "78274a87857cd4709b2f591ca410eb84", "is_disabled": 0, "rental_uris": {"ios": "https://dc.lft.to/lastmile_qr_scan", "android": "https://dc.lft.to/lastmile_qr_scan"}, "is_reserved": 0}, {"lon": -77.003718, "bike_id": "f91be3746212770b119a55af42829a0e", "lat": 38.897394166666665, "fusion_lon": 0.0, "fusion_lat": 0.0, "type": "electric_scooter", "name": "f91be3746212770b119a55af42829a0e", "is_disabled": 0, "rental_uris": {"ios": "https://dc.lft.to/lastmile_qr_scan", "android": "https://dc.lft.to/lastmile_qr_scan"}, "is_reserved": 0}, {"lon": -76.9770905, "bike_id": "6020bc4f419d63c60c6d25be90763116", "lat": 38.94913, "fusion_lon": 0.0, "fusion_lat": 0.0, "type": "electric_bike", "name": "6020bc4f419d63c60c6d25be90763116", "is_disabled": 0, "rental_uris": {"ios": "https://dc.lft.to/lastmile_qr_scan", "android": "https://dc.lft.to/lastmile_qr_scan"}, "is_reserved": 0}, {"lon": -76.98033366666667, "bike_id": "554717b77a746b2618f7a2570595fee9", "lat": 38.9008245, "fusion_lon": 0.0, "fusion_lat": 0.0, "type": "electric_bike", "name": "554717b77a746b2618f7a2570595fee9", "is_disabled": 0, "rental_uris": {"ios": "https://dc.lft.to/lastmile_qr_scan", "android": "https://dc.lft.to/lastmile_qr_scan"}, "is_reserved": 0}, {"lon": -77.029827, "bike_id": "d83c041ab2d7f23d4833b3518e592d20", "lat": 38.907756666666664, "fusion_lon": 0.0, "fusion_lat": 0.0, "type": "electric_scooter", "name": "d83c041ab2d7f23d4833b3518e592d20", "is_disabled": 0, "rental_uris": {"ios": "https://dc.lft.to/lastmile_qr_scan", "android": "https://dc.lft.to/lastmile_qr_scan"}, "is_reserved": 0}, {"lon": -76.905997, "bike_id": "7b736e297d05c6d807af1b0adbb6dd78", "lat": 39.00459816666667, "fusion_lon": 0.0, "fusion_lat": 0.0, "type": "electric_bike", "name": "7b736e297d05c6d807af1b0adbb6dd78", "is_disabled": 0, "rental_uris": {"ios": "https://dc.lft.to/lastmile_qr_scan", "android": "https://dc.lft.to/lastmile_qr_scan"}, "is_reserved": 0}, {"lon": -76.96817883333334, "bike_id": "a5fc646484fda265685b37137761d310", "lat": 38.925488333333334, "fusion_lon": 0.0, "fusion_lat": 0.0, "type": "electric_bike", "name": "a5fc646484fda265685b37137761d310", "is_disabled": 0, "rental_uris": {"ios": "https://dc.lft.to/lastmile_qr_scan", "android": "https://dc.lft.to/lastmile_qr_scan"}, "is_reserved": 0}, {"lon": -77.041792, "bike_id": "e3465075039e23eea9e25567222610c5", "lat": 38.916521333333336, "fusion_lon": 0.0, "fusion_lat": 0.0, "type": "electric_scooter", "name": "e3465075039e23eea9e25567222610c5", "is_disabled": 0, "rental_uris": {"ios": "https://dc.lft.to/lastmile_qr_scan", "android": "https://dc.lft.to/lastmile_qr_scan"}, "is_reserved": 0}, {"lon": -77.016622, "bike_id": "4572dc4c15fea914b98619c9707b6b0b", "lat": 38.88744466666667, "fusion_lon": 0.0, "fusion_lat": 0.0, "type": "electric_scooter", "name": "4572dc4c15fea914b98619c9707b6b0b", "is_disabled": 0, "rental_uris": {"ios": "https://dc.lft.to/lastmile_qr_scan", "android": "https://dc.lft.to/lastmile_qr_scan"}, "is_reserved": 0}, {"lon": -76.98615866666667, "bike_id": "01c6bc65eb4824ea5bf166f20a4ec79f", "lat": 38.93829683333333, "fusion_lon": 0.0, "fusion_lat": 0.0, "type": "electric_scooter", "name": "01c6bc65eb4824ea5bf166f20a4ec79f", "is_disabled": 0, "rental_uris": {"ios": "https://dc.lft.to/lastmile_qr_scan", "android": "https://dc.lft.to/lastmile_qr_scan"}, "is_reserved": 0}, {"lon": -77.025034, "bike_id": "cfd6bb81f8b45f5554b1c2c95376d6f0", "lat": 38.90640833333333, "fusion_lon": 0.0, "fusion_lat": 0.0, "type": "electric_scooter", "name": "cfd6bb81f8b45f5554b1c2c95376d6f0", "is_disabled": 0, "rental_uris": {"ios": "https://dc.lft.to/lastmile_qr_scan", "android": "https://dc.lft.to/lastmile_qr_scan"}, "is_reserved": 0}, {"lon": -77.0240505, "bike_id": "4c0a648148d081a311b2c7444a6bee19", "lat": 38.91419, "fusion_lon": 0.0, "fusion_lat": 0.0, "type": "electric_scooter", "name": "4c0a648148d081a311b2c7444a6bee19", "is_disabled": 0, "rental_uris": {"ios": "https://dc.lft.to/lastmile_qr_scan", "android": "https://dc.lft.to/lastmile_qr_scan"}, "is_reserved": 0}, {"lon": -77.36100383333333, "bike_id": "a079cba73b9553d41cfc69a39064628c", "lat": 38.9395445, "fusion_lon": 0.0, "fusion_lat": 0.0, "type": "electric_bike", "name": "a079cba73b9553d41cfc69a39064628c", "is_disabled": 0, "rental_uris": {"ios": "https://dc.lft.to/lastmile_qr_scan", "android": "https://dc.lft.to/lastmile_qr_scan"}, "is_reserved": 0}, {"lon": -77.0055305, "bike_id": "cc15177f4bf049d706fda38c14f08873", "lat": 38.879639833333336, "fusion_lon": 0.0, "fusion_lat": 0.0, "type": "electric_scooter", "name": "cc15177f4bf049d706fda38c14f08873", "is_disabled": 0, "rental_uris": {"ios": "https://dc.lft.to/lastmile_qr_scan", "android": "https://dc.lft.to/lastmile_qr_scan"}, "is_reserved": 0}, {"lon": -76.98917933333334, "bike_id": "c6d14d6e9751fd8df34f1be9dfdb4bc7", "lat": 38.90140183333333, "fusion_lon": 0.0, "fusion_lat": 0.0, "type": "electric_scooter", "name": "c6d14d6e9751fd8df34f1be9dfdb4bc7", "is_disabled": 0, "rental_uris": {"ios": "https://dc.lft.to/lastmile_qr_scan", "android": "https://dc.lft.to/lastmile_qr_scan"}, "is_reserved": 0}, {"lon": -77.0415795, "bike_id": "ba35ae33f20aa89dab0b27033500d3f8", "lat": 38.918564833333335, "fusion_lon": 0.0, "fusion_lat": 0.0, "type": "electric_scooter", "name": "ba35ae33f20aa89dab0b27033500d3f8", "is_disabled": 0, "rental_uris": {"ios": "https://dc.lft.to/lastmile_qr_scan", "android": "https://dc.lft.to/lastmile_qr_scan"}, "is_reserved": 0}, {"lon": -77.035596, "bike_id": "696674c9cf13b4e138a4b52bd5b4f022", "lat": 38.91707683333333, "fusion_lon": 0.0, "fusion_lat": 0.0, "type": "electric_scooter", "name": "696674c9cf13b4e138a4b52bd5b4f022", "is_disabled": 0, "rental_uris": {"ios": "https://dc.lft.to/lastmile_qr_scan", "android": "https://dc.lft.to/lastmile_qr_scan"}, "is_reserved": 0}, {"lon": -77.02407433333333, "bike_id": "276598c8bb0f8a91d575cdb3584045c4", "lat": 38.914206166666666, "fusion_lon": 0.0, "fusion_lat": 0.0, "type": "electric_scooter", "name": "276598c8bb0f8a91d575cdb3584045c4", "is_disabled": 0, "rental_uris": {"ios": "https://dc.lft.to/lastmile_qr_scan", "android": "https://dc.lft.to/lastmile_qr_scan"}, "is_reserved": 0}, {"lon": -77.05056033333334, "bike_id": "8b2fc336e0c0a1cd15b9386415ccacf6", "lat": 38.92419, "fusion_lon": 0.0, "fusion_lat": 0.0, "type": "electric_bike", "name": "8b2fc336e0c0a1cd15b9386415ccacf6", "is_disabled": 0, "rental_uris": {"ios": "https://dc.lft.to/lastmile_qr_scan", "android": "https://dc.lft.to/lastmile_qr_scan"}, "is_reserved": 0}, {"lon": -77.04465383333333, "bike_id": "e1fa5b48db8f5a39f452c6db588e0a65", "lat": 38.91589233333333, "fusion_lon": 0.0, "fusion_lat": 0.0, "type": "electric_scooter", "name": "e1fa5b48db8f5a39f452c6db588e0a65", "is_disabled": 0, "rental_uris": {"ios": "https://dc.lft.to/lastmile_qr_scan", "android": "https://dc.lft.to/lastmile_qr_scan"}, "is_reserved": 0}, {"lon": -77.04323566666666, "bike_id": "03bff4bb1d3ce48838c3c6a0c3afad93", "lat": 38.906803333333336, "fusion_lon": 0.0, "fusion_lat": 0.0, "type": "electric_scooter", "name": "03bff4bb1d3ce48838c3c6a0c3afad93", "is_disabled": 0, "rental_uris": {"ios": "https://dc.lft.to/lastmile_qr_scan", "android": "https://dc.lft.to/lastmile_qr_scan"}, "is_reserved": 0}, {"lon": -76.99371583333334, "bike_id": "3b2bf0a13b49d8faef71e655e9d36ef8", "lat": 38.923959833333335, "fusion_lon": 0.0, "fusion_lat": 0.0, "type": "electric_scooter", "name": "3b2bf0a13b49d8faef71e655e9d36ef8", "is_disabled": 0, "rental_uris": {"ios": "https://dc.lft.to/lastmile_qr_scan", "android": "https://dc.lft.to/lastmile_qr_scan"}, "is_reserved": 0}, {"lon": -77.032146, "bike_id": "12cc2e722c7afd75492658d03043d92a", "lat": 38.914289, "fusion_lon": 0.0, "fusion_lat": 0.0, "type": "electric_scooter", "name": "12cc2e722c7afd75492658d03043d92a", "is_disabled": 0, "rental_uris": {"ios": "https://dc.lft.to/lastmile_qr_scan", "android": "https://dc.lft.to/lastmile_qr_scan"}, "is_reserved": 0}, {"lon": -77.03247466666667, "bike_id": "eeef1177e05399fcfbc01a0783b06141", "lat": 38.92581533333333, "fusion_lon": 0.0, "fusion_lat": 0.0, "type": "electric_scooter", "name": "eeef1177e05399fcfbc01a0783b06141", "is_disabled": 0, "rental_uris": {"ios": "https://dc.lft.to/lastmile_qr_scan", "android": "https://dc.lft.to/lastmile_qr_scan"}, "is_reserved": 0}, {"lon": -77.02730533333333, "bike_id": "1c6725e50de80c1c68037e52fc6b2bab", "lat": 38.95010833333333, "fusion_lon": 0.0, "fusion_lat": 0.0, "type": "electric_scooter", "name": "1c6725e50de80c1c68037e52fc6b2bab", "is_disabled": 0, "rental_uris": {"ios": "https://dc.lft.to/lastmile_qr_scan", "android": "https://dc.lft.to/lastmile_qr_scan"}, "is_reserved": 0}, {"lon": -77.0216045, "bike_id": "062eb868f8e9f73935a4cf6af4901103", "lat": 38.9260335, "fusion_lon": 0.0, "fusion_lat": 0.0, "type": "electric_scooter", "name": "062eb868f8e9f73935a4cf6af4901103", "is_disabled": 0, "rental_uris": {"ios": "https://dc.lft.to/lastmile_qr_scan", "android": "https://dc.lft.to/lastmile_qr_scan"}, "is_reserved": 0}, {"lon": -77.0320945, "bike_id": "807beb52e07b1031e9fc1696824ac0db", "lat": 38.90728633333333, "fusion_lon": 0.0, "fusion_lat": 0.0, "type": "electric_scooter", "name": "807beb52e07b1031e9fc1696824ac0db", "is_disabled": 0, "rental_uris": {"ios": "https://dc.lft.to/lastmile_qr_scan", "android": "https://dc.lft.to/lastmile_qr_scan"}, "is_reserved": 0}, {"lon": -76.97097116666667, "bike_id": "0213b603cb8607d4161f0dff6a3e95bc", "lat": 38.91802766666667, "fusion_lon": 0.0, "fusion_lat": 0.0, "type": "electric_bike", "name": "0213b603cb8607d4161f0dff6a3e95bc", "is_disabled": 0, "rental_uris": {"ios": "https://dc.lft.to/lastmile_qr_scan", "android": "https://dc.lft.to/lastmile_qr_scan"}, "is_reserved": 0}, {"lon": -77.0758295, "bike_id": "d6e96fabbf474129fb17e0c4731ae139", "lat": 38.9125475, "fusion_lon": 0.0, "fusion_lat": 0.0, "type": "electric_scooter", "name": "d6e96fabbf474129fb17e0c4731ae139", "is_disabled": 0, "rental_uris": {"ios": "https://dc.lft.to/lastmile_qr_scan", "android": "https://dc.lft.to/lastmile_qr_scan"}, "is_reserved": 0}, {"lon": -77.03450816666667, "bike_id": "5002f61218cadb68dd030041cc1063bb", "lat": 38.905565333333335, "fusion_lon": 0.0, "fusion_lat": 0.0, "type": "electric_scooter", "name": "5002f61218cadb68dd030041cc1063bb", "is_disabled": 0, "rental_uris": {"ios": "https://dc.lft.to/lastmile_qr_scan", "android": "https://dc.lft.to/lastmile_qr_scan"}, "is_reserved": 0}, {"lon": -76.919714, "bike_id": "aef89dc51cf56eb2979518f2c3c37f1d", "lat": 38.9002665, "fusion_lon": 0.0, "fusion_lat": 0.0, "type": "electric_scooter", "name": "aef89dc51cf56eb2979518f2c3c37f1d", "is_disabled": 0, "rental_uris": {"ios": "https://dc.lft.to/lastmile_qr_scan", "android": "https://dc.lft.to/lastmile_qr_scan"}, "is_reserved": 0}, {"lon": -77.0284095, "bike_id": "e43329939dc9749c11bfaec7deeaaacd", "lat": 38.89848466666667, "fusion_lon": 0.0, "fusion_lat": 0.0, "type": "electric_scooter", "name": "e43329939dc9749c11bfaec7deeaaacd", "is_disabled": 0, "rental_uris": {"ios": "https://dc.lft.to/lastmile_qr_scan", "android": "https://dc.lft.to/lastmile_qr_scan"}, "is_reserved": 0}, {"lon": -77.03901483333334, "bike_id": "b62e5e8badefa3c3cd2f897d8c3d5043", "lat": 38.92418033333333, "fusion_lon": 0.0, "fusion_lat": 0.0, "type": "electric_scooter", "name": "b62e5e8badefa3c3cd2f897d8c3d5043", "is_disabled": 0, "rental_uris": {"ios": "https://dc.lft.to/lastmile_qr_scan", "android": "https://dc.lft.to/lastmile_qr_scan"}, "is_reserved": 0}, {"lon": -77.0230955, "bike_id": "88963ede89dd3e8477394e225751bdc2", "lat": 38.9161055, "fusion_lon": 0.0, "fusion_lat": 0.0, "type": "electric_scooter", "name": "88963ede89dd3e8477394e225751bdc2", "is_disabled": 0, "rental_uris": {"ios": "https://dc.lft.to/lastmile_qr_scan", "android": "https://dc.lft.to/lastmile_qr_scan"}, "is_reserved": 0}, {"lon": -77.04657066666667, "bike_id": "ed69714f5741314dbd0429ea85c8e1fb", "lat": 38.89228133333334, "fusion_lon": 0.0, "fusion_lat": 0.0, "type": "electric_scooter", "name": "ed69714f5741314dbd0429ea85c8e1fb", "is_disabled": 0, "rental_uris": {"ios": "https://dc.lft.to/lastmile_qr_scan", "android": "https://dc.lft.to/lastmile_qr_scan"}, "is_reserved": 0}, {"lon": -77.02802033333333, "bike_id": "37deaf650961ae196220c1749fb7c4bd", "lat": 38.91219316666667, "fusion_lon": 0.0, "fusion_lat": 0.0, "type": "electric_scooter", "name": "37deaf650961ae196220c1749fb7c4bd", "is_disabled": 0, "rental_uris": {"ios": "https://dc.lft.to/lastmile_qr_scan", "android": "https://dc.lft.to/lastmile_qr_scan"}, "is_reserved": 0}, {"lon": -77.03464883333334, "bike_id": "6cc898d531e3ab256cd6c49418fb6687", "lat": 38.90658766666667, "fusion_lon": 0.0, "fusion_lat": 0.0, "type": "electric_scooter", "name": "6cc898d531e3ab256cd6c49418fb6687", "is_disabled": 0, "rental_uris": {"ios": "https://dc.lft.to/lastmile_qr_scan", "android": "https://dc.lft.to/lastmile_qr_scan"}, "is_reserved": 0}, {"lon": -76.99682033333333, "bike_id": "c34d15bc7a781acdc2d10adca718fa94", "lat": 38.88120933333333, "fusion_lon": 0.0, "fusion_lat": 0.0, "type": "electric_scooter", "name": "c34d15bc7a781acdc2d10adca718fa94", "is_disabled": 0, "rental_uris": {"ios": "https://dc.lft.to/lastmile_qr_scan", "android": "https://dc.lft.to/lastmile_qr_scan"}, "is_reserved": 0}, {"lon": -77.02405716666667, "bike_id": "fb895329c74c6083b36df5f0920285c6", "lat": 38.907070833333336, "fusion_lon": 0.0, "fusion_lat": 0.0, "type": "electric_scooter", "name": "fb895329c74c6083b36df5f0920285c6", "is_disabled": 0, "rental_uris": {"ios": "https://dc.lft.to/lastmile_qr_scan", "android": "https://dc.lft.to/lastmile_qr_scan"}, "is_reserved": 0}, {"lon": -77.03779166666666, "bike_id": "56d7591817e7fb15344c8d44703d70a0", "lat": 38.917019, "fusion_lon": 0.0, "fusion_lat": 0.0, "type": "electric_scooter", "name": "56d7591817e7fb15344c8d44703d70a0", "is_disabled": 0, "rental_uris": {"ios": "https://dc.lft.to/lastmile_qr_scan", "android": "https://dc.lft.to/lastmile_qr_scan"}, "is_reserved": 0}, {"lon": -77.03203666666667, "bike_id": "79267f5b00aaa006e08f0d5346d4077d", "lat": 38.9093845, "fusion_lon": 0.0, "fusion_lat": 0.0, "type": "electric_scooter", "name": "79267f5b00aaa006e08f0d5346d4077d", "is_disabled": 0, "rental_uris": {"ios": "https://dc.lft.to/lastmile_qr_scan", "android": "https://dc.lft.to/lastmile_qr_scan"}, "is_reserved": 0}, {"lon": -76.94711066666666, "bike_id": "478fa1ac2fdefa8fcde0440723512599", "lat": 38.88993416666667, "fusion_lon": 0.0, "fusion_lat": 0.0, "type": "electric_scooter", "name": "478fa1ac2fdefa8fcde0440723512599", "is_disabled": 0, "rental_uris": {"ios": "https://dc.lft.to/lastmile_qr_scan", "android": "https://dc.lft.to/lastmile_qr_scan"}, "is_reserved": 0}, {"lon": -77.0324095, "bike_id": "bb52a9073f2d719b1bbdaeb8bf8f6814", "lat": 38.917107, "fusion_lon": 0.0, "fusion_lat": 0.0, "type": "electric_scooter", "name": "bb52a9073f2d719b1bbdaeb8bf8f6814", "is_disabled": 0, "rental_uris": {"ios": "https://dc.lft.to/lastmile_qr_scan", "android": "https://dc.lft.to/lastmile_qr_scan"}, "is_reserved": 0}, {"lon": -77.02083616666667, "bike_id": "97c342de5f11dbff8b9e7eb6e1f856a4", "lat": 38.911199, "fusion_lon": 0.0, "fusion_lat": 0.0, "type": "electric_scooter", "name": "97c342de5f11dbff8b9e7eb6e1f856a4", "is_disabled": 0, "rental_uris": {"ios": "https://dc.lft.to/lastmile_qr_scan", "android": "https://dc.lft.to/lastmile_qr_scan"}, "is_reserved": 0}, {"lon": -77.02604283333334, "bike_id": "c8528b8849f083173b422a7893bde5f1", "lat": 38.918458, "fusion_lon": 0.0, "fusion_lat": 0.0, "type": "electric_scooter", "name": "c8528b8849f083173b422a7893bde5f1", "is_disabled": 0, "rental_uris": {"ios": "https://dc.lft.to/lastmile_qr_scan", "android": "https://dc.lft.to/lastmile_qr_scan"}, "is_reserved": 0}, {"lon": -76.98252466666666, "bike_id": "52bb96bf3f013fd44a65c5cbb463ea3c", "lat": 38.91647183333333, "fusion_lon": 0.0, "fusion_lat": 0.0, "type": "electric_scooter", "name": "52bb96bf3f013fd44a65c5cbb463ea3c", "is_disabled": 0, "rental_uris": {"ios": "https://dc.lft.to/lastmile_qr_scan", "android": "https://dc.lft.to/lastmile_qr_scan"}, "is_reserved": 0}, {"lon": -77.043158, "bike_id": "984d038bffb02112df734301a1109e88", "lat": 38.9265675, "fusion_lon": 0.0, "fusion_lat": 0.0, "type": "electric_scooter", "name": "984d038bffb02112df734301a1109e88", "is_disabled": 0, "rental_uris": {"ios": "https://dc.lft.to/lastmile_qr_scan", "android": "https://dc.lft.to/lastmile_qr_scan"}, "is_reserved": 0}, {"lon": -77.09497833333333, "bike_id": "81beacda19e0673605ff369d120f76ad", "lat": 38.8722125, "fusion_lon": 0.0, "fusion_lat": 0.0, "type": "electric_bike", "name": "81beacda19e0673605ff369d120f76ad", "is_disabled": 0, "rental_uris": {"ios": "https://dc.lft.to/lastmile_qr_scan", "android": "https://dc.lft.to/lastmile_qr_scan"}, "is_reserved": 0}, {"lon": -77.03456783333333, "bike_id": "6128eb6790526e59faa78a26a2ddd3ea", "lat": 38.90810183333333, "fusion_lon": 0.0, "fusion_lat": 0.0, "type": "electric_scooter", "name": "6128eb6790526e59faa78a26a2ddd3ea", "is_disabled": 0, "rental_uris": {"ios": "https://dc.lft.to/lastmile_qr_scan", "android": "https://dc.lft.to/lastmile_qr_scan"}, "is_reserved": 0}, {"lon": -76.9299925, "bike_id": "1884deec2b297a87c9596d97895b2619", "lat": 38.89327333333333, "fusion_lon": 0.0, "fusion_lat": 0.0, "type": "electric_scooter", "name": "1884deec2b297a87c9596d97895b2619", "is_disabled": 0, "rental_uris": {"ios": "https://dc.lft.to/lastmile_qr_scan", "android": "https://dc.lft.to/lastmile_qr_scan"}, "is_reserved": 0}, {"lon": -76.9995525, "bike_id": "ed569a5454f457b4c1fab33b779cc64f", "lat": 38.89645816666667, "fusion_lon": 0.0, "fusion_lat": 0.0, "type": "electric_scooter", "name": "ed569a5454f457b4c1fab33b779cc64f", "is_disabled": 0, "rental_uris": {"ios": "https://dc.lft.to/lastmile_qr_scan", "android": "https://dc.lft.to/lastmile_qr_scan"}, "is_reserved": 0}, {"lon": -77.02524983333333, "bike_id": "28b66288b5c4bcd113c84576d8fad69f", "lat": 38.91740983333333, "fusion_lon": 0.0, "fusion_lat": 0.0, "type": "electric_scooter", "name": "28b66288b5c4bcd113c84576d8fad69f", "is_disabled": 0, "rental_uris": {"ios": "https://dc.lft.to/lastmile_qr_scan", "android": "https://dc.lft.to/lastmile_qr_scan"}, "is_reserved": 0}, {"lon": -76.96155733333333, "bike_id": "78087fc95de18981e484ee49fac564d9", "lat": 38.88356616666667, "fusion_lon": 0.0, "fusion_lat": 0.0, "type": "electric_scooter", "name": "78087fc95de18981e484ee49fac564d9", "is_disabled": 0, "rental_uris": {"ios": "https://dc.lft.to/lastmile_qr_scan", "android": "https://dc.lft.to/lastmile_qr_scan"}, "is_reserved": 0}, {"lon": -76.95372033333334, "bike_id": "0a4966b625c1d85cb055799d6d733e94", "lat": 38.89204433333333, "fusion_lon": 0.0, "fusion_lat": 0.0, "type": "electric_scooter", "name": "0a4966b625c1d85cb055799d6d733e94", "is_disabled": 0, "rental_uris": {"ios": "https://dc.lft.to/lastmile_qr_scan", "android": "https://dc.lft.to/lastmile_qr_scan"}, "is_reserved": 0}, {"lon": -76.98722183333334, "bike_id": "e64b4c3fdd50eb4e21875c74934adb35", "lat": 38.8668125, "fusion_lon": 0.0, "fusion_lat": 0.0, "type": "electric_scooter", "name": "e64b4c3fdd50eb4e21875c74934adb35", "is_disabled": 0, "rental_uris": {"ios": "https://dc.lft.to/lastmile_qr_scan", "android": "https://dc.lft.to/lastmile_qr_scan"}, "is_reserved": 0}, {"lon": -77.026148, "bike_id": "17991d91fe2943aecbcabf67315b5c08", "lat": 38.91413216666667, "fusion_lon": 0.0, "fusion_lat": 0.0, "type": "electric_scooter", "name": "17991d91fe2943aecbcabf67315b5c08", "is_disabled": 0, "rental_uris": {"ios": "https://dc.lft.to/lastmile_qr_scan", "android": "https://dc.lft.to/lastmile_qr_scan"}, "is_reserved": 0}, {"lon": -76.99836883333333, "bike_id": "68687c748b0624fc507f570d8bdd4e02", "lat": 38.90214016666667, "fusion_lon": 0.0, "fusion_lat": 0.0, "type": "electric_scooter", "name": "68687c748b0624fc507f570d8bdd4e02", "is_disabled": 0, "rental_uris": {"ios": "https://dc.lft.to/lastmile_qr_scan", "android": "https://dc.lft.to/lastmile_qr_scan"}, "is_reserved": 0}, {"lon": -77.005821, "bike_id": "3956590307e2d0526f45eaf787e74d72", "lat": 38.884343, "fusion_lon": 0.0, "fusion_lat": 0.0, "type": "electric_scooter", "name": "3956590307e2d0526f45eaf787e74d72", "is_disabled": 0, "rental_uris": {"ios": "https://dc.lft.to/lastmile_qr_scan", "android": "https://dc.lft.to/lastmile_qr_scan"}, "is_reserved": 0}, {"lon": -77.03866766666667, "bike_id": "84a8829bfca630efe5f1ecae0253f5f1", "lat": 38.944997, "fusion_lon": 0.0, "fusion_lat": 0.0, "type": "electric_scooter", "name": "84a8829bfca630efe5f1ecae0253f5f1", "is_disabled": 0, "rental_uris": {"ios": "https://dc.lft.to/lastmile_qr_scan", "android": "https://dc.lft.to/lastmile_qr_scan"}, "is_reserved": 0}, {"lon": -77.03276466666667, "bike_id": "1cab75f24afb9c308a0a5c09cd011be3", "lat": 38.937208166666665, "fusion_lon": 0.0, "fusion_lat": 0.0, "type": "electric_scooter", "name": "1cab75f24afb9c308a0a5c09cd011be3", "is_disabled": 0, "rental_uris": {"ios": "https://dc.lft.to/lastmile_qr_scan", "android": "https://dc.lft.to/lastmile_qr_scan"}, "is_reserved": 0}, {"lon": -77.03887966666667, "bike_id": "865863b2fd1686e6df02999762698083", "lat": 38.91006733333333, "fusion_lon": 0.0, "fusion_lat": 0.0, "type": "electric_scooter", "name": "865863b2fd1686e6df02999762698083", "is_disabled": 0, "rental_uris": {"ios": "https://dc.lft.to/lastmile_qr_scan", "android": "https://dc.lft.to/lastmile_qr_scan"}, "is_reserved": 0}, {"lon": -77.04489916666667, "bike_id": "4bf6dd66ffb9bd6478ec8c73dc184ac5", "lat": 38.92240866666667, "fusion_lon": 0.0, "fusion_lat": 0.0, "type": "electric_scooter", "name": "4bf6dd66ffb9bd6478ec8c73dc184ac5", "is_disabled": 0, "rental_uris": {"ios": "https://dc.lft.to/lastmile_qr_scan", "android": "https://dc.lft.to/lastmile_qr_scan"}, "is_reserved": 0}, {"lon": -77.04163616666666, "bike_id": "d993e8a35d54942dfb3b6331f415b19d", "lat": 38.919849, "fusion_lon": 0.0, "fusion_lat": 0.0, "type": "electric_scooter", "name": "d993e8a35d54942dfb3b6331f415b19d", "is_disabled": 0, "rental_uris": {"ios": "https://dc.lft.to/lastmile_qr_scan", "android": "https://dc.lft.to/lastmile_qr_scan"}, "is_reserved": 0}, {"lon": -77.02799283333333, "bike_id": "3d7c32f06f5cf8b7434ccd0e8ee08e9e", "lat": 38.92972733333333, "fusion_lon": 0.0, "fusion_lat": 0.0, "type": "electric_scooter", "name": "3d7c32f06f5cf8b7434ccd0e8ee08e9e", "is_disabled": 0, "rental_uris": {"ios": "https://dc.lft.to/lastmile_qr_scan", "android": "https://dc.lft.to/lastmile_qr_scan"}, "is_reserved": 0}, {"lon": -76.99781316666666, "bike_id": "0fef9f30995aa82852a39c0f1ace1ec0", "lat": 38.844288166666665, "fusion_lon": 0.0, "fusion_lat": 0.0, "type": "electric_scooter", "name": "0fef9f30995aa82852a39c0f1ace1ec0", "is_disabled": 0, "rental_uris": {"ios": "https://dc.lft.to/lastmile_qr_scan", "android": "https://dc.lft.to/lastmile_qr_scan"}, "is_reserved": 0}, {"lon": -76.93749366666667, "bike_id": "411cdfaf204ba581dd769fdb6a501625", "lat": 38.8904995, "fusion_lon": 0.0, "fusion_lat": 0.0, "type": "electric_scooter", "name": "411cdfaf204ba581dd769fdb6a501625", "is_disabled": 0, "rental_uris": {"ios": "https://dc.lft.to/lastmile_qr_scan", "android": "https://dc.lft.to/lastmile_qr_scan"}, "is_reserved": 0}, {"lon": -77.02411933333333, "bike_id": "67f3266949fdbef816f8005094f4538e", "lat": 38.900335166666665, "fusion_lon": 0.0, "fusion_lat": 0.0, "type": "electric_scooter", "name": "67f3266949fdbef816f8005094f4538e", "is_disabled": 0, "rental_uris": {"ios": "https://dc.lft.to/lastmile_qr_scan", "android": "https://dc.lft.to/lastmile_qr_scan"}, "is_reserved": 0}, {"lon": -77.04347966666667, "bike_id": "31d75bf17bceaf0d4ef638f2d255a6b1", "lat": 38.90413616666667, "fusion_lon": 0.0, "fusion_lat": 0.0, "type": "electric_scooter", "name": "31d75bf17bceaf0d4ef638f2d255a6b1", "is_disabled": 0, "rental_uris": {"ios": "https://dc.lft.to/lastmile_qr_scan", "android": "https://dc.lft.to/lastmile_qr_scan"}, "is_reserved": 0}, {"lon": -76.99519783333334, "bike_id": "9ec77bf8e7c9028698db455690c51d4c", "lat": 38.896085666666664, "fusion_lon": 0.0, "fusion_lat": 0.0, "type": "electric_scooter", "name": "9ec77bf8e7c9028698db455690c51d4c", "is_disabled": 0, "rental_uris": {"ios": "https://dc.lft.to/lastmile_qr_scan", "android": "https://dc.lft.to/lastmile_qr_scan"}, "is_reserved": 0}, {"lon": -76.99846883333333, "bike_id": "519a4a3103df92f4bd4c52488fefe4d9", "lat": 38.89985333333333, "fusion_lon": 0.0, "fusion_lat": 0.0, "type": "electric_scooter", "name": "519a4a3103df92f4bd4c52488fefe4d9", "is_disabled": 0, "rental_uris": {"ios": "https://dc.lft.to/lastmile_qr_scan", "android": "https://dc.lft.to/lastmile_qr_scan"}, "is_reserved": 0}, {"lon": -77.02945166666667, "bike_id": "899496e1d2248095712cb5d60ba8991c", "lat": 38.920756833333336, "fusion_lon": 0.0, "fusion_lat": 0.0, "type": "electric_scooter", "name": "899496e1d2248095712cb5d60ba8991c", "is_disabled": 0, "rental_uris": {"ios": "https://dc.lft.to/lastmile_qr_scan", "android": "https://dc.lft.to/lastmile_qr_scan"}, "is_reserved": 0}, {"lon": -76.94807483333334, "bike_id": "767e9434cd9033d21ab0f2e41ed15513", "lat": 38.8619165, "fusion_lon": 0.0, "fusion_lat": 0.0, "type": "electric_bike", "name": "767e9434cd9033d21ab0f2e41ed15513", "is_disabled": 0, "rental_uris": {"ios": "https://dc.lft.to/lastmile_qr_scan", "android": "https://dc.lft.to/lastmile_qr_scan"}, "is_reserved": 0}, {"lon": -77.022451, "bike_id": "3c25667e880bc611e2396106758dd4e8", "lat": 38.912746166666665, "fusion_lon": 0.0, "fusion_lat": 0.0, "type": "electric_scooter", "name": "3c25667e880bc611e2396106758dd4e8", "is_disabled": 0, "rental_uris": {"ios": "https://dc.lft.to/lastmile_qr_scan", "android": "https://dc.lft.to/lastmile_qr_scan"}, "is_reserved": 0}, {"lon": -77.0411085, "bike_id": "a44ff1d22ed3dd777ebd3ae5e42e988a", "lat": 38.8984915, "fusion_lon": 0.0, "fusion_lat": 0.0, "type": "electric_scooter", "name": "a44ff1d22ed3dd777ebd3ae5e42e988a", "is_disabled": 0, "rental_uris": {"ios": "https://dc.lft.to/lastmile_qr_scan", "android": "https://dc.lft.to/lastmile_qr_scan"}, "is_reserved": 0}, {"lon": -77.03182816666667, "bike_id": "44f8e21bd919c72891714d7b9c6a862c", "lat": 38.914316, "fusion_lon": 0.0, "fusion_lat": 0.0, "type": "electric_scooter", "name": "44f8e21bd919c72891714d7b9c6a862c", "is_disabled": 0, "rental_uris": {"ios": "https://dc.lft.to/lastmile_qr_scan", "android": "https://dc.lft.to/lastmile_qr_scan"}, "is_reserved": 0}, {"lon": -77.02744666666666, "bike_id": "faeb1e35a17fb996d864d5ba1cf263e7", "lat": 38.8814245, "fusion_lon": 0.0, "fusion_lat": 0.0, "type": "electric_scooter", "name": "faeb1e35a17fb996d864d5ba1cf263e7", "is_disabled": 0, "rental_uris": {"ios": "https://dc.lft.to/lastmile_qr_scan", "android": "https://dc.lft.to/lastmile_qr_scan"}, "is_reserved": 0}, {"lon": -77.043423, "bike_id": "5096c1641432733530db78e51a0c12cf", "lat": 38.90881666666667, "fusion_lon": 0.0, "fusion_lat": 0.0, "type": "electric_scooter", "name": "5096c1641432733530db78e51a0c12cf", "is_disabled": 0, "rental_uris": {"ios": "https://dc.lft.to/lastmile_qr_scan", "android": "https://dc.lft.to/lastmile_qr_scan"}, "is_reserved": 0}, {"lon": -77.04524966666666, "bike_id": "f7a6b8ea0009a2d4f2a0297fcd1a6c8b", "lat": 38.94196, "fusion_lon": 0.0, "fusion_lat": 0.0, "type": "electric_bike", "name": "f7a6b8ea0009a2d4f2a0297fcd1a6c8b", "is_disabled": 0, "rental_uris": {"ios": "https://dc.lft.to/lastmile_qr_scan", "android": "https://dc.lft.to/lastmile_qr_scan"}, "is_reserved": 0}, {"lon": -77.03392616666666, "bike_id": "c30e3cc220b6c47b93990fb562b0f764", "lat": 38.93879333333334, "fusion_lon": 0.0, "fusion_lat": 0.0, "type": "electric_scooter", "name": "c30e3cc220b6c47b93990fb562b0f764", "is_disabled": 0, "rental_uris": {"ios": "https://dc.lft.to/lastmile_qr_scan", "android": "https://dc.lft.to/lastmile_qr_scan"}, "is_reserved": 0}, {"lon": -77.03993816666667, "bike_id": "02e59553656dc3c1715009c60f547764", "lat": 38.905646833333336, "fusion_lon": 0.0, "fusion_lat": 0.0, "type": "electric_scooter", "name": "02e59553656dc3c1715009c60f547764", "is_disabled": 0, "rental_uris": {"ios": "https://dc.lft.to/lastmile_qr_scan", "android": "https://dc.lft.to/lastmile_qr_scan"}, "is_reserved": 0}, {"lon": -77.00738566666666, "bike_id": "281522930b58812097ca1543f93e31dd", "lat": 38.9162145, "fusion_lon": 0.0, "fusion_lat": 0.0, "type": "electric_scooter", "name": "281522930b58812097ca1543f93e31dd", "is_disabled": 0, "rental_uris": {"ios": "https://dc.lft.to/lastmile_qr_scan", "android": "https://dc.lft.to/lastmile_qr_scan"}, "is_reserved": 0}, {"lon": -76.9916555, "bike_id": "334e56f46045cfad7e891155edd97a59", "lat": 38.8876845, "fusion_lon": 0.0, "fusion_lat": 0.0, "type": "electric_bike", "name": "334e56f46045cfad7e891155edd97a59", "is_disabled": 0, "rental_uris": {"ios": "https://dc.lft.to/lastmile_qr_scan", "android": "https://dc.lft.to/lastmile_qr_scan"}, "is_reserved": 0}, {"lon": -77.0326685, "bike_id": "38d79814165a3cccb37b81fcb49d92e4", "lat": 38.93563366666667, "fusion_lon": 0.0, "fusion_lat": 0.0, "type": "electric_scooter", "name": "38d79814165a3cccb37b81fcb49d92e4", "is_disabled": 0, "rental_uris": {"ios": "https://dc.lft.to/lastmile_qr_scan", "android": "https://dc.lft.to/lastmile_qr_scan"}, "is_reserved": 0}, {"lon": -77.074377, "bike_id": "b747063d12495938a18c4a43fdef5b24", "lat": 38.99945683333333, "fusion_lon": 0.0, "fusion_lat": 0.0, "type": "electric_bike", "name": "b747063d12495938a18c4a43fdef5b24", "is_disabled": 0, "rental_uris": {"ios": "https://dc.lft.to/lastmile_qr_scan", "android": "https://dc.lft.to/lastmile_qr_scan"}, "is_reserved": 0}, {"lon": -77.02407183333334, "bike_id": "b79a48f88bcdc3fd6cc2011f44394082", "lat": 38.91909116666667, "fusion_lon": 0.0, "fusion_lat": 0.0, "type": "electric_scooter", "name": "b79a48f88bcdc3fd6cc2011f44394082", "is_disabled": 0, "rental_uris": {"ios": "https://dc.lft.to/lastmile_qr_scan", "android": "https://dc.lft.to/lastmile_qr_scan"}, "is_reserved": 0}, {"lon": -76.99640916666667, "bike_id": "8633ab70c646a3062fc38365383a4a8b", "lat": 38.9000435, "fusion_lon": 0.0, "fusion_lat": 0.0, "type": "electric_scooter", "name": "8633ab70c646a3062fc38365383a4a8b", "is_disabled": 0, "rental_uris": {"ios": "https://dc.lft.to/lastmile_qr_scan", "android": "https://dc.lft.to/lastmile_qr_scan"}, "is_reserved": 0}, {"lon": -77.0322675, "bike_id": "2e499eeaf0914259ab6d6ce2ee659ff1", "lat": 38.914046666666664, "fusion_lon": 0.0, "fusion_lat": 0.0, "type": "electric_scooter", "name": "2e499eeaf0914259ab6d6ce2ee659ff1", "is_disabled": 0, "rental_uris": {"ios": "https://dc.lft.to/lastmile_qr_scan", "android": "https://dc.lft.to/lastmile_qr_scan"}, "is_reserved": 0}, {"lon": -76.98720583333333, "bike_id": "c5a6d7d8efa40a2e84e81056cec48195", "lat": 38.86623733333333, "fusion_lon": 0.0, "fusion_lat": 0.0, "type": "electric_scooter", "name": "c5a6d7d8efa40a2e84e81056cec48195", "is_disabled": 0, "rental_uris": {"ios": "https://dc.lft.to/lastmile_qr_scan", "android": "https://dc.lft.to/lastmile_qr_scan"}, "is_reserved": 0}, {"lon": -77.024278, "bike_id": "05f2f9f9cd827804a5e40a044dac7025", "lat": 38.9140175, "fusion_lon": 0.0, "fusion_lat": 0.0, "type": "electric_scooter", "name": "05f2f9f9cd827804a5e40a044dac7025", "is_disabled": 0, "rental_uris": {"ios": "https://dc.lft.to/lastmile_qr_scan", "android": "https://dc.lft.to/lastmile_qr_scan"}, "is_reserved": 0}, {"lon": -77.04085533333334, "bike_id": "3b44efa80f044296904b27be9f156570", "lat": 38.91714916666667, "fusion_lon": 0.0, "fusion_lat": 0.0, "type": "electric_scooter", "name": "3b44efa80f044296904b27be9f156570", "is_disabled": 0, "rental_uris": {"ios": "https://dc.lft.to/lastmile_qr_scan", "android": "https://dc.lft.to/lastmile_qr_scan"}, "is_reserved": 0}, {"lon": -76.96060033333333, "bike_id": "4d4c8a988903b1194423624963589d3e", "lat": 38.88403816666667, "fusion_lon": 0.0, "fusion_lat": 0.0, "type": "electric_bike", "name": "4d4c8a988903b1194423624963589d3e", "is_disabled": 0, "rental_uris": {"ios": "https://dc.lft.to/lastmile_qr_scan", "android": "https://dc.lft.to/lastmile_qr_scan"}, "is_reserved": 0}, {"lon": -77.03716066666667, "bike_id": "3cd0d6453d659489b780b6cf7340d9c7", "lat": 38.926333666666665, "fusion_lon": 0.0, "fusion_lat": 0.0, "type": "electric_scooter", "name": "3cd0d6453d659489b780b6cf7340d9c7", "is_disabled": 0, "rental_uris": {"ios": "https://dc.lft.to/lastmile_qr_scan", "android": "https://dc.lft.to/lastmile_qr_scan"}, "is_reserved": 0}, {"lon": -77.0422825, "bike_id": "ede7afaa446279b629c4e4e71f290c48", "lat": 38.92107166666667, "fusion_lon": 0.0, "fusion_lat": 0.0, "type": "electric_scooter", "name": "ede7afaa446279b629c4e4e71f290c48", "is_disabled": 0, "rental_uris": {"ios": "https://dc.lft.to/lastmile_qr_scan", "android": "https://dc.lft.to/lastmile_qr_scan"}, "is_reserved": 0}, {"lon": -76.99548883333334, "bike_id": "8c9a98c78895540ec14184c27ee40e4c", "lat": 38.862591333333334, "fusion_lon": 0.0, "fusion_lat": 0.0, "type": "electric_scooter", "name": "8c9a98c78895540ec14184c27ee40e4c", "is_disabled": 0, "rental_uris": {"ios": "https://dc.lft.to/lastmile_qr_scan", "android": "https://dc.lft.to/lastmile_qr_scan"}, "is_reserved": 0}, {"lon": -77.02981166666666, "bike_id": "8c3c28eb9be16a6b13d0d2c0f0ee4b01", "lat": 38.921964, "fusion_lon": 0.0, "fusion_lat": 0.0, "type": "electric_scooter", "name": "8c3c28eb9be16a6b13d0d2c0f0ee4b01", "is_disabled": 0, "rental_uris": {"ios": "https://dc.lft.to/lastmile_qr_scan", "android": "https://dc.lft.to/lastmile_qr_scan"}, "is_reserved": 0}, {"lon": -77.026887, "bike_id": "61b74c08c4fe99171ae175ae2526179f", "lat": 38.8980915, "fusion_lon": 0.0, "fusion_lat": 0.0, "type": "electric_scooter", "name": "61b74c08c4fe99171ae175ae2526179f", "is_disabled": 0, "rental_uris": {"ios": "https://dc.lft.to/lastmile_qr_scan", "android": "https://dc.lft.to/lastmile_qr_scan"}, "is_reserved": 0}, {"lon": -77.02982916666667, "bike_id": "8188e4bf12fcca892f722ae3d0e05d69", "lat": 38.92769366666667, "fusion_lon": 0.0, "fusion_lat": 0.0, "type": "electric_scooter", "name": "8188e4bf12fcca892f722ae3d0e05d69", "is_disabled": 0, "rental_uris": {"ios": "https://dc.lft.to/lastmile_qr_scan", "android": "https://dc.lft.to/lastmile_qr_scan"}, "is_reserved": 0}, {"lon": -77.02697383333333, "bike_id": "5f094f1ecbc665a555902d1f44f18a51", "lat": 38.91292383333333, "fusion_lon": 0.0, "fusion_lat": 0.0, "type": "electric_scooter", "name": "5f094f1ecbc665a555902d1f44f18a51", "is_disabled": 0, "rental_uris": {"ios": "https://dc.lft.to/lastmile_qr_scan", "android": "https://dc.lft.to/lastmile_qr_scan"}, "is_reserved": 0}, {"lon": -77.04552883333334, "bike_id": "d8d9143d7591f9d0c1cb527a8052e0bf", "lat": 38.90963, "fusion_lon": 0.0, "fusion_lat": 0.0, "type": "electric_scooter", "name": "d8d9143d7591f9d0c1cb527a8052e0bf", "is_disabled": 0, "rental_uris": {"ios": "https://dc.lft.to/lastmile_qr_scan", "android": "https://dc.lft.to/lastmile_qr_scan"}, "is_reserved": 0}, {"lon": -77.018783, "bike_id": "a91361b13bed4e67cb66bed73140f492", "lat": 38.91415516666667, "fusion_lon": 0.0, "fusion_lat": 0.0, "type": "electric_scooter", "name": "a91361b13bed4e67cb66bed73140f492", "is_disabled": 0, "rental_uris": {"ios": "https://dc.lft.to/lastmile_qr_scan", "android": "https://dc.lft.to/lastmile_qr_scan"}, "is_reserved": 0}, {"lon": -77.03243366666666, "bike_id": "8ecc85067fe39b85b429d6c4c24cf736", "lat": 38.938642, "fusion_lon": 0.0, "fusion_lat": 0.0, "type": "electric_scooter", "name": "8ecc85067fe39b85b429d6c4c24cf736", "is_disabled": 0, "rental_uris": {"ios": "https://dc.lft.to/lastmile_qr_scan", "android": "https://dc.lft.to/lastmile_qr_scan"}, "is_reserved": 0}, {"lon": -77.03246116666666, "bike_id": "4f752edd71032a17cb31a90bc6ba046f", "lat": 38.908719, "fusion_lon": 0.0, "fusion_lat": 0.0, "type": "electric_scooter", "name": "4f752edd71032a17cb31a90bc6ba046f", "is_disabled": 0, "rental_uris": {"ios": "https://dc.lft.to/lastmile_qr_scan", "android": "https://dc.lft.to/lastmile_qr_scan"}, "is_reserved": 0}, {"lon": -76.9610645, "bike_id": "c1999b9be28b89a5a3453de8af7d2540", "lat": 38.94963083333333, "fusion_lon": 0.0, "fusion_lat": 0.0, "type": "electric_bike", "name": "c1999b9be28b89a5a3453de8af7d2540", "is_disabled": 0, "rental_uris": {"ios": "https://dc.lft.to/lastmile_qr_scan", "android": "https://dc.lft.to/lastmile_qr_scan"}, "is_reserved": 0}, {"lon": -77.0338725, "bike_id": "960b01457fa0d79dd4b662c0f7110fbb", "lat": 38.900008666666665, "fusion_lon": 0.0, "fusion_lat": 0.0, "type": "electric_scooter", "name": "960b01457fa0d79dd4b662c0f7110fbb", "is_disabled": 0, "rental_uris": {"ios": "https://dc.lft.to/lastmile_qr_scan", "android": "https://dc.lft.to/lastmile_qr_scan"}, "is_reserved": 0}, {"lon": -77.0215655, "bike_id": "545d80e610d664bf02535c41933d8394", "lat": 38.926033333333336, "fusion_lon": 0.0, "fusion_lat": 0.0, "type": "electric_scooter", "name": "545d80e610d664bf02535c41933d8394", "is_disabled": 0, "rental_uris": {"ios": "https://dc.lft.to/lastmile_qr_scan", "android": "https://dc.lft.to/lastmile_qr_scan"}, "is_reserved": 0}, {"lon": -77.035996, "bike_id": "fae00e7dd4ed0891328d9e744047c575", "lat": 38.93937283333333, "fusion_lon": 0.0, "fusion_lat": 0.0, "type": "electric_scooter", "name": "fae00e7dd4ed0891328d9e744047c575", "is_disabled": 0, "rental_uris": {"ios": "https://dc.lft.to/lastmile_qr_scan", "android": "https://dc.lft.to/lastmile_qr_scan"}, "is_reserved": 0}, {"lon": -77.032108, "bike_id": "e6915624bbdc09fd63efc8a1f2f84ece", "lat": 38.915373, "fusion_lon": 0.0, "fusion_lat": 0.0, "type": "electric_scooter", "name": "e6915624bbdc09fd63efc8a1f2f84ece", "is_disabled": 0, "rental_uris": {"ios": "https://dc.lft.to/lastmile_qr_scan", "android": "https://dc.lft.to/lastmile_qr_scan"}, "is_reserved": 0}, {"lon": -77.020563, "bike_id": "16f27ca51bb620a11160ba5034c1e3b4", "lat": 38.923548, "fusion_lon": 0.0, "fusion_lat": 0.0, "type": "electric_scooter", "name": "16f27ca51bb620a11160ba5034c1e3b4", "is_disabled": 0, "rental_uris": {"ios": "https://dc.lft.to/lastmile_qr_scan", "android": "https://dc.lft.to/lastmile_qr_scan"}, "is_reserved": 0}, {"lon": -77.0259635, "bike_id": "a129d848dcf80f09dfdebe82676fba4a", "lat": 38.902503833333334, "fusion_lon": 0.0, "fusion_lat": 0.0, "type": "electric_scooter", "name": "a129d848dcf80f09dfdebe82676fba4a", "is_disabled": 0, "rental_uris": {"ios": "https://dc.lft.to/lastmile_qr_scan", "android": "https://dc.lft.to/lastmile_qr_scan"}, "is_reserved": 0}, {"lon": -77.07920433333334, "bike_id": "c0062db3488985a3b7a8f014591fa5c0", "lat": 38.93099333333333, "fusion_lon": 0.0, "fusion_lat": 0.0, "type": "electric_scooter", "name": "c0062db3488985a3b7a8f014591fa5c0", "is_disabled": 0, "rental_uris": {"ios": "https://dc.lft.to/lastmile_qr_scan", "android": "https://dc.lft.to/lastmile_qr_scan"}, "is_reserved": 0}, {"lon": -76.9767445, "bike_id": "8a44fc3149de895b1b9d2dd0a55397af", "lat": 38.95243683333333, "fusion_lon": 0.0, "fusion_lat": 0.0, "type": "electric_bike", "name": "8a44fc3149de895b1b9d2dd0a55397af", "is_disabled": 0, "rental_uris": {"ios": "https://dc.lft.to/lastmile_qr_scan", "android": "https://dc.lft.to/lastmile_qr_scan"}, "is_reserved": 0}, {"lon": -76.991067, "bike_id": "460f66f5ce7cc1b2dae88dd72f4814cf", "lat": 38.932976333333336, "fusion_lon": 0.0, "fusion_lat": 0.0, "type": "electric_scooter", "name": "460f66f5ce7cc1b2dae88dd72f4814cf", "is_disabled": 0, "rental_uris": {"ios": "https://dc.lft.to/lastmile_qr_scan", "android": "https://dc.lft.to/lastmile_qr_scan"}, "is_reserved": 0}, {"lon": -77.02553933333333, "bike_id": "f561d7843bc8513387b53caf98e939e0", "lat": 38.91706933333333, "fusion_lon": 0.0, "fusion_lat": 0.0, "type": "electric_scooter", "name": "f561d7843bc8513387b53caf98e939e0", "is_disabled": 0, "rental_uris": {"ios": "https://dc.lft.to/lastmile_qr_scan", "android": "https://dc.lft.to/lastmile_qr_scan"}, "is_reserved": 0}, {"lon": -76.9830625, "bike_id": "87651e90d7a6b2f2054588c83ab8bd52", "lat": 38.90525616666667, "fusion_lon": 0.0, "fusion_lat": 0.0, "type": "electric_scooter", "name": "87651e90d7a6b2f2054588c83ab8bd52", "is_disabled": 0, "rental_uris": {"ios": "https://dc.lft.to/lastmile_qr_scan", "android": "https://dc.lft.to/lastmile_qr_scan"}, "is_reserved": 0}, {"lon": -77.043549, "bike_id": "0c013ba713163d06743b6920017cf46f", "lat": 38.90398883333334, "fusion_lon": 0.0, "fusion_lat": 0.0, "type": "electric_scooter", "name": "0c013ba713163d06743b6920017cf46f", "is_disabled": 0, "rental_uris": {"ios": "https://dc.lft.to/lastmile_qr_scan", "android": "https://dc.lft.to/lastmile_qr_scan"}, "is_reserved": 0}, {"lon": -76.987992, "bike_id": "bb84e341957b9b74f37573714d96339f", "lat": 38.86727583333333, "fusion_lon": 0.0, "fusion_lat": 0.0, "type": "electric_scooter", "name": "bb84e341957b9b74f37573714d96339f", "is_disabled": 0, "rental_uris": {"ios": "https://dc.lft.to/lastmile_qr_scan", "android": "https://dc.lft.to/lastmile_qr_scan"}, "is_reserved": 0}, {"lon": -77.03207266666666, "bike_id": "2ca977cf028c8235f6cfeb11304f7338", "lat": 38.909437833333335, "fusion_lon": 0.0, "fusion_lat": 0.0, "type": "electric_scooter", "name": "2ca977cf028c8235f6cfeb11304f7338", "is_disabled": 0, "rental_uris": {"ios": "https://dc.lft.to/lastmile_qr_scan", "android": "https://dc.lft.to/lastmile_qr_scan"}, "is_reserved": 0}, {"lon": -76.99520866666667, "bike_id": "e0e106c75774a66684f95ad87d31f44d", "lat": 38.89741433333333, "fusion_lon": 0.0, "fusion_lat": 0.0, "type": "electric_scooter", "name": "e0e106c75774a66684f95ad87d31f44d", "is_disabled": 0, "rental_uris": {"ios": "https://dc.lft.to/lastmile_qr_scan", "android": "https://dc.lft.to/lastmile_qr_scan"}, "is_reserved": 0}, {"lon": -77.0231155, "bike_id": "1c00ca58bea5d9e7690cc01adb9659b5", "lat": 38.87873333333334, "fusion_lon": 0.0, "fusion_lat": 0.0, "type": "electric_scooter", "name": "1c00ca58bea5d9e7690cc01adb9659b5", "is_disabled": 0, "rental_uris": {"ios": "https://dc.lft.to/lastmile_qr_scan", "android": "https://dc.lft.to/lastmile_qr_scan"}, "is_reserved": 0}, {"lon": -77.05917866666667, "bike_id": "a0f8315870e6e54655775f663d439d46", "lat": 38.9016085, "fusion_lon": 0.0, "fusion_lat": 0.0, "type": "electric_scooter", "name": "a0f8315870e6e54655775f663d439d46", "is_disabled": 0, "rental_uris": {"ios": "https://dc.lft.to/lastmile_qr_scan", "android": "https://dc.lft.to/lastmile_qr_scan"}, "is_reserved": 0}, {"lon": -77.02501866666667, "bike_id": "67576b79fc1af18c2c80326bef29361d", "lat": 38.941970166666664, "fusion_lon": 0.0, "fusion_lat": 0.0, "type": "electric_scooter", "name": "67576b79fc1af18c2c80326bef29361d", "is_disabled": 0, "rental_uris": {"ios": "https://dc.lft.to/lastmile_qr_scan", "android": "https://dc.lft.to/lastmile_qr_scan"}, "is_reserved": 0}, {"lon": -77.0538455, "bike_id": "4a756354b9d996a1f61d6bb19bbd5a02", "lat": 38.898864, "fusion_lon": 0.0, "fusion_lat": 0.0, "type": "electric_scooter", "name": "4a756354b9d996a1f61d6bb19bbd5a02", "is_disabled": 0, "rental_uris": {"ios": "https://dc.lft.to/lastmile_qr_scan", "android": "https://dc.lft.to/lastmile_qr_scan"}, "is_reserved": 0}, {"lon": -77.02429566666666, "bike_id": "1ffa80d832b9fbc17743015689d718d6", "lat": 38.920627, "fusion_lon": 0.0, "fusion_lat": 0.0, "type": "electric_scooter", "name": "1ffa80d832b9fbc17743015689d718d6", "is_disabled": 0, "rental_uris": {"ios": "https://dc.lft.to/lastmile_qr_scan", "android": "https://dc.lft.to/lastmile_qr_scan"}, "is_reserved": 0}, {"lon": -77.030869, "bike_id": "d17eebfc431ec613c673b9fb2c2778ea", "lat": 38.92714616666667, "fusion_lon": 0.0, "fusion_lat": 0.0, "type": "electric_scooter", "name": "d17eebfc431ec613c673b9fb2c2778ea", "is_disabled": 0, "rental_uris": {"ios": "https://dc.lft.to/lastmile_qr_scan", "android": "https://dc.lft.to/lastmile_qr_scan"}, "is_reserved": 0}, {"lon": -77.02474133333334, "bike_id": "4833c7dcb0d965562606406f68ac74c9", "lat": 38.9371365, "fusion_lon": 0.0, "fusion_lat": 0.0, "type": "electric_scooter", "name": "4833c7dcb0d965562606406f68ac74c9", "is_disabled": 0, "rental_uris": {"ios": "https://dc.lft.to/lastmile_qr_scan", "android": "https://dc.lft.to/lastmile_qr_scan"}, "is_reserved": 0}, {"lon": -76.98151983333334, "bike_id": "a16f9bbaba4a97e62f2ca1cf0c6ffa18", "lat": 38.9031625, "fusion_lon": 0.0, "fusion_lat": 0.0, "type": "electric_scooter", "name": "a16f9bbaba4a97e62f2ca1cf0c6ffa18", "is_disabled": 0, "rental_uris": {"ios": "https://dc.lft.to/lastmile_qr_scan", "android": "https://dc.lft.to/lastmile_qr_scan"}, "is_reserved": 0}, {"lon": -77.027726, "bike_id": "6fa81f4d23d32fd6ff477a116bca6c24", "lat": 38.954284, "fusion_lon": 0.0, "fusion_lat": 0.0, "type": "electric_scooter", "name": "6fa81f4d23d32fd6ff477a116bca6c24", "is_disabled": 0, "rental_uris": {"ios": "https://dc.lft.to/lastmile_qr_scan", "android": "https://dc.lft.to/lastmile_qr_scan"}, "is_reserved": 0}, {"lon": -77.03414266666667, "bike_id": "79a97f05dfff8a7c218df96adaa1bfed", "lat": 38.920442333333334, "fusion_lon": 0.0, "fusion_lat": 0.0, "type": "electric_scooter", "name": "79a97f05dfff8a7c218df96adaa1bfed", "is_disabled": 0, "rental_uris": {"ios": "https://dc.lft.to/lastmile_qr_scan", "android": "https://dc.lft.to/lastmile_qr_scan"}, "is_reserved": 0}, {"lon": -77.064139, "bike_id": "4e3a23b210c3d6e0675ba47634961d94", "lat": 38.90934283333333, "fusion_lon": 0.0, "fusion_lat": 0.0, "type": "electric_scooter", "name": "4e3a23b210c3d6e0675ba47634961d94", "is_disabled": 0, "rental_uris": {"ios": "https://dc.lft.to/lastmile_qr_scan", "android": "https://dc.lft.to/lastmile_qr_scan"}, "is_reserved": 0}, {"lon": -76.99506883333333, "bike_id": "f43890368fa62b5cc5864e89b6d2e8d7", "lat": 38.8810085, "fusion_lon": 0.0, "fusion_lat": 0.0, "type": "electric_scooter", "name": "f43890368fa62b5cc5864e89b6d2e8d7", "is_disabled": 0, "rental_uris": {"ios": "https://dc.lft.to/lastmile_qr_scan", "android": "https://dc.lft.to/lastmile_qr_scan"}, "is_reserved": 0}, {"lon": -77.026319, "bike_id": "61058a1262508f9fdbc2c2dfd70015b8", "lat": 38.962318333333336, "fusion_lon": 0.0, "fusion_lat": 0.0, "type": "electric_bike", "name": "61058a1262508f9fdbc2c2dfd70015b8", "is_disabled": 0, "rental_uris": {"ios": "https://dc.lft.to/lastmile_qr_scan", "android": "https://dc.lft.to/lastmile_qr_scan"}, "is_reserved": 0}, {"lon": -77.037155, "bike_id": "ef22dff826f8cad26feadb6a28a2f2b4", "lat": 38.92862933333333, "fusion_lon": 0.0, "fusion_lat": 0.0, "type": "electric_scooter", "name": "ef22dff826f8cad26feadb6a28a2f2b4", "is_disabled": 0, "rental_uris": {"ios": "https://dc.lft.to/lastmile_qr_scan", "android": "https://dc.lft.to/lastmile_qr_scan"}, "is_reserved": 0}, {"lon": -76.96602333333334, "bike_id": "0b468f74b12e28769185915ea0abfde1", "lat": 38.8711075, "fusion_lon": 0.0, "fusion_lat": 0.0, "type": "electric_scooter", "name": "0b468f74b12e28769185915ea0abfde1", "is_disabled": 0, "rental_uris": {"ios": "https://dc.lft.to/lastmile_qr_scan", "android": "https://dc.lft.to/lastmile_qr_scan"}, "is_reserved": 0}, {"lon": -77.03208966666666, "bike_id": "4347287b8016c6e800d4fa3dd5c9f816", "lat": 38.90919683333333, "fusion_lon": 0.0, "fusion_lat": 0.0, "type": "electric_scooter", "name": "4347287b8016c6e800d4fa3dd5c9f816", "is_disabled": 0, "rental_uris": {"ios": "https://dc.lft.to/lastmile_qr_scan", "android": "https://dc.lft.to/lastmile_qr_scan"}, "is_reserved": 0}, {"lon": -77.019635, "bike_id": "40debb2dd7d93c65da133e5107aade64", "lat": 38.92427, "fusion_lon": 0.0, "fusion_lat": 0.0, "type": "electric_scooter", "name": "40debb2dd7d93c65da133e5107aade64", "is_disabled": 0, "rental_uris": {"ios": "https://dc.lft.to/lastmile_qr_scan", "android": "https://dc.lft.to/lastmile_qr_scan"}, "is_reserved": 0}, {"lon": -77.04462883333333, "bike_id": "3ba98fe1a37f6cbfb7fe6c334758fe3b", "lat": 38.9185155, "fusion_lon": 0.0, "fusion_lat": 0.0, "type": "electric_scooter", "name": "3ba98fe1a37f6cbfb7fe6c334758fe3b", "is_disabled": 0, "rental_uris": {"ios": "https://dc.lft.to/lastmile_qr_scan", "android": "https://dc.lft.to/lastmile_qr_scan"}, "is_reserved": 0}, {"lon": -77.03759266666667, "bike_id": "711f05bb1c77678e7d6c2e108b2ee98a", "lat": 38.90772333333334, "fusion_lon": 0.0, "fusion_lat": 0.0, "type": "electric_scooter", "name": "711f05bb1c77678e7d6c2e108b2ee98a", "is_disabled": 0, "rental_uris": {"ios": "https://dc.lft.to/lastmile_qr_scan", "android": "https://dc.lft.to/lastmile_qr_scan"}, "is_reserved": 0}, {"lon": -77.05131283333333, "bike_id": "0f8b46393e850468862ed03e2b5c7cc1", "lat": 38.92361666666667, "fusion_lon": 0.0, "fusion_lat": 0.0, "type": "electric_scooter", "name": "0f8b46393e850468862ed03e2b5c7cc1", "is_disabled": 0, "rental_uris": {"ios": "https://dc.lft.to/lastmile_qr_scan", "android": "https://dc.lft.to/lastmile_qr_scan"}, "is_reserved": 0}, {"lon": -77.023131, "bike_id": "0b247f1fff19a0ac01cb337092ec6e64", "lat": 38.90222633333333, "fusion_lon": 0.0, "fusion_lat": 0.0, "type": "electric_scooter", "name": "0b247f1fff19a0ac01cb337092ec6e64", "is_disabled": 0, "rental_uris": {"ios": "https://dc.lft.to/lastmile_qr_scan", "android": "https://dc.lft.to/lastmile_qr_scan"}, "is_reserved": 0}, {"lon": -76.98006466666666, "bike_id": "c232facbb9e70c11b3b7d217a49f98de", "lat": 38.9068085, "fusion_lon": 0.0, "fusion_lat": 0.0, "type": "electric_scooter", "name": "c232facbb9e70c11b3b7d217a49f98de", "is_disabled": 0, "rental_uris": {"ios": "https://dc.lft.to/lastmile_qr_scan", "android": "https://dc.lft.to/lastmile_qr_scan"}, "is_reserved": 0}, {"lon": -76.98202366666666, "bike_id": "ae37d736004e1991d0df9e2194214b49", "lat": 38.89943183333333, "fusion_lon": 0.0, "fusion_lat": 0.0, "type": "electric_scooter", "name": "ae37d736004e1991d0df9e2194214b49", "is_disabled": 0, "rental_uris": {"ios": "https://dc.lft.to/lastmile_qr_scan", "android": "https://dc.lft.to/lastmile_qr_scan"}, "is_reserved": 0}, {"lon": -77.0437765, "bike_id": "ff35c2fd4eda28e383dba09ae97e573e", "lat": 38.89224266666667, "fusion_lon": 0.0, "fusion_lat": 0.0, "type": "electric_scooter", "name": "ff35c2fd4eda28e383dba09ae97e573e", "is_disabled": 0, "rental_uris": {"ios": "https://dc.lft.to/lastmile_qr_scan", "android": "https://dc.lft.to/lastmile_qr_scan"}, "is_reserved": 0}, {"lon": -76.98716483333334, "bike_id": "3809cad6c1413860b037a12fda8ff14e", "lat": 38.866261, "fusion_lon": 0.0, "fusion_lat": 0.0, "type": "electric_scooter", "name": "3809cad6c1413860b037a12fda8ff14e", "is_disabled": 0, "rental_uris": {"ios": "https://dc.lft.to/lastmile_qr_scan", "android": "https://dc.lft.to/lastmile_qr_scan"}, "is_reserved": 0}, {"lon": -76.98970966666667, "bike_id": "8b9dc0bac01d0d460e4f2f280a3339ce", "lat": 38.85689883333333, "fusion_lon": 0.0, "fusion_lat": 0.0, "type": "electric_scooter", "name": "8b9dc0bac01d0d460e4f2f280a3339ce", "is_disabled": 0, "rental_uris": {"ios": "https://dc.lft.to/lastmile_qr_scan", "android": "https://dc.lft.to/lastmile_qr_scan"}, "is_reserved": 0}, {"lon": -76.99808916666667, "bike_id": "f2ab18af56b8abe8e8ee01c284ffcac6", "lat": 38.899997166666665, "fusion_lon": 0.0, "fusion_lat": 0.0, "type": "electric_scooter", "name": "f2ab18af56b8abe8e8ee01c284ffcac6", "is_disabled": 0, "rental_uris": {"ios": "https://dc.lft.to/lastmile_qr_scan", "android": "https://dc.lft.to/lastmile_qr_scan"}, "is_reserved": 0}, {"lon": -77.02841733333334, "bike_id": "975f8393cad79a5c3a3390c6bba4274b", "lat": 38.892221166666666, "fusion_lon": 0.0, "fusion_lat": 0.0, "type": "electric_scooter", "name": "975f8393cad79a5c3a3390c6bba4274b", "is_disabled": 0, "rental_uris": {"ios": "https://dc.lft.to/lastmile_qr_scan", "android": "https://dc.lft.to/lastmile_qr_scan"}, "is_reserved": 0}, {"lon": -77.028202, "bike_id": "050b4d04cd89554210f1e956efa6351d", "lat": 38.902393833333335, "fusion_lon": 0.0, "fusion_lat": 0.0, "type": "electric_scooter", "name": "050b4d04cd89554210f1e956efa6351d", "is_disabled": 0, "rental_uris": {"ios": "https://dc.lft.to/lastmile_qr_scan", "android": "https://dc.lft.to/lastmile_qr_scan"}, "is_reserved": 0}, {"lon": -76.951866, "bike_id": "0fff65eaa7faedb41b33311f15c3584d", "lat": 38.907413, "fusion_lon": 0.0, "fusion_lat": 0.0, "type": "electric_scooter", "name": "0fff65eaa7faedb41b33311f15c3584d", "is_disabled": 0, "rental_uris": {"ios": "https://dc.lft.to/lastmile_qr_scan", "android": "https://dc.lft.to/lastmile_qr_scan"}, "is_reserved": 0}, {"lon": -77.037335, "bike_id": "c18de3e083115c40959785cfcfe9d658", "lat": 38.91708916666666, "fusion_lon": 0.0, "fusion_lat": 0.0, "type": "electric_scooter", "name": "c18de3e083115c40959785cfcfe9d658", "is_disabled": 0, "rental_uris": {"ios": "https://dc.lft.to/lastmile_qr_scan", "android": "https://dc.lft.to/lastmile_qr_scan"}, "is_reserved": 0}, {"lon": -77.07477283333333, "bike_id": "eb162e8f5cb2038891f897055b6157f0", "lat": 38.963127666666665, "fusion_lon": 0.0, "fusion_lat": 0.0, "type": "electric_scooter", "name": "eb162e8f5cb2038891f897055b6157f0", "is_disabled": 0, "rental_uris": {"ios": "https://dc.lft.to/lastmile_qr_scan", "android": "https://dc.lft.to/lastmile_qr_scan"}, "is_reserved": 0}, {"lon": -77.0273005, "bike_id": "63fedb0ecf680d6ea73981a5efb86217", "lat": 38.940870833333335, "fusion_lon": 0.0, "fusion_lat": 0.0, "type": "electric_scooter", "name": "63fedb0ecf680d6ea73981a5efb86217", "is_disabled": 0, "rental_uris": {"ios": "https://dc.lft.to/lastmile_qr_scan", "android": "https://dc.lft.to/lastmile_qr_scan"}, "is_reserved": 0}, {"lon": -77.0559455, "bike_id": "bced83f8171fba8f63583aae4cbee99a", "lat": 38.91613616666667, "fusion_lon": 0.0, "fusion_lat": 0.0, "type": "electric_scooter", "name": "bced83f8171fba8f63583aae4cbee99a", "is_disabled": 0, "rental_uris": {"ios": "https://dc.lft.to/lastmile_qr_scan", "android": "https://dc.lft.to/lastmile_qr_scan"}, "is_reserved": 0}, {"lon": -76.895457, "bike_id": "66760134a4a1e292893522a9d2476a5a", "lat": 38.9455085, "fusion_lon": 0.0, "fusion_lat": 0.0, "type": "electric_bike", "name": "66760134a4a1e292893522a9d2476a5a", "is_disabled": 0, "rental_uris": {"ios": "https://dc.lft.to/lastmile_qr_scan", "android": "https://dc.lft.to/lastmile_qr_scan"}, "is_reserved": 0},