{"data": {"bikes": [{"rental_uris": {"ios": "https://dc.lft.to/lastmile_qr_scan", "android": "https://dc.lft.to/lastmile_qr_scan"}, "type": "electric_scooter", "name": "65fab96d8c6ae52616bd87a3a2fb8702", "is_reserved": 0, "lon": -77.023868, "is_disabled": 0, "fusion_lat": 0.0, "lat": 38.905854833333336, "bike_id": "65fab96d8c6ae52616bd87a3a2fb8702", "fusion_lon": 0.0}, {"rental_uris": {"ios": "https://dc.lft.to/lastmile_qr_scan", "android": "https://dc.lft.to/lastmile_qr_scan"}, "type": "electric_scooter", "name": "b02ed95c5c08a7d5a7d4f13469d54336", "is_reserved": 0, "lon": -77.02197583333333, "is_disabled": 0, "fusion_lat": 0.0, "lat": 38.92487783333333, "bike_id": "b02ed95c5c08a7d5a7d4f13469d54336", "fusion_lon": 0.0}, {"rental_uris": {"ios": "https://dc.lft.to/lastmile_qr_scan", "android": "https://dc.lft.to/lastmile_qr_scan"}, "type": "electric_scooter", "name": "c077a3d4185c93fba98ae78ec0c379d1", "is_reserved": 0, "lon": -77.053033, "is_disabled": 0, "fusion_lat": 0.0, "lat": 38.9026835, "bike_id": "c077a3d4185c93fba98ae78ec0c379d1", "fusion_lon": 0.0}, {"rental_uris": {"ios": "https://dc.lft.to/lastmile_qr_scan", "android": "https://dc.lft.to/lastmile_qr_scan"}, "type": "electric_bike", "name": "deb4d71aa297f8986b2122f55e91e2f4", "is_reserved": 0, "lon": -77.02030033333334, "is_disabled": 0, "fusion_lat": 0.0, "lat": 38.96560316666667, "bike_id": "deb4d71aa297f8986b2122f55e91e2f4", "fusion_lon": 0.0}, {"rental_uris": {"ios": "https://dc.lft.to/lastmile_qr_scan", "android": "https://dc.lft.to/lastmile_qr_scan"}, "type": "electric_scooter", "name": "73e86287b0f091d411546d18e6a70d55", "is_reserved": 0, "lon": -77.028826, "is_disabled": 0, "fusion_lat": 0.0, "lat": 38.90321383333333, "bike_id": "73e86287b0f091d411546d18e6a70d55", "fusion_lon": 0.0}, {"rental_uris": {"ios": "https://dc.lft.to/lastmile_qr_scan", "android": "https://dc.lft.to/lastmile_qr_scan"}, "type": "electric_scooter", "name": "77cb12132bf6d958190e2f15318e7ee0", "is_reserved": 0, "lon": -77.03960933333333, "is_disabled": 0, "fusion_lat": 0.0, "lat": 38.89249216666666, "bike_id": "77cb12132bf6d958190e2f15318e7ee0", "fusion_lon": 0.0}, {"rental_uris": {"ios": "https://dc.lft.to/lastmile_qr_scan", "android": "https://dc.lft.to/lastmile_qr_scan"}, "type": "electric_scooter", "name": "b1714c4d081f830bdf3b0b5c2b311bd8", "is_reserved": 0, "lon": -77.03466616666667, "is_disabled": 0, "fusion_lat": 0.0, "lat": 38.90984566666667, "bike_id": "b1714c4d081f830bdf3b0b5c2b311bd8", "fusion_lon": 0.0}, {"rental_uris": {"ios": "https://dc.lft.to/lastmile_qr_scan", "android": "https://dc.lft.to/lastmile_qr_scan"}, "type": "electric_scooter", "name": "dcb5e8d9d79afa1759a37caf1b26bd98", "is_reserved": 0, "lon": -77.05123883333333, "is_disabled": 0, "fusion_lat": 0.0, "lat": 38.923447833333334, "bike_id": "dcb5e8d9d79afa1759a37caf1b26bd98", "fusion_lon": 0.0}, {"rental_uris": {"ios": "https://dc.lft.to/lastmile_qr_scan", "android": "https://dc.lft.to/lastmile_qr_scan"}, "type": "electric_scooter", "name": "c146037aabb879cffb1d0d3304408239", "is_reserved": 0, "lon": -77.06040416666667, "is_disabled": 0, "fusion_lat": 0.0, "lat": 38.902453333333334, "bike_id": "c146037aabb879cffb1d0d3304408239", "fusion_lon": 0.0}, {"rental_uris": {"ios": "https://dc.lft.to/lastmile_qr_scan", "android": "https://dc.lft.to/lastmile_qr_scan"}, "type": "electric_scooter", "name": "fc215d3b54373057d1370448c1349575", "is_reserved": 0, "lon": -77.04572633333333, "is_disabled": 0, "fusion_lat": 0.0, "lat": 38.90391483333333, "bike_id": "fc215d3b54373057d1370448c1349575", "fusion_lon": 0.0}, {"rental_uris": {"ios": "https://dc.lft.to/lastmile_qr_scan", "android": "https://dc.lft.to/lastmile_qr_scan"}, "type": "electric_scooter", "name": "71c8b0067f602509643bb8abba6335af", "is_reserved": 0, "lon": -77.00128233333334, "is_disabled": 0, "fusion_lat": 0.0, "lat": 38.87792916666667, "bike_id": "71c8b0067f602509643bb8abba6335af", "fusion_lon": 0.0}, {"rental_uris": {"ios": "https://dc.lft.to/lastmile_qr_scan", "android": "https://dc.lft.to/lastmile_qr_scan"}, "type": "electric_scooter", "name": "979df24af57520b161d941ced2da75a6", "is_reserved": 0, "lon": -77.04025733333333, "is_disabled": 0, "fusion_lat": 0.0, "lat": 38.899243166666665, "bike_id": "979df24af57520b161d941ced2da75a6", "fusion_lon": 0.0}, {"rental_uris": {"ios": "https://dc.lft.to/lastmile_qr_scan", "android": "https://dc.lft.to/lastmile_qr_scan"}, "type": "electric_scooter", "name": "8b9c48e2fcc42369dd438db7d5c484e3", "is_reserved": 0, "lon": -77.029699, "is_disabled": 0, "fusion_lat": 0.0, "lat": 38.9167245, "bike_id": "8b9c48e2fcc42369dd438db7d5c484e3", "fusion_lon": 0.0}, {"rental_uris": {"ios": "https://dc.lft.to/lastmile_qr_scan", "android": "https://dc.lft.to/lastmile_qr_scan"}, "type": "electric_scooter", "name": "77e680fc208896d087768f15cd0c1c47", "is_reserved": 0, "lon": -77.063559, "is_disabled": 0, "fusion_lat": 0.0, "lat": 38.943712833333336, "bike_id": "77e680fc208896d087768f15cd0c1c47", "fusion_lon": 0.0}, {"rental_uris": {"ios": "https://dc.lft.to/lastmile_qr_scan", "android": "https://dc.lft.to/lastmile_qr_scan"}, "type": "electric_scooter", "name": "8ca6a945355a481e1a8f17676476fcdf", "is_reserved": 0, "lon": -77.0106935, "is_disabled": 0, "fusion_lat": 0.0, "lat": 38.91811583333333, "bike_id": "8ca6a945355a481e1a8f17676476fcdf", "fusion_lon": 0.0}, {"rental_uris": {"ios": "https://dc.lft.to/lastmile_qr_scan", "android": "https://dc.lft.to/lastmile_qr_scan"}, "type": "electric_scooter", "name": "f3db42e4d35940693092ba4fc7c487be", "is_reserved": 0, "lon": -77.0262145, "is_disabled": 0, "fusion_lat": 0.0, "lat": 38.90350466666666, "bike_id": "f3db42e4d35940693092ba4fc7c487be", "fusion_lon": 0.0}, {"rental_uris": {"ios": "https://dc.lft.to/lastmile_qr_scan", "android": "https://dc.lft.to/lastmile_qr_scan"}, "type": "electric_bike", "name": "f5a508a2944727ccc4371baaf01a4743", "is_reserved": 0, "lon": -77.03548983333333, "is_disabled": 0, "fusion_lat": 0.0, "lat": 38.934024, "bike_id": "f5a508a2944727ccc4371baaf01a4743", "fusion_lon": 0.0}, {"rental_uris": {"ios": "https://dc.lft.to/lastmile_qr_scan", "android": "https://dc.lft.to/lastmile_qr_scan"}, "type": "electric_scooter", "name": "3c89f1383de4503161ad8ff1875b73d0", "is_reserved": 0, "lon": -76.9884755, "is_disabled": 0, "fusion_lat": 0.0, "lat": 38.90046566666667, "bike_id": "3c89f1383de4503161ad8ff1875b73d0", "fusion_lon": 0.0}, {"rental_uris": {"ios": "https://dc.lft.to/lastmile_qr_scan", "android": "https://dc.lft.to/lastmile_qr_scan"}, "type": "electric_scooter", "name": "3ceda7002970b90ae9d99e5936974424", "is_reserved": 0, "lon": -76.98340966666666, "is_disabled": 0, "fusion_lat": 0.0, "lat": 38.89545733333333, "bike_id": "3ceda7002970b90ae9d99e5936974424", "fusion_lon": 0.0}, {"rental_uris": {"ios": "https://dc.lft.to/lastmile_qr_scan", "android": "https://dc.lft.to/lastmile_qr_scan"}, "type": "electric_scooter", "name": "a7b837beb8e9992faf0b3be33ea86854", "is_reserved": 0, "lon": -77.05072833333334, "is_disabled": 0, "fusion_lat": 0.0, "lat": 38.903738833333335, "bike_id": "a7b837beb8e9992faf0b3be33ea86854", "fusion_lon": 0.0}, {"rental_uris": {"ios": "https://dc.lft.to/lastmile_qr_scan", "android": "https://dc.lft.to/lastmile_qr_scan"}, "type": "electric_scooter", "name": "982b298f6d9a0b35460aafaeb1b99506", "is_reserved": 0, "lon": -77.04176616666666, "is_disabled": 0, "fusion_lat": 0.0, "lat": 38.901573666666664, "bike_id": "982b298f6d9a0b35460aafaeb1b99506", "fusion_lon": 0.0}, {"rental_uris": {"ios": "https://dc.lft.to/lastmile_qr_scan", "android": "https://dc.lft.to/lastmile_qr_scan"}, "type": "electric_bike", "name": "087c8ba0cefbf68f37f3a0402a83c5a3", "is_reserved": 0, "lon": -76.963083, "is_disabled": 0, "fusion_lat": 0.0, "lat": 38.89697366666667, "bike_id": "087c8ba0cefbf68f37f3a0402a83c5a3", "fusion_lon": 0.0}, {"rental_uris": {"ios": "https://dc.lft.to/lastmile_qr_scan", "android": "https://dc.lft.to/lastmile_qr_scan"}, "type": "electric_bike", "name": "c63e57f512b99aaf66ab1040b1ba92fb", "is_reserved": 0, "lon": -77.05357566666666, "is_disabled": 0, "fusion_lat": 0.0, "lat": 38.83453133333333, "bike_id": "c63e57f512b99aaf66ab1040b1ba92fb", "fusion_lon": 0.0}, {"rental_uris": {"ios": "https://dc.lft.to/lastmile_qr_scan", "android": "https://dc.lft.to/lastmile_qr_scan"}, "type": "electric_scooter", "name": "2a62d319669a020c7ed52efa0f181dbb", "is_reserved": 0, "lon": -77.03297116666667, "is_disabled": 0, "fusion_lat": 0.0, "lat": 38.92454516666667, "bike_id": "2a62d319669a020c7ed52efa0f181dbb", "fusion_lon": 0.0}, {"rental_uris": {"ios": "https://dc.lft.to/lastmile_qr_scan", "android": "https://dc.lft.to/lastmile_qr_scan"}, "type": "electric_scooter", "name": "5cbaaa9534db61b3bea2fff7f64208ca", "is_reserved": 0, "lon": -77.022609, "is_disabled": 0, "fusion_lat": 0.0, "lat": 38.89366066666667, "bike_id": "5cbaaa9534db61b3bea2fff7f64208ca", "fusion_lon": 0.0}, {"rental_uris": {"ios": "https://dc.lft.to/lastmile_qr_scan", "android": "https://dc.lft.to/lastmile_qr_scan"}, "type": "electric_scooter", "name": "9bf0da2e9965c57fc81b4b2cc02a988f", "is_reserved": 0, "lon": -77.00353366666667, "is_disabled": 0, "fusion_lat": 0.0, "lat": 38.9032575, "bike_id": "9bf0da2e9965c57fc81b4b2cc02a988f", "fusion_lon": 0.0}, {"rental_uris": {"ios": "https://dc.lft.to/lastmile_qr_scan", "android": "https://dc.lft.to/lastmile_qr_scan"}, "type": "electric_scooter", "name": "e4a4a055ec64a72186860ca3d921e635", "is_reserved": 0, "lon": -77.03765066666666, "is_disabled": 0, "fusion_lat": 0.0, "lat": 38.90744133333333, "bike_id": "e4a4a055ec64a72186860ca3d921e635", "fusion_lon": 0.0}, {"rental_uris": {"ios": "https://dc.lft.to/lastmile_qr_scan", "android": "https://dc.lft.to/lastmile_qr_scan"}, "type": "electric_scooter", "name": "ead0706395e37f9e159bb1bacac1a852", "is_reserved": 0, "lon": -77.04055133333334, "is_disabled": 0, "fusion_lat": 0.0, "lat": 38.91857183333333, "bike_id": "ead0706395e37f9e159bb1bacac1a852", "fusion_lon": 0.0}, {"rental_uris": {"ios": "https://dc.lft.to/lastmile_qr_scan", "android": "https://dc.lft.to/lastmile_qr_scan"}, "type": "electric_bike", "name": "39d84f6fe95cd197d2193e25fca34d70", "is_reserved": 0, "lon": -77.08326016666666, "is_disabled": 0, "fusion_lat": 0.0, "lat": 38.93349766666667, "bike_id": "39d84f6fe95cd197d2193e25fca34d70", "fusion_lon": 0.0}, {"rental_uris": {"ios": "https://dc.lft.to/lastmile_qr_scan", "android": "https://dc.lft.to/lastmile_qr_scan"}, "type": "electric_scooter", "name": "8095333ec8953888d6629c15251a4f6b", "is_reserved": 0, "lon": -77.035587, "is_disabled": 0, "fusion_lat": 0.0, "lat": 38.917195166666666, "bike_id": "8095333ec8953888d6629c15251a4f6b", "fusion_lon": 0.0}, {"rental_uris": {"ios": "https://dc.lft.to/lastmile_qr_scan", "android": "https://dc.lft.to/lastmile_qr_scan"}, "type": "electric_scooter", "name": "145c4b418b6f85c8e8ab714f34e73e13", "is_reserved": 0, "lon": -77.05605566666667, "is_disabled": 0, "fusion_lat": 0.0, "lat": 38.894262166666664, "bike_id": "145c4b418b6f85c8e8ab714f34e73e13", "fusion_lon": 0.0}, {"rental_uris": {"ios": "https://dc.lft.to/lastmile_qr_scan", "android": "https://dc.lft.to/lastmile_qr_scan"}, "type": "electric_scooter", "name": "4b6c466db9dce62afed3a7b86c093fc3", "is_reserved": 0, "lon": -77.01339283333333, "is_disabled": 0, "fusion_lat": 0.0, "lat": 38.88122516666667, "bike_id": "4b6c466db9dce62afed3a7b86c093fc3", "fusion_lon": 0.0}, {"rental_uris": {"ios": "https://dc.lft.to/lastmile_qr_scan", "android": "https://dc.lft.to/lastmile_qr_scan"}, "type": "electric_scooter", "name": "064f83fa5d475a06fa29724ea38aa8c9", "is_reserved": 0, "lon": -77.02140566666667, "is_disabled": 0, "fusion_lat": 0.0, "lat": 38.913258166666665, "bike_id": "064f83fa5d475a06fa29724ea38aa8c9", "fusion_lon": 0.0}, {"rental_uris": {"ios": "https://dc.lft.to/lastmile_qr_scan", "android": "https://dc.lft.to/lastmile_qr_scan"}, "type": "electric_scooter", "name": "491a74217df17f825d087395bbe3b049", "is_reserved": 0, "lon": -77.02031666666667, "is_disabled": 0, "fusion_lat": 0.0, "lat": 38.898866166666664, "bike_id": "491a74217df17f825d087395bbe3b049", "fusion_lon": 0.0}, {"rental_uris": {"ios": "https://dc.lft.to/lastmile_qr_scan", "android": "https://dc.lft.to/lastmile_qr_scan"}, "type": "electric_scooter", "name": "e7e2aa30879927663fc810e289e13c99", "is_reserved": 0, "lon": -77.01395533333333, "is_disabled": 0, "fusion_lat": 0.0, "lat": 38.928368666666664, "bike_id": "e7e2aa30879927663fc810e289e13c99", "fusion_lon": 0.0}, {"rental_uris": {"ios": "https://dc.lft.to/lastmile_qr_scan", "android": "https://dc.lft.to/lastmile_qr_scan"}, "type": "electric_scooter", "name": "3a3aa6ebbcf70cf3e903ebbafa2eca68", "is_reserved": 0, "lon": -76.9653585, "is_disabled": 0, "fusion_lat": 0.0, "lat": 38.918487999999996, "bike_id": "3a3aa6ebbcf70cf3e903ebbafa2eca68", "fusion_lon": 0.0}, {"rental_uris": {"ios": "https://dc.lft.to/lastmile_qr_scan", "android": "https://dc.lft.to/lastmile_qr_scan"}, "type": "electric_bike", "name": "693501162cb2e1d5ac2feb486d57e5a2", "is_reserved": 0, "lon": -77.07287933333333, "is_disabled": 0, "fusion_lat": 0.0, "lat": 38.917667333333334, "bike_id": "693501162cb2e1d5ac2feb486d57e5a2", "fusion_lon": 0.0}, {"rental_uris": {"ios": "https://dc.lft.to/lastmile_qr_scan", "android": "https://dc.lft.to/lastmile_qr_scan"}, "type": "electric_scooter", "name": "65387d8fb0ee9dd65eb1a9e266d72e4d", "is_reserved": 0, "lon": -77.01761166666667, "is_disabled": 0, "fusion_lat": 0.0, "lat": 38.87718516666666, "bike_id": "65387d8fb0ee9dd65eb1a9e266d72e4d", "fusion_lon": 0.0}, {"rental_uris": {"ios": "https://dc.lft.to/lastmile_qr_scan", "android": "https://dc.lft.to/lastmile_qr_scan"}, "type": "electric_bike", "name": "ef375aa54cf8a32b4b0b05849a4d1dba", "is_reserved": 0, "lon": -77.085744, "is_disabled": 0, "fusion_lat": 0.0, "lat": 38.87423016666666, "bike_id": "ef375aa54cf8a32b4b0b05849a4d1dba", "fusion_lon": 0.0}, {"rental_uris": {"ios": "https://dc.lft.to/lastmile_qr_scan", "android": "https://dc.lft.to/lastmile_qr_scan"}, "type": "electric_scooter", "name": "054ea293afc7ae94ead7e804f6fd02dd", "is_reserved": 0, "lon": -77.01984866666666, "is_disabled": 0, "fusion_lat": 0.0, "lat": 38.90506516666667, "bike_id": "054ea293afc7ae94ead7e804f6fd02dd", "fusion_lon": 0.0}, {"rental_uris": {"ios": "https://dc.lft.to/lastmile_qr_scan", "android": "https://dc.lft.to/lastmile_qr_scan"}, "type": "electric_scooter", "name": "9da56a02b3a26fa10ea067c4e6df9f12", "is_reserved": 0, "lon": -77.05427666666667, "is_disabled": 0, "fusion_lat": 0.0, "lat": 38.923511166666664, "bike_id": "9da56a02b3a26fa10ea067c4e6df9f12", "fusion_lon": 0.0}, {"rental_uris": {"ios": "https://dc.lft.to/lastmile_qr_scan", "android": "https://dc.lft.to/lastmile_qr_scan"}, "type": "electric_scooter", "name": "944fef1ba8bb1cce5bc317e73d7ea2fb", "is_reserved": 0, "lon": -77.0211035, "is_disabled": 0, "fusion_lat": 0.0, "lat": 38.909381, "bike_id": "944fef1ba8bb1cce5bc317e73d7ea2fb", "fusion_lon": 0.0}, {"rental_uris": {"ios": "https://dc.lft.to/lastmile_qr_scan", "android": "https://dc.lft.to/lastmile_qr_scan"}, "type": "electric_scooter", "name": "57e234ce5f2645561cd603ffc3301200", "is_reserved": 0, "lon": -77.0381975, "is_disabled": 0, "fusion_lat": 0.0, "lat": 38.914246, "bike_id": "57e234ce5f2645561cd603ffc3301200", "fusion_lon": 0.0}, {"rental_uris": {"ios": "https://dc.lft.to/lastmile_qr_scan", "android": "https://dc.lft.to/lastmile_qr_scan"}, "type": "electric_scooter", "name": "04b12a5999259709c968793356acf086", "is_reserved": 0, "lon": -77.031985, "is_disabled": 0, "fusion_lat": 0.0, "lat": 38.9158025, "bike_id": "04b12a5999259709c968793356acf086", "fusion_lon": 0.0}, {"rental_uris": {"ios": "https://dc.lft.to/lastmile_qr_scan", "android": "https://dc.lft.to/lastmile_qr_scan"}, "type": "electric_scooter", "name": "0f0eeb4ac23ac0abbb5050e63914775e", "is_reserved": 0, "lon": -77.02202216666667, "is_disabled": 0, "fusion_lat": 0.0, "lat": 38.95156083333333, "bike_id": "0f0eeb4ac23ac0abbb5050e63914775e", "fusion_lon": 0.0}, {"rental_uris": {"ios": "https://dc.lft.to/lastmile_qr_scan", "android": "https://dc.lft.to/lastmile_qr_scan"}, "type": "electric_scooter", "name": "c5fdd201a724a44c7ac574ffac58a5c7", "is_reserved": 0, "lon": -76.97213783333333, "is_disabled": 0, "fusion_lat": 0.0, "lat": 38.917182833333335, "bike_id": "c5fdd201a724a44c7ac574ffac58a5c7", "fusion_lon": 0.0}, {"rental_uris": {"ios": "https://dc.lft.to/lastmile_qr_scan", "android": "https://dc.lft.to/lastmile_qr_scan"}, "type": "electric_scooter", "name": "ff6cd154523ac123f57c3534f453178b", "is_reserved": 0, "lon": -77.04410983333334, "is_disabled": 0, "fusion_lat": 0.0, "lat": 38.895935333333334, "bike_id": "ff6cd154523ac123f57c3534f453178b", "fusion_lon": 0.0}, {"rental_uris": {"ios": "https://dc.lft.to/lastmile_qr_scan", "android": "https://dc.lft.to/lastmile_qr_scan"}, "type": "electric_scooter", "name": "fa58d546afa067a26a5e597c7c2cb251", "is_reserved": 0, "lon": -76.92925916666667, "is_disabled": 0, "fusion_lat": 0.0, "lat": 38.892082333333335, "bike_id": "fa58d546afa067a26a5e597c7c2cb251", "fusion_lon": 0.0}, {"rental_uris": {"ios": "https://dc.lft.to/lastmile_qr_scan", "android": "https://dc.lft.to/lastmile_qr_scan"}, "type": "electric_bike", "name": "26bdbfab804fe02f64b5bd14a34bdb28", "is_reserved": 0, "lon": -77.0945465, "is_disabled": 0, "fusion_lat": 0.0, "lat": 38.80757916666666, "bike_id": "26bdbfab804fe02f64b5bd14a34bdb28", "fusion_lon": 0.0}, {"rental_uris": {"ios": "https://dc.lft.to/lastmile_qr_scan", "android": "https://dc.lft.to/lastmile_qr_scan"}, "type": "electric_scooter", "name": "b33a71ca98a858ac1c08162adbb1f1e9", "is_reserved": 0, "lon": -77.0137835, "is_disabled": 0, "fusion_lat": 0.0, "lat": 38.89830216666667, "bike_id": "b33a71ca98a858ac1c08162adbb1f1e9", "fusion_lon": 0.0}, {"rental_uris": {"ios": "https://dc.lft.to/lastmile_qr_scan", "android": "https://dc.lft.to/lastmile_qr_scan"}, "type": "electric_scooter", "name": "62a850b23bcc02ff5826eff6d7fad8e4", "is_reserved": 0, "lon": -77.0231525, "is_disabled": 0, "fusion_lat": 0.0, "lat": 38.908918166666666, "bike_id": "62a850b23bcc02ff5826eff6d7fad8e4", "fusion_lon": 0.0}, {"rental_uris": {"ios": "https://dc.lft.to/lastmile_qr_scan", "android": "https://dc.lft.to/lastmile_qr_scan"}, "type": "electric_scooter", "name": "d94b371de69e8ea03ffbbd0e84870e3d", "is_reserved": 0, "lon": -77.04343766666666, "is_disabled": 0, "fusion_lat": 0.0, "lat": 38.923522, "bike_id": "d94b371de69e8ea03ffbbd0e84870e3d", "fusion_lon": 0.0}, {"rental_uris": {"ios": "https://dc.lft.to/lastmile_qr_scan", "android": "https://dc.lft.to/lastmile_qr_scan"}, "type": "electric_scooter", "name": "fa50d1473cf7d57c64570e35fb2d9ba8", "is_reserved": 0, "lon": -76.97896166666666, "is_disabled": 0, "fusion_lat": 0.0, "lat": 38.88538333333333, "bike_id": "fa50d1473cf7d57c64570e35fb2d9ba8", "fusion_lon": 0.0}, {"rental_uris": {"ios": "https://dc.lft.to/lastmile_qr_scan", "android": "https://dc.lft.to/lastmile_qr_scan"}, "type": "electric_scooter", "name": "9170ca004cb4646964da26d6aedb816c", "is_reserved": 0, "lon": -77.01580033333333, "is_disabled": 0, "fusion_lat": 0.0, "lat": 38.876596, "bike_id": "9170ca004cb4646964da26d6aedb816c", "fusion_lon": 0.0}, {"rental_uris": {"ios": "https://dc.lft.to/lastmile_qr_scan", "android": "https://dc.lft.to/lastmile_qr_scan"}, "type": "electric_scooter", "name": "b12a49ca9e433987efd8d3e237b316a6", "is_reserved": 0, "lon": -77.02342716666666, "is_disabled": 0, "fusion_lat": 0.0, "lat": 38.923005333333336, "bike_id": "b12a49ca9e433987efd8d3e237b316a6", "fusion_lon": 0.0}, {"rental_uris": {"ios": "https://dc.lft.to/lastmile_qr_scan", "android": "https://dc.lft.to/lastmile_qr_scan"}, "type": "electric_scooter", "name": "7d5ba08b4b70753eea4c04aba995f27f", "is_reserved": 0, "lon": -77.02180033333333, "is_disabled": 0, "fusion_lat": 0.0, "lat": 38.8922975, "bike_id": "7d5ba08b4b70753eea4c04aba995f27f", "fusion_lon": 0.0}, {"rental_uris": {"ios": "https://dc.lft.to/lastmile_qr_scan", "android": "https://dc.lft.to/lastmile_qr_scan"}, "type": "electric_scooter", "name": "5887c33439436ae359ef859ab00de673", "is_reserved": 0, "lon": -76.98265883333333, "is_disabled": 0, "fusion_lat": 0.0, "lat": 38.86632383333333, "bike_id": "5887c33439436ae359ef859ab00de673", "fusion_lon": 0.0}, {"rental_uris": {"ios": "https://dc.lft.to/lastmile_qr_scan", "android": "https://dc.lft.to/lastmile_qr_scan"}, "type": "electric_bike", "name": "a176865f3df573b9de10d6cfd3dfbeb3", "is_reserved": 0, "lon": -77.0200925, "is_disabled": 0, "fusion_lat": 0.0, "lat": 38.964424666666666, "bike_id": "a176865f3df573b9de10d6cfd3dfbeb3", "fusion_lon": 0.0}, {"rental_uris": {"ios": "https://dc.lft.to/lastmile_qr_scan", "android": "https://dc.lft.to/lastmile_qr_scan"}, "type": "electric_scooter", "name": "f25c67decbce503e339c377b909768f9", "is_reserved": 0, "lon": -77.01912866666666, "is_disabled": 0, "fusion_lat": 0.0, "lat": 38.9233685, "bike_id": "f25c67decbce503e339c377b909768f9", "fusion_lon": 0.0}, {"rental_uris": {"ios": "https://dc.lft.to/lastmile_qr_scan", "android": "https://dc.lft.to/lastmile_qr_scan"}, "type": "electric_scooter", "name": "2e90be49cde8a1bae4aa49cab67d0e41", "is_reserved": 0, "lon": -77.02678516666667, "is_disabled": 0, "fusion_lat": 0.0, "lat": 38.9221835, "bike_id": "2e90be49cde8a1bae4aa49cab67d0e41", "fusion_lon": 0.0}, {"rental_uris": {"ios": "https://dc.lft.to/lastmile_qr_scan", "android": "https://dc.lft.to/lastmile_qr_scan"}, "type": "electric_scooter", "name": "0cd321e13799e0caa323af2300e6c24e", "is_reserved": 0, "lon": -77.04425533333334, "is_disabled": 0, "fusion_lat": 0.0, "lat": 38.90912983333333, "bike_id": "0cd321e13799e0caa323af2300e6c24e", "fusion_lon": 0.0}, {"rental_uris": {"ios": "https://dc.lft.to/lastmile_qr_scan", "android": "https://dc.lft.to/lastmile_qr_scan"}, "type": "electric_scooter", "name": "4b1b2b2a712d666bd71e0ea4cd16f55a", "is_reserved": 0, "lon": -77.06555766666666, "is_disabled": 0, "fusion_lat": 0.0, "lat": 38.911718, "bike_id": "4b1b2b2a712d666bd71e0ea4cd16f55a", "fusion_lon": 0.0}, {"rental_uris": {"ios": "https://dc.lft.to/lastmile_qr_scan", "android": "https://dc.lft.to/lastmile_qr_scan"}, "type": "electric_scooter", "name": "dde46de3e21f30c073d88c8867216059", "is_reserved": 0, "lon": -76.98358716666667, "is_disabled": 0, "fusion_lat": 0.0, "lat": 38.88733166666667, "bike_id": "dde46de3e21f30c073d88c8867216059", "fusion_lon": 0.0}, {"rental_uris": {"ios": "https://dc.lft.to/lastmile_qr_scan", "android": "https://dc.lft.to/lastmile_qr_scan"}, "type": "electric_scooter", "name": "395b6296ddd5df756a3bda1be5e5e43f", "is_reserved": 0, "lon": -76.92318383333334, "is_disabled": 0, "fusion_lat": 0.0, "lat": 38.89391, "bike_id": "395b6296ddd5df756a3bda1be5e5e43f", "fusion_lon": 0.0}, {"rental_uris": {"ios": "https://dc.lft.to/lastmile_qr_scan", "android": "https://dc.lft.to/lastmile_qr_scan"}, "type": "electric_scooter", "name": "cdf17f4d989f0ef38472b3553400766e", "is_reserved": 0, "lon": -77.03419166666667, "is_disabled": 0, "fusion_lat": 0.0, "lat": 38.90129966666667, "bike_id": "cdf17f4d989f0ef38472b3553400766e", "fusion_lon": 0.0}, {"rental_uris": {"ios": "https://dc.lft.to/lastmile_qr_scan", "android": "https://dc.lft.to/lastmile_qr_scan"}, "type": "electric_scooter", "name": "27f76a3d1d8a640c2cc255799dfb032b", "is_reserved": 0, "lon": -77.03230333333333, "is_disabled": 0, "fusion_lat": 0.0, "lat": 38.917121333333334, "bike_id": "27f76a3d1d8a640c2cc255799dfb032b", "fusion_lon": 0.0}, {"rental_uris": {"ios": "https://dc.lft.to/lastmile_qr_scan", "android": "https://dc.lft.to/lastmile_qr_scan"}, "type": "electric_scooter", "name": "84cef2e4d221f75b6e4c5e2361605628", "is_reserved": 0, "lon": -77.06378366666667, "is_disabled": 0, "fusion_lat": 0.0, "lat": 38.905258, "bike_id": "84cef2e4d221f75b6e4c5e2361605628", "fusion_lon": 0.0}, {"rental_uris": {"ios": "https://dc.lft.to/lastmile_qr_scan", "android": "https://dc.lft.to/lastmile_qr_scan"}, "type": "electric_bike", "name": "9e51b0d91fa3918d406c05be0c68da27", "is_reserved": 0, "lon": -77.23178566666667, "is_disabled": 0, "fusion_lat": 0.0, "lat": 38.928958, "bike_id": "9e51b0d91fa3918d406c05be0c68da27", "fusion_lon": 0.0}, {"rental_uris": {"ios": "https://dc.lft.to/lastmile_qr_scan", "android": "https://dc.lft.to/lastmile_qr_scan"}, "type": "electric_bike", "name": "3063649578b672527a11660f21a05534", "is_reserved": 0, "lon": -76.97960966666666, "is_disabled": 0, "fusion_lat": 0.0, "lat": 38.9204085, "bike_id": "3063649578b672527a11660f21a05534", "fusion_lon": 0.0}, {"rental_uris": {"ios": "https://dc.lft.to/lastmile_qr_scan", "android": "https://dc.lft.to/lastmile_qr_scan"}, "type": "electric_bike", "name": "1875591fcb769cce9ca6a455d1736c71", "is_reserved": 0, "lon": -77.10293383333334, "is_disabled": 0, "fusion_lat": 0.0, "lat": 38.852553, "bike_id": "1875591fcb769cce9ca6a455d1736c71", "fusion_lon": 0.0}, {"rental_uris": {"ios": "https://dc.lft.to/lastmile_qr_scan", "android": "https://dc.lft.to/lastmile_qr_scan"}, "type": "electric_bike", "name": "490db8adad2b5beeaecedb7cfa96c30a", "is_reserved": 0, "lon": -77.07908083333334, "is_disabled": 0, "fusion_lat": 0.0, "lat": 38.83938333333333, "bike_id": "490db8adad2b5beeaecedb7cfa96c30a", "fusion_lon": 0.0}, {"rental_uris": {"ios": "https://dc.lft.to/lastmile_qr_scan", "android": "https://dc.lft.to/lastmile_qr_scan"}, "type": "electric_scooter", "name": "6d39d19d6daf04217e5311e430cfbd1b", "is_reserved": 0, "lon": -77.03210566666667, "is_disabled": 0, "fusion_lat": 0.0, "lat": 38.91134733333333, "bike_id": "6d39d19d6daf04217e5311e430cfbd1b", "fusion_lon": 0.0}, {"rental_uris": {"ios": "https://dc.lft.to/lastmile_qr_scan", "android": "https://dc.lft.to/lastmile_qr_scan"}, "type": "electric_scooter", "name": "ac018834bcfb3cbcfd7a49bbfd1b0452", "is_reserved": 0, "lon": -77.01500916666667, "is_disabled": 0, "fusion_lat": 0.0, "lat": 38.90657183333333, "bike_id": "ac018834bcfb3cbcfd7a49bbfd1b0452", "fusion_lon": 0.0}, {"rental_uris": {"ios": "https://dc.lft.to/lastmile_qr_scan", "android": "https://dc.lft.to/lastmile_qr_scan"}, "type": "electric_scooter", "name": "8b66910953cb35196383d0c25ab8b892", "is_reserved": 0, "lon": -77.0246515, "is_disabled": 0, "fusion_lat": 0.0, "lat": 38.91860633333334, "bike_id": "8b66910953cb35196383d0c25ab8b892", "fusion_lon": 0.0}, {"rental_uris": {"ios": "https://dc.lft.to/lastmile_qr_scan", "android": "https://dc.lft.to/lastmile_qr_scan"}, "type": "electric_scooter", "name": "4d10e87b5f4973e5c72779c67fdcd413", "is_reserved": 0, "lon": -77.03213616666666, "is_disabled": 0, "fusion_lat": 0.0, "lat": 38.92095033333333, "bike_id": "4d10e87b5f4973e5c72779c67fdcd413", "fusion_lon": 0.0}, {"rental_uris": {"ios": "https://dc.lft.to/lastmile_qr_scan", "android": "https://dc.lft.to/lastmile_qr_scan"}, "type": "electric_scooter", "name": "35886593a363e3ee4561196ead4352d1", "is_reserved": 0, "lon": -77.00571483333333, "is_disabled": 0, "fusion_lat": 0.0, "lat": 38.876686, "bike_id": "35886593a363e3ee4561196ead4352d1", "fusion_lon": 0.0}, {"rental_uris": {"ios": "https://dc.lft.to/lastmile_qr_scan", "android": "https://dc.lft.to/lastmile_qr_scan"}, "type": "electric_scooter", "name": "79457562415e04c2759141b0e89ac4ea", "is_reserved": 0, "lon": -77.0200615, "is_disabled": 0, "fusion_lat": 0.0, "lat": 38.9280965, "bike_id": "79457562415e04c2759141b0e89ac4ea", "fusion_lon": 0.0}, {"rental_uris": {"ios": "https://dc.lft.to/lastmile_qr_scan", "android": "https://dc.lft.to/lastmile_qr_scan"}, "type": "electric_scooter", "name": "c36c96bd94b2425326f6440627d79d72", "is_reserved": 0, "lon": -76.9463915, "is_disabled": 0, "fusion_lat": 0.0, "lat": 38.898676333333334, "bike_id": "c36c96bd94b2425326f6440627d79d72", "fusion_lon": 0.0}, {"rental_uris": {"ios": "https://dc.lft.to/lastmile_qr_scan", "android": "https://dc.lft.to/lastmile_qr_scan"}, "type": "electric_scooter", "name": "f3a6452fbf3572c4524e945e697b874a", "is_reserved": 0, "lon": -77.02573616666666, "is_disabled": 0, "fusion_lat": 0.0, "lat": 38.948531, "bike_id": "f3a6452fbf3572c4524e945e697b874a", "fusion_lon": 0.0}, {"rental_uris": {"ios": "https://dc.lft.to/lastmile_qr_scan", "android": "https://dc.lft.to/lastmile_qr_scan"}, "type": "electric_scooter", "name": "14784b7d8da7adb42ec1eb6017ca5614", "is_reserved": 0, "lon": -77.04493, "is_disabled": 0, "fusion_lat": 0.0, "lat": 38.913693, "bike_id": "14784b7d8da7adb42ec1eb6017ca5614", "fusion_lon": 0.0}, {"rental_uris": {"ios": "https://dc.lft.to/lastmile_qr_scan", "android": "https://dc.lft.to/lastmile_qr_scan"}, "type": "electric_scooter", "name": "109096cafe6467467d1d3e70912f289d", "is_reserved": 0, "lon": -76.98730316666666, "is_disabled": 0, "fusion_lat": 0.0, "lat": 38.9098485, "bike_id": "109096cafe6467467d1d3e70912f289d", "fusion_lon": 0.0}, {"rental_uris": {"ios": "https://dc.lft.to/lastmile_qr_scan", "android": "https://dc.lft.to/lastmile_qr_scan"}, "type": "electric_scooter", "name": "1872ac19161a7532a830e6bf9ea1475d", "is_reserved": 0, "lon": -77.016397, "is_disabled": 0, "fusion_lat": 0.0, "lat": 38.929434666666666, "bike_id": "1872ac19161a7532a830e6bf9ea1475d", "fusion_lon": 0.0}, {"rental_uris": {"ios": "https://dc.lft.to/lastmile_qr_scan", "android": "https://dc.lft.to/lastmile_qr_scan"}, "type": "electric_scooter", "name": "18ee75cd0bfe3ed377c4d02534c13f89", "is_reserved": 0, "lon": -77.03034833333334, "is_disabled": 0, "fusion_lat": 0.0, "lat": 38.91272983333333, "bike_id": "18ee75cd0bfe3ed377c4d02534c13f89", "fusion_lon": 0.0}, {"rental_uris": {"ios": "https://dc.lft.to/lastmile_qr_scan", "android": "https://dc.lft.to/lastmile_qr_scan"}, "type": "electric_scooter", "name": "73c6389cb988b79dc5fcd9d2525a2114", "is_reserved": 0, "lon": -77.04477383333334, "is_disabled": 0, "fusion_lat": 0.0, "lat": 38.900020833333336, "bike_id": "73c6389cb988b79dc5fcd9d2525a2114", "fusion_lon": 0.0}, {"rental_uris": {"ios": "https://dc.lft.to/lastmile_qr_scan", "android": "https://dc.lft.to/lastmile_qr_scan"}, "type": "electric_bike", "name": "cd99ee2620e2e356e9f232bbe19666d5", "is_reserved": 0, "lon": -76.98772216666667, "is_disabled": 0, "fusion_lat": 0.0, "lat": 38.8577165, "bike_id": "cd99ee2620e2e356e9f232bbe19666d5", "fusion_lon": 0.0}, {"rental_uris": {"ios": "https://dc.lft.to/lastmile_qr_scan", "android": "https://dc.lft.to/lastmile_qr_scan"}, "type": "electric_scooter", "name": "208c8c6316bd26428534522835ec650b", "is_reserved": 0, "lon": -77.03239783333333, "is_disabled": 0, "fusion_lat": 0.0, "lat": 38.91268183333333, "bike_id": "208c8c6316bd26428534522835ec650b", "fusion_lon": 0.0}, {"rental_uris": {"ios": "https://dc.lft.to/lastmile_qr_scan", "android": "https://dc.lft.to/lastmile_qr_scan"}, "type": "electric_scooter", "name": "153f5b0f4717eea5fb6a8d8e15bc97b8", "is_reserved": 0, "lon": -77.02727233333333, "is_disabled": 0, "fusion_lat": 0.0, "lat": 38.89572166666667, "bike_id": "153f5b0f4717eea5fb6a8d8e15bc97b8", "fusion_lon": 0.0}, {"rental_uris": {"ios": "https://dc.lft.to/lastmile_qr_scan", "android": "https://dc.lft.to/lastmile_qr_scan"}, "type": "electric_scooter", "name": "4820753fd7210b4b1c171435539eb893", "is_reserved": 0, "lon": -77.06306616666667, "is_disabled": 0, "fusion_lat": 0.0, "lat": 38.903989333333335, "bike_id": "4820753fd7210b4b1c171435539eb893", "fusion_lon": 0.0}, {"rental_uris": {"ios": "https://dc.lft.to/lastmile_qr_scan", "android": "https://dc.lft.to/lastmile_qr_scan"}, "type": "electric_scooter", "name": "23017263dd8c29a1a2a5a688b2f8783f", "is_reserved": 0, "lon": -77.034761, "is_disabled": 0, "fusion_lat": 0.0, "lat": 38.908414, "bike_id": "23017263dd8c29a1a2a5a688b2f8783f", "fusion_lon": 0.0}, {"rental_uris": {"ios": "https://dc.lft.to/lastmile_qr_scan", "android": "https://dc.lft.to/lastmile_qr_scan"}, "type": "electric_scooter", "name": "60a791cdb9543b4da826c058e0025e66", "is_reserved": 0, "lon": -77.04475833333333, "is_disabled": 0, "fusion_lat": 0.0, "lat": 38.924719333333336, "bike_id": "60a791cdb9543b4da826c058e0025e66", "fusion_lon": 0.0}, {"rental_uris": {"ios": "https://dc.lft.to/lastmile_qr_scan", "android": "https://dc.lft.to/lastmile_qr_scan"}, "type": "electric_scooter", "name": "5fd57c37aeb8bcbca43a180201f956f8", "is_reserved": 0, "lon": -77.03177516666666, "is_disabled": 0, "fusion_lat": 0.0, "lat": 38.894710333333336, "bike_id": "5fd57c37aeb8bcbca43a180201f956f8", "fusion_lon": 0.0}, {"rental_uris": {"ios": "https://dc.lft.to/lastmile_qr_scan", "android": "https://dc.lft.to/lastmile_qr_scan"}, "type": "electric_scooter", "name": "50f5588385619e7275aea1ce01101c1c", "is_reserved": 0, "lon": -77.011293, "is_disabled": 0, "fusion_lat": 0.0, "lat": 38.895514, "bike_id": "50f5588385619e7275aea1ce01101c1c", "fusion_lon": 0.0}, {"rental_uris": {"ios": "https://dc.lft.to/lastmile_qr_scan", "android": "https://dc.lft.to/lastmile_qr_scan"}, "type": "electric_scooter", "name": "afdb12a46615657ac4e5ec072d0aaedc", "is_reserved": 0, "lon": -76.983806, "is_disabled": 0, "fusion_lat": 0.0, "lat": 38.89973, "bike_id": "afdb12a46615657ac4e5ec072d0aaedc", "fusion_lon": 0.0}, {"rental_uris": {"ios": "https://dc.lft.to/lastmile_qr_scan", "android": "https://dc.lft.to/lastmile_qr_scan"}, "type": "electric_scooter", "name": "ee39374bf6740ce53dbb5d5c9e463e18", "is_reserved": 0, "lon": -77.03871433333333, "is_disabled": 0, "fusion_lat": 0.0, "lat": 38.91714266666666, "bike_id": "ee39374bf6740ce53dbb5d5c9e463e18", "fusion_lon": 0.0}, {"rental_uris": {"ios": "https://dc.lft.to/lastmile_qr_scan", "android": "https://dc.lft.to/lastmile_qr_scan"}, "type": "electric_scooter", "name": "d1a7e22fc4557a7bafa3f542b22a3618", "is_reserved": 0, "lon": -77.01099416666666, "is_disabled": 0, "fusion_lat": 0.0, "lat": 38.907334666666664, "bike_id": "d1a7e22fc4557a7bafa3f542b22a3618", "fusion_lon": 0.0}, {"rental_uris": {"ios": "https://dc.lft.to/lastmile_qr_scan", "android": "https://dc.lft.to/lastmile_qr_scan"}, "type": "electric_bike", "name": "62f5f8ad61fe79456a7c2d3fb77b0c45", "is_reserved": 0, "lon": -77.01206316666666, "is_disabled": 0, "fusion_lat": 0.0, "lat": 38.950746, "bike_id": "62f5f8ad61fe79456a7c2d3fb77b0c45", "fusion_lon": 0.0}, {"rental_uris": {"ios": "https://dc.lft.to/lastmile_qr_scan", "android": "https://dc.lft.to/lastmile_qr_scan"}, "type": "electric_scooter", "name": "5efddc06519bbb728b09b7dfa70bdbb8", "is_reserved": 0, "lon": -77.00666066666666, "is_disabled": 0, "fusion_lat": 0.0, "lat": 38.91195183333333, "bike_id": "5efddc06519bbb728b09b7dfa70bdbb8", "fusion_lon": 0.0}, {"rental_uris": {"ios": "https://dc.lft.to/lastmile_qr_scan", "android": "https://dc.lft.to/lastmile_qr_scan"}, "type": "electric_bike", "name": "cde1be64e011afce454b15c339adb4c3", "is_reserved": 0, "lon": -77.09560983333333, "is_disabled": 0, "fusion_lat": 0.0, "lat": 38.8587755, "bike_id": "cde1be64e011afce454b15c339adb4c3", "fusion_lon": 0.0}, {"rental_uris": {"ios": "https://dc.lft.to/lastmile_qr_scan", "android": "https://dc.lft.to/lastmile_qr_scan"}, "type": "electric_scooter", "name": "f98dabae8d4b265acc636414dc6b077a", "is_reserved": 0, "lon": -77.035007, "is_disabled": 0, "fusion_lat": 0.0, "lat": 38.91711383333333, "bike_id": "f98dabae8d4b265acc636414dc6b077a", "fusion_lon": 0.0}, {"rental_uris": {"ios": "https://dc.lft.to/lastmile_qr_scan", "android": "https://dc.lft.to/lastmile_qr_scan"}, "type": "electric_scooter", "name": "d8093ac2294fb3b8ac6be7bd5451ac0c", "is_reserved": 0, "lon": -77.03511916666666, "is_disabled": 0, "fusion_lat": 0.0, "lat": 38.92150083333333, "bike_id": "d8093ac2294fb3b8ac6be7bd5451ac0c", "fusion_lon": 0.0}, {"rental_uris": {"ios": "https://dc.lft.to/lastmile_qr_scan", "android": "https://dc.lft.to/lastmile_qr_scan"}, "type": "electric_scooter", "name": "e9e57b35aa0fe92350437c08cf6e6088", "is_reserved": 0, "lon": -77.03854783333334, "is_disabled": 0, "fusion_lat": 0.0, "lat": 38.903862833333335, "bike_id": "e9e57b35aa0fe92350437c08cf6e6088", "fusion_lon": 0.0}, {"rental_uris": {"ios": "https://dc.lft.to/lastmile_qr_scan", "android": "https://dc.lft.to/lastmile_qr_scan"}, "type": "electric_scooter", "name": "e8aa3dc0abd295f73a8f0a3a4cccaf0e", "is_reserved": 0, "lon": -77.01347566666666, "is_disabled": 0, "fusion_lat": 0.0, "lat": 38.88124233333333, "bike_id": "e8aa3dc0abd295f73a8f0a3a4cccaf0e", "fusion_lon": 0.0}, {"rental_uris": {"ios": "https://dc.lft.to/lastmile_qr_scan", "android": "https://dc.lft.to/lastmile_qr_scan"}, "type": "electric_scooter", "name": "6d735974297eaa7cce90d6779b2c2601", "is_reserved": 0, "lon": -77.0278235, "is_disabled": 0, "fusion_lat": 0.0, "lat": 38.96582466666667, "bike_id": "6d735974297eaa7cce90d6779b2c2601", "fusion_lon": 0.0}, {"rental_uris": {"ios": "https://dc.lft.to/lastmile_qr_scan", "android": "https://dc.lft.to/lastmile_qr_scan"}, "type": "electric_scooter", "name": "6358c2034f26c4abb83aafe8398bf3b5", "is_reserved": 0, "lon": -77.03971083333333, "is_disabled": 0, "fusion_lat": 0.0, "lat": 38.89891433333333, "bike_id": "6358c2034f26c4abb83aafe8398bf3b5", "fusion_lon": 0.0}, {"rental_uris": {"ios": "https://dc.lft.to/lastmile_qr_scan", "android": "https://dc.lft.to/lastmile_qr_scan"}, "type": "electric_scooter", "name": "aa62736a5718f5ae6ddb82b831dacac0", "is_reserved": 0, "lon": -77.04089916666666, "is_disabled": 0, "fusion_lat": 0.0, "lat": 38.920760666666666, "bike_id": "aa62736a5718f5ae6ddb82b831dacac0", "fusion_lon": 0.0}, {"rental_uris": {"ios": "https://dc.lft.to/lastmile_qr_scan", "android": "https://dc.lft.to/lastmile_qr_scan"}, "type": "electric_scooter", "name": "827ae29000c30c5af977bf0390a5cc69", "is_reserved": 0, "lon": -77.06629933333333, "is_disabled": 0, "fusion_lat": 0.0, "lat": 38.905245, "bike_id": "827ae29000c30c5af977bf0390a5cc69", "fusion_lon": 0.0}, {"rental_uris": {"ios": "https://dc.lft.to/lastmile_qr_scan", "android": "https://dc.lft.to/lastmile_qr_scan"}, "type": "electric_bike", "name": "4b34bd36dfca207fb668aac7b3f6e8b0", "is_reserved": 0, "lon": -77.1236805, "is_disabled": 0, "fusion_lat": 0.0, "lat": 38.80766066666666, "bike_id": "4b34bd36dfca207fb668aac7b3f6e8b0", "fusion_lon": 0.0}, {"rental_uris": {"ios": "https://dc.lft.to/lastmile_qr_scan", "android": "https://dc.lft.to/lastmile_qr_scan"}, "type": "electric_scooter", "name": "01b8a9e90804053ba7d4eecc626a777e", "is_reserved": 0, "lon": -77.025162, "is_disabled": 0, "fusion_lat": 0.0, "lat": 38.935503833333335, "bike_id": "01b8a9e90804053ba7d4eecc626a777e", "fusion_lon": 0.0}, {"rental_uris": {"ios": "https://dc.lft.to/lastmile_qr_scan", "android": "https://dc.lft.to/lastmile_qr_scan"}, "type": "electric_scooter", "name": "be43ea6a21b09fab16afbdcb724976b1", "is_reserved": 0, "lon": -77.0591825, "is_disabled": 0, "fusion_lat": 0.0, "lat": 38.90270833333334, "bike_id": "be43ea6a21b09fab16afbdcb724976b1", "fusion_lon": 0.0}, {"rental_uris": {"ios": "https://dc.lft.to/lastmile_qr_scan", "android": "https://dc.lft.to/lastmile_qr_scan"}, "type": "electric_scooter", "name": "6dd55d06727c65d763aed7f499c82639", "is_reserved": 0, "lon": -77.0055185, "is_disabled": 0, "fusion_lat": 0.0, "lat": 38.8764035, "bike_id": "6dd55d06727c65d763aed7f499c82639", "fusion_lon": 0.0}, {"rental_uris": {"ios": "https://dc.lft.to/lastmile_qr_scan", "android": "https://dc.lft.to/lastmile_qr_scan"}, "type": "electric_bike", "name": "27d702ce7c629bedebf72bb63d78e5cf", "is_reserved": 0, "lon": -77.08532816666667, "is_disabled": 0, "fusion_lat": 0.0, "lat": 38.856519166666665, "bike_id": "27d702ce7c629bedebf72bb63d78e5cf", "fusion_lon": 0.0}, {"rental_uris": {"ios": "https://dc.lft.to/lastmile_qr_scan", "android": "https://dc.lft.to/lastmile_qr_scan"}, "type": "electric_scooter", "name": "bb82c7bd9aac8557a43b302960ee3add", "is_reserved": 0, "lon": -76.98514716666666, "is_disabled": 0, "fusion_lat": 0.0, "lat": 38.88001833333333, "bike_id": "bb82c7bd9aac8557a43b302960ee3add", "fusion_lon": 0.0}, {"rental_uris": {"ios": "https://dc.lft.to/lastmile_qr_scan", "android": "https://dc.lft.to/lastmile_qr_scan"}, "type": "electric_scooter", "name": "ec0c247f01b4dc44d1e0eeb0c75d01a6", "is_reserved": 0, "lon": -77.03215766666666, "is_disabled": 0, "fusion_lat": 0.0, "lat": 38.913107833333335, "bike_id": "ec0c247f01b4dc44d1e0eeb0c75d01a6", "fusion_lon": 0.0}, {"rental_uris": {"ios": "https://dc.lft.to/lastmile_qr_scan", "android": "https://dc.lft.to/lastmile_qr_scan"}, "type": "electric_scooter", "name": "690df4506cc1d4c62051f91590b89faf", "is_reserved": 0, "lon": -77.0297775, "is_disabled": 0, "fusion_lat": 0.0, "lat": 38.926339166666665, "bike_id": "690df4506cc1d4c62051f91590b89faf", "fusion_lon": 0.0}, {"rental_uris": {"ios": "https://dc.lft.to/lastmile_qr_scan", "android": "https://dc.lft.to/lastmile_qr_scan"}, "type": "electric_scooter", "name": "15d76215a29e2300bda197544231e94f", "is_reserved": 0, "lon": -77.03669183333334, "is_disabled": 0, "fusion_lat": 0.0, "lat": 38.91068516666667, "bike_id": "15d76215a29e2300bda197544231e94f", "fusion_lon": 0.0}, {"rental_uris": {"ios": "https://dc.lft.to/lastmile_qr_scan", "android": "https://dc.lft.to/lastmile_qr_scan"}, "type": "electric_scooter", "name": "878dcd4c2ae0bdfb42b3b2ee6cea6a40", "is_reserved": 0, "lon": -77.02722966666667, "is_disabled": 0, "fusion_lat": 0.0, "lat": 38.91674866666666, "bike_id": "878dcd4c2ae0bdfb42b3b2ee6cea6a40", "fusion_lon": 0.0}, {"rental_uris": {"ios": "https://dc.lft.to/lastmile_qr_scan", "android": "https://dc.lft.to/lastmile_qr_scan"}, "type": "electric_scooter", "name": "ea9d922926417844f21fef72b9b30144", "is_reserved": 0, "lon": -77.03813033333333, "is_disabled": 0, "fusion_lat": 0.0, "lat": 38.909636166666665, "bike_id": "ea9d922926417844f21fef72b9b30144", "fusion_lon": 0.0}, {"rental_uris": {"ios": "https://dc.lft.to/lastmile_qr_scan", "android": "https://dc.lft.to/lastmile_qr_scan"}, "type": "electric_scooter", "name": "d24cc2e84e0f5087849e8e69575b3851", "is_reserved": 0, "lon": -77.00215033333333, "is_disabled": 0, "fusion_lat": 0.0, "lat": 38.90032766666667, "bike_id": "d24cc2e84e0f5087849e8e69575b3851", "fusion_lon": 0.0}, {"rental_uris": {"ios": "https://dc.lft.to/lastmile_qr_scan", "android": "https://dc.lft.to/lastmile_qr_scan"}, "type": "electric_scooter", "name": "d3e57da06a8b210ffd2f6967d61d2134", "is_reserved": 0, "lon": -77.0304155, "is_disabled": 0, "fusion_lat": 0.0, "lat": 38.99034116666667, "bike_id": "d3e57da06a8b210ffd2f6967d61d2134", "fusion_lon": 0.0}, {"rental_uris": {"ios": "https://dc.lft.to/lastmile_qr_scan", "android": "https://dc.lft.to/lastmile_qr_scan"}, "type": "electric_scooter", "name": "7028c543564145d39c6fa559763a7975", "is_reserved": 0, "lon": -77.05512733333333, "is_disabled": 0, "fusion_lat": 0.0, "lat": 38.9284085, "bike_id": "7028c543564145d39c6fa559763a7975", "fusion_lon": 0.0}, {"rental_uris": {"ios": "https://dc.lft.to/lastmile_qr_scan", "android": "https://dc.lft.to/lastmile_qr_scan"}, "type": "electric_scooter", "name": "a8d8cc5d1661cac89d459cfa9a795af1", "is_reserved": 0, "lon": -77.02571133333333, "is_disabled": 0, "fusion_lat": 0.0, "lat": 38.9125875, "bike_id": "a8d8cc5d1661cac89d459cfa9a795af1", "fusion_lon": 0.0}, {"rental_uris": {"ios": "https://dc.lft.to/lastmile_qr_scan", "android": "https://dc.lft.to/lastmile_qr_scan"}, "type": "electric_scooter", "name": "d33fc1d6cf9186cd74c7380bfe9e3400", "is_reserved": 0, "lon": -77.03093766666667, "is_disabled": 0, "fusion_lat": 0.0, "lat": 38.895495833333335, "bike_id": "d33fc1d6cf9186cd74c7380bfe9e3400", "fusion_lon": 0.0}, {"rental_uris": {"ios": "https://dc.lft.to/lastmile_qr_scan", "android": "https://dc.lft.to/lastmile_qr_scan"}, "type": "electric_scooter", "name": "e2940226260ae1a39f54fcc6720e6e69", "is_reserved": 0, "lon": -77.057009, "is_disabled": 0, "fusion_lat": 0.0, "lat": 38.937168, "bike_id": "e2940226260ae1a39f54fcc6720e6e69", "fusion_lon": 0.0}, {"rental_uris": {"ios": "https://dc.lft.to/lastmile_qr_scan", "android": "https://dc.lft.to/lastmile_qr_scan"}, "type": "electric_scooter", "name": "bc2c5167e6aa18191d32268b0fd33277", "is_reserved": 0, "lon": -77.03713716666667, "is_disabled": 0, "fusion_lat": 0.0, "lat": 38.914911000000004, "bike_id": "bc2c5167e6aa18191d32268b0fd33277", "fusion_lon": 0.0}, {"rental_uris": {"ios": "https://dc.lft.to/lastmile_qr_scan", "android": "https://dc.lft.to/lastmile_qr_scan"}, "type": "electric_scooter", "name": "b65e1b304299a289649ff72b659b9cf2", "is_reserved": 0, "lon": -77.00429666666666, "is_disabled": 0, "fusion_lat": 0.0, "lat": 38.92951383333333, "bike_id": "b65e1b304299a289649ff72b659b9cf2", "fusion_lon": 0.0}, {"rental_uris": {"ios": "https://dc.lft.to/lastmile_qr_scan", "android": "https://dc.lft.to/lastmile_qr_scan"}, "type": "electric_scooter", "name": "f2a584411eb22572597a7d401090c00c", "is_reserved": 0, "lon": -77.012114, "is_disabled": 0, "fusion_lat": 0.0, "lat": 38.91194483333334, "bike_id": "f2a584411eb22572597a7d401090c00c", "fusion_lon": 0.0}, {"rental_uris": {"ios": "https://dc.lft.to/lastmile_qr_scan", "android": "https://dc.lft.to/lastmile_qr_scan"}, "type": "electric_scooter", "name": "5d66a5214beaacbfc66b9d9b8f1f28b4", "is_reserved": 0, "lon": -77.02549933333333, "is_disabled": 0, "fusion_lat": 0.0, "lat": 38.93519366666666, "bike_id": "5d66a5214beaacbfc66b9d9b8f1f28b4", "fusion_lon": 0.0}, {"rental_uris": {"ios": "https://dc.lft.to/lastmile_qr_scan", "android": "https://dc.lft.to/lastmile_qr_scan"}, "type": "electric_scooter", "name": "fea2baef7d4a204493f776cf050698d6", "is_reserved": 0, "lon": -77.00962266666667, "is_disabled": 0, "fusion_lat": 0.0, "lat": 38.874632, "bike_id": "fea2baef7d4a204493f776cf050698d6", "fusion_lon": 0.0}, {"rental_uris": {"ios": "https://dc.lft.to/lastmile_qr_scan", "android": "https://dc.lft.to/lastmile_qr_scan"}, "type": "electric_scooter", "name": "7c464f01f9329a6ba81fdedd9a128e00", "is_reserved": 0, "lon": -77.03099616666667, "is_disabled": 0, "fusion_lat": 0.0, "lat": 38.910365666666664, "bike_id": "7c464f01f9329a6ba81fdedd9a128e00", "fusion_lon": 0.0}, {"rental_uris": {"ios": "https://dc.lft.to/lastmile_qr_scan", "android": "https://dc.lft.to/lastmile_qr_scan"}, "type": "electric_scooter", "name": "a107739b4265dd185375696e3653ed00", "is_reserved": 0, "lon": -77.04028716666667, "is_disabled": 0, "fusion_lat": 0.0, "lat": 38.92253316666667, "bike_id": "a107739b4265dd185375696e3653ed00", "fusion_lon": 0.0}, {"rental_uris": {"ios": "https://dc.lft.to/lastmile_qr_scan", "android": "https://dc.lft.to/lastmile_qr_scan"}, "type": "electric_bike", "name": "73dd3751a0353b85ee1fe8577a65d5e7", "is_reserved": 0, "lon": -76.93338516666667, "is_disabled": 0, "fusion_lat": 0.0, "lat": 38.951548, "bike_id": "73dd3751a0353b85ee1fe8577a65d5e7", "fusion_lon": 0.0}, {"rental_uris": {"ios": "https://dc.lft.to/lastmile_qr_scan", "android": "https://dc.lft.to/lastmile_qr_scan"}, "type": "electric_scooter", "name": "33981554d68acf922e645a03358a5663", "is_reserved": 0, "lon": -77.05539716666667, "is_disabled": 0, "fusion_lat": 0.0, "lat": 38.91004133333333, "bike_id": "33981554d68acf922e645a03358a5663", "fusion_lon": 0.0}, {"rental_uris": {"ios": "https://dc.lft.to/lastmile_qr_scan", "android": "https://dc.lft.to/lastmile_qr_scan"}, "type": "electric_bike", "name": "966a803d27d8675c5b26fba102df5b80", "is_reserved": 0, "lon": -77.0962085, "is_disabled": 0, "fusion_lat": 0.0, "lat": 38.97442183333333, "bike_id": "966a803d27d8675c5b26fba102df5b80", "fusion_lon": 0.0}, {"rental_uris": {"ios": "https://dc.lft.to/lastmile_qr_scan", "android": "https://dc.lft.to/lastmile_qr_scan"}, "type": "electric_scooter", "name": "c80b8b92a90d961398009f99af95d331", "is_reserved": 0, "lon": -77.01736316666667, "is_disabled": 0, "fusion_lat": 0.0, "lat": 38.877097, "bike_id": "c80b8b92a90d961398009f99af95d331", "fusion_lon": 0.0}, {"rental_uris": {"ios": "https://dc.lft.to/lastmile_qr_scan", "android": "https://dc.lft.to/lastmile_qr_scan"}, "type": "electric_scooter", "name": "2fcdfdfce1e47b5f81e782105182ed9b", "is_reserved": 0, "lon": -77.024543, "is_disabled": 0, "fusion_lat": 0.0, "lat": 38.938579, "bike_id": "2fcdfdfce1e47b5f81e782105182ed9b", "fusion_lon": 0.0}, {"rental_uris": {"ios": "https://dc.lft.to/lastmile_qr_scan", "android": "https://dc.lft.to/lastmile_qr_scan"}, "type": "electric_scooter", "name": "082439b5573ee9c3b4749efe3aa7e538", "is_reserved": 0, "lon": -77.035608, "is_disabled": 0, "fusion_lat": 0.0, "lat": 38.91113933333333, "bike_id": "082439b5573ee9c3b4749efe3aa7e538", "fusion_lon": 0.0}, {"rental_uris": {"ios": "https://dc.lft.to/lastmile_qr_scan", "android": "https://dc.lft.to/lastmile_qr_scan"}, "type": "electric_scooter", "name": "0a0f209497b3c7bb2f425782225dc857", "is_reserved": 0, "lon": -77.064853, "is_disabled": 0, "fusion_lat": 0.0, "lat": 38.92706333333334, "bike_id": "0a0f209497b3c7bb2f425782225dc857", "fusion_lon": 0.0}, {"rental_uris": {"ios": "https://dc.lft.to/lastmile_qr_scan", "android": "https://dc.lft.to/lastmile_qr_scan"}, "type": "electric_scooter", "name": "b4457964cdbed639517c06d6dcc4f672", "is_reserved": 0, "lon": -77.00256466666667, "is_disabled": 0, "fusion_lat": 0.0, "lat": 38.89475183333333, "bike_id": "b4457964cdbed639517c06d6dcc4f672", "fusion_lon": 0.0}, {"rental_uris": {"ios": "https://dc.lft.to/lastmile_qr_scan", "android": "https://dc.lft.to/lastmile_qr_scan"}, "type": "electric_scooter", "name": "4bff08ec7074dd7e716a41156d3ff729", "is_reserved": 0, "lon": -76.9845655, "is_disabled": 0, "fusion_lat": 0.0, "lat": 38.900138166666665, "bike_id": "4bff08ec7074dd7e716a41156d3ff729", "fusion_lon": 0.0}, {"rental_uris": {"ios": "https://dc.lft.to/lastmile_qr_scan", "android": "https://dc.lft.to/lastmile_qr_scan"}, "type": "electric_scooter", "name": "dde9dcd59e1c74f7493e02063e74834f", "is_reserved": 0, "lon": -76.99165333333333, "is_disabled": 0, "fusion_lat": 0.0, "lat": 38.88817383333333, "bike_id": "dde9dcd59e1c74f7493e02063e74834f", "fusion_lon": 0.0}, {"rental_uris": {"ios": "https://dc.lft.to/lastmile_qr_scan", "android": "https://dc.lft.to/lastmile_qr_scan"}, "type": "electric_scooter", "name": "ddd464d0e303d9dad3db5ca840322d12", "is_reserved": 0, "lon": -77.00072016666667, "is_disabled": 0, "fusion_lat": 0.0, "lat": 38.87443583333334, "bike_id": "ddd464d0e303d9dad3db5ca840322d12", "fusion_lon": 0.0}, {"rental_uris": {"ios": "https://dc.lft.to/lastmile_qr_scan", "android": "https://dc.lft.to/lastmile_qr_scan"}, "type": "electric_scooter", "name": "82471fd349e474da9d2cc8835ac6f2dd", "is_reserved": 0, "lon": -77.010242, "is_disabled": 0, "fusion_lat": 0.0, "lat": 38.914045333333334, "bike_id": "82471fd349e474da9d2cc8835ac6f2dd", "fusion_lon": 0.0}, {"rental_uris": {"ios": "https://dc.lft.to/lastmile_qr_scan", "android": "https://dc.lft.to/lastmile_qr_scan"}, "type": "electric_scooter", "name": "e2257bfd9e2d01656a71b8fb14d093e1", "is_reserved": 0, "lon": -76.99381716666667, "is_disabled": 0, "fusion_lat": 0.0, "lat": 38.893401, "bike_id": "e2257bfd9e2d01656a71b8fb14d093e1", "fusion_lon": 0.0}, {"rental_uris": {"ios": "https://dc.lft.to/lastmile_qr_scan", "android": "https://dc.lft.to/lastmile_qr_scan"}, "type": "electric_bike", "name": "156e342eea68a3128f506e75fc30f23b", "is_reserved": 0, "lon": -76.98089983333334, "is_disabled": 0, "fusion_lat": 0.0, "lat": 38.95357583333333, "bike_id": "156e342eea68a3128f506e75fc30f23b", "fusion_lon": 0.0}, {"rental_uris": {"ios": "https://dc.lft.to/lastmile_qr_scan", "android": "https://dc.lft.to/lastmile_qr_scan"}, "type": "electric_scooter", "name": "7a1ce1da2348ecf65ef427b6f627c400", "is_reserved": 0, "lon": -77.00513233333334, "is_disabled": 0, "fusion_lat": 0.0, "lat": 38.87662666666667, "bike_id": "7a1ce1da2348ecf65ef427b6f627c400", "fusion_lon": 0.0}, {"rental_uris": {"ios": "https://dc.lft.to/lastmile_qr_scan", "android": "https://dc.lft.to/lastmile_qr_scan"}, "type": "electric_scooter", "name": "4cc79bfd68dc7dcf0793614248d1db74", "is_reserved": 0, "lon": -77.02147316666667, "is_disabled": 0, "fusion_lat": 0.0, "lat": 38.90309716666667, "bike_id": "4cc79bfd68dc7dcf0793614248d1db74", "fusion_lon": 0.0}, {"rental_uris": {"ios": "https://dc.lft.to/lastmile_qr_scan", "android": "https://dc.lft.to/lastmile_qr_scan"}, "type": "electric_scooter", "name": "0a905c9c433063eb2e3794489781ee78", "is_reserved": 0, "lon": -77.06098616666667, "is_disabled": 0, "fusion_lat": 0.0, "lat": 38.905319166666665, "bike_id": "0a905c9c433063eb2e3794489781ee78", "fusion_lon": 0.0}, {"rental_uris": {"ios": "https://dc.lft.to/lastmile_qr_scan", "android": "https://dc.lft.to/lastmile_qr_scan"}, "type": "electric_scooter", "name": "029093382870d54c1b72ff65cb759ca6", "is_reserved": 0, "lon": -77.02114516666667, "is_disabled": 0, "fusion_lat": 0.0, "lat": 38.9326945, "bike_id": "029093382870d54c1b72ff65cb759ca6", "fusion_lon": 0.0}, {"rental_uris": {"ios": "https://dc.lft.to/lastmile_qr_scan", "android": "https://dc.lft.to/lastmile_qr_scan"}, "type": "electric_scooter", "name": "4467a59cde8df39fc41e1c6f25fc9420", "is_reserved": 0, "lon": -77.03271133333334, "is_disabled": 0, "fusion_lat": 0.0, "lat": 38.91257316666667, "bike_id": "4467a59cde8df39fc41e1c6f25fc9420", "fusion_lon": 0.0}, {"rental_uris": {"ios": "https://dc.lft.to/lastmile_qr_scan", "android": "https://dc.lft.to/lastmile_qr_scan"}, "type": "electric_scooter", "name": "e69a83bfc26b0d02e6c7fdb1129dfc91", "is_reserved": 0, "lon": -77.03461066666667, "is_disabled": 0, "fusion_lat": 0.0, "lat": 38.909344833333336, "bike_id": "e69a83bfc26b0d02e6c7fdb1129dfc91", "fusion_lon": 0.0}, {"rental_uris": {"ios": "https://dc.lft.to/lastmile_qr_scan", "android": "https://dc.lft.to/lastmile_qr_scan"}, "type": "electric_scooter", "name": "82039182e8e91e8c0eb874f85e6011f8", "is_reserved": 0, "lon": -76.98157266666666, "is_disabled": 0, "fusion_lat": 0.0, "lat": 38.8994225, "bike_id": "82039182e8e91e8c0eb874f85e6011f8", "fusion_lon": 0.0}, {"rental_uris": {"ios": "https://dc.lft.to/lastmile_qr_scan", "android": "https://dc.lft.to/lastmile_qr_scan"}, "type": "electric_bike", "name": "ee8e214bbc507b52302c064dc73f3796", "is_reserved": 0, "lon": -76.99075883333333, "is_disabled": 0, "fusion_lat": 0.0, "lat": 38.8980945, "bike_id": "ee8e214bbc507b52302c064dc73f3796", "fusion_lon": 0.0}, {"rental_uris": {"ios": "https://dc.lft.to/lastmile_qr_scan", "android": "https://dc.lft.to/lastmile_qr_scan"}, "type": "electric_bike", "name": "4d1f658fba020ad77351ca50e0cf41dd", "is_reserved": 0, "lon": -76.9824825, "is_disabled": 0, "fusion_lat": 0.0, "lat": 38.952427666666665, "bike_id": "4d1f658fba020ad77351ca50e0cf41dd", "fusion_lon": 0.0}, {"rental_uris": {"ios": "https://dc.lft.to/lastmile_qr_scan", "android": "https://dc.lft.to/lastmile_qr_scan"}, "type": "electric_scooter", "name": "4edf9093eb3b22a564f9a5dd926f4dcc", "is_reserved": 0, "lon": -77.02975266666667, "is_disabled": 0, "fusion_lat": 0.0, "lat": 38.9252265, "bike_id": "4edf9093eb3b22a564f9a5dd926f4dcc", "fusion_lon": 0.0}, {"rental_uris": {"ios": "https://dc.lft.to/lastmile_qr_scan", "android": "https://dc.lft.to/lastmile_qr_scan"}, "type": "electric_bike", "name": "48249ba4e23125058dc63205045fefa1", "is_reserved": 0, "lon": -76.98016683333333, "is_disabled": 0, "fusion_lat": 0.0, "lat": 38.853227833333335, "bike_id": "48249ba4e23125058dc63205045fefa1", "fusion_lon": 0.0}, {"rental_uris": {"ios": "https://dc.lft.to/lastmile_qr_scan", "android": "https://dc.lft.to/lastmile_qr_scan"}, "type": "electric_scooter", "name": "e0cb607c49112702601398f29c303594", "is_reserved": 0, "lon": -77.04220283333333, "is_disabled": 0, "fusion_lat": 0.0, "lat": 38.92122033333333, "bike_id": "e0cb607c49112702601398f29c303594", "fusion_lon": 0.0}, {"rental_uris": {"ios": "https://dc.lft.to/lastmile_qr_scan", "android": "https://dc.lft.to/lastmile_qr_scan"}, "type": "electric_scooter", "name": "eb084bc48b8ea6751148cb44e9c649cc", "is_reserved": 0, "lon": -77.04084966666667, "is_disabled": 0, "fusion_lat": 0.0, "lat": 38.947895833333334, "bike_id": "eb084bc48b8ea6751148cb44e9c649cc", "fusion_lon": 0.0}, {"rental_uris": {"ios": "https://dc.lft.to/lastmile_qr_scan", "android": "https://dc.lft.to/lastmile_qr_scan"}, "type": "electric_scooter", "name": "4aee8e4a11764cd52bf6dc307a91685e", "is_reserved": 0, "lon": -77.03656283333333, "is_disabled": 0, "fusion_lat": 0.0, "lat": 38.941794333333334, "bike_id": "4aee8e4a11764cd52bf6dc307a91685e", "fusion_lon": 0.0}, {"rental_uris": {"ios": "https://dc.lft.to/lastmile_qr_scan", "android": "https://dc.lft.to/lastmile_qr_scan"}, "type": "electric_scooter", "name": "0bb3830eacfa84519e885e545b92f856", "is_reserved": 0, "lon": -77.0383225, "is_disabled": 0, "fusion_lat": 0.0, "lat": 38.92177266666667, "bike_id": "0bb3830eacfa84519e885e545b92f856", "fusion_lon": 0.0}, {"rental_uris": {"ios": "https://dc.lft.to/lastmile_qr_scan", "android": "https://dc.lft.to/lastmile_qr_scan"}, "type": "electric_scooter", "name": "c5432c8c28b46d04b40d5e919a4fa6fb", "is_reserved": 0, "lon": -76.9471685, "is_disabled": 0, "fusion_lat": 0.0, "lat": 38.89085816666667, "bike_id": "c5432c8c28b46d04b40d5e919a4fa6fb", "fusion_lon": 0.0}, {"rental_uris": {"ios": "https://dc.lft.to/lastmile_qr_scan", "android": "https://dc.lft.to/lastmile_qr_scan"}, "type": "electric_scooter", "name": "f8d82233191e935cbd240a69c4b8a222", "is_reserved": 0, "lon": -77.00220533333334, "is_disabled": 0, "fusion_lat": 0.0, "lat": 38.9079765, "bike_id": "f8d82233191e935cbd240a69c4b8a222", "fusion_lon": 0.0}, {"rental_uris": {"ios": "https://dc.lft.to/lastmile_qr_scan", "android": "https://dc.lft.to/lastmile_qr_scan"}, "type": "electric_bike", "name": "f9a54865e5313facaf071915fff0423b", "is_reserved": 0, "lon": -77.08216, "is_disabled": 0, "fusion_lat": 0.0, "lat": 38.92210566666667, "bike_id": "f9a54865e5313facaf071915fff0423b", "fusion_lon": 0.0}, {"rental_uris": {"ios": "https://dc.lft.to/lastmile_qr_scan", "android": "https://dc.lft.to/lastmile_qr_scan"}, "type": "electric_scooter", "name": "4bdfbb1c72991d65a5ca94bcaa8cb7f0", "is_reserved": 0, "lon": -77.04347383333334, "is_disabled": 0, "fusion_lat": 0.0, "lat": 38.901572333333334, "bike_id": "4bdfbb1c72991d65a5ca94bcaa8cb7f0", "fusion_lon": 0.0}, {"rental_uris": {"ios": "https://dc.lft.to/lastmile_qr_scan", "android": "https://dc.lft.to/lastmile_qr_scan"}, "type": "electric_scooter", "name": "a49644423a12880608fddbc8b6ae805a", "is_reserved": 0, "lon": -77.0242115, "is_disabled": 0, "fusion_lat": 0.0, "lat": 38.91780333333333, "bike_id": "a49644423a12880608fddbc8b6ae805a", "fusion_lon": 0.0}, {"rental_uris": {"ios": "https://dc.lft.to/lastmile_qr_scan", "android": "https://dc.lft.to/lastmile_qr_scan"}, "type": "electric_scooter", "name": "8dc04b64afaf556921e92b2687e81620", "is_reserved": 0, "lon": -77.03070583333333, "is_disabled": 0, "fusion_lat": 0.0, "lat": 38.89716683333333, "bike_id": "8dc04b64afaf556921e92b2687e81620", "fusion_lon": 0.0}, {"rental_uris": {"ios": "https://dc.lft.to/lastmile_qr_scan", "android": "https://dc.lft.to/lastmile_qr_scan"}, "type": "electric_scooter", "name": "fdebce2c78d23506fe17a6b76f5cec28", "is_reserved": 0, "lon": -77.03855166666666, "is_disabled": 0, "fusion_lat": 0.0, "lat": 38.9100875, "bike_id": "fdebce2c78d23506fe17a6b76f5cec28", "fusion_lon": 0.0}, {"rental_uris": {"ios": "https://dc.lft.to/lastmile_qr_scan", "android": "https://dc.lft.to/lastmile_qr_scan"}, "type": "electric_scooter", "name": "233237bacdeb66cb528cf9e8ac03567f", "is_reserved": 0, "lon": -77.02839533333334, "is_disabled": 0, "fusion_lat": 0.0, "lat": 38.904517166666665, "bike_id": "233237bacdeb66cb528cf9e8ac03567f", "fusion_lon": 0.0}, {"rental_uris": {"ios": "https://dc.lft.to/lastmile_qr_scan", "android": "https://dc.lft.to/lastmile_qr_scan"}, "type": "electric_bike", "name": "88f64cbf2f5f98c0e1d8dbfac13b8acf", "is_reserved": 0, "lon": -76.9573935, "is_disabled": 0, "fusion_lat": 0.0, "lat": 38.888597, "bike_id": "88f64cbf2f5f98c0e1d8dbfac13b8acf", "fusion_lon": 0.0}, {"rental_uris": {"ios": "https://dc.lft.to/lastmile_qr_scan", "android": "https://dc.lft.to/lastmile_qr_scan"}, "type": "electric_scooter", "name": "731e564fe3ff8e20ff09b6bbc41b2b58", "is_reserved": 0, "lon": -76.983596, "is_disabled": 0, "fusion_lat": 0.0, "lat": 38.887347, "bike_id": "731e564fe3ff8e20ff09b6bbc41b2b58", "fusion_lon": 0.0}, {"rental_uris": {"ios": "https://dc.lft.to/lastmile_qr_scan", "android": "https://dc.lft.to/lastmile_qr_scan"}, "type": "electric_bike", "name": "aece376e3a619deabdece81cd7cacb47", "is_reserved": 0, "lon": -77.08958233333334, "is_disabled": 0, "fusion_lat": 0.0, "lat": 38.841053, "bike_id": "aece376e3a619deabdece81cd7cacb47", "fusion_lon": 0.0}, {"rental_uris": {"ios": "https://dc.lft.to/lastmile_qr_scan", "android": "https://dc.lft.to/lastmile_qr_scan"}, "type": "electric_scooter", "name": "712d36c678959e27bd9417ccedeb2e80", "is_reserved": 0, "lon": -77.00614233333333, "is_disabled": 0, "fusion_lat": 0.0, "lat": 38.87933666666667, "bike_id": "712d36c678959e27bd9417ccedeb2e80", "fusion_lon": 0.0}, {"rental_uris": {"ios": "https://dc.lft.to/lastmile_qr_scan", "android": "https://dc.lft.to/lastmile_qr_scan"}, "type": "electric_scooter", "name": "829fbb7ac95f419abd0a4bd0658235b8", "is_reserved": 0, "lon": -77.03233666666667, "is_disabled": 0, "fusion_lat": 0.0, "lat": 38.917146, "bike_id": "829fbb7ac95f419abd0a4bd0658235b8", "fusion_lon": 0.0}, {"rental_uris": {"ios": "https://dc.lft.to/lastmile_qr_scan", "android": "https://dc.lft.to/lastmile_qr_scan"}, "type": "electric_scooter", "name": "b25350b8e6f908fe049efaf5bad8c719", "is_reserved": 0, "lon": -77.02292883333334, "is_disabled": 0, "fusion_lat": 0.0, "lat": 38.895094666666665, "bike_id": "b25350b8e6f908fe049efaf5bad8c719", "fusion_lon": 0.0}, {"rental_uris": {"ios": "https://dc.lft.to/lastmile_qr_scan", "android": "https://dc.lft.to/lastmile_qr_scan"}, "type": "electric_scooter", "name": "c80fdd8858c928f4203c2dd0e1103eef", "is_reserved": 0, "lon": -77.01830433333333, "is_disabled": 0, "fusion_lat": 0.0, "lat": 38.9095375, "bike_id": "c80fdd8858c928f4203c2dd0e1103eef", "fusion_lon": 0.0}, {"rental_uris": {"ios": "https://dc.lft.to/lastmile_qr_scan", "android": "https://dc.lft.to/lastmile_qr_scan"}, "type": "electric_scooter", "name": "a491b49ddbcebec2bbc57f2b165d8587", "is_reserved": 0, "lon": -77.00567483333333, "is_disabled": 0, "fusion_lat": 0.0, "lat": 38.88043483333333, "bike_id": "a491b49ddbcebec2bbc57f2b165d8587", "fusion_lon": 0.0}, {"rental_uris": {"ios": "https://dc.lft.to/lastmile_qr_scan", "android": "https://dc.lft.to/lastmile_qr_scan"}, "type": "electric_scooter", "name": "a45ca912e7abbdc1dc2272beb341ed2b", "is_reserved": 0, "lon": -77.00352183333334, "is_disabled": 0, "fusion_lat": 0.0, "lat": 38.876541833333334, "bike_id": "a45ca912e7abbdc1dc2272beb341ed2b", "fusion_lon": 0.0}, {"rental_uris": {"ios": "https://dc.lft.to/lastmile_qr_scan", "android": "https://dc.lft.to/lastmile_qr_scan"}, "type": "electric_scooter", "name": "306a9b2227da8dcff69926d0c4a2381b", "is_reserved": 0, "lon": -77.06154966666666, "is_disabled": 0, "fusion_lat": 0.0, "lat": 38.94330516666667, "bike_id": "306a9b2227da8dcff69926d0c4a2381b", "fusion_lon": 0.0}, {"rental_uris": {"ios": "https://dc.lft.to/lastmile_qr_scan", "android": "https://dc.lft.to/lastmile_qr_scan"}, "type": "electric_scooter", "name": "4cf28beaba0e8fd8ef4bd5d265f81964", "is_reserved": 0, "lon": -76.93000516666666, "is_disabled": 0, "fusion_lat": 0.0, "lat": 38.889934, "bike_id": "4cf28beaba0e8fd8ef4bd5d265f81964", "fusion_lon": 0.0}, {"rental_uris": {"ios": "https://dc.lft.to/lastmile_qr_scan", "android": "https://dc.lft.to/lastmile_qr_scan"}, "type": "electric_scooter", "name": "3a6a594c7d24786d49d64e16140d7cd8", "is_reserved": 0, "lon": -77.0611485, "is_disabled": 0, "fusion_lat": 0.0, "lat": 38.912854333333335, "bike_id": "3a6a594c7d24786d49d64e16140d7cd8", "fusion_lon": 0.0}, {"rental_uris": {"ios": "https://dc.lft.to/lastmile_qr_scan", "android": "https://dc.lft.to/lastmile_qr_scan"}, "type": "electric_scooter", "name": "f26d4b465baa9091ff5c1a298fff77b5", "is_reserved": 0, "lon": -76.99160766666667, "is_disabled": 0, "fusion_lat": 0.0, "lat": 38.90041983333333, "bike_id": "f26d4b465baa9091ff5c1a298fff77b5", "fusion_lon": 0.0}, {"rental_uris": {"ios": "https://dc.lft.to/lastmile_qr_scan", "android": "https://dc.lft.to/lastmile_qr_scan"}, "type": "electric_scooter", "name": "8b56cbe8dede049873f6f7a86d1e3b2d", "is_reserved": 0, "lon": -77.013814, "is_disabled": 0, "fusion_lat": 0.0, "lat": 38.876097333333334, "bike_id": "8b56cbe8dede049873f6f7a86d1e3b2d", "fusion_lon": 0.0}, {"rental_uris": {"ios": "https://dc.lft.to/lastmile_qr_scan", "android": "https://dc.lft.to/lastmile_qr_scan"}, "type": "electric_scooter", "name": "70328e3f5287f9ff2c70a3c732628eee", "is_reserved": 0, "lon": -77.04247883333333, "is_disabled": 0, "fusion_lat": 0.0, "lat": 38.9036645, "bike_id": "70328e3f5287f9ff2c70a3c732628eee", "fusion_lon": 0.0}, {"rental_uris": {"ios": "https://dc.lft.to/lastmile_qr_scan", "android": "https://dc.lft.to/lastmile_qr_scan"}, "type": "electric_bike", "name": "4340099f82f33d284af0758aaed3522c", "is_reserved": 0, "lon": -77.00373316666666, "is_disabled": 0, "fusion_lat": 0.0, "lat": 38.836087, "bike_id": "4340099f82f33d284af0758aaed3522c", "fusion_lon": 0.0}, {"rental_uris": {"ios": "https://dc.lft.to/lastmile_qr_scan", "android": "https://dc.lft.to/lastmile_qr_scan"}, "type": "electric_scooter", "name": "40dce1bbc3230e8c0efc988c627737c7", "is_reserved": 0, "lon": -77.0207505, "is_disabled": 0, "fusion_lat": 0.0, "lat": 38.93027266666667, "bike_id": "40dce1bbc3230e8c0efc988c627737c7", "fusion_lon": 0.0}, {"rental_uris": {"ios": "https://dc.lft.to/lastmile_qr_scan", "android": "https://dc.lft.to/lastmile_qr_scan"}, "type": "electric_scooter", "name": "18ed8d9d8c137425011f1eb6006764a5", "is_reserved": 0, "lon": -77.0606065, "is_disabled": 0, "fusion_lat": 0.0, "lat": 38.90095216666667, "bike_id": "18ed8d9d8c137425011f1eb6006764a5", "fusion_lon": 0.0}, {"rental_uris": {"ios": "https://dc.lft.to/lastmile_qr_scan", "android": "https://dc.lft.to/lastmile_qr_scan"}, "type": "electric_scooter", "name": "d414a39a41f777037e10d6bb23e3f20e", "is_reserved": 0, "lon": -77.0184985, "is_disabled": 0, "fusion_lat": 0.0, "lat": 38.915066333333336, "bike_id": "d414a39a41f777037e10d6bb23e3f20e", "fusion_lon": 0.0}, {"rental_uris": {"ios": "https://dc.lft.to/lastmile_qr_scan", "android": "https://dc.lft.to/lastmile_qr_scan"}, "type": "electric_scooter", "name": "5467b088789da34b0a188638c9e24922", "is_reserved": 0, "lon": -77.00212866666666, "is_disabled": 0, "fusion_lat": 0.0, "lat": 38.907879, "bike_id": "5467b088789da34b0a188638c9e24922", "fusion_lon": 0.0}, {"rental_uris": {"ios": "https://dc.lft.to/lastmile_qr_scan", "android": "https://dc.lft.to/lastmile_qr_scan"}, "type": "electric_scooter", "name": "5c6aef5a4ce460e76bb0102c07dacc65", "is_reserved": 0, "lon": -77.0514115, "is_disabled": 0, "fusion_lat": 0.0, "lat": 38.902361166666665, "bike_id": "5c6aef5a4ce460e76bb0102c07dacc65", "fusion_lon": 0.0}, {"rental_uris": {"ios": "https://dc.lft.to/lastmile_qr_scan", "android": "https://dc.lft.to/lastmile_qr_scan"}, "type": "electric_scooter", "name": "14e9e04ec8f2bae13ab74f425f9090f1", "is_reserved": 0, "lon": -77.0373355, "is_disabled": 0, "fusion_lat": 0.0, "lat": 38.92026383333334, "bike_id": "14e9e04ec8f2bae13ab74f425f9090f1", "fusion_lon": 0.0}, {"rental_uris": {"ios": "https://dc.lft.to/lastmile_qr_scan", "android": "https://dc.lft.to/lastmile_qr_scan"}, "type": "electric_scooter", "name": "6c74d995ef0c25b069827d26cf0c53f6", "is_reserved": 0, "lon": -77.04430266666667, "is_disabled": 0, "fusion_lat": 0.0, "lat": 38.911372666666665, "bike_id": "6c74d995ef0c25b069827d26cf0c53f6", "fusion_lon": 0.0}, {"rental_uris": {"ios": "https://dc.lft.to/lastmile_qr_scan", "android": "https://dc.lft.to/lastmile_qr_scan"}, "type": "electric_bike", "name": "ce4192858390812b59045b38f3886a76", "is_reserved": 0, "lon": -76.9632565, "is_disabled": 0, "fusion_lat": 0.0, "lat": 38.938969, "bike_id": "ce4192858390812b59045b38f3886a76", "fusion_lon": 0.0}, {"rental_uris": {"ios": "https://dc.lft.to/lastmile_qr_scan", "android": "https://dc.lft.to/lastmile_qr_scan"}, "type": "electric_scooter", "name": "379c11ba0d8f8b51d8c1b722490350b0", "is_reserved": 0, "lon": -76.99354316666667, "is_disabled": 0, "fusion_lat": 0.0, "lat": 38.900112166666666, "bike_id": "379c11ba0d8f8b51d8c1b722490350b0", "fusion_lon": 0.0}, {"rental_uris": {"ios": "https://dc.lft.to/lastmile_qr_scan", "android": "https://dc.lft.to/lastmile_qr_scan"}, "type": "electric_scooter", "name": "a1d10fa5fe6e117a9f10869157d11381", "is_reserved": 0, "lon": -76.99038216666666, "is_disabled": 0, "fusion_lat": 0.0, "lat": 38.888753, "bike_id": "a1d10fa5fe6e117a9f10869157d11381", "fusion_lon": 0.0}, {"rental_uris": {"ios": "https://dc.lft.to/lastmile_qr_scan", "android": "https://dc.lft.to/lastmile_qr_scan"}, "type": "electric_bike", "name": "1aad730bef62a1fa4b839d3f7b1dc36c", "is_reserved": 0, "lon": -77.07390733333334, "is_disabled": 0, "fusion_lat": 0.0, "lat": 38.92920816666667, "bike_id": "1aad730bef62a1fa4b839d3f7b1dc36c", "fusion_lon": 0.0}, {"rental_uris": {"ios": "https://dc.lft.to/lastmile_qr_scan", "android": "https://dc.lft.to/lastmile_qr_scan"}, "type": "electric_scooter", "name": "17c6045dd2ebee9eae5bdb9717d4bb0f", "is_reserved": 0, "lon": -76.9956285, "is_disabled": 0, "fusion_lat": 0.0, "lat": 38.903676833333336, "bike_id": "17c6045dd2ebee9eae5bdb9717d4bb0f", "fusion_lon": 0.0}, {"rental_uris": {"ios": "https://dc.lft.to/lastmile_qr_scan", "android": "https://dc.lft.to/lastmile_qr_scan"}, "type": "electric_scooter", "name": "2509db2f9424bcadbefde7599a3bc7b5", "is_reserved": 0, "lon": -77.04160433333334, "is_disabled": 0, "fusion_lat": 0.0, "lat": 38.917495333333335, "bike_id": "2509db2f9424bcadbefde7599a3bc7b5", "fusion_lon": 0.0}, {"rental_uris": {"ios": "https://dc.lft.to/lastmile_qr_scan", "android": "https://dc.lft.to/lastmile_qr_scan"}, "type": "electric_scooter", "name": "91edaa8949e258f8bca91687d19b6f2a", "is_reserved": 0, "lon": -77.027026, "is_disabled": 0, "fusion_lat": 0.0, "lat": 38.88153066666667, "bike_id": "91edaa8949e258f8bca91687d19b6f2a", "fusion_lon": 0.0}, {"rental_uris": {"ios": "https://dc.lft.to/lastmile_qr_scan", "android": "https://dc.lft.to/lastmile_qr_scan"}, "type": "electric_scooter", "name": "369e8ea1038b95b52ea42965e6d5801d", "is_reserved": 0, "lon": -77.02171533333333, "is_disabled": 0, "fusion_lat": 0.0, "lat": 38.92487766666667, "bike_id": "369e8ea1038b95b52ea42965e6d5801d", "fusion_lon": 0.0}, {"rental_uris": {"ios": "https://dc.lft.to/lastmile_qr_scan", "android": "https://dc.lft.to/lastmile_qr_scan"}, "type": "electric_scooter", "name": "8d7a2bcde88b60c138c7f71b29b138f8", "is_reserved": 0, "lon": -77.039113, "is_disabled": 0, "fusion_lat": 0.0, "lat": 38.92221766666667, "bike_id": "8d7a2bcde88b60c138c7f71b29b138f8", "fusion_lon": 0.0}, {"rental_uris": {"ios": "https://dc.lft.to/lastmile_qr_scan", "android": "https://dc.lft.to/lastmile_qr_scan"}, "type": "electric_scooter", "name": "82fa97516f4fc11b60c9f4497ac5421f", "is_reserved": 0, "lon": -76.980921, "is_disabled": 0, "fusion_lat": 0.0, "lat": 38.904166333333336, "bike_id": "82fa97516f4fc11b60c9f4497ac5421f", "fusion_lon": 0.0}, {"rental_uris": {"ios": "https://dc.lft.to/lastmile_qr_scan", "android": "https://dc.lft.to/lastmile_qr_scan"}, "type": "electric_scooter", "name": "1d657111140040c4530947c034f33731", "is_reserved": 0, "lon": -77.04757033333334, "is_disabled": 0, "fusion_lat": 0.0, "lat": 38.912920666666665, "bike_id": "1d657111140040c4530947c034f33731", "fusion_lon": 0.0}, {"rental_uris": {"ios": "https://dc.lft.to/lastmile_qr_scan", "android": "https://dc.lft.to/lastmile_qr_scan"}, "type": "electric_scooter", "name": "a81c77e9861538d3e9d9763bccf72f1e", "is_reserved": 0, "lon": -77.008448, "is_disabled": 0, "fusion_lat": 0.0, "lat": 38.879057833333334, "bike_id": "a81c77e9861538d3e9d9763bccf72f1e", "fusion_lon": 0.0}, {"rental_uris": {"ios": "https://dc.lft.to/lastmile_qr_scan", "android": "https://dc.lft.to/lastmile_qr_scan"}, "type": "electric_scooter", "name": "3f2268bf635999851c1fb3f991335ede", "is_reserved": 0, "lon": -77.0397365, "is_disabled": 0, "fusion_lat": 0.0, "lat": 38.931580333333336, "bike_id": "3f2268bf635999851c1fb3f991335ede", "fusion_lon": 0.0}, {"rental_uris": {"ios": "https://dc.lft.to/lastmile_qr_scan", "android": "https://dc.lft.to/lastmile_qr_scan"}, "type": "electric_scooter", "name": "1a20041234a3ff8025deb550eafef04e", "is_reserved": 0, "lon": -77.0347685, "is_disabled": 0, "fusion_lat": 0.0, "lat": 38.93034133333333, "bike_id": "1a20041234a3ff8025deb550eafef04e", "fusion_lon": 0.0}, {"rental_uris": {"ios": "https://dc.lft.to/lastmile_qr_scan", "android": "https://dc.lft.to/lastmile_qr_scan"}, "type": "electric_scooter", "name": "fb1e10bb9a82db681291b4f85a81c1aa", "is_reserved": 0, "lon": -77.03262383333333, "is_disabled": 0, "fusion_lat": 0.0, "lat": 38.904560000000004, "bike_id": "fb1e10bb9a82db681291b4f85a81c1aa", "fusion_lon": 0.0}, {"rental_uris": {"ios": "https://dc.lft.to/lastmile_qr_scan", "android": "https://dc.lft.to/lastmile_qr_scan"}, "type": "electric_bike", "name": "06ce0c739d2e1cb28ba95b0bac00a7c6", "is_reserved": 0, "lon": -76.99736116666666, "is_disabled": 0, "fusion_lat": 0.0, "lat": 38.9984895, "bike_id": "06ce0c739d2e1cb28ba95b0bac00a7c6", "fusion_lon": 0.0}, {"rental_uris": {"ios": "https://dc.lft.to/lastmile_qr_scan", "android": "https://dc.lft.to/lastmile_qr_scan"}, "type": "electric_scooter", "name": "8d590d899a72dee00add3efbe55cc929", "is_reserved": 0, "lon": -77.068599, "is_disabled": 0, "fusion_lat": 0.0, "lat": 38.952962, "bike_id": "8d590d899a72dee00add3efbe55cc929", "fusion_lon": 0.0}, {"rental_uris": {"ios": "https://dc.lft.to/lastmile_qr_scan", "android": "https://dc.lft.to/lastmile_qr_scan"}, "type": "electric_scooter", "name": "0872f095282c5a36caf57ed64bc4f08b", "is_reserved": 0, "lon": -77.02606, "is_disabled": 0, "fusion_lat": 0.0, "lat": 38.918482833333336, "bike_id": "0872f095282c5a36caf57ed64bc4f08b", "fusion_lon": 0.0}, {"rental_uris": {"ios": "https://dc.lft.to/lastmile_qr_scan", "android": "https://dc.lft.to/lastmile_qr_scan"}, "type": "electric_scooter", "name": "c681acde0a05ad469360959a97daea0b", "is_reserved": 0, "lon": -77.0660545, "is_disabled": 0, "fusion_lat": 0.0, "lat": 38.91115633333333, "bike_id": "c681acde0a05ad469360959a97daea0b", "fusion_lon": 0.0}, {"rental_uris": {"ios": "https://dc.lft.to/lastmile_qr_scan", "android": "https://dc.lft.to/lastmile_qr_scan"}, "type": "electric_scooter", "name": "839868bbec72a6300e2e09c29adf5e75", "is_reserved": 0, "lon": -77.04757416666666, "is_disabled": 0, "fusion_lat": 0.0, "lat": 38.89588616666666, "bike_id": "839868bbec72a6300e2e09c29adf5e75", "fusion_lon": 0.0}, {"rental_uris": {"ios": "https://dc.lft.to/lastmile_qr_scan", "android": "https://dc.lft.to/lastmile_qr_scan"}, "type": "electric_scooter", "name": "e85ccfedd5460b455731e60b8e8758b1", "is_reserved": 0, "lon": -77.03666816666667, "is_disabled": 0, "fusion_lat": 0.0, "lat": 38.92097716666667, "bike_id": "e85ccfedd5460b455731e60b8e8758b1", "fusion_lon": 0.0}, {"rental_uris": {"ios": "https://dc.lft.to/lastmile_qr_scan", "android": "https://dc.lft.to/lastmile_qr_scan"}, "type": "electric_scooter", "name": "839aeef5de516ea6880d349a60250160", "is_reserved": 0, "lon": -77.0503325, "is_disabled": 0, "fusion_lat": 0.0, "lat": 38.923644833333334, "bike_id": "839aeef5de516ea6880d349a60250160", "fusion_lon": 0.0}, {"rental_uris": {"ios": "https://dc.lft.to/lastmile_qr_scan", "android": "https://dc.lft.to/lastmile_qr_scan"}, "type": "electric_scooter", "name": "8e9a047043e8a0bcbaf41dd60b44b2a9", "is_reserved": 0, "lon": -77.02905716666666, "is_disabled": 0, "fusion_lat": 0.0, "lat": 38.93683166666667, "bike_id": "8e9a047043e8a0bcbaf41dd60b44b2a9", "fusion_lon": 0.0}, {"rental_uris": {"ios": "https://dc.lft.to/lastmile_qr_scan", "android": "https://dc.lft.to/lastmile_qr_scan"}, "type": "electric_scooter", "name": "6b265795ef65e367697d9ab3b23a6714", "is_reserved": 0, "lon": -77.031431, "is_disabled": 0, "fusion_lat": 0.0, "lat": 38.90975066666667, "bike_id": "6b265795ef65e367697d9ab3b23a6714", "fusion_lon": 0.0}, {"rental_uris": {"ios": "https://dc.lft.to/lastmile_qr_scan", "android": "https://dc.lft.to/lastmile_qr_scan"}, "type": "electric_scooter", "name": "06be77738a96b3f97aba26a87f1800e6", "is_reserved": 0, "lon": -76.99637866666667, "is_disabled": 0, "fusion_lat": 0.0, "lat": 38.900628, "bike_id": "06be77738a96b3f97aba26a87f1800e6", "fusion_lon": 0.0}, {"rental_uris": {"ios": "https://dc.lft.to/lastmile_qr_scan", "android": "https://dc.lft.to/lastmile_qr_scan"}, "type": "electric_scooter", "name": "409551ab25d0043e6d54d65a96cbfe77", "is_reserved": 0, "lon": -77.03265766666667, "is_disabled": 0, "fusion_lat": 0.0, "lat": 38.90495116666666, "bike_id": "409551ab25d0043e6d54d65a96cbfe77", "fusion_lon": 0.0}, {"rental_uris": {"ios": "https://dc.lft.to/lastmile_qr_scan", "android": "https://dc.lft.to/lastmile_qr_scan"}, "type": "electric_scooter", "name": "abfc10c32ca93e3c7c2239c9eccaf36e", "is_reserved": 0, "lon": -77.03180683333333, "is_disabled": 0, "fusion_lat": 0.0, "lat": 38.913524, "bike_id": "abfc10c32ca93e3c7c2239c9eccaf36e", "fusion_lon": 0.0}, {"rental_uris": {"ios": "https://dc.lft.to/lastmile_qr_scan", "android": "https://dc.lft.to/lastmile_qr_scan"}, "type": "electric_scooter", "name": "68d09eecbbffb4464abf4c749508a4d3", "is_reserved": 0, "lon": -77.03210783333333, "is_disabled": 0, "fusion_lat": 0.0, "lat": 38.8934015, "bike_id": "68d09eecbbffb4464abf4c749508a4d3", "fusion_lon": 0.0}, {"rental_uris": {"ios": "https://dc.lft.to/lastmile_qr_scan", "android": "https://dc.lft.to/lastmile_qr_scan"}, "type": "electric_scooter", "name": "f8c55cc2f5cb6c02abf3a4202ffa307c", "is_reserved": 0, "lon": -76.99143466666666, "is_disabled": 0, "fusion_lat": 0.0, "lat": 38.843025, "bike_id": "f8c55cc2f5cb6c02abf3a4202ffa307c", "fusion_lon": 0.0}, {"rental_uris": {"ios": "https://dc.lft.to/lastmile_qr_scan", "android": "https://dc.lft.to/lastmile_qr_scan"}, "type": "electric_scooter", "name": "02a2a58ee21b5ad2d733c2e8b4382eaa", "is_reserved": 0, "lon": -76.994852, "is_disabled": 0, "fusion_lat": 0.0, "lat": 38.86215933333333, "bike_id": "02a2a58ee21b5ad2d733c2e8b4382eaa", "fusion_lon": 0.0}, {"rental_uris": {"ios": "https://dc.lft.to/lastmile_qr_scan", "android": "https://dc.lft.to/lastmile_qr_scan"}, "type": "electric_scooter", "name": "ea6a1b69effe87c6f264e71bd5c02e59", "is_reserved": 0, "lon": -77.04679016666667, "is_disabled": 0, "fusion_lat": 0.0, "lat": 38.90946016666667, "bike_id": "ea6a1b69effe87c6f264e71bd5c02e59", "fusion_lon": 0.0}, {"rental_uris": {"ios": "https://dc.lft.to/lastmile_qr_scan", "android": "https://dc.lft.to/lastmile_qr_scan"}, "type": "electric_scooter", "name": "45ed276aa460ec85124bfcbf458e6a61", "is_reserved": 0, "lon": -77.021557, "is_disabled": 0, "fusion_lat": 0.0, "lat": 38.887477833333335, "bike_id": "45ed276aa460ec85124bfcbf458e6a61", "fusion_lon": 0.0}, {"rental_uris": {"ios": "https://dc.lft.to/lastmile_qr_scan", "android": "https://dc.lft.to/lastmile_qr_scan"}, "type": "electric_scooter", "name": "9a8aa0c3940e865a4c8c843342629a59", "is_reserved": 0, "lon": -77.021064, "is_disabled": 0, "fusion_lat": 0.0, "lat": 38.90610983333333, "bike_id": "9a8aa0c3940e865a4c8c843342629a59", "fusion_lon": 0.0}, {"rental_uris": {"ios": "https://dc.lft.to/lastmile_qr_scan", "android": "https://dc.lft.to/lastmile_qr_scan"}, "type": "electric_scooter", "name": "b0db1b1c869835d128ea8855c5c3e5b4", "is_reserved": 0, "lon": -77.02480116666666, "is_disabled": 0, "fusion_lat": 0.0, "lat": 38.91819316666667, "bike_id": "b0db1b1c869835d128ea8855c5c3e5b4", "fusion_lon": 0.0}, {"rental_uris": {"ios": "https://dc.lft.to/lastmile_qr_scan", "android": "https://dc.lft.to/lastmile_qr_scan"}, "type": "electric_scooter", "name": "6e8709f7a806665d8b87213d1d7693a4", "is_reserved": 0, "lon": -76.99319933333334, "is_disabled": 0, "fusion_lat": 0.0, "lat": 38.92014666666667, "bike_id": "6e8709f7a806665d8b87213d1d7693a4", "fusion_lon": 0.0}, {"rental_uris": {"ios": "https://dc.lft.to/lastmile_qr_scan", "android": "https://dc.lft.to/lastmile_qr_scan"}, "type": "electric_scooter", "name": "a8f834f4d698caa94bab336326d5a6f0", "is_reserved": 0, "lon": -77.02439533333333, "is_disabled": 0, "fusion_lat": 0.0, "lat": 38.87975183333333, "bike_id": "a8f834f4d698caa94bab336326d5a6f0", "fusion_lon": 0.0}, {"rental_uris": {"ios": "https://dc.lft.to/lastmile_qr_scan", "android": "https://dc.lft.to/lastmile_qr_scan"}, "type": "electric_scooter", "name": "61026c868ca5761a592397834330c4d5", "is_reserved": 0, "lon": -77.0576405, "is_disabled": 0, "fusion_lat": 0.0, "lat": 38.92451583333333, "bike_id": "61026c868ca5761a592397834330c4d5", "fusion_lon": 0.0}, {"rental_uris": {"ios": "https://dc.lft.to/lastmile_qr_scan", "android": "https://dc.lft.to/lastmile_qr_scan"}, "type": "electric_scooter", "name": "1653ccbfb08b89542fa2f21bd6a94eb4", "is_reserved": 0, "lon": -76.93190166666666, "is_disabled": 0, "fusion_lat": 0.0, "lat": 38.89886966666667, "bike_id": "1653ccbfb08b89542fa2f21bd6a94eb4", "fusion_lon": 0.0}, {"rental_uris": {"ios": "https://dc.lft.to/lastmile_qr_scan", "android": "https://dc.lft.to/lastmile_qr_scan"}, "type": "electric_scooter", "name": "f09fb12f2a9dee20e40d3bd920938961", "is_reserved": 0, "lon": -77.0216845, "is_disabled": 0, "fusion_lat": 0.0, "lat": 38.9200405, "bike_id": "f09fb12f2a9dee20e40d3bd920938961", "fusion_lon": 0.0}, {"rental_uris": {"ios": "https://dc.lft.to/lastmile_qr_scan", "android": "https://dc.lft.to/lastmile_qr_scan"}, "type": "electric_scooter", "name": "0e77cd7d80f3440fc9f697f365813421", "is_reserved": 0, "lon": -77.05167966666667, "is_disabled": 0, "fusion_lat": 0.0, "lat": 38.90313583333333, "bike_id": "0e77cd7d80f3440fc9f697f365813421", "fusion_lon": 0.0}, {"rental_uris": {"ios": "https://dc.lft.to/lastmile_qr_scan", "android": "https://dc.lft.to/lastmile_qr_scan"}, "type": "electric_scooter", "name": "ad77feae2cf15d5b4a764fdf01d9bd07", "is_reserved": 0, "lon": -77.06988016666666, "is_disabled": 0, "fusion_lat": 0.0, "lat": 38.955291333333335, "bike_id": "ad77feae2cf15d5b4a764fdf01d9bd07", "fusion_lon": 0.0}, {"rental_uris": {"ios": "https://dc.lft.to/lastmile_qr_scan", "android": "https://dc.lft.to/lastmile_qr_scan"}, "type": "electric_scooter", "name": "6ec3dd50427e7b77b5616bd604c3328a", "is_reserved": 0, "lon": -77.0383595, "is_disabled": 0, "fusion_lat": 0.0, "lat": 38.914959333333336, "bike_id": "6ec3dd50427e7b77b5616bd604c3328a", "fusion_lon": 0.0}, {"rental_uris": {"ios": "https://dc.lft.to/lastmile_qr_scan", "android": "https://dc.lft.to/lastmile_qr_scan"}, "type": "electric_scooter", "name": "1c4f5acc5472b330ecb85c929e256dca", "is_reserved": 0, "lon": -77.0185105, "is_disabled": 0, "fusion_lat": 0.0, "lat": 38.905414, "bike_id": "1c4f5acc5472b330ecb85c929e256dca", "fusion_lon": 0.0}, {"rental_uris": {"ios": "https://dc.lft.to/lastmile_qr_scan", "android": "https://dc.lft.to/lastmile_qr_scan"}, "type": "electric_scooter", "name": "2e5b8623a89cbb37355441bc7b1e7e47", "is_reserved": 0, "lon": -77.01108466666666, "is_disabled": 0, "fusion_lat": 0.0, "lat": 38.8949195, "bike_id": "2e5b8623a89cbb37355441bc7b1e7e47", "fusion_lon": 0.0}, {"rental_uris": {"ios": "https://dc.lft.to/lastmile_qr_scan", "android": "https://dc.lft.to/lastmile_qr_scan"}, "type": "electric_scooter", "name": "86c9c6d7d1350a0d4a906facc178f6ac", "is_reserved": 0, "lon": -77.01018716666667, "is_disabled": 0, "fusion_lat": 0.0, "lat": 38.91260783333333, "bike_id": "86c9c6d7d1350a0d4a906facc178f6ac", "fusion_lon": 0.0}, {"rental_uris": {"ios": "https://dc.lft.to/lastmile_qr_scan", "android": "https://dc.lft.to/lastmile_qr_scan"}, "type": "electric_scooter", "name": "3aaf50f910235817da5daf7fc9f65e35", "is_reserved": 0, "lon": -77.03219533333333, "is_disabled": 0, "fusion_lat": 0.0, "lat": 38.91639816666667, "bike_id": "3aaf50f910235817da5daf7fc9f65e35", "fusion_lon": 0.0}, {"rental_uris": {"ios": "https://dc.lft.to/lastmile_qr_scan", "android": "https://dc.lft.to/lastmile_qr_scan"}, "type": "electric_scooter", "name": "55ec7bc4a3a5029e6c39909e2a1631f6", "is_reserved": 0, "lon": -77.047378, "is_disabled": 0, "fusion_lat": 0.0, "lat": 38.89559116666667, "bike_id": "55ec7bc4a3a5029e6c39909e2a1631f6", "fusion_lon": 0.0}, {"rental_uris": {"ios": "https://dc.lft.to/lastmile_qr_scan", "android": "https://dc.lft.to/lastmile_qr_scan"}, "type": "electric_scooter", "name": "a5149c4ec94692834b128c6cbccde07a", "is_reserved": 0, "lon": -77.07213383333334, "is_disabled": 0, "fusion_lat": 0.0, "lat": 38.906858, "bike_id": "a5149c4ec94692834b128c6cbccde07a", "fusion_lon": 0.0}, {"rental_uris": {"ios": "https://dc.lft.to/lastmile_qr_scan", "android": "https://dc.lft.to/lastmile_qr_scan"}, "type": "electric_bike", "name": "8b33e67be94ec7491668573d6fc0a8cf", "is_reserved": 0, "lon": -76.97323933333334, "is_disabled": 0, "fusion_lat": 0.0, "lat": 38.85783633333333, "bike_id": "8b33e67be94ec7491668573d6fc0a8cf", "fusion_lon": 0.0}, {"rental_uris": {"ios": "https://dc.lft.to/lastmile_qr_scan", "android": "https://dc.lft.to/lastmile_qr_scan"}, "type": "electric_scooter", "name": "a7b15a502979b01722b178fd7962bbae", "is_reserved": 0, "lon": -77.00667166666666, "is_disabled": 0, "fusion_lat": 0.0, "lat": 38.906440333333336, "bike_id": "a7b15a502979b01722b178fd7962bbae", "fusion_lon": 0.0}, {"rental_uris": {"ios": "https://dc.lft.to/lastmile_qr_scan", "android": "https://dc.lft.to/lastmile_qr_scan"}, "type": "electric_scooter", "name": "ccd66792f67ad6c5e8ccba3bf8775a93", "is_reserved": 0, "lon": -77.05927383333334, "is_disabled": 0, "fusion_lat": 0.0, "lat": 38.90282216666667, "bike_id": "ccd66792f67ad6c5e8ccba3bf8775a93", "fusion_lon": 0.0}, {"rental_uris": {"ios": "https://dc.lft.to/lastmile_qr_scan", "android": "https://dc.lft.to/lastmile_qr_scan"}, "type": "electric_scooter", "name": "37ef3dea0cad8884fadd6702c21bedd5", "is_reserved": 0, "lon": -77.0564655, "is_disabled": 0, "fusion_lat": 0.0, "lat": 38.935979, "bike_id": "37ef3dea0cad8884fadd6702c21bedd5", "fusion_lon": 0.0}, {"rental_uris": {"ios": "https://dc.lft.to/lastmile_qr_scan", "android": "https://dc.lft.to/lastmile_qr_scan"}, "type": "electric_scooter", "name": "5d1e27ae259dee0d38563749f9323a45", "is_reserved": 0, "lon": -77.07863266666666, "is_disabled": 0, "fusion_lat": 0.0, "lat": 38.924653, "bike_id": "5d1e27ae259dee0d38563749f9323a45", "fusion_lon": 0.0}, {"rental_uris": {"ios": "https://dc.lft.to/lastmile_qr_scan", "android": "https://dc.lft.to/lastmile_qr_scan"}, "type": "electric_scooter", "name": "ef0226e53179126286353137da4d3dc7", "is_reserved": 0, "lon": -77.0363425, "is_disabled": 0, "fusion_lat": 0.0, "lat": 38.925952833333334, "bike_id": "ef0226e53179126286353137da4d3dc7", "fusion_lon": 0.0}, {"rental_uris": {"ios": "https://dc.lft.to/lastmile_qr_scan", "android": "https://dc.lft.to/lastmile_qr_scan"}, "type": "electric_scooter", "name": "321e62b7f5e70f8fb46aa03714aeb1f2", "is_reserved": 0, "lon": -77.03280316666667, "is_disabled": 0, "fusion_lat": 0.0, "lat": 38.919946333333336, "bike_id": "321e62b7f5e70f8fb46aa03714aeb1f2", "fusion_lon": 0.0}, {"rental_uris": {"ios": "https://dc.lft.to/lastmile_qr_scan", "android": "https://dc.lft.to/lastmile_qr_scan"}, "type": "electric_scooter", "name": "9eacc505dba72da7a2eac3c59e7b7b68", "is_reserved": 0, "lon": -77.018411, "is_disabled": 0, "fusion_lat": 0.0, "lat": 38.90961633333333, "bike_id": "9eacc505dba72da7a2eac3c59e7b7b68", "fusion_lon": 0.0}, {"rental_uris": {"ios": "https://dc.lft.to/lastmile_qr_scan", "android": "https://dc.lft.to/lastmile_qr_scan"}, "type": "electric_scooter", "name": "b37f568965fb137d5404ec4ed0324712", "is_reserved": 0, "lon": -77.03851016666667, "is_disabled": 0, "fusion_lat": 0.0, "lat": 38.9166335, "bike_id": "b37f568965fb137d5404ec4ed0324712", "fusion_lon": 0.0}, {"rental_uris": {"ios": "https://dc.lft.to/lastmile_qr_scan", "android": "https://dc.lft.to/lastmile_qr_scan"}, "type": "electric_scooter", "name": "2835ed8af5639c93463b29a925553b1d", "is_reserved": 0, "lon": -77.03969516666666, "is_disabled": 0, "fusion_lat": 0.0, "lat": 38.89250533333333, "bike_id": "2835ed8af5639c93463b29a925553b1d", "fusion_lon": 0.0}, {"rental_uris": {"ios": "https://dc.lft.to/lastmile_qr_scan", "android": "https://dc.lft.to/lastmile_qr_scan"}, "type": "electric_scooter", "name": "d5ef11a1be9950af54af370851bf3ce8", "is_reserved": 0, "lon": -77.0366925, "is_disabled": 0, "fusion_lat": 0.0, "lat": 38.932082, "bike_id": "d5ef11a1be9950af54af370851bf3ce8", "fusion_lon": 0.0}, {"rental_uris": {"ios": "https://dc.lft.to/lastmile_qr_scan", "android": "https://dc.lft.to/lastmile_qr_scan"}, "type": "electric_scooter", "name": "20f3263c49028e3e1ddeb65f5c0d8354", "is_reserved": 0, "lon": -76.98614316666666, "is_disabled": 0, "fusion_lat": 0.0, "lat": 38.9382815, "bike_id": "20f3263c49028e3e1ddeb65f5c0d8354", "fusion_lon": 0.0}, {"rental_uris": {"ios": "https://dc.lft.to/lastmile_qr_scan", "android": "https://dc.lft.to/lastmile_qr_scan"}, "type": "electric_scooter", "name": "636617c65d8dd3b22cc208e12550e3c1", "is_reserved": 0, "lon": -77.04696233333334, "is_disabled": 0, "fusion_lat": 0.0, "lat": 38.8973785, "bike_id": "636617c65d8dd3b22cc208e12550e3c1", "fusion_lon": 0.0}, {"rental_uris": {"ios": "https://dc.lft.to/lastmile_qr_scan", "android": "https://dc.lft.to/lastmile_qr_scan"}, "type": "electric_scooter", "name": "d51040548914642a88a5b8f013b53cd3", "is_reserved": 0, "lon": -77.046569, "is_disabled": 0, "fusion_lat": 0.0, "lat": 38.8934585, "bike_id": "d51040548914642a88a5b8f013b53cd3", "fusion_lon": 0.0}, {"rental_uris": {"ios": "https://dc.lft.to/lastmile_qr_scan", "android": "https://dc.lft.to/lastmile_qr_scan"}, "type": "electric_scooter", "name": "2431405462f417d3695af6f3dc566a66", "is_reserved": 0, "lon": -76.99638216666666, "is_disabled": 0, "fusion_lat": 0.0, "lat": 38.88769383333333, "bike_id": "2431405462f417d3695af6f3dc566a66", "fusion_lon": 0.0}, {"rental_uris": {"ios": "https://dc.lft.to/lastmile_qr_scan", "android": "https://dc.lft.to/lastmile_qr_scan"}, "type": "electric_scooter", "name": "717863cca676425191fcc0fa3ad82b00", "is_reserved": 0, "lon": -77.0076685, "is_disabled": 0, "fusion_lat": 0.0, "lat": 38.909722, "bike_id": "717863cca676425191fcc0fa3ad82b00", "fusion_lon": 0.0}, {"rental_uris": {"ios": "https://dc.lft.to/lastmile_qr_scan", "android": "https://dc.lft.to/lastmile_qr_scan"}, "type": "electric_scooter", "name": "fc3dbda76fb656a4d8daae9ed175500d", "is_reserved": 0, "lon": -77.02166633333333, "is_disabled": 0, "fusion_lat": 0.0, "lat": 38.91995, "bike_id": "fc3dbda76fb656a4d8daae9ed175500d", "fusion_lon": 0.0}, {"rental_uris": {"ios": "https://dc.lft.to/lastmile_qr_scan", "android": "https://dc.lft.to/lastmile_qr_scan"}, "type": "electric_scooter", "name": "76b6d011036375fe4ef729954b365f97", "is_reserved": 0, "lon": -77.025149, "is_disabled": 0, "fusion_lat": 0.0, "lat": 38.920191333333335, "bike_id": "76b6d011036375fe4ef729954b365f97", "fusion_lon": 0.0}, {"rental_uris": {"ios": "https://dc.lft.to/lastmile_qr_scan", "android": "https://dc.lft.to/lastmile_qr_scan"}, "type": "electric_scooter", "name": "9c07dd2249910da486a305f2386e1282", "is_reserved": 0, "lon": -77.04684566666667, "is_disabled": 0, "fusion_lat": 0.0, "lat": 38.90611483333333, "bike_id": "9c07dd2249910da486a305f2386e1282", "fusion_lon": 0.0}, {"rental_uris": {"ios": "https://dc.lft.to/lastmile_qr_scan", "android": "https://dc.lft.to/lastmile_qr_scan"}, "type": "electric_bike", "name": "37fc40eaa6ab32b1265754011c64473a", "is_reserved": 0, "lon": -76.98090816666667, "is_disabled": 0, "fusion_lat": 0.0, "lat": 38.953595166666666, "bike_id": "37fc40eaa6ab32b1265754011c64473a", "fusion_lon": 0.0}, {"rental_uris": {"ios": "https://dc.lft.to/lastmile_qr_scan", "android": "https://dc.lft.to/lastmile_qr_scan"}, "type": "electric_bike", "name": "ca0936df191cbd2e44e043c7e6dfc2b6", "is_reserved": 0, "lon": -76.99548083333333, "is_disabled": 0, "fusion_lat": 0.0, "lat": 38.83158133333333, "bike_id": "ca0936df191cbd2e44e043c7e6dfc2b6", "fusion_lon": 0.0}, {"rental_uris": {"ios": "https://dc.lft.to/lastmile_qr_scan", "android": "https://dc.lft.to/lastmile_qr_scan"}, "type": "electric_scooter", "name": "754a24da2e4cf0ec0b922031847a86ba", "is_reserved": 0, "lon": -77.01517416666667, "is_disabled": 0, "fusion_lat": 0.0, "lat": 38.88734066666667, "bike_id": "754a24da2e4cf0ec0b922031847a86ba", "fusion_lon": 0.0}, {"rental_uris": {"ios": "https://dc.lft.to/lastmile_qr_scan", "android": "https://dc.lft.to/lastmile_qr_scan"}, "type": "electric_scooter", "name": "ed8792d88be41396fa2c27becd7f274f", "is_reserved": 0, "lon": -77.00568083333333, "is_disabled": 0, "fusion_lat": 0.0, "lat": 38.87556766666667, "bike_id": "ed8792d88be41396fa2c27becd7f274f", "fusion_lon": 0.0}, {"rental_uris": {"ios": "https://dc.lft.to/lastmile_qr_scan", "android": "https://dc.lft.to/lastmile_qr_scan"}, "type": "electric_scooter", "name": "6b63937a585158ef74cadc61b6380716", "is_reserved": 0, "lon": -76.97936833333333, "is_disabled": 0, "fusion_lat": 0.0, "lat": 38.90659266666667, "bike_id": "6b63937a585158ef74cadc61b6380716", "fusion_lon": 0.0}, {"rental_uris": {"ios": "https://dc.lft.to/lastmile_qr_scan", "android": "https://dc.lft.to/lastmile_qr_scan"}, "type": "electric_scooter", "name": "796580752b7fae266b8dafaeeb8e8c7b", "is_reserved": 0, "lon": -76.95287033333334, "is_disabled": 0, "fusion_lat": 0.0, "lat": 38.890253333333334, "bike_id": "796580752b7fae266b8dafaeeb8e8c7b", "fusion_lon": 0.0}, {"rental_uris": {"ios": "https://dc.lft.to/lastmile_qr_scan", "android": "https://dc.lft.to/lastmile_qr_scan"}, "type": "electric_scooter", "name": "76a9af634a62fbfbb5f817ac396b69e6", "is_reserved": 0, "lon": -76.98357783333333, "is_disabled": 0, "fusion_lat": 0.0, "lat": 38.887488, "bike_id": "76a9af634a62fbfbb5f817ac396b69e6", "fusion_lon": 0.0}, {"rental_uris": {"ios": "https://dc.lft.to/lastmile_qr_scan", "android": "https://dc.lft.to/lastmile_qr_scan"}, "type": "electric_scooter", "name": "fbb10fcc21699132e448a2ff863039d3", "is_reserved": 0, "lon": -77.04872033333334, "is_disabled": 0, "fusion_lat": 0.0, "lat": 38.90912983333333, "bike_id": "fbb10fcc21699132e448a2ff863039d3", "fusion_lon": 0.0}, {"rental_uris": {"ios": "https://dc.lft.to/lastmile_qr_scan", "android": "https://dc.lft.to/lastmile_qr_scan"}, "type": "electric_scooter", "name": "19a8239a02f24cfd8050c0369cb3d0f2", "is_reserved": 0, "lon": -77.04870266666667, "is_disabled": 0, "fusion_lat": 0.0, "lat": 38.911027, "bike_id": "19a8239a02f24cfd8050c0369cb3d0f2", "fusion_lon": 0.0}, {"rental_uris": {"ios": "https://dc.lft.to/lastmile_qr_scan", "android": "https://dc.lft.to/lastmile_qr_scan"}, "type": "electric_scooter", "name": "12a83437e468a8c9f115616c7a815ec0", "is_reserved": 0, "lon": -77.02256233333334, "is_disabled": 0, "fusion_lat": 0.0, "lat": 38.895002, "bike_id": "12a83437e468a8c9f115616c7a815ec0", "fusion_lon": 0.0}, {"rental_uris": {"ios": "https://dc.lft.to/lastmile_qr_scan", "android": "https://dc.lft.to/lastmile_qr_scan"}, "type": "electric_scooter", "name": "94de8fd1d1ef99c19f46a120d18302f5", "is_reserved": 0, "lon": -77.03468566666666, "is_disabled": 0, "fusion_lat": 0.0, "lat": 38.91726116666667, "bike_id": "94de8fd1d1ef99c19f46a120d18302f5", "fusion_lon": 0.0}, {"rental_uris": {"ios": "https://dc.lft.to/lastmile_qr_scan", "android": "https://dc.lft.to/lastmile_qr_scan"}, "type": "electric_bike", "name": "f9be5da4b00999010a58b54ed6925963", "is_reserved": 0, "lon": -76.98693216666666, "is_disabled": 0, "fusion_lat": 0.0, "lat": 38.9447925, "bike_id": "f9be5da4b00999010a58b54ed6925963", "fusion_lon": 0.0}, {"rental_uris": {"ios": "https://dc.lft.to/lastmile_qr_scan", "android": "https://dc.lft.to/lastmile_qr_scan"}, "type": "electric_scooter", "name": "33b7c7cb153ead3b2a97b9f89fcbbbfb", "is_reserved": 0, "lon": -76.99915933333334, "is_disabled": 0, "fusion_lat": 0.0, "lat": 38.9374945, "bike_id": "33b7c7cb153ead3b2a97b9f89fcbbbfb", "fusion_lon": 0.0}, {"rental_uris": {"ios": "https://dc.lft.to/lastmile_qr_scan", "android": "https://dc.lft.to/lastmile_qr_scan"}, "type": "electric_scooter", "name": "d8bb061fda632de1d740fe33d6565fa3", "is_reserved": 0, "lon": -77.04080883333333, "is_disabled": 0, "fusion_lat": 0.0, "lat": 38.91719166666667, "bike_id": "d8bb061fda632de1d740fe33d6565fa3", "fusion_lon": 0.0}, {"rental_uris": {"ios": "https://dc.lft.to/lastmile_qr_scan", "android": "https://dc.lft.to/lastmile_qr_scan"}, "type": "electric_scooter", "name": "4f9b54021bdc9827eaca20f1577da58c", "is_reserved": 0, "lon": -77.03384433333333, "is_disabled": 0, "fusion_lat": 0.0, "lat": 38.90141, "bike_id": "4f9b54021bdc9827eaca20f1577da58c", "fusion_lon": 0.0}, {"rental_uris": {"ios": "https://dc.lft.to/lastmile_qr_scan", "android": "https://dc.lft.to/lastmile_qr_scan"}, "type": "electric_scooter", "name": "1cb3e98b3b7e490fa7930cf41c073822", "is_reserved": 0, "lon": -77.0239315, "is_disabled": 0, "fusion_lat": 0.0, "lat": 38.9200435, "bike_id": "1cb3e98b3b7e490fa7930cf41c073822", "fusion_lon": 0.0}, {"rental_uris": {"ios": "https://dc.lft.to/lastmile_qr_scan", "android": "https://dc.lft.to/lastmile_qr_scan"}, "type": "electric_scooter", "name": "1bf46745bd7cecfedff4ecdf043deff5", "is_reserved": 0, "lon": -77.00928633333334, "is_disabled": 0, "fusion_lat": 0.0, "lat": 38.874511, "bike_id": "1bf46745bd7cecfedff4ecdf043deff5", "fusion_lon": 0.0}, {"rental_uris": {"ios": "https://dc.lft.to/lastmile_qr_scan", "android": "https://dc.lft.to/lastmile_qr_scan"}, "type": "electric_scooter", "name": "3274891e42d2c9ef7acc6d156d17a53a", "is_reserved": 0, "lon": -76.9862, "is_disabled": 0, "fusion_lat": 0.0, "lat": 38.9073605, "bike_id": "3274891e42d2c9ef7acc6d156d17a53a", "fusion_lon": 0.0}, {"rental_uris": {"ios": "https://dc.lft.to/lastmile_qr_scan", "android": "https://dc.lft.to/lastmile_qr_scan"}, "type": "electric_scooter", "name": "0e4ba59dad591e6a9add3f7597be07c1", "is_reserved": 0, "lon": -77.02717566666666, "is_disabled": 0, "fusion_lat": 0.0, "lat": 38.909003, "bike_id": "0e4ba59dad591e6a9add3f7597be07c1", "fusion_lon": 0.0}, {"rental_uris": {"ios": "https://dc.lft.to/lastmile_qr_scan", "android": "https://dc.lft.to/lastmile_qr_scan"}, "type": "electric_bike", "name": "7c1cc98365a3406bd5597bd1241f93a5", "is_reserved": 0, "lon": -76.968915, "is_disabled": 0, "fusion_lat": 0.0, "lat": 38.86987416666667, "bike_id": "7c1cc98365a3406bd5597bd1241f93a5", "fusion_lon": 0.0}, {"rental_uris": {"ios": "https://dc.lft.to/lastmile_qr_scan", "android": "https://dc.lft.to/lastmile_qr_scan"}, "type": "electric_scooter", "name": "d9a783797d3dc4ec605c077da069fb4a", "is_reserved": 0, "lon": -77.049699, "is_disabled": 0, "fusion_lat": 0.0, "lat": 38.9030795, "bike_id": "d9a783797d3dc4ec605c077da069fb4a", "fusion_lon": 0.0}, {"rental_uris": {"ios": "https://dc.lft.to/lastmile_qr_scan", "android": "https://dc.lft.to/lastmile_qr_scan"}, "type": "electric_scooter", "name": "8a438a2785e9da2284a53c63c967b97e", "is_reserved": 0, "lon": -76.9914495, "is_disabled": 0, "fusion_lat": 0.0, "lat": 38.87338183333333, "bike_id": "8a438a2785e9da2284a53c63c967b97e", "fusion_lon": 0.0}, {"rental_uris": {"ios": "https://dc.lft.to/lastmile_qr_scan", "android": "https://dc.lft.to/lastmile_qr_scan"}, "type": "electric_scooter", "name": "626d1b439289f85436fe15ba5bfb7e1e", "is_reserved": 0, "lon": -77.04001766666667, "is_disabled": 0, "fusion_lat": 0.0, "lat": 38.93428683333333, "bike_id": "626d1b439289f85436fe15ba5bfb7e1e", "fusion_lon": 0.0}, {"rental_uris": {"ios": "https://dc.lft.to/lastmile_qr_scan", "android": "https://dc.lft.to/lastmile_qr_scan"}, "type": "electric_scooter", "name": "22f2f1e2b2bd39350ccaa812eb43bf8a", "is_reserved": 0, "lon": -77.01369583333333, "is_disabled": 0, "fusion_lat": 0.0, "lat": 38.91271866666666, "bike_id": "22f2f1e2b2bd39350ccaa812eb43bf8a", "fusion_lon": 0.0}, {"rental_uris": {"ios": "https://dc.lft.to/lastmile_qr_scan", "android": "https://dc.lft.to/lastmile_qr_scan"}, "type": "electric_scooter", "name": "ae1fe05ca162a7efbf6fd123abc9e737", "is_reserved": 0, "lon": -77.03291383333334, "is_disabled": 0, "fusion_lat": 0.0, "lat": 38.93254266666667, "bike_id": "ae1fe05ca162a7efbf6fd123abc9e737", "fusion_lon": 0.0}, {"rental_uris": {"ios": "https://dc.lft.to/lastmile_qr_scan", "android": "https://dc.lft.to/lastmile_qr_scan"},