{"data": {"bikes": [{"is_disabled": 0, "is_reserved": 0, "fusion_lat": 0.0, "lat": 38.91387983333333, "fusion_lon": 0.0, "rental_uris": {"ios": "https://dc.lft.to/lastmile_qr_scan", "android": "https://dc.lft.to/lastmile_qr_scan"}, "lon": -77.03207716666667, "bike_id": "4931bd652b0dd3db1d71e8c9292de827", "type": "electric_scooter", "name": "4931bd652b0dd3db1d71e8c9292de827"}, {"is_disabled": 0, "is_reserved": 0, "fusion_lat": 0.0, "lat": 38.908109, "fusion_lon": 0.0, "rental_uris": {"ios": "https://dc.lft.to/lastmile_qr_scan", "android": "https://dc.lft.to/lastmile_qr_scan"}, "lon": -77.03449533333334, "bike_id": "84427fea6099183d20d338102c682589", "type": "electric_scooter", "name": "84427fea6099183d20d338102c682589"}, {"is_disabled": 0, "is_reserved": 0, "fusion_lat": 0.0, "lat": 38.900394166666665, "fusion_lon": 0.0, "rental_uris": {"ios": "https://dc.lft.to/lastmile_qr_scan", "android": "https://dc.lft.to/lastmile_qr_scan"}, "lon": -76.991521, "bike_id": "a1552eb30a8868d77cf96496d7836ef0", "type": "electric_bike", "name": "a1552eb30a8868d77cf96496d7836ef0"}, {"is_disabled": 0, "is_reserved": 0, "fusion_lat": 0.0, "lat": 38.892075, "fusion_lon": 0.0, "rental_uris": {"ios": "https://dc.lft.to/lastmile_qr_scan", "android": "https://dc.lft.to/lastmile_qr_scan"}, "lon": -76.92922866666666, "bike_id": "5ecfc1919dc8af02f9bf84e9cd0b9c7d", "type": "electric_scooter", "name": "5ecfc1919dc8af02f9bf84e9cd0b9c7d"}, {"is_disabled": 0, "is_reserved": 0, "fusion_lat": 0.0, "lat": 38.948374, "fusion_lon": 0.0, "rental_uris": {"ios": "https://dc.lft.to/lastmile_qr_scan", "android": "https://dc.lft.to/lastmile_qr_scan"}, "lon": -77.05433333333333, "bike_id": "5d5a8743828ffc1295e9fac104e02f6e", "type": "electric_bike", "name": "5d5a8743828ffc1295e9fac104e02f6e"}, {"is_disabled": 0, "is_reserved": 0, "fusion_lat": 0.0, "lat": 38.926146833333334, "fusion_lon": 0.0, "rental_uris": {"ios": "https://dc.lft.to/lastmile_qr_scan", "android": "https://dc.lft.to/lastmile_qr_scan"}, "lon": -77.02161716666667, "bike_id": "647697f2b9befd81f314fc444b4a76f5", "type": "electric_scooter", "name": "647697f2b9befd81f314fc444b4a76f5"}, {"is_disabled": 0, "is_reserved": 0, "fusion_lat": 0.0, "lat": 38.91677, "fusion_lon": 0.0, "rental_uris": {"ios": "https://dc.lft.to/lastmile_qr_scan", "android": "https://dc.lft.to/lastmile_qr_scan"}, "lon": -77.036885, "bike_id": "47527ed29108da003c77df1ead5e6fe9", "type": "electric_scooter", "name": "47527ed29108da003c77df1ead5e6fe9"}, {"is_disabled": 0, "is_reserved": 0, "fusion_lat": 0.0, "lat": 38.89400083333334, "fusion_lon": 0.0, "rental_uris": {"ios": "https://dc.lft.to/lastmile_qr_scan", "android": "https://dc.lft.to/lastmile_qr_scan"}, "lon": -77.02370083333334, "bike_id": "dc5aaaf97e4b1dd380249bc7c280b07b", "type": "electric_scooter", "name": "dc5aaaf97e4b1dd380249bc7c280b07b"}, {"is_disabled": 0, "is_reserved": 0, "fusion_lat": 0.0, "lat": 38.8898655, "fusion_lon": 0.0, "rental_uris": {"ios": "https://dc.lft.to/lastmile_qr_scan", "android": "https://dc.lft.to/lastmile_qr_scan"}, "lon": -76.988145, "bike_id": "47b7fedf8f58fb697011d4d1f7d5ea73", "type": "electric_scooter", "name": "47b7fedf8f58fb697011d4d1f7d5ea73"}, {"is_disabled": 0, "is_reserved": 0, "fusion_lat": 0.0, "lat": 38.9278815, "fusion_lon": 0.0, "rental_uris": {"ios": "https://dc.lft.to/lastmile_qr_scan", "android": "https://dc.lft.to/lastmile_qr_scan"}, "lon": -77.03144366666666, "bike_id": "f07840e016c10b485c5b17b5c1fee5eb", "type": "electric_scooter", "name": "f07840e016c10b485c5b17b5c1fee5eb"}, {"is_disabled": 0, "is_reserved": 0, "fusion_lat": 0.0, "lat": 38.91816083333333, "fusion_lon": 0.0, "rental_uris": {"ios": "https://dc.lft.to/lastmile_qr_scan", "android": "https://dc.lft.to/lastmile_qr_scan"}, "lon": -77.03446983333333, "bike_id": "82a5c423532f19071356512ade0d86e1", "type": "electric_bike", "name": "82a5c423532f19071356512ade0d86e1"}, {"is_disabled": 0, "is_reserved": 0, "fusion_lat": 0.0, "lat": 38.881119166666664, "fusion_lon": 0.0, "rental_uris": {"ios": "https://dc.lft.to/lastmile_qr_scan", "android": "https://dc.lft.to/lastmile_qr_scan"}, "lon": -77.02623583333333, "bike_id": "9b91cdeff2ceb375d91cf4bb5d08ecd5", "type": "electric_scooter", "name": "9b91cdeff2ceb375d91cf4bb5d08ecd5"}, {"is_disabled": 0, "is_reserved": 0, "fusion_lat": 0.0, "lat": 38.89840433333333, "fusion_lon": 0.0, "rental_uris": {"ios": "https://dc.lft.to/lastmile_qr_scan", "android": "https://dc.lft.to/lastmile_qr_scan"}, "lon": -76.988223, "bike_id": "afca16d82c3f0fd295855fff50824871", "type": "electric_scooter", "name": "afca16d82c3f0fd295855fff50824871"}, {"is_disabled": 0, "is_reserved": 0, "fusion_lat": 0.0, "lat": 38.87677933333333, "fusion_lon": 0.0, "rental_uris": {"ios": "https://dc.lft.to/lastmile_qr_scan", "android": "https://dc.lft.to/lastmile_qr_scan"}, "lon": -77.00309683333333, "bike_id": "fcb1e462a3814f20fd537870bfc6444c", "type": "electric_scooter", "name": "fcb1e462a3814f20fd537870bfc6444c"}, {"is_disabled": 0, "is_reserved": 0, "fusion_lat": 0.0, "lat": 38.898738333333334, "fusion_lon": 0.0, "rental_uris": {"ios": "https://dc.lft.to/lastmile_qr_scan", "android": "https://dc.lft.to/lastmile_qr_scan"}, "lon": -77.04665316666667, "bike_id": "78b4fe5180eb207482fa0db48d3f67e6", "type": "electric_scooter", "name": "78b4fe5180eb207482fa0db48d3f67e6"}, {"is_disabled": 0, "is_reserved": 0, "fusion_lat": 0.0, "lat": 38.895115, "fusion_lon": 0.0, "rental_uris": {"ios": "https://dc.lft.to/lastmile_qr_scan", "android": "https://dc.lft.to/lastmile_qr_scan"}, "lon": -77.022877, "bike_id": "2de4df5c1bdfeaaca14e452b4d38dd45", "type": "electric_scooter", "name": "2de4df5c1bdfeaaca14e452b4d38dd45"}, {"is_disabled": 0, "is_reserved": 0, "fusion_lat": 0.0, "lat": 38.93749016666666, "fusion_lon": 0.0, "rental_uris": {"ios": "https://dc.lft.to/lastmile_qr_scan", "android": "https://dc.lft.to/lastmile_qr_scan"}, "lon": -77.02449716666666, "bike_id": "0a87a2081fc8ab3319846089301ceab4", "type": "electric_scooter", "name": "0a87a2081fc8ab3319846089301ceab4"}, {"is_disabled": 0, "is_reserved": 0, "fusion_lat": 0.0, "lat": 38.898592, "fusion_lon": 0.0, "rental_uris": {"ios": "https://dc.lft.to/lastmile_qr_scan", "android": "https://dc.lft.to/lastmile_qr_scan"}, "lon": -77.0190125, "bike_id": "52f2f20c507bbd592615438a59e336fe", "type": "electric_scooter", "name": "52f2f20c507bbd592615438a59e336fe"}, {"is_disabled": 0, "is_reserved": 0, "fusion_lat": 0.0, "lat": 38.927650166666666, "fusion_lon": 0.0, "rental_uris": {"ios": "https://dc.lft.to/lastmile_qr_scan", "android": "https://dc.lft.to/lastmile_qr_scan"}, "lon": -77.0324735, "bike_id": "adc15f1c859ea9f28628c5d46b3dc4dc", "type": "electric_scooter", "name": "adc15f1c859ea9f28628c5d46b3dc4dc"}, {"is_disabled": 0, "is_reserved": 0, "fusion_lat": 0.0, "lat": 38.903755, "fusion_lon": 0.0, "rental_uris": {"ios": "https://dc.lft.to/lastmile_qr_scan", "android": "https://dc.lft.to/lastmile_qr_scan"}, "lon": -77.05196033333333, "bike_id": "ed74575b62db1e25543ab674c52c6e74", "type": "electric_scooter", "name": "ed74575b62db1e25543ab674c52c6e74"}, {"is_disabled": 0, "is_reserved": 0, "fusion_lat": 0.0, "lat": 38.80477316666666, "fusion_lon": 0.0, "rental_uris": {"ios": "https://dc.lft.to/lastmile_qr_scan", "android": "https://dc.lft.to/lastmile_qr_scan"}, "lon": -76.99108916666667, "bike_id": "02336d79afe3a5ff0e07490dadf27e7a", "type": "electric_bike", "name": "02336d79afe3a5ff0e07490dadf27e7a"}, {"is_disabled": 0, "is_reserved": 0, "fusion_lat": 0.0, "lat": 38.906546166666665, "fusion_lon": 0.0, "rental_uris": {"ios": "https://dc.lft.to/lastmile_qr_scan", "android": "https://dc.lft.to/lastmile_qr_scan"}, "lon": -77.04177283333334, "bike_id": "a9d5a7bc7ecb28a4f827771e622c24f7", "type": "electric_scooter", "name": "a9d5a7bc7ecb28a4f827771e622c24f7"}, {"is_disabled": 0, "is_reserved": 0, "fusion_lat": 0.0, "lat": 38.917352666666666, "fusion_lon": 0.0, "rental_uris": {"ios": "https://dc.lft.to/lastmile_qr_scan", "android": "https://dc.lft.to/lastmile_qr_scan"}, "lon": -77.06897283333333, "bike_id": "5e1d68e0ebe7c72719b82b70e143c527", "type": "electric_scooter", "name": "5e1d68e0ebe7c72719b82b70e143c527"}, {"is_disabled": 0, "is_reserved": 0, "fusion_lat": 0.0, "lat": 38.9097425, "fusion_lon": 0.0, "rental_uris": {"ios": "https://dc.lft.to/lastmile_qr_scan", "android": "https://dc.lft.to/lastmile_qr_scan"}, "lon": -77.04595666666667, "bike_id": "8d2461b5868153478cefc891683f7d29", "type": "electric_scooter", "name": "8d2461b5868153478cefc891683f7d29"}, {"is_disabled": 0, "is_reserved": 0, "fusion_lat": 0.0, "lat": 38.893147, "fusion_lon": 0.0, "rental_uris": {"ios": "https://dc.lft.to/lastmile_qr_scan", "android": "https://dc.lft.to/lastmile_qr_scan"}, "lon": -77.0261255, "bike_id": "3a467a5757d193c75fedf21f92957827", "type": "electric_scooter", "name": "3a467a5757d193c75fedf21f92957827"}, {"is_disabled": 0, "is_reserved": 0, "fusion_lat": 0.0, "lat": 38.921412333333336, "fusion_lon": 0.0, "rental_uris": {"ios": "https://dc.lft.to/lastmile_qr_scan", "android": "https://dc.lft.to/lastmile_qr_scan"}, "lon": -77.04360266666667, "bike_id": "24731d9fefc2825a664946eba0c5e18e", "type": "electric_scooter", "name": "24731d9fefc2825a664946eba0c5e18e"}, {"is_disabled": 0, "is_reserved": 0, "fusion_lat": 0.0, "lat": 38.916836833333335, "fusion_lon": 0.0, "rental_uris": {"ios": "https://dc.lft.to/lastmile_qr_scan", "android": "https://dc.lft.to/lastmile_qr_scan"}, "lon": -77.0255775, "bike_id": "6454efa1125aa114e8f156fab21a28aa", "type": "electric_scooter", "name": "6454efa1125aa114e8f156fab21a28aa"}, {"is_disabled": 0, "is_reserved": 0, "fusion_lat": 0.0, "lat": 38.922182166666666, "fusion_lon": 0.0, "rental_uris": {"ios": "https://dc.lft.to/lastmile_qr_scan", "android": "https://dc.lft.to/lastmile_qr_scan"}, "lon": -77.07436483333333, "bike_id": "073d00f0adbbeffa234b5a93910286cd", "type": "electric_scooter", "name": "073d00f0adbbeffa234b5a93910286cd"}, {"is_disabled": 0, "is_reserved": 0, "fusion_lat": 0.0, "lat": 38.91693, "fusion_lon": 0.0, "rental_uris": {"ios": "https://dc.lft.to/lastmile_qr_scan", "android": "https://dc.lft.to/lastmile_qr_scan"}, "lon": -77.02599033333334, "bike_id": "7f424e9e0945328470acc9616b4d1ffe", "type": "electric_scooter", "name": "7f424e9e0945328470acc9616b4d1ffe"}, {"is_disabled": 0, "is_reserved": 0, "fusion_lat": 0.0, "lat": 38.9048345, "fusion_lon": 0.0, "rental_uris": {"ios": "https://dc.lft.to/lastmile_qr_scan", "android": "https://dc.lft.to/lastmile_qr_scan"}, "lon": -76.94966916666667, "bike_id": "dc061411754e10e80387ebd243608f9b", "type": "electric_scooter", "name": "dc061411754e10e80387ebd243608f9b"}, {"is_disabled": 0, "is_reserved": 0, "fusion_lat": 0.0, "lat": 38.96797016666667, "fusion_lon": 0.0, "rental_uris": {"ios": "https://dc.lft.to/lastmile_qr_scan", "android": "https://dc.lft.to/lastmile_qr_scan"}, "lon": -77.0255955, "bike_id": "7934d7738c7e1d4a49ee5d46f7258ed6", "type": "electric_scooter", "name": "7934d7738c7e1d4a49ee5d46f7258ed6"}, {"is_disabled": 0, "is_reserved": 0, "fusion_lat": 0.0, "lat": 38.917603166666666, "fusion_lon": 0.0, "rental_uris": {"ios": "https://dc.lft.to/lastmile_qr_scan", "android": "https://dc.lft.to/lastmile_qr_scan"}, "lon": -77.04761283333333, "bike_id": "1f73e24c7ca2aaefe1b462b8f8950905", "type": "electric_scooter", "name": "1f73e24c7ca2aaefe1b462b8f8950905"}, {"is_disabled": 0, "is_reserved": 0, "fusion_lat": 0.0, "lat": 38.901974833333334, "fusion_lon": 0.0, "rental_uris": {"ios": "https://dc.lft.to/lastmile_qr_scan", "android": "https://dc.lft.to/lastmile_qr_scan"}, "lon": -76.99956083333333, "bike_id": "93f115952dc5f71f66269c341db29bc4", "type": "electric_scooter", "name": "93f115952dc5f71f66269c341db29bc4"}, {"is_disabled": 0, "is_reserved": 0, "fusion_lat": 0.0, "lat": 38.901264166666664, "fusion_lon": 0.0, "rental_uris": {"ios": "https://dc.lft.to/lastmile_qr_scan", "android": "https://dc.lft.to/lastmile_qr_scan"}, "lon": -77.00355983333333, "bike_id": "c60effb3c7c30a4a6bfb9ce41ebaba26", "type": "electric_scooter", "name": "c60effb3c7c30a4a6bfb9ce41ebaba26"}, {"is_disabled": 0, "is_reserved": 0, "fusion_lat": 0.0, "lat": 38.8988025, "fusion_lon": 0.0, "rental_uris": {"ios": "https://dc.lft.to/lastmile_qr_scan", "android": "https://dc.lft.to/lastmile_qr_scan"}, "lon": -76.93174916666666, "bike_id": "345555b1e2ac41a502a27871ecd504c4", "type": "electric_scooter", "name": "345555b1e2ac41a502a27871ecd504c4"}, {"is_disabled": 0, "is_reserved": 0, "fusion_lat": 0.0, "lat": 38.9178535, "fusion_lon": 0.0, "rental_uris": {"ios": "https://dc.lft.to/lastmile_qr_scan", "android": "https://dc.lft.to/lastmile_qr_scan"}, "lon": -77.0409635, "bike_id": "7328bc2075bf7166c3cca87bd18e4532", "type": "electric_scooter", "name": "7328bc2075bf7166c3cca87bd18e4532"}, {"is_disabled": 0, "is_reserved": 0, "fusion_lat": 0.0, "lat": 38.96430383333333, "fusion_lon": 0.0, "rental_uris": {"ios": "https://dc.lft.to/lastmile_qr_scan", "android": "https://dc.lft.to/lastmile_qr_scan"}, "lon": -77.0742605, "bike_id": "616e87b7aa2d94ac02c86cefea07dc79", "type": "electric_scooter", "name": "616e87b7aa2d94ac02c86cefea07dc79"}, {"is_disabled": 0, "is_reserved": 0, "fusion_lat": 0.0, "lat": 38.89825533333333, "fusion_lon": 0.0, "rental_uris": {"ios": "https://dc.lft.to/lastmile_qr_scan", "android": "https://dc.lft.to/lastmile_qr_scan"}, "lon": -77.04638933333334, "bike_id": "aae272f901c82c7f9d1bd0a1ee0370cd", "type": "electric_scooter", "name": "aae272f901c82c7f9d1bd0a1ee0370cd"}, {"is_disabled": 0, "is_reserved": 0, "fusion_lat": 0.0, "lat": 38.8341145, "fusion_lon": 0.0, "rental_uris": {"ios": "https://dc.lft.to/lastmile_qr_scan", "android": "https://dc.lft.to/lastmile_qr_scan"}, "lon": -77.05007066666667, "bike_id": "607d6815d379f9b9568f06ab0061f017", "type": "electric_bike", "name": "607d6815d379f9b9568f06ab0061f017"}, {"is_disabled": 0, "is_reserved": 0, "fusion_lat": 0.0, "lat": 38.935623, "fusion_lon": 0.0, "rental_uris": {"ios": "https://dc.lft.to/lastmile_qr_scan", "android": "https://dc.lft.to/lastmile_qr_scan"}, "lon": -77.07361433333334, "bike_id": "bb562ce774bd29e430684d6680485e70", "type": "electric_scooter", "name": "bb562ce774bd29e430684d6680485e70"}, {"is_disabled": 0, "is_reserved": 0, "fusion_lat": 0.0, "lat": 38.9169545, "fusion_lon": 0.0, "rental_uris": {"ios": "https://dc.lft.to/lastmile_qr_scan", "android": "https://dc.lft.to/lastmile_qr_scan"}, "lon": -77.02372683333333, "bike_id": "e2af7015d9884b2022c83cdf698acaab", "type": "electric_scooter", "name": "e2af7015d9884b2022c83cdf698acaab"}, {"is_disabled": 0, "is_reserved": 0, "fusion_lat": 0.0, "lat": 38.906721, "fusion_lon": 0.0, "rental_uris": {"ios": "https://dc.lft.to/lastmile_qr_scan", "android": "https://dc.lft.to/lastmile_qr_scan"}, "lon": -77.0489015, "bike_id": "c37faf644d4b221e941dc2e9cd5bd086", "type": "electric_scooter", "name": "c37faf644d4b221e941dc2e9cd5bd086"}, {"is_disabled": 0, "is_reserved": 0, "fusion_lat": 0.0, "lat": 38.85716466666667, "fusion_lon": 0.0, "rental_uris": {"ios": "https://dc.lft.to/lastmile_qr_scan", "android": "https://dc.lft.to/lastmile_qr_scan"}, "lon": -76.98098, "bike_id": "4b90441513c645430aa3bcd21de29013", "type": "electric_scooter", "name": "4b90441513c645430aa3bcd21de29013"}, {"is_disabled": 0, "is_reserved": 0, "fusion_lat": 0.0, "lat": 38.90371733333333, "fusion_lon": 0.0, "rental_uris": {"ios": "https://dc.lft.to/lastmile_qr_scan", "android": "https://dc.lft.to/lastmile_qr_scan"}, "lon": -77.05371416666667, "bike_id": "6708056f3e07d9bdb540833aaeeb7937", "type": "electric_scooter", "name": "6708056f3e07d9bdb540833aaeeb7937"}, {"is_disabled": 0, "is_reserved": 0, "fusion_lat": 0.0, "lat": 38.928073, "fusion_lon": 0.0, "rental_uris": {"ios": "https://dc.lft.to/lastmile_qr_scan", "android": "https://dc.lft.to/lastmile_qr_scan"}, "lon": -77.2294415, "bike_id": "bb7008a9970bc0fb09c1f76c3a073463", "type": "electric_bike", "name": "bb7008a9970bc0fb09c1f76c3a073463"}, {"is_disabled": 0, "is_reserved": 0, "fusion_lat": 0.0, "lat": 38.91700133333333, "fusion_lon": 0.0, "rental_uris": {"ios": "https://dc.lft.to/lastmile_qr_scan", "android": "https://dc.lft.to/lastmile_qr_scan"}, "lon": -77.05300483333333, "bike_id": "6e49d351dd1d5514be62f48e9f43397d", "type": "electric_scooter", "name": "6e49d351dd1d5514be62f48e9f43397d"}, {"is_disabled": 0, "is_reserved": 0, "fusion_lat": 0.0, "lat": 38.885426833333334, "fusion_lon": 0.0, "rental_uris": {"ios": "https://dc.lft.to/lastmile_qr_scan", "android": "https://dc.lft.to/lastmile_qr_scan"}, "lon": -76.98539266666667, "bike_id": "d23fbad90aadd260e0dd9f5ea4d0b201", "type": "electric_scooter", "name": "d23fbad90aadd260e0dd9f5ea4d0b201"}, {"is_disabled": 0, "is_reserved": 0, "fusion_lat": 0.0, "lat": 38.921775333333336, "fusion_lon": 0.0, "rental_uris": {"ios": "https://dc.lft.to/lastmile_qr_scan", "android": "https://dc.lft.to/lastmile_qr_scan"}, "lon": -77.0210375, "bike_id": "b735b52dd5249575007e14d00928fe3a", "type": "electric_scooter", "name": "b735b52dd5249575007e14d00928fe3a"}, {"is_disabled": 0, "is_reserved": 0, "fusion_lat": 0.0, "lat": 38.923818833333335, "fusion_lon": 0.0, "rental_uris": {"ios": "https://dc.lft.to/lastmile_qr_scan", "android": "https://dc.lft.to/lastmile_qr_scan"}, "lon": -77.01924066666666, "bike_id": "0f9fcea072abc8842a3884efb22f1bfc", "type": "electric_scooter", "name": "0f9fcea072abc8842a3884efb22f1bfc"}, {"is_disabled": 0, "is_reserved": 0, "fusion_lat": 0.0, "lat": 38.910447166666664, "fusion_lon": 0.0, "rental_uris": {"ios": "https://dc.lft.to/lastmile_qr_scan", "android": "https://dc.lft.to/lastmile_qr_scan"}, "lon": -77.02200933333333, "bike_id": "fb9d426aa7c229e7fcf0f2c6be562307", "type": "electric_scooter", "name": "fb9d426aa7c229e7fcf0f2c6be562307"}, {"is_disabled": 0, "is_reserved": 0, "fusion_lat": 0.0, "lat": 38.932409666666665, "fusion_lon": 0.0, "rental_uris": {"ios": "https://dc.lft.to/lastmile_qr_scan", "android": "https://dc.lft.to/lastmile_qr_scan"}, "lon": -76.997066, "bike_id": "33ca5186758eb78e2d24a39568628d61", "type": "electric_scooter", "name": "33ca5186758eb78e2d24a39568628d61"}, {"is_disabled": 0, "is_reserved": 0, "fusion_lat": 0.0, "lat": 38.86082583333334, "fusion_lon": 0.0, "rental_uris": {"ios": "https://dc.lft.to/lastmile_qr_scan", "android": "https://dc.lft.to/lastmile_qr_scan"}, "lon": -76.98376666666667, "bike_id": "2a2d12668a8b8024ed2bb3d4fc5726eb", "type": "electric_scooter", "name": "2a2d12668a8b8024ed2bb3d4fc5726eb"}, {"is_disabled": 0, "is_reserved": 0, "fusion_lat": 0.0, "lat": 38.908776333333336, "fusion_lon": 0.0, "rental_uris": {"ios": "https://dc.lft.to/lastmile_qr_scan", "android": "https://dc.lft.to/lastmile_qr_scan"}, "lon": -77.0005395, "bike_id": "892b0d7265b4be672662cf56299f6351", "type": "electric_scooter", "name": "892b0d7265b4be672662cf56299f6351"}, {"is_disabled": 0, "is_reserved": 0, "fusion_lat": 0.0, "lat": 38.901247166666664, "fusion_lon": 0.0, "rental_uris": {"ios": "https://dc.lft.to/lastmile_qr_scan", "android": "https://dc.lft.to/lastmile_qr_scan"}, "lon": -76.99488133333334, "bike_id": "d6373d5723494d8179e928b9ab1b773f", "type": "electric_bike", "name": "d6373d5723494d8179e928b9ab1b773f"}, {"is_disabled": 0, "is_reserved": 0, "fusion_lat": 0.0, "lat": 38.91124883333333, "fusion_lon": 0.0, "rental_uris": {"ios": "https://dc.lft.to/lastmile_qr_scan", "android": "https://dc.lft.to/lastmile_qr_scan"}, "lon": -77.0043195, "bike_id": "ac2944228ce7d745513ca42b29e3eb7d", "type": "electric_scooter", "name": "ac2944228ce7d745513ca42b29e3eb7d"}, {"is_disabled": 0, "is_reserved": 0, "fusion_lat": 0.0, "lat": 38.919217333333336, "fusion_lon": 0.0, "rental_uris": {"ios": "https://dc.lft.to/lastmile_qr_scan", "android": "https://dc.lft.to/lastmile_qr_scan"}, "lon": -77.03107966666667, "bike_id": "155e06d86976095bf12d32ccecbe301c", "type": "electric_scooter", "name": "155e06d86976095bf12d32ccecbe301c"}, {"is_disabled": 0, "is_reserved": 0, "fusion_lat": 0.0, "lat": 38.9084585, "fusion_lon": 0.0, "rental_uris": {"ios": "https://dc.lft.to/lastmile_qr_scan", "android": "https://dc.lft.to/lastmile_qr_scan"}, "lon": -77.04364183333334, "bike_id": "c699b13811fb7c63547e471d695ed560", "type": "electric_scooter", "name": "c699b13811fb7c63547e471d695ed560"}, {"is_disabled": 0, "is_reserved": 0, "fusion_lat": 0.0, "lat": 38.92813966666667, "fusion_lon": 0.0, "rental_uris": {"ios": "https://dc.lft.to/lastmile_qr_scan", "android": "https://dc.lft.to/lastmile_qr_scan"}, "lon": -77.04356866666667, "bike_id": "4804ae73ae697a00905aa26b12700036", "type": "electric_scooter", "name": "4804ae73ae697a00905aa26b12700036"}, {"is_disabled": 0, "is_reserved": 0, "fusion_lat": 0.0, "lat": 38.85061783333333, "fusion_lon": 0.0, "rental_uris": {"ios": "https://dc.lft.to/lastmile_qr_scan", "android": "https://dc.lft.to/lastmile_qr_scan"}, "lon": -76.9582445, "bike_id": "cbb8d3f8edcfc93506f9d8a8fd314c19", "type": "electric_bike", "name": "cbb8d3f8edcfc93506f9d8a8fd314c19"}, {"is_disabled": 0, "is_reserved": 0, "fusion_lat": 0.0, "lat": 38.902490666666665, "fusion_lon": 0.0, "rental_uris": {"ios": "https://dc.lft.to/lastmile_qr_scan", "android": "https://dc.lft.to/lastmile_qr_scan"}, "lon": -77.00004166666666, "bike_id": "7e3a27c5e8448e3b9bbbc46018d42df0", "type": "electric_scooter", "name": "7e3a27c5e8448e3b9bbbc46018d42df0"}, {"is_disabled": 0, "is_reserved": 0, "fusion_lat": 0.0, "lat": 38.91692283333333, "fusion_lon": 0.0, "rental_uris": {"ios": "https://dc.lft.to/lastmile_qr_scan", "android": "https://dc.lft.to/lastmile_qr_scan"}, "lon": -77.02895916666667, "bike_id": "43b6af129eedaf41a8a8fb9cc456837a", "type": "electric_scooter", "name": "43b6af129eedaf41a8a8fb9cc456837a"}, {"is_disabled": 0, "is_reserved": 0, "fusion_lat": 0.0, "lat": 38.9209025, "fusion_lon": 0.0, "rental_uris": {"ios": "https://dc.lft.to/lastmile_qr_scan", "android": "https://dc.lft.to/lastmile_qr_scan"}, "lon": -77.02522566666667, "bike_id": "513b2b06bfca7f567898fa9eb4367fd0", "type": "electric_scooter", "name": "513b2b06bfca7f567898fa9eb4367fd0"}, {"is_disabled": 0, "is_reserved": 0, "fusion_lat": 0.0, "lat": 38.885742666666665, "fusion_lon": 0.0, "rental_uris": {"ios": "https://dc.lft.to/lastmile_qr_scan", "android": "https://dc.lft.to/lastmile_qr_scan"}, "lon": -77.0121165, "bike_id": "74e1c672df6e7df2fdccd4d595d38c13", "type": "electric_scooter", "name": "74e1c672df6e7df2fdccd4d595d38c13"}, {"is_disabled": 0, "is_reserved": 0, "fusion_lat": 0.0, "lat": 38.90947933333333, "fusion_lon": 0.0, "rental_uris": {"ios": "https://dc.lft.to/lastmile_qr_scan", "android": "https://dc.lft.to/lastmile_qr_scan"}, "lon": -76.99585933333333, "bike_id": "948765fd5e42cb098389f12802c5af0e", "type": "electric_scooter", "name": "948765fd5e42cb098389f12802c5af0e"}, {"is_disabled": 0, "is_reserved": 0, "fusion_lat": 0.0, "lat": 38.91694233333333, "fusion_lon": 0.0, "rental_uris": {"ios": "https://dc.lft.to/lastmile_qr_scan", "android": "https://dc.lft.to/lastmile_qr_scan"}, "lon": -77.02596766666667, "bike_id": "e26bd949ac9a989a05950f997f000dec", "type": "electric_scooter", "name": "e26bd949ac9a989a05950f997f000dec"}, {"is_disabled": 0, "is_reserved": 0, "fusion_lat": 0.0, "lat": 38.903614833333336, "fusion_lon": 0.0, "rental_uris": {"ios": "https://dc.lft.to/lastmile_qr_scan", "android": "https://dc.lft.to/lastmile_qr_scan"}, "lon": -77.03184616666667, "bike_id": "01127850d03a0427c37fe8ff4080a45a", "type": "electric_scooter", "name": "01127850d03a0427c37fe8ff4080a45a"}, {"is_disabled": 0, "is_reserved": 0, "fusion_lat": 0.0, "lat": 38.922580333333336, "fusion_lon": 0.0, "rental_uris": {"ios": "https://dc.lft.to/lastmile_qr_scan", "android": "https://dc.lft.to/lastmile_qr_scan"}, "lon": -77.02346133333333, "bike_id": "1c16185d6545d3e033093b9c4df462ec", "type": "electric_bike", "name": "1c16185d6545d3e033093b9c4df462ec"}, {"is_disabled": 0, "is_reserved": 0, "fusion_lat": 0.0, "lat": 38.900658, "fusion_lon": 0.0, "rental_uris": {"ios": "https://dc.lft.to/lastmile_qr_scan", "android": "https://dc.lft.to/lastmile_qr_scan"}, "lon": -77.05065116666667, "bike_id": "28da4f5a6eec68a3d75933cf880c5277", "type": "electric_scooter", "name": "28da4f5a6eec68a3d75933cf880c5277"}, {"is_disabled": 0, "is_reserved": 0, "fusion_lat": 0.0, "lat": 38.905157, "fusion_lon": 0.0, "rental_uris": {"ios": "https://dc.lft.to/lastmile_qr_scan", "android": "https://dc.lft.to/lastmile_qr_scan"}, "lon": -76.99038883333333, "bike_id": "3b2ef212ecad6c05da6a8a9493355616", "type": "electric_scooter", "name": "3b2ef212ecad6c05da6a8a9493355616"}, {"is_disabled": 0, "is_reserved": 0, "fusion_lat": 0.0, "lat": 38.9021865, "fusion_lon": 0.0, "rental_uris": {"ios": "https://dc.lft.to/lastmile_qr_scan", "android": "https://dc.lft.to/lastmile_qr_scan"}, "lon": -77.02211566666666, "bike_id": "293801918379920cf7383554a772600c", "type": "electric_scooter", "name": "293801918379920cf7383554a772600c"}, {"is_disabled": 0, "is_reserved": 0, "fusion_lat": 0.0, "lat": 38.886382, "fusion_lon": 0.0, "rental_uris": {"ios": "https://dc.lft.to/lastmile_qr_scan", "android": "https://dc.lft.to/lastmile_qr_scan"}, "lon": -77.02210366666667, "bike_id": "55712f8e714a77e46ac477ce5a30c7d8", "type": "electric_scooter", "name": "55712f8e714a77e46ac477ce5a30c7d8"}, {"is_disabled": 0, "is_reserved": 0, "fusion_lat": 0.0, "lat": 38.96760533333333, "fusion_lon": 0.0, "rental_uris": {"ios": "https://dc.lft.to/lastmile_qr_scan", "android": "https://dc.lft.to/lastmile_qr_scan"}, "lon": -77.03420216666666, "bike_id": "f8c8fda70dc19c18c171030c9a549930", "type": "electric_scooter", "name": "f8c8fda70dc19c18c171030c9a549930"}, {"is_disabled": 0, "is_reserved": 0, "fusion_lat": 0.0, "lat": 38.91680783333334, "fusion_lon": 0.0, "rental_uris": {"ios": "https://dc.lft.to/lastmile_qr_scan", "android": "https://dc.lft.to/lastmile_qr_scan"}, "lon": -77.02969633333333, "bike_id": "fa12562368a7cd9d867ca3a0e98633c8", "type": "electric_scooter", "name": "fa12562368a7cd9d867ca3a0e98633c8"}, {"is_disabled": 0, "is_reserved": 0, "fusion_lat": 0.0, "lat": 38.93407333333333, "fusion_lon": 0.0, "rental_uris": {"ios": "https://dc.lft.to/lastmile_qr_scan", "android": "https://dc.lft.to/lastmile_qr_scan"}, "lon": -77.03262833333334, "bike_id": "a30be6c9ea270764423ae6ba9864741b", "type": "electric_scooter", "name": "a30be6c9ea270764423ae6ba9864741b"}, {"is_disabled": 0, "is_reserved": 0, "fusion_lat": 0.0, "lat": 38.94099716666667, "fusion_lon": 0.0, "rental_uris": {"ios": "https://dc.lft.to/lastmile_qr_scan", "android": "https://dc.lft.to/lastmile_qr_scan"}, "lon": -76.95628933333333, "bike_id": "1bde145993d9c8416f95a2ccd27c75ed", "type": "electric_bike", "name": "1bde145993d9c8416f95a2ccd27c75ed"}, {"is_disabled": 0, "is_reserved": 0, "fusion_lat": 0.0, "lat": 38.886591333333335, "fusion_lon": 0.0, "rental_uris": {"ios": "https://dc.lft.to/lastmile_qr_scan", "android": "https://dc.lft.to/lastmile_qr_scan"}, "lon": -77.16242883333334, "bike_id": "c8e676f45842a8a21644f2a9f35fb7f3", "type": "electric_bike", "name": "c8e676f45842a8a21644f2a9f35fb7f3"}, {"is_disabled": 0, "is_reserved": 0, "fusion_lat": 0.0, "lat": 38.927492666666666, "fusion_lon": 0.0, "rental_uris": {"ios": "https://dc.lft.to/lastmile_qr_scan", "android": "https://dc.lft.to/lastmile_qr_scan"}, "lon": -77.02375533333333, "bike_id": "b77b9ed84e10a4cbf147c14abb69cad2", "type": "electric_scooter", "name": "b77b9ed84e10a4cbf147c14abb69cad2"}, {"is_disabled": 0, "is_reserved": 0, "fusion_lat": 0.0, "lat": 38.8983225, "fusion_lon": 0.0, "rental_uris": {"ios": "https://dc.lft.to/lastmile_qr_scan", "android": "https://dc.lft.to/lastmile_qr_scan"}, "lon": -76.946339, "bike_id": "1efb9c4c0b0fad88dd424999a104f145", "type": "electric_scooter", "name": "1efb9c4c0b0fad88dd424999a104f145"}, {"is_disabled": 0, "is_reserved": 0, "fusion_lat": 0.0, "lat": 38.920765333333335, "fusion_lon": 0.0, "rental_uris": {"ios": "https://dc.lft.to/lastmile_qr_scan", "android": "https://dc.lft.to/lastmile_qr_scan"}, "lon": -77.0251255, "bike_id": "0bc483d425866d41c66d436a4768b677", "type": "electric_scooter", "name": "0bc483d425866d41c66d436a4768b677"}, {"is_disabled": 0, "is_reserved": 0, "fusion_lat": 0.0, "lat": 38.91708633333333, "fusion_lon": 0.0, "rental_uris": {"ios": "https://dc.lft.to/lastmile_qr_scan", "android": "https://dc.lft.to/lastmile_qr_scan"}, "lon": -77.03233, "bike_id": "abea6fb79c7b2ec7f38b4c389c2378f7", "type": "electric_scooter", "name": "abea6fb79c7b2ec7f38b4c389c2378f7"}, {"is_disabled": 0, "is_reserved": 0, "fusion_lat": 0.0, "lat": 38.89860433333333, "fusion_lon": 0.0, "rental_uris": {"ios": "https://dc.lft.to/lastmile_qr_scan", "android": "https://dc.lft.to/lastmile_qr_scan"}, "lon": -76.9463935, "bike_id": "5f79c21d0e17259519b74cb40b0f6f2e", "type": "electric_scooter", "name": "5f79c21d0e17259519b74cb40b0f6f2e"}, {"is_disabled": 0, "is_reserved": 0, "fusion_lat": 0.0, "lat": 38.9356235, "fusion_lon": 0.0, "rental_uris": {"ios": "https://dc.lft.to/lastmile_qr_scan", "android": "https://dc.lft.to/lastmile_qr_scan"}, "lon": -77.0285375, "bike_id": "220d2918a53a440e5b4665fa17f45c9e", "type": "electric_scooter", "name": "220d2918a53a440e5b4665fa17f45c9e"}, {"is_disabled": 0, "is_reserved": 0, "fusion_lat": 0.0, "lat": 38.87067716666667, "fusion_lon": 0.0, "rental_uris": {"ios": "https://dc.lft.to/lastmile_qr_scan", "android": "https://dc.lft.to/lastmile_qr_scan"}, "lon": -76.97937033333334, "bike_id": "9ceb9a5c8d1214dfc8a5ecac834735e0", "type": "electric_scooter", "name": "9ceb9a5c8d1214dfc8a5ecac834735e0"}, {"is_disabled": 0, "is_reserved": 0, "fusion_lat": 0.0, "lat": 38.903098166666666, "fusion_lon": 0.0, "rental_uris": {"ios": "https://dc.lft.to/lastmile_qr_scan", "android": "https://dc.lft.to/lastmile_qr_scan"}, "lon": -77.05057116666667, "bike_id": "a1bae118e43ab5ab4e99457abf8303df", "type": "electric_scooter", "name": "a1bae118e43ab5ab4e99457abf8303df"}, {"is_disabled": 0, "is_reserved": 0, "fusion_lat": 0.0, "lat": 38.900523166666666, "fusion_lon": 0.0, "rental_uris": {"ios": "https://dc.lft.to/lastmile_qr_scan", "android": "https://dc.lft.to/lastmile_qr_scan"}, "lon": -77.0492825, "bike_id": "7e647637e01be004d02cb3e584c7b45b", "type": "electric_scooter", "name": "7e647637e01be004d02cb3e584c7b45b"}, {"is_disabled": 0, "is_reserved": 0, "fusion_lat": 0.0, "lat": 38.9118765, "fusion_lon": 0.0, "rental_uris": {"ios": "https://dc.lft.to/lastmile_qr_scan", "android": "https://dc.lft.to/lastmile_qr_scan"}, "lon": -77.040544, "bike_id": "cea2666b4b85f725f5679d98f0a2de02", "type": "electric_scooter", "name": "cea2666b4b85f725f5679d98f0a2de02"}, {"is_disabled": 0, "is_reserved": 0, "fusion_lat": 0.0, "lat": 38.90274483333334, "fusion_lon": 0.0, "rental_uris": {"ios": "https://dc.lft.to/lastmile_qr_scan", "android": "https://dc.lft.to/lastmile_qr_scan"}, "lon": -77.034294, "bike_id": "30e4dccbc796d85c712b861b8eb007f8", "type": "electric_scooter", "name": "30e4dccbc796d85c712b861b8eb007f8"}, {"is_disabled": 0, "is_reserved": 0, "fusion_lat": 0.0, "lat": 38.91276333333333, "fusion_lon": 0.0, "rental_uris": {"ios": "https://dc.lft.to/lastmile_qr_scan", "android": "https://dc.lft.to/lastmile_qr_scan"}, "lon": -77.04668683333334, "bike_id": "7bd2d340abdb1c130579b2241aa9e02d", "type": "electric_scooter", "name": "7bd2d340abdb1c130579b2241aa9e02d"}, {"is_disabled": 0, "is_reserved": 0, "fusion_lat": 0.0, "lat": 38.906949833333336, "fusion_lon": 0.0, "rental_uris": {"ios": "https://dc.lft.to/lastmile_qr_scan", "android": "https://dc.lft.to/lastmile_qr_scan"}, "lon": -77.0628175, "bike_id": "ba6f3b0aeccfbcd71bb93caf0bb54a13", "type": "electric_scooter", "name": "ba6f3b0aeccfbcd71bb93caf0bb54a13"}, {"is_disabled": 0, "is_reserved": 0, "fusion_lat": 0.0, "lat": 38.928924333333335, "fusion_lon": 0.0, "rental_uris": {"ios": "https://dc.lft.to/lastmile_qr_scan", "android": "https://dc.lft.to/lastmile_qr_scan"}, "lon": -77.03873216666666, "bike_id": "d81b8e05705db81c51535ba6d0a43f0e", "type": "electric_scooter", "name": "d81b8e05705db81c51535ba6d0a43f0e"}, {"is_disabled": 0, "is_reserved": 0, "fusion_lat": 0.0, "lat": 38.998318166666664, "fusion_lon": 0.0, "rental_uris": {"ios": "https://dc.lft.to/lastmile_qr_scan", "android": "https://dc.lft.to/lastmile_qr_scan"}, "lon": -76.99727616666667, "bike_id": "07c12d83584260f41f7b63f7ba59aa4a", "type": "electric_bike", "name": "07c12d83584260f41f7b63f7ba59aa4a"}, {"is_disabled": 0, "is_reserved": 0, "fusion_lat": 0.0, "lat": 38.89220016666667, "fusion_lon": 0.0, "rental_uris": {"ios": "https://dc.lft.to/lastmile_qr_scan", "android": "https://dc.lft.to/lastmile_qr_scan"}, "lon": -77.04330466666667, "bike_id": "667a02e19fa4c554f92a3bbc68b7e7dc", "type": "electric_scooter", "name": "667a02e19fa4c554f92a3bbc68b7e7dc"}, {"is_disabled": 0, "is_reserved": 0, "fusion_lat": 0.0, "lat": 38.90890366666667, "fusion_lon": 0.0, "rental_uris": {"ios": "https://dc.lft.to/lastmile_qr_scan", "android": "https://dc.lft.to/lastmile_qr_scan"}, "lon": -77.0466885, "bike_id": "0cdb15cc58674b2609d2c4eddfdd885d", "type": "electric_scooter", "name": "0cdb15cc58674b2609d2c4eddfdd885d"}, {"is_disabled": 0, "is_reserved": 0, "fusion_lat": 0.0, "lat": 38.875667666666665, "fusion_lon": 0.0, "rental_uris": {"ios": "https://dc.lft.to/lastmile_qr_scan", "android": "https://dc.lft.to/lastmile_qr_scan"}, "lon": -77.04707183333333, "bike_id": "ba76d0c28f5e18a5273a2054edb04004", "type": "electric_bike", "name": "ba76d0c28f5e18a5273a2054edb04004"}, {"is_disabled": 0, "is_reserved": 0, "fusion_lat": 0.0, "lat": 38.9255065, "fusion_lon": 0.0, "rental_uris": {"ios": "https://dc.lft.to/lastmile_qr_scan", "android": "https://dc.lft.to/lastmile_qr_scan"}, "lon": -77.00325366666667, "bike_id": "7e3289c84953185fd3e6a8daaa81fb8f", "type": "electric_scooter", "name": "7e3289c84953185fd3e6a8daaa81fb8f"}, {"is_disabled": 0, "is_reserved": 0, "fusion_lat": 0.0, "lat": 38.902408, "fusion_lon": 0.0, "rental_uris": {"ios": "https://dc.lft.to/lastmile_qr_scan", "android": "https://dc.lft.to/lastmile_qr_scan"}, "lon": -77.03461433333334, "bike_id": "4ff42139c8e8941e59c0e64b2de30ace", "type": "electric_scooter", "name": "4ff42139c8e8941e59c0e64b2de30ace"}, {"is_disabled": 0, "is_reserved": 0, "fusion_lat": 0.0, "lat": 38.936586166666665, "fusion_lon": 0.0, "rental_uris": {"ios": "https://dc.lft.to/lastmile_qr_scan", "android": "https://dc.lft.to/lastmile_qr_scan"}, "lon": -77.06612266666667, "bike_id": "f710eba51bc5610bd3313668eeb80ac5", "type": "electric_scooter", "name": "f710eba51bc5610bd3313668eeb80ac5"}, {"is_disabled": 0, "is_reserved": 0, "fusion_lat": 0.0, "lat": 38.9300635, "fusion_lon": 0.0, "rental_uris": {"ios": "https://dc.lft.to/lastmile_qr_scan", "android": "https://dc.lft.to/lastmile_qr_scan"}, "lon": -77.037815, "bike_id": "78e84d6186a03106d61a8c0173b05e78", "type": "electric_scooter", "name": "78e84d6186a03106d61a8c0173b05e78"}, {"is_disabled": 0, "is_reserved": 0, "fusion_lat": 0.0, "lat": 38.8985145, "fusion_lon": 0.0, "rental_uris": {"ios": "https://dc.lft.to/lastmile_qr_scan", "android": "https://dc.lft.to/lastmile_qr_scan"}, "lon": -76.98836983333334, "bike_id": "7d36e25dae42fcd9da1075f3fd8dbe37", "type": "electric_scooter", "name": "7d36e25dae42fcd9da1075f3fd8dbe37"}, {"is_disabled": 0, "is_reserved": 0, "fusion_lat": 0.0, "lat": 38.877757833333334, "fusion_lon": 0.0, "rental_uris": {"ios": "https://dc.lft.to/lastmile_qr_scan", "android": "https://dc.lft.to/lastmile_qr_scan"}, "lon": -77.00135866666666, "bike_id": "9059a943e71d8f62f8f2feed5a2dfd97", "type": "electric_scooter", "name": "9059a943e71d8f62f8f2feed5a2dfd97"}, {"is_disabled": 0, "is_reserved": 0, "fusion_lat": 0.0, "lat": 38.90425033333333, "fusion_lon": 0.0, "rental_uris": {"ios": "https://dc.lft.to/lastmile_qr_scan", "android": "https://dc.lft.to/lastmile_qr_scan"}, "lon": -77.01836216666666, "bike_id": "e0878a0a5429d97988c922835b1d0831", "type": "electric_scooter", "name": "e0878a0a5429d97988c922835b1d0831"}, {"is_disabled": 0, "is_reserved": 0, "fusion_lat": 0.0, "lat": 38.874939, "fusion_lon": 0.0, "rental_uris": {"ios": "https://dc.lft.to/lastmile_qr_scan", "android": "https://dc.lft.to/lastmile_qr_scan"}, "lon": -76.99977583333333, "bike_id": "62cb348f159e7ae3d2be8df9d130aa43", "type": "electric_scooter", "name": "62cb348f159e7ae3d2be8df9d130aa43"}, {"is_disabled": 0, "is_reserved": 0, "fusion_lat": 0.0, "lat": 38.90616583333333, "fusion_lon": 0.0, "rental_uris": {"ios": "https://dc.lft.to/lastmile_qr_scan", "android": "https://dc.lft.to/lastmile_qr_scan"}, "lon": -77.04684683333333, "bike_id": "00a1be60cd6ce3f7a09f656824cb38aa", "type": "electric_scooter", "name": "00a1be60cd6ce3f7a09f656824cb38aa"}, {"is_disabled": 0, "is_reserved": 0, "fusion_lat": 0.0, "lat": 38.89276016666667, "fusion_lon": 0.0, "rental_uris": {"ios": "https://dc.lft.to/lastmile_qr_scan", "android": "https://dc.lft.to/lastmile_qr_scan"}, "lon": -77.04498366666667, "bike_id": "2fffa18528318200d438dd1f91e6f779", "type": "electric_scooter", "name": "2fffa18528318200d438dd1f91e6f779"}, {"is_disabled": 0, "is_reserved": 0, "fusion_lat": 0.0, "lat": 38.901254, "fusion_lon": 0.0, "rental_uris": {"ios": "https://dc.lft.to/lastmile_qr_scan", "android": "https://dc.lft.to/lastmile_qr_scan"}, "lon": -77.00344816666667, "bike_id": "c39dab08cb2d2057d766af0badc17227", "type": "electric_scooter", "name": "c39dab08cb2d2057d766af0badc17227"}, {"is_disabled": 0, "is_reserved": 0, "fusion_lat": 0.0, "lat": 38.922466, "fusion_lon": 0.0, "rental_uris": {"ios": "https://dc.lft.to/lastmile_qr_scan", "android": "https://dc.lft.to/lastmile_qr_scan"}, "lon": -77.03661366666667, "bike_id": "4888486f4cc506a30b57b141bb696605", "type": "electric_scooter", "name": "4888486f4cc506a30b57b141bb696605"}, {"is_disabled": 0, "is_reserved": 0, "fusion_lat": 0.0, "lat": 38.9104715, "fusion_lon": 0.0, "rental_uris": {"ios": "https://dc.lft.to/lastmile_qr_scan", "android": "https://dc.lft.to/lastmile_qr_scan"}, "lon": -76.99800033333334, "bike_id": "18ccaee92fa660c6ae6e60bbc112abf7", "type": "electric_scooter", "name": "18ccaee92fa660c6ae6e60bbc112abf7"}, {"is_disabled": 0, "is_reserved": 0, "fusion_lat": 0.0, "lat": 38.895987166666664, "fusion_lon": 0.0, "rental_uris": {"ios": "https://dc.lft.to/lastmile_qr_scan", "android": "https://dc.lft.to/lastmile_qr_scan"}, "lon": -77.02745616666667, "bike_id": "94c3c444181532ade365091958fa5078", "type": "electric_scooter", "name": "94c3c444181532ade365091958fa5078"}, {"is_disabled": 0, "is_reserved": 0, "fusion_lat": 0.0, "lat": 38.91188733333333, "fusion_lon": 0.0, "rental_uris": {"ios": "https://dc.lft.to/lastmile_qr_scan", "android": "https://dc.lft.to/lastmile_qr_scan"}, "lon": -77.00552483333334, "bike_id": "ebadd5e89b349f813908086750e003c6", "type": "electric_bike", "name": "ebadd5e89b349f813908086750e003c6"}, {"is_disabled": 0, "is_reserved": 0, "fusion_lat": 0.0, "lat": 38.90127316666667, "fusion_lon": 0.0, "rental_uris": {"ios": "https://dc.lft.to/lastmile_qr_scan", "android": "https://dc.lft.to/lastmile_qr_scan"}, "lon": -77.01968416666666, "bike_id": "04bef66e0ce0cef4795a6089c46afff3", "type": "electric_scooter", "name": "04bef66e0ce0cef4795a6089c46afff3"}, {"is_disabled": 0, "is_reserved": 0, "fusion_lat": 0.0, "lat": 38.91052633333334, "fusion_lon": 0.0, "rental_uris": {"ios": "https://dc.lft.to/lastmile_qr_scan", "android": "https://dc.lft.to/lastmile_qr_scan"}, "lon": -77.0220845, "bike_id": "172612738c5ff2a20b3a4e7abb66bf5c", "type": "electric_scooter", "name": "172612738c5ff2a20b3a4e7abb66bf5c"}, {"is_disabled": 0, "is_reserved": 0, "fusion_lat": 0.0, "lat": 38.92040683333333, "fusion_lon": 0.0, "rental_uris": {"ios": "https://dc.lft.to/lastmile_qr_scan", "android": "https://dc.lft.to/lastmile_qr_scan"}, "lon": -77.02593816666666, "bike_id": "ab195c88deefe2ece8b3d3f548baacac", "type": "electric_scooter", "name": "ab195c88deefe2ece8b3d3f548baacac"}, {"is_disabled": 0, "is_reserved": 0, "fusion_lat": 0.0, "lat": 38.9271255, "fusion_lon": 0.0, "rental_uris": {"ios": "https://dc.lft.to/lastmile_qr_scan", "android": "https://dc.lft.to/lastmile_qr_scan"}, "lon": -77.02091783333333, "bike_id": "19ae048c13266cbe2192b742c4f98344", "type": "electric_scooter", "name": "19ae048c13266cbe2192b742c4f98344"}, {"is_disabled": 0, "is_reserved": 0, "fusion_lat": 0.0, "lat": 38.930551333333334, "fusion_lon": 0.0, "rental_uris": {"ios": "https://dc.lft.to/lastmile_qr_scan", "android": "https://dc.lft.to/lastmile_qr_scan"}, "lon": -77.03363416666667, "bike_id": "bb2a4f3b022f003d71bfbeb15201aaa9", "type": "electric_scooter", "name": "bb2a4f3b022f003d71bfbeb15201aaa9"}, {"is_disabled": 0, "is_reserved": 0, "fusion_lat": 0.0, "lat": 38.90363266666667, "fusion_lon": 0.0, "rental_uris": {"ios": "https://dc.lft.to/lastmile_qr_scan", "android": "https://dc.lft.to/lastmile_qr_scan"}, "lon": -77.04004383333333, "bike_id": "9452a0d17149347a1e76df52f812b0b3", "type": "electric_scooter", "name": "9452a0d17149347a1e76df52f812b0b3"}, {"is_disabled": 0, "is_reserved": 0, "fusion_lat": 0.0, "lat": 38.938612, "fusion_lon": 0.0, "rental_uris": {"ios": "https://dc.lft.to/lastmile_qr_scan", "android": "https://dc.lft.to/lastmile_qr_scan"}, "lon": -77.0782015, "bike_id": "24cd274372c0ecc9bf23c96657c89dd8", "type": "electric_scooter", "name": "24cd274372c0ecc9bf23c96657c89dd8"}, {"is_disabled": 0, "is_reserved": 0, "fusion_lat": 0.0, "lat": 38.925023, "fusion_lon": 0.0, "rental_uris": {"ios": "https://dc.lft.to/lastmile_qr_scan", "android": "https://dc.lft.to/lastmile_qr_scan"}, "lon": -77.02279566666667, "bike_id": "f6391035dad92aefb5e476a230510f52", "type": "electric_scooter", "name": "f6391035dad92aefb5e476a230510f52"}, {"is_disabled": 0, "is_reserved": 0, "fusion_lat": 0.0, "lat": 38.943105333333335, "fusion_lon": 0.0, "rental_uris": {"ios": "https://dc.lft.to/lastmile_qr_scan", "android": "https://dc.lft.to/lastmile_qr_scan"}, "lon": -77.0772425, "bike_id": "fc3cf75c0fe7c3d80295cd4bd7917b94", "type": "electric_scooter", "name": "fc3cf75c0fe7c3d80295cd4bd7917b94"}, {"is_disabled": 0, "is_reserved": 0, "fusion_lat": 0.0, "lat": 38.900724333333336, "fusion_lon": 0.0, "rental_uris": {"ios": "https://dc.lft.to/lastmile_qr_scan", "android": "https://dc.lft.to/lastmile_qr_scan"}, "lon": -77.043287, "bike_id": "609ab3e4f6236086bbd0e0f9c798f5ad", "type": "electric_scooter", "name": "609ab3e4f6236086bbd0e0f9c798f5ad"}, {"is_disabled": 0, "is_reserved": 0, "fusion_lat": 0.0, "lat": 38.914158, "fusion_lon": 0.0, "rental_uris": {"ios": "https://dc.lft.to/lastmile_qr_scan", "android": "https://dc.lft.to/lastmile_qr_scan"}, "lon": -77.0316435, "bike_id": "1c5a39ab92a4f5330842b60fabb057e5", "type": "electric_scooter", "name": "1c5a39ab92a4f5330842b60fabb057e5"}, {"is_disabled": 0, "is_reserved": 0, "fusion_lat": 0.0, "lat": 38.926839666666666, "fusion_lon": 0.0, "rental_uris": {"ios": "https://dc.lft.to/lastmile_qr_scan", "android": "https://dc.lft.to/lastmile_qr_scan"}, "lon": -77.02305616666666, "bike_id": "12d2f3a7971a6270f440e7ffb7e5d9ae", "type": "electric_scooter", "name": "12d2f3a7971a6270f440e7ffb7e5d9ae"}, {"is_disabled": 0, "is_reserved": 0, "fusion_lat": 0.0, "lat": 38.916129833333336, "fusion_lon": 0.0, "rental_uris": {"ios": "https://dc.lft.to/lastmile_qr_scan", "android": "https://dc.lft.to/lastmile_qr_scan"}, "lon": -77.02289933333333, "bike_id": "f7b49cc0b65289414b251527ed7a56b4", "type": "electric_scooter", "name": "f7b49cc0b65289414b251527ed7a56b4"}, {"is_disabled": 0, "is_reserved": 0, "fusion_lat": 0.0, "lat": 38.8974955, "fusion_lon": 0.0, "rental_uris": {"ios": "https://dc.lft.to/lastmile_qr_scan", "android": "https://dc.lft.to/lastmile_qr_scan"}, "lon": -77.02158733333333, "bike_id": "b7618ec0091d6d6e43ea9bba46c61d88", "type": "electric_scooter", "name": "b7618ec0091d6d6e43ea9bba46c61d88"}, {"is_disabled": 0, "is_reserved": 0, "fusion_lat": 0.0, "lat": 38.90368766666667, "fusion_lon": 0.0, "rental_uris": {"ios": "https://dc.lft.to/lastmile_qr_scan", "android": "https://dc.lft.to/lastmile_qr_scan"}, "lon": -77.03166366666666, "bike_id": "12d785ebd9fd3cd0d67f9acc1918ab22", "type": "electric_scooter", "name": "12d785ebd9fd3cd0d67f9acc1918ab22"}, {"is_disabled": 0, "is_reserved": 0, "fusion_lat": 0.0, "lat": 38.922329, "fusion_lon": 0.0, "rental_uris": {"ios": "https://dc.lft.to/lastmile_qr_scan", "android": "https://dc.lft.to/lastmile_qr_scan"}, "lon": -76.97530533333334, "bike_id": "0e615833a8e5fe12a282b17eae7d9959", "type": "electric_scooter", "name": "0e615833a8e5fe12a282b17eae7d9959"}, {"is_disabled": 0, "is_reserved": 0, "fusion_lat": 0.0, "lat": 38.928176, "fusion_lon": 0.0, "rental_uris": {"ios": "https://dc.lft.to/lastmile_qr_scan", "android": "https://dc.lft.to/lastmile_qr_scan"}, "lon": -77.0436, "bike_id": "2e5e62a8d0c395933982950477bec168", "type": "electric_scooter", "name": "2e5e62a8d0c395933982950477bec168"}, {"is_disabled": 0, "is_reserved": 0, "fusion_lat": 0.0, "lat": 38.9013785, "fusion_lon": 0.0, "rental_uris": {"ios": "https://dc.lft.to/lastmile_qr_scan", "android": "https://dc.lft.to/lastmile_qr_scan"}, "lon": -77.01526816666667, "bike_id": "bad2750a63e82d00b562ebcdc31a5d62", "type": "electric_scooter", "name": "bad2750a63e82d00b562ebcdc31a5d62"}, {"is_disabled": 0, "is_reserved": 0, "fusion_lat": 0.0, "lat": 38.928144, "fusion_lon": 0.0, "rental_uris": {"ios": "https://dc.lft.to/lastmile_qr_scan", "android": "https://dc.lft.to/lastmile_qr_scan"}, "lon": -77.0434125, "bike_id": "2bb15e2a17d32ef233f74cfc2452b778", "type": "electric_scooter", "name": "2bb15e2a17d32ef233f74cfc2452b778"}, {"is_disabled": 0, "is_reserved": 0, "fusion_lat": 0.0, "lat": 38.927897, "fusion_lon": 0.0, "rental_uris": {"ios": "https://dc.lft.to/lastmile_qr_scan", "android": "https://dc.lft.to/lastmile_qr_scan"}, "lon": -77.0213355, "bike_id": "5425513cdef2a7858f61c320b1c9b2a7", "type": "electric_scooter", "name": "5425513cdef2a7858f61c320b1c9b2a7"}, {"is_disabled": 0, "is_reserved": 0, "fusion_lat": 0.0, "lat": 38.906466333333334, "fusion_lon": 0.0, "rental_uris": {"ios": "https://dc.lft.to/lastmile_qr_scan", "android": "https://dc.lft.to/lastmile_qr_scan"}, "lon": -77.02485933333334, "bike_id": "c291663d9e79ba9af9978ee2bfb04483", "type": "electric_scooter", "name": "c291663d9e79ba9af9978ee2bfb04483"}, {"is_disabled": 0, "is_reserved": 0, "fusion_lat": 0.0, "lat": 38.9221145, "fusion_lon": 0.0, "rental_uris": {"ios": "https://dc.lft.to/lastmile_qr_scan", "android": "https://dc.lft.to/lastmile_qr_scan"}, "lon": -77.0389595, "bike_id": "a4518e6af9025c2c3460f11ca1c85e0a", "type": "electric_scooter", "name": "a4518e6af9025c2c3460f11ca1c85e0a"}, {"is_disabled": 0, "is_reserved": 0, "fusion_lat": 0.0, "lat": 38.91968133333334, "fusion_lon": 0.0, "rental_uris": {"ios": "https://dc.lft.to/lastmile_qr_scan", "android": "https://dc.lft.to/lastmile_qr_scan"}, "lon": -77.02391566666667, "bike_id": "cccafd5becca5c213cfc5d8577805684", "type": "electric_scooter", "name": "cccafd5becca5c213cfc5d8577805684"}, {"is_disabled": 0, "is_reserved": 0, "fusion_lat": 0.0, "lat": 38.9018145, "fusion_lon": 0.0, "rental_uris": {"ios": "https://dc.lft.to/lastmile_qr_scan", "android": "https://dc.lft.to/lastmile_qr_scan"}, "lon": -77.05923283333334, "bike_id": "70e39f08ff480750d992a3fecf724db7", "type": "electric_scooter", "name": "70e39f08ff480750d992a3fecf724db7"}, {"is_disabled": 0, "is_reserved": 0, "fusion_lat": 0.0, "lat": 38.902135, "fusion_lon": 0.0, "rental_uris": {"ios": "https://dc.lft.to/lastmile_qr_scan", "android": "https://dc.lft.to/lastmile_qr_scan"}, "lon": -76.99503616666667, "bike_id": "8dc3f8c7f52dfe64c5855c573094fdf8", "type": "electric_scooter", "name": "8dc3f8c7f52dfe64c5855c573094fdf8"}, {"is_disabled": 0, "is_reserved": 0, "fusion_lat": 0.0, "lat": 38.921348, "fusion_lon": 0.0, "rental_uris": {"ios": "https://dc.lft.to/lastmile_qr_scan", "android": "https://dc.lft.to/lastmile_qr_scan"}, "lon": -77.0040145, "bike_id": "1de494da620d51177ad4b127aa973bf4", "type": "electric_scooter", "name": "1de494da620d51177ad4b127aa973bf4"}, {"is_disabled": 0, "is_reserved": 0, "fusion_lat": 0.0, "lat": 38.92505533333333, "fusion_lon": 0.0, "rental_uris": {"ios": "https://dc.lft.to/lastmile_qr_scan", "android": "https://dc.lft.to/lastmile_qr_scan"}, "lon": -77.02442, "bike_id": "ae068b3a0c2a2b1dbd57f51f632a9f2e", "type": "electric_scooter", "name": "ae068b3a0c2a2b1dbd57f51f632a9f2e"}, {"is_disabled": 0, "is_reserved": 0, "fusion_lat": 0.0, "lat": 38.95738133333333, "fusion_lon": 0.0, "rental_uris": {"ios": "https://dc.lft.to/lastmile_qr_scan", "android": "https://dc.lft.to/lastmile_qr_scan"}, "lon": -76.98271066666666, "bike_id": "1a4747a9c4efed1add44a690a8f878d7", "type": "electric_bike", "name": "1a4747a9c4efed1add44a690a8f878d7"}, {"is_disabled": 0, "is_reserved": 0, "fusion_lat": 0.0, "lat": 38.89913833333333, "fusion_lon": 0.0, "rental_uris": {"ios": "https://dc.lft.to/lastmile_qr_scan", "android": "https://dc.lft.to/lastmile_qr_scan"}, "lon": -76.93390933333333, "bike_id": "77fecb947d3302d076a1759645d4f0a4", "type": "electric_scooter", "name": "77fecb947d3302d076a1759645d4f0a4"}, {"is_disabled": 0, "is_reserved": 0, "fusion_lat": 0.0, "lat": 38.9168825, "fusion_lon": 0.0, "rental_uris": {"ios": "https://dc.lft.to/lastmile_qr_scan", "android": "https://dc.lft.to/lastmile_qr_scan"}, "lon": -77.0385415, "bike_id": "55366b9a5f584990e95ad3f92950f705", "type": "electric_scooter", "name": "55366b9a5f584990e95ad3f92950f705"}, {"is_disabled": 0, "is_reserved": 0, "fusion_lat": 0.0, "lat": 38.9224495, "fusion_lon": 0.0, "rental_uris": {"ios": "https://dc.lft.to/lastmile_qr_scan", "android": "https://dc.lft.to/lastmile_qr_scan"}, "lon": -77.03660983333333, "bike_id": "18073693d09a1fbeb680ff15a72bdaab", "type": "electric_scooter", "name": "18073693d09a1fbeb680ff15a72bdaab"}, {"is_disabled": 0, "is_reserved": 0, "fusion_lat": 0.0, "lat": 38.9119005, "fusion_lon": 0.0, "rental_uris": {"ios": "https://dc.lft.to/lastmile_qr_scan", "android": "https://dc.lft.to/lastmile_qr_scan"}, "lon": -77.032506, "bike_id": "77cbeaae0016d2cc855e50267c94dcbd", "type": "electric_scooter", "name": "77cbeaae0016d2cc855e50267c94dcbd"}, {"is_disabled": 0, "is_reserved": 0, "fusion_lat": 0.0, "lat": 38.82931766666667, "fusion_lon": 0.0, "rental_uris": {"ios": "https://dc.lft.to/lastmile_qr_scan", "android": "https://dc.lft.to/lastmile_qr_scan"}, "lon": -77.06881083333333, "bike_id": "838731c1d7d4ed77d7ab30d58b327d74", "type": "electric_bike", "name": "838731c1d7d4ed77d7ab30d58b327d74"}, {"is_disabled": 0, "is_reserved": 0, "fusion_lat": 0.0, "lat": 38.9225825, "fusion_lon": 0.0, "rental_uris": {"ios": "https://dc.lft.to/lastmile_qr_scan", "android": "https://dc.lft.to/lastmile_qr_scan"}, "lon": -77.07274016666666, "bike_id": "c44c73ee37ea79a044c06724cebc5aba", "type": "electric_scooter", "name": "c44c73ee37ea79a044c06724cebc5aba"}, {"is_disabled": 0, "is_reserved": 0, "fusion_lat": 0.0, "lat": 38.88035966666666, "fusion_lon": 0.0, "rental_uris": {"ios": "https://dc.lft.to/lastmile_qr_scan", "android": "https://dc.lft.to/lastmile_qr_scan"}, "lon": -76.9272005, "bike_id": "4ed197912495fca25192ef95f1dbd12a", "type": "electric_scooter", "name": "4ed197912495fca25192ef95f1dbd12a"}, {"is_disabled": 0, "is_reserved": 0, "fusion_lat": 0.0, "lat": 38.916956666666664, "fusion_lon": 0.0, "rental_uris": {"ios": "https://dc.lft.to/lastmile_qr_scan", "android": "https://dc.lft.to/lastmile_qr_scan"}, "lon": -77.02596516666667, "bike_id": "641a1f368c832493385e35a2a120da15", "type": "electric_scooter", "name": "641a1f368c832493385e35a2a120da15"}, {"is_disabled": 0, "is_reserved": 0, "fusion_lat": 0.0, "lat": 38.90126033333333, "fusion_lon": 0.0, "rental_uris": {"ios": "https://dc.lft.to/lastmile_qr_scan", "android": "https://dc.lft.to/lastmile_qr_scan"}, "lon": -77.00357233333334, "bike_id": "c62e4caadf49aa465b016f40696fc9a0", "type": "electric_scooter", "name": "c62e4caadf49aa465b016f40696fc9a0"}, {"is_disabled": 0, "is_reserved": 0, "fusion_lat": 0.0, "lat": 38.90070933333333, "fusion_lon": 0.0, "rental_uris": {"ios": "https://dc.lft.to/lastmile_qr_scan", "android": "https://dc.lft.to/lastmile_qr_scan"}, "lon": -77.04817816666667, "bike_id": "fe0f437e86a38d364ab36aa65ba208c8", "type": "electric_scooter", "name": "fe0f437e86a38d364ab36aa65ba208c8"}, {"is_disabled": 0, "is_reserved": 0, "fusion_lat": 0.0, "lat": 38.873174666666664, "fusion_lon": 0.0, "rental_uris": {"ios": "https://dc.lft.to/lastmile_qr_scan", "android": "https://dc.lft.to/lastmile_qr_scan"}, "lon": -77.00057266666667, "bike_id": "e7175beef2455f34c1e842edf1ddcb17", "type": "electric_scooter", "name": "e7175beef2455f34c1e842edf1ddcb17"}, {"is_disabled": 0, "is_reserved": 0, "fusion_lat": 0.0, "lat": 38.9026985, "fusion_lon": 0.0, "rental_uris": {"ios": "https://dc.lft.to/lastmile_qr_scan", "android": "https://dc.lft.to/lastmile_qr_scan"}, "lon": -76.98980066666667, "bike_id": "2f342ecd1f76f5114facee98d1afcda1", "type": "electric_scooter", "name": "2f342ecd1f76f5114facee98d1afcda1"}, {"is_disabled": 0, "is_reserved": 0, "fusion_lat": 0.0, "lat": 38.94464266666667, "fusion_lon": 0.0, "rental_uris": {"ios": "https://dc.lft.to/lastmile_qr_scan", "android": "https://dc.lft.to/lastmile_qr_scan"}, "lon": -77.00659, "bike_id": "2945d2f73d9e71761b5e31708c71417c", "type": "electric_scooter", "name": "2945d2f73d9e71761b5e31708c71417c"}, {"is_disabled": 0, "is_reserved": 0, "fusion_lat": 0.0, "lat": 38.899758166666665, "fusion_lon": 0.0, "rental_uris": {"ios": "https://dc.lft.to/lastmile_qr_scan", "android": "https://dc.lft.to/lastmile_qr_scan"}, "lon": -77.0218485, "bike_id": "aa229ca3b1e7f4c422efdf5d20206aaf", "type": "electric_scooter", "name": "aa229ca3b1e7f4c422efdf5d20206aaf"}, {"is_disabled": 0, "is_reserved": 0, "fusion_lat": 0.0, "lat": 38.92082216666667, "fusion_lon": 0.0, "rental_uris": {"ios": "https://dc.lft.to/lastmile_qr_scan", "android": "https://dc.lft.to/lastmile_qr_scan"}, "lon": -77.025033, "bike_id": "dbb97ba30128a952b3cc066cbaa72eee", "type": "electric_scooter", "name": "dbb97ba30128a952b3cc066cbaa72eee"}, {"is_disabled": 0, "is_reserved": 0, "fusion_lat": 0.0, "lat": 38.912142333333335, "fusion_lon": 0.0, "rental_uris": {"ios": "https://dc.lft.to/lastmile_qr_scan", "android": "https://dc.lft.to/lastmile_qr_scan"}, "lon": -77.00663183333333, "bike_id": "ca6a97ed99ff4b42fb51fcd6f2e8549f", "type": "electric_scooter", "name": "ca6a97ed99ff4b42fb51fcd6f2e8549f"}, {"is_disabled": 0, "is_reserved": 0, "fusion_lat": 0.0, "lat": 38.935584666666664, "fusion_lon": 0.0, "rental_uris": {"ios": "https://dc.lft.to/lastmile_qr_scan", "android": "https://dc.lft.to/lastmile_qr_scan"}, "lon": -77.07704466666667, "bike_id": "75d8ef8cb45698148fe76b9f1b41bc1b", "type": "electric_scooter", "name": "75d8ef8cb45698148fe76b9f1b41bc1b"}, {"is_disabled": 0, "is_reserved": 0, "fusion_lat": 0.0, "lat": 38.871218, "fusion_lon": 0.0, "rental_uris": {"ios": "https://dc.lft.to/lastmile_qr_scan", "android": "https://dc.lft.to/lastmile_qr_scan"}, "lon": -77.00750016666667, "bike_id": "4cda75c6d88d2f62ab14a60fa5c0e660", "type": "electric_scooter", "name": "4cda75c6d88d2f62ab14a60fa5c0e660"}, {"is_disabled": 0, "is_reserved": 0, "fusion_lat": 0.0, "lat": 38.9192305, "fusion_lon": 0.0, "rental_uris": {"ios": "https://dc.lft.to/lastmile_qr_scan", "android": "https://dc.lft.to/lastmile_qr_scan"}, "lon": -77.02494316666667, "bike_id": "3c81fac92c9bb4b902f323a356f7e704", "type": "electric_scooter", "name": "3c81fac92c9bb4b902f323a356f7e704"}, {"is_disabled": 0, "is_reserved": 0, "fusion_lat": 0.0, "lat": 38.924133166666664, "fusion_lon": 0.0, "rental_uris": {"ios": "https://dc.lft.to/lastmile_qr_scan", "android": "https://dc.lft.to/lastmile_qr_scan"}, "lon": -77.02130266666667, "bike_id": "6b9fbec46b8294e1eac61530e2f66a36", "type": "electric_scooter", "name": "6b9fbec46b8294e1eac61530e2f66a36"}, {"is_disabled": 0, "is_reserved": 0, "fusion_lat": 0.0, "lat": 38.87098816666666, "fusion_lon": 0.0, "rental_uris": {"ios": "https://dc.lft.to/lastmile_qr_scan", "android": "https://dc.lft.to/lastmile_qr_scan"}, "lon": -77.01213833333334, "bike_id": "130e5d8d67fcb616e4e09f7d410086e4", "type": "electric_scooter", "name": "130e5d8d67fcb616e4e09f7d410086e4"}, {"is_disabled": 0, "is_reserved": 0, "fusion_lat": 0.0, "lat": 38.87934533333333, "fusion_lon": 0.0, "rental_uris": {"ios": "https://dc.lft.to/lastmile_qr_scan", "android": "https://dc.lft.to/lastmile_qr_scan"}, "lon": -77.02150883333333, "bike_id": "84977656b5998faa37b86565f035b0e5", "type": "electric_scooter", "name": "84977656b5998faa37b86565f035b0e5"}, {"is_disabled": 0, "is_reserved": 0, "fusion_lat": 0.0, "lat": 38.90531816666667, "fusion_lon": 0.0, "rental_uris": {"ios": "https://dc.lft.to/lastmile_qr_scan", "android": "https://dc.lft.to/lastmile_qr_scan"}, "lon": -77.05877916666667, "bike_id": "4d9fc3d78014df17b5fd991caf4086a3", "type": "electric_scooter", "name": "4d9fc3d78014df17b5fd991caf4086a3"}, {"is_disabled": 0, "is_reserved": 0, "fusion_lat": 0.0, "lat": 38.911182833333335, "fusion_lon": 0.0, "rental_uris": {"ios": "https://dc.lft.to/lastmile_qr_scan", "android": "https://dc.lft.to/lastmile_qr_scan"}, "lon": -77.03815383333334, "bike_id": "b5c60b94ecda84f0c781f9ef87a86b98", "type": "electric_scooter", "name": "b5c60b94ecda84f0c781f9ef87a86b98"}, {"is_disabled": 0, "is_reserved": 0, "fusion_lat": 0.0, "lat": 38.95732183333333, "fusion_lon": 0.0, "rental_uris": {"ios": "https://dc.lft.to/lastmile_qr_scan", "android": "https://dc.lft.to/lastmile_qr_scan"}, "lon": -77.02570483333334, "bike_id": "c62a10cc29c554418d28814939108911", "type": "electric_scooter", "name": "c62a10cc29c554418d28814939108911"}, {"is_disabled": 0, "is_reserved": 0, "fusion_lat": 0.0, "lat": 38.917025833333334, "fusion_lon": 0.0, "rental_uris": {"ios": "https://dc.lft.to/lastmile_qr_scan", "android": "https://dc.lft.to/lastmile_qr_scan"}, "lon": -77.0347405, "bike_id": "e0415f51a8deebc31ae8a3dd86bb8802", "type": "electric_scooter", "name": "e0415f51a8deebc31ae8a3dd86bb8802"}, {"is_disabled": 0, "is_reserved": 0, "fusion_lat": 0.0, "lat": 38.893353833333336, "fusion_lon": 0.0, "rental_uris": {"ios": "https://dc.lft.to/lastmile_qr_scan", "android": "https://dc.lft.to/lastmile_qr_scan"}, "lon": -76.92888166666667, "bike_id": "98929b8eb36bba5241e0d49dd78556b0", "type": "electric_scooter", "name": "98929b8eb36bba5241e0d49dd78556b0"}, {"is_disabled": 0, "is_reserved": 0, "fusion_lat": 0.0, "lat": 38.925272666666665, "fusion_lon": 0.0, "rental_uris": {"ios": "https://dc.lft.to/lastmile_qr_scan", "android": "https://dc.lft.to/lastmile_qr_scan"}, "lon": -77.03530216666667, "bike_id": "5f7f68b8cf9e04be615abcf875a1ab18", "type": "electric_scooter", "name": "5f7f68b8cf9e04be615abcf875a1ab18"}, {"is_disabled": 0, "is_reserved": 0, "fusion_lat": 0.0, "lat": 38.903284166666666, "fusion_lon": 0.0, "rental_uris": {"ios": "https://dc.lft.to/lastmile_qr_scan", "android": "https://dc.lft.to/lastmile_qr_scan"}, "lon": -77.033392, "bike_id": "9280ba7bc7c2abf680da6ccfb8cc17b8", "type": "electric_scooter", "name": "9280ba7bc7c2abf680da6ccfb8cc17b8"}, {"is_disabled": 0, "is_reserved": 0, "fusion_lat": 0.0, "lat": 38.892377333333336, "fusion_lon": 0.0, "rental_uris": {"ios": "https://dc.lft.to/lastmile_qr_scan", "android": "https://dc.lft.to/lastmile_qr_scan"}, "lon": -77.017918, "bike_id": "7a749a597a68dbb8d0e9a1dbb5c47720", "type": "electric_scooter", "name": "7a749a597a68dbb8d0e9a1dbb5c47720"}, {"is_disabled": 0, "is_reserved": 0, "fusion_lat": 0.0, "lat": 38.90022666666667, "fusion_lon": 0.0, "rental_uris": {"ios": "https://dc.lft.to/lastmile_qr_scan", "android": "https://dc.lft.to/lastmile_qr_scan"}, "lon": -77.02008683333334, "bike_id": "73c87a0064b2198743794546dfe5fddc", "type": "electric_scooter", "name": "73c87a0064b2198743794546dfe5fddc"}, {"is_disabled": 0, "is_reserved": 0, "fusion_lat": 0.0, "lat": 38.956353666666665, "fusion_lon": 0.0, "rental_uris": {"ios": "https://dc.lft.to/lastmile_qr_scan", "android": "https://dc.lft.to/lastmile_qr_scan"}, "lon": -77.036273, "bike_id": "93cb07965cae6128ec454a090c246bb3", "type": "electric_scooter", "name": "93cb07965cae6128ec454a090c246bb3"}, {"is_disabled": 0, "is_reserved": 0, "fusion_lat": 0.0, "lat": 38.9300295, "fusion_lon": 0.0, "rental_uris": {"ios": "https://dc.lft.to/lastmile_qr_scan", "android": "https://dc.lft.to/lastmile_qr_scan"}, "lon": -77.03801383333334, "bike_id": "686c615acef728b5123f7a1d77fd0161", "type": "electric_scooter", "name": "686c615acef728b5123f7a1d77fd0161"}, {"is_disabled": 0, "is_reserved": 0, "fusion_lat": 0.0, "lat": 38.90122383333333, "fusion_lon": 0.0, "rental_uris": {"ios": "https://dc.lft.to/lastmile_qr_scan", "android": "https://dc.lft.to/lastmile_qr_scan"}, "lon": -77.0410065, "bike_id": "01f5a9dbfd12dd60af0bfecf3889975b", "type": "electric_scooter", "name": "01f5a9dbfd12dd60af0bfecf3889975b"}, {"is_disabled": 0, "is_reserved": 0, "fusion_lat": 0.0, "lat": 38.9482795, "fusion_lon": 0.0, "rental_uris": {"ios": "https://dc.lft.to/lastmile_qr_scan", "android": "https://dc.lft.to/lastmile_qr_scan"}, "lon": -77.08005816666666, "bike_id": "75e38bfaba951921f0dc053f8126f76a", "type": "electric_scooter", "name": "75e38bfaba951921f0dc053f8126f76a"}, {"is_disabled": 0, "is_reserved": 0, "fusion_lat": 0.0, "lat": 38.92660633333333, "fusion_lon": 0.0, "rental_uris": {"ios": "https://dc.lft.to/lastmile_qr_scan", "android": "https://dc.lft.to/lastmile_qr_scan"}, "lon": -76.992994, "bike_id": "876be48447cde564f1bab0b06d085bca", "type": "electric_scooter", "name": "876be48447cde564f1bab0b06d085bca"}, {"is_disabled": 0, "is_reserved": 0, "fusion_lat": 0.0, "lat": 38.8967185, "fusion_lon": 0.0, "rental_uris": {"ios": "https://dc.lft.to/lastmile_qr_scan", "android": "https://dc.lft.to/lastmile_qr_scan"}, "lon": -76.932105, "bike_id": "755f64ce2235d65eaac1177ebab44339", "type": "electric_scooter", "name": "755f64ce2235d65eaac1177ebab44339"}, {"is_disabled": 0, "is_reserved": 0, "fusion_lat": 0.0, "lat": 38.9161615, "fusion_lon": 0.0, "rental_uris": {"ios": "https://dc.lft.to/lastmile_qr_scan", "android": "https://dc.lft.to/lastmile_qr_scan"}, "lon": -77.032169, "bike_id": "86c6b8473a7805c13ae3a2004c81d1b3", "type": "electric_scooter", "name": "86c6b8473a7805c13ae3a2004c81d1b3"}, {"is_disabled": 0, "is_reserved": 0, "fusion_lat": 0.0, "lat": 38.943026, "fusion_lon": 0.0, "rental_uris": {"ios": "https://dc.lft.to/lastmile_qr_scan", "android": "https://dc.lft.to/lastmile_qr_scan"}, "lon": -77.02526766666666, "bike_id": "3b0225cb160d8afca1461d3615583a1f", "type": "electric_scooter", "name": "3b0225cb160d8afca1461d3615583a1f"}, {"is_disabled": 0, "is_reserved": 0, "fusion_lat": 0.0, "lat": 38.904196166666665, "fusion_lon": 0.0, "rental_uris": {"ios": "https://dc.lft.to/lastmile_qr_scan", "android": "https://dc.lft.to/lastmile_qr_scan"}, "lon": -77.02403583333333, "bike_id": "37d69d656b11b21376af86d91abb2b6b", "type": "electric_scooter", "name": "37d69d656b11b21376af86d91abb2b6b"}, {"is_disabled": 0, "is_reserved": 0, "fusion_lat": 0.0, "lat": 38.86813383333333, "fusion_lon": 0.0, "rental_uris": {"ios": "https://dc.lft.to/lastmile_qr_scan", "android": "https://dc.lft.to/lastmile_qr_scan"}, "lon": -76.98025483333333, "bike_id": "6125ef8c0f6f12d8c3daf620eba193a3", "type": "electric_bike", "name": "6125ef8c0f6f12d8c3daf620eba193a3"}, {"is_disabled": 0, "is_reserved": 0, "fusion_lat": 0.0, "lat": 38.9234145, "fusion_lon": 0.0, "rental_uris": {"ios": "https://dc.lft.to/lastmile_qr_scan", "android": "https://dc.lft.to/lastmile_qr_scan"}, "lon": -76.98485533333333, "bike_id": "7713c38eb6a77ac71823437ef3f08408", "type": "electric_scooter", "name": "7713c38eb6a77ac71823437ef3f08408"}, {"is_disabled": 0, "is_reserved": 0, "fusion_lat": 0.0, "lat": 38.873717, "fusion_lon": 0.0, "rental_uris": {"ios": "https://dc.lft.to/lastmile_qr_scan", "android": "https://dc.lft.to/lastmile_qr_scan"}, "lon": -77.00937166666667, "bike_id": "7f1fb8865ad448ed5226808ec0e5b881", "type": "electric_scooter", "name": "7f1fb8865ad448ed5226808ec0e5b881"}, {"is_disabled": 0, "is_reserved": 0, "fusion_lat": 0.0, "lat": 38.9314615, "fusion_lon": 0.0, "rental_uris": {"ios": "https://dc.lft.to/lastmile_qr_scan", "android": "https://dc.lft.to/lastmile_qr_scan"}, "lon": -77.0298855, "bike_id": "fbcf5acba4184f2e7cf0173b959c8d99", "type": "electric_scooter", "name": "fbcf5acba4184f2e7cf0173b959c8d99"}, {"is_disabled": 0, "is_reserved": 0, "fusion_lat": 0.0, "lat": 38.91566816666667, "fusion_lon": 0.0, "rental_uris": {"ios": "https://dc.lft.to/lastmile_qr_scan", "android": "https://dc.lft.to/lastmile_qr_scan"}, "lon": -77.03139, "bike_id": "e8942b40ac9bb6c7af6501d44c2e241c", "type": "electric_scooter", "name": "e8942b40ac9bb6c7af6501d44c2e241c"}, {"is_disabled": 0, "is_reserved": 0, "fusion_lat": 0.0, "lat": 38.89218966666667, "fusion_lon": 0.0, "rental_uris": {"ios": "https://dc.lft.to/lastmile_qr_scan", "android": "https://dc.lft.to/lastmile_qr_scan"}, "lon": -77.04641366666667, "bike_id": "bfd68e6fb6f13edb3f17d4bbf4a1de91", "type": "electric_scooter", "name": "bfd68e6fb6f13edb3f17d4bbf4a1de91"}, {"is_disabled": 0, "is_reserved": 0, "fusion_lat": 0.0, "lat": 38.91667133333333, "fusion_lon": 0.0, "rental_uris": {"ios": "https://dc.lft.to/lastmile_qr_scan", "android": "https://dc.lft.to/lastmile_qr_scan"}, "lon": -77.026894, "bike_id": "a38f7919913fe848990fbac3db181ad9", "type": "electric_scooter", "name": "a38f7919913fe848990fbac3db181ad9"}, {"is_disabled": 0, "is_reserved": 0, "fusion_lat": 0.0, "lat": 38.918001333333336, "fusion_lon": 0.0, "rental_uris": {"ios": "https://dc.lft.to/lastmile_qr_scan", "android": "https://dc.lft.to/lastmile_qr_scan"}, "lon": -77.02712866666667, "bike_id": "db02e7a2d9bcc799916239a3104d7268", "type": "electric_scooter", "name": "db02e7a2d9bcc799916239a3104d7268"}, {"is_disabled": 0, "is_reserved": 0, "fusion_lat": 0.0, "lat": 38.931795666666666, "fusion_lon": 0.0, "rental_uris": {"ios": "https://dc.lft.to/lastmile_qr_scan", "android": "https://dc.lft.to/lastmile_qr_scan"}, "lon": -77.02348716666667, "bike_id": "42450307e24de842e21c01608eb92b12", "type": "electric_scooter", "name": "42450307e24de842e21c01608eb92b12"}, {"is_disabled": 0, "is_reserved": 0, "fusion_lat": 0.0, "lat": 38.923662, "fusion_lon": 0.0, "rental_uris": {"ios": "https://dc.lft.to/lastmile_qr_scan", "android": "https://dc.lft.to/lastmile_qr_scan"}, "lon": -77.02061166666667, "bike_id": "7505578bb54d5920b471ce4fb87fdaf3", "type": "electric_scooter", "name": "7505578bb54d5920b471ce4fb87fdaf3"}, {"is_disabled": 0, "is_reserved": 0, "fusion_lat": 0.0, "lat": 38.846274333333334, "fusion_lon": 0.0, "rental_uris": {"ios": "https://dc.lft.to/lastmile_qr_scan", "android": "https://dc.lft.to/lastmile_qr_scan"}, "lon": -77.069362, "bike_id": "bb022c1c2da968a996d6f7a29e10bd85", "type": "electric_bike", "name": "bb022c1c2da968a996d6f7a29e10bd85"}, {"is_disabled": 0, "is_reserved": 0, "fusion_lat": 0.0, "lat": 38.92402716666667, "fusion_lon": 0.0, "rental_uris": {"ios": "https://dc.lft.to/lastmile_qr_scan", "android": "https://dc.lft.to/lastmile_qr_scan"}, "lon": -77.02688283333333, "bike_id": "c4567dc3eabd0fae53c35a2159c3ba81", "type": "electric_scooter", "name": "c4567dc3eabd0fae53c35a2159c3ba81"}, {"is_disabled": 0, "is_reserved": 0, "fusion_lat": 0.0, "lat": 38.883162666666664, "fusion_lon": 0.0, "rental_uris": {"ios": "https://dc.lft.to/lastmile_qr_scan", "android": "https://dc.lft.to/lastmile_qr_scan"}, "lon": -76.93152416666666, "bike_id": "188ebbdd72c7f436f60450c279333a65", "type": "electric_scooter", "name": "188ebbdd72c7f436f60450c279333a65"}, {"is_disabled": 0, "is_reserved": 0, "fusion_lat": 0.0, "lat": 38.892508666666664, "fusion_lon": 0.0, "rental_uris": {"ios": "https://dc.lft.to/lastmile_qr_scan", "android": "https://dc.lft.to/lastmile_qr_scan"}, "lon": -77.046565, "bike_id": "c4135d886e8c7c14160dff9e3d1c65d3", "type": "electric_scooter", "name": "c4135d886e8c7c14160dff9e3d1c65d3"}, {"is_disabled": 0, "is_reserved": 0, "fusion_lat": 0.0, "lat": 38.8985885, "fusion_lon": 0.0, "rental_uris": {"ios": "https://dc.lft.to/lastmile_qr_scan", "android": "https://dc.lft.to/lastmile_qr_scan"}, "lon": -77.0285945, "bike_id": "cc879748c049ba8ee5411c7685d30664", "type": "electric_scooter", "name": "cc879748c049ba8ee5411c7685d30664"}, {"is_disabled": 0, "is_reserved": 0, "fusion_lat": 0.0, "lat": 38.87758566666667, "fusion_lon": 0.0, "rental_uris": {"ios": "https://dc.lft.to/lastmile_qr_scan", "android": "https://dc.lft.to/lastmile_qr_scan"}, "lon": -77.00431216666667, "bike_id": "7bb810628df21ac831eb09266fb30d12", "type": "electric_scooter", "name": "7bb810628df21ac831eb09266fb30d12"}, {"is_disabled": 0, "is_reserved": 0, "fusion_lat": 0.0, "lat": 38.876786833333334, "fusion_lon": 0.0, "rental_uris": {"ios": "https://dc.lft.to/lastmile_qr_scan", "android": "https://dc.lft.to/lastmile_qr_scan"}, "lon": -77.00059266666666, "bike_id": "9b6284b920dcf45a2d7507d5ff8f542e", "type": "electric_scooter", "name": "9b6284b920dcf45a2d7507d5ff8f542e"}, {"is_disabled": 0, "is_reserved": 0, "fusion_lat": 0.0, "lat": 38.9171435, "fusion_lon": 0.0, "rental_uris": {"ios": "https://dc.lft.to/lastmile_qr_scan", "android": "https://dc.lft.to/lastmile_qr_scan"}, "lon": -77.03234983333333, "bike_id": "535cb5a3f7ba60f56e470a406984d152", "type": "electric_scooter", "name": "535cb5a3f7ba60f56e470a406984d152"}, {"is_disabled": 0, "is_reserved": 0, "fusion_lat": 0.0, "lat": 38.881613, "fusion_lon": 0.0, "rental_uris": {"ios": "https://dc.lft.to/lastmile_qr_scan", "android": "https://dc.lft.to/lastmile_qr_scan"}, "lon": -77.02770016666666, "bike_id": "baf8b4d3e6a2facd46e74e3c37db1012", "type": "electric_scooter", "name": "baf8b4d3e6a2facd46e74e3c37db1012"}, {"is_disabled": 0, "is_reserved": 0, "fusion_lat": 0.0, "lat": 38.90177683333334, "fusion_lon": 0.0, "rental_uris": {"ios": "https://dc.lft.to/lastmile_qr_scan", "android": "https://dc.lft.to/lastmile_qr_scan"}, "lon": -76.988158, "bike_id": "2593eebdda22c7208f459675dce86a0f", "type": "electric_scooter", "name": "2593eebdda22c7208f459675dce86a0f"}, {"is_disabled": 0, "is_reserved": 0, "fusion_lat": 0.0, "lat": 38.89963066666667, "fusion_lon": 0.0, "rental_uris": {"ios": "https://dc.lft.to/lastmile_qr_scan", "android": "https://dc.lft.to/lastmile_qr_scan"}, "lon": -76.9376575, "bike_id": "5791d3308b82208fc06aa6c0b19dc557", "type": "electric_scooter", "name": "5791d3308b82208fc06aa6c0b19dc557"}, {"is_disabled": 0, "is_reserved": 0, "fusion_lat": 0.0, "lat": 38.830269333333334, "fusion_lon": 0.0, "rental_uris": {"ios": "https://dc.lft.to/lastmile_qr_scan", "android": "https://dc.lft.to/lastmile_qr_scan"}, "lon": -77.0081675, "bike_id": "318a2168c12e8cf0743cd0a06dd1ebb2", "type": "electric_bike", "name": "318a2168c12e8cf0743cd0a06dd1ebb2"}, {"is_disabled": 0, "is_reserved": 0, "fusion_lat": 0.0, "lat": 38.924127166666665, "fusion_lon": 0.0, "rental_uris": {"ios": "https://dc.lft.to/lastmile_qr_scan", "android": "https://dc.lft.to/lastmile_qr_scan"}, "lon": -77.03417183333333, "bike_id": "07ee085a67d5d6eb7ffa09a0a32b2279", "type": "electric_scooter", "name": "07ee085a67d5d6eb7ffa09a0a32b2279"}, {"is_disabled": 0, "is_reserved": 0, "fusion_lat": 0.0, "lat": 38.918296, "fusion_lon": 0.0, "rental_uris": {"ios": "https://dc.lft.to/lastmile_qr_scan", "android": "https://dc.lft.to/lastmile_qr_scan"}, "lon": -77.03664266666667, "bike_id": "e14dcc7896012224cb8d4fe58e024903", "type": "electric_scooter", "name": "e14dcc7896012224cb8d4fe58e024903"}, {"is_disabled": 0, "is_reserved": 0, "fusion_lat": 0.0, "lat": 38.917632166666664, "fusion_lon": 0.0, "rental_uris": {"ios": "https://dc.lft.to/lastmile_qr_scan", "android": "https://dc.lft.to/lastmile_qr_scan"}, "lon": -77.02806266666667, "bike_id": "bf22a638c430c7657fe2549f14c77071", "type": "electric_scooter", "name": "bf22a638c430c7657fe2549f14c77071"}, {"is_disabled": 0, "is_reserved": 0, "fusion_lat": 0.0, "lat": 38.907362166666665, "fusion_lon": 0.0, "rental_uris": {"ios": "https://dc.lft.to/lastmile_qr_scan", "android": "https://dc.lft.to/lastmile_qr_scan"}, "lon": -77.0335915, "bike_id": "6289ff14dcea75658a8ada6e07977662", "type": "electric_scooter", "name": "6289ff14dcea75658a8ada6e07977662"}, {"is_disabled": 0, "is_reserved": 0, "fusion_lat": 0.0, "lat": 38.89230633333333, "fusion_lon": 0.0, "rental_uris": {"ios": "https://dc.lft.to/lastmile_qr_scan", "android": "https://dc.lft.to/lastmile_qr_scan"}, "lon": -77.023875, "bike_id": "a56ca12434572734806a5a617ff2f15c", "type": "electric_scooter", "name": "a56ca12434572734806a5a617ff2f15c"}, {"is_disabled": 0, "is_reserved": 0, "fusion_lat": 0.0, "lat": 38.941947, "fusion_lon": 0.0, "rental_uris": {"ios": "https://dc.lft.to/lastmile_qr_scan", "android": "https://dc.lft.to/lastmile_qr_scan"}, "lon": -77.08825916666666, "bike_id": "b21288b69b4c4e6fc04d266f792477df", "type": "electric_scooter", "name": "b21288b69b4c4e6fc04d266f792477df"}, {"is_disabled": 0, "is_reserved": 0, "fusion_lat": 0.0, "lat": 38.905394666666666, "fusion_lon": 0.0, "rental_uris": {"ios": "https://dc.lft.to/lastmile_qr_scan", "android": "https://dc.lft.to/lastmile_qr_scan"}, "lon": -77.04869766666667, "bike_id": "3ea88ad201eb021ac62125995e8e2214", "type": "electric_scooter", "name": "3ea88ad201eb021ac62125995e8e2214"}, {"is_disabled": 0, "is_reserved": 0, "fusion_lat": 0.0, "lat": 38.921161, "fusion_lon": 0.0, "rental_uris": {"ios": "https://dc.lft.to/lastmile_qr_scan", "android": "https://dc.lft.to/lastmile_qr_scan"}, "lon": -77.04381983333333, "bike_id": "838ab14b80f54b938d8d8e1517c9cc84", "type": "electric_scooter", "name": "838ab14b80f54b938d8d8e1517c9cc84"}, {"is_disabled": 0, "is_reserved": 0, "fusion_lat": 0.0, "lat": 38.92560616666667, "fusion_lon": 0.0, "rental_uris": {"ios": "https://dc.lft.to/lastmile_qr_scan", "android": "https://dc.lft.to/lastmile_qr_scan"}, "lon": -77.02285766666667, "bike_id": "d76f420122b9fc6b717888e2dc5390b4", "type": "electric_scooter", "name": "d76f420122b9fc6b717888e2dc5390b4"}, {"is_disabled": 0, "is_reserved": 0, "fusion_lat": 0.0, "lat": 38.917284, "fusion_lon": 0.0, "rental_uris": {"ios": "https://dc.lft.to/lastmile_qr_scan", "android": "https://dc.lft.to/lastmile_qr_scan"}, "lon": -77.02499716666667, "bike_id": "a647558c95ab7c16e8840ac53542a917", "type": "electric_scooter", "name": "a647558c95ab7c16e8840ac53542a917"}, {"is_disabled": 0, "is_reserved": 0, "fusion_lat": 0.0, "lat": 38.90722983333333, "fusion_lon": 0.0, "rental_uris": {"ios": "https://dc.lft.to/lastmile_qr_scan", "android": "https://dc.lft.to/lastmile_qr_scan"}, "lon": -77.039802, "bike_id": "7f4c34ff1791240a9e32218b76e10b59", "type": "electric_scooter", "name": "7f4c34ff1791240a9e32218b76e10b59"}, {"is_disabled": 0, "is_reserved": 0, "fusion_lat": 0.0, "lat": 38.88624733333333, "fusion_lon": 0.0, "rental_uris": {"ios": "https://dc.lft.to/lastmile_qr_scan", "android": "https://dc.lft.to/lastmile_qr_scan"}, "lon": -76.98709316666667, "bike_id": "bfa331051fbeab5eb8634a017bb2f2f2", "type": "electric_scooter", "name": "bfa331051fbeab5eb8634a017bb2f2f2"}, {"is_disabled": 0, "is_reserved": 0, "fusion_lat": 0.0, "lat": 38.902382333333335, "fusion_lon": 0.0, "rental_uris": {"ios": "https://dc.lft.to/lastmile_qr_scan", "android": "https://dc.lft.to/lastmile_qr_scan"}, "lon": -77.04686583333333, "bike_id": "67a443baf60c1986142db3427a249d6c", "type": "electric_scooter", "name": "67a443baf60c1986142db3427a249d6c"}, {"is_disabled": 0, "is_reserved": 0, "fusion_lat": 0.0, "lat": 38.908914333333335, "fusion_lon": 0.0, "rental_uris": {"ios": "https://dc.lft.to/lastmile_qr_scan", "android": "https://dc.lft.to/lastmile_qr_scan"}, "lon": -77.02691783333333, "bike_id": "3622365af5ca0a61f232ae46a5e5dbb6", "type": "electric_scooter", "name": "3622365af5ca0a61f232ae46a5e5dbb6"}, {"is_disabled": 0, "is_reserved": 0, "fusion_lat": 0.0, "lat": 38.898455166666665, "fusion_lon": 0.0, "rental_uris": {"ios": "https://dc.lft.to/lastmile_qr_scan", "android": "https://dc.lft.to/lastmile_qr_scan"}, "lon": -77.02860266666667, "bike_id": "a02a8795b9f16288c4368fffd679d4c3", "type": "electric_scooter", "name": "a02a8795b9f16288c4368fffd679d4c3"}, {"is_disabled": 0, "is_reserved": 0, "fusion_lat": 0.0, "lat": 38.892202166666664, "fusion_lon": 0.0, "rental_uris": {"ios": "https://dc.lft.to/lastmile_qr_scan", "android": "https://dc.lft.to/lastmile_qr_scan"}, "lon": -77.04639883333333, "bike_id": "b6742521146a4285635a877c4050bbde", "type": "electric_scooter", "name": "b6742521146a4285635a877c4050bbde"}, {"is_disabled": 0, "is_reserved": 0, "fusion_lat": 0.0, "lat": 38.9237305, "fusion_lon": 0.0, "rental_uris": {"ios": "https://dc.lft.to/lastmile_qr_scan", "android": "https://dc.lft.to/lastmile_qr_scan"}, "lon": -77.02928983333334, "bike_id": "cb58681a922bfca3b744eaa1c72a21b7", "type": "electric_scooter", "name": "cb58681a922bfca3b744eaa1c72a21b7"}, {"is_disabled": 0, "is_reserved": 0, "fusion_lat": 0.0, "lat": 38.896685, "fusion_lon": 0.0, "rental_uris": {"ios": "https://dc.lft.to/lastmile_qr_scan", "android": "https://dc.lft.to/lastmile_qr_scan"}, "lon": -76.94905583333333, "bike_id": "93c567482caa49de8d34ddd5e506d748", "type": "electric_scooter", "name": "93c567482caa49de8d34ddd5e506d748"}, {"is_disabled": 0, "is_reserved": 0, "fusion_lat": 0.0, "lat": 38.872935166666664, "fusion_lon": 0.0, "rental_uris": {"ios": "https://dc.lft.to/lastmile_qr_scan", "android": "https://dc.lft.to/lastmile_qr_scan"}, "lon": -77.0098645, "bike_id": "68838aa82d9f01a07aa65b6dc21851b1", "type": "electric_scooter", "name": "68838aa82d9f01a07aa65b6dc21851b1"}, {"is_disabled": 0, "is_reserved": 0, "fusion_lat": 0.0, "lat": 38.8985395, "fusion_lon": 0.0, "rental_uris": {"ios": "https://dc.lft.to/lastmile_qr_scan", "android": "https://dc.lft.to/lastmile_qr_scan"}, "lon": -76.99614, "bike_id": "b713c9da6e3f72e154b5fc45201ee452", "type": "electric_scooter", "name": "b713c9da6e3f72e154b5fc45201ee452"}, {"is_disabled": 0, "is_reserved": 0, "fusion_lat": 0.0, "lat": 38.9019135, "fusion_lon": 0.0, "rental_uris": {"ios": "https://dc.lft.to/lastmile_qr_scan", "android": "https://dc.lft.to/lastmile_qr_scan"}, "lon": -77.00205733333334, "bike_id": "5a52fe3644dcbef9a4582ed7ef50286b", "type": "electric_scooter", "name": "5a52fe3644dcbef9a4582ed7ef50286b"}, {"is_disabled": 0, "is_reserved": 0, "fusion_lat": 0.0, "lat": 38.90066083333333, "fusion_lon": 0.0, "rental_uris": {"ios": "https://dc.lft.to/lastmile_qr_scan", "android": "https://dc.lft.to/lastmile_qr_scan"}, "lon": -77.04536683333333, "bike_id": "7d27ac29469fae557ae41fd28ea27b2c", "type": "electric_scooter", "name": "7d27ac29469fae557ae41fd28ea27b2c"}, {"is_disabled": 0, "is_reserved": 0, "fusion_lat": 0.0, "lat": 38.904403333333335, "fusion_lon": 0.0, "rental_uris": {"ios": "https://dc.lft.to/lastmile_qr_scan", "android": "https://dc.lft.to/lastmile_qr_scan"}, "lon": -77.043331, "bike_id": "b829bb682d2c84943dc3b616fe73352c", "type": "electric_scooter", "name": "b829bb682d2c84943dc3b616fe73352c"}, {"is_disabled": 0, "is_reserved": 0, "fusion_lat": 0.0, "lat": 38.90338716666667, "fusion_lon": 0.0, "rental_uris": {"ios": "https://dc.lft.to/lastmile_qr_scan", "android": "https://dc.lft.to/lastmile_qr_scan"}, "lon": -77.01657116666667, "bike_id": "741ffd795ef361b296528471cf53d757", "type": "electric_scooter", "name": "741ffd795ef361b296528471cf53d757"}, {"is_disabled": 0, "is_reserved": 0, "fusion_lat": 0.0, "lat": 38.90657683333333, "fusion_lon": 0.0, "rental_uris": {"ios": "https://dc.lft.to/lastmile_qr_scan", "android": "https://dc.lft.to/lastmile_qr_scan"}, "lon": -77.04560783333334, "bike_id": "11a327558201c8ba1dbd374a8be0ec27", "type": "electric_scooter", "name": "11a327558201c8ba1dbd374a8be0ec27"}, {"is_disabled": 0, "is_reserved": 0, "fusion_lat": 0.0, "lat": 38.934769833333334, "fusion_lon": 0.0, "rental_uris": {"ios": "https://dc.lft.to/lastmile_qr_scan", "android": "https://dc.lft.to/lastmile_qr_scan"}, "lon": -77.07349, "bike_id": "822ef614ab8b8309b1176b2259a77f7b", "type": "electric_scooter", "name": "822ef614ab8b8309b1176b2259a77f7b"}, {"is_disabled": 0, "is_reserved": 0, "fusion_lat": 0.0, "lat": 38.84278916666667, "fusion_lon": 0.0, "rental_uris": {"ios": "https://dc.lft.to/lastmile_qr_scan", "android": "https://dc.lft.to/lastmile_qr_scan"}, "lon": -76.98842783333333, "bike_id": "4f80873d2513972c37e5ef50d86e81c5", "type": "electric_scooter", "name": "4f80873d2513972c37e5ef50d86e81c5"}, {"is_disabled": 0, "is_reserved": 0, "fusion_lat": 0.0, "lat": 38.952216666666665, "fusion_lon": 0.0, "rental_uris": {"ios": "https://dc.lft.to/lastmile_qr_scan", "android": "https://dc.lft.to/lastmile_qr_scan"}, "lon": -77.088668, "bike_id": "c7c6d0a4ad75a271940f910ed80975a6", "type": "electric_scooter", "name": "c7c6d0a4ad75a271940f910ed80975a6"}, {"is_disabled": 0, "is_reserved": 0, "fusion_lat": 0.0, "lat": 38.88298416666667, "fusion_lon": 0.0, "rental_uris": {"ios": "https://dc.lft.to/lastmile_qr_scan", "android": "https://dc.lft.to/lastmile_qr_scan"}, "lon": -76.93498366666667, "bike_id": "69852cb7d2151a9ba9817352b8234e52", "type": "electric_scooter", "name": "69852cb7d2151a9ba9817352b8234e52"}, {"is_disabled": 0, "is_reserved": 0, "fusion_lat": 0.0, "lat": 38.924185333333334, "fusion_lon": 0.0, "rental_uris": {"ios": "https://dc.lft.to/lastmile_qr_scan", "android": "https://dc.lft.to/lastmile_qr_scan"}, "lon": -77.0201025, "bike_id": "b6a3e6d7a419963ada6f2496ef77693d", "type": "electric_scooter", "name": "b6a3e6d7a419963ada6f2496ef77693d"}, {"is_disabled": 0, "is_reserved": 0, "fusion_lat": 0.0, "lat": 38.85245416666667, "fusion_lon": 0.0, "rental_uris": {"ios": "https://dc.lft.to/lastmile_qr_scan", "android": "https://dc.lft.to/lastmile_qr_scan"}, "lon": -77.11411083333333, "bike_id": "e8b128d976356e2c484cbe27d9793673", "type": "electric_bike", "name": "e8b128d976356e2c484cbe27d9793673"}, {"is_disabled": 0, "is_reserved": 0, "fusion_lat": 0.0, "lat": 38.901467333333336, "fusion_lon": 0.0, "rental_uris": {"ios": "https://dc.lft.to/lastmile_qr_scan", "android": "https://dc.lft.to/lastmile_qr_scan"}, "lon": -76.9298555, "bike_id": "b3b955e686bf36e453eb3c33d2b44dc7", "type": "electric_scooter", "name": "b3b955e686bf36e453eb3c33d2b44dc7"}, {"is_disabled": 0, "is_reserved": 0, "fusion_lat": 0.0, "lat": 38.90545216666666, "fusion_lon": 0.0, "rental_uris": {"ios": "https://dc.lft.to/lastmile_qr_scan", "android": "https://dc.lft.to/lastmile_qr_scan"}, "lon": -76.9864735, "bike_id": "dacaf467bc6dc6e94b974454d05084c6", "type": "electric_scooter", "name": "dacaf467bc6dc6e94b974454d05084c6"}, {"is_disabled": 0, "is_reserved": 0, "fusion_lat": 0.0, "lat": 39.006554666666666, "fusion_lon": 0.0, "rental_uris": {"ios": "https://dc.lft.to/lastmile_qr_scan", "android": "https://dc.lft.to/lastmile_qr_scan"}, "lon": -76.90020783333334, "bike_id": "86d4532bbe5f5ed3d5b88c7cf2c040aa", "type": "electric_bike", "name": "86d4532bbe5f5ed3d5b88c7cf2c040aa"}, {"is_disabled": 0, "is_reserved": 0, "fusion_lat": 0.0, "lat": 38.924227333333334, "fusion_lon": 0.0, "rental_uris": {"ios": "https://dc.lft.to/lastmile_qr_scan", "android": "https://dc.lft.to/lastmile_qr_scan"}, "lon": -77.0448115, "bike_id": "db1fbe789e9b834e7530dc51bb5fb740", "type": "electric_scooter", "name": "db1fbe789e9b834e7530dc51bb5fb740"}, {"is_disabled": 0, "is_reserved": 0, "fusion_lat": 0.0, "lat": 38.9247235, "fusion_lon": 0.0, "rental_uris": {"ios": "https://dc.lft.to/lastmile_qr_scan", "android": "https://dc.lft.to/lastmile_qr_scan"}, "lon": -77.02717433333333, "bike_id": "d866628b6f2657cba6b3c4e2cc728cec", "type": "electric_scooter", "name": "d866628b6f2657cba6b3c4e2cc728cec"}, {"is_disabled": 0, "is_reserved": 0, "fusion_lat": 0.0, "lat": 38.92319833333333, "fusion_lon": 0.0, "rental_uris": {"ios": "https://dc.lft.to/lastmile_qr_scan", "android": "https://dc.lft.to/lastmile_qr_scan"}, "lon": -77.028911, "bike_id": "0934f98ace9ab0d7a2b10852c7ef1048", "type": "electric_scooter", "name": "0934f98ace9ab0d7a2b10852c7ef1048"}, {"is_disabled": 0, "is_reserved": 0, "fusion_lat": 0.0, "lat": 38.89508633333333, "fusion_lon": 0.0, "rental_uris": {"ios": "https://dc.lft.to/lastmile_qr_scan", "android": "https://dc.lft.to/lastmile_qr_scan"}, "lon": -77.022913, "bike_id": "83b7d3890ca7865dcbfb84bae0077991", "type": "electric_scooter", "name": "83b7d3890ca7865dcbfb84bae0077991"}, {"is_disabled": 0, "is_reserved": 0, "fusion_lat": 0.0, "lat": 38.937850166666664, "fusion_lon": 0.0, "rental_uris": {"ios": "https://dc.lft.to/lastmile_qr_scan", "android": "https://dc.lft.to/lastmile_qr_scan"}, "lon": -77.02304283333334, "bike_id": "5e67a04d38c6d42191615e66f442846b", "type": "electric_scooter", "name": "5e67a04d38c6d42191615e66f442846b"}, {"is_disabled": 0, "is_reserved": 0, "fusion_lat": 0.0, "lat": 38.90008016666667, "fusion_lon": 0.0, "rental_uris": {"ios": "https://dc.lft.to/lastmile_qr_scan", "android": "https://dc.lft.to/lastmile_qr_scan"}, "lon": -76.97990016666667, "bike_id": "1fade8cd0ffd26dbd91cdd8cafcf47ea", "type": "electric_scooter", "name": "1fade8cd0ffd26dbd91cdd8cafcf47ea"}, {"is_disabled": 0, "is_reserved": 0, "fusion_lat": 0.0, "lat": 38.900570333333334, "fusion_lon": 0.0, "rental_uris": {"ios": "https://dc.lft.to/lastmile_qr_scan", "android": "https://dc.lft.to/lastmile_qr_scan"}, "lon": -77.00650333333333, "bike_id": "bcf3eb446866b89409467504b792ed3a", "type": "electric_scooter", "name": "bcf3eb446866b89409467504b792ed3a"}, {"is_disabled": 0, "is_reserved": 0, "fusion_lat": 0.0, "lat": 38.92059283333333, "fusion_lon": 0.0, "rental_uris": {"ios": "https://dc.lft.to/lastmile_qr_scan", "android": "https://dc.lft.to/lastmile_qr_scan"}, "lon": -77.02302433333334, "bike_id": "268c42ebb11028f9527981c40ca2783b", "type": "electric_scooter", "name": "268c42ebb11028f9527981c40ca2783b"}, {"is_disabled": 0, "is_reserved": 0, "fusion_lat": 0.0, "lat": 38.916359, "fusion_lon": 0.0, "rental_uris": {"ios": "https://dc.lft.to/lastmile_qr_scan", "android": "https://dc.lft.to/lastmile_qr_scan"}, "lon": -77.02694533333333, "bike_id": "07a7512faefed08bd663b9206f77074f", "type": "electric_scooter", "name": "07a7512faefed08bd663b9206f77074f"}, {"is_disabled": 0, "is_reserved": 0, "fusion_lat": 0.0, "lat": 38.903338, "fusion_lon": 0.0, "rental_uris": {"ios": "https://dc.lft.to/lastmile_qr_scan", "android": "https://dc.lft.to/lastmile_qr_scan"}, "lon": -76.97591133333333, "bike_id": "b9a4f0375d83a3fe347a7d36cb185a57", "type": "electric_scooter", "name": "b9a4f0375d83a3fe347a7d36cb185a57"}, {"is_disabled": 0, "is_reserved": 0, "fusion_lat": 0.0, "lat": 38.8709065, "fusion_lon": 0.0, "rental_uris": {"ios": "https://dc.lft.to/lastmile_qr_scan", "android": "https://dc.lft.to/lastmile_qr_scan"}, "lon": -77.01207183333334, "bike_id": "7c8c8294685a10151344903540d4eaa0", "type": "electric_scooter", "name": "7c8c8294685a10151344903540d4eaa0"}, {"is_disabled": 0, "is_reserved": 0, "fusion_lat": 0.0, "lat": 38.92074266666667, "fusion_lon": 0.0, "rental_uris": {"ios": "https://dc.lft.to/lastmile_qr_scan", "android": "https://dc.lft.to/lastmile_qr_scan"}, "lon": -77.02511983333333, "bike_id": "fbffcbabdc2b58248eff03123572c2a3", "type": "electric_scooter", "name": "fbffcbabdc2b58248eff03123572c2a3"}, {"is_disabled": 0, "is_reserved": 0, "fusion_lat": 0.0, "lat": 38.89931383333333, "fusion_lon": 0.0, "rental_uris": {"ios": "https://dc.lft.to/lastmile_qr_scan", "android": "https://dc.lft.to/lastmile_qr_scan"}, "lon": -77.040038, "bike_id": "72fe84c6a4342c834eb6c0e44cc64ca2", "type": "electric_scooter", "name": "72fe84c6a4342c834eb6c0e44cc64ca2"}, {"is_disabled": 0, "is_reserved": 0, "fusion_lat": 0.0, "lat": 38.92868716666667, "fusion_lon": 0.0, "rental_uris": {"ios": "https://dc.lft.to/lastmile_qr_scan", "android": "https://dc.lft.to/lastmile_qr_scan"}, "lon": -77.07895783333333, "bike_id": "42baaab96262bb028488134eda830e59", "type": "electric_scooter", "name": "42baaab96262bb028488134eda830e59"}, {"is_disabled": 0, "is_reserved": 0, "fusion_lat": 0.0, "lat": 38.8764085, "fusion_lon": 0.0, "rental_uris": {"ios": "https://dc.lft.to/lastmile_qr_scan", "android": "https://dc.lft.to/lastmile_qr_scan"}, "lon": -77.0082335, "bike_id": "2633eebc75908c8a64f8f7efb7aadcc8", "type": "electric_scooter", "name": "2633eebc75908c8a64f8f7efb7aadcc8"}, {"is_disabled": 0, "is_reserved": 0, "fusion_lat": 0.0, "lat": 38.90259183333333, "fusion_lon": 0.0, "rental_uris": {"ios": "https://dc.lft.to/lastmile_qr_scan", "android": "https://dc.lft.to/lastmile_qr_scan"}, "lon": -76.9284665, "bike_id": "3194d82a4130a63511c1d93d567c450b", "type": "electric_scooter", "name": "3194d82a4130a63511c1d93d567c450b"}, {"is_disabled": 0, "is_reserved": 0, "fusion_lat": 0.0, "lat": 38.97342783333333, "fusion_lon": 0.0, "rental_uris": {"ios": "https://dc.lft.to/lastmile_qr_scan", "android": "https://dc.lft.to/lastmile_qr_scan"}, "lon": -77.01790916666667, "bike_id": "5ec3ab040a24a56798c460e4d74f91bf", "type": "electric_bike", "name": "5ec3ab040a24a56798c460e4d74f91bf"}, {"is_disabled": 0, "is_reserved": 0, "fusion_lat": 0.0, "lat": 38.88363283333333, "fusion_lon": 0.0, "rental_uris": {"ios": "https://dc.lft.to/lastmile_qr_scan", "android": "https://dc.lft.to/lastmile_qr_scan"}, "lon": -76.92791016666666, "bike_id": "9fae7d62a4ff863269692edb92b3b654", "type": "electric_scooter", "name": "9fae7d62a4ff863269692edb92b3b654"}, {"is_disabled": 0, "is_reserved": 0, "fusion_lat": 0.0, "lat": 38.90270533333333, "fusion_lon": 0.0, "rental_uris": {"ios": "https://dc.lft.to/lastmile_qr_scan", "android": "https://dc.lft.to/lastmile_qr_scan"}, "lon": -77.034396, "bike_id": "05d651d5c9d8e87b153f997e4dc73d9f", "type": "electric_scooter", "name": "05d651d5c9d8e87b153f997e4dc73d9f"}, {"is_disabled": 0, "is_reserved": 0, "fusion_lat": 0.0, "lat": 38.912693, "fusion_lon": 0.0, "rental_uris": {"ios": "https://dc.lft.to/lastmile_qr_scan", "android": "https://dc.lft.to/lastmile_qr_scan"}, "lon": -77.031406, "bike_id": "09e6cd2ccd4bc54d01abcc81df59b59a", "type": "electric_scooter", "name": "09e6cd2ccd4bc54d01abcc81df59b59a"}, {"is_disabled": 0, "is_reserved": 0, "fusion_lat": 0.0, "lat": 38.91912133333334, "fusion_lon": 0.0, "rental_uris": {"ios": "https://dc.lft.to/lastmile_qr_scan", "android": "https://dc.lft.to/lastmile_qr_scan"}, "lon": -77.04813983333334, "bike_id": "c8094f8db65a5256bf97b92ca67e9248", "type": "electric_scooter", "name": "c8094f8db65a5256bf97b92ca67e9248"}, {"is_disabled": 0, "is_reserved": 0, "fusion_lat": 0.0, "lat": 38.91787933333333, "fusion_lon": 0.0, "rental_uris": {"ios": "https://dc.lft.to/lastmile_qr_scan", "android": "https://dc.lft.to/lastmile_qr_scan"}, "lon": -77.03204983333333, "bike_id": "157cad95bdd7fac8080fd9cb36f5f122", "type": "electric_scooter", "name": "157cad95bdd7fac8080fd9cb36f5f122"}, {"is_disabled": 0, "is_reserved": 0, "fusion_lat": 0.0, "lat": 38.89224633333333, "fusion_lon": 0.0, "rental_uris": {"ios": "https://dc.lft.to/lastmile_qr_scan", "android": "https://dc.lft.to/lastmile_qr_scan"}, "lon": -77.0445755, "bike_id": "162ba8b43807f641df4359d51a193b76", "type": "electric_scooter", "name": "162ba8b43807f641df4359d51a193b76"}, {"is_disabled": 0, "is_reserved": 0, "fusion_lat": 0.0, "lat": 38.9169025, "fusion_lon": 0.0, "rental_uris": {"ios": "https://dc.lft.to/lastmile_qr_scan", "android": "https://dc.lft.to/lastmile_qr_scan"}, "lon": -77.041746, "bike_id": "c49833df0a7ff58bbbef48527375e297", "type": "electric_scooter", "name": "c49833df0a7ff58bbbef48527375e297"}, {"is_disabled": 0, "is_reserved": 0, "fusion_lat": 0.0, "lat": 38.901487833333334, "fusion_lon": 0.0, "rental_uris": {"ios": "https://dc.lft.to/lastmile_qr_scan", "android": "https://dc.lft.to/lastmile_qr_scan"}, "lon": -76.98556583333334, "bike_id": "316d3d231243178bf625d73e0b8beb25", "type": "electric_scooter", "name": "316d3d231243178bf625d73e0b8beb25"}, {"is_disabled": 0, "is_reserved": 0, "fusion_lat": 0.0, "lat": 38.91924, "fusion_lon": 0.0, "rental_uris": {"ios": "https://dc.lft.to/lastmile_qr_scan", "android": "https://dc.lft.to/lastmile_qr_scan"}, "lon": -77.03441166666667, "bike_id": "2b27fd0c029e49123292577d11160590", "type": "electric_scooter", "name": "2b27fd0c029e49123292577d11160590"}, {"is_disabled": 0, "is_reserved": 0, "fusion_lat": 0.0, "lat": 38.9180545, "fusion_lon": 0.0, "rental_uris": {"ios": "https://dc.lft.to/lastmile_qr_scan", "android": "https://dc.lft.to/lastmile_qr_scan"}, "lon": -77.02494883333334, "bike_id": "c44aaf0e599060e74fa9a52d561bfe3d", "type": "electric_scooter", "name": "c44aaf0e599060e74fa9a52d561bfe3d"}, {"is_disabled": 0, "is_reserved": 0, "fusion_lat": 0.0, "lat": 38.8744555, "fusion_lon": 0.0, "rental_uris": {"ios": "https://dc.lft.to/lastmile_qr_scan", "android": "https://dc.lft.to/lastmile_qr_scan"}, "lon": -77.00927283333333, "bike_id": "819211b5c40f8c90b33c6471277d8920", "type": "electric_scooter", "name": "819211b5c40f8c90b33c6471277d8920"}, {"is_disabled": 0, "is_reserved": 0, "fusion_lat": 0.0, "lat": 38.87841866666667, "fusion_lon": 0.0, "rental_uris": {"ios": "https://dc.lft.to/lastmile_qr_scan", "android": "https://dc.lft.to/lastmile_qr_scan"}, "lon": -76.93130516666666, "bike_id": "6d2c22a20132e7addbabd3527d491b82", "type": "electric_scooter", "name": "6d2c22a20132e7addbabd3527d491b82"}, {"is_disabled": 0, "is_reserved": 0, "fusion_lat": 0.0, "lat": 38.9017105, "fusion_lon": 0.0, "rental_uris": {"ios": "https://dc.lft.to/lastmile_qr_scan", "android": "https://dc.lft.to/lastmile_qr_scan"}, "lon": -76.9878325, "bike_id": "c8854d4d1b83e3c2fd53a22f8c4cb5bc", "type": "electric_scooter", "name": "c8854d4d1b83e3c2fd53a22f8c4cb5bc"}, {"is_disabled": 0, "is_reserved": 0, "fusion_lat": 0.0, "lat": 38.93174633333334, "fusion_lon": 0.0, "rental_uris": {"ios": "https://dc.lft.to/lastmile_qr_scan", "android": "https://dc.lft.to/lastmile_qr_scan"}, "lon": -77.02342483333334, "bike_id": "3cd02b299ece1c7ce0f4c654431f1447", "type": "electric_scooter", "name": "3cd02b299ece1c7ce0f4c654431f1447"}, {"is_disabled": 0, "is_reserved": 0, "fusion_lat": 0.0, "lat": 38.981442, "fusion_lon": 0.0, "rental_uris": {"ios": "https://dc.lft.to/lastmile_qr_scan", "android": "https://dc.lft.to/lastmile_qr_scan"}, "lon": -77.007763, "bike_id": "3db4fd4d6fcf195f12fe63dd98cd788a", "type": "electric_bike", "name": "3db4fd4d6fcf195f12fe63dd98cd788a"}, {"is_disabled": 0, "is_reserved": 0, "fusion_lat": 0.0, "lat": 39.010664, "fusion_lon": 0.0, "rental_uris": {"ios": "https://dc.lft.to/lastmile_qr_scan", "android": "https://dc.lft.to/lastmile_qr_scan"}, "lon": -76.92242766666666, "bike_id": "ae055d732d8e6dda6434616cdf43f39e", "type": "electric_bike", "name": "ae055d732d8e6dda6434616cdf43f39e"}, {"is_disabled": 0, "is_reserved": 0, "fusion_lat": 0.0, "lat": 38.9012525, "fusion_lon": 0.0, "rental_uris": {"ios": "https://dc.lft.to/lastmile_qr_scan", "android": "https://dc.lft.to/lastmile_qr_scan"}, "lon": -77.00364283333333, "bike_id": "801330353b704101d4d26b572164dedc", "type": "electric_scooter", "name": "801330353b704101d4d26b572164dedc"}, {"is_disabled": 0, "is_reserved": 0, "fusion_lat": 0.0, "lat": 38.899992166666664, "fusion_lon": 0.0, "rental_uris": {"ios": "https://dc.lft.to/lastmile_qr_scan", "android": "https://dc.lft.to/lastmile_qr_scan"}, "lon": -77.01189416666666, "bike_id": "04ca2127e81d28023dbb72966c31802b", "type": "electric_scooter", "name": "04ca2127e81d28023dbb72966c31802b"}, {"is_disabled": 0, "is_reserved": 0, "fusion_lat": 0.0, "lat": 38.90359133333333, "fusion_lon": 0.0, "rental_uris": {"ios": "https://dc.lft.to/lastmile_qr_scan", "android": "https://dc.lft.to/lastmile_qr_scan"}, "lon": -77.03206633333333, "bike_id": "afd46d0cea7ef0d74c527633d9648cb4", "type": "electric_scooter", "name": "afd46d0cea7ef0d74c527633d9648cb4"}, {"is_disabled": 0, "is_reserved": 0, "fusion_lat": 0.0, "lat": 38.91773333333333, "fusion_lon": 0.0, "rental_uris": {"ios": "https://dc.lft.to/lastmile_qr_scan", "android": "https://dc.lft.to/lastmile_qr_scan"}, "lon": -77.0211265, "bike_id": "75df4a87a3c23d87af8da961a5ba9c00", "type": "electric_scooter", "name": "75df4a87a3c23d87af8da961a5ba9c00"}, {"is_disabled": 0, "is_reserved": 0, "fusion_lat": 0.0, "lat": 38.902440166666665, "fusion_lon": 0.0, "rental_uris": {"ios": "https://dc.lft.to/lastmile_qr_scan", "android": "https://dc.lft.to/lastmile_qr_scan"}, "lon": -77.02825166666666, "bike_id": "679ec8e03c930c42ace09a1a5aa4f763", "type": "electric_scooter", "name": "679ec8e03c930c42ace09a1a5aa4f763"}, {"is_disabled": 0, "is_reserved": 0, "fusion_lat": 0.0, "lat": 38.921283333333335, "fusion_lon": 0.0, "rental_uris": {"ios": "https://dc.lft.to/lastmile_qr_scan", "android": "https://dc.lft.to/lastmile_qr_scan"}, "lon": -77.04695083333333, "bike_id": "662b3626ad69f0c0be5e3c97185a9e8c", "type": "electric_scooter", "name": "662b3626ad69f0c0be5e3c97185a9e8c"}, {"is_disabled": 0, "is_reserved": 0, "fusion_lat": 0.0, "lat": 38.94084616666667, "fusion_lon": 0.0, "rental_uris": {"ios": "https://dc.lft.to/lastmile_qr_scan", "android": "https://dc.lft.to/lastmile_qr_scan"}, "lon": -77.0015725, "bike_id": "ad0055a12e353f2b5570ea9f87d22a3a", "type": "electric_bike", "name": "ad0055a12e353f2b5570ea9f87d22a3a"}, {"is_disabled": 0, "is_reserved": 0, "fusion_lat": 0.0, "lat": 38.90031466666667, "fusion_lon": 0.0, "rental_uris": {"ios": "https://dc.lft.to/lastmile_qr_scan", "android": "https://dc.lft.to/lastmile_qr_scan"}, "lon": -77.00369233333333, "bike_id": "e1ff3afc2d88c779a528ff2099995630", "type": "electric_scooter", "name": "e1ff3afc2d88c779a528ff2099995630"}, {"is_disabled": 0, "is_reserved": 0, "fusion_lat": 0.0, "lat": 38.910943, "fusion_lon": 0.0, "rental_uris": {"ios": "https://dc.lft.to/lastmile_qr_scan", "android": "https://dc.lft.to/lastmile_qr_scan"}, "lon": -77.08763666666667, "bike_id": "f08f10778b194f11a6dc2461139fbb7c", "type": "electric_bike", "name": "f08f10778b194f11a6dc2461139fbb7c"}, {"is_disabled": 0, "is_reserved": 0, "fusion_lat": 0.0, "lat": 38.92241766666667, "fusion_lon": 0.0, "rental_uris": {"ios": "https://dc.lft.to/lastmile_qr_scan", "android": "https://dc.lft.to/lastmile_qr_scan"}, "lon": -77.04019583333333, "bike_id": "83b98474ae162b78c54435561b334f73", "type": "electric_scooter", "name": "83b98474ae162b78c54435561b334f73"}, {"is_disabled": 0, "is_reserved": 0, "fusion_lat": 0.0, "lat": 38.93196433333333, "fusion_lon": 0.0, "rental_uris": {"ios": "https://dc.lft.to/lastmile_qr_scan", "android": "https://dc.lft.to/lastmile_qr_scan"}, "lon": -77.03888016666667, "bike_id": "971e9d72533012ead6848621e3c134d2", "type": "electric_scooter", "name": "971e9d72533012ead6848621e3c134d2"}, {"is_disabled": 0, "is_reserved": 0, "fusion_lat": 0.0, "lat": 38.9060665, "fusion_lon": 0.0, "rental_uris": {"ios": "https://dc.lft.to/lastmile_qr_scan", "android": "https://dc.lft.to/lastmile_qr_scan"}, "lon": -77.05650766666666, "bike_id": "e652ae03a34b8d781ff560bff7779b07", "type": "electric_scooter", "name": "e652ae03a34b8d781ff560bff7779b07"}, {"is_disabled": 0, "is_reserved": 0, "fusion_lat": 0.0, "lat": 38.909115166666666, "fusion_lon": 0.0, "rental_uris": {"ios": "https://dc.lft.to/lastmile_qr_scan", "android": "https://dc.lft.to/lastmile_qr_scan"}, "lon": -77.0494255, "bike_id": "a889c8f512c516a418e8287612b424ad", "type": "electric_scooter", "name": "a889c8f512c516a418e8287612b424ad"}, {"is_disabled": 0, "is_reserved": 0, "fusion_lat": 0.0, "lat": 38.897339333333335, "fusion_lon": 0.0, "rental_uris": {"ios": "https://dc.lft.to/lastmile_qr_scan", "android": "https://dc.lft.to/lastmile_qr_scan"}, "lon": -77.04421966666666, "bike_id": "baf87e685216b656e72d144b4b55a531", "type": "electric_scooter", "name": "baf87e685216b656e72d144b4b55a531"}, {"is_disabled": 0, "is_reserved": 0, "fusion_lat": 0.0, "lat": 38.928166833333336, "fusion_lon": 0.0, "rental_uris": {"ios": "https://dc.lft.to/lastmile_qr_scan", "android": "https://dc.lft.to/lastmile_qr_scan"}, "lon": -77.03608883333334, "bike_id": "58e6540ecd76c4a67c1e7c5a3de2e246", "type": "electric_scooter", "name": "58e6540ecd76c4a67c1e7c5a3de2e246"}, {"is_disabled": 0, "is_reserved": 0, "fusion_lat": 0.0, "lat": 38.90362233333333, "fusion_lon": 0.0, "rental_uris": {"ios": "https://dc.lft.to/lastmile_qr_scan", "android": "https://dc.lft.to/lastmile_qr_scan"}, "lon": -77.025903, "bike_id": "3739fb6c24d89160e5ffbe852d0e8bdf", "type": "electric_scooter", "name": "3739fb6c24d89160e5ffbe852d0e8bdf"},