{"data": {"bikes": [{"lat": 38.8860005, "is_disabled": 0, "type": "electric_scooter", "lon": -77.021928, "bike_id": "d8ed1c748b0e537007b33fe7878611dd", "fusion_lat": 0.0, "name": "d8ed1c748b0e537007b33fe7878611dd", "is_reserved": 0, "rental_uris": {"android": "https://dc.lft.to/lastmile_qr_scan", "ios": "https://dc.lft.to/lastmile_qr_scan"}, "fusion_lon": 0.0}, {"lat": 38.92052966666667, "is_disabled": 0, "type": "electric_scooter", "lon": -77.028757, "bike_id": "65ce3590c70b5c110f5ed65cd9f276b5", "fusion_lat": 0.0, "name": "65ce3590c70b5c110f5ed65cd9f276b5", "is_reserved": 0, "rental_uris": {"android": "https://dc.lft.to/lastmile_qr_scan", "ios": "https://dc.lft.to/lastmile_qr_scan"}, "fusion_lon": 0.0}, {"lat": 38.91121866666667, "is_disabled": 0, "type": "electric_scooter", "lon": -77.0301025, "bike_id": "1e01efba131a599532c2725dd9244860", "fusion_lat": 0.0, "name": "1e01efba131a599532c2725dd9244860", "is_reserved": 0, "rental_uris": {"android": "https://dc.lft.to/lastmile_qr_scan", "ios": "https://dc.lft.to/lastmile_qr_scan"}, "fusion_lon": 0.0}, {"lat": 38.93066783333333, "is_disabled": 0, "type": "electric_scooter", "lon": -77.02813866666666, "bike_id": "b1af9c145ce8df5f15ce026b846459ad", "fusion_lat": 0.0, "name": "b1af9c145ce8df5f15ce026b846459ad", "is_reserved": 0, "rental_uris": {"android": "https://dc.lft.to/lastmile_qr_scan", "ios": "https://dc.lft.to/lastmile_qr_scan"}, "fusion_lon": 0.0}, {"lat": 38.922194833333336, "is_disabled": 0, "type": "electric_scooter", "lon": -77.04234266666667, "bike_id": "ab9d92c45999f6eccfd498fb456185fd", "fusion_lat": 0.0, "name": "ab9d92c45999f6eccfd498fb456185fd", "is_reserved": 0, "rental_uris": {"android": "https://dc.lft.to/lastmile_qr_scan", "ios": "https://dc.lft.to/lastmile_qr_scan"}, "fusion_lon": 0.0}, {"lat": 38.9276945, "is_disabled": 0, "type": "electric_scooter", "lon": -77.02776183333333, "bike_id": "59dd31200a2c1b690b0a055edddef354", "fusion_lat": 0.0, "name": "59dd31200a2c1b690b0a055edddef354", "is_reserved": 0, "rental_uris": {"android": "https://dc.lft.to/lastmile_qr_scan", "ios": "https://dc.lft.to/lastmile_qr_scan"}, "fusion_lon": 0.0}, {"lat": 38.91833283333333, "is_disabled": 0, "type": "electric_scooter", "lon": -77.0394325, "bike_id": "a57795617c1be018b6de7550847d1c84", "fusion_lat": 0.0, "name": "a57795617c1be018b6de7550847d1c84", "is_reserved": 0, "rental_uris": {"android": "https://dc.lft.to/lastmile_qr_scan", "ios": "https://dc.lft.to/lastmile_qr_scan"}, "fusion_lon": 0.0}, {"lat": 38.9028355, "is_disabled": 0, "type": "electric_scooter", "lon": -77.03938583333333, "bike_id": "0e00111f2bffe7e7b529ff1d5dfd52f1", "fusion_lat": 0.0, "name": "0e00111f2bffe7e7b529ff1d5dfd52f1", "is_reserved": 0, "rental_uris": {"android": "https://dc.lft.to/lastmile_qr_scan", "ios": "https://dc.lft.to/lastmile_qr_scan"}, "fusion_lon": 0.0}, {"lat": 38.932312333333336, "is_disabled": 0, "type": "electric_scooter", "lon": -76.99602683333333, "bike_id": "5bfe5187ddd6e725c18ccd98309d654d", "fusion_lat": 0.0, "name": "5bfe5187ddd6e725c18ccd98309d654d", "is_reserved": 0, "rental_uris": {"android": "https://dc.lft.to/lastmile_qr_scan", "ios": "https://dc.lft.to/lastmile_qr_scan"}, "fusion_lon": 0.0}, {"lat": 38.92741383333333, "is_disabled": 0, "type": "electric_scooter", "lon": -77.02248116666667, "bike_id": "81cb8d91c07b6ff7a0612867439794fb", "fusion_lat": 0.0, "name": "81cb8d91c07b6ff7a0612867439794fb", "is_reserved": 0, "rental_uris": {"android": "https://dc.lft.to/lastmile_qr_scan", "ios": "https://dc.lft.to/lastmile_qr_scan"}, "fusion_lon": 0.0}, {"lat": 38.916185666666664, "is_disabled": 0, "type": "electric_scooter", "lon": -76.97947616666667, "bike_id": "d5306f6ac26d5aaa1b758a6861a384ed", "fusion_lat": 0.0, "name": "d5306f6ac26d5aaa1b758a6861a384ed", "is_reserved": 0, "rental_uris": {"android": "https://dc.lft.to/lastmile_qr_scan", "ios": "https://dc.lft.to/lastmile_qr_scan"}, "fusion_lon": 0.0}, {"lat": 38.935205333333336, "is_disabled": 0, "type": "electric_scooter", "lon": -77.0369285, "bike_id": "c679fc86b8551594ac44db89c7522784", "fusion_lat": 0.0, "name": "c679fc86b8551594ac44db89c7522784", "is_reserved": 0, "rental_uris": {"android": "https://dc.lft.to/lastmile_qr_scan", "ios": "https://dc.lft.to/lastmile_qr_scan"}, "fusion_lon": 0.0}, {"lat": 38.91253233333333, "is_disabled": 0, "type": "electric_scooter", "lon": -77.03859233333333, "bike_id": "52027c42fa1b1ec18ddaae27f1a8cdab", "fusion_lat": 0.0, "name": "52027c42fa1b1ec18ddaae27f1a8cdab", "is_reserved": 0, "rental_uris": {"android": "https://dc.lft.to/lastmile_qr_scan", "ios": "https://dc.lft.to/lastmile_qr_scan"}, "fusion_lon": 0.0}, {"lat": 38.910615166666666, "is_disabled": 0, "type": "electric_scooter", "lon": -77.052458, "bike_id": "cb0896ac53f6e1f42f9293a3595a33be", "fusion_lat": 0.0, "name": "cb0896ac53f6e1f42f9293a3595a33be", "is_reserved": 0, "rental_uris": {"android": "https://dc.lft.to/lastmile_qr_scan", "ios": "https://dc.lft.to/lastmile_qr_scan"}, "fusion_lon": 0.0}, {"lat": 38.95184666666667, "is_disabled": 0, "type": "electric_bike", "lon": -76.935407, "bike_id": "76b05de70a0e2406de2f6f2f1410c3e5", "fusion_lat": 0.0, "name": "76b05de70a0e2406de2f6f2f1410c3e5", "is_reserved": 0, "rental_uris": {"android": "https://dc.lft.to/lastmile_qr_scan", "ios": "https://dc.lft.to/lastmile_qr_scan"}, "fusion_lon": 0.0}, {"lat": 38.90662966666667, "is_disabled": 0, "type": "electric_scooter", "lon": -77.01534833333334, "bike_id": "fad5f7e841115e16ee1bc28903632b90", "fusion_lat": 0.0, "name": "fad5f7e841115e16ee1bc28903632b90", "is_reserved": 0, "rental_uris": {"android": "https://dc.lft.to/lastmile_qr_scan", "ios": "https://dc.lft.to/lastmile_qr_scan"}, "fusion_lon": 0.0}, {"lat": 38.907380333333336, "is_disabled": 0, "type": "electric_scooter", "lon": -77.04221066666666, "bike_id": "72dc15bdaaf808d25986b6e774fac8ab", "fusion_lat": 0.0, "name": "72dc15bdaaf808d25986b6e774fac8ab", "is_reserved": 0, "rental_uris": {"android": "https://dc.lft.to/lastmile_qr_scan", "ios": "https://dc.lft.to/lastmile_qr_scan"}, "fusion_lon": 0.0}, {"lat": 38.87728583333333, "is_disabled": 0, "type": "electric_bike", "lon": -77.11853366666666, "bike_id": "b1ae8518bf469b55cc522eba2129a178", "fusion_lat": 0.0, "name": "b1ae8518bf469b55cc522eba2129a178", "is_reserved": 0, "rental_uris": {"android": "https://dc.lft.to/lastmile_qr_scan", "ios": "https://dc.lft.to/lastmile_qr_scan"}, "fusion_lon": 0.0}, {"lat": 38.862540833333334, "is_disabled": 0, "type": "electric_scooter", "lon": -76.98696066666666, "bike_id": "04b3654d0fd4770d6b178c48ca169fd9", "fusion_lat": 0.0, "name": "04b3654d0fd4770d6b178c48ca169fd9", "is_reserved": 0, "rental_uris": {"android": "https://dc.lft.to/lastmile_qr_scan", "ios": "https://dc.lft.to/lastmile_qr_scan"}, "fusion_lon": 0.0}, {"lat": 38.910530333333334, "is_disabled": 0, "type": "electric_scooter", "lon": -77.0151685, "bike_id": "312316406aeab0ff7467a74d69cee481", "fusion_lat": 0.0, "name": "312316406aeab0ff7467a74d69cee481", "is_reserved": 0, "rental_uris": {"android": "https://dc.lft.to/lastmile_qr_scan", "ios": "https://dc.lft.to/lastmile_qr_scan"}, "fusion_lon": 0.0}, {"lat": 38.9390645, "is_disabled": 0, "type": "electric_scooter", "lon": -77.0246565, "bike_id": "16a3f1fe89480f597fdabca8a54fdc58", "fusion_lat": 0.0, "name": "16a3f1fe89480f597fdabca8a54fdc58", "is_reserved": 0, "rental_uris": {"android": "https://dc.lft.to/lastmile_qr_scan", "ios": "https://dc.lft.to/lastmile_qr_scan"}, "fusion_lon": 0.0}, {"lat": 38.9035715, "is_disabled": 0, "type": "electric_scooter", "lon": -77.01635583333334, "bike_id": "cc6a6720465d46d2d3015ccda8ad636e", "fusion_lat": 0.0, "name": "cc6a6720465d46d2d3015ccda8ad636e", "is_reserved": 0, "rental_uris": {"android": "https://dc.lft.to/lastmile_qr_scan", "ios": "https://dc.lft.to/lastmile_qr_scan"}, "fusion_lon": 0.0}, {"lat": 38.92020733333333, "is_disabled": 0, "type": "electric_scooter", "lon": -77.03729516666667, "bike_id": "6028352ef09c1f96c7414dd3f6f2d485", "fusion_lat": 0.0, "name": "6028352ef09c1f96c7414dd3f6f2d485", "is_reserved": 0, "rental_uris": {"android": "https://dc.lft.to/lastmile_qr_scan", "ios": "https://dc.lft.to/lastmile_qr_scan"}, "fusion_lon": 0.0}, {"lat": 38.939782666666666, "is_disabled": 0, "type": "electric_scooter", "lon": -77.03588866666666, "bike_id": "b4f056c8c916510939b5b20cfd92dfbf", "fusion_lat": 0.0, "name": "b4f056c8c916510939b5b20cfd92dfbf", "is_reserved": 0, "rental_uris": {"android": "https://dc.lft.to/lastmile_qr_scan", "ios": "https://dc.lft.to/lastmile_qr_scan"}, "fusion_lon": 0.0}, {"lat": 38.90774116666667, "is_disabled": 0, "type": "electric_scooter", "lon": -77.03852083333334, "bike_id": "a102936095e4def7a8d0c84549b5f487", "fusion_lat": 0.0, "name": "a102936095e4def7a8d0c84549b5f487", "is_reserved": 0, "rental_uris": {"android": "https://dc.lft.to/lastmile_qr_scan", "ios": "https://dc.lft.to/lastmile_qr_scan"}, "fusion_lon": 0.0}, {"lat": 38.93286633333334, "is_disabled": 0, "type": "electric_scooter", "lon": -77.03551316666666, "bike_id": "cfc95c687d9b6d38451403e2efa930c6", "fusion_lat": 0.0, "name": "cfc95c687d9b6d38451403e2efa930c6", "is_reserved": 0, "rental_uris": {"android": "https://dc.lft.to/lastmile_qr_scan", "ios": "https://dc.lft.to/lastmile_qr_scan"}, "fusion_lon": 0.0}, {"lat": 38.9578075, "is_disabled": 0, "type": "electric_scooter", "lon": -77.02747816666667, "bike_id": "b05de14de026d34f1646f501e52fa17c", "fusion_lat": 0.0, "name": "b05de14de026d34f1646f501e52fa17c", "is_reserved": 0, "rental_uris": {"android": "https://dc.lft.to/lastmile_qr_scan", "ios": "https://dc.lft.to/lastmile_qr_scan"}, "fusion_lon": 0.0}, {"lat": 38.908807333333336, "is_disabled": 0, "type": "electric_scooter", "lon": -77.03648066666666, "bike_id": "7e8baaddd34ae7def7e574997411250d", "fusion_lat": 0.0, "name": "7e8baaddd34ae7def7e574997411250d", "is_reserved": 0, "rental_uris": {"android": "https://dc.lft.to/lastmile_qr_scan", "ios": "https://dc.lft.to/lastmile_qr_scan"}, "fusion_lon": 0.0}, {"lat": 38.9258495, "is_disabled": 0, "type": "electric_scooter", "lon": -77.02288716666666, "bike_id": "2b39aefe9f76433c3331ca8b2ba9664b", "fusion_lat": 0.0, "name": "2b39aefe9f76433c3331ca8b2ba9664b", "is_reserved": 0, "rental_uris": {"android": "https://dc.lft.to/lastmile_qr_scan", "ios": "https://dc.lft.to/lastmile_qr_scan"}, "fusion_lon": 0.0}, {"lat": 38.90085833333333, "is_disabled": 0, "type": "electric_scooter", "lon": -77.04949816666667, "bike_id": "2b549f121b3f1602bdd5f39bdb4f8edb", "fusion_lat": 0.0, "name": "2b549f121b3f1602bdd5f39bdb4f8edb", "is_reserved": 0, "rental_uris": {"android": "https://dc.lft.to/lastmile_qr_scan", "ios": "https://dc.lft.to/lastmile_qr_scan"}, "fusion_lon": 0.0}, {"lat": 38.899824833333334, "is_disabled": 0, "type": "electric_scooter", "lon": -77.01655983333333, "bike_id": "b2f2c04d818e867b7322aebb0c6855a1", "fusion_lat": 0.0, "name": "b2f2c04d818e867b7322aebb0c6855a1", "is_reserved": 0, "rental_uris": {"android": "https://dc.lft.to/lastmile_qr_scan", "ios": "https://dc.lft.to/lastmile_qr_scan"}, "fusion_lon": 0.0}, {"lat": 38.90679216666667, "is_disabled": 0, "type": "electric_scooter", "lon": -77.03645033333333, "bike_id": "48e01c58bc1beedc8d3a18a0819ff4de", "fusion_lat": 0.0, "name": "48e01c58bc1beedc8d3a18a0819ff4de", "is_reserved": 0, "rental_uris": {"android": "https://dc.lft.to/lastmile_qr_scan", "ios": "https://dc.lft.to/lastmile_qr_scan"}, "fusion_lon": 0.0}, {"lat": 38.910082333333335, "is_disabled": 0, "type": "electric_scooter", "lon": -77.04866683333333, "bike_id": "0129b8a50ef0a1bb49d6ddd94ac44ba1", "fusion_lat": 0.0, "name": "0129b8a50ef0a1bb49d6ddd94ac44ba1", "is_reserved": 0, "rental_uris": {"android": "https://dc.lft.to/lastmile_qr_scan", "ios": "https://dc.lft.to/lastmile_qr_scan"}, "fusion_lon": 0.0}, {"lat": 38.923788333333334, "is_disabled": 0, "type": "electric_scooter", "lon": -77.05753983333334, "bike_id": "fb76427b4c6176a9ec79216449aafbba", "fusion_lat": 0.0, "name": "fb76427b4c6176a9ec79216449aafbba", "is_reserved": 0, "rental_uris": {"android": "https://dc.lft.to/lastmile_qr_scan", "ios": "https://dc.lft.to/lastmile_qr_scan"}, "fusion_lon": 0.0}, {"lat": 38.915632, "is_disabled": 0, "type": "electric_scooter", "lon": -77.038553, "bike_id": "77b6319040bebae632ec85e5799593eb", "fusion_lat": 0.0, "name": "77b6319040bebae632ec85e5799593eb", "is_reserved": 0, "rental_uris": {"android": "https://dc.lft.to/lastmile_qr_scan", "ios": "https://dc.lft.to/lastmile_qr_scan"}, "fusion_lon": 0.0}, {"lat": 38.9120385, "is_disabled": 0, "type": "electric_scooter", "lon": -77.0146225, "bike_id": "809f614bfbe0cb3a41fc9cc5c859be80", "fusion_lat": 0.0, "name": "809f614bfbe0cb3a41fc9cc5c859be80", "is_reserved": 0, "rental_uris": {"android": "https://dc.lft.to/lastmile_qr_scan", "ios": "https://dc.lft.to/lastmile_qr_scan"}, "fusion_lon": 0.0}, {"lat": 38.95491916666667, "is_disabled": 0, "type": "electric_scooter", "lon": -77.06563716666666, "bike_id": "2f300171087b977707861d1464021319", "fusion_lat": 0.0, "name": "2f300171087b977707861d1464021319", "is_reserved": 0, "rental_uris": {"android": "https://dc.lft.to/lastmile_qr_scan", "ios": "https://dc.lft.to/lastmile_qr_scan"}, "fusion_lon": 0.0}, {"lat": 38.889695833333334, "is_disabled": 0, "type": "electric_scooter", "lon": -76.9373995, "bike_id": "f50efe36172ba7491fab2b9791209538", "fusion_lat": 0.0, "name": "f50efe36172ba7491fab2b9791209538", "is_reserved": 0, "rental_uris": {"android": "https://dc.lft.to/lastmile_qr_scan", "ios": "https://dc.lft.to/lastmile_qr_scan"}, "fusion_lon": 0.0}, {"lat": 38.899718, "is_disabled": 0, "type": "electric_scooter", "lon": -77.01906033333333, "bike_id": "64fbf926f5b51966a6c60f01ee6dd64a", "fusion_lat": 0.0, "name": "64fbf926f5b51966a6c60f01ee6dd64a", "is_reserved": 0, "rental_uris": {"android": "https://dc.lft.to/lastmile_qr_scan", "ios": "https://dc.lft.to/lastmile_qr_scan"}, "fusion_lon": 0.0}, {"lat": 38.85924466666667, "is_disabled": 0, "type": "electric_scooter", "lon": -76.98979066666666, "bike_id": "fea8555d75d989be45eb9fd6062bdcd4", "fusion_lat": 0.0, "name": "fea8555d75d989be45eb9fd6062bdcd4", "is_reserved": 0, "rental_uris": {"android": "https://dc.lft.to/lastmile_qr_scan", "ios": "https://dc.lft.to/lastmile_qr_scan"}, "fusion_lon": 0.0}, {"lat": 38.927633666666665, "is_disabled": 0, "type": "electric_bike", "lon": -77.068795, "bike_id": "3d27e2606fa57312c0aaeaca39fff8d5", "fusion_lat": 0.0, "name": "3d27e2606fa57312c0aaeaca39fff8d5", "is_reserved": 0, "rental_uris": {"android": "https://dc.lft.to/lastmile_qr_scan", "ios": "https://dc.lft.to/lastmile_qr_scan"}, "fusion_lon": 0.0}, {"lat": 38.892221, "is_disabled": 0, "type": "electric_scooter", "lon": -76.93299816666666, "bike_id": "02d482230278e26784a178aee4d95a1e", "fusion_lat": 0.0, "name": "02d482230278e26784a178aee4d95a1e", "is_reserved": 0, "rental_uris": {"android": "https://dc.lft.to/lastmile_qr_scan", "ios": "https://dc.lft.to/lastmile_qr_scan"}, "fusion_lon": 0.0}, {"lat": 38.945122, "is_disabled": 0, "type": "electric_scooter", "lon": -77.02170233333334, "bike_id": "aeea5b65ce09399af127db7f60f9be1a", "fusion_lat": 0.0, "name": "aeea5b65ce09399af127db7f60f9be1a", "is_reserved": 0, "rental_uris": {"android": "https://dc.lft.to/lastmile_qr_scan", "ios": "https://dc.lft.to/lastmile_qr_scan"}, "fusion_lon": 0.0}, {"lat": 38.932196833333336, "is_disabled": 0, "type": "electric_scooter", "lon": -77.02731733333333, "bike_id": "1051ab72cae9c4b85311165d2a3b1ca7", "fusion_lat": 0.0, "name": "1051ab72cae9c4b85311165d2a3b1ca7", "is_reserved": 0, "rental_uris": {"android": "https://dc.lft.to/lastmile_qr_scan", "ios": "https://dc.lft.to/lastmile_qr_scan"}, "fusion_lon": 0.0}, {"lat": 38.90415016666667, "is_disabled": 0, "type": "electric_scooter", "lon": -77.02526583333334, "bike_id": "016fda4c05ddaea60a2e676b3bdc11f4", "fusion_lat": 0.0, "name": "016fda4c05ddaea60a2e676b3bdc11f4", "is_reserved": 0, "rental_uris": {"android": "https://dc.lft.to/lastmile_qr_scan", "ios": "https://dc.lft.to/lastmile_qr_scan"}, "fusion_lon": 0.0}, {"lat": 38.92866166666667, "is_disabled": 0, "type": "electric_scooter", "lon": -77.034067, "bike_id": "3e5c05ef718eae94ddcef57c41e673bd", "fusion_lat": 0.0, "name": "3e5c05ef718eae94ddcef57c41e673bd", "is_reserved": 0, "rental_uris": {"android": "https://dc.lft.to/lastmile_qr_scan", "ios": "https://dc.lft.to/lastmile_qr_scan"}, "fusion_lon": 0.0}, {"lat": 38.900904833333335, "is_disabled": 0, "type": "electric_scooter", "lon": -77.05596633333333, "bike_id": "521773f9e1975e584ad68f5c2f82512b", "fusion_lat": 0.0, "name": "521773f9e1975e584ad68f5c2f82512b", "is_reserved": 0, "rental_uris": {"android": "https://dc.lft.to/lastmile_qr_scan", "ios": "https://dc.lft.to/lastmile_qr_scan"}, "fusion_lon": 0.0}, {"lat": 38.89625266666667, "is_disabled": 0, "type": "electric_scooter", "lon": -77.04483216666667, "bike_id": "4b453c750262abb2511158d244c726a1", "fusion_lat": 0.0, "name": "4b453c750262abb2511158d244c726a1", "is_reserved": 0, "rental_uris": {"android": "https://dc.lft.to/lastmile_qr_scan", "ios": "https://dc.lft.to/lastmile_qr_scan"}, "fusion_lon": 0.0}, {"lat": 38.90035616666667, "is_disabled": 0, "type": "electric_scooter", "lon": -77.03318866666666, "bike_id": "f83117ae727f737c529711f23be2dfec", "fusion_lat": 0.0, "name": "f83117ae727f737c529711f23be2dfec", "is_reserved": 0, "rental_uris": {"android": "https://dc.lft.to/lastmile_qr_scan", "ios": "https://dc.lft.to/lastmile_qr_scan"}, "fusion_lon": 0.0}, {"lat": 38.93134283333333, "is_disabled": 0, "type": "electric_scooter", "lon": -77.0325185, "bike_id": "72d8437002c227bb9f4e3adbcb1bbf2c", "fusion_lat": 0.0, "name": "72d8437002c227bb9f4e3adbcb1bbf2c", "is_reserved": 0, "rental_uris": {"android": "https://dc.lft.to/lastmile_qr_scan", "ios": "https://dc.lft.to/lastmile_qr_scan"}, "fusion_lon": 0.0}, {"lat": 38.96561583333333, "is_disabled": 0, "type": "electric_bike", "lon": -77.02036833333334, "bike_id": "a69a05d494f5399fcaa6991902897c32", "fusion_lat": 0.0, "name": "a69a05d494f5399fcaa6991902897c32", "is_reserved": 0, "rental_uris": {"android": "https://dc.lft.to/lastmile_qr_scan", "ios": "https://dc.lft.to/lastmile_qr_scan"}, "fusion_lon": 0.0}, {"lat": 38.90235466666667, "is_disabled": 0, "type": "electric_scooter", "lon": -77.04355183333334, "bike_id": "efdcc1bc365f40a9a0e9b80fdf129775", "fusion_lat": 0.0, "name": "efdcc1bc365f40a9a0e9b80fdf129775", "is_reserved": 0, "rental_uris": {"android": "https://dc.lft.to/lastmile_qr_scan", "ios": "https://dc.lft.to/lastmile_qr_scan"}, "fusion_lon": 0.0}, {"lat": 39.08858433333333, "is_disabled": 0, "type": "electric_bike", "lon": -77.17839033333334, "bike_id": "9e495cf54fc00ebce8c3d0ff392be804", "fusion_lat": 0.0, "name": "9e495cf54fc00ebce8c3d0ff392be804", "is_reserved": 0, "rental_uris": {"android": "https://dc.lft.to/lastmile_qr_scan", "ios": "https://dc.lft.to/lastmile_qr_scan"}, "fusion_lon": 0.0}, {"lat": 38.899723333333334, "is_disabled": 0, "type": "electric_scooter", "lon": -77.023034, "bike_id": "7b4365325f914dc2a0406a1cf7352a6d", "fusion_lat": 0.0, "name": "7b4365325f914dc2a0406a1cf7352a6d", "is_reserved": 0, "rental_uris": {"android": "https://dc.lft.to/lastmile_qr_scan", "ios": "https://dc.lft.to/lastmile_qr_scan"}, "fusion_lon": 0.0}, {"lat": 38.92261633333333, "is_disabled": 0, "type": "electric_scooter", "lon": -77.04293983333334, "bike_id": "008788b142f4755e46e53a73aa033401", "fusion_lat": 0.0, "name": "008788b142f4755e46e53a73aa033401", "is_reserved": 0, "rental_uris": {"android": "https://dc.lft.to/lastmile_qr_scan", "ios": "https://dc.lft.to/lastmile_qr_scan"}, "fusion_lon": 0.0}, {"lat": 38.9220455, "is_disabled": 0, "type": "electric_scooter", "lon": -76.95660083333334, "bike_id": "ef834965ba6eb1d518e78427f34d0726", "fusion_lat": 0.0, "name": "ef834965ba6eb1d518e78427f34d0726", "is_reserved": 0, "rental_uris": {"android": "https://dc.lft.to/lastmile_qr_scan", "ios": "https://dc.lft.to/lastmile_qr_scan"}, "fusion_lon": 0.0}, {"lat": 38.906485, "is_disabled": 0, "type": "electric_scooter", "lon": -77.04689666666667, "bike_id": "abe9199fd9d153e32bf1d8a475b5aeb1", "fusion_lat": 0.0, "name": "abe9199fd9d153e32bf1d8a475b5aeb1", "is_reserved": 0, "rental_uris": {"android": "https://dc.lft.to/lastmile_qr_scan", "ios": "https://dc.lft.to/lastmile_qr_scan"}, "fusion_lon": 0.0}, {"lat": 38.917671666666664, "is_disabled": 0, "type": "electric_scooter", "lon": -77.028935, "bike_id": "b2f5bb6c5bfea8a0b01067cf8577f111", "fusion_lat": 0.0, "name": "b2f5bb6c5bfea8a0b01067cf8577f111", "is_reserved": 0, "rental_uris": {"android": "https://dc.lft.to/lastmile_qr_scan", "ios": "https://dc.lft.to/lastmile_qr_scan"}, "fusion_lon": 0.0}, {"lat": 38.903211166666665, "is_disabled": 0, "type": "electric_scooter", "lon": -77.028824, "bike_id": "81593fb492ec81ee752dfdcf047941fb", "fusion_lat": 0.0, "name": "81593fb492ec81ee752dfdcf047941fb", "is_reserved": 0, "rental_uris": {"android": "https://dc.lft.to/lastmile_qr_scan", "ios": "https://dc.lft.to/lastmile_qr_scan"}, "fusion_lon": 0.0}, {"lat": 38.872146, "is_disabled": 0, "type": "electric_bike", "lon": -77.0152375, "bike_id": "723f4079783186a5aa11efc3d7dd0b71", "fusion_lat": 0.0, "name": "723f4079783186a5aa11efc3d7dd0b71", "is_reserved": 0, "rental_uris": {"android": "https://dc.lft.to/lastmile_qr_scan", "ios": "https://dc.lft.to/lastmile_qr_scan"}, "fusion_lon": 0.0}, {"lat": 38.92855616666667, "is_disabled": 0, "type": "electric_bike", "lon": -77.22214316666667, "bike_id": "24a85cfb2b7ef00929705c3105d581a3", "fusion_lat": 0.0, "name": "24a85cfb2b7ef00929705c3105d581a3", "is_reserved": 0, "rental_uris": {"android": "https://dc.lft.to/lastmile_qr_scan", "ios": "https://dc.lft.to/lastmile_qr_scan"}, "fusion_lon": 0.0}, {"lat": 38.915087166666666, "is_disabled": 0, "type": "electric_scooter", "lon": -77.02962433333333, "bike_id": "412166fc3ce615ac237a989d47929b70", "fusion_lat": 0.0, "name": "412166fc3ce615ac237a989d47929b70", "is_reserved": 0, "rental_uris": {"android": "https://dc.lft.to/lastmile_qr_scan", "ios": "https://dc.lft.to/lastmile_qr_scan"}, "fusion_lon": 0.0}, {"lat": 38.9882865, "is_disabled": 0, "type": "electric_bike", "lon": -76.99641833333334, "bike_id": "5091847814d0a02bdb2c24f7a72004fe", "fusion_lat": 0.0, "name": "5091847814d0a02bdb2c24f7a72004fe", "is_reserved": 0, "rental_uris": {"android": "https://dc.lft.to/lastmile_qr_scan", "ios": "https://dc.lft.to/lastmile_qr_scan"}, "fusion_lon": 0.0}, {"lat": 38.8836295, "is_disabled": 0, "type": "electric_scooter", "lon": -76.94153283333333, "bike_id": "04a95272e6e118b4dbb7bb4aad2e8373", "fusion_lat": 0.0, "name": "04a95272e6e118b4dbb7bb4aad2e8373", "is_reserved": 0, "rental_uris": {"android": "https://dc.lft.to/lastmile_qr_scan", "ios": "https://dc.lft.to/lastmile_qr_scan"}, "fusion_lon": 0.0}, {"lat": 38.904873, "is_disabled": 0, "type": "electric_scooter", "lon": -77.00212533333334, "bike_id": "490be07e09966240747e8e36e2a9e276", "fusion_lat": 0.0, "name": "490be07e09966240747e8e36e2a9e276", "is_reserved": 0, "rental_uris": {"android": "https://dc.lft.to/lastmile_qr_scan", "ios": "https://dc.lft.to/lastmile_qr_scan"}, "fusion_lon": 0.0}, {"lat": 38.91681283333333, "is_disabled": 0, "type": "electric_scooter", "lon": -77.0019945, "bike_id": "6e5b39dda1d23688cc3d508169b0d509", "fusion_lat": 0.0, "name": "6e5b39dda1d23688cc3d508169b0d509", "is_reserved": 0, "rental_uris": {"android": "https://dc.lft.to/lastmile_qr_scan", "ios": "https://dc.lft.to/lastmile_qr_scan"}, "fusion_lon": 0.0}, {"lat": 38.917625666666666, "is_disabled": 0, "type": "electric_scooter", "lon": -76.97623133333333, "bike_id": "3e9bc48cab3c86030ca24e5e28d8e602", "fusion_lat": 0.0, "name": "3e9bc48cab3c86030ca24e5e28d8e602", "is_reserved": 0, "rental_uris": {"android": "https://dc.lft.to/lastmile_qr_scan", "ios": "https://dc.lft.to/lastmile_qr_scan"}, "fusion_lon": 0.0}, {"lat": 38.91928433333333, "is_disabled": 0, "type": "electric_scooter", "lon": -77.03183633333333, "bike_id": "1281a897aa724bdae132f79d8acacd28", "fusion_lat": 0.0, "name": "1281a897aa724bdae132f79d8acacd28", "is_reserved": 0, "rental_uris": {"android": "https://dc.lft.to/lastmile_qr_scan", "ios": "https://dc.lft.to/lastmile_qr_scan"}, "fusion_lon": 0.0}, {"lat": 38.95884816666667, "is_disabled": 0, "type": "electric_bike", "lon": -76.9248675, "bike_id": "86329e3faf3b1ac4bfeafb31d8bb479b", "fusion_lat": 0.0, "name": "86329e3faf3b1ac4bfeafb31d8bb479b", "is_reserved": 0, "rental_uris": {"android": "https://dc.lft.to/lastmile_qr_scan", "ios": "https://dc.lft.to/lastmile_qr_scan"}, "fusion_lon": 0.0}, {"lat": 38.941263666666664, "is_disabled": 0, "type": "electric_scooter", "lon": -77.00071233333334, "bike_id": "ee1e090ec6f14f7ace6563df24e91386", "fusion_lat": 0.0, "name": "ee1e090ec6f14f7ace6563df24e91386", "is_reserved": 0, "rental_uris": {"android": "https://dc.lft.to/lastmile_qr_scan", "ios": "https://dc.lft.to/lastmile_qr_scan"}, "fusion_lon": 0.0}, {"lat": 38.906191666666665, "is_disabled": 0, "type": "electric_scooter", "lon": -77.06272666666666, "bike_id": "ff6d8565c31a96ad3ed66735837dc0d2", "fusion_lat": 0.0, "name": "ff6d8565c31a96ad3ed66735837dc0d2", "is_reserved": 0, "rental_uris": {"android": "https://dc.lft.to/lastmile_qr_scan", "ios": "https://dc.lft.to/lastmile_qr_scan"}, "fusion_lon": 0.0}, {"lat": 38.9325255, "is_disabled": 0, "type": "electric_scooter", "lon": -77.032737, "bike_id": "ea13dd70573d1a27745a1d1845aa1bf6", "fusion_lat": 0.0, "name": "ea13dd70573d1a27745a1d1845aa1bf6", "is_reserved": 0, "rental_uris": {"android": "https://dc.lft.to/lastmile_qr_scan", "ios": "https://dc.lft.to/lastmile_qr_scan"}, "fusion_lon": 0.0}, {"lat": 38.97088183333334, "is_disabled": 0, "type": "electric_bike", "lon": -77.06964733333334, "bike_id": "278eb429f20a1c4e68fbcc6417a138a7", "fusion_lat": 0.0, "name": "278eb429f20a1c4e68fbcc6417a138a7", "is_reserved": 0, "rental_uris": {"android": "https://dc.lft.to/lastmile_qr_scan", "ios": "https://dc.lft.to/lastmile_qr_scan"}, "fusion_lon": 0.0}, {"lat": 38.9267315, "is_disabled": 0, "type": "electric_scooter", "lon": -77.0286035, "bike_id": "2d98a525fe04af602721d87253d981c5", "fusion_lat": 0.0, "name": "2d98a525fe04af602721d87253d981c5", "is_reserved": 0, "rental_uris": {"android": "https://dc.lft.to/lastmile_qr_scan", "ios": "https://dc.lft.to/lastmile_qr_scan"}, "fusion_lon": 0.0}, {"lat": 38.852039833333336, "is_disabled": 0, "type": "electric_bike", "lon": -77.10126133333333, "bike_id": "7382dea0658c8ffe3721ad539b390d97", "fusion_lat": 0.0, "name": "7382dea0658c8ffe3721ad539b390d97", "is_reserved": 0, "rental_uris": {"android": "https://dc.lft.to/lastmile_qr_scan", "ios": "https://dc.lft.to/lastmile_qr_scan"}, "fusion_lon": 0.0}, {"lat": 38.92338216666667, "is_disabled": 0, "type": "electric_scooter", "lon": -77.03567016666666, "bike_id": "f3eeb90bc3b3484ccac180df908fd936", "fusion_lat": 0.0, "name": "f3eeb90bc3b3484ccac180df908fd936", "is_reserved": 0, "rental_uris": {"android": "https://dc.lft.to/lastmile_qr_scan", "ios": "https://dc.lft.to/lastmile_qr_scan"}, "fusion_lon": 0.0}, {"lat": 38.89513866666667, "is_disabled": 0, "type": "electric_scooter", "lon": -76.94900066666666, "bike_id": "edd9b6811c029cdea4be9007673df7cb", "fusion_lat": 0.0, "name": "edd9b6811c029cdea4be9007673df7cb", "is_reserved": 0, "rental_uris": {"android": "https://dc.lft.to/lastmile_qr_scan", "ios": "https://dc.lft.to/lastmile_qr_scan"}, "fusion_lon": 0.0}, {"lat": 38.91006983333333, "is_disabled": 0, "type": "electric_scooter", "lon": -77.0269185, "bike_id": "fec2b9224650040b579ed27b877e2a73", "fusion_lat": 0.0, "name": "fec2b9224650040b579ed27b877e2a73", "is_reserved": 0, "rental_uris": {"android": "https://dc.lft.to/lastmile_qr_scan", "ios": "https://dc.lft.to/lastmile_qr_scan"}, "fusion_lon": 0.0}, {"lat": 38.91293316666667, "is_disabled": 0, "type": "electric_scooter", "lon": -77.04010983333333, "bike_id": "3cc3336598a4c486b9f0120f29ba7866", "fusion_lat": 0.0, "name": "3cc3336598a4c486b9f0120f29ba7866", "is_reserved": 0, "rental_uris": {"android": "https://dc.lft.to/lastmile_qr_scan", "ios": "https://dc.lft.to/lastmile_qr_scan"}, "fusion_lon": 0.0}, {"lat": 38.91705416666667, "is_disabled": 0, "type": "electric_scooter", "lon": -77.03459216666667, "bike_id": "bc53b2c90e63780f0b08f891e6e29503", "fusion_lat": 0.0, "name": "bc53b2c90e63780f0b08f891e6e29503", "is_reserved": 0, "rental_uris": {"android": "https://dc.lft.to/lastmile_qr_scan", "ios": "https://dc.lft.to/lastmile_qr_scan"}, "fusion_lon": 0.0}, {"lat": 38.90861483333333, "is_disabled": 0, "type": "electric_bike", "lon": -76.93162533333333, "bike_id": "d7a2ecd2b47aa28d702ab166d99bb70d", "fusion_lat": 0.0, "name": "d7a2ecd2b47aa28d702ab166d99bb70d", "is_reserved": 0, "rental_uris": {"android": "https://dc.lft.to/lastmile_qr_scan", "ios": "https://dc.lft.to/lastmile_qr_scan"}, "fusion_lon": 0.0}, {"lat": 38.903157666666665, "is_disabled": 0, "type": "electric_scooter", "lon": -76.98999766666667, "bike_id": "132f628656d1b8dc50bd2048440b2e19", "fusion_lat": 0.0, "name": "132f628656d1b8dc50bd2048440b2e19", "is_reserved": 0, "rental_uris": {"android": "https://dc.lft.to/lastmile_qr_scan", "ios": "https://dc.lft.to/lastmile_qr_scan"}, "fusion_lon": 0.0}, {"lat": 38.87456733333333, "is_disabled": 0, "type": "electric_scooter", "lon": -77.00925, "bike_id": "21ee2c0e88b95b146108644eef866c75", "fusion_lat": 0.0, "name": "21ee2c0e88b95b146108644eef866c75", "is_reserved": 0, "rental_uris": {"android": "https://dc.lft.to/lastmile_qr_scan", "ios": "https://dc.lft.to/lastmile_qr_scan"}, "fusion_lon": 0.0}, {"lat": 38.96926916666666, "is_disabled": 0, "type": "electric_bike", "lon": -77.0261835, "bike_id": "7fbf293b7744f5f969a5af4193859dff", "fusion_lat": 0.0, "name": "7fbf293b7744f5f969a5af4193859dff", "is_reserved": 0, "rental_uris": {"android": "https://dc.lft.to/lastmile_qr_scan", "ios": "https://dc.lft.to/lastmile_qr_scan"}, "fusion_lon": 0.0}, {"lat": 38.873746, "is_disabled": 0, "type": "electric_bike", "lon": -77.11798783333333, "bike_id": "23060f90b6bb02abbedcc1ac71474213", "fusion_lat": 0.0, "name": "23060f90b6bb02abbedcc1ac71474213", "is_reserved": 0, "rental_uris": {"android": "https://dc.lft.to/lastmile_qr_scan", "ios": "https://dc.lft.to/lastmile_qr_scan"}, "fusion_lon": 0.0}, {"lat": 38.92083933333333, "is_disabled": 0, "type": "electric_bike", "lon": -76.99184283333334, "bike_id": "8b4a8621f936ab551229464d00ba8238", "fusion_lat": 0.0, "name": "8b4a8621f936ab551229464d00ba8238", "is_reserved": 0, "rental_uris": {"android": "https://dc.lft.to/lastmile_qr_scan", "ios": "https://dc.lft.to/lastmile_qr_scan"}, "fusion_lon": 0.0}, {"lat": 38.89652783333333, "is_disabled": 0, "type": "electric_scooter", "lon": -77.0468455, "bike_id": "61f1f96386d0957aee5ad69860ba8e6e", "fusion_lat": 0.0, "name": "61f1f96386d0957aee5ad69860ba8e6e", "is_reserved": 0, "rental_uris": {"android": "https://dc.lft.to/lastmile_qr_scan", "ios": "https://dc.lft.to/lastmile_qr_scan"}, "fusion_lon": 0.0}, {"lat": 38.96602083333333, "is_disabled": 0, "type": "electric_bike", "lon": -76.98332616666667, "bike_id": "b93fcc563924e56fbcac0b4ddb7c6bc8", "fusion_lat": 0.0, "name": "b93fcc563924e56fbcac0b4ddb7c6bc8", "is_reserved": 0, "rental_uris": {"android": "https://dc.lft.to/lastmile_qr_scan", "ios": "https://dc.lft.to/lastmile_qr_scan"}, "fusion_lon": 0.0}, {"lat": 38.9308495, "is_disabled": 0, "type": "electric_scooter", "lon": -77.02556666666666, "bike_id": "5aa4d51fccc4a5f8d816dd136ce7ff93", "fusion_lat": 0.0, "name": "5aa4d51fccc4a5f8d816dd136ce7ff93", "is_reserved": 0, "rental_uris": {"android": "https://dc.lft.to/lastmile_qr_scan", "ios": "https://dc.lft.to/lastmile_qr_scan"}, "fusion_lon": 0.0}, {"lat": 38.904539, "is_disabled": 0, "type": "electric_scooter", "lon": -76.99456666666667, "bike_id": "f831c931a409c0e135072de09dab05c6", "fusion_lat": 0.0, "name": "f831c931a409c0e135072de09dab05c6", "is_reserved": 0, "rental_uris": {"android": "https://dc.lft.to/lastmile_qr_scan", "ios": "https://dc.lft.to/lastmile_qr_scan"}, "fusion_lon": 0.0}, {"lat": 38.9335675, "is_disabled": 0, "type": "electric_scooter", "lon": -77.073659, "bike_id": "a7dc056f77805c0aa84e18c8d4aab82e", "fusion_lat": 0.0, "name": "a7dc056f77805c0aa84e18c8d4aab82e", "is_reserved": 0, "rental_uris": {"android": "https://dc.lft.to/lastmile_qr_scan", "ios": "https://dc.lft.to/lastmile_qr_scan"}, "fusion_lon": 0.0}, {"lat": 38.8924495, "is_disabled": 0, "type": "electric_scooter", "lon": -77.04890116666667, "bike_id": "61e9d5b9796afa455f18fa24860e3bd5", "fusion_lat": 0.0, "name": "61e9d5b9796afa455f18fa24860e3bd5", "is_reserved": 0, "rental_uris": {"android": "https://dc.lft.to/lastmile_qr_scan", "ios": "https://dc.lft.to/lastmile_qr_scan"}, "fusion_lon": 0.0}, {"lat": 38.898377833333335, "is_disabled": 0, "type": "electric_scooter", "lon": -76.93100116666666, "bike_id": "0d03021fb655c8a88cf6af75cc063948", "fusion_lat": 0.0, "name": "0d03021fb655c8a88cf6af75cc063948", "is_reserved": 0, "rental_uris": {"android": "https://dc.lft.to/lastmile_qr_scan", "ios": "https://dc.lft.to/lastmile_qr_scan"}, "fusion_lon": 0.0}, {"lat": 38.90072466666667, "is_disabled": 0, "type": "electric_scooter", "lon": -77.05054783333334, "bike_id": "5e699c621206b7cf003461145130fa87", "fusion_lat": 0.0, "name": "5e699c621206b7cf003461145130fa87", "is_reserved": 0, "rental_uris": {"android": "https://dc.lft.to/lastmile_qr_scan", "ios": "https://dc.lft.to/lastmile_qr_scan"}, "fusion_lon": 0.0}, {"lat": 38.837000333333336, "is_disabled": 0, "type": "electric_scooter", "lon": -77.10305183333334, "bike_id": "dffbabf8333653ca28bcca6a71dfff89", "fusion_lat": 0.0, "name": "dffbabf8333653ca28bcca6a71dfff89", "is_reserved": 0, "rental_uris": {"android": "https://dc.lft.to/lastmile_qr_scan", "ios": "https://dc.lft.to/lastmile_qr_scan"}, "fusion_lon": 0.0}, {"lat": 38.871441, "is_disabled": 0, "type": "electric_bike", "lon": -76.93708216666667, "bike_id": "e5bb68c1a0e4e81d638c92e594b3f553", "fusion_lat": 0.0, "name": "e5bb68c1a0e4e81d638c92e594b3f553", "is_reserved": 0, "rental_uris": {"android": "https://dc.lft.to/lastmile_qr_scan", "ios": "https://dc.lft.to/lastmile_qr_scan"}, "fusion_lon": 0.0}, {"lat": 38.8810995, "is_disabled": 0, "type": "electric_scooter", "lon": -76.98341833333333, "bike_id": "bb7f0ac8f3a0d1a15e37f358cf0bf25e", "fusion_lat": 0.0, "name": "bb7f0ac8f3a0d1a15e37f358cf0bf25e", "is_reserved": 0, "rental_uris": {"android": "https://dc.lft.to/lastmile_qr_scan", "ios": "https://dc.lft.to/lastmile_qr_scan"}, "fusion_lon": 0.0}, {"lat": 38.916068833333334, "is_disabled": 0, "type": "electric_scooter", "lon": -77.03272633333333, "bike_id": "0bae05cc51d98c1f7bbd4789c9ad5f27", "fusion_lat": 0.0, "name": "0bae05cc51d98c1f7bbd4789c9ad5f27", "is_reserved": 0, "rental_uris": {"android": "https://dc.lft.to/lastmile_qr_scan", "ios": "https://dc.lft.to/lastmile_qr_scan"}, "fusion_lon": 0.0}, {"lat": 38.936621833333334, "is_disabled": 0, "type": "electric_scooter", "lon": -77.05927733333333, "bike_id": "7146e47d8ef45e58e2b586bd95539ccb", "fusion_lat": 0.0, "name": "7146e47d8ef45e58e2b586bd95539ccb", "is_reserved": 0, "rental_uris": {"android": "https://dc.lft.to/lastmile_qr_scan", "ios": "https://dc.lft.to/lastmile_qr_scan"}, "fusion_lon": 0.0}, {"lat": 38.90361766666667, "is_disabled": 0, "type": "electric_scooter", "lon": -77.01614283333333, "bike_id": "a247e3076145bdb9d059acb8919a8148", "fusion_lat": 0.0, "name": "a247e3076145bdb9d059acb8919a8148", "is_reserved": 0, "rental_uris": {"android": "https://dc.lft.to/lastmile_qr_scan", "ios": "https://dc.lft.to/lastmile_qr_scan"}, "fusion_lon": 0.0}, {"lat": 38.84566266666667, "is_disabled": 0, "type": "electric_bike", "lon": -77.09620566666666, "bike_id": "10eef4cd989d1b2e0ceb8756f3c19604", "fusion_lat": 0.0, "name": "10eef4cd989d1b2e0ceb8756f3c19604", "is_reserved": 0, "rental_uris": {"android": "https://dc.lft.to/lastmile_qr_scan", "ios": "https://dc.lft.to/lastmile_qr_scan"}, "fusion_lon": 0.0}, {"lat": 38.867081666666664, "is_disabled": 0, "type": "electric_scooter", "lon": -76.98724016666667, "bike_id": "d4f53005eb4930c5a1f5320b26fc2e4d", "fusion_lat": 0.0, "name": "d4f53005eb4930c5a1f5320b26fc2e4d", "is_reserved": 0, "rental_uris": {"android": "https://dc.lft.to/lastmile_qr_scan", "ios": "https://dc.lft.to/lastmile_qr_scan"}, "fusion_lon": 0.0}, {"lat": 38.927065, "is_disabled": 0, "type": "electric_scooter", "lon": -77.02105933333333, "bike_id": "b1c608546c9b151bca50128cc37a3072", "fusion_lat": 0.0, "name": "b1c608546c9b151bca50128cc37a3072", "is_reserved": 0, "rental_uris": {"android": "https://dc.lft.to/lastmile_qr_scan", "ios": "https://dc.lft.to/lastmile_qr_scan"}, "fusion_lon": 0.0}, {"lat": 38.918115666666665, "is_disabled": 0, "type": "electric_scooter", "lon": -77.01393866666666, "bike_id": "0e1a31422b6328145b7288ab36acf1f2", "fusion_lat": 0.0, "name": "0e1a31422b6328145b7288ab36acf1f2", "is_reserved": 0, "rental_uris": {"android": "https://dc.lft.to/lastmile_qr_scan", "ios": "https://dc.lft.to/lastmile_qr_scan"}, "fusion_lon": 0.0}, {"lat": 38.91126533333333, "is_disabled": 0, "type": "electric_scooter", "lon": -77.03819816666666, "bike_id": "ee2b0ab8ddbf6621d3ed4b966991a9fd", "fusion_lat": 0.0, "name": "ee2b0ab8ddbf6621d3ed4b966991a9fd", "is_reserved": 0, "rental_uris": {"android": "https://dc.lft.to/lastmile_qr_scan", "ios": "https://dc.lft.to/lastmile_qr_scan"}, "fusion_lon": 0.0}, {"lat": 38.90642583333333, "is_disabled": 0, "type": "electric_scooter", "lon": -77.03380466666667, "bike_id": "f5d89a3c4aed179040d6903be5ac7f3b", "fusion_lat": 0.0, "name": "f5d89a3c4aed179040d6903be5ac7f3b", "is_reserved": 0, "rental_uris": {"android": "https://dc.lft.to/lastmile_qr_scan", "ios": "https://dc.lft.to/lastmile_qr_scan"}, "fusion_lon": 0.0}, {"lat": 38.914638333333336, "is_disabled": 0, "type": "electric_scooter", "lon": -77.0279995, "bike_id": "6a08c1e2ce7f681ddf570f59b971408e", "fusion_lat": 0.0, "name": "6a08c1e2ce7f681ddf570f59b971408e", "is_reserved": 0, "rental_uris": {"android": "https://dc.lft.to/lastmile_qr_scan", "ios": "https://dc.lft.to/lastmile_qr_scan"}, "fusion_lon": 0.0}, {"lat": 38.949160166666665, "is_disabled": 0, "type": "electric_scooter", "lon": -77.008634, "bike_id": "2849e11fb08586fb01d028159736af01", "fusion_lat": 0.0, "name": "2849e11fb08586fb01d028159736af01", "is_reserved": 0, "rental_uris": {"android": "https://dc.lft.to/lastmile_qr_scan", "ios": "https://dc.lft.to/lastmile_qr_scan"}, "fusion_lon": 0.0}, {"lat": 38.859746666666666, "is_disabled": 0, "type": "electric_bike", "lon": -77.05674816666667, "bike_id": "20278e87fc1b63e54b77bb749d3db11b", "fusion_lat": 0.0, "name": "20278e87fc1b63e54b77bb749d3db11b", "is_reserved": 0, "rental_uris": {"android": "https://dc.lft.to/lastmile_qr_scan", "ios": "https://dc.lft.to/lastmile_qr_scan"}, "fusion_lon": 0.0}, {"lat": 38.914146333333335, "is_disabled": 0, "type": "electric_scooter", "lon": -77.02019566666667, "bike_id": "9c11805e759936723125b77553d01433", "fusion_lat": 0.0, "name": "9c11805e759936723125b77553d01433", "is_reserved": 0, "rental_uris": {"android": "https://dc.lft.to/lastmile_qr_scan", "ios": "https://dc.lft.to/lastmile_qr_scan"}, "fusion_lon": 0.0}, {"lat": 38.8981225, "is_disabled": 0, "type": "electric_scooter", "lon": -77.05023233333333, "bike_id": "ec6df4977a194be632fe8c8fa21d52e3", "fusion_lat": 0.0, "name": "ec6df4977a194be632fe8c8fa21d52e3", "is_reserved": 0, "rental_uris": {"android": "https://dc.lft.to/lastmile_qr_scan", "ios": "https://dc.lft.to/lastmile_qr_scan"}, "fusion_lon": 0.0}, {"lat": 38.9153575, "is_disabled": 0, "type": "electric_scooter", "lon": -77.0034015, "bike_id": "e4a92adba3f73d2e29640ea5d47ad646", "fusion_lat": 0.0, "name": "e4a92adba3f73d2e29640ea5d47ad646", "is_reserved": 0, "rental_uris": {"android": "https://dc.lft.to/lastmile_qr_scan", "ios": "https://dc.lft.to/lastmile_qr_scan"}, "fusion_lon": 0.0}, {"lat": 38.883382833333336, "is_disabled": 0, "type": "electric_scooter", "lon": -77.00920466666666, "bike_id": "fdeac06ba6e7de426bbf3423e0c83e00", "fusion_lat": 0.0, "name": "fdeac06ba6e7de426bbf3423e0c83e00", "is_reserved": 0, "rental_uris": {"android": "https://dc.lft.to/lastmile_qr_scan", "ios": "https://dc.lft.to/lastmile_qr_scan"}, "fusion_lon": 0.0}, {"lat": 38.94083466666667, "is_disabled": 0, "type": "electric_scooter", "lon": -77.06133483333333, "bike_id": "90b7ab2e88ea92ef3bb90e07ed34f3aa", "fusion_lat": 0.0, "name": "90b7ab2e88ea92ef3bb90e07ed34f3aa", "is_reserved": 0, "rental_uris": {"android": "https://dc.lft.to/lastmile_qr_scan", "ios": "https://dc.lft.to/lastmile_qr_scan"}, "fusion_lon": 0.0}, {"lat": 38.92683666666667, "is_disabled": 0, "type": "electric_scooter", "lon": -77.0157185, "bike_id": "317071537c4eae022b1fc3ffd71bf867", "fusion_lat": 0.0, "name": "317071537c4eae022b1fc3ffd71bf867", "is_reserved": 0, "rental_uris": {"android": "https://dc.lft.to/lastmile_qr_scan", "ios": "https://dc.lft.to/lastmile_qr_scan"}, "fusion_lon": 0.0}, {"lat": 38.92186066666667, "is_disabled": 0, "type": "electric_scooter", "lon": -77.04345966666666, "bike_id": "0967c09c1050759a1dba8c8dc16603f8", "fusion_lat": 0.0, "name": "0967c09c1050759a1dba8c8dc16603f8", "is_reserved": 0, "rental_uris": {"android": "https://dc.lft.to/lastmile_qr_scan", "ios": "https://dc.lft.to/lastmile_qr_scan"}, "fusion_lon": 0.0}, {"lat": 38.907277666666666, "is_disabled": 0, "type": "electric_scooter", "lon": -77.0345575, "bike_id": "5eb05701ddae39cc6c7db79786c9294b", "fusion_lat": 0.0, "name": "5eb05701ddae39cc6c7db79786c9294b", "is_reserved": 0, "rental_uris": {"android": "https://dc.lft.to/lastmile_qr_scan", "ios": "https://dc.lft.to/lastmile_qr_scan"}, "fusion_lon": 0.0}, {"lat": 38.908704, "is_disabled": 0, "type": "electric_scooter", "lon": -77.00374733333334, "bike_id": "32a559218afc746e09593a5e42b8f8c6", "fusion_lat": 0.0, "name": "32a559218afc746e09593a5e42b8f8c6", "is_reserved": 0, "rental_uris": {"android": "https://dc.lft.to/lastmile_qr_scan", "ios": "https://dc.lft.to/lastmile_qr_scan"}, "fusion_lon": 0.0}, {"lat": 38.93988233333334, "is_disabled": 0, "type": "electric_scooter", "lon": -77.02883, "bike_id": "6f915cb82696eb2f33a1eba5c73f8baf", "fusion_lat": 0.0, "name": "6f915cb82696eb2f33a1eba5c73f8baf", "is_reserved": 0, "rental_uris": {"android": "https://dc.lft.to/lastmile_qr_scan", "ios": "https://dc.lft.to/lastmile_qr_scan"}, "fusion_lon": 0.0}, {"lat": 38.949056, "is_disabled": 0, "type": "electric_bike", "lon": -76.97238283333333, "bike_id": "eb8bf9c7a8f06484b6656f04807a4a6b", "fusion_lat": 0.0, "name": "eb8bf9c7a8f06484b6656f04807a4a6b", "is_reserved": 0, "rental_uris": {"android": "https://dc.lft.to/lastmile_qr_scan", "ios": "https://dc.lft.to/lastmile_qr_scan"}, "fusion_lon": 0.0}, {"lat": 38.932955, "is_disabled": 0, "type": "electric_scooter", "lon": -77.02849266666666, "bike_id": "3fa4e08945fadfe84d4bec72c24becc1", "fusion_lat": 0.0, "name": "3fa4e08945fadfe84d4bec72c24becc1", "is_reserved": 0, "rental_uris": {"android": "https://dc.lft.to/lastmile_qr_scan", "ios": "https://dc.lft.to/lastmile_qr_scan"}, "fusion_lon": 0.0}, {"lat": 38.927968, "is_disabled": 0, "type": "electric_scooter", "lon": -77.055236, "bike_id": "a35c69b49cbebb4a99be4a159200b897", "fusion_lat": 0.0, "name": "a35c69b49cbebb4a99be4a159200b897", "is_reserved": 0, "rental_uris": {"android": "https://dc.lft.to/lastmile_qr_scan", "ios": "https://dc.lft.to/lastmile_qr_scan"}, "fusion_lon": 0.0}, {"lat": 38.93876383333333, "is_disabled": 0, "type": "electric_scooter", "lon": -77.02007316666666, "bike_id": "c9a289d8d04fdb18ea4eeb0ee986567d", "fusion_lat": 0.0, "name": "c9a289d8d04fdb18ea4eeb0ee986567d", "is_reserved": 0, "rental_uris": {"android": "https://dc.lft.to/lastmile_qr_scan", "ios": "https://dc.lft.to/lastmile_qr_scan"}, "fusion_lon": 0.0}, {"lat": 38.9338095, "is_disabled": 0, "type": "electric_scooter", "lon": -77.02383066666667, "bike_id": "1539305a2a29e01313d5ce9e48d4d5b9", "fusion_lat": 0.0, "name": "1539305a2a29e01313d5ce9e48d4d5b9", "is_reserved": 0, "rental_uris": {"android": "https://dc.lft.to/lastmile_qr_scan", "ios": "https://dc.lft.to/lastmile_qr_scan"}, "fusion_lon": 0.0}, {"lat": 38.902909, "is_disabled": 0, "type": "electric_scooter", "lon": -77.033214, "bike_id": "0c853c45a5e4ccf9ead9132ff529f322", "fusion_lat": 0.0, "name": "0c853c45a5e4ccf9ead9132ff529f322", "is_reserved": 0, "rental_uris": {"android": "https://dc.lft.to/lastmile_qr_scan", "ios": "https://dc.lft.to/lastmile_qr_scan"}, "fusion_lon": 0.0}, {"lat": 39.00008716666667, "is_disabled": 0, "type": "electric_bike", "lon": -76.910781, "bike_id": "5e2957e1d32665912e0c49ce50100d9e", "fusion_lat": 0.0, "name": "5e2957e1d32665912e0c49ce50100d9e", "is_reserved": 0, "rental_uris": {"android": "https://dc.lft.to/lastmile_qr_scan", "ios": "https://dc.lft.to/lastmile_qr_scan"}, "fusion_lon": 0.0}, {"lat": 38.953332, "is_disabled": 0, "type": "electric_bike", "lon": -76.9736225, "bike_id": "d1ef67b2b75e38057d2a637a2c8e5e9f", "fusion_lat": 0.0, "name": "d1ef67b2b75e38057d2a637a2c8e5e9f", "is_reserved": 0, "rental_uris": {"android": "https://dc.lft.to/lastmile_qr_scan", "ios": "https://dc.lft.to/lastmile_qr_scan"}, "fusion_lon": 0.0}, {"lat": 38.9258125, "is_disabled": 0, "type": "electric_scooter", "lon": -77.0283145, "bike_id": "8c328cee207210fb8e30996c7cbbfd62", "fusion_lat": 0.0, "name": "8c328cee207210fb8e30996c7cbbfd62", "is_reserved": 0, "rental_uris": {"android": "https://dc.lft.to/lastmile_qr_scan", "ios": "https://dc.lft.to/lastmile_qr_scan"}, "fusion_lon": 0.0}, {"lat": 38.8638415, "is_disabled": 0, "type": "electric_bike", "lon": -76.989922, "bike_id": "ae9014e5fc5c23ec1a6158ed1d092bc7", "fusion_lat": 0.0, "name": "ae9014e5fc5c23ec1a6158ed1d092bc7", "is_reserved": 0, "rental_uris": {"android": "https://dc.lft.to/lastmile_qr_scan", "ios": "https://dc.lft.to/lastmile_qr_scan"}, "fusion_lon": 0.0}, {"lat": 38.853167, "is_disabled": 0, "type": "electric_bike", "lon": -76.9800955, "bike_id": "363b0a6097d61697c62c2791e6548605", "fusion_lat": 0.0, "name": "363b0a6097d61697c62c2791e6548605", "is_reserved": 0, "rental_uris": {"android": "https://dc.lft.to/lastmile_qr_scan", "ios": "https://dc.lft.to/lastmile_qr_scan"}, "fusion_lon": 0.0}, {"lat": 38.86558933333333, "is_disabled": 0, "type": "electric_scooter", "lon": -76.97416783333334, "bike_id": "76e848a4e03d0845df08e3993f00f571", "fusion_lat": 0.0, "name": "76e848a4e03d0845df08e3993f00f571", "is_reserved": 0, "rental_uris": {"android": "https://dc.lft.to/lastmile_qr_scan", "ios": "https://dc.lft.to/lastmile_qr_scan"}, "fusion_lon": 0.0}, {"lat": 38.90075366666667, "is_disabled": 0, "type": "electric_scooter", "lon": -77.04920616666666, "bike_id": "db19899d047e6cd4960605c628aec135", "fusion_lat": 0.0, "name": "db19899d047e6cd4960605c628aec135", "is_reserved": 0, "rental_uris": {"android": "https://dc.lft.to/lastmile_qr_scan", "ios": "https://dc.lft.to/lastmile_qr_scan"}, "fusion_lon": 0.0}, {"lat": 38.928104, "is_disabled": 0, "type": "electric_scooter", "lon": -77.05421916666667, "bike_id": "7486ce29f7a3e9abffb4e9b84e70d0d7", "fusion_lat": 0.0, "name": "7486ce29f7a3e9abffb4e9b84e70d0d7", "is_reserved": 0, "rental_uris": {"android": "https://dc.lft.to/lastmile_qr_scan", "ios": "https://dc.lft.to/lastmile_qr_scan"}, "fusion_lon": 0.0}, {"lat": 38.92111933333333, "is_disabled": 0, "type": "electric_scooter", "lon": -77.04578166666667, "bike_id": "7507d981954c5f860fd97ad0329b4e40", "fusion_lat": 0.0, "name": "7507d981954c5f860fd97ad0329b4e40", "is_reserved": 0, "rental_uris": {"android": "https://dc.lft.to/lastmile_qr_scan", "ios": "https://dc.lft.to/lastmile_qr_scan"}, "fusion_lon": 0.0}, {"lat": 38.92589566666667, "is_disabled": 0, "type": "electric_scooter", "lon": -77.05279766666666, "bike_id": "236587921bdac72ef3b4d09ea0cf928e", "fusion_lat": 0.0, "name": "236587921bdac72ef3b4d09ea0cf928e", "is_reserved": 0, "rental_uris": {"android": "https://dc.lft.to/lastmile_qr_scan", "ios": "https://dc.lft.to/lastmile_qr_scan"}, "fusion_lon": 0.0}, {"lat": 38.91460816666667, "is_disabled": 0, "type": "electric_scooter", "lon": -77.00200466666666, "bike_id": "27b3d417e9d4a6fd6933c09c0872e65e", "fusion_lat": 0.0, "name": "27b3d417e9d4a6fd6933c09c0872e65e", "is_reserved": 0, "rental_uris": {"android": "https://dc.lft.to/lastmile_qr_scan", "ios": "https://dc.lft.to/lastmile_qr_scan"}, "fusion_lon": 0.0}, {"lat": 38.89844983333333, "is_disabled": 0, "type": "electric_scooter", "lon": -76.944606, "bike_id": "91e0d7931a099758c5d7fd448e276638", "fusion_lat": 0.0, "name": "91e0d7931a099758c5d7fd448e276638", "is_reserved": 0, "rental_uris": {"android": "https://dc.lft.to/lastmile_qr_scan", "ios": "https://dc.lft.to/lastmile_qr_scan"}, "fusion_lon": 0.0}, {"lat": 39.075067833333335, "is_disabled": 0, "type": "electric_bike", "lon": -77.1189845, "bike_id": "44c8a0f800eb1d6b95a5ba5cf8f05648", "fusion_lat": 0.0, "name": "44c8a0f800eb1d6b95a5ba5cf8f05648", "is_reserved": 0, "rental_uris": {"android": "https://dc.lft.to/lastmile_qr_scan", "ios": "https://dc.lft.to/lastmile_qr_scan"}, "fusion_lon": 0.0}, {"lat": 38.86290316666667, "is_disabled": 0, "type": "electric_scooter", "lon": -76.99236116666667, "bike_id": "20ccd4c6638611d1d4a24942c061a42d", "fusion_lat": 0.0, "name": "20ccd4c6638611d1d4a24942c061a42d", "is_reserved": 0, "rental_uris": {"android": "https://dc.lft.to/lastmile_qr_scan", "ios": "https://dc.lft.to/lastmile_qr_scan"}, "fusion_lon": 0.0}, {"lat": 38.90562716666667, "is_disabled": 0, "type": "electric_bike", "lon": -77.00486783333334, "bike_id": "2cada24efd409c523977e4b8af14ccbc", "fusion_lat": 0.0, "name": "2cada24efd409c523977e4b8af14ccbc", "is_reserved": 0, "rental_uris": {"android": "https://dc.lft.to/lastmile_qr_scan", "ios": "https://dc.lft.to/lastmile_qr_scan"}, "fusion_lon": 0.0}, {"lat": 38.9359795, "is_disabled": 0, "type": "electric_scooter", "lon": -77.03545116666666, "bike_id": "6519b994f27857664319991397ba0c05", "fusion_lat": 0.0, "name": "6519b994f27857664319991397ba0c05", "is_reserved": 0, "rental_uris": {"android": "https://dc.lft.to/lastmile_qr_scan", "ios": "https://dc.lft.to/lastmile_qr_scan"}, "fusion_lon": 0.0}, {"lat": 38.9244305, "is_disabled": 0, "type": "electric_scooter", "lon": -76.99332816666667, "bike_id": "8659921cd22c79db0f24ccae09999321", "fusion_lat": 0.0, "name": "8659921cd22c79db0f24ccae09999321", "is_reserved": 0, "rental_uris": {"android": "https://dc.lft.to/lastmile_qr_scan", "ios": "https://dc.lft.to/lastmile_qr_scan"}, "fusion_lon": 0.0}, {"lat": 38.94456116666667, "is_disabled": 0, "type": "electric_scooter", "lon": -77.06044683333333, "bike_id": "e1f53b2c1d245fb664e692aff9d87e92", "fusion_lat": 0.0, "name": "e1f53b2c1d245fb664e692aff9d87e92", "is_reserved": 0, "rental_uris": {"android": "https://dc.lft.to/lastmile_qr_scan", "ios": "https://dc.lft.to/lastmile_qr_scan"}, "fusion_lon": 0.0}, {"lat": 38.909426, "is_disabled": 0, "type": "electric_scooter", "lon": -77.03743783333333, "bike_id": "1690f5824af492e0a5f4d8bdec6fc095", "fusion_lat": 0.0, "name": "1690f5824af492e0a5f4d8bdec6fc095", "is_reserved": 0, "rental_uris": {"android": "https://dc.lft.to/lastmile_qr_scan", "ios": "https://dc.lft.to/lastmile_qr_scan"}, "fusion_lon": 0.0}, {"lat": 38.897301, "is_disabled": 0, "type": "electric_scooter", "lon": -77.0479755, "bike_id": "4785af26440ff09a2fb9896772ff3046", "fusion_lat": 0.0, "name": "4785af26440ff09a2fb9896772ff3046", "is_reserved": 0, "rental_uris": {"android": "https://dc.lft.to/lastmile_qr_scan", "ios": "https://dc.lft.to/lastmile_qr_scan"}, "fusion_lon": 0.0}, {"lat": 38.85810083333333, "is_disabled": 0, "type": "electric_scooter", "lon": -76.98651416666667, "bike_id": "3295ef09e92f38caaf2acae73e109e0a", "fusion_lat": 0.0, "name": "3295ef09e92f38caaf2acae73e109e0a", "is_reserved": 0, "rental_uris": {"android": "https://dc.lft.to/lastmile_qr_scan", "ios": "https://dc.lft.to/lastmile_qr_scan"}, "fusion_lon": 0.0}, {"lat": 38.91112783333333, "is_disabled": 0, "type": "electric_scooter", "lon": -77.00331966666667, "bike_id": "cd21ea1e0275acfc6dc3d9214265f036", "fusion_lat": 0.0, "name": "cd21ea1e0275acfc6dc3d9214265f036", "is_reserved": 0, "rental_uris": {"android": "https://dc.lft.to/lastmile_qr_scan", "ios": "https://dc.lft.to/lastmile_qr_scan"}, "fusion_lon": 0.0}, {"lat": 38.874209, "is_disabled": 0, "type": "electric_bike", "lon": -77.0858105, "bike_id": "376848dcbee8734881e6974dcd85f3d4", "fusion_lat": 0.0, "name": "376848dcbee8734881e6974dcd85f3d4", "is_reserved": 0, "rental_uris": {"android": "https://dc.lft.to/lastmile_qr_scan", "ios": "https://dc.lft.to/lastmile_qr_scan"}, "fusion_lon": 0.0}, {"lat": 38.923873, "is_disabled": 0, "type": "electric_scooter", "lon": -77.03661833333334, "bike_id": "43698431ea10f0f264668c272bc15aa5", "fusion_lat": 0.0, "name": "43698431ea10f0f264668c272bc15aa5", "is_reserved": 0, "rental_uris": {"android": "https://dc.lft.to/lastmile_qr_scan", "ios": "https://dc.lft.to/lastmile_qr_scan"}, "fusion_lon": 0.0}, {"lat": 38.91702216666667, "is_disabled": 0, "type": "electric_scooter", "lon": -77.04280333333334, "bike_id": "86d480be45580aee2a4843afc8b8044f", "fusion_lat": 0.0, "name": "86d480be45580aee2a4843afc8b8044f", "is_reserved": 0, "rental_uris": {"android": "https://dc.lft.to/lastmile_qr_scan", "ios": "https://dc.lft.to/lastmile_qr_scan"}, "fusion_lon": 0.0}, {"lat": 38.92460783333333, "is_disabled": 0, "type": "electric_bike", "lon": -77.208363, "bike_id": "a104fb0a7d850c82723d5d6bac9ed5ff", "fusion_lat": 0.0, "name": "a104fb0a7d850c82723d5d6bac9ed5ff", "is_reserved": 0, "rental_uris": {"android": "https://dc.lft.to/lastmile_qr_scan", "ios": "https://dc.lft.to/lastmile_qr_scan"}, "fusion_lon": 0.0}, {"lat": 38.8796425, "is_disabled": 0, "type": "electric_scooter", "lon": -77.01753083333334, "bike_id": "b5847523ded300552145acd2f30df22b", "fusion_lat": 0.0, "name": "b5847523ded300552145acd2f30df22b", "is_reserved": 0, "rental_uris": {"android": "https://dc.lft.to/lastmile_qr_scan", "ios": "https://dc.lft.to/lastmile_qr_scan"}, "fusion_lon": 0.0}, {"lat": 38.90035683333333, "is_disabled": 0, "type": "electric_scooter", "lon": -77.00592066666667, "bike_id": "f9af68fe4e8ebf21fe3ef2fb61e85c68", "fusion_lat": 0.0, "name": "f9af68fe4e8ebf21fe3ef2fb61e85c68", "is_reserved": 0, "rental_uris": {"android": "https://dc.lft.to/lastmile_qr_scan", "ios": "https://dc.lft.to/lastmile_qr_scan"}, "fusion_lon": 0.0}, {"lat": 38.91406933333333, "is_disabled": 0, "type": "electric_scooter", "lon": -76.9892795, "bike_id": "5fbfd87ed99307d7ba198d619602ff7a", "fusion_lat": 0.0, "name": "5fbfd87ed99307d7ba198d619602ff7a", "is_reserved": 0, "rental_uris": {"android": "https://dc.lft.to/lastmile_qr_scan", "ios": "https://dc.lft.to/lastmile_qr_scan"}, "fusion_lon": 0.0}, {"lat": 38.925627166666665, "is_disabled": 0, "type": "electric_scooter", "lon": -77.02572, "bike_id": "fcfdb5bf9ef991949fd4a37eb08d1901", "fusion_lat": 0.0, "name": "fcfdb5bf9ef991949fd4a37eb08d1901", "is_reserved": 0, "rental_uris": {"android": "https://dc.lft.to/lastmile_qr_scan", "ios": "https://dc.lft.to/lastmile_qr_scan"}, "fusion_lon": 0.0}, {"lat": 38.90404983333333, "is_disabled": 0, "type": "electric_bike", "lon": -77.0652395, "bike_id": "13c0ecea4e3a3e60d9050df7847e8410", "fusion_lat": 0.0, "name": "13c0ecea4e3a3e60d9050df7847e8410", "is_reserved": 0, "rental_uris": {"android": "https://dc.lft.to/lastmile_qr_scan", "ios": "https://dc.lft.to/lastmile_qr_scan"}, "fusion_lon": 0.0}, {"lat": 38.85851483333333, "is_disabled": 0, "type": "electric_bike", "lon": -77.0975345, "bike_id": "b8c7b8c97f8c051edb0c454337ef2317", "fusion_lat": 0.0, "name": "b8c7b8c97f8c051edb0c454337ef2317", "is_reserved": 0, "rental_uris": {"android": "https://dc.lft.to/lastmile_qr_scan", "ios": "https://dc.lft.to/lastmile_qr_scan"}, "fusion_lon": 0.0}, {"lat": 38.890393333333336, "is_disabled": 0, "type": "electric_scooter", "lon": -76.9407475, "bike_id": "717c78f2db592556095ee23a3c1f0cbe", "fusion_lat": 0.0, "name": "717c78f2db592556095ee23a3c1f0cbe", "is_reserved": 0, "rental_uris": {"android": "https://dc.lft.to/lastmile_qr_scan", "ios": "https://dc.lft.to/lastmile_qr_scan"}, "fusion_lon": 0.0}, {"lat": 38.9588635, "is_disabled": 0, "type": "electric_bike", "lon": -76.92487633333333, "bike_id": "cda89ad95daf9b29608017bce851bf09", "fusion_lat": 0.0, "name": "cda89ad95daf9b29608017bce851bf09", "is_reserved": 0, "rental_uris": {"android": "https://dc.lft.to/lastmile_qr_scan", "ios": "https://dc.lft.to/lastmile_qr_scan"}, "fusion_lon": 0.0}, {"lat": 38.911744666666664, "is_disabled": 0, "type": "electric_scooter", "lon": -77.0384685, "bike_id": "891d5b24ab31089cb121e6fcb5258227", "fusion_lat": 0.0, "name": "891d5b24ab31089cb121e6fcb5258227", "is_reserved": 0, "rental_uris": {"android": "https://dc.lft.to/lastmile_qr_scan", "ios": "https://dc.lft.to/lastmile_qr_scan"}, "fusion_lon": 0.0}, {"lat": 38.9072255, "is_disabled": 0, "type": "electric_scooter", "lon": -77.04237183333333, "bike_id": "c6f20f5fdf2aadc133f134165a82a11d", "fusion_lat": 0.0, "name": "c6f20f5fdf2aadc133f134165a82a11d", "is_reserved": 0, "rental_uris": {"android": "https://dc.lft.to/lastmile_qr_scan", "ios": "https://dc.lft.to/lastmile_qr_scan"}, "fusion_lon": 0.0}, {"lat": 38.921133833333336, "is_disabled": 0, "type": "electric_bike", "lon": -76.98569683333334, "bike_id": "c5a4a5de2b2c12922ac6780054424fe8", "fusion_lat": 0.0, "name": "c5a4a5de2b2c12922ac6780054424fe8", "is_reserved": 0, "rental_uris": {"android": "https://dc.lft.to/lastmile_qr_scan", "ios": "https://dc.lft.to/lastmile_qr_scan"}, "fusion_lon": 0.0}, {"lat": 38.91796733333334, "is_disabled": 0, "type": "electric_scooter", "lon": -77.04434916666666, "bike_id": "bd59ed146197c2c032b449e8e939d17f", "fusion_lat": 0.0, "name": "bd59ed146197c2c032b449e8e939d17f", "is_reserved": 0, "rental_uris": {"android": "https://dc.lft.to/lastmile_qr_scan", "ios": "https://dc.lft.to/lastmile_qr_scan"}, "fusion_lon": 0.0}, {"lat": 38.9309855, "is_disabled": 0, "type": "electric_scooter", "lon": -77.02496866666667, "bike_id": "adb6307f457eedb21832fb327f212275", "fusion_lat": 0.0, "name": "adb6307f457eedb21832fb327f212275", "is_reserved": 0, "rental_uris": {"android": "https://dc.lft.to/lastmile_qr_scan", "ios": "https://dc.lft.to/lastmile_qr_scan"}, "fusion_lon": 0.0}, {"lat": 38.940424166666666, "is_disabled": 0, "type": "electric_bike", "lon": -77.05159416666666, "bike_id": "21c81286faa5cf309902cb46e3345231", "fusion_lat": 0.0, "name": "21c81286faa5cf309902cb46e3345231", "is_reserved": 0, "rental_uris": {"android": "https://dc.lft.to/lastmile_qr_scan", "ios": "https://dc.lft.to/lastmile_qr_scan"}, "fusion_lon": 0.0}, {"lat": 38.92076866666667, "is_disabled": 0, "type": "electric_scooter", "lon": -77.014358, "bike_id": "7b896652ba3583092ee5afbd97cbc9cc", "fusion_lat": 0.0, "name": "7b896652ba3583092ee5afbd97cbc9cc", "is_reserved": 0, "rental_uris": {"android": "https://dc.lft.to/lastmile_qr_scan", "ios": "https://dc.lft.to/lastmile_qr_scan"}, "fusion_lon": 0.0}, {"lat": 38.92254233333333, "is_disabled": 0, "type": "electric_scooter", "lon": -77.0310485, "bike_id": "d081a368a78d45a758d9013f27be8435", "fusion_lat": 0.0, "name": "d081a368a78d45a758d9013f27be8435", "is_reserved": 0, "rental_uris": {"android": "https://dc.lft.to/lastmile_qr_scan", "ios": "https://dc.lft.to/lastmile_qr_scan"}, "fusion_lon": 0.0}, {"lat": 38.91383483333333, "is_disabled": 0, "type": "electric_scooter", "lon": -77.019045, "bike_id": "1a5cd11fa6cc1ddd54e65f3098dbb40a", "fusion_lat": 0.0, "name": "1a5cd11fa6cc1ddd54e65f3098dbb40a", "is_reserved": 0, "rental_uris": {"android": "https://dc.lft.to/lastmile_qr_scan", "ios": "https://dc.lft.to/lastmile_qr_scan"}, "fusion_lon": 0.0}, {"lat": 38.950882, "is_disabled": 0, "type": "electric_scooter", "lon": -77.02804016666667, "bike_id": "18eba90d01fa40f2db3fab1b6befc1c5", "fusion_lat": 0.0, "name": "18eba90d01fa40f2db3fab1b6befc1c5", "is_reserved": 0, "rental_uris": {"android": "https://dc.lft.to/lastmile_qr_scan", "ios": "https://dc.lft.to/lastmile_qr_scan"}, "fusion_lon": 0.0}, {"lat": 38.902828166666666, "is_disabled": 0, "type": "electric_scooter", "lon": -77.06361633333333, "bike_id": "8400f3e33ba07b9ca51c1397f4a9b0f6", "fusion_lat": 0.0, "name": "8400f3e33ba07b9ca51c1397f4a9b0f6", "is_reserved": 0, "rental_uris": {"android": "https://dc.lft.to/lastmile_qr_scan", "ios": "https://dc.lft.to/lastmile_qr_scan"}, "fusion_lon": 0.0}, {"lat": 38.92969, "is_disabled": 0, "type": "electric_scooter", "lon": -77.03064166666667, "bike_id": "2d8b9a15312ec62aaca71604217d5673", "fusion_lat": 0.0, "name": "2d8b9a15312ec62aaca71604217d5673", "is_reserved": 0, "rental_uris": {"android": "https://dc.lft.to/lastmile_qr_scan", "ios": "https://dc.lft.to/lastmile_qr_scan"}, "fusion_lon": 0.0}, {"lat": 38.90264333333333, "is_disabled": 0, "type": "electric_scooter", "lon": -77.03197583333333, "bike_id": "8ab847dbf03c5f88c90928e6edcbb871", "fusion_lat": 0.0, "name": "8ab847dbf03c5f88c90928e6edcbb871", "is_reserved": 0, "rental_uris": {"android": "https://dc.lft.to/lastmile_qr_scan", "ios": "https://dc.lft.to/lastmile_qr_scan"}, "fusion_lon": 0.0}, {"lat": 38.9057145, "is_disabled": 0, "type": "electric_scooter", "lon": -77.022195, "bike_id": "8a93d93714721d9647383f256e9e8492", "fusion_lat": 0.0, "name": "8a93d93714721d9647383f256e9e8492", "is_reserved": 0, "rental_uris": {"android": "https://dc.lft.to/lastmile_qr_scan", "ios": "https://dc.lft.to/lastmile_qr_scan"}, "fusion_lon": 0.0}, {"lat": 38.8706255, "is_disabled": 0, "type": "electric_scooter", "lon": -77.008371, "bike_id": "e71d3231cfa2abf04eb1785d8cd5b05c", "fusion_lat": 0.0, "name": "e71d3231cfa2abf04eb1785d8cd5b05c", "is_reserved": 0, "rental_uris": {"android": "https://dc.lft.to/lastmile_qr_scan", "ios": "https://dc.lft.to/lastmile_qr_scan"}, "fusion_lon": 0.0}, {"lat": 38.934346833333336, "is_disabled": 0, "type": "electric_scooter", "lon": -77.03461816666666, "bike_id": "db4c4a46e732c7197c23c9aaf1f2f29b", "fusion_lat": 0.0, "name": "db4c4a46e732c7197c23c9aaf1f2f29b", "is_reserved": 0, "rental_uris": {"android": "https://dc.lft.to/lastmile_qr_scan", "ios": "https://dc.lft.to/lastmile_qr_scan"}, "fusion_lon": 0.0}, {"lat": 38.86211266666667, "is_disabled": 0, "type": "electric_bike", "lon": -76.99776916666667, "bike_id": "913df795bf445d94b13a31b615241ca1", "fusion_lat": 0.0, "name": "913df795bf445d94b13a31b615241ca1", "is_reserved": 0, "rental_uris": {"android": "https://dc.lft.to/lastmile_qr_scan", "ios": "https://dc.lft.to/lastmile_qr_scan"}, "fusion_lon": 0.0}, {"lat": 38.86675133333333, "is_disabled": 0, "type": "electric_scooter", "lon": -76.98537933333333, "bike_id": "15c4d0973b561cb8300224ed2dd6e1e8", "fusion_lat": 0.0, "name": "15c4d0973b561cb8300224ed2dd6e1e8", "is_reserved": 0, "rental_uris": {"android": "https://dc.lft.to/lastmile_qr_scan", "ios": "https://dc.lft.to/lastmile_qr_scan"}, "fusion_lon": 0.0}, {"lat": 38.91706, "is_disabled": 0, "type": "electric_scooter", "lon": -77.00113516666667, "bike_id": "ab3b7a826d3f094e581e09ceb29d1e3f", "fusion_lat": 0.0, "name": "ab3b7a826d3f094e581e09ceb29d1e3f", "is_reserved": 0, "rental_uris": {"android": "https://dc.lft.to/lastmile_qr_scan", "ios": "https://dc.lft.to/lastmile_qr_scan"}, "fusion_lon": 0.0}, {"lat": 38.91432833333333, "is_disabled": 0, "type": "electric_bike", "lon": -77.01698583333334, "bike_id": "0016c47acba87d3a14526eec3ef078b9", "fusion_lat": 0.0, "name": "0016c47acba87d3a14526eec3ef078b9", "is_reserved": 0, "rental_uris": {"android": "https://dc.lft.to/lastmile_qr_scan", "ios": "https://dc.lft.to/lastmile_qr_scan"}, "fusion_lon": 0.0}, {"lat": 38.903968666666664, "is_disabled": 0, "type": "electric_scooter", "lon": -76.984641, "bike_id": "bf13496124021a8e28393def5526ecea", "fusion_lat": 0.0, "name": "bf13496124021a8e28393def5526ecea", "is_reserved": 0, "rental_uris": {"android": "https://dc.lft.to/lastmile_qr_scan", "ios": "https://dc.lft.to/lastmile_qr_scan"}, "fusion_lon": 0.0}, {"lat": 38.96223083333334, "is_disabled": 0, "type": "electric_bike", "lon": -77.026304, "bike_id": "b800c9e9af3299a476ea6b669cfec0a7", "fusion_lat": 0.0, "name": "b800c9e9af3299a476ea6b669cfec0a7", "is_reserved": 0, "rental_uris": {"android": "https://dc.lft.to/lastmile_qr_scan", "ios": "https://dc.lft.to/lastmile_qr_scan"}, "fusion_lon": 0.0}, {"lat": 38.92679566666666, "is_disabled": 0, "type": "electric_scooter", "lon": -77.00737316666667, "bike_id": "fb444dac217a30883102319828a17ca6", "fusion_lat": 0.0, "name": "fb444dac217a30883102319828a17ca6", "is_reserved": 0, "rental_uris": {"android": "https://dc.lft.to/lastmile_qr_scan", "ios": "https://dc.lft.to/lastmile_qr_scan"}, "fusion_lon": 0.0}, {"lat": 38.902478, "is_disabled": 0, "type": "electric_scooter", "lon": -77.02810416666667, "bike_id": "986bd874690756a8f2ba06597ea28584", "fusion_lat": 0.0, "name": "986bd874690756a8f2ba06597ea28584", "is_reserved": 0, "rental_uris": {"android": "https://dc.lft.to/lastmile_qr_scan", "ios": "https://dc.lft.to/lastmile_qr_scan"}, "fusion_lon": 0.0}, {"lat": 38.893549, "is_disabled": 0, "type": "electric_scooter", "lon": -77.03983466666666, "bike_id": "c18c706fd3bd5d54b6d2e39db4df0976", "fusion_lat": 0.0, "name": "c18c706fd3bd5d54b6d2e39db4df0976", "is_reserved": 0, "rental_uris": {"android": "https://dc.lft.to/lastmile_qr_scan", "ios": "https://dc.lft.to/lastmile_qr_scan"}, "fusion_lon": 0.0}, {"lat": 38.8921955, "is_disabled": 0, "type": "electric_bike", "lon": -77.10780766666667, "bike_id": "82a3ceb9c5438dd3127502d29adc25e9", "fusion_lat": 0.0, "name": "82a3ceb9c5438dd3127502d29adc25e9", "is_reserved": 0, "rental_uris": {"android": "https://dc.lft.to/lastmile_qr_scan", "ios": "https://dc.lft.to/lastmile_qr_scan"}, "fusion_lon": 0.0}, {"lat": 38.91334583333333, "is_disabled": 0, "type": "electric_scooter", "lon": -77.01271116666666, "bike_id": "6969042efb8352c9c119f0adc067e9f3", "fusion_lat": 0.0, "name": "6969042efb8352c9c119f0adc067e9f3", "is_reserved": 0, "rental_uris": {"android": "https://dc.lft.to/lastmile_qr_scan", "ios": "https://dc.lft.to/lastmile_qr_scan"}, "fusion_lon": 0.0}, {"lat": 38.886928833333336, "is_disabled": 0, "type": "electric_scooter", "lon": -77.01761333333333, "bike_id": "4dbbb54a69063ec3d519c8efddddb226", "fusion_lat": 0.0, "name": "4dbbb54a69063ec3d519c8efddddb226", "is_reserved": 0, "rental_uris": {"android": "https://dc.lft.to/lastmile_qr_scan", "ios": "https://dc.lft.to/lastmile_qr_scan"}, "fusion_lon": 0.0}, {"lat": 38.931969, "is_disabled": 0, "type": "electric_scooter", "lon": -77.0235305, "bike_id": "fff821ec92b6ff307c101b743a25e2a5", "fusion_lat": 0.0, "name": "fff821ec92b6ff307c101b743a25e2a5", "is_reserved": 0, "rental_uris": {"android": "https://dc.lft.to/lastmile_qr_scan", "ios": "https://dc.lft.to/lastmile_qr_scan"}, "fusion_lon": 0.0}, {"lat": 38.894960833333336, "is_disabled": 0, "type": "electric_scooter", "lon": -77.00211083333333, "bike_id": "796799931f2aa71ea0660b37790af62e", "fusion_lat": 0.0, "name": "796799931f2aa71ea0660b37790af62e", "is_reserved": 0, "rental_uris": {"android": "https://dc.lft.to/lastmile_qr_scan", "ios": "https://dc.lft.to/lastmile_qr_scan"}, "fusion_lon": 0.0}, {"lat": 38.89841, "is_disabled": 0, "type": "electric_scooter", "lon": -76.9950235, "bike_id": "183810173dc27d59bd7bf32270df2261", "fusion_lat": 0.0, "name": "183810173dc27d59bd7bf32270df2261", "is_reserved": 0, "rental_uris": {"android": "https://dc.lft.to/lastmile_qr_scan", "ios": "https://dc.lft.to/lastmile_qr_scan"}, "fusion_lon": 0.0}, {"lat": 38.92261366666666, "is_disabled": 0, "type": "electric_scooter", "lon": -77.04332883333333, "bike_id": "25751986b0617989eec181012b1cb20f", "fusion_lat": 0.0, "name": "25751986b0617989eec181012b1cb20f", "is_reserved": 0, "rental_uris": {"android": "https://dc.lft.to/lastmile_qr_scan", "ios": "https://dc.lft.to/lastmile_qr_scan"}, "fusion_lon": 0.0}, {"lat": 38.90877833333333, "is_disabled": 0, "type": "electric_scooter", "lon": -77.0036425, "bike_id": "bbdf18824e06c755a06d0dbbfd493531", "fusion_lat": 0.0, "name": "bbdf18824e06c755a06d0dbbfd493531", "is_reserved": 0, "rental_uris": {"android": "https://dc.lft.to/lastmile_qr_scan", "ios": "https://dc.lft.to/lastmile_qr_scan"}, "fusion_lon": 0.0}, {"lat": 38.896073333333334, "is_disabled": 0, "type": "electric_scooter", "lon": -77.00926833333334, "bike_id": "a9146edbf29f82e0deef96e614556540", "fusion_lat": 0.0, "name": "a9146edbf29f82e0deef96e614556540", "is_reserved": 0, "rental_uris": {"android": "https://dc.lft.to/lastmile_qr_scan", "ios": "https://dc.lft.to/lastmile_qr_scan"}, "fusion_lon": 0.0}, {"lat": 38.927752166666664, "is_disabled": 0, "type": "electric_scooter", "lon": -77.052634, "bike_id": "ae4ca03a5c06a88911309c0b52bcca76", "fusion_lat": 0.0, "name": "ae4ca03a5c06a88911309c0b52bcca76", "is_reserved": 0, "rental_uris": {"android": "https://dc.lft.to/lastmile_qr_scan", "ios": "https://dc.lft.to/lastmile_qr_scan"}, "fusion_lon": 0.0}, {"lat": 38.917617166666666, "is_disabled": 0, "type": "electric_scooter", "lon": -77.03660466666666, "bike_id": "1ce800fedebfd8d74d8ba090c6719767", "fusion_lat": 0.0, "name": "1ce800fedebfd8d74d8ba090c6719767", "is_reserved": 0, "rental_uris": {"android": "https://dc.lft.to/lastmile_qr_scan", "ios": "https://dc.lft.to/lastmile_qr_scan"}, "fusion_lon": 0.0}, {"lat": 38.93385133333334, "is_disabled": 0, "type": "electric_scooter", "lon": -76.9951395, "bike_id": "6f1593937791e58b885ad8df9b58916c", "fusion_lat": 0.0, "name": "6f1593937791e58b885ad8df9b58916c", "is_reserved": 0, "rental_uris": {"android": "https://dc.lft.to/lastmile_qr_scan", "ios": "https://dc.lft.to/lastmile_qr_scan"}, "fusion_lon": 0.0}, {"lat": 38.9310075, "is_disabled": 0, "type": "electric_scooter", "lon": -77.03019716666667, "bike_id": "fb130d242dffc5c58a5370c3b978f72b", "fusion_lat": 0.0, "name": "fb130d242dffc5c58a5370c3b978f72b", "is_reserved": 0, "rental_uris": {"android": "https://dc.lft.to/lastmile_qr_scan", "ios": "https://dc.lft.to/lastmile_qr_scan"}, "fusion_lon": 0.0}, {"lat": 38.9356975, "is_disabled": 0, "type": "electric_scooter", "lon": -77.03264783333333, "bike_id": "97caa29dc44f493ce623a8212d102f49", "fusion_lat": 0.0, "name": "97caa29dc44f493ce623a8212d102f49", "is_reserved": 0, "rental_uris": {"android": "https://dc.lft.to/lastmile_qr_scan", "ios": "https://dc.lft.to/lastmile_qr_scan"}, "fusion_lon": 0.0}, {"lat": 38.90564166666667, "is_disabled": 0, "type": "electric_scooter", "lon": -77.03621116666666, "bike_id": "84d6e1a61bc307606a831889b6dc0e19", "fusion_lat": 0.0, "name": "84d6e1a61bc307606a831889b6dc0e19", "is_reserved": 0, "rental_uris": {"android": "https://dc.lft.to/lastmile_qr_scan", "ios": "https://dc.lft.to/lastmile_qr_scan"}, "fusion_lon": 0.0}, {"lat": 38.91526066666667, "is_disabled": 0, "type": "electric_scooter", "lon": -77.0319235, "bike_id": "8fd4f24f55450dc81e80818138af2f58", "fusion_lat": 0.0, "name": "8fd4f24f55450dc81e80818138af2f58", "is_reserved": 0, "rental_uris": {"android": "https://dc.lft.to/lastmile_qr_scan", "ios": "https://dc.lft.to/lastmile_qr_scan"}, "fusion_lon": 0.0}, {"lat": 38.93704983333333, "is_disabled": 0, "type": "electric_scooter", "lon": -77.061025, "bike_id": "49c28436ccb3e121f198c70b6d4a11a4", "fusion_lat": 0.0, "name": "49c28436ccb3e121f198c70b6d4a11a4", "is_reserved": 0, "rental_uris": {"android": "https://dc.lft.to/lastmile_qr_scan", "ios": "https://dc.lft.to/lastmile_qr_scan"}, "fusion_lon": 0.0}, {"lat": 38.898513, "is_disabled": 0, "type": "electric_bike", "lon": -76.93189933333333, "bike_id": "f91cec5fdcca08ecc0da7f28e471fa87", "fusion_lat": 0.0, "name": "f91cec5fdcca08ecc0da7f28e471fa87", "is_reserved": 0, "rental_uris": {"android": "https://dc.lft.to/lastmile_qr_scan", "ios": "https://dc.lft.to/lastmile_qr_scan"}, "fusion_lon": 0.0}, {"lat": 38.91738983333333, "is_disabled": 0, "type": "electric_scooter", "lon": -77.02517083333333, "bike_id": "c851069d9ffcb3e1defb700c4dbfc29b", "fusion_lat": 0.0, "name": "c851069d9ffcb3e1defb700c4dbfc29b", "is_reserved": 0, "rental_uris": {"android": "https://dc.lft.to/lastmile_qr_scan", "ios": "https://dc.lft.to/lastmile_qr_scan"}, "fusion_lon": 0.0}, {"lat": 38.92151966666667, "is_disabled": 0, "type": "electric_scooter", "lon": -77.03866083333334, "bike_id": "e371db688bcfb5f1a0ddcb05081ce154", "fusion_lat": 0.0, "name": "e371db688bcfb5f1a0ddcb05081ce154", "is_reserved": 0, "rental_uris": {"android": "https://dc.lft.to/lastmile_qr_scan", "ios": "https://dc.lft.to/lastmile_qr_scan"}, "fusion_lon": 0.0}, {"lat": 38.91515833333333, "is_disabled": 0, "type": "electric_scooter", "lon": -77.0384425, "bike_id": "88ab13cc85822a2389be423b941e2bc2", "fusion_lat": 0.0, "name": "88ab13cc85822a2389be423b941e2bc2", "is_reserved": 0, "rental_uris": {"android": "https://dc.lft.to/lastmile_qr_scan", "ios": "https://dc.lft.to/lastmile_qr_scan"}, "fusion_lon": 0.0}, {"lat": 38.895232, "is_disabled": 0, "type": "electric_scooter", "lon": -77.02815933333333, "bike_id": "f101240d2c9eddeea7ffc645a6cb4047", "fusion_lat": 0.0, "name": "f101240d2c9eddeea7ffc645a6cb4047", "is_reserved": 0, "rental_uris": {"android": "https://dc.lft.to/lastmile_qr_scan", "ios": "https://dc.lft.to/lastmile_qr_scan"}, "fusion_lon": 0.0}, {"lat": 38.8590655, "is_disabled": 0, "type": "electric_scooter", "lon": -76.99149716666666, "bike_id": "8e1b8dedc9425537b2ca4984b769837b", "fusion_lat": 0.0, "name": "8e1b8dedc9425537b2ca4984b769837b", "is_reserved": 0, "rental_uris": {"android": "https://dc.lft.to/lastmile_qr_scan", "ios": "https://dc.lft.to/lastmile_qr_scan"}, "fusion_lon": 0.0}, {"lat": 38.947427833333336, "is_disabled": 0, "type": "electric_scooter", "lon": -77.06519483333334, "bike_id": "1259820a1fdb8c239d967d046a657313", "fusion_lat": 0.0, "name": "1259820a1fdb8c239d967d046a657313", "is_reserved": 0, "rental_uris": {"android": "https://dc.lft.to/lastmile_qr_scan", "ios": "https://dc.lft.to/lastmile_qr_scan"}, "fusion_lon": 0.0}, {"lat": 38.905751, "is_disabled": 0, "type": "electric_scooter", "lon": -77.02976466666667, "bike_id": "326541a285371ca314f6a5ff7a4648e1", "fusion_lat": 0.0, "name": "326541a285371ca314f6a5ff7a4648e1", "is_reserved": 0, "rental_uris": {"android": "https://dc.lft.to/lastmile_qr_scan", "ios": "https://dc.lft.to/lastmile_qr_scan"}, "fusion_lon": 0.0}, {"lat": 38.8664865, "is_disabled": 0, "type": "electric_scooter", "lon": -76.98880616666666, "bike_id": "f3b9dfd5612e302571af664f102757d4", "fusion_lat": 0.0, "name": "f3b9dfd5612e302571af664f102757d4", "is_reserved": 0, "rental_uris": {"android": "https://dc.lft.to/lastmile_qr_scan", "ios": "https://dc.lft.to/lastmile_qr_scan"}, "fusion_lon": 0.0}, {"lat": 38.90027583333333, "is_disabled": 0, "type": "electric_scooter", "lon": -76.99741583333333, "bike_id": "978953fcff1e4c69561e64a73b01995e", "fusion_lat": 0.0, "name": "978953fcff1e4c69561e64a73b01995e", "is_reserved": 0, "rental_uris": {"android": "https://dc.lft.to/lastmile_qr_scan", "ios": "https://dc.lft.to/lastmile_qr_scan"}, "fusion_lon": 0.0}, {"lat": 38.91967783333333, "is_disabled": 0, "type": "electric_scooter", "lon": -77.04289233333333, "bike_id": "89c9144350dcd3b4eec2cec5291bc2ac", "fusion_lat": 0.0, "name": "89c9144350dcd3b4eec2cec5291bc2ac", "is_reserved": 0, "rental_uris": {"android": "https://dc.lft.to/lastmile_qr_scan", "ios": "https://dc.lft.to/lastmile_qr_scan"}, "fusion_lon": 0.0}, {"lat": 38.8989015, "is_disabled": 0, "type": "electric_scooter", "lon": -76.9337005, "bike_id": "825b6c739f7f29171c91092d668d12f3", "fusion_lat": 0.0, "name": "825b6c739f7f29171c91092d668d12f3", "is_reserved": 0, "rental_uris": {"android": "https://dc.lft.to/lastmile_qr_scan", "ios": "https://dc.lft.to/lastmile_qr_scan"}, "fusion_lon": 0.0}, {"lat": 38.93061016666667, "is_disabled": 0, "type": "electric_scooter", "lon": -77.041818, "bike_id": "d8de81ef74341e9917ed55a8bba0e22e", "fusion_lat": 0.0, "name": "d8de81ef74341e9917ed55a8bba0e22e", "is_reserved": 0, "rental_uris": {"android": "https://dc.lft.to/lastmile_qr_scan", "ios": "https://dc.lft.to/lastmile_qr_scan"}, "fusion_lon": 0.0}, {"lat": 38.900450166666666, "is_disabled": 0, "type": "electric_scooter", "lon": -76.99377933333334, "bike_id": "c4c50e4ae26169c08b4b2de31ddcc553", "fusion_lat": 0.0, "name": "c4c50e4ae26169c08b4b2de31ddcc553", "is_reserved": 0, "rental_uris": {"android": "https://dc.lft.to/lastmile_qr_scan", "ios": "https://dc.lft.to/lastmile_qr_scan"}, "fusion_lon": 0.0}, {"lat": 38.908558666666664, "is_disabled": 0, "type": "electric_scooter", "lon": -76.99163333333334, "bike_id": "cd45aa6abf0ee4ff9b693bd496648ccd", "fusion_lat": 0.0, "name": "cd45aa6abf0ee4ff9b693bd496648ccd", "is_reserved": 0, "rental_uris": {"android": "https://dc.lft.to/lastmile_qr_scan", "ios": "https://dc.lft.to/lastmile_qr_scan"}, "fusion_lon": 0.0}, {"lat": 38.90622883333333, "is_disabled": 0, "type": "electric_scooter", "lon": -76.98980666666667, "bike_id": "87b372506719914f2646f78cd341a03b", "fusion_lat": 0.0, "name": "87b372506719914f2646f78cd341a03b", "is_reserved": 0, "rental_uris": {"android": "https://dc.lft.to/lastmile_qr_scan", "ios": "https://dc.lft.to/lastmile_qr_scan"}, "fusion_lon": 0.0}, {"lat": 38.927472333333334, "is_disabled": 0, "type": "electric_scooter", "lon": -77.02537533333333, "bike_id": "1348e5add8247c483e30a87794147a3e", "fusion_lat": 0.0, "name": "1348e5add8247c483e30a87794147a3e", "is_reserved": 0, "rental_uris": {"android": "https://dc.lft.to/lastmile_qr_scan", "ios": "https://dc.lft.to/lastmile_qr_scan"}, "fusion_lon": 0.0}, {"lat": 38.891057333333336, "is_disabled": 0, "type": "electric_scooter", "lon": -76.94382366666666, "bike_id": "6fdb06ad4b5a167f34db1274dbefb63a", "fusion_lat": 0.0, "name": "6fdb06ad4b5a167f34db1274dbefb63a", "is_reserved": 0, "rental_uris": {"android": "https://dc.lft.to/lastmile_qr_scan", "ios": "https://dc.lft.to/lastmile_qr_scan"}, "fusion_lon": 0.0}, {"lat": 38.90853333333333, "is_disabled": 0, "type": "electric_scooter", "lon": -77.0476665, "bike_id": "0f7846090dc61ab28490b2876ee41d65", "fusion_lat": 0.0, "name": "0f7846090dc61ab28490b2876ee41d65", "is_reserved": 0, "rental_uris": {"android": "https://dc.lft.to/lastmile_qr_scan", "ios": "https://dc.lft.to/lastmile_qr_scan"}, "fusion_lon": 0.0}, {"lat": 38.90454916666667, "is_disabled": 0, "type": "electric_scooter", "lon": -77.0286795, "bike_id": "e2144aeff99cbb393bc14e48505420a1", "fusion_lat": 0.0, "name": "e2144aeff99cbb393bc14e48505420a1", "is_reserved": 0, "rental_uris": {"android": "https://dc.lft.to/lastmile_qr_scan", "ios": "https://dc.lft.to/lastmile_qr_scan"}, "fusion_lon": 0.0}, {"lat": 38.907701333333335, "is_disabled": 0, "type": "electric_scooter", "lon": -77.002292, "bike_id": "ccb89c82988baf531ed0cd684f1e322a", "fusion_lat": 0.0, "name": "ccb89c82988baf531ed0cd684f1e322a", "is_reserved": 0, "rental_uris": {"android": "https://dc.lft.to/lastmile_qr_scan", "ios": "https://dc.lft.to/lastmile_qr_scan"}, "fusion_lon": 0.0}, {"lat": 38.95366966666667, "is_disabled": 0, "type": "electric_bike", "lon": -76.9797195, "bike_id": "e8318a7645c9eb3e344c6a1a70df1050", "fusion_lat": 0.0, "name": "e8318a7645c9eb3e344c6a1a70df1050", "is_reserved": 0, "rental_uris": {"android": "https://dc.lft.to/lastmile_qr_scan", "ios": "https://dc.lft.to/lastmile_qr_scan"}, "fusion_lon": 0.0}, {"lat": 38.90859833333333, "is_disabled": 0, "type": "electric_scooter", "lon": -77.04592733333334, "bike_id": "d3b28079fbf7dacc2601bfa2ed6333a8", "fusion_lat": 0.0, "name": "d3b28079fbf7dacc2601bfa2ed6333a8", "is_reserved": 0, "rental_uris": {"android": "https://dc.lft.to/lastmile_qr_scan", "ios": "https://dc.lft.to/lastmile_qr_scan"}, "fusion_lon": 0.0}, {"lat": 38.870134166666666, "is_disabled": 0, "type": "electric_bike", "lon": -76.96018, "bike_id": "dc5c35574a913c77faca497e4dd93e13", "fusion_lat": 0.0, "name": "dc5c35574a913c77faca497e4dd93e13", "is_reserved": 0, "rental_uris": {"android": "https://dc.lft.to/lastmile_qr_scan", "ios": "https://dc.lft.to/lastmile_qr_scan"}, "fusion_lon": 0.0}, {"lat": 38.836757166666665, "is_disabled": 0, "type": "electric_scooter", "lon": -77.0056775, "bike_id": "a574c71d87804aa143e6a7cfe10f5daf", "fusion_lat": 0.0, "name": "a574c71d87804aa143e6a7cfe10f5daf", "is_reserved": 0, "rental_uris": {"android": "https://dc.lft.to/lastmile_qr_scan", "ios": "https://dc.lft.to/lastmile_qr_scan"}, "fusion_lon": 0.0}, {"lat": 38.906032833333335, "is_disabled": 0, "type": "electric_scooter", "lon": -77.0630265, "bike_id": "9770646fbbaff816c7baa3cf99262a86", "fusion_lat": 0.0, "name": "9770646fbbaff816c7baa3cf99262a86", "is_reserved": 0, "rental_uris": {"android": "https://dc.lft.to/lastmile_qr_scan", "ios": "https://dc.lft.to/lastmile_qr_scan"}, "fusion_lon": 0.0}, {"lat": 38.9007335, "is_disabled": 0, "type": "electric_scooter", "lon": -77.002268, "bike_id": "1f7857394f41546e30ed56960f06623f", "fusion_lat": 0.0, "name": "1f7857394f41546e30ed56960f06623f", "is_reserved": 0, "rental_uris": {"android": "https://dc.lft.to/lastmile_qr_scan", "ios": "https://dc.lft.to/lastmile_qr_scan"}, "fusion_lon": 0.0}, {"lat": 38.92844783333334, "is_disabled": 0, "type": "electric_scooter", "lon": -77.01385083333334, "bike_id": "01bf9fe4b3a568d38bb629e5c23c3894", "fusion_lat": 0.0, "name": "01bf9fe4b3a568d38bb629e5c23c3894", "is_reserved": 0, "rental_uris": {"android": "https://dc.lft.to/lastmile_qr_scan", "ios": "https://dc.lft.to/lastmile_qr_scan"}, "fusion_lon": 0.0}, {"lat": 38.9582155, "is_disabled": 0, "type": "electric_bike", "lon": -76.940905, "bike_id": "86646acfd81c0d556fbe79042fbd5695", "fusion_lat": 0.0, "name": "86646acfd81c0d556fbe79042fbd5695", "is_reserved": 0, "rental_uris": {"android": "https://dc.lft.to/lastmile_qr_scan", "ios": "https://dc.lft.to/lastmile_qr_scan"}, "fusion_lon": 0.0}, {"lat": 38.900734, "is_disabled": 0, "type": "electric_scooter", "lon": -77.001979, "bike_id": "baf5cac961e8bbff10081bcf94e803c4", "fusion_lat": 0.0, "name": "baf5cac961e8bbff10081bcf94e803c4", "is_reserved": 0, "rental_uris": {"android": "https://dc.lft.to/lastmile_qr_scan", "ios": "https://dc.lft.to/lastmile_qr_scan"}, "fusion_lon": 0.0}, {"lat": 38.9181105, "is_disabled": 0, "type": "electric_scooter", "lon": -77.00049066666666, "bike_id": "ca39a32d8c6aba541fc695141b8e0b58", "fusion_lat": 0.0, "name": "ca39a32d8c6aba541fc695141b8e0b58", "is_reserved": 0, "rental_uris": {"android": "https://dc.lft.to/lastmile_qr_scan", "ios": "https://dc.lft.to/lastmile_qr_scan"}, "fusion_lon": 0.0}, {"lat": 38.91036916666667, "is_disabled": 0, "type": "electric_scooter", "lon": -77.01503933333333, "bike_id": "99aec9f4944e4a6ce66dbf322cd89cc0", "fusion_lat": 0.0, "name": "99aec9f4944e4a6ce66dbf322cd89cc0", "is_reserved": 0, "rental_uris": {"android": "https://dc.lft.to/lastmile_qr_scan", "ios": "https://dc.lft.to/lastmile_qr_scan"}, "fusion_lon": 0.0}, {"lat": 38.902558, "is_disabled": 0, "type": "electric_scooter", "lon": -77.03951833333333, "bike_id": "0daad89b1b35037992324f71b9058327", "fusion_lat": 0.0, "name": "0daad89b1b35037992324f71b9058327", "is_reserved": 0, "rental_uris": {"android": "https://dc.lft.to/lastmile_qr_scan", "ios": "https://dc.lft.to/lastmile_qr_scan"}, "fusion_lon": 0.0}, {"lat": 38.89202133333333, "is_disabled": 0, "type": "electric_bike", "lon": -76.9704875, "bike_id": "68a78e110705dcd5f9ce6cd1057adfe6", "fusion_lat": 0.0, "name": "68a78e110705dcd5f9ce6cd1057adfe6", "is_reserved": 0, "rental_uris": {"android": "https://dc.lft.to/lastmile_qr_scan", "ios": "https://dc.lft.to/lastmile_qr_scan"}, "fusion_lon": 0.0}, {"lat": 38.93361516666667, "is_disabled": 0, "type": "electric_bike", "lon": -77.09959566666667, "bike_id": "aaf87b1bcf2586661e4dec5a1032d4ac", "fusion_lat": 0.0, "name": "aaf87b1bcf2586661e4dec5a1032d4ac", "is_reserved": 0, "rental_uris": {"android": "https://dc.lft.to/lastmile_qr_scan", "ios": "https://dc.lft.to/lastmile_qr_scan"}, "fusion_lon": 0.0}, {"lat": 38.92710016666667, "is_disabled": 0, "type": "electric_scooter", "lon": -77.021033, "bike_id": "116573269ee8becd30ad7a5b90d59056", "fusion_lat": 0.0, "name": "116573269ee8becd30ad7a5b90d59056", "is_reserved": 0, "rental_uris": {"android": "https://dc.lft.to/lastmile_qr_scan", "ios": "https://dc.lft.to/lastmile_qr_scan"}, "fusion_lon": 0.0}, {"lat": 38.858061166666666, "is_disabled": 0, "type": "electric_scooter", "lon": -76.98652316666667, "bike_id": "752f8f88a93272e70fa54b1366fe0ec3", "fusion_lat": 0.0, "name": "752f8f88a93272e70fa54b1366fe0ec3", "is_reserved": 0, "rental_uris": {"android": "https://dc.lft.to/lastmile_qr_scan", "ios": "https://dc.lft.to/lastmile_qr_scan"}, "fusion_lon": 0.0}, {"lat": 38.910345666666664, "is_disabled": 0, "type": "electric_scooter", "lon": -77.04882966666666, "bike_id": "542f627553a6ea0c5c73b1acc158edef", "fusion_lat": 0.0, "name": "542f627553a6ea0c5c73b1acc158edef", "is_reserved": 0, "rental_uris": {"android": "https://dc.lft.to/lastmile_qr_scan", "ios": "https://dc.lft.to/lastmile_qr_scan"}, "fusion_lon": 0.0}, {"lat": 38.91257233333333, "is_disabled": 0, "type": "electric_scooter", "lon": -76.9835395, "bike_id": "baeb2cff4391edb9a1a73ce8f0c59cc1", "fusion_lat": 0.0, "name": "baeb2cff4391edb9a1a73ce8f0c59cc1", "is_reserved": 0, "rental_uris": {"android": "https://dc.lft.to/lastmile_qr_scan", "ios": "https://dc.lft.to/lastmile_qr_scan"}, "fusion_lon": 0.0}, {"lat": 38.915636166666665, "is_disabled": 0, "type": "electric_scooter", "lon": -77.0384985, "bike_id": "55d1a07ba6bd6ce4772080fb173ed683", "fusion_lat": 0.0, "name": "55d1a07ba6bd6ce4772080fb173ed683", "is_reserved": 0, "rental_uris": {"android": "https://dc.lft.to/lastmile_qr_scan", "ios": "https://dc.lft.to/lastmile_qr_scan"}, "fusion_lon": 0.0}, {"lat": 38.96613833333333, "is_disabled": 0, "type": "electric_scooter", "lon": -77.0205435, "bike_id": "980dc126d6649abac4b8030b5d1d4667", "fusion_lat": 0.0, "name": "980dc126d6649abac4b8030b5d1d4667", "is_reserved": 0, "rental_uris": {"android": "https://dc.lft.to/lastmile_qr_scan", "ios": "https://dc.lft.to/lastmile_qr_scan"}, "fusion_lon": 0.0}, {"lat": 38.920898666666666, "is_disabled": 0, "type": "electric_scooter", "lon": -77.02220733333333, "bike_id": "4c89dc9981ea895736d93750c2564a85", "fusion_lat": 0.0, "name": "4c89dc9981ea895736d93750c2564a85", "is_reserved": 0, "rental_uris": {"android": "https://dc.lft.to/lastmile_qr_scan", "ios": "https://dc.lft.to/lastmile_qr_scan"}, "fusion_lon": 0.0}, {"lat": 38.91910266666667, "is_disabled": 0, "type": "electric_scooter", "lon": -77.0418215, "bike_id": "7a7ea9f7a03254ed447ec81a165a5806", "fusion_lat": 0.0, "name": "7a7ea9f7a03254ed447ec81a165a5806", "is_reserved": 0, "rental_uris": {"android": "https://dc.lft.to/lastmile_qr_scan", "ios": "https://dc.lft.to/lastmile_qr_scan"}, "fusion_lon": 0.0}, {"lat": 38.866187333333336, "is_disabled": 0, "type": "electric_scooter", "lon": -76.98660816666667, "bike_id": "f93b2785e9c08104b719e8a469bda439", "fusion_lat": 0.0, "name": "f93b2785e9c08104b719e8a469bda439", "is_reserved": 0, "rental_uris": {"android": "https://dc.lft.to/lastmile_qr_scan", "ios": "https://dc.lft.to/lastmile_qr_scan"}, "fusion_lon": 0.0}, {"lat": 38.800590166666666, "is_disabled": 0, "type": "electric_bike", "lon": -77.07116616666667, "bike_id": "b9168755d29150a0ebae28ac693a3bfe", "fusion_lat": 0.0, "name": "b9168755d29150a0ebae28ac693a3bfe", "is_reserved": 0, "rental_uris": {"android": "https://dc.lft.to/lastmile_qr_scan", "ios": "https://dc.lft.to/lastmile_qr_scan"}, "fusion_lon": 0.0}, {"lat": 38.866496833333336, "is_disabled": 0, "type": "electric_scooter", "lon": -76.98882466666667, "bike_id": "c2b9d2150f31a18bf7f0d6ac22c333fd", "fusion_lat": 0.0, "name": "c2b9d2150f31a18bf7f0d6ac22c333fd", "is_reserved": 0, "rental_uris": {"android": "https://dc.lft.to/lastmile_qr_scan", "ios": "https://dc.lft.to/lastmile_qr_scan"}, "fusion_lon": 0.0}, {"lat": 38.88495116666667, "is_disabled": 0, "type": "electric_scooter", "lon": -77.00705, "bike_id": "e585da28bc1df6c0ad67819d99efdc90", "fusion_lat": 0.0, "name": "e585da28bc1df6c0ad67819d99efdc90", "is_reserved": 0, "rental_uris": {"android": "https://dc.lft.to/lastmile_qr_scan", "ios": "https://dc.lft.to/lastmile_qr_scan"}, "fusion_lon": 0.0}, {"lat": 38.90926366666667, "is_disabled": 0, "type": "electric_bike", "lon": -77.0611845, "bike_id": "1ebdc1e78721ef149ac5f6ab58c966c2", "fusion_lat": 0.0, "name": "1ebdc1e78721ef149ac5f6ab58c966c2", "is_reserved": 0, "rental_uris": {"android": "https://dc.lft.to/lastmile_qr_scan", "ios": "https://dc.lft.to/lastmile_qr_scan"}, "fusion_lon": 0.0}, {"lat": 38.886857, "is_disabled": 0, "type": "electric_scooter", "lon": -77.01292133333334, "bike_id": "eb31246abc92a3ec25f6dad025b16cbe", "fusion_lat": 0.0, "name": "eb31246abc92a3ec25f6dad025b16cbe", "is_reserved": 0, "rental_uris": {"android": "https://dc.lft.to/lastmile_qr_scan", "ios": "https://dc.lft.to/lastmile_qr_scan"}, "fusion_lon": 0.0}, {"lat": 38.879458666666665, "is_disabled": 0, "type": "electric_scooter", "lon": -77.00408033333333, "bike_id": "d80f097df4ed9cc649d326a480c2976c", "fusion_lat": 0.0, "name": "d80f097df4ed9cc649d326a480c2976c", "is_reserved": 0, "rental_uris": {"android": "https://dc.lft.to/lastmile_qr_scan", "ios": "https://dc.lft.to/lastmile_qr_scan"}, "fusion_lon": 0.0}, {"lat": 38.913248, "is_disabled": 0, "type": "electric_scooter", "lon": -77.03129833333334, "bike_id": "73c0a3d36097ac24d97a8a41816c5fad", "fusion_lat": 0.0, "name": "73c0a3d36097ac24d97a8a41816c5fad", "is_reserved": 0, "rental_uris": {"android": "https://dc.lft.to/lastmile_qr_scan", "ios": "https://dc.lft.to/lastmile_qr_scan"}, "fusion_lon": 0.0}, {"lat": 38.89283266666666, "is_disabled": 0, "type": "electric_scooter", "lon": -76.9584945, "bike_id": "24b652ba39d0adbb23735ac44a1a1f81", "fusion_lat": 0.0, "name": "24b652ba39d0adbb23735ac44a1a1f81", "is_reserved": 0, "rental_uris": {"android": "https://dc.lft.to/lastmile_qr_scan", "ios": "https://dc.lft.to/lastmile_qr_scan"}, "fusion_lon": 0.0}, {"lat": 38.899923333333334, "is_disabled": 0, "type": "electric_scooter", "lon": -76.9995155, "bike_id": "e5a5042f9eaf05dfa299992b2bb4abee", "fusion_lat": 0.0, "name": "e5a5042f9eaf05dfa299992b2bb4abee", "is_reserved": 0, "rental_uris": {"android": "https://dc.lft.to/lastmile_qr_scan", "ios": "https://dc.lft.to/lastmile_qr_scan"}, "fusion_lon": 0.0}, {"lat": 38.8926535, "is_disabled": 0, "type": "electric_scooter", "lon": -77.02022433333333, "bike_id": "d0227a7316ad5114422546f48fd955a9", "fusion_lat": 0.0, "name": "d0227a7316ad5114422546f48fd955a9", "is_reserved": 0, "rental_uris": {"android": "https://dc.lft.to/lastmile_qr_scan", "ios": "https://dc.lft.to/lastmile_qr_scan"}, "fusion_lon": 0.0}, {"lat": 38.924687166666665, "is_disabled": 0, "type": "electric_scooter", "lon": -77.08035766666667, "bike_id": "09583fc096c930c8ad12480fc84a7446", "fusion_lat": 0.0, "name": "09583fc096c930c8ad12480fc84a7446", "is_reserved": 0, "rental_uris": {"android": "https://dc.lft.to/lastmile_qr_scan", "ios": "https://dc.lft.to/lastmile_qr_scan"}, "fusion_lon": 0.0}, {"lat": 38.92953833333333, "is_disabled": 0, "type": "electric_scooter", "lon": -76.9908245, "bike_id": "7148177db444eb57c269e06e202d921e", "fusion_lat": 0.0, "name": "7148177db444eb57c269e06e202d921e", "is_reserved": 0, "rental_uris": {"android": "https://dc.lft.to/lastmile_qr_scan", "ios": "https://dc.lft.to/lastmile_qr_scan"}, "fusion_lon": 0.0}, {"lat": 38.91516816666667, "is_disabled": 0, "type": "electric_scooter", "lon": -77.03844116666667, "bike_id": "9d9f86b7596b82f2642ac97a4d82bdc0", "fusion_lat": 0.0, "name": "9d9f86b7596b82f2642ac97a4d82bdc0", "is_reserved": 0, "rental_uris": {"android": "https://dc.lft.to/lastmile_qr_scan", "ios": "https://dc.lft.to/lastmile_qr_scan"}, "fusion_lon": 0.0}, {"lat": 38.957418833333335, "is_disabled": 0, "type": "electric_scooter", "lon": -77.02383533333334, "bike_id": "fbe3a0f9d3fe4ae8fda522f782cb630a", "fusion_lat": 0.0, "name": "fbe3a0f9d3fe4ae8fda522f782cb630a", "is_reserved": 0, "rental_uris": {"android": "https://dc.lft.to/lastmile_qr_scan", "ios": "https://dc.lft.to/lastmile_qr_scan"}, "fusion_lon": 0.0}, {"lat": 38.88280966666667, "is_disabled": 0, "type": "electric_bike", "lon": -76.93241783333333, "bike_id": "446d0b942a5dc212e9d859b79b6b7992", "fusion_lat": 0.0, "name": "446d0b942a5dc212e9d859b79b6b7992", "is_reserved": 0, "rental_uris": {"android": "https://dc.lft.to/lastmile_qr_scan", "ios": "https://dc.lft.to/lastmile_qr_scan"}, "fusion_lon": 0.0}, {"lat": 38.8876795, "is_disabled": 0, "type": "electric_scooter", "lon": -76.98352766666666, "bike_id": "12afdcc953f6dacffeaa28982de31c4d", "fusion_lat": 0.0, "name": "12afdcc953f6dacffeaa28982de31c4d", "is_reserved": 0, "rental_uris": {"android": "https://dc.lft.to/lastmile_qr_scan", "ios": "https://dc.lft.to/lastmile_qr_scan"}, "fusion_lon": 0.0}, {"lat": 38.93575283333333, "is_disabled": 0, "type": "electric_scooter", "lon": -77.03755, "bike_id": "2a25aee469aac63912c134f032a16555", "fusion_lat": 0.0, "name": "2a25aee469aac63912c134f032a16555", "is_reserved": 0, "rental_uris": {"android": "https://dc.lft.to/lastmile_qr_scan", "ios": "https://dc.lft.to/lastmile_qr_scan"}, "fusion_lon": 0.0}, {"lat": 38.907461833333336, "is_disabled": 0, "type": "electric_scooter", "lon": -77.04150616666666, "bike_id": "7beac8c1526f9f93fb3b43872aaee8d9", "fusion_lat": 0.0, "name": "7beac8c1526f9f93fb3b43872aaee8d9", "is_reserved": 0, "rental_uris": {"android": "https://dc.lft.to/lastmile_qr_scan", "ios": "https://dc.lft.to/lastmile_qr_scan"}, "fusion_lon": 0.0}, {"lat": 38.90332383333333, "is_disabled": 0, "type": "electric_scooter", "lon": -76.97059583333333, "bike_id": "10ba5be60e1578c843674267a268d836", "fusion_lat": 0.0, "name": "10ba5be60e1578c843674267a268d836", "is_reserved": 0, "rental_uris": {"android": "https://dc.lft.to/lastmile_qr_scan", "ios": "https://dc.lft.to/lastmile_qr_scan"}, "fusion_lon": 0.0}, {"lat": 38.862184, "is_disabled": 0, "type": "electric_scooter", "lon": -76.98362916666666, "bike_id": "50a38bd0a6bb903318a3b1b68e69038a", "fusion_lat": 0.0, "name": "50a38bd0a6bb903318a3b1b68e69038a", "is_reserved": 0, "rental_uris": {"android": "https://dc.lft.to/lastmile_qr_scan", "ios": "https://dc.lft.to/lastmile_qr_scan"}, "fusion_lon": 0.0}, {"lat": 38.912006166666664, "is_disabled": 0, "type": "electric_scooter", "lon": -77.04473766666666, "bike_id": "48bc5178d4673416bcf014035ea14243", "fusion_lat": 0.0, "name": "48bc5178d4673416bcf014035ea14243", "is_reserved": 0, "rental_uris": {"android": "https://dc.lft.to/lastmile_qr_scan", "ios": "https://dc.lft.to/lastmile_qr_scan"}, "fusion_lon": 0.0}, {"lat": 38.95078516666667, "is_disabled": 0, "type": "electric_bike", "lon": -77.0119575, "bike_id": "a8e3863ed6d5f124180f3d0f42302fdb", "fusion_lat": 0.0, "name": "a8e3863ed6d5f124180f3d0f42302fdb", "is_reserved": 0, "rental_uris": {"android": "https://dc.lft.to/lastmile_qr_scan", "ios": "https://dc.lft.to/lastmile_qr_scan"}, "fusion_lon": 0.0}, {"lat": 38.900517666666666, "is_disabled": 0, "type": "electric_scooter", "lon": -77.0506105, "bike_id": "34491ad643dda08c7ade2c024d62c9bc", "fusion_lat": 0.0, "name": "34491ad643dda08c7ade2c024d62c9bc", "is_reserved": 0, "rental_uris": {"android": "https://dc.lft.to/lastmile_qr_scan", "ios": "https://dc.lft.to/lastmile_qr_scan"}, "fusion_lon": 0.0}, {"lat": 38.86613666666667, "is_disabled": 0, "type": "electric_scooter", "lon": -76.98661066666666, "bike_id": "eb253a0f3867b707c13cd3f69e49b924", "fusion_lat": 0.0, "name": "eb253a0f3867b707c13cd3f69e49b924", "is_reserved": 0, "rental_uris": {"android": "https://dc.lft.to/lastmile_qr_scan", "ios": "https://dc.lft.to/lastmile_qr_scan"}, "fusion_lon": 0.0}, {"lat": 38.908529, "is_disabled": 0, "type": "electric_scooter", "lon": -77.0101685, "bike_id": "74646ad388c69631995055ce29901910", "fusion_lat": 0.0, "name": "74646ad388c69631995055ce29901910", "is_reserved": 0, "rental_uris": {"android": "https://dc.lft.to/lastmile_qr_scan", "ios": "https://dc.lft.to/lastmile_qr_scan"}, "fusion_lon": 0.0}, {"lat": 38.91564966666667, "is_disabled": 0, "type": "electric_scooter", "lon": -77.009768, "bike_id": "811654343e702d9fcec28f5c4af8e86f", "fusion_lat": 0.0, "name": "811654343e702d9fcec28f5c4af8e86f", "is_reserved": 0, "rental_uris": {"android": "https://dc.lft.to/lastmile_qr_scan", "ios": "https://dc.lft.to/lastmile_qr_scan"}, "fusion_lon": 0.0}, {"lat": 38.90883933333333, "is_disabled": 0, "type": "electric_scooter", "lon": -77.03656866666667, "bike_id": "12e55e2a2ec35d01b0eef8c232443e69", "fusion_lat": 0.0, "name": "12e55e2a2ec35d01b0eef8c232443e69", "is_reserved": 0, "rental_uris": {"android": "https://dc.lft.to/lastmile_qr_scan", "ios": "https://dc.lft.to/lastmile_qr_scan"}, "fusion_lon": 0.0}, {"lat": 38.91497116666667, "is_disabled": 0, "type": "electric_scooter", "lon": -76.9836925, "bike_id": "692b61b6ecd5dd9839f5eeca0a3b9f08", "fusion_lat": 0.0, "name": "692b61b6ecd5dd9839f5eeca0a3b9f08", "is_reserved": 0, "rental_uris": {"android": "https://dc.lft.to/lastmile_qr_scan", "ios": "https://dc.lft.to/lastmile_qr_scan"}, "fusion_lon": 0.0}, {"lat": 38.894384333333335, "is_disabled": 0, "type": "electric_scooter", "lon": -77.02096566666667, "bike_id": "da9e1216cc2300910cc0dc3b9ede3d13", "fusion_lat": 0.0, "name": "da9e1216cc2300910cc0dc3b9ede3d13", "is_reserved": 0, "rental_uris": {"android": "https://dc.lft.to/lastmile_qr_scan", "ios": "https://dc.lft.to/lastmile_qr_scan"}, "fusion_lon": 0.0}, {"lat": 38.916328166666666, "is_disabled": 0, "type": "electric_scooter", "lon": -77.02392433333333, "bike_id": "98bc780a5ab2d5f1dcd4b034a17f6fd2", "fusion_lat": 0.0, "name": "98bc780a5ab2d5f1dcd4b034a17f6fd2", "is_reserved": 0, "rental_uris": {"android": "https://dc.lft.to/lastmile_qr_scan", "ios": "https://dc.lft.to/lastmile_qr_scan"}, "fusion_lon": 0.0}, {"lat": 38.8773, "is_disabled": 0, "type": "electric_scooter", "lon": -77.00300883333334, "bike_id": "684b20d7d5d2ac80df8c7c785f5b554a", "fusion_lat": 0.0, "name": "684b20d7d5d2ac80df8c7c785f5b554a", "is_reserved": 0, "rental_uris": {"android": "https://dc.lft.to/lastmile_qr_scan", "ios": "https://dc.lft.to/lastmile_qr_scan"}, "fusion_lon": 0.0}, {"lat": 38.896054666666664, "is_disabled": 0, "type": "electric_scooter", "lon": -76.95658316666666, "bike_id": "22fcf7ac9072d1e6f32ecdd557ad60bc", "fusion_lat": 0.0, "name": "22fcf7ac9072d1e6f32ecdd557ad60bc", "is_reserved": 0, "rental_uris": {"android": "https://dc.lft.to/lastmile_qr_scan", "ios": "https://dc.lft.to/lastmile_qr_scan"}, "fusion_lon": 0.0}, {"lat": 38.90268916666667, "is_disabled": 0, "type": "electric_scooter", "lon": -77.020015, "bike_id": "39f4868db796367d880a8311976b3fda", "fusion_lat": 0.0, "name": "39f4868db796367d880a8311976b3fda", "is_reserved": 0, "rental_uris": {"android": "https://dc.lft.to/lastmile_qr_scan", "ios": "https://dc.lft.to/lastmile_qr_scan"}, "fusion_lon": 0.0}, {"lat": 38.93864283333333, "is_disabled": 0, "type": "electric_scooter", "lon": -77.03204483333333, "bike_id": "08b812679f32afbae7035ec6b98288fa", "fusion_lat": 0.0, "name": "08b812679f32afbae7035ec6b98288fa", "is_reserved": 0, "rental_uris": {"android": "https://dc.lft.to/lastmile_qr_scan", "ios": "https://dc.lft.to/lastmile_qr_scan"}, "fusion_lon": 0.0}, {"lat": 38.9104885, "is_disabled": 0, "type": "electric_scooter", "lon": -77.01520966666666, "bike_id": "0f35c95441e0d606f1861128d4689de8", "fusion_lat": 0.0, "name": "0f35c95441e0d606f1861128d4689de8", "is_reserved": 0, "rental_uris": {"android": "https://dc.lft.to/lastmile_qr_scan", "ios": "https://dc.lft.to/lastmile_qr_scan"}, "fusion_lon": 0.0}, {"lat": 38.949076833333336, "is_disabled": 0, "type": "electric_scooter", "lon": -77.06620216666667, "bike_id": "6ce6a9ba57d44309083c8dc0e398eb93", "fusion_lat": 0.0, "name": "6ce6a9ba57d44309083c8dc0e398eb93", "is_reserved": 0, "rental_uris": {"android": "https://dc.lft.to/lastmile_qr_scan", "ios": "https://dc.lft.to/lastmile_qr_scan"}, "fusion_lon": 0.0}, {"lat": 38.87161716666667, "is_disabled": 0, "type": "electric_scooter", "lon": -77.01358633333334, "bike_id": "f8c1f16253c7914d1d75c801e2031a54", "fusion_lat": 0.0, "name": "f8c1f16253c7914d1d75c801e2031a54", "is_reserved": 0, "rental_uris": {"android": "https://dc.lft.to/lastmile_qr_scan", "ios": "https://dc.lft.to/lastmile_qr_scan"}, "fusion_lon": 0.0},