{"data": {"bikes": [{"type": "electric_scooter", "name": "ca8b8b667d085f743d1c04ec9cd26f0a", "rental_uris": {"ios": "https://dc.lft.to/lastmile_qr_scan", "android": "https://dc.lft.to/lastmile_qr_scan"}, "fusion_lon": 0.0, "lat": 38.905702833333336, "is_disabled": 0, "bike_id": "ca8b8b667d085f743d1c04ec9cd26f0a", "fusion_lat": 0.0, "is_reserved": 0, "lon": -77.0221725}, {"type": "electric_scooter", "name": "192e29fed50e9bdbb64da7628a3517b5", "rental_uris": {"ios": "https://dc.lft.to/lastmile_qr_scan", "android": "https://dc.lft.to/lastmile_qr_scan"}, "fusion_lon": 0.0, "lat": 38.8790625, "is_disabled": 0, "bike_id": "192e29fed50e9bdbb64da7628a3517b5", "fusion_lat": 0.0, "is_reserved": 0, "lon": -76.98698633333333}, {"type": "electric_scooter", "name": "61e77c8327a8f2cea38fc881471869d4", "rental_uris": {"ios": "https://dc.lft.to/lastmile_qr_scan", "android": "https://dc.lft.to/lastmile_qr_scan"}, "fusion_lon": 0.0, "lat": 38.895685666666665, "is_disabled": 0, "bike_id": "61e77c8327a8f2cea38fc881471869d4", "fusion_lat": 0.0, "is_reserved": 0, "lon": -77.02270666666666}, {"type": "electric_scooter", "name": "c4462d02089a71b1b970df9c55e8f95e", "rental_uris": {"ios": "https://dc.lft.to/lastmile_qr_scan", "android": "https://dc.lft.to/lastmile_qr_scan"}, "fusion_lon": 0.0, "lat": 38.917834166666665, "is_disabled": 0, "bike_id": "c4462d02089a71b1b970df9c55e8f95e", "fusion_lat": 0.0, "is_reserved": 0, "lon": -77.0222365}, {"type": "electric_scooter", "name": "8ec8c9546eca862a9fdb971e0e546afe", "rental_uris": {"ios": "https://dc.lft.to/lastmile_qr_scan", "android": "https://dc.lft.to/lastmile_qr_scan"}, "fusion_lon": 0.0, "lat": 38.8989165, "is_disabled": 0, "bike_id": "8ec8c9546eca862a9fdb971e0e546afe", "fusion_lat": 0.0, "is_reserved": 0, "lon": -77.00230683333334}, {"type": "electric_scooter", "name": "05ecef072d3f9f5a5db2ecaa5e86bc4c", "rental_uris": {"ios": "https://dc.lft.to/lastmile_qr_scan", "android": "https://dc.lft.to/lastmile_qr_scan"}, "fusion_lon": 0.0, "lat": 38.93604666666667, "is_disabled": 0, "bike_id": "05ecef072d3f9f5a5db2ecaa5e86bc4c", "fusion_lat": 0.0, "is_reserved": 0, "lon": -77.05857083333333}, {"type": "electric_scooter", "name": "af0f246e48fa9d29b72607f32a9bd7fc", "rental_uris": {"ios": "https://dc.lft.to/lastmile_qr_scan", "android": "https://dc.lft.to/lastmile_qr_scan"}, "fusion_lon": 0.0, "lat": 38.924122, "is_disabled": 0, "bike_id": "af0f246e48fa9d29b72607f32a9bd7fc", "fusion_lat": 0.0, "is_reserved": 0, "lon": -77.0203655}, {"type": "electric_scooter", "name": "85e3696bcd5506b560542bcfa06e4e33", "rental_uris": {"ios": "https://dc.lft.to/lastmile_qr_scan", "android": "https://dc.lft.to/lastmile_qr_scan"}, "fusion_lon": 0.0, "lat": 38.912363166666665, "is_disabled": 0, "bike_id": "85e3696bcd5506b560542bcfa06e4e33", "fusion_lat": 0.0, "is_reserved": 0, "lon": -77.044937}, {"type": "electric_scooter", "name": "1444f587636509885c057afa1d8dcbb1", "rental_uris": {"ios": "https://dc.lft.to/lastmile_qr_scan", "android": "https://dc.lft.to/lastmile_qr_scan"}, "fusion_lon": 0.0, "lat": 38.89993466666667, "is_disabled": 0, "bike_id": "1444f587636509885c057afa1d8dcbb1", "fusion_lat": 0.0, "is_reserved": 0, "lon": -77.0067845}, {"type": "electric_scooter", "name": "de348de1b448ec7ff3d3a5b5a1a7fbd1", "rental_uris": {"ios": "https://dc.lft.to/lastmile_qr_scan", "android": "https://dc.lft.to/lastmile_qr_scan"}, "fusion_lon": 0.0, "lat": 38.911065666666666, "is_disabled": 0, "bike_id": "de348de1b448ec7ff3d3a5b5a1a7fbd1", "fusion_lat": 0.0, "is_reserved": 0, "lon": -77.042303}, {"type": "electric_scooter", "name": "c1d33e9a5ee21d5fae645a5b0ba0a1a6", "rental_uris": {"ios": "https://dc.lft.to/lastmile_qr_scan", "android": "https://dc.lft.to/lastmile_qr_scan"}, "fusion_lon": 0.0, "lat": 38.87753683333333, "is_disabled": 0, "bike_id": "c1d33e9a5ee21d5fae645a5b0ba0a1a6", "fusion_lat": 0.0, "is_reserved": 0, "lon": -77.0072625}, {"type": "electric_scooter", "name": "22796e1bfcf9008cbb91fb45c530a2c8", "rental_uris": {"ios": "https://dc.lft.to/lastmile_qr_scan", "android": "https://dc.lft.to/lastmile_qr_scan"}, "fusion_lon": 0.0, "lat": 38.92314066666667, "is_disabled": 0, "bike_id": "22796e1bfcf9008cbb91fb45c530a2c8", "fusion_lat": 0.0, "is_reserved": 0, "lon": -77.04187183333333}, {"type": "electric_scooter", "name": "d6baf810224a3539bfdfc37f04a2b985", "rental_uris": {"ios": "https://dc.lft.to/lastmile_qr_scan", "android": "https://dc.lft.to/lastmile_qr_scan"}, "fusion_lon": 0.0, "lat": 38.920587833333336, "is_disabled": 0, "bike_id": "d6baf810224a3539bfdfc37f04a2b985", "fusion_lat": 0.0, "is_reserved": 0, "lon": -77.03297616666667}, {"type": "electric_scooter", "name": "f59a0d3ee4d5eb868787517b6b72972f", "rental_uris": {"ios": "https://dc.lft.to/lastmile_qr_scan", "android": "https://dc.lft.to/lastmile_qr_scan"}, "fusion_lon": 0.0, "lat": 38.89223166666667, "is_disabled": 0, "bike_id": "f59a0d3ee4d5eb868787517b6b72972f", "fusion_lat": 0.0, "is_reserved": 0, "lon": -77.04772633333333}, {"type": "electric_scooter", "name": "59b93a0d04686072436e11c90a4672bc", "rental_uris": {"ios": "https://dc.lft.to/lastmile_qr_scan", "android": "https://dc.lft.to/lastmile_qr_scan"}, "fusion_lon": 0.0, "lat": 38.865581166666665, "is_disabled": 0, "bike_id": "59b93a0d04686072436e11c90a4672bc", "fusion_lat": 0.0, "is_reserved": 0, "lon": -76.98350716666667}, {"type": "electric_scooter", "name": "b09539575e70524083b300958b277eda", "rental_uris": {"ios": "https://dc.lft.to/lastmile_qr_scan", "android": "https://dc.lft.to/lastmile_qr_scan"}, "fusion_lon": 0.0, "lat": 38.892206, "is_disabled": 0, "bike_id": "b09539575e70524083b300958b277eda", "fusion_lat": 0.0, "is_reserved": 0, "lon": -77.0451365}, {"type": "electric_scooter", "name": "af3283fa7656245c8225417e55c2b159", "rental_uris": {"ios": "https://dc.lft.to/lastmile_qr_scan", "android": "https://dc.lft.to/lastmile_qr_scan"}, "fusion_lon": 0.0, "lat": 38.899475333333335, "is_disabled": 0, "bike_id": "af3283fa7656245c8225417e55c2b159", "fusion_lat": 0.0, "is_reserved": 0, "lon": -77.0415165}, {"type": "electric_scooter", "name": "da27634d3e41fd3e4d372c9950b37388", "rental_uris": {"ios": "https://dc.lft.to/lastmile_qr_scan", "android": "https://dc.lft.to/lastmile_qr_scan"}, "fusion_lon": 0.0, "lat": 38.882566833333335, "is_disabled": 0, "bike_id": "da27634d3e41fd3e4d372c9950b37388", "fusion_lat": 0.0, "is_reserved": 0, "lon": -76.994913}, {"type": "electric_scooter", "name": "72d91f7a30499c92375482a96b07e7a8", "rental_uris": {"ios": "https://dc.lft.to/lastmile_qr_scan", "android": "https://dc.lft.to/lastmile_qr_scan"}, "fusion_lon": 0.0, "lat": 38.93669933333334, "is_disabled": 0, "bike_id": "72d91f7a30499c92375482a96b07e7a8", "fusion_lat": 0.0, "is_reserved": 0, "lon": -77.03591083333333}, {"type": "electric_scooter", "name": "940c1ff9313a653c5e42785ccba99911", "rental_uris": {"ios": "https://dc.lft.to/lastmile_qr_scan", "android": "https://dc.lft.to/lastmile_qr_scan"}, "fusion_lon": 0.0, "lat": 38.822180333333336, "is_disabled": 0, "bike_id": "940c1ff9313a653c5e42785ccba99911", "fusion_lat": 0.0, "is_reserved": 0, "lon": -77.0018535}, {"type": "electric_scooter", "name": "05fefda92be53b0c1b51ae73ba9bcda7", "rental_uris": {"ios": "https://dc.lft.to/lastmile_qr_scan", "android": "https://dc.lft.to/lastmile_qr_scan"}, "fusion_lon": 0.0, "lat": 38.919142, "is_disabled": 0, "bike_id": "05fefda92be53b0c1b51ae73ba9bcda7", "fusion_lat": 0.0, "is_reserved": 0, "lon": -77.03183733333333}, {"type": "electric_bike", "name": "cab3f9610a7d0f7801a2dd2d387a9aea", "rental_uris": {"ios": "https://dc.lft.to/lastmile_qr_scan", "android": "https://dc.lft.to/lastmile_qr_scan"}, "fusion_lon": 0.0, "lat": 38.994145333333336, "is_disabled": 0, "bike_id": "cab3f9610a7d0f7801a2dd2d387a9aea", "fusion_lat": 0.0, "is_reserved": 0, "lon": -77.07697783333333}, {"type": "electric_scooter", "name": "4a2e69c0690645d70fa010b7868c3aab", "rental_uris": {"ios": "https://dc.lft.to/lastmile_qr_scan", "android": "https://dc.lft.to/lastmile_qr_scan"}, "fusion_lon": 0.0, "lat": 38.92428, "is_disabled": 0, "bike_id": "4a2e69c0690645d70fa010b7868c3aab", "fusion_lat": 0.0, "is_reserved": 0, "lon": -77.02255766666667}, {"type": "electric_scooter", "name": "0e25771fa91f18cbc2c0aa00856c3a15", "rental_uris": {"ios": "https://dc.lft.to/lastmile_qr_scan", "android": "https://dc.lft.to/lastmile_qr_scan"}, "fusion_lon": 0.0, "lat": 38.923715, "is_disabled": 0, "bike_id": "0e25771fa91f18cbc2c0aa00856c3a15", "fusion_lat": 0.0, "is_reserved": 0, "lon": -77.03135183333333}, {"type": "electric_scooter", "name": "91e38671b9e4a650942c8541c990c3ed", "rental_uris": {"ios": "https://dc.lft.to/lastmile_qr_scan", "android": "https://dc.lft.to/lastmile_qr_scan"}, "fusion_lon": 0.0, "lat": 38.8998695, "is_disabled": 0, "bike_id": "91e38671b9e4a650942c8541c990c3ed", "fusion_lat": 0.0, "is_reserved": 0, "lon": -76.98435316666666}, {"type": "electric_scooter", "name": "5792656dfae0f30f834d8284b3a9704a", "rental_uris": {"ios": "https://dc.lft.to/lastmile_qr_scan", "android": "https://dc.lft.to/lastmile_qr_scan"}, "fusion_lon": 0.0, "lat": 38.928294333333334, "is_disabled": 0, "bike_id": "5792656dfae0f30f834d8284b3a9704a", "fusion_lat": 0.0, "is_reserved": 0, "lon": -77.05973266666666}, {"type": "electric_bike", "name": "09935e56a459fd2bebb550ccb8d504f5", "rental_uris": {"ios": "https://dc.lft.to/lastmile_qr_scan", "android": "https://dc.lft.to/lastmile_qr_scan"}, "fusion_lon": 0.0, "lat": 39.0360225, "is_disabled": 0, "bike_id": "09935e56a459fd2bebb550ccb8d504f5", "fusion_lat": 0.0, "is_reserved": 0, "lon": -77.05548}, {"type": "electric_scooter", "name": "34681700f55827855efdb4f2ec05f71f", "rental_uris": {"ios": "https://dc.lft.to/lastmile_qr_scan", "android": "https://dc.lft.to/lastmile_qr_scan"}, "fusion_lon": 0.0, "lat": 38.9296265, "is_disabled": 0, "bike_id": "34681700f55827855efdb4f2ec05f71f", "fusion_lat": 0.0, "is_reserved": 0, "lon": -77.03186533333333}, {"type": "electric_scooter", "name": "93a41b50dcce1f6cdaad196c81b98a8b", "rental_uris": {"ios": "https://dc.lft.to/lastmile_qr_scan", "android": "https://dc.lft.to/lastmile_qr_scan"}, "fusion_lon": 0.0, "lat": 38.92437133333333, "is_disabled": 0, "bike_id": "93a41b50dcce1f6cdaad196c81b98a8b", "fusion_lat": 0.0, "is_reserved": 0, "lon": -77.03370283333334}, {"type": "electric_scooter", "name": "12893dfb9243e88395e55cfc4ec57865", "rental_uris": {"ios": "https://dc.lft.to/lastmile_qr_scan", "android": "https://dc.lft.to/lastmile_qr_scan"}, "fusion_lon": 0.0, "lat": 38.923009666666665, "is_disabled": 0, "bike_id": "12893dfb9243e88395e55cfc4ec57865", "fusion_lat": 0.0, "is_reserved": 0, "lon": -77.04179233333333}, {"type": "electric_bike", "name": "69fc580b77005ae9aeaeafe1877d9028", "rental_uris": {"ios": "https://dc.lft.to/lastmile_qr_scan", "android": "https://dc.lft.to/lastmile_qr_scan"}, "fusion_lon": 0.0, "lat": 38.951637, "is_disabled": 0, "bike_id": "69fc580b77005ae9aeaeafe1877d9028", "fusion_lat": 0.0, "is_reserved": 0, "lon": -77.0316855}, {"type": "electric_scooter", "name": "60dd8ff0577efd21216abb48e7f308a2", "rental_uris": {"ios": "https://dc.lft.to/lastmile_qr_scan", "android": "https://dc.lft.to/lastmile_qr_scan"}, "fusion_lon": 0.0, "lat": 38.92640266666667, "is_disabled": 0, "bike_id": "60dd8ff0577efd21216abb48e7f308a2", "fusion_lat": 0.0, "is_reserved": 0, "lon": -77.03482633333333}, {"type": "electric_scooter", "name": "6ed70303b0bf5dbb9eef6d28260dde1c", "rental_uris": {"ios": "https://dc.lft.to/lastmile_qr_scan", "android": "https://dc.lft.to/lastmile_qr_scan"}, "fusion_lon": 0.0, "lat": 38.917010166666664, "is_disabled": 0, "bike_id": "6ed70303b0bf5dbb9eef6d28260dde1c", "fusion_lat": 0.0, "is_reserved": 0, "lon": -77.03771683333333}, {"type": "electric_bike", "name": "1b5e85e2b584896d946035ccea0186cb", "rental_uris": {"ios": "https://dc.lft.to/lastmile_qr_scan", "android": "https://dc.lft.to/lastmile_qr_scan"}, "fusion_lon": 0.0, "lat": 38.8935, "is_disabled": 0, "bike_id": "1b5e85e2b584896d946035ccea0186cb", "fusion_lat": 0.0, "is_reserved": 0, "lon": -77.187451}, {"type": "electric_scooter", "name": "6faf01c7dfae9894e7694cc118aaedfc", "rental_uris": {"ios": "https://dc.lft.to/lastmile_qr_scan", "android": "https://dc.lft.to/lastmile_qr_scan"}, "fusion_lon": 0.0, "lat": 38.92481683333333, "is_disabled": 0, "bike_id": "6faf01c7dfae9894e7694cc118aaedfc", "fusion_lat": 0.0, "is_reserved": 0, "lon": -77.0354835}, {"type": "electric_scooter", "name": "955ed7a72a118e965b57a1f541a72d83", "rental_uris": {"ios": "https://dc.lft.to/lastmile_qr_scan", "android": "https://dc.lft.to/lastmile_qr_scan"}, "fusion_lon": 0.0, "lat": 38.98135633333333, "is_disabled": 0, "bike_id": "955ed7a72a118e965b57a1f541a72d83", "fusion_lat": 0.0, "is_reserved": 0, "lon": -77.02726266666667}, {"type": "electric_scooter", "name": "3a109c8614a9575f023a3fc306cb6488", "rental_uris": {"ios": "https://dc.lft.to/lastmile_qr_scan", "android": "https://dc.lft.to/lastmile_qr_scan"}, "fusion_lon": 0.0, "lat": 38.920898333333334, "is_disabled": 0, "bike_id": "3a109c8614a9575f023a3fc306cb6488", "fusion_lat": 0.0, "is_reserved": 0, "lon": -77.02251266666667}, {"type": "electric_scooter", "name": "4ceea727c6a1c330db5f212a69901eff", "rental_uris": {"ios": "https://dc.lft.to/lastmile_qr_scan", "android": "https://dc.lft.to/lastmile_qr_scan"}, "fusion_lon": 0.0, "lat": 38.9110875, "is_disabled": 0, "bike_id": "4ceea727c6a1c330db5f212a69901eff", "fusion_lat": 0.0, "is_reserved": 0, "lon": -77.04228233333333}, {"type": "electric_scooter", "name": "29ad4bd0c751cad9aac05e312f0b5810", "rental_uris": {"ios": "https://dc.lft.to/lastmile_qr_scan", "android": "https://dc.lft.to/lastmile_qr_scan"}, "fusion_lon": 0.0, "lat": 38.90873283333333, "is_disabled": 0, "bike_id": "29ad4bd0c751cad9aac05e312f0b5810", "fusion_lat": 0.0, "is_reserved": 0, "lon": -77.01999516666666}, {"type": "electric_scooter", "name": "7b8d2a0b9d0e9e6b6cf98c0d6aa48c99", "rental_uris": {"ios": "https://dc.lft.to/lastmile_qr_scan", "android": "https://dc.lft.to/lastmile_qr_scan"}, "fusion_lon": 0.0, "lat": 38.9144785, "is_disabled": 0, "bike_id": "7b8d2a0b9d0e9e6b6cf98c0d6aa48c99", "fusion_lat": 0.0, "is_reserved": 0, "lon": -77.02198583333333}, {"type": "electric_scooter", "name": "f6e4e8c993ca0769f6e107e6de516e08", "rental_uris": {"ios": "https://dc.lft.to/lastmile_qr_scan", "android": "https://dc.lft.to/lastmile_qr_scan"}, "fusion_lon": 0.0, "lat": 38.876030666666665, "is_disabled": 0, "bike_id": "f6e4e8c993ca0769f6e107e6de516e08", "fusion_lat": 0.0, "is_reserved": 0, "lon": -77.00931066666666}, {"type": "electric_scooter", "name": "4742200b1e4a867fa14040d26c94ed84", "rental_uris": {"ios": "https://dc.lft.to/lastmile_qr_scan", "android": "https://dc.lft.to/lastmile_qr_scan"}, "fusion_lon": 0.0, "lat": 38.902525833333335, "is_disabled": 0, "bike_id": "4742200b1e4a867fa14040d26c94ed84", "fusion_lat": 0.0, "is_reserved": 0, "lon": -77.05330816666667}, {"type": "electric_scooter", "name": "0ea90dc8a40742408f918a7a3a7f66b0", "rental_uris": {"ios": "https://dc.lft.to/lastmile_qr_scan", "android": "https://dc.lft.to/lastmile_qr_scan"}, "fusion_lon": 0.0, "lat": 38.924235833333334, "is_disabled": 0, "bike_id": "0ea90dc8a40742408f918a7a3a7f66b0", "fusion_lat": 0.0, "is_reserved": 0, "lon": -77.0518285}, {"type": "electric_scooter", "name": "451fe3ed57797c95961b0c1fce8d86bd", "rental_uris": {"ios": "https://dc.lft.to/lastmile_qr_scan", "android": "https://dc.lft.to/lastmile_qr_scan"}, "fusion_lon": 0.0, "lat": 38.9072485, "is_disabled": 0, "bike_id": "451fe3ed57797c95961b0c1fce8d86bd", "fusion_lat": 0.0, "is_reserved": 0, "lon": -77.023746}, {"type": "electric_bike", "name": "821df3545356b90648d81a9d745ea102", "rental_uris": {"ios": "https://dc.lft.to/lastmile_qr_scan", "android": "https://dc.lft.to/lastmile_qr_scan"}, "fusion_lon": 0.0, "lat": 38.819377333333335, "is_disabled": 0, "bike_id": "821df3545356b90648d81a9d745ea102", "fusion_lat": 0.0, "is_reserved": 0, "lon": -77.00204383333333}, {"type": "electric_scooter", "name": "ddfe85bbb487e09e1291f55f20872521", "rental_uris": {"ios": "https://dc.lft.to/lastmile_qr_scan", "android": "https://dc.lft.to/lastmile_qr_scan"}, "fusion_lon": 0.0, "lat": 38.923387166666664, "is_disabled": 0, "bike_id": "ddfe85bbb487e09e1291f55f20872521", "fusion_lat": 0.0, "is_reserved": 0, "lon": -77.05347366666666}, {"type": "electric_scooter", "name": "b96470a1d1f761ac4bf04747ddf1ac37", "rental_uris": {"ios": "https://dc.lft.to/lastmile_qr_scan", "android": "https://dc.lft.to/lastmile_qr_scan"}, "fusion_lon": 0.0, "lat": 38.86507983333333, "is_disabled": 0, "bike_id": "b96470a1d1f761ac4bf04747ddf1ac37", "fusion_lat": 0.0, "is_reserved": 0, "lon": -76.9900625}, {"type": "electric_scooter", "name": "61dbad2d57e18ca9b3a2578e61fac75d", "rental_uris": {"ios": "https://dc.lft.to/lastmile_qr_scan", "android": "https://dc.lft.to/lastmile_qr_scan"}, "fusion_lon": 0.0, "lat": 38.88366766666667, "is_disabled": 0, "bike_id": "61dbad2d57e18ca9b3a2578e61fac75d", "fusion_lat": 0.0, "is_reserved": 0, "lon": -76.994853}, {"type": "electric_scooter", "name": "8b40fba099cc5244b32d45a3790ed8e4", "rental_uris": {"ios": "https://dc.lft.to/lastmile_qr_scan", "android": "https://dc.lft.to/lastmile_qr_scan"}, "fusion_lon": 0.0, "lat": 38.92412183333333, "is_disabled": 0, "bike_id": "8b40fba099cc5244b32d45a3790ed8e4", "fusion_lat": 0.0, "is_reserved": 0, "lon": -77.04034833333333}, {"type": "electric_scooter", "name": "bdef356f70ae255568787b1eb4f8a2d9", "rental_uris": {"ios": "https://dc.lft.to/lastmile_qr_scan", "android": "https://dc.lft.to/lastmile_qr_scan"}, "fusion_lon": 0.0, "lat": 38.894875166666665, "is_disabled": 0, "bike_id": "bdef356f70ae255568787b1eb4f8a2d9", "fusion_lat": 0.0, "is_reserved": 0, "lon": -77.00979433333333}, {"type": "electric_bike", "name": "899d5c04af4631fdab1e0f523367c131", "rental_uris": {"ios": "https://dc.lft.to/lastmile_qr_scan", "android": "https://dc.lft.to/lastmile_qr_scan"}, "fusion_lon": 0.0, "lat": 38.881591, "is_disabled": 0, "bike_id": "899d5c04af4631fdab1e0f523367c131", "fusion_lat": 0.0, "is_reserved": 0, "lon": -77.016707}, {"type": "electric_bike", "name": "ec304c5bb7a27426f734288437430e47", "rental_uris": {"ios": "https://dc.lft.to/lastmile_qr_scan", "android": "https://dc.lft.to/lastmile_qr_scan"}, "fusion_lon": 0.0, "lat": 38.89183083333333, "is_disabled": 0, "bike_id": "ec304c5bb7a27426f734288437430e47", "fusion_lat": 0.0, "is_reserved": 0, "lon": -76.93894516666667}, {"type": "electric_scooter", "name": "10696ba3cd6f98f0b992e8524bc41a7e", "rental_uris": {"ios": "https://dc.lft.to/lastmile_qr_scan", "android": "https://dc.lft.to/lastmile_qr_scan"}, "fusion_lon": 0.0, "lat": 38.917347166666666, "is_disabled": 0, "bike_id": "10696ba3cd6f98f0b992e8524bc41a7e", "fusion_lat": 0.0, "is_reserved": 0, "lon": -77.04597266666667}, {"type": "electric_scooter", "name": "b8cef27a8e10009fcff14d62beabbfe3", "rental_uris": {"ios": "https://dc.lft.to/lastmile_qr_scan", "android": "https://dc.lft.to/lastmile_qr_scan"}, "fusion_lon": 0.0, "lat": 38.8942975, "is_disabled": 0, "bike_id": "b8cef27a8e10009fcff14d62beabbfe3", "fusion_lat": 0.0, "is_reserved": 0, "lon": -77.00104166666667}, {"type": "electric_scooter", "name": "8922e2555fc3afb8f3c4f5a1b9944e9d", "rental_uris": {"ios": "https://dc.lft.to/lastmile_qr_scan", "android": "https://dc.lft.to/lastmile_qr_scan"}, "fusion_lon": 0.0, "lat": 38.89462483333333, "is_disabled": 0, "bike_id": "8922e2555fc3afb8f3c4f5a1b9944e9d", "fusion_lat": 0.0, "is_reserved": 0, "lon": -77.00188816666666}, {"type": "electric_scooter", "name": "75d0871fad42a14e8e04b4f65dcba517", "rental_uris": {"ios": "https://dc.lft.to/lastmile_qr_scan", "android": "https://dc.lft.to/lastmile_qr_scan"}, "fusion_lon": 0.0, "lat": 38.91110966666667, "is_disabled": 0, "bike_id": "75d0871fad42a14e8e04b4f65dcba517", "fusion_lat": 0.0, "is_reserved": 0, "lon": -77.04164833333333}, {"type": "electric_scooter", "name": "c69b37b4e7a658ead227c690267a0813", "rental_uris": {"ios": "https://dc.lft.to/lastmile_qr_scan", "android": "https://dc.lft.to/lastmile_qr_scan"}, "fusion_lon": 0.0, "lat": 38.89231816666667, "is_disabled": 0, "bike_id": "c69b37b4e7a658ead227c690267a0813", "fusion_lat": 0.0, "is_reserved": 0, "lon": -77.03313483333334}, {"type": "electric_scooter", "name": "23b3f98899df91af73e4002f3444c79c", "rental_uris": {"ios": "https://dc.lft.to/lastmile_qr_scan", "android": "https://dc.lft.to/lastmile_qr_scan"}, "fusion_lon": 0.0, "lat": 38.97514183333333, "is_disabled": 0, "bike_id": "23b3f98899df91af73e4002f3444c79c", "fusion_lat": 0.0, "is_reserved": 0, "lon": -77.01671483333334}, {"type": "electric_scooter", "name": "ab82757873252d6a7788647655e67808", "rental_uris": {"ios": "https://dc.lft.to/lastmile_qr_scan", "android": "https://dc.lft.to/lastmile_qr_scan"}, "fusion_lon": 0.0, "lat": 38.926953833333336, "is_disabled": 0, "bike_id": "ab82757873252d6a7788647655e67808", "fusion_lat": 0.0, "is_reserved": 0, "lon": -77.032344}, {"type": "electric_scooter", "name": "0986af20e527cee24dd54e82602db337", "rental_uris": {"ios": "https://dc.lft.to/lastmile_qr_scan", "android": "https://dc.lft.to/lastmile_qr_scan"}, "fusion_lon": 0.0, "lat": 38.91616716666667, "is_disabled": 0, "bike_id": "0986af20e527cee24dd54e82602db337", "fusion_lat": 0.0, "is_reserved": 0, "lon": -77.04866733333333}, {"type": "electric_scooter", "name": "b70a0df20415970803b2402eaee3f831", "rental_uris": {"ios": "https://dc.lft.to/lastmile_qr_scan", "android": "https://dc.lft.to/lastmile_qr_scan"}, "fusion_lon": 0.0, "lat": 38.91255666666667, "is_disabled": 0, "bike_id": "b70a0df20415970803b2402eaee3f831", "fusion_lat": 0.0, "is_reserved": 0, "lon": -77.04437916666667}, {"type": "electric_bike", "name": "6df36dcb23acd9a07ead08309b6d5bbc", "rental_uris": {"ios": "https://dc.lft.to/lastmile_qr_scan", "android": "https://dc.lft.to/lastmile_qr_scan"}, "fusion_lon": 0.0, "lat": 38.876646666666666, "is_disabled": 0, "bike_id": "6df36dcb23acd9a07ead08309b6d5bbc", "fusion_lat": 0.0, "is_reserved": 0, "lon": -77.014454}, {"type": "electric_scooter", "name": "556ef39ed9821d71f53a863491061f3c", "rental_uris": {"ios": "https://dc.lft.to/lastmile_qr_scan", "android": "https://dc.lft.to/lastmile_qr_scan"}, "fusion_lon": 0.0, "lat": 38.921093666666664, "is_disabled": 0, "bike_id": "556ef39ed9821d71f53a863491061f3c", "fusion_lat": 0.0, "is_reserved": 0, "lon": -77.025246}, {"type": "electric_scooter", "name": "7cc48f1747daa2552dc1212329f57753", "rental_uris": {"ios": "https://dc.lft.to/lastmile_qr_scan", "android": "https://dc.lft.to/lastmile_qr_scan"}, "fusion_lon": 0.0, "lat": 38.9047165, "is_disabled": 0, "bike_id": "7cc48f1747daa2552dc1212329f57753", "fusion_lat": 0.0, "is_reserved": 0, "lon": -77.06537216666666}, {"type": "electric_scooter", "name": "a3973731a66523a0753a67fb9a0f3618", "rental_uris": {"ios": "https://dc.lft.to/lastmile_qr_scan", "android": "https://dc.lft.to/lastmile_qr_scan"}, "fusion_lon": 0.0, "lat": 38.89727516666667, "is_disabled": 0, "bike_id": "a3973731a66523a0753a67fb9a0f3618", "fusion_lat": 0.0, "is_reserved": 0, "lon": -77.05523316666667}, {"type": "electric_bike", "name": "15086691ce1b29ce86ec2923df9d7d48", "rental_uris": {"ios": "https://dc.lft.to/lastmile_qr_scan", "android": "https://dc.lft.to/lastmile_qr_scan"}, "fusion_lon": 0.0, "lat": 38.997789833333336, "is_disabled": 0, "bike_id": "15086691ce1b29ce86ec2923df9d7d48", "fusion_lat": 0.0, "is_reserved": 0, "lon": -77.047158}, {"type": "electric_scooter", "name": "367ce5cf33c52b299d9ee23794696347", "rental_uris": {"ios": "https://dc.lft.to/lastmile_qr_scan", "android": "https://dc.lft.to/lastmile_qr_scan"}, "fusion_lon": 0.0, "lat": 38.9141465, "is_disabled": 0, "bike_id": "367ce5cf33c52b299d9ee23794696347", "fusion_lat": 0.0, "is_reserved": 0, "lon": -77.01880983333334}, {"type": "electric_scooter", "name": "44dada2587f0469551f3389d24ac3b6d", "rental_uris": {"ios": "https://dc.lft.to/lastmile_qr_scan", "android": "https://dc.lft.to/lastmile_qr_scan"}, "fusion_lon": 0.0, "lat": 38.9013725, "is_disabled": 0, "bike_id": "44dada2587f0469551f3389d24ac3b6d", "fusion_lat": 0.0, "is_reserved": 0, "lon": -77.04238083333334}, {"type": "electric_scooter", "name": "25323e20b9e431270c0b45ed1bdca50c", "rental_uris": {"ios": "https://dc.lft.to/lastmile_qr_scan", "android": "https://dc.lft.to/lastmile_qr_scan"}, "fusion_lon": 0.0, "lat": 38.93490283333333, "is_disabled": 0, "bike_id": "25323e20b9e431270c0b45ed1bdca50c", "fusion_lat": 0.0, "is_reserved": 0, "lon": -77.0241475}, {"type": "electric_scooter", "name": "0d677e63b556e6cb1cad2f566a5be08b", "rental_uris": {"ios": "https://dc.lft.to/lastmile_qr_scan", "android": "https://dc.lft.to/lastmile_qr_scan"}, "fusion_lon": 0.0, "lat": 38.9126865, "is_disabled": 0, "bike_id": "0d677e63b556e6cb1cad2f566a5be08b", "fusion_lat": 0.0, "is_reserved": 0, "lon": -77.02215533333333}, {"type": "electric_scooter", "name": "b339caf49f753096429f58fae7f7318a", "rental_uris": {"ios": "https://dc.lft.to/lastmile_qr_scan", "android": "https://dc.lft.to/lastmile_qr_scan"}, "fusion_lon": 0.0, "lat": 38.933950333333335, "is_disabled": 0, "bike_id": "b339caf49f753096429f58fae7f7318a", "fusion_lat": 0.0, "is_reserved": 0, "lon": -77.057439}, {"type": "electric_scooter", "name": "559a9c86c4efd6051b89369113a2bd11", "rental_uris": {"ios": "https://dc.lft.to/lastmile_qr_scan", "android": "https://dc.lft.to/lastmile_qr_scan"}, "fusion_lon": 0.0, "lat": 38.90571033333333, "is_disabled": 0, "bike_id": "559a9c86c4efd6051b89369113a2bd11", "fusion_lat": 0.0, "is_reserved": 0, "lon": -77.005689}, {"type": "electric_scooter", "name": "4306ce05ee40876ee4d69cf99a9e5f85", "rental_uris": {"ios": "https://dc.lft.to/lastmile_qr_scan", "android": "https://dc.lft.to/lastmile_qr_scan"}, "fusion_lon": 0.0, "lat": 38.90517333333333, "is_disabled": 0, "bike_id": "4306ce05ee40876ee4d69cf99a9e5f85", "fusion_lat": 0.0, "is_reserved": 0, "lon": -77.04855033333334}, {"type": "electric_scooter", "name": "5d654000d5721c8675f951c02d28d9a1", "rental_uris": {"ios": "https://dc.lft.to/lastmile_qr_scan", "android": "https://dc.lft.to/lastmile_qr_scan"}, "fusion_lon": 0.0, "lat": 38.90292, "is_disabled": 0, "bike_id": "5d654000d5721c8675f951c02d28d9a1", "fusion_lat": 0.0, "is_reserved": 0, "lon": -76.976343}, {"type": "electric_scooter", "name": "8ec3833269feea09f1381df3b906c39a", "rental_uris": {"ios": "https://dc.lft.to/lastmile_qr_scan", "android": "https://dc.lft.to/lastmile_qr_scan"}, "fusion_lon": 0.0, "lat": 38.94621, "is_disabled": 0, "bike_id": "8ec3833269feea09f1381df3b906c39a", "fusion_lat": 0.0, "is_reserved": 0, "lon": -77.03684716666666}, {"type": "electric_scooter", "name": "5d12ce8c54d61fd1fa60313bfc135fda", "rental_uris": {"ios": "https://dc.lft.to/lastmile_qr_scan", "android": "https://dc.lft.to/lastmile_qr_scan"}, "fusion_lon": 0.0, "lat": 38.90282033333333, "is_disabled": 0, "bike_id": "5d12ce8c54d61fd1fa60313bfc135fda", "fusion_lat": 0.0, "is_reserved": 0, "lon": -77.03533666666667}, {"type": "electric_scooter", "name": "5bcdbc4235121aa5dfce9d2bba9e93c4", "rental_uris": {"ios": "https://dc.lft.to/lastmile_qr_scan", "android": "https://dc.lft.to/lastmile_qr_scan"}, "fusion_lon": 0.0, "lat": 38.973718166666664, "is_disabled": 0, "bike_id": "5bcdbc4235121aa5dfce9d2bba9e93c4", "fusion_lat": 0.0, "is_reserved": 0, "lon": -77.01854166666666}, {"type": "electric_scooter", "name": "cc7eb2e9b198c04ce08a2402200b8f51", "rental_uris": {"ios": "https://dc.lft.to/lastmile_qr_scan", "android": "https://dc.lft.to/lastmile_qr_scan"}, "fusion_lon": 0.0, "lat": 38.9016155, "is_disabled": 0, "bike_id": "cc7eb2e9b198c04ce08a2402200b8f51", "fusion_lat": 0.0, "is_reserved": 0, "lon": -77.01328983333333}, {"type": "electric_scooter", "name": "574e31f81f35cc0d29f61c1a24b79a43", "rental_uris": {"ios": "https://dc.lft.to/lastmile_qr_scan", "android": "https://dc.lft.to/lastmile_qr_scan"}, "fusion_lon": 0.0, "lat": 38.912356833333334, "is_disabled": 0, "bike_id": "574e31f81f35cc0d29f61c1a24b79a43", "fusion_lat": 0.0, "is_reserved": 0, "lon": -76.98795283333334}, {"type": "electric_scooter", "name": "186cbcc4964ed4acca6ba6a5ddc8fd33", "rental_uris": {"ios": "https://dc.lft.to/lastmile_qr_scan", "android": "https://dc.lft.to/lastmile_qr_scan"}, "fusion_lon": 0.0, "lat": 38.892237333333334, "is_disabled": 0, "bike_id": "186cbcc4964ed4acca6ba6a5ddc8fd33", "fusion_lat": 0.0, "is_reserved": 0, "lon": -77.043788}, {"type": "electric_scooter", "name": "fe6a313fbc8566f49a87df712d54687b", "rental_uris": {"ios": "https://dc.lft.to/lastmile_qr_scan", "android": "https://dc.lft.to/lastmile_qr_scan"}, "fusion_lon": 0.0, "lat": 38.892234, "is_disabled": 0, "bike_id": "fe6a313fbc8566f49a87df712d54687b", "fusion_lat": 0.0, "is_reserved": 0, "lon": -77.03338833333333}, {"type": "electric_scooter", "name": "221b2afaec0da93b67f22d80c1e04360", "rental_uris": {"ios": "https://dc.lft.to/lastmile_qr_scan", "android": "https://dc.lft.to/lastmile_qr_scan"}, "fusion_lon": 0.0, "lat": 38.865009666666666, "is_disabled": 0, "bike_id": "221b2afaec0da93b67f22d80c1e04360", "fusion_lat": 0.0, "is_reserved": 0, "lon": -76.9900275}, {"type": "electric_scooter", "name": "323335cadfe14e1e943c3082b33b774b", "rental_uris": {"ios": "https://dc.lft.to/lastmile_qr_scan", "android": "https://dc.lft.to/lastmile_qr_scan"}, "fusion_lon": 0.0, "lat": 38.93607266666667, "is_disabled": 0, "bike_id": "323335cadfe14e1e943c3082b33b774b", "fusion_lat": 0.0, "is_reserved": 0, "lon": -77.05862766666667}, {"type": "electric_scooter", "name": "44e1d774a1b2696694ad56726443b75d", "rental_uris": {"ios": "https://dc.lft.to/lastmile_qr_scan", "android": "https://dc.lft.to/lastmile_qr_scan"}, "fusion_lon": 0.0, "lat": 38.89793683333333, "is_disabled": 0, "bike_id": "44e1d774a1b2696694ad56726443b75d", "fusion_lat": 0.0, "is_reserved": 0, "lon": -76.93115366666666}, {"type": "electric_scooter", "name": "ac3520573b48d8e50a9df0a7d2cc45b6", "rental_uris": {"ios": "https://dc.lft.to/lastmile_qr_scan", "android": "https://dc.lft.to/lastmile_qr_scan"}, "fusion_lon": 0.0, "lat": 38.91560316666666, "is_disabled": 0, "bike_id": "ac3520573b48d8e50a9df0a7d2cc45b6", "fusion_lat": 0.0, "is_reserved": 0, "lon": -77.0235245}, {"type": "electric_scooter", "name": "d0c9d0299087e042f97223d7324d4eed", "rental_uris": {"ios": "https://dc.lft.to/lastmile_qr_scan", "android": "https://dc.lft.to/lastmile_qr_scan"}, "fusion_lon": 0.0, "lat": 38.901675166666664, "is_disabled": 0, "bike_id": "d0c9d0299087e042f97223d7324d4eed", "fusion_lat": 0.0, "is_reserved": 0, "lon": -76.980774}, {"type": "electric_scooter", "name": "fe622f44e19b94053ab10139cea12afe", "rental_uris": {"ios": "https://dc.lft.to/lastmile_qr_scan", "android": "https://dc.lft.to/lastmile_qr_scan"}, "fusion_lon": 0.0, "lat": 38.904505, "is_disabled": 0, "bike_id": "fe622f44e19b94053ab10139cea12afe", "fusion_lat": 0.0, "is_reserved": 0, "lon": -77.01901583333333}, {"type": "electric_scooter", "name": "04e95d3921818b8ef9911dc0443b15d7", "rental_uris": {"ios": "https://dc.lft.to/lastmile_qr_scan", "android": "https://dc.lft.to/lastmile_qr_scan"}, "fusion_lon": 0.0, "lat": 38.929804, "is_disabled": 0, "bike_id": "04e95d3921818b8ef9911dc0443b15d7", "fusion_lat": 0.0, "is_reserved": 0, "lon": -77.05503466666667}, {"type": "electric_scooter", "name": "efa3454718ed885f188a5df1567b8ce3", "rental_uris": {"ios": "https://dc.lft.to/lastmile_qr_scan", "android": "https://dc.lft.to/lastmile_qr_scan"}, "fusion_lon": 0.0, "lat": 38.925867333333336, "is_disabled": 0, "bike_id": "efa3454718ed885f188a5df1567b8ce3", "fusion_lat": 0.0, "is_reserved": 0, "lon": -77.02966116666667}, {"type": "electric_scooter", "name": "e94545e5c8bb91d656aa69cdc2c31d99", "rental_uris": {"ios": "https://dc.lft.to/lastmile_qr_scan", "android": "https://dc.lft.to/lastmile_qr_scan"}, "fusion_lon": 0.0, "lat": 38.9072555, "is_disabled": 0, "bike_id": "e94545e5c8bb91d656aa69cdc2c31d99", "fusion_lat": 0.0, "is_reserved": 0, "lon": -77.02510283333334}, {"type": "electric_scooter", "name": "a5501af30d77035cc255cda6ae1baac9", "rental_uris": {"ios": "https://dc.lft.to/lastmile_qr_scan", "android": "https://dc.lft.to/lastmile_qr_scan"}, "fusion_lon": 0.0, "lat": 38.937565666666664, "is_disabled": 0, "bike_id": "a5501af30d77035cc255cda6ae1baac9", "fusion_lat": 0.0, "is_reserved": 0, "lon": -77.02479033333333}, {"type": "electric_scooter", "name": "6b7d80ecf7e9534724a655222c5dae61", "rental_uris": {"ios": "https://dc.lft.to/lastmile_qr_scan", "android": "https://dc.lft.to/lastmile_qr_scan"}, "fusion_lon": 0.0, "lat": 38.877529333333335, "is_disabled": 0, "bike_id": "6b7d80ecf7e9534724a655222c5dae61", "fusion_lat": 0.0, "is_reserved": 0, "lon": -77.01765516666667}, {"type": "electric_scooter", "name": "9eb557fdd0b28dfa6a7131990f29a563", "rental_uris": {"ios": "https://dc.lft.to/lastmile_qr_scan", "android": "https://dc.lft.to/lastmile_qr_scan"}, "fusion_lon": 0.0, "lat": 38.887323333333335, "is_disabled": 0, "bike_id": "9eb557fdd0b28dfa6a7131990f29a563", "fusion_lat": 0.0, "is_reserved": 0, "lon": -77.03163}, {"type": "electric_scooter", "name": "f3b25289bae7a0bee733c70eafad73b4", "rental_uris": {"ios": "https://dc.lft.to/lastmile_qr_scan", "android": "https://dc.lft.to/lastmile_qr_scan"}, "fusion_lon": 0.0, "lat": 38.8662305, "is_disabled": 0, "bike_id": "f3b25289bae7a0bee733c70eafad73b4", "fusion_lat": 0.0, "is_reserved": 0, "lon": -76.98715883333334}, {"type": "electric_scooter", "name": "9ae2b6168b7537bb5f8e98508434ebf0", "rental_uris": {"ios": "https://dc.lft.to/lastmile_qr_scan", "android": "https://dc.lft.to/lastmile_qr_scan"}, "fusion_lon": 0.0, "lat": 38.8922395, "is_disabled": 0, "bike_id": "9ae2b6168b7537bb5f8e98508434ebf0", "fusion_lat": 0.0, "is_reserved": 0, "lon": -77.046904}, {"type": "electric_scooter", "name": "29c1b0d43e79f0b15546ce6c76549a3f", "rental_uris": {"ios": "https://dc.lft.to/lastmile_qr_scan", "android": "https://dc.lft.to/lastmile_qr_scan"}, "fusion_lon": 0.0, "lat": 38.93155016666667, "is_disabled": 0, "bike_id": "29c1b0d43e79f0b15546ce6c76549a3f", "fusion_lat": 0.0, "is_reserved": 0, "lon": -77.07850816666667}, {"type": "electric_scooter", "name": "094ba94fd3b129599e8a41d26e9524ec", "rental_uris": {"ios": "https://dc.lft.to/lastmile_qr_scan", "android": "https://dc.lft.to/lastmile_qr_scan"}, "fusion_lon": 0.0, "lat": 38.92418333333333, "is_disabled": 0, "bike_id": "094ba94fd3b129599e8a41d26e9524ec", "fusion_lat": 0.0, "is_reserved": 0, "lon": -77.02015616666667}, {"type": "electric_scooter", "name": "af736644b96233b4ee8ec510a7252614", "rental_uris": {"ios": "https://dc.lft.to/lastmile_qr_scan", "android": "https://dc.lft.to/lastmile_qr_scan"}, "fusion_lon": 0.0, "lat": 38.91914966666667, "is_disabled": 0, "bike_id": "af736644b96233b4ee8ec510a7252614", "fusion_lat": 0.0, "is_reserved": 0, "lon": -77.03181183333334}, {"type": "electric_scooter", "name": "feec81165a9412df0beda6d87d428138", "rental_uris": {"ios": "https://dc.lft.to/lastmile_qr_scan", "android": "https://dc.lft.to/lastmile_qr_scan"}, "fusion_lon": 0.0, "lat": 38.883485, "is_disabled": 0, "bike_id": "feec81165a9412df0beda6d87d428138", "fusion_lat": 0.0, "is_reserved": 0, "lon": -77.01960833333334}, {"type": "electric_scooter", "name": "57e9034f699f07d0740635cb1d186411", "rental_uris": {"ios": "https://dc.lft.to/lastmile_qr_scan", "android": "https://dc.lft.to/lastmile_qr_scan"}, "fusion_lon": 0.0, "lat": 38.927132, "is_disabled": 0, "bike_id": "57e9034f699f07d0740635cb1d186411", "fusion_lat": 0.0, "is_reserved": 0, "lon": -77.01595483333334}, {"type": "electric_scooter", "name": "b4a5b427b0a7d4051c347ecd38e8fb55", "rental_uris": {"ios": "https://dc.lft.to/lastmile_qr_scan", "android": "https://dc.lft.to/lastmile_qr_scan"}, "fusion_lon": 0.0, "lat": 38.88291566666667, "is_disabled": 0, "bike_id": "b4a5b427b0a7d4051c347ecd38e8fb55", "fusion_lat": 0.0, "is_reserved": 0, "lon": -77.0247925}, {"type": "electric_scooter", "name": "48ade2508a1b7236a116a3062d3f85ce", "rental_uris": {"ios": "https://dc.lft.to/lastmile_qr_scan", "android": "https://dc.lft.to/lastmile_qr_scan"}, "fusion_lon": 0.0, "lat": 38.9057315, "is_disabled": 0, "bike_id": "48ade2508a1b7236a116a3062d3f85ce", "fusion_lat": 0.0, "is_reserved": 0, "lon": -77.02415783333333}, {"type": "electric_scooter", "name": "cf19ecdb36f57134a724f9b81c34d965", "rental_uris": {"ios": "https://dc.lft.to/lastmile_qr_scan", "android": "https://dc.lft.to/lastmile_qr_scan"}, "fusion_lon": 0.0, "lat": 38.91707366666667, "is_disabled": 0, "bike_id": "cf19ecdb36f57134a724f9b81c34d965", "fusion_lat": 0.0, "is_reserved": 0, "lon": -77.04148533333333}, {"type": "electric_scooter", "name": "64d7c5e7956924c9f24e5cf2a70e83a2", "rental_uris": {"ios": "https://dc.lft.to/lastmile_qr_scan", "android": "https://dc.lft.to/lastmile_qr_scan"}, "fusion_lon": 0.0, "lat": 38.913563, "is_disabled": 0, "bike_id": "64d7c5e7956924c9f24e5cf2a70e83a2", "fusion_lat": 0.0, "is_reserved": 0, "lon": -77.034419}, {"type": "electric_bike", "name": "420c51c97ef47ae62bbbd1a58f0b25fc", "rental_uris": {"ios": "https://dc.lft.to/lastmile_qr_scan", "android": "https://dc.lft.to/lastmile_qr_scan"}, "fusion_lon": 0.0, "lat": 38.813286833333336, "is_disabled": 0, "bike_id": "420c51c97ef47ae62bbbd1a58f0b25fc", "fusion_lat": 0.0, "is_reserved": 0, "lon": -77.05091533333334}, {"type": "electric_bike", "name": "ce905743411fa8573b453819120053b4", "rental_uris": {"ios": "https://dc.lft.to/lastmile_qr_scan", "android": "https://dc.lft.to/lastmile_qr_scan"}, "fusion_lon": 0.0, "lat": 38.93194233333333, "is_disabled": 0, "bike_id": "ce905743411fa8573b453819120053b4", "fusion_lat": 0.0, "is_reserved": 0, "lon": -77.22927866666667}, {"type": "electric_bike", "name": "dfdd0f227ed1fb335444489a51125789", "rental_uris": {"ios": "https://dc.lft.to/lastmile_qr_scan", "android": "https://dc.lft.to/lastmile_qr_scan"}, "fusion_lon": 0.0, "lat": 38.84989566666667, "is_disabled": 0, "bike_id": "dfdd0f227ed1fb335444489a51125789", "fusion_lat": 0.0, "is_reserved": 0, "lon": -77.09759183333334}, {"type": "electric_scooter", "name": "6a650b05cf6e05e8d69c0f7bbf758031", "rental_uris": {"ios": "https://dc.lft.to/lastmile_qr_scan", "android": "https://dc.lft.to/lastmile_qr_scan"}, "fusion_lon": 0.0, "lat": 38.902715666666666, "is_disabled": 0, "bike_id": "6a650b05cf6e05e8d69c0f7bbf758031", "fusion_lat": 0.0, "is_reserved": 0, "lon": -77.0383855}, {"type": "electric_scooter", "name": "406440e1ecc4973b9bc74be3f5a1a860", "rental_uris": {"ios": "https://dc.lft.to/lastmile_qr_scan", "android": "https://dc.lft.to/lastmile_qr_scan"}, "fusion_lon": 0.0, "lat": 38.935113333333334, "is_disabled": 0, "bike_id": "406440e1ecc4973b9bc74be3f5a1a860", "fusion_lat": 0.0, "is_reserved": 0, "lon": -77.03288483333333}, {"type": "electric_scooter", "name": "4fcd9b9623cf093073be8675f7b3fb5c", "rental_uris": {"ios": "https://dc.lft.to/lastmile_qr_scan", "android": "https://dc.lft.to/lastmile_qr_scan"}, "fusion_lon": 0.0, "lat": 38.92151366666667, "is_disabled": 0, "bike_id": "4fcd9b9623cf093073be8675f7b3fb5c", "fusion_lat": 0.0, "is_reserved": 0, "lon": -77.0338065}, {"type": "electric_scooter", "name": "f3e2cda66949a1630725c383576e0cd8", "rental_uris": {"ios": "https://dc.lft.to/lastmile_qr_scan", "android": "https://dc.lft.to/lastmile_qr_scan"}, "fusion_lon": 0.0, "lat": 38.90978033333333, "is_disabled": 0, "bike_id": "f3e2cda66949a1630725c383576e0cd8", "fusion_lat": 0.0, "is_reserved": 0, "lon": -77.032958}, {"type": "electric_scooter", "name": "a27e007c64654e895f5e843b710fa8f1", "rental_uris": {"ios": "https://dc.lft.to/lastmile_qr_scan", "android": "https://dc.lft.to/lastmile_qr_scan"}, "fusion_lon": 0.0, "lat": 38.92217516666667, "is_disabled": 0, "bike_id": "a27e007c64654e895f5e843b710fa8f1", "fusion_lat": 0.0, "is_reserved": 0, "lon": -77.02216533333333}, {"type": "electric_scooter", "name": "a40c2976864d059147d9e284ef1e5cff", "rental_uris": {"ios": "https://dc.lft.to/lastmile_qr_scan", "android": "https://dc.lft.to/lastmile_qr_scan"}, "fusion_lon": 0.0, "lat": 38.920779833333334, "is_disabled": 0, "bike_id": "a40c2976864d059147d9e284ef1e5cff", "fusion_lat": 0.0, "is_reserved": 0, "lon": -77.01836116666666}, {"type": "electric_scooter", "name": "6b9cb86ca87f5a81bbc901c26735391c", "rental_uris": {"ios": "https://dc.lft.to/lastmile_qr_scan", "android": "https://dc.lft.to/lastmile_qr_scan"}, "fusion_lon": 0.0, "lat": 38.92108416666667, "is_disabled": 0, "bike_id": "6b9cb86ca87f5a81bbc901c26735391c", "fusion_lat": 0.0, "is_reserved": 0, "lon": -77.03178216666667}, {"type": "electric_scooter", "name": "f8dd5d0d0a1686a48568fd0b6bb46566", "rental_uris": {"ios": "https://dc.lft.to/lastmile_qr_scan", "android": "https://dc.lft.to/lastmile_qr_scan"}, "fusion_lon": 0.0, "lat": 38.91106633333333, "is_disabled": 0, "bike_id": "f8dd5d0d0a1686a48568fd0b6bb46566", "fusion_lat": 0.0, "is_reserved": 0, "lon": -77.04228666666667}, {"type": "electric_scooter", "name": "a4f3912e26a52c6038f5f309da206b32", "rental_uris": {"ios": "https://dc.lft.to/lastmile_qr_scan", "android": "https://dc.lft.to/lastmile_qr_scan"}, "fusion_lon": 0.0, "lat": 38.928486, "is_disabled": 0, "bike_id": "a4f3912e26a52c6038f5f309da206b32", "fusion_lat": 0.0, "is_reserved": 0, "lon": -76.99600266666667}, {"type": "electric_scooter", "name": "f15880f96fe5039a7b48dbae6b61868e", "rental_uris": {"ios": "https://dc.lft.to/lastmile_qr_scan", "android": "https://dc.lft.to/lastmile_qr_scan"}, "fusion_lon": 0.0, "lat": 38.84732, "is_disabled": 0, "bike_id": "f15880f96fe5039a7b48dbae6b61868e", "fusion_lat": 0.0, "is_reserved": 0, "lon": -76.98251133333333}, {"type": "electric_bike", "name": "f9da8b70d4f605e7867813230c8d5a45", "rental_uris": {"ios": "https://dc.lft.to/lastmile_qr_scan", "android": "https://dc.lft.to/lastmile_qr_scan"}, "fusion_lon": 0.0, "lat": 38.80017983333333, "is_disabled": 0, "bike_id": "f9da8b70d4f605e7867813230c8d5a45", "fusion_lat": 0.0, "is_reserved": 0, "lon": -77.0548555}, {"type": "electric_scooter", "name": "0a72d431723c91fc05c649c74e6f9dcd", "rental_uris": {"ios": "https://dc.lft.to/lastmile_qr_scan", "android": "https://dc.lft.to/lastmile_qr_scan"}, "fusion_lon": 0.0, "lat": 38.8777075, "is_disabled": 0, "bike_id": "0a72d431723c91fc05c649c74e6f9dcd", "fusion_lat": 0.0, "is_reserved": 0, "lon": -77.00830366666666}, {"type": "electric_scooter", "name": "05b8e23a19a6890464c55a79de0dfaf9", "rental_uris": {"ios": "https://dc.lft.to/lastmile_qr_scan", "android": "https://dc.lft.to/lastmile_qr_scan"}, "fusion_lon": 0.0, "lat": 38.914284333333335, "is_disabled": 0, "bike_id": "05b8e23a19a6890464c55a79de0dfaf9", "fusion_lat": 0.0, "is_reserved": 0, "lon": -77.03183716666666}, {"type": "electric_scooter", "name": "6e3ee7f4d43060133b786eb75b9eaf64", "rental_uris": {"ios": "https://dc.lft.to/lastmile_qr_scan", "android": "https://dc.lft.to/lastmile_qr_scan"}, "fusion_lon": 0.0, "lat": 38.875803, "is_disabled": 0, "bike_id": "6e3ee7f4d43060133b786eb75b9eaf64", "fusion_lat": 0.0, "is_reserved": 0, "lon": -77.0041665}, {"type": "electric_scooter", "name": "039a3a11e748244655b730809190959a", "rental_uris": {"ios": "https://dc.lft.to/lastmile_qr_scan", "android": "https://dc.lft.to/lastmile_qr_scan"}, "fusion_lon": 0.0, "lat": 38.90868483333333, "is_disabled": 0, "bike_id": "039a3a11e748244655b730809190959a", "fusion_lat": 0.0, "is_reserved": 0, "lon": -77.02694033333333}, {"type": "electric_scooter", "name": "85a702bf2ed396f22023c2fd10c19ce0", "rental_uris": {"ios": "https://dc.lft.to/lastmile_qr_scan", "android": "https://dc.lft.to/lastmile_qr_scan"}, "fusion_lon": 0.0, "lat": 38.91679, "is_disabled": 0, "bike_id": "85a702bf2ed396f22023c2fd10c19ce0", "fusion_lat": 0.0, "is_reserved": 0, "lon": -77.04142633333333}, {"type": "electric_scooter", "name": "770281b511fd42b1eac4aeaf8019851e", "rental_uris": {"ios": "https://dc.lft.to/lastmile_qr_scan", "android": "https://dc.lft.to/lastmile_qr_scan"}, "fusion_lon": 0.0, "lat": 38.937552, "is_disabled": 0, "bike_id": "770281b511fd42b1eac4aeaf8019851e", "fusion_lat": 0.0, "is_reserved": 0, "lon": -77.02553666666667}, {"type": "electric_scooter", "name": "074e224cb84b2258c5bb681e803d1fc2", "rental_uris": {"ios": "https://dc.lft.to/lastmile_qr_scan", "android": "https://dc.lft.to/lastmile_qr_scan"}, "fusion_lon": 0.0, "lat": 38.892921666666666, "is_disabled": 0, "bike_id": "074e224cb84b2258c5bb681e803d1fc2", "fusion_lat": 0.0, "is_reserved": 0, "lon": -76.949805}, {"type": "electric_scooter", "name": "a1a299485d0c99f32409339eb51ca30f", "rental_uris": {"ios": "https://dc.lft.to/lastmile_qr_scan", "android": "https://dc.lft.to/lastmile_qr_scan"}, "fusion_lon": 0.0, "lat": 38.8644015, "is_disabled": 0, "bike_id": "a1a299485d0c99f32409339eb51ca30f", "fusion_lat": 0.0, "is_reserved": 0, "lon": -76.98002283333334}, {"type": "electric_scooter", "name": "b3d93a28ad7e6afa2c5169112ac35876", "rental_uris": {"ios": "https://dc.lft.to/lastmile_qr_scan", "android": "https://dc.lft.to/lastmile_qr_scan"}, "fusion_lon": 0.0, "lat": 38.9109615, "is_disabled": 0, "bike_id": "b3d93a28ad7e6afa2c5169112ac35876", "fusion_lat": 0.0, "is_reserved": 0, "lon": -77.02724166666667}, {"type": "electric_scooter", "name": "db7a11e9ed58e382bf1473c6694b0b0b", "rental_uris": {"ios": "https://dc.lft.to/lastmile_qr_scan", "android": "https://dc.lft.to/lastmile_qr_scan"}, "fusion_lon": 0.0, "lat": 38.910947166666666, "is_disabled": 0, "bike_id": "db7a11e9ed58e382bf1473c6694b0b0b", "fusion_lat": 0.0, "is_reserved": 0, "lon": -77.03843166666667}, {"type": "electric_scooter", "name": "40919641af102c5668c5e453004c17b9", "rental_uris": {"ios": "https://dc.lft.to/lastmile_qr_scan", "android": "https://dc.lft.to/lastmile_qr_scan"}, "fusion_lon": 0.0, "lat": 38.91253283333333, "is_disabled": 0, "bike_id": "40919641af102c5668c5e453004c17b9", "fusion_lat": 0.0, "is_reserved": 0, "lon": -77.038318}, {"type": "electric_scooter", "name": "046846f3b21d899d28465e84c52f1184", "rental_uris": {"ios": "https://dc.lft.to/lastmile_qr_scan", "android": "https://dc.lft.to/lastmile_qr_scan"}, "fusion_lon": 0.0, "lat": 38.86682783333333, "is_disabled": 0, "bike_id": "046846f3b21d899d28465e84c52f1184", "fusion_lat": 0.0, "is_reserved": 0, "lon": -76.98567266666667}, {"type": "electric_scooter", "name": "34581c759db9b709bc4cb0b00141690e", "rental_uris": {"ios": "https://dc.lft.to/lastmile_qr_scan", "android": "https://dc.lft.to/lastmile_qr_scan"}, "fusion_lon": 0.0, "lat": 38.9135035, "is_disabled": 0, "bike_id": "34581c759db9b709bc4cb0b00141690e", "fusion_lat": 0.0, "is_reserved": 0, "lon": -77.03187016666666}, {"type": "electric_bike", "name": "cb2cc9482a420c1fb4a59a514d5b96fc", "rental_uris": {"ios": "https://dc.lft.to/lastmile_qr_scan", "android": "https://dc.lft.to/lastmile_qr_scan"}, "fusion_lon": 0.0, "lat": 38.947515333333335, "is_disabled": 0, "bike_id": "cb2cc9482a420c1fb4a59a514d5b96fc", "fusion_lat": 0.0, "is_reserved": 0, "lon": -77.02375066666667}, {"type": "electric_scooter", "name": "ffae4cca23ecbb7e61956647f96545ca", "rental_uris": {"ios": "https://dc.lft.to/lastmile_qr_scan", "android": "https://dc.lft.to/lastmile_qr_scan"}, "fusion_lon": 0.0, "lat": 38.90978483333333, "is_disabled": 0, "bike_id": "ffae4cca23ecbb7e61956647f96545ca", "fusion_lat": 0.0, "is_reserved": 0, "lon": -77.048742}, {"type": "electric_scooter", "name": "891327ee708e516282aac8caf2f778f7", "rental_uris": {"ios": "https://dc.lft.to/lastmile_qr_scan", "android": "https://dc.lft.to/lastmile_qr_scan"}, "fusion_lon": 0.0, "lat": 38.928310833333335, "is_disabled": 0, "bike_id": "891327ee708e516282aac8caf2f778f7", "fusion_lat": 0.0, "is_reserved": 0, "lon": -77.03271283333333}, {"type": "electric_scooter", "name": "5f9679f89e1d999c80b3b8c60cd37136", "rental_uris": {"ios": "https://dc.lft.to/lastmile_qr_scan", "android": "https://dc.lft.to/lastmile_qr_scan"}, "fusion_lon": 0.0, "lat": 38.90401816666667, "is_disabled": 0, "bike_id": "5f9679f89e1d999c80b3b8c60cd37136", "fusion_lat": 0.0, "is_reserved": 0, "lon": -77.01661433333334}, {"type": "electric_scooter", "name": "285411022d5092c4f99d509ddf4cc1f7", "rental_uris": {"ios": "https://dc.lft.to/lastmile_qr_scan", "android": "https://dc.lft.to/lastmile_qr_scan"}, "fusion_lon": 0.0, "lat": 38.89860633333333, "is_disabled": 0, "bike_id": "285411022d5092c4f99d509ddf4cc1f7", "fusion_lat": 0.0, "is_reserved": 0, "lon": -76.94642833333333}, {"type": "electric_bike", "name": "5b76f1c9626faa3bf6c1a1f26b1fb095", "rental_uris": {"ios": "https://dc.lft.to/lastmile_qr_scan", "android": "https://dc.lft.to/lastmile_qr_scan"}, "fusion_lon": 0.0, "lat": 38.900278166666666, "is_disabled": 0, "bike_id": "5b76f1c9626faa3bf6c1a1f26b1fb095", "fusion_lat": 0.0, "is_reserved": 0, "lon": -76.98866116666667}, {"type": "electric_scooter", "name": "2b78fb8853abe0fa37f8bb4df786688f", "rental_uris": {"ios": "https://dc.lft.to/lastmile_qr_scan", "android": "https://dc.lft.to/lastmile_qr_scan"}, "fusion_lon": 0.0, "lat": 38.930532166666666, "is_disabled": 0, "bike_id": "2b78fb8853abe0fa37f8bb4df786688f", "fusion_lat": 0.0, "is_reserved": 0, "lon": -77.023531}, {"type": "electric_scooter", "name": "f3c6818eba5a1bef022bf43a095d327e", "rental_uris": {"ios": "https://dc.lft.to/lastmile_qr_scan", "android": "https://dc.lft.to/lastmile_qr_scan"}, "fusion_lon": 0.0, "lat": 38.934575, "is_disabled": 0, "bike_id": "f3c6818eba5a1bef022bf43a095d327e", "fusion_lat": 0.0, "is_reserved": 0, "lon": -77.04124633333333}, {"type": "electric_scooter", "name": "9bc7025801801d2a16284dbc6129e428", "rental_uris": {"ios": "https://dc.lft.to/lastmile_qr_scan", "android": "https://dc.lft.to/lastmile_qr_scan"}, "fusion_lon": 0.0, "lat": 38.8848915, "is_disabled": 0, "bike_id": "9bc7025801801d2a16284dbc6129e428", "fusion_lat": 0.0, "is_reserved": 0, "lon": -77.0071015}, {"type": "electric_scooter", "name": "97a8a475d596f3c278dbe7944ddcc065", "rental_uris": {"ios": "https://dc.lft.to/lastmile_qr_scan", "android": "https://dc.lft.to/lastmile_qr_scan"}, "fusion_lon": 0.0, "lat": 38.900355, "is_disabled": 0, "bike_id": "97a8a475d596f3c278dbe7944ddcc065", "fusion_lat": 0.0, "is_reserved": 0, "lon": -77.00117816666666}, {"type": "electric_scooter", "name": "fbc02d128ed3642f36ff72bbcf6ff02c", "rental_uris": {"ios": "https://dc.lft.to/lastmile_qr_scan", "android": "https://dc.lft.to/lastmile_qr_scan"}, "fusion_lon": 0.0, "lat": 38.93218916666667, "is_disabled": 0, "bike_id": "fbc02d128ed3642f36ff72bbcf6ff02c", "fusion_lat": 0.0, "is_reserved": 0, "lon": -77.026839}, {"type": "electric_scooter", "name": "e5b3d4e0483571930ac3641fa19ca1c7", "rental_uris": {"ios": "https://dc.lft.to/lastmile_qr_scan", "android": "https://dc.lft.to/lastmile_qr_scan"}, "fusion_lon": 0.0, "lat": 38.91267283333333, "is_disabled": 0, "bike_id": "e5b3d4e0483571930ac3641fa19ca1c7", "fusion_lat": 0.0, "is_reserved": 0, "lon": -77.02211433333333}, {"type": "electric_bike", "name": "aca3305668bcf52a0a0edfdaea6a8bb6", "rental_uris": {"ios": "https://dc.lft.to/lastmile_qr_scan", "android": "https://dc.lft.to/lastmile_qr_scan"}, "fusion_lon": 0.0, "lat": 38.9266585, "is_disabled": 0, "bike_id": "aca3305668bcf52a0a0edfdaea6a8bb6", "fusion_lat": 0.0, "is_reserved": 0, "lon": -77.098513}, {"type": "electric_scooter", "name": "c3825bcd051bda6aaa6f1817048a889d", "rental_uris": {"ios": "https://dc.lft.to/lastmile_qr_scan", "android": "https://dc.lft.to/lastmile_qr_scan"}, "fusion_lon": 0.0, "lat": 38.925498833333336, "is_disabled": 0, "bike_id": "c3825bcd051bda6aaa6f1817048a889d", "fusion_lat": 0.0, "is_reserved": 0, "lon": -77.00070916666667}, {"type": "electric_bike", "name": "b9b0db990c679e1c33aa89d0f86c90ca", "rental_uris": {"ios": "https://dc.lft.to/lastmile_qr_scan", "android": "https://dc.lft.to/lastmile_qr_scan"}, "fusion_lon": 0.0, "lat": 38.957429833333336, "is_disabled": 0, "bike_id": "b9b0db990c679e1c33aa89d0f86c90ca", "fusion_lat": 0.0, "is_reserved": 0, "lon": -76.97255133333333}, {"type": "electric_scooter", "name": "3825a4acd6d5b4e78477d8122202e0dc", "rental_uris": {"ios": "https://dc.lft.to/lastmile_qr_scan", "android": "https://dc.lft.to/lastmile_qr_scan"}, "fusion_lon": 0.0, "lat": 38.93830166666667, "is_disabled": 0, "bike_id": "3825a4acd6d5b4e78477d8122202e0dc", "fusion_lat": 0.0, "is_reserved": 0, "lon": -77.085447}, {"type": "electric_bike", "name": "e5ba886c31be338025f145cb24aadf95", "rental_uris": {"ios": "https://dc.lft.to/lastmile_qr_scan", "android": "https://dc.lft.to/lastmile_qr_scan"}, "fusion_lon": 0.0, "lat": 38.957387833333335, "is_disabled": 0, "bike_id": "e5ba886c31be338025f145cb24aadf95", "fusion_lat": 0.0, "is_reserved": 0, "lon": -76.97256183333333}, {"type": "electric_scooter", "name": "7422f22099b4d79afdefd0d21fc231a2", "rental_uris": {"ios": "https://dc.lft.to/lastmile_qr_scan", "android": "https://dc.lft.to/lastmile_qr_scan"}, "fusion_lon": 0.0, "lat": 38.916950166666666, "is_disabled": 0, "bike_id": "7422f22099b4d79afdefd0d21fc231a2", "fusion_lat": 0.0, "is_reserved": 0, "lon": -77.00744816666666}, {"type": "electric_scooter", "name": "567b09077f111606172a2e9ed0fca446", "rental_uris": {"ios": "https://dc.lft.to/lastmile_qr_scan", "android": "https://dc.lft.to/lastmile_qr_scan"}, "fusion_lon": 0.0, "lat": 38.89462833333333, "is_disabled": 0, "bike_id": "567b09077f111606172a2e9ed0fca446", "fusion_lat": 0.0, "is_reserved": 0, "lon": -77.02631133333334}, {"type": "electric_scooter", "name": "e60274db838b17694dcc3023fcbf4486", "rental_uris": {"ios": "https://dc.lft.to/lastmile_qr_scan", "android": "https://dc.lft.to/lastmile_qr_scan"}, "fusion_lon": 0.0, "lat": 38.897358, "is_disabled": 0, "bike_id": "e60274db838b17694dcc3023fcbf4486", "fusion_lat": 0.0, "is_reserved": 0, "lon": -77.02019383333334}, {"type": "electric_scooter", "name": "19fdad07284504c99dec0e70e1e0f990", "rental_uris": {"ios": "https://dc.lft.to/lastmile_qr_scan", "android": "https://dc.lft.to/lastmile_qr_scan"}, "fusion_lon": 0.0, "lat": 38.90670983333333, "is_disabled": 0, "bike_id": "19fdad07284504c99dec0e70e1e0f990", "fusion_lat": 0.0, "is_reserved": 0, "lon": -77.02597033333333}, {"type": "electric_scooter", "name": "04922949f01836e1c854d30c0c7fdc38", "rental_uris": {"ios": "https://dc.lft.to/lastmile_qr_scan", "android": "https://dc.lft.to/lastmile_qr_scan"}, "fusion_lon": 0.0, "lat": 38.906873, "is_disabled": 0, "bike_id": "04922949f01836e1c854d30c0c7fdc38", "fusion_lat": 0.0, "is_reserved": 0, "lon": -77.06133683333333}, {"type": "electric_scooter", "name": "3728e2344ec1e8292bed7020afbdeec1", "rental_uris": {"ios": "https://dc.lft.to/lastmile_qr_scan", "android": "https://dc.lft.to/lastmile_qr_scan"}, "fusion_lon": 0.0, "lat": 38.9143835, "is_disabled": 0, "bike_id": "3728e2344ec1e8292bed7020afbdeec1", "fusion_lat": 0.0, "is_reserved": 0, "lon": -77.01226833333334}, {"type": "electric_scooter", "name": "d7adee1ef4d7929db6076429792f5d4c", "rental_uris": {"ios": "https://dc.lft.to/lastmile_qr_scan", "android": "https://dc.lft.to/lastmile_qr_scan"}, "fusion_lon": 0.0, "lat": 38.89220016666667, "is_disabled": 0, "bike_id": "d7adee1ef4d7929db6076429792f5d4c", "fusion_lat": 0.0, "is_reserved": 0, "lon": -77.04514433333334}, {"type": "electric_scooter", "name": "0f5dbc803ae470f7a373f6335aec4747", "rental_uris": {"ios": "https://dc.lft.to/lastmile_qr_scan", "android": "https://dc.lft.to/lastmile_qr_scan"}, "fusion_lon": 0.0, "lat": 38.9452505, "is_disabled": 0, "bike_id": "0f5dbc803ae470f7a373f6335aec4747", "fusion_lat": 0.0, "is_reserved": 0, "lon": -77.064051}, {"type": "electric_scooter", "name": "ddb851a4b45841ac82b00c86b303bdd0", "rental_uris": {"ios": "https://dc.lft.to/lastmile_qr_scan", "android": "https://dc.lft.to/lastmile_qr_scan"}, "fusion_lon": 0.0, "lat": 38.911251166666666, "is_disabled": 0, "bike_id": "ddb851a4b45841ac82b00c86b303bdd0", "fusion_lat": 0.0, "is_reserved": 0, "lon": -77.03570283333333}, {"type": "electric_scooter", "name": "2a3b3259d472b47cc33c69e021ebfaef", "rental_uris": {"ios": "https://dc.lft.to/lastmile_qr_scan", "android": "https://dc.lft.to/lastmile_qr_scan"}, "fusion_lon": 0.0, "lat": 38.907759, "is_disabled": 0, "bike_id": "2a3b3259d472b47cc33c69e021ebfaef", "fusion_lat": 0.0, "is_reserved": 0, "lon": -77.03273733333333}, {"type": "electric_scooter", "name": "d9b3f2d57bab76d3639a450009be1350", "rental_uris": {"ios": "https://dc.lft.to/lastmile_qr_scan", "android": "https://dc.lft.to/lastmile_qr_scan"}, "fusion_lon": 0.0, "lat": 38.90159116666667, "is_disabled": 0, "bike_id": "d9b3f2d57bab76d3639a450009be1350", "fusion_lat": 0.0, "is_reserved": 0, "lon": -77.03569616666667}, {"type": "electric_scooter", "name": "1c1f3abc0f25a9336263587e68da5b40", "rental_uris": {"ios": "https://dc.lft.to/lastmile_qr_scan", "android": "https://dc.lft.to/lastmile_qr_scan"}, "fusion_lon": 0.0, "lat": 38.8922175, "is_disabled": 0, "bike_id": "1c1f3abc0f25a9336263587e68da5b40", "fusion_lat": 0.0, "is_reserved": 0, "lon": -77.03991583333334}, {"type": "electric_scooter", "name": "4a2a91a5945e3b99ab3ead9e082e69db", "rental_uris": {"ios": "https://dc.lft.to/lastmile_qr_scan", "android": "https://dc.lft.to/lastmile_qr_scan"}, "fusion_lon": 0.0, "lat": 38.903705333333335, "is_disabled": 0, "bike_id": "4a2a91a5945e3b99ab3ead9e082e69db", "fusion_lat": 0.0, "is_reserved": 0, "lon": -77.05000366666667}, {"type": "electric_scooter", "name": "f2bb714362135c84d30f2cf2987b1426", "rental_uris": {"ios": "https://dc.lft.to/lastmile_qr_scan", "android": "https://dc.lft.to/lastmile_qr_scan"}, "fusion_lon": 0.0, "lat": 38.897309166666666, "is_disabled": 0, "bike_id": "f2bb714362135c84d30f2cf2987b1426", "fusion_lat": 0.0, "is_reserved": 0, "lon": -77.00222716666667}, {"type": "electric_scooter", "name": "acc6c9c992542baf76174574695b55d0", "rental_uris": {"ios": "https://dc.lft.to/lastmile_qr_scan", "android": "https://dc.lft.to/lastmile_qr_scan"}, "fusion_lon": 0.0, "lat": 38.866825, "is_disabled": 0, "bike_id": "acc6c9c992542baf76174574695b55d0", "fusion_lat": 0.0, "is_reserved": 0, "lon": -76.98572133333333}, {"type": "electric_scooter", "name": "bad4c34999fd6c615cbfb0f1940cb121", "rental_uris": {"ios": "https://dc.lft.to/lastmile_qr_scan", "android": "https://dc.lft.to/lastmile_qr_scan"}, "fusion_lon": 0.0, "lat": 38.91462533333333, "is_disabled": 0, "bike_id": "bad4c34999fd6c615cbfb0f1940cb121", "fusion_lat": 0.0, "is_reserved": 0, "lon": -77.02156583333333}, {"type": "electric_scooter", "name": "652b7feab12e55725fb7e3e80f351f2d", "rental_uris": {"ios": "https://dc.lft.to/lastmile_qr_scan", "android": "https://dc.lft.to/lastmile_qr_scan"}, "fusion_lon": 0.0, "lat": 38.900769, "is_disabled": 0, "bike_id": "652b7feab12e55725fb7e3e80f351f2d", "fusion_lat": 0.0, "is_reserved": 0, "lon": -77.04804383333334}, {"type": "electric_scooter", "name": "a8c5a20df31291b114ee1f7a2d5abe0f", "rental_uris": {"ios": "https://dc.lft.to/lastmile_qr_scan", "android": "https://dc.lft.to/lastmile_qr_scan"}, "fusion_lon": 0.0, "lat": 38.903954166666665, "is_disabled": 0, "bike_id": "a8c5a20df31291b114ee1f7a2d5abe0f", "fusion_lat": 0.0, "is_reserved": 0, "lon": -77.016504}, {"type": "electric_scooter", "name": "e4cb24662a10215ca4f17c3896e8e89a", "rental_uris": {"ios": "https://dc.lft.to/lastmile_qr_scan", "android": "https://dc.lft.to/lastmile_qr_scan"}, "fusion_lon": 0.0, "lat": 38.88732816666667, "is_disabled": 0, "bike_id": "e4cb24662a10215ca4f17c3896e8e89a", "fusion_lat": 0.0, "is_reserved": 0, "lon": -77.025828}, {"type": "electric_scooter", "name": "58a4db0a2f4bff4d178f8edbe4e84d57", "rental_uris": {"ios": "https://dc.lft.to/lastmile_qr_scan", "android": "https://dc.lft.to/lastmile_qr_scan"}, "fusion_lon": 0.0, "lat": 38.9175365, "is_disabled": 0, "bike_id": "58a4db0a2f4bff4d178f8edbe4e84d57", "fusion_lat": 0.0, "is_reserved": 0, "lon": -77.02285433333333}, {"type": "electric_scooter", "name": "4720ef0364887f7cf2e12e82d08167be", "rental_uris": {"ios": "https://dc.lft.to/lastmile_qr_scan", "android": "https://dc.lft.to/lastmile_qr_scan"}, "fusion_lon": 0.0, "lat": 38.921600833333336, "is_disabled": 0, "bike_id": "4720ef0364887f7cf2e12e82d08167be", "fusion_lat": 0.0, "is_reserved": 0, "lon": -77.04692966666667}, {"type": "electric_scooter", "name": "bbc9eea98d6e19345beb53290ad7625f", "rental_uris": {"ios": "https://dc.lft.to/lastmile_qr_scan", "android": "https://dc.lft.to/lastmile_qr_scan"}, "fusion_lon": 0.0, "lat": 38.9317665, "is_disabled": 0, "bike_id": "bbc9eea98d6e19345beb53290ad7625f", "fusion_lat": 0.0, "is_reserved": 0, "lon": -77.04304783333333}, {"type": "electric_scooter", "name": "8aa437dcdad0ab599424b578899d9466", "rental_uris": {"ios": "https://dc.lft.to/lastmile_qr_scan", "android": "https://dc.lft.to/lastmile_qr_scan"}, "fusion_lon": 0.0, "lat": 38.897997333333336, "is_disabled": 0, "bike_id": "8aa437dcdad0ab599424b578899d9466", "fusion_lat": 0.0, "is_reserved": 0, "lon": -77.02392733333333}, {"type": "electric_scooter", "name": "bad0f4a0830cedcbe0297e8ec17f435c", "rental_uris": {"ios": "https://dc.lft.to/lastmile_qr_scan", "android": "https://dc.lft.to/lastmile_qr_scan"}, "fusion_lon": 0.0, "lat": 38.90407283333333, "is_disabled": 0, "bike_id": "bad0f4a0830cedcbe0297e8ec17f435c", "fusion_lat": 0.0, "is_reserved": 0, "lon": -76.97334716666667}, {"type": "electric_scooter", "name": "84380954df888298f4bfdee00c4d5e51", "rental_uris": {"ios": "https://dc.lft.to/lastmile_qr_scan", "android": "https://dc.lft.to/lastmile_qr_scan"}, "fusion_lon": 0.0, "lat": 38.919339, "is_disabled": 0, "bike_id": "84380954df888298f4bfdee00c4d5e51", "fusion_lat": 0.0, "is_reserved": 0, "lon": -77.01361133333333}, {"type": "electric_scooter", "name": "42e83cd8664e9be2dcf96b3091dd7ba4", "rental_uris": {"ios": "https://dc.lft.to/lastmile_qr_scan", "android": "https://dc.lft.to/lastmile_qr_scan"}, "fusion_lon": 0.0, "lat": 38.91783616666667, "is_disabled": 0, "bike_id": "42e83cd8664e9be2dcf96b3091dd7ba4", "fusion_lat": 0.0, "is_reserved": 0, "lon": -77.02281883333333}, {"type": "electric_scooter", "name": "00e2cf83b9ba56da7cfbde19c569247a", "rental_uris": {"ios": "https://dc.lft.to/lastmile_qr_scan", "android": "https://dc.lft.to/lastmile_qr_scan"}, "fusion_lon": 0.0, "lat": 38.91470183333333, "is_disabled": 0, "bike_id": "00e2cf83b9ba56da7cfbde19c569247a", "fusion_lat": 0.0, "is_reserved": 0, "lon": -77.03887666666667}, {"type": "electric_scooter", "name": "9ca258925e1ba4b9ef992663c3963e98", "rental_uris": {"ios": "https://dc.lft.to/lastmile_qr_scan", "android": "https://dc.lft.to/lastmile_qr_scan"}, "fusion_lon": 0.0, "lat": 38.900341, "is_disabled": 0, "bike_id": "9ca258925e1ba4b9ef992663c3963e98", "fusion_lat": 0.0, "is_reserved": 0, "lon": -77.0318525}, {"type": "electric_scooter", "name": "8c79c154344824ea12805dc75c184f5a", "rental_uris": {"ios": "https://dc.lft.to/lastmile_qr_scan", "android": "https://dc.lft.to/lastmile_qr_scan"}, "fusion_lon": 0.0, "lat": 38.94534766666666, "is_disabled": 0, "bike_id": "8c79c154344824ea12805dc75c184f5a", "fusion_lat": 0.0, "is_reserved": 0, "lon": -77.0252865}, {"type": "electric_scooter", "name": "7e334f30ec985286486bf39413fa9805", "rental_uris": {"ios": "https://dc.lft.to/lastmile_qr_scan", "android": "https://dc.lft.to/lastmile_qr_scan"}, "fusion_lon": 0.0, "lat": 38.86416833333333, "is_disabled": 0, "bike_id": "7e334f30ec985286486bf39413fa9805", "fusion_lat": 0.0, "is_reserved": 0, "lon": -76.99003133333333}, {"type": "electric_scooter", "name": "cea9194f3a60d9c66c0263c804ceb872", "rental_uris": {"ios": "https://dc.lft.to/lastmile_qr_scan", "android": "https://dc.lft.to/lastmile_qr_scan"}, "fusion_lon": 0.0, "lat": 38.89043983333333, "is_disabled": 0, "bike_id": "cea9194f3a60d9c66c0263c804ceb872", "fusion_lat": 0.0, "is_reserved": 0, "lon": -76.95246116666667}, {"type": "electric_scooter", "name": "f1fb94f78ebe120b183bd0c4e812f9d1", "rental_uris": {"ios": "https://dc.lft.to/lastmile_qr_scan", "android": "https://dc.lft.to/lastmile_qr_scan"}, "fusion_lon": 0.0, "lat": 38.911068, "is_disabled": 0, "bike_id": "f1fb94f78ebe120b183bd0c4e812f9d1", "fusion_lat": 0.0, "is_reserved": 0, "lon": -77.02416683333334}, {"type": "electric_scooter", "name": "dbc2088596b590d04165490c5152f9cb", "rental_uris": {"ios": "https://dc.lft.to/lastmile_qr_scan", "android": "https://dc.lft.to/lastmile_qr_scan"}, "fusion_lon": 0.0, "lat": 38.924219, "is_disabled": 0, "bike_id": "dbc2088596b590d04165490c5152f9cb", "fusion_lat": 0.0, "is_reserved": 0, "lon": -77.020277}, {"type": "electric_scooter", "name": "1a8365e4732f3caa4fa6bc62a5654f07", "rental_uris": {"ios": "https://dc.lft.to/lastmile_qr_scan", "android": "https://dc.lft.to/lastmile_qr_scan"}, "fusion_lon": 0.0, "lat": 38.889052, "is_disabled": 0, "bike_id": "1a8365e4732f3caa4fa6bc62a5654f07", "fusion_lat": 0.0, "is_reserved": 0, "lon": -76.93688833333333}, {"type": "electric_scooter", "name": "a7c7f898329d42e3b2c38f98417ff22f", "rental_uris": {"ios": "https://dc.lft.to/lastmile_qr_scan", "android": "https://dc.lft.to/lastmile_qr_scan"}, "fusion_lon": 0.0, "lat": 38.89234233333333, "is_disabled": 0, "bike_id": "a7c7f898329d42e3b2c38f98417ff22f", "fusion_lat": 0.0, "is_reserved": 0, "lon": -77.041625}, {"type": "electric_scooter", "name": "1116ba694db382df757fe2e51bb77730", "rental_uris": {"ios": "https://dc.lft.to/lastmile_qr_scan", "android": "https://dc.lft.to/lastmile_qr_scan"}, "fusion_lon": 0.0, "lat": 38.87657633333333, "is_disabled": 0, "bike_id": "1116ba694db382df757fe2e51bb77730", "fusion_lat": 0.0, "is_reserved": 0, "lon": -77.01725416666666}, {"type": "electric_scooter", "name": "637f60a6347a65a7468e6df32cb9697e", "rental_uris": {"ios": "https://dc.lft.to/lastmile_qr_scan", "android": "https://dc.lft.to/lastmile_qr_scan"}, "fusion_lon": 0.0, "lat": 38.8913925, "is_disabled": 0, "bike_id": "637f60a6347a65a7468e6df32cb9697e", "fusion_lat": 0.0, "is_reserved": 0, "lon": -76.99255716666667}, {"type": "electric_scooter", "name": "e5b95df69153f19e49b83a0d5e7d4068", "rental_uris": {"ios": "https://dc.lft.to/lastmile_qr_scan", "android": "https://dc.lft.to/lastmile_qr_scan"}, "fusion_lon": 0.0, "lat": 38.88299633333333, "is_disabled": 0, "bike_id": "e5b95df69153f19e49b83a0d5e7d4068", "fusion_lat": 0.0, "is_reserved": 0, "lon": -76.94858933333333}, {"type": "electric_scooter", "name": "7c57eeb220b5e0007e0608b257dc5d1d", "rental_uris": {"ios": "https://dc.lft.to/lastmile_qr_scan", "android": "https://dc.lft.to/lastmile_qr_scan"}, "fusion_lon": 0.0, "lat": 38.912745, "is_disabled": 0, "bike_id": "7c57eeb220b5e0007e0608b257dc5d1d", "fusion_lat": 0.0, "is_reserved": 0, "lon": -76.98466816666667}, {"type": "electric_scooter", "name": "016f85f8891b2bafa2fe8c9f7225ca41", "rental_uris": {"ios": "https://dc.lft.to/lastmile_qr_scan", "android": "https://dc.lft.to/lastmile_qr_scan"}, "fusion_lon": 0.0, "lat": 38.923645, "is_disabled": 0, "bike_id": "016f85f8891b2bafa2fe8c9f7225ca41", "fusion_lat": 0.0, "is_reserved": 0, "lon": -77.019046}, {"type": "electric_scooter", "name": "a4d61794d08093cbe5ebbf97aecddd26", "rental_uris": {"ios": "https://dc.lft.to/lastmile_qr_scan", "android": "https://dc.lft.to/lastmile_qr_scan"}, "fusion_lon": 0.0, "lat": 38.923657166666665, "is_disabled": 0, "bike_id": "a4d61794d08093cbe5ebbf97aecddd26", "fusion_lat": 0.0, "is_reserved": 0, "lon": -77.05031233333334}, {"type": "electric_scooter", "name": "d72495ec97a7d98da4361d66da697bfb", "rental_uris": {"ios": "https://dc.lft.to/lastmile_qr_scan", "android": "https://dc.lft.to/lastmile_qr_scan"}, "fusion_lon": 0.0, "lat": 38.91936916666667, "is_disabled": 0, "bike_id": "d72495ec97a7d98da4361d66da697bfb", "fusion_lat": 0.0, "is_reserved": 0, "lon": -77.02071166666667}, {"type": "electric_scooter", "name": "485de7ba0f946a892c3b671ddc505a90", "rental_uris": {"ios": "https://dc.lft.to/lastmile_qr_scan", "android": "https://dc.lft.to/lastmile_qr_scan"}, "fusion_lon": 0.0, "lat": 38.88493183333333, "is_disabled": 0, "bike_id": "485de7ba0f946a892c3b671ddc505a90", "fusion_lat": 0.0, "is_reserved": 0, "lon": -77.01086266666667}, {"type": "electric_scooter", "name": "16cac1d7b00a52e7ca2784e2a6c84eb3", "rental_uris": {"ios": "https://dc.lft.to/lastmile_qr_scan", "android": "https://dc.lft.to/lastmile_qr_scan"}, "fusion_lon": 0.0, "lat": 38.90359466666666, "is_disabled": 0, "bike_id": "16cac1d7b00a52e7ca2784e2a6c84eb3", "fusion_lat": 0.0, "is_reserved": 0, "lon": -77.00342533333334}, {"type": "electric_scooter", "name": "fe31587d1730a236cc20fb97a86fe8c3", "rental_uris": {"ios": "https://dc.lft.to/lastmile_qr_scan", "android": "https://dc.lft.to/lastmile_qr_scan"}, "fusion_lon": 0.0, "lat": 38.95642433333333, "is_disabled": 0, "bike_id": "fe31587d1730a236cc20fb97a86fe8c3", "fusion_lat": 0.0, "is_reserved": 0, "lon": -77.02372966666667}, {"type": "electric_bike", "name": "84b3bf661db41c81dda0804609cb97ba", "rental_uris": {"ios": "https://dc.lft.to/lastmile_qr_scan", "android": "https://dc.lft.to/lastmile_qr_scan"}, "fusion_lon": 0.0, "lat": 39.003786, "is_disabled": 0, "bike_id": "84b3bf661db41c81dda0804609cb97ba", "fusion_lat": 0.0, "is_reserved": 0, "lon": -77.01288116666667}, {"type": "electric_scooter", "name": "b06a5050df19b7e0b41e3b34616988e1", "rental_uris": {"ios": "https://dc.lft.to/lastmile_qr_scan", "android": "https://dc.lft.to/lastmile_qr_scan"}, "fusion_lon": 0.0, "lat": 38.944778666666664, "is_disabled": 0, "bike_id": "b06a5050df19b7e0b41e3b34616988e1", "fusion_lat": 0.0, "is_reserved": 0, "lon": -77.06401133333334}, {"type": "electric_scooter", "name": "57eca1003f324c8ddf239d7c4801c5f7", "rental_uris": {"ios": "https://dc.lft.to/lastmile_qr_scan", "android": "https://dc.lft.to/lastmile_qr_scan"}, "fusion_lon": 0.0, "lat": 38.90431183333333, "is_disabled": 0, "bike_id": "57eca1003f324c8ddf239d7c4801c5f7", "fusion_lat": 0.0, "is_reserved": 0, "lon": -77.02892833333334}, {"type": "electric_bike", "name": "e89f61f92a0a6c2ea0292f863ddf4660", "rental_uris": {"ios": "https://dc.lft.to/lastmile_qr_scan", "android": "https://dc.lft.to/lastmile_qr_scan"}, "fusion_lon": 0.0, "lat": 39.0122315, "is_disabled": 0, "bike_id": "e89f61f92a0a6c2ea0292f863ddf4660", "fusion_lat": 0.0, "is_reserved": 0, "lon": -77.11078833333333}, {"type": "electric_scooter", "name": "cf7fad5d60cd0ee262e67b8296bda2f8", "rental_uris": {"ios": "https://dc.lft.to/lastmile_qr_scan", "android": "https://dc.lft.to/lastmile_qr_scan"}, "fusion_lon": 0.0, "lat": 38.911667666666666, "is_disabled": 0, "bike_id": "cf7fad5d60cd0ee262e67b8296bda2f8", "fusion_lat": 0.0, "is_reserved": 0, "lon": -77.011298}, {"type": "electric_scooter", "name": "b440b7bd5bbe0a5ff9549c914a0b9bcc", "rental_uris": {"ios": "https://dc.lft.to/lastmile_qr_scan", "android": "https://dc.lft.to/lastmile_qr_scan"}, "fusion_lon": 0.0, "lat": 38.88465866666667, "is_disabled": 0, "bike_id": "b440b7bd5bbe0a5ff9549c914a0b9bcc", "fusion_lat": 0.0, "is_reserved": 0, "lon": -77.01510616666667}, {"type": "electric_scooter", "name": "0d337de88a63e3c3ab3a47c34df83d7e", "rental_uris": {"ios": "https://dc.lft.to/lastmile_qr_scan", "android": "https://dc.lft.to/lastmile_qr_scan"}, "fusion_lon": 0.0, "lat": 38.90921083333333, "is_disabled": 0, "bike_id": "0d337de88a63e3c3ab3a47c34df83d7e", "fusion_lat": 0.0, "is_reserved": 0, "lon": -77.03208783333334}, {"type": "electric_scooter", "name": "84da2c13e45d0e62a5057e116c377621", "rental_uris": {"ios": "https://dc.lft.to/lastmile_qr_scan", "android": "https://dc.lft.to/lastmile_qr_scan"}, "fusion_lon": 0.0, "lat": 38.899897833333334, "is_disabled": 0, "bike_id": "84da2c13e45d0e62a5057e116c377621", "fusion_lat": 0.0, "is_reserved": 0, "lon": -77.00919916666666}, {"type": "electric_scooter", "name": "8b0e1ac5c6cb3e723bbf365fe26b2b81", "rental_uris": {"ios": "https://dc.lft.to/lastmile_qr_scan", "android": "https://dc.lft.to/lastmile_qr_scan"}, "fusion_lon": 0.0, "lat": 38.90959183333333, "is_disabled": 0, "bike_id": "8b0e1ac5c6cb3e723bbf365fe26b2b81", "fusion_lat": 0.0, "is_reserved": 0, "lon": -77.0227645}, {"type": "electric_scooter", "name": "9ca049075c5f1d0cc1f3a2fce224ff5a", "rental_uris": {"ios": "https://dc.lft.to/lastmile_qr_scan", "android": "https://dc.lft.to/lastmile_qr_scan"}, "fusion_lon": 0.0, "lat": 38.921591666666664, "is_disabled": 0, "bike_id": "9ca049075c5f1d0cc1f3a2fce224ff5a", "fusion_lat": 0.0, "is_reserved": 0, "lon": -77.03317883333334}, {"type": "electric_scooter", "name": "7e477eae42199881704da9266a574b21", "rental_uris": {"ios": "https://dc.lft.to/lastmile_qr_scan", "android": "https://dc.lft.to/lastmile_qr_scan"}, "fusion_lon": 0.0, "lat": 38.866831, "is_disabled": 0, "bike_id": "7e477eae42199881704da9266a574b21", "fusion_lat": 0.0, "is_reserved": 0, "lon": -76.9856465}, {"type": "electric_scooter", "name": "142e162cc35f9e03f17c968d84f0609d", "rental_uris": {"ios": "https://dc.lft.to/lastmile_qr_scan", "android": "https://dc.lft.to/lastmile_qr_scan"}, "fusion_lon": 0.0, "lat": 38.93193733333333, "is_disabled": 0, "bike_id": "142e162cc35f9e03f17c968d84f0609d", "fusion_lat": 0.0, "is_reserved": 0, "lon": -77.02353533333333}, {"type": "electric_scooter", "name": "ec3e4e87225214c6bce7f24886260981", "rental_uris": {"ios": "https://dc.lft.to/lastmile_qr_scan", "android": "https://dc.lft.to/lastmile_qr_scan"}, "fusion_lon": 0.0, "lat": 38.89061483333333, "is_disabled": 0, "bike_id": "ec3e4e87225214c6bce7f24886260981", "fusion_lat": 0.0, "is_reserved": 0, "lon": -76.9445365}, {"type": "electric_bike", "name": "9b9b27f872913507fa279bf60337c89f", "rental_uris": {"ios": "https://dc.lft.to/lastmile_qr_scan", "android": "https://dc.lft.to/lastmile_qr_scan"}, "fusion_lon": 0.0, "lat": 38.82788933333333, "is_disabled": 0, "bike_id": "9b9b27f872913507fa279bf60337c89f", "fusion_lat": 0.0, "is_reserved": 0, "lon": -77.12490183333334}, {"type": "electric_scooter", "name": "08f71b331106b0a85e005776ee75ecd8", "rental_uris": {"ios": "https://dc.lft.to/lastmile_qr_scan", "android": "https://dc.lft.to/lastmile_qr_scan"}, "fusion_lon": 0.0, "lat": 38.92470016666667, "is_disabled": 0, "bike_id": "08f71b331106b0a85e005776ee75ecd8", "fusion_lat": 0.0, "is_reserved": 0, "lon": -77.022173}, {"type": "electric_scooter", "name": "5d95a9e649ac796582cbdca568f5a574", "rental_uris": {"ios": "https://dc.lft.to/lastmile_qr_scan", "android": "https://dc.lft.to/lastmile_qr_scan"}, "fusion_lon": 0.0, "lat": 38.927212833333336, "is_disabled": 0, "bike_id": "5d95a9e649ac796582cbdca568f5a574", "fusion_lat": 0.0, "is_reserved": 0, "lon": -77.03996183333334}, {"type": "electric_bike", "name": "599f4ea6090643cf02bdf47addcf6332", "rental_uris": {"ios": "https://dc.lft.to/lastmile_qr_scan", "android": "https://dc.lft.to/lastmile_qr_scan"}, "fusion_lon": 0.0, "lat": 38.909575, "is_disabled": 0, "bike_id": "599f4ea6090643cf02bdf47addcf6332", "fusion_lat": 0.0, "is_reserved": 0, "lon": -76.98439316666666}, {"type": "electric_scooter", "name": "92e84ebb1d67fddb906b60359bb39d43", "rental_uris": {"ios": "https://dc.lft.to/lastmile_qr_scan", "android": "https://dc.lft.to/lastmile_qr_scan"}, "fusion_lon": 0.0, "lat": 38.907238166666666, "is_disabled": 0, "bike_id": "92e84ebb1d67fddb906b60359bb39d43", "fusion_lat": 0.0, "is_reserved": 0, "lon": -77.02374283333333}, {"type": "electric_scooter", "name": "becd84b1a18931d1cb4d70e6f7977b41", "rental_uris": {"ios": "https://dc.lft.to/lastmile_qr_scan", "android": "https://dc.lft.to/lastmile_qr_scan"}, "fusion_lon": 0.0, "lat": 38.90148683333334, "is_disabled": 0, "bike_id": "becd84b1a18931d1cb4d70e6f7977b41", "fusion_lat": 0.0, "is_reserved": 0, "lon": -77.04158433333333}, {"type": "electric_scooter", "name": "ecb16d1811bd32b70bc6459eb34f245f", "rental_uris": {"ios": "https://dc.lft.to/lastmile_qr_scan", "android": "https://dc.lft.to/lastmile_qr_scan"}, "fusion_lon": 0.0, "lat": 38.88537216666667, "is_disabled": 0, "bike_id": "ecb16d1811bd32b70bc6459eb34f245f", "fusion_lat": 0.0, "is_reserved": 0, "lon": -77.00056133333334}, {"type": "electric_bike", "name": "4d66b88de4059b1fe6f6669c5bcb82c0", "rental_uris": {"ios": "https://dc.lft.to/lastmile_qr_scan", "android": "https://dc.lft.to/lastmile_qr_scan"}, "fusion_lon": 0.0, "lat": 38.86523483333333, "is_disabled": 0, "bike_id": "4d66b88de4059b1fe6f6669c5bcb82c0", "fusion_lat": 0.0, "is_reserved": 0, "lon": -76.9734025}, {"type": "electric_scooter", "name": "30dfa44a8ca357a967e675a868ebf60a", "rental_uris": {"ios": "https://dc.lft.to/lastmile_qr_scan", "android": "https://dc.lft.to/lastmile_qr_scan"}, "fusion_lon": 0.0, "lat": 38.8841245, "is_disabled": 0, "bike_id": "30dfa44a8ca357a967e675a868ebf60a", "fusion_lat": 0.0, "is_reserved": 0, "lon": -77.01537166666667}, {"type": "electric_scooter", "name": "93563f7c182967c099409d016c04f34f", "rental_uris": {"ios": "https://dc.lft.to/lastmile_qr_scan", "android": "https://dc.lft.to/lastmile_qr_scan"}, "fusion_lon": 0.0, "lat": 38.911107, "is_disabled": 0, "bike_id": "93563f7c182967c099409d016c04f34f", "fusion_lat": 0.0, "is_reserved": 0, "lon": -77.0813455}, {"type": "electric_scooter", "name": "440eda8931c249a8bddb478c2c994eed", "rental_uris": {"ios": "https://dc.lft.to/lastmile_qr_scan", "android": "https://dc.lft.to/lastmile_qr_scan"}, "fusion_lon": 0.0, "lat": 38.898352833333334, "is_disabled": 0, "bike_id": "440eda8931c249a8bddb478c2c994eed", "fusion_lat": 0.0, "is_reserved": 0, "lon": -77.03346616666667}, {"type": "electric_scooter", "name": "d7704eae8fa2b0aad0c6cef892de22e3", "rental_uris": {"ios": "https://dc.lft.to/lastmile_qr_scan", "android": "https://dc.lft.to/lastmile_qr_scan"}, "fusion_lon": 0.0, "lat": 38.887439666666666, "is_disabled": 0, "bike_id": "d7704eae8fa2b0aad0c6cef892de22e3", "fusion_lat": 0.0, "is_reserved": 0, "lon": -77.02851466666667}, {"type": "electric_scooter", "name": "d6f6c915e8f4b2165ad2e851610b1bf8", "rental_uris": {"ios": "https://dc.lft.to/lastmile_qr_scan", "android": "https://dc.lft.to/lastmile_qr_scan"}, "fusion_lon": 0.0, "lat": 38.937295, "is_disabled": 0, "bike_id": "d6f6c915e8f4b2165ad2e851610b1bf8", "fusion_lat": 0.0, "is_reserved": 0, "lon": -77.02443183333334}, {"type": "electric_scooter", "name": "7c6304745acfb07d6aee96337f5becc7", "rental_uris": {"ios": "https://dc.lft.to/lastmile_qr_scan", "android": "https://dc.lft.to/lastmile_qr_scan"}, "fusion_lon": 0.0, "lat": 38.936084, "is_disabled": 0, "bike_id": "7c6304745acfb07d6aee96337f5becc7", "fusion_lat": 0.0, "is_reserved": 0, "lon": -77.05861316666666}, {"type": "electric_scooter", "name": "53dd9987a7daace8e04cabb071449a38", "rental_uris": {"ios": "https://dc.lft.to/lastmile_qr_scan", "android": "https://dc.lft.to/lastmile_qr_scan"}, "fusion_lon": 0.0, "lat": 38.85804483333333, "is_disabled": 0, "bike_id": "53dd9987a7daace8e04cabb071449a38", "fusion_lat": 0.0, "is_reserved": 0, "lon": -76.98655833333333}, {"type": "electric_scooter", "name": "7e907cbe2eff8b70cf865a9586a32c20", "rental_uris": {"ios": "https://dc.lft.to/lastmile_qr_scan", "android": "https://dc.lft.to/lastmile_qr_scan"}, "fusion_lon": 0.0, "lat": 38.8850055, "is_disabled": 0, "bike_id": "7e907cbe2eff8b70cf865a9586a32c20", "fusion_lat": 0.0, "is_reserved": 0, "lon": -77.00700383333333}, {"type": "electric_scooter", "name": "5cb4005510c9aad0edd93281e818f119", "rental_uris": {"ios": "https://dc.lft.to/lastmile_qr_scan", "android": "https://dc.lft.to/lastmile_qr_scan"}, "fusion_lon": 0.0, "lat": 38.866771, "is_disabled": 0, "bike_id": "5cb4005510c9aad0edd93281e818f119", "fusion_lat": 0.0, "is_reserved": 0, "lon": -76.98573816666666}, {"type": "electric_scooter", "name": "cfd76123ecee20518ffcff432d5a3df5", "rental_uris": {"ios": "https://dc.lft.to/lastmile_qr_scan", "android": "https://dc.lft.to/lastmile_qr_scan"}, "fusion_lon": 0.0, "lat": 38.86634216666667, "is_disabled": 0, "bike_id": "cfd76123ecee20518ffcff432d5a3df5", "fusion_lat": 0.0, "is_reserved": 0, "lon": -76.98714333333334}, {"type": "electric_scooter", "name": "a06f45570479f3bc34d3c013f1bb8907", "rental_uris": {"ios": "https://dc.lft.to/lastmile_qr_scan", "android": "https://dc.lft.to/lastmile_qr_scan"}, "fusion_lon": 0.0, "lat": 38.927447666666666, "is_disabled": 0, "bike_id": "a06f45570479f3bc34d3c013f1bb8907", "fusion_lat": 0.0, "is_reserved": 0, "lon": -77.02133083333334}, {"type": "electric_scooter", "name": "4a64014699ebfa22cff6dd9b0939f8cb", "rental_uris": {"ios": "https://dc.lft.to/lastmile_qr_scan", "android": "https://dc.lft.to/lastmile_qr_scan"}, "fusion_lon": 0.0, "lat": 38.939036333333334, "is_disabled": 0, "bike_id": "4a64014699ebfa22cff6dd9b0939f8cb", "fusion_lat": 0.0, "is_reserved": 0, "lon": -77.03331616666667}, {"type": "electric_scooter", "name": "8271ce8765f62f33432481e1b2f2e920", "rental_uris": {"ios": "https://dc.lft.to/lastmile_qr_scan", "android": "https://dc.lft.to/lastmile_qr_scan"}, "fusion_lon": 0.0, "lat": 38.91566383333333, "is_disabled": 0, "bike_id": "8271ce8765f62f33432481e1b2f2e920", "fusion_lat": 0.0, "is_reserved": 0, "lon": -77.03226933333333}, {"type": "electric_scooter", "name": "108d8b57a85f8d05293b3db4e60e1971", "rental_uris": {"ios": "https://dc.lft.to/lastmile_qr_scan", "android": "https://dc.lft.to/lastmile_qr_scan"}, "fusion_lon": 0.0, "lat": 38.89556983333333, "is_disabled": 0, "bike_id": "108d8b57a85f8d05293b3db4e60e1971", "fusion_lat": 0.0, "is_reserved": 0, "lon": -77.03960583333334}, {"type": "electric_scooter", "name": "d3ffeed122288f7e018b55299ac4bc12", "rental_uris": {"ios": "https://dc.lft.to/lastmile_qr_scan", "android": "https://dc.lft.to/lastmile_qr_scan"}, "fusion_lon": 0.0, "lat": 38.97522516666667, "is_disabled": 0, "bike_id": "d3ffeed122288f7e018b55299ac4bc12", "fusion_lat": 0.0, "is_reserved": 0, "lon": -77.01674766666666}, {"type": "electric_scooter", "name": "6203f34653d6e77a34d1cafb998257a8", "rental_uris": {"ios": "https://dc.lft.to/lastmile_qr_scan", "android": "https://dc.lft.to/lastmile_qr_scan"}, "fusion_lon": 0.0, "lat": 38.90950133333333, "is_disabled": 0, "bike_id": "6203f34653d6e77a34d1cafb998257a8", "fusion_lat": 0.0, "is_reserved": 0, "lon": -76.998955}, {"type": "electric_bike", "name": "f11dd001afcbc3fde7a04a6463ea5389", "rental_uris": {"ios": "https://dc.lft.to/lastmile_qr_scan", "android": "https://dc.lft.to/lastmile_qr_scan"}, "fusion_lon": 0.0, "lat": 38.90303766666667, "is_disabled": 0, "bike_id": "f11dd001afcbc3fde7a04a6463ea5389", "fusion_lat": 0.0, "is_reserved": 0, "lon": -76.9765485}, {"type": "electric_scooter", "name": "4277d4e59f7fff4c126b0c4b63251a7d", "rental_uris": {"ios": "https://dc.lft.to/lastmile_qr_scan", "android": "https://dc.lft.to/lastmile_qr_scan"}, "fusion_lon": 0.0, "lat": 38.942737, "is_disabled": 0, "bike_id": "4277d4e59f7fff4c126b0c4b63251a7d", "fusion_lat": 0.0, "is_reserved": 0, "lon": -77.01267366666667}, {"type": "electric_scooter", "name": "1780398aec0ab8375aa9033e4df6a649", "rental_uris": {"ios": "https://dc.lft.to/lastmile_qr_scan", "android": "https://dc.lft.to/lastmile_qr_scan"}, "fusion_lon": 0.0, "lat": 38.91860466666667, "is_disabled": 0, "bike_id": "1780398aec0ab8375aa9033e4df6a649", "fusion_lat": 0.0, "is_reserved": 0, "lon": -77.04509316666666}, {"type": "electric_scooter", "name": "ec1028a25ff072592a4a48f635a1c925", "rental_uris": {"ios": "https://dc.lft.to/lastmile_qr_scan", "android": "https://dc.lft.to/lastmile_qr_scan"}, "fusion_lon": 0.0, "lat": 38.8942775, "is_disabled": 0, "bike_id": "ec1028a25ff072592a4a48f635a1c925", "fusion_lat": 0.0, "is_reserved": 0, "lon": -77.000981}, {"type": "electric_bike", "name": "f9de4e5adca9e96dce7b3b2a9b5319b9", "rental_uris": {"ios": "https://dc.lft.to/lastmile_qr_scan", "android": "https://dc.lft.to/lastmile_qr_scan"}, "fusion_lon": 0.0, "lat": 38.8336725, "is_disabled": 0, "bike_id": "f9de4e5adca9e96dce7b3b2a9b5319b9", "fusion_lat": 0.0, "is_reserved": 0, "lon": -77.00307783333334}, {"type": "electric_scooter", "name": "29dbf9c787ea9fc5d5de82913b381094", "rental_uris": {"ios": "https://dc.lft.to/lastmile_qr_scan", "android": "https://dc.lft.to/lastmile_qr_scan"}, "fusion_lon": 0.0, "lat": 38.925337666666664, "is_disabled": 0, "bike_id": "29dbf9c787ea9fc5d5de82913b381094", "fusion_lat": 0.0, "is_reserved": 0, "lon": -77.03525733333333}, {"type": "electric_scooter", "name": "fa0e6d9d5eb7c68e3044a86d4ed6f0d8", "rental_uris": {"ios": "https://dc.lft.to/lastmile_qr_scan", "android": "https://dc.lft.to/lastmile_qr_scan"}, "fusion_lon": 0.0, "lat": 38.895363833333334, "is_disabled": 0, "bike_id": "fa0e6d9d5eb7c68e3044a86d4ed6f0d8", "fusion_lat": 0.0, "is_reserved": 0, "lon": -77.0282215}, {"type": "electric_scooter", "name": "64e9774f90ee2f7348c5418ff08949c7", "rental_uris": {"ios": "https://dc.lft.to/lastmile_qr_scan", "android": "https://dc.lft.to/lastmile_qr_scan"}, "fusion_lon": 0.0, "lat": 38.90965416666667, "is_disabled": 0, "bike_id": "64e9774f90ee2f7348c5418ff08949c7", "fusion_lat": 0.0, "is_reserved": 0, "lon": -77.02286566666666}, {"type": "electric_scooter", "name": "f85431850c913958e8480d47de3c407c", "rental_uris": {"ios": "https://dc.lft.to/lastmile_qr_scan", "android": "https://dc.lft.to/lastmile_qr_scan"}, "fusion_lon": 0.0, "lat": 38.92322216666667, "is_disabled": 0, "bike_id": "f85431850c913958e8480d47de3c407c", "fusion_lat": 0.0, "is_reserved": 0, "lon": -77.029714}, {"type": "electric_scooter", "name": "262e6a8ca01bf76e9c7405d92820b679", "rental_uris": {"ios": "https://dc.lft.to/lastmile_qr_scan", "android": "https://dc.lft.to/lastmile_qr_scan"}, "fusion_lon": 0.0, "lat": 38.905126, "is_disabled": 0, "bike_id": "262e6a8ca01bf76e9c7405d92820b679", "fusion_lat": 0.0, "is_reserved": 0, "lon": -77.06782666666666}, {"type": "electric_scooter", "name": "7ec0dd979d975fbc8b8c5ed4faf18dda", "rental_uris": {"ios": "https://dc.lft.to/lastmile_qr_scan", "android": "https://dc.lft.to/lastmile_qr_scan"}, "fusion_lon": 0.0, "lat": 38.8973035, "is_disabled": 0, "bike_id": "7ec0dd979d975fbc8b8c5ed4faf18dda", "fusion_lat": 0.0, "is_reserved": 0, "lon": -77.05526083333334}, {"type": "electric_scooter", "name": "dc90897d7ba9c955d1fb4f0cefa19172", "rental_uris": {"ios": "https://dc.lft.to/lastmile_qr_scan", "android": "https://dc.lft.to/lastmile_qr_scan"}, "fusion_lon": 0.0, "lat": 38.902845166666665, "is_disabled": 0, "bike_id": "dc90897d7ba9c955d1fb4f0cefa19172", "fusion_lat": 0.0, "is_reserved": 0, "lon": -77.03541633333333}, {"type": "electric_scooter", "name": "661cf34ee108ab87ec988da4df83e708", "rental_uris": {"ios": "https://dc.lft.to/lastmile_qr_scan", "android": "https://dc.lft.to/lastmile_qr_scan"}, "fusion_lon": 0.0, "lat": 38.89734833333333, "is_disabled": 0, "bike_id": "661cf34ee108ab87ec988da4df83e708", "fusion_lat": 0.0, "is_reserved": 0, "lon": -77.04859016666667}, {"type": "electric_scooter", "name": "ce603576d4e9d5e371b030c89c262488", "rental_uris": {"ios": "https://dc.lft.to/lastmile_qr_scan", "android": "https://dc.lft.to/lastmile_qr_scan"}, "fusion_lon": 0.0, "lat": 38.9427, "is_disabled": 0, "bike_id": "ce603576d4e9d5e371b030c89c262488", "fusion_lat": 0.0, "is_reserved": 0, "lon": -77.0325725}, {"type": "electric_scooter", "name": "6261b144965b7faea8dab3347a4e8bcc", "rental_uris": {"ios": "https://dc.lft.to/lastmile_qr_scan", "android": "https://dc.lft.to/lastmile_qr_scan"}, "fusion_lon": 0.0, "lat": 38.904092, "is_disabled": 0, "bike_id": "6261b144965b7faea8dab3347a4e8bcc", "fusion_lat": 0.0, "is_reserved": 0, "lon": -76.97329166666667}, {"type": "electric_scooter", "name": "96dad5e9acf072bd88920eb36b2c3907", "rental_uris": {"ios": "https://dc.lft.to/lastmile_qr_scan", "android": "https://dc.lft.to/lastmile_qr_scan"}, "fusion_lon": 0.0, "lat": 38.920631666666665, "is_disabled": 0, "bike_id": "96dad5e9acf072bd88920eb36b2c3907", "fusion_lat": 0.0, "is_reserved": 0, "lon": -77.03798716666667}, {"type": "electric_bike", "name": "bad85972e1b2b514b9f17aa9c0b5aae6", "rental_uris": {"ios": "https://dc.lft.to/lastmile_qr_scan", "android": "https://dc.lft.to/lastmile_qr_scan"}, "fusion_lon": 0.0, "lat": 38.920691166666664, "is_disabled": 0, "bike_id": "bad85972e1b2b514b9f17aa9c0b5aae6", "fusion_lat": 0.0, "is_reserved": 0, "lon": -77.02423116666667}, {"type": "electric_bike", "name": "0410f05cc1bade1e88135ee6e40009b1", "rental_uris": {"ios": "https://dc.lft.to/lastmile_qr_scan", "android": "https://dc.lft.to/lastmile_qr_scan"}, "fusion_lon": 0.0, "lat": 38.98766466666667, "is_disabled": 0, "bike_id": "0410f05cc1bade1e88135ee6e40009b1", "fusion_lat": 0.0, "is_reserved": 0, "lon": -77.1405755}, {"type": "electric_scooter", "name": "521a6420cc2d0b550103e52fd3dd58f3", "rental_uris": {"ios": "https://dc.lft.to/lastmile_qr_scan", "android": "https://dc.lft.to/lastmile_qr_scan"}, "fusion_lon": 0.0, "lat": 38.87243266666667, "is_disabled": 0, "bike_id": "521a6420cc2d0b550103e52fd3dd58f3", "fusion_lat": 0.0, "is_reserved": 0, "lon": -76.97726666666667}, {"type": "electric_scooter", "name": "474e7039bcb16acd2253c526eb0e9551", "rental_uris": {"ios": "https://dc.lft.to/lastmile_qr_scan", "android": "https://dc.lft.to/lastmile_qr_scan"}, "fusion_lon": 0.0, "lat": 38.9051685, "is_disabled": 0, "bike_id": "474e7039bcb16acd2253c526eb0e9551", "fusion_lat": 0.0, "is_reserved": 0, "lon": -77.0631055}, {"type": "electric_scooter", "name": "35eaa85006260dc5350f06ac144a2780", "rental_uris": {"ios": "https://dc.lft.to/lastmile_qr_scan", "android": "https://dc.lft.to/lastmile_qr_scan"}, "fusion_lon": 0.0, "lat": 38.88487533333333, "is_disabled": 0, "bike_id": "35eaa85006260dc5350f06ac144a2780", "fusion_lat": 0.0, "is_reserved": 0, "lon": -77.00710833333333}, {"type": "electric_scooter", "name": "21e7d598f2b9103ee0b43b194459b0f8", "rental_uris": {"ios": "https://dc.lft.to/lastmile_qr_scan", "android": "https://dc.lft.to/lastmile_qr_scan"}, "fusion_lon": 0.0, "lat": 38.923632, "is_disabled": 0, "bike_id": "21e7d598f2b9103ee0b43b194459b0f8", "fusion_lat": 0.0, "is_reserved": 0, "lon": -77.05056233333333}, {"type": "electric_scooter", "name": "a12e69440ad190e7ede895336ae71316", "rental_uris": {"ios": "https://dc.lft.to/lastmile_qr_scan", "android": "https://dc.lft.to/lastmile_qr_scan"}, "fusion_lon": 0.0, "lat": 38.927712666666665, "is_disabled": 0, "bike_id": "a12e69440ad190e7ede895336ae71316", "fusion_lat": 0.0, "is_reserved": 0, "lon": -77.027117}, {"type": "electric_scooter", "name": "55ce1916c0298e456642c04fae1c2853", "rental_uris": {"ios": "https://dc.lft.to/lastmile_qr_scan", "android": "https://dc.lft.to/lastmile_qr_scan"}, "fusion_lon": 0.0, "lat": 38.885206833333335, "is_disabled": 0, "bike_id": "55ce1916c0298e456642c04fae1c2853", "fusion_lat": 0.0, "is_reserved": 0, "lon": -77.01505333333333}, {"type": "electric_bike", "name": "1daf65b7c4415267100d4ad071e4b5bf", "rental_uris": {"ios": "https://dc.lft.to/lastmile_qr_scan", "android": "https://dc.lft.to/lastmile_qr_scan"}, "fusion_lon": 0.0, "lat": 38.949188166666666, "is_disabled": 0, "bike_id": "1daf65b7c4415267100d4ad071e4b5bf", "fusion_lat": 0.0, "is_reserved": 0, "lon": -77.0080195}, {"type": "electric_scooter", "name": "28961e5557609934dfe818bba6ca58b5", "rental_uris": {"ios": "https://dc.lft.to/lastmile_qr_scan", "android": "https://dc.lft.to/lastmile_qr_scan"}, "fusion_lon": 0.0, "lat": 38.90801883333334, "is_disabled": 0, "bike_id": "28961e5557609934dfe818bba6ca58b5", "fusion_lat": 0.0, "is_reserved": 0, "lon": -77.03454383333333}, {"type": "electric_scooter", "name": "e63d2f7886240ca2d41af5cbacc34c28", "rental_uris": {"ios": "https://dc.lft.to/lastmile_qr_scan", "android": "https://dc.lft.to/lastmile_qr_scan"}, "fusion_lon": 0.0, "lat": 38.88718983333333, "is_disabled": 0, "bike_id": "e63d2f7886240ca2d41af5cbacc34c28", "fusion_lat": 0.0, "is_reserved": 0, "lon": -76.99688533333334}, {"type": "electric_scooter", "name": "2f0ade288171a495bf5d719784d7a919", "rental_uris": {"ios": "https://dc.lft.to/lastmile_qr_scan", "android": "https://dc.lft.to/lastmile_qr_scan"}, "fusion_lon": 0.0, "lat": 38.873963333333336, "is_disabled": 0, "bike_id": "2f0ade288171a495bf5d719784d7a919", "fusion_lat": 0.0, "is_reserved": 0, "lon": -77.00029316666667}, {"type": "electric_scooter", "name": "785a310b070f7359a13e2137e1270e91", "rental_uris": {"ios": "https://dc.lft.to/lastmile_qr_scan", "android": "https://dc.lft.to/lastmile_qr_scan"}, "fusion_lon": 0.0, "lat": 38.91005783333333, "is_disabled": 0, "bike_id": "785a310b070f7359a13e2137e1270e91", "fusion_lat": 0.0, "is_reserved": 0, "lon": -76.99409016666667}, {"type": "electric_scooter", "name": "fc473a01a7c8ddac4a881a008e4f7048", "rental_uris": {"ios": "https://dc.lft.to/lastmile_qr_scan", "android": "https://dc.lft.to/lastmile_qr_scan"}, "fusion_lon": 0.0, "lat": 38.92754166666667, "is_disabled": 0, "bike_id": "fc473a01a7c8ddac4a881a008e4f7048", "fusion_lat": 0.0, "is_reserved": 0, "lon": -77.02112883333334}, {"type": "electric_scooter", "name": "b41098fefdf5d221eb192c6c1fec618c", "rental_uris": {"ios": "https://dc.lft.to/lastmile_qr_scan", "android": "https://dc.lft.to/lastmile_qr_scan"}, "fusion_lon": 0.0, "lat": 38.876686166666666, "is_disabled": 0, "bike_id": "b41098fefdf5d221eb192c6c1fec618c", "fusion_lat": 0.0, "is_reserved": 0, "lon": -77.00889}, {"type": "electric_scooter", "name": "3de0889ce94a0f2a64e48d6a518aeb98", "rental_uris": {"ios": "https://dc.lft.to/lastmile_qr_scan", "android": "https://dc.lft.to/lastmile_qr_scan"}, "fusion_lon": 0.0, "lat": 38.92085016666667, "is_disabled": 0, "bike_id": "3de0889ce94a0f2a64e48d6a518aeb98", "fusion_lat": 0.0, "is_reserved": 0, "lon": -77.01391833333334}, {"type": "electric_scooter", "name": "580520b03aff095069b7651278fdd2ac", "rental_uris": {"ios": "https://dc.lft.to/lastmile_qr_scan", "android": "https://dc.lft.to/lastmile_qr_scan"}, "fusion_lon": 0.0, "lat": 38.902424333333336, "is_disabled": 0, "bike_id": "580520b03aff095069b7651278fdd2ac", "fusion_lat": 0.0, "is_reserved": 0, "lon": -77.05949583333333}, {"type": "electric_scooter", "name": "b62cada0223d9d7e6d654b8e779092ba", "rental_uris": {"ios": "https://dc.lft.to/lastmile_qr_scan", "android": "https://dc.lft.to/lastmile_qr_scan"}, "fusion_lon": 0.0, "lat": 38.90061983333333, "is_disabled": 0, "bike_id": "b62cada0223d9d7e6d654b8e779092ba", "fusion_lat": 0.0, "is_reserved": 0, "lon": -77.04532316666666}, {"type": "electric_scooter", "name": "36d16ef6dafadba75779751c1060a383", "rental_uris": {"ios": "https://dc.lft.to/lastmile_qr_scan", "android": "https://dc.lft.to/lastmile_qr_scan"}, "fusion_lon": 0.0, "lat": 38.9084145, "is_disabled": 0, "bike_id": "36d16ef6dafadba75779751c1060a383", "fusion_lat": 0.0, "is_reserved": 0, "lon": -77.055746}, {"type": "electric_scooter", "name": "574dbf30072ac8d4bd49672feea59e7f", "rental_uris": {"ios": "https://dc.lft.to/lastmile_qr_scan", "android": "https://dc.lft.to/lastmile_qr_scan"}, "fusion_lon": 0.0, "lat": 38.905933166666664, "is_disabled": 0, "bike_id": "574dbf30072ac8d4bd49672feea59e7f", "fusion_lat": 0.0, "is_reserved": 0, "lon": -77.06561383333333}, {"type": "electric_scooter", "name": "bcd2acdad4ba4eb429f225b670ec932b", "rental_uris": {"ios": "https://dc.lft.to/lastmile_qr_scan", "android": "https://dc.lft.to/lastmile_qr_scan"}, "fusion_lon": 0.0, "lat": 38.919111666666666, "is_disabled": 0, "bike_id": "bcd2acdad4ba4eb429f225b670ec932b", "fusion_lat": 0.0, "is_reserved": 0, "lon": -77.03177416666666}, {"type": "electric_scooter", "name": "cba724d5b1928bef906894637cec5227", "rental_uris": {"ios": "https://dc.lft.to/lastmile_qr_scan", "android": "https://dc.lft.to/lastmile_qr_scan"}, "fusion_lon": 0.0, "lat": 38.854592, "is_disabled": 0, "bike_id": "cba724d5b1928bef906894637cec5227", "fusion_lat": 0.0, "is_reserved": 0, "lon": -76.97222716666667}, {"type": "electric_scooter", "name": "3ba064abf68ae46f50fc17dd65f021a9", "rental_uris": {"ios": "https://dc.lft.to/lastmile_qr_scan", "android": "https://dc.lft.to/lastmile_qr_scan"}, "fusion_lon": 0.0, "lat": 38.9193585, "is_disabled": 0, "bike_id": "3ba064abf68ae46f50fc17dd65f021a9", "fusion_lat": 0.0, "is_reserved": 0, "lon": -77.031792}, {"type": "electric_scooter", "name": "202336bbd6ab430c0d623c555deb562a", "rental_uris": {"ios": "https://dc.lft.to/lastmile_qr_scan", "android": "https://dc.lft.to/lastmile_qr_scan"}, "fusion_lon": 0.0, "lat": 38.87641266666667, "is_disabled": 0, "bike_id": "202336bbd6ab430c0d623c555deb562a", "fusion_lat": 0.0, "is_reserved": 0, "lon": -77.0074335}, {"type": "electric_bike", "name": "42f3acc51f724580544c8d1853d4a0cb", "rental_uris": {"ios": "https://dc.lft.to/lastmile_qr_scan", "android": "https://dc.lft.to/lastmile_qr_scan"}, "fusion_lon": 0.0, "lat": 39.0340775, "is_disabled": 0, "bike_id": "42f3acc51f724580544c8d1853d4a0cb", "fusion_lat": 0.0, "is_reserved": 0, "lon": -77.04167883333334}, {"type": "electric_scooter", "name": "8a6c36dfab2c33563905a0c62de16091", "rental_uris": {"ios": "https://dc.lft.to/lastmile_qr_scan", "android": "https://dc.lft.to/lastmile_qr_scan"}, "fusion_lon": 0.0, "lat": 38.887698, "is_disabled": 0, "bike_id": "8a6c36dfab2c33563905a0c62de16091", "fusion_lat": 0.0, "is_reserved": 0, "lon": -76.9775125}, {"type": "electric_scooter", "name": "0999f676694e470ff3cc591a39ee7ec6", "rental_uris": {"ios": "https://dc.lft.to/lastmile_qr_scan", "android": "https://dc.lft.to/lastmile_qr_scan"}, "fusion_lon": 0.0, "lat": 38.879067166666665, "is_disabled": 0, "bike_id": "0999f676694e470ff3cc591a39ee7ec6", "fusion_lat": 0.0, "is_reserved": 0, "lon": -77.02193733333333}, {"type": "electric_scooter", "name": "09bc940fb5601b17dfd243f6ff0e4f5d", "rental_uris": {"ios": "https://dc.lft.to/lastmile_qr_scan", "android": "https://dc.lft.to/lastmile_qr_scan"}, "fusion_lon": 0.0, "lat": 38.89045633333333, "is_disabled": 0, "bike_id": "09bc940fb5601b17dfd243f6ff0e4f5d", "fusion_lat": 0.0, "is_reserved": 0, "lon": -76.99038383333334}, {"type": "electric_scooter", "name": "8a732bfd1251e6f6bd4c3c13c3b067ae", "rental_uris": {"ios": "https://dc.lft.to/lastmile_qr_scan", "android": "https://dc.lft.to/lastmile_qr_scan"}, "fusion_lon": 0.0, "lat": 38.915346166666666, "is_disabled": 0, "bike_id": "8a732bfd1251e6f6bd4c3c13c3b067ae", "fusion_lat": 0.0, "is_reserved": 0, "lon": -77.01226433333333}, {"type": "electric_scooter", "name": "a5b7348bcd428848aa22312174eb82b9", "rental_uris": {"ios": "https://dc.lft.to/lastmile_qr_scan", "android": "https://dc.lft.to/lastmile_qr_scan"}, "fusion_lon": 0.0, "lat": 38.91920833333333, "is_disabled": 0, "bike_id": "a5b7348bcd428848aa22312174eb82b9", "fusion_lat": 0.0, "is_reserved": 0, "lon": -77.03183566666667}, {"type": "electric_scooter", "name": "3b623a92f1b168a484c6efa53ec2b399", "rental_uris": {"ios": "https://dc.lft.to/lastmile_qr_scan", "android": "https://dc.lft.to/lastmile_qr_scan"}, "fusion_lon": 0.0, "lat": 38.8848515, "is_disabled": 0, "bike_id": "3b623a92f1b168a484c6efa53ec2b399", "fusion_lat": 0.0, "is_reserved": 0, "lon": -77.00711316666667}, {"type": "electric_scooter", "name": "b8ce20c6fce6c0cf16777cf73548cd22", "rental_uris": {"ios": "https://dc.lft.to/lastmile_qr_scan", "android": "https://dc.lft.to/lastmile_qr_scan"}, "fusion_lon": 0.0, "lat": 38.90038333333333, "is_disabled": 0, "bike_id": "b8ce20c6fce6c0cf16777cf73548cd22", "fusion_lat": 0.0, "is_reserved": 0, "lon": -77.00191716666667}, {"type": "electric_scooter", "name": "32b5346613d628514873fc3321d9c879", "rental_uris": {"ios": "https://dc.lft.to/lastmile_qr_scan", "android": "https://dc.lft.to/lastmile_qr_scan"}, "fusion_lon": 0.0, "lat": 38.90680283333333, "is_disabled": 0, "bike_id": "32b5346613d628514873fc3321d9c879", "fusion_lat": 0.0, "is_reserved": 0, "lon": -76.98494266666667}, {"type": "electric_scooter", "name": "94799d4b33b26d570f9a26c6364e37c6", "rental_uris": {"ios": "https://dc.lft.to/lastmile_qr_scan", "android": "https://dc.lft.to/lastmile_qr_scan"}, "fusion_lon": 0.0, "lat": 38.943147333333336, "is_disabled": 0, "bike_id": "94799d4b33b26d570f9a26c6364e37c6", "fusion_lat": 0.0, "is_reserved": 0, "lon": -77.01727933333333}, {"type": "electric_scooter", "name": "52020c6c01de3ee00484397b78015638", "rental_uris": {"ios": "https://dc.lft.to/lastmile_qr_scan", "android": "https://dc.lft.to/lastmile_qr_scan"}, "fusion_lon": 0.0, "lat": 38.920972666666664, "is_disabled": 0, "bike_id": "52020c6c01de3ee00484397b78015638", "fusion_lat": 0.0, "is_reserved": 0, "lon": -77.03175366666666}, {"type": "electric_scooter", "name": "40363380a783685b8cc059148db53ef2", "rental_uris": {"ios": "https://dc.lft.to/lastmile_qr_scan", "android": "https://dc.lft.to/lastmile_qr_scan"}, "fusion_lon": 0.0, "lat": 38.88639666666667, "is_disabled": 0, "bike_id": "40363380a783685b8cc059148db53ef2", "fusion_lat": 0.0, "is_reserved": 0, "lon": -77.01545466666667},