{"data": {"bikes": [{"is_reserved": 0, "fusion_lon": 0.0, "fusion_lat": 0.0, "name": "5d58a1dadfa8ce88f05b6ffa8574a534", "type": "electric_scooter", "is_disabled": 0, "lat": 38.9344525, "rental_uris": {"android": "https://dc.lft.to/lastmile_qr_scan", "ios": "https://dc.lft.to/lastmile_qr_scan"}, "bike_id": "5d58a1dadfa8ce88f05b6ffa8574a534", "lon": -76.998804}, {"is_reserved": 0, "fusion_lon": 0.0, "fusion_lat": 0.0, "name": "87191b21d8cd7bfa9f7934e461323c1f", "type": "electric_scooter", "is_disabled": 0, "lat": 38.92682683333334, "rental_uris": {"android": "https://dc.lft.to/lastmile_qr_scan", "ios": "https://dc.lft.to/lastmile_qr_scan"}, "bike_id": "87191b21d8cd7bfa9f7934e461323c1f", "lon": -77.0277945}, {"is_reserved": 0, "fusion_lon": 0.0, "fusion_lat": 0.0, "name": "f4eca52a483ca3ec1aaefde477072121", "type": "electric_scooter", "is_disabled": 0, "lat": 38.921678166666666, "rental_uris": {"android": "https://dc.lft.to/lastmile_qr_scan", "ios": "https://dc.lft.to/lastmile_qr_scan"}, "bike_id": "f4eca52a483ca3ec1aaefde477072121", "lon": -77.04010333333333}, {"is_reserved": 0, "fusion_lon": 0.0, "fusion_lat": 0.0, "name": "06c553731e71197df3f5e52e93a9ce1f", "type": "electric_scooter", "is_disabled": 0, "lat": 38.90063133333334, "rental_uris": {"android": "https://dc.lft.to/lastmile_qr_scan", "ios": "https://dc.lft.to/lastmile_qr_scan"}, "bike_id": "06c553731e71197df3f5e52e93a9ce1f", "lon": -76.9469445}, {"is_reserved": 0, "fusion_lon": 0.0, "fusion_lat": 0.0, "name": "d3a3e0fe87d042e3c844d9a845ad0bd1", "type": "electric_scooter", "is_disabled": 0, "lat": 38.89221916666666, "rental_uris": {"android": "https://dc.lft.to/lastmile_qr_scan", "ios": "https://dc.lft.to/lastmile_qr_scan"}, "bike_id": "d3a3e0fe87d042e3c844d9a845ad0bd1", "lon": -77.02631883333333}, {"is_reserved": 0, "fusion_lon": 0.0, "fusion_lat": 0.0, "name": "9b6c4d93aec5ddfecb3a92ae0a53df4d", "type": "electric_bike", "is_disabled": 0, "lat": 38.9627465, "rental_uris": {"android": "https://dc.lft.to/lastmile_qr_scan", "ios": "https://dc.lft.to/lastmile_qr_scan"}, "bike_id": "9b6c4d93aec5ddfecb3a92ae0a53df4d", "lon": -77.0145455}, {"is_reserved": 0, "fusion_lon": 0.0, "fusion_lat": 0.0, "name": "e0e3bba1494aa8ed42310bba861c6934", "type": "electric_bike", "is_disabled": 0, "lat": 38.93091716666667, "rental_uris": {"android": "https://dc.lft.to/lastmile_qr_scan", "ios": "https://dc.lft.to/lastmile_qr_scan"}, "bike_id": "e0e3bba1494aa8ed42310bba861c6934", "lon": -77.025991}, {"is_reserved": 0, "fusion_lon": 0.0, "fusion_lat": 0.0, "name": "9040bff7b58d2714fde81a59d0010dc6", "type": "electric_scooter", "is_disabled": 0, "lat": 38.93293933333333, "rental_uris": {"android": "https://dc.lft.to/lastmile_qr_scan", "ios": "https://dc.lft.to/lastmile_qr_scan"}, "bike_id": "9040bff7b58d2714fde81a59d0010dc6", "lon": -77.02183}, {"is_reserved": 0, "fusion_lon": 0.0, "fusion_lat": 0.0, "name": "4eb920e34ac2b7092b4fe2d8a1259699", "type": "electric_scooter", "is_disabled": 0, "lat": 38.886108166666666, "rental_uris": {"android": "https://dc.lft.to/lastmile_qr_scan", "ios": "https://dc.lft.to/lastmile_qr_scan"}, "bike_id": "4eb920e34ac2b7092b4fe2d8a1259699", "lon": -76.995119}, {"is_reserved": 0, "fusion_lon": 0.0, "fusion_lat": 0.0, "name": "58e3a1e430dfff5bc8859db7a776f9c4", "type": "electric_scooter", "is_disabled": 0, "lat": 38.9268025, "rental_uris": {"android": "https://dc.lft.to/lastmile_qr_scan", "ios": "https://dc.lft.to/lastmile_qr_scan"}, "bike_id": "58e3a1e430dfff5bc8859db7a776f9c4", "lon": -77.04353483333334}, {"is_reserved": 0, "fusion_lon": 0.0, "fusion_lat": 0.0, "name": "a5054cb9fd5f7f5b5f078773926da61d", "type": "electric_scooter", "is_disabled": 0, "lat": 38.9226455, "rental_uris": {"android": "https://dc.lft.to/lastmile_qr_scan", "ios": "https://dc.lft.to/lastmile_qr_scan"}, "bike_id": "a5054cb9fd5f7f5b5f078773926da61d", "lon": -77.01824133333334}, {"is_reserved": 0, "fusion_lon": 0.0, "fusion_lat": 0.0, "name": "454f4c84a80e7ed7df5af4f3a35d6e8b", "type": "electric_scooter", "is_disabled": 0, "lat": 38.897287666666664, "rental_uris": {"android": "https://dc.lft.to/lastmile_qr_scan", "ios": "https://dc.lft.to/lastmile_qr_scan"}, "bike_id": "454f4c84a80e7ed7df5af4f3a35d6e8b", "lon": -77.05522883333333}, {"is_reserved": 0, "fusion_lon": 0.0, "fusion_lat": 0.0, "name": "840c7e6f0e01c27fcee6581cc03d46da", "type": "electric_bike", "is_disabled": 0, "lat": 38.89651416666667, "rental_uris": {"android": "https://dc.lft.to/lastmile_qr_scan", "ios": "https://dc.lft.to/lastmile_qr_scan"}, "bike_id": "840c7e6f0e01c27fcee6581cc03d46da", "lon": -76.9301945}, {"is_reserved": 0, "fusion_lon": 0.0, "fusion_lat": 0.0, "name": "157b5085bab199d763ad5c247682eb66", "type": "electric_bike", "is_disabled": 0, "lat": 38.9032815, "rental_uris": {"android": "https://dc.lft.to/lastmile_qr_scan", "ios": "https://dc.lft.to/lastmile_qr_scan"}, "bike_id": "157b5085bab199d763ad5c247682eb66", "lon": -76.97536916666667}, {"is_reserved": 0, "fusion_lon": 0.0, "fusion_lat": 0.0, "name": "75a056ffc014751cf1b77b9c352adb20", "type": "electric_bike", "is_disabled": 0, "lat": 38.96738416666667, "rental_uris": {"android": "https://dc.lft.to/lastmile_qr_scan", "ios": "https://dc.lft.to/lastmile_qr_scan"}, "bike_id": "75a056ffc014751cf1b77b9c352adb20", "lon": -76.96042}, {"is_reserved": 0, "fusion_lon": 0.0, "fusion_lat": 0.0, "name": "3bdae47684633e9fd822d2cf45f7edce", "type": "electric_scooter", "is_disabled": 0, "lat": 38.91769133333333, "rental_uris": {"android": "https://dc.lft.to/lastmile_qr_scan", "ios": "https://dc.lft.to/lastmile_qr_scan"}, "bike_id": "3bdae47684633e9fd822d2cf45f7edce", "lon": -77.03635233333334}, {"is_reserved": 0, "fusion_lon": 0.0, "fusion_lat": 0.0, "name": "ab5630de972e67785dcda915455afbd2", "type": "electric_scooter", "is_disabled": 0, "lat": 38.92007, "rental_uris": {"android": "https://dc.lft.to/lastmile_qr_scan", "ios": "https://dc.lft.to/lastmile_qr_scan"}, "bike_id": "ab5630de972e67785dcda915455afbd2", "lon": -77.041679}, {"is_reserved": 0, "fusion_lon": 0.0, "fusion_lat": 0.0, "name": "6760157b2796b7ef1bcb63e70e06bab2", "type": "electric_bike", "is_disabled": 0, "lat": 38.938127333333334, "rental_uris": {"android": "https://dc.lft.to/lastmile_qr_scan", "ios": "https://dc.lft.to/lastmile_qr_scan"}, "bike_id": "6760157b2796b7ef1bcb63e70e06bab2", "lon": -77.06861166666667}, {"is_reserved": 0, "fusion_lon": 0.0, "fusion_lat": 0.0, "name": "daa50e61cdfc8ebda75699e9a78ad4ad", "type": "electric_scooter", "is_disabled": 0, "lat": 38.928461, "rental_uris": {"android": "https://dc.lft.to/lastmile_qr_scan", "ios": "https://dc.lft.to/lastmile_qr_scan"}, "bike_id": "daa50e61cdfc8ebda75699e9a78ad4ad", "lon": -76.99605716666667}, {"is_reserved": 0, "fusion_lon": 0.0, "fusion_lat": 0.0, "name": "47d9c496bd3d9963f63b8ae3f2446aa7", "type": "electric_scooter", "is_disabled": 0, "lat": 38.900228, "rental_uris": {"android": "https://dc.lft.to/lastmile_qr_scan", "ios": "https://dc.lft.to/lastmile_qr_scan"}, "bike_id": "47d9c496bd3d9963f63b8ae3f2446aa7", "lon": -77.0068155}, {"is_reserved": 0, "fusion_lon": 0.0, "fusion_lat": 0.0, "name": "a13f08ad8fbf99f96837af6f7208750b", "type": "electric_scooter", "is_disabled": 0, "lat": 38.9218335, "rental_uris": {"android": "https://dc.lft.to/lastmile_qr_scan", "ios": "https://dc.lft.to/lastmile_qr_scan"}, "bike_id": "a13f08ad8fbf99f96837af6f7208750b", "lon": -77.0264645}, {"is_reserved": 0, "fusion_lon": 0.0, "fusion_lat": 0.0, "name": "1881ad5a129c0c17d563706e42aa995d", "type": "electric_scooter", "is_disabled": 0, "lat": 38.905326333333335, "rental_uris": {"android": "https://dc.lft.to/lastmile_qr_scan", "ios": "https://dc.lft.to/lastmile_qr_scan"}, "bike_id": "1881ad5a129c0c17d563706e42aa995d", "lon": -77.04338166666666}, {"is_reserved": 0, "fusion_lon": 0.0, "fusion_lat": 0.0, "name": "032c64b3d356253d1a6a2a2a4189295e", "type": "electric_scooter", "is_disabled": 0, "lat": 38.87662016666667, "rental_uris": {"android": "https://dc.lft.to/lastmile_qr_scan", "ios": "https://dc.lft.to/lastmile_qr_scan"}, "bike_id": "032c64b3d356253d1a6a2a2a4189295e", "lon": -77.01951183333334}, {"is_reserved": 0, "fusion_lon": 0.0, "fusion_lat": 0.0, "name": "4d7b34c5b615f10502cdb08e98548be1", "type": "electric_scooter", "is_disabled": 0, "lat": 38.90504116666666, "rental_uris": {"android": "https://dc.lft.to/lastmile_qr_scan", "ios": "https://dc.lft.to/lastmile_qr_scan"}, "bike_id": "4d7b34c5b615f10502cdb08e98548be1", "lon": -77.046469}, {"is_reserved": 0, "fusion_lon": 0.0, "fusion_lat": 0.0, "name": "474c5a31559c8d88ed1232ebec31f99c", "type": "electric_scooter", "is_disabled": 0, "lat": 38.902539166666664, "rental_uris": {"android": "https://dc.lft.to/lastmile_qr_scan", "ios": "https://dc.lft.to/lastmile_qr_scan"}, "bike_id": "474c5a31559c8d88ed1232ebec31f99c", "lon": -77.01778516666667}, {"is_reserved": 0, "fusion_lon": 0.0, "fusion_lat": 0.0, "name": "a595bcb0a6919a32a8c9f50134a95490", "type": "electric_bike", "is_disabled": 0, "lat": 38.969618, "rental_uris": {"android": "https://dc.lft.to/lastmile_qr_scan", "ios": "https://dc.lft.to/lastmile_qr_scan"}, "bike_id": "a595bcb0a6919a32a8c9f50134a95490", "lon": -76.95750216666667}, {"is_reserved": 0, "fusion_lon": 0.0, "fusion_lat": 0.0, "name": "ee50c0d137e7df43dfa4bdd5fe4e3b84", "type": "electric_scooter", "is_disabled": 0, "lat": 38.89224383333333, "rental_uris": {"android": "https://dc.lft.to/lastmile_qr_scan", "ios": "https://dc.lft.to/lastmile_qr_scan"}, "bike_id": "ee50c0d137e7df43dfa4bdd5fe4e3b84", "lon": -77.0438115}, {"is_reserved": 0, "fusion_lon": 0.0, "fusion_lat": 0.0, "name": "87d0c305385b66ed42cb23214590480a", "type": "electric_scooter", "is_disabled": 0, "lat": 38.899588333333334, "rental_uris": {"android": "https://dc.lft.to/lastmile_qr_scan", "ios": "https://dc.lft.to/lastmile_qr_scan"}, "bike_id": "87d0c305385b66ed42cb23214590480a", "lon": -77.04249566666667}, {"is_reserved": 0, "fusion_lon": 0.0, "fusion_lat": 0.0, "name": "5abb4519bf5b530ed3c5d3f0cfdb26b0", "type": "electric_scooter", "is_disabled": 0, "lat": 38.89219766666667, "rental_uris": {"android": "https://dc.lft.to/lastmile_qr_scan", "ios": "https://dc.lft.to/lastmile_qr_scan"}, "bike_id": "5abb4519bf5b530ed3c5d3f0cfdb26b0", "lon": -77.043734}, {"is_reserved": 0, "fusion_lon": 0.0, "fusion_lat": 0.0, "name": "62a585e89a963720f74df30fd885ad25", "type": "electric_scooter", "is_disabled": 0, "lat": 38.892964666666664, "rental_uris": {"android": "https://dc.lft.to/lastmile_qr_scan", "ios": "https://dc.lft.to/lastmile_qr_scan"}, "bike_id": "62a585e89a963720f74df30fd885ad25", "lon": -76.939264}, {"is_reserved": 0, "fusion_lon": 0.0, "fusion_lat": 0.0, "name": "6a4169b18c97ebe2a27235485624f2d6", "type": "electric_scooter", "is_disabled": 0, "lat": 38.881395, "rental_uris": {"android": "https://dc.lft.to/lastmile_qr_scan", "ios": "https://dc.lft.to/lastmile_qr_scan"}, "bike_id": "6a4169b18c97ebe2a27235485624f2d6", "lon": -77.01693416666667}, {"is_reserved": 0, "fusion_lon": 0.0, "fusion_lat": 0.0, "name": "f27980ecfd9d708919d68d0004849ba9", "type": "electric_scooter", "is_disabled": 0, "lat": 38.909655, "rental_uris": {"android": "https://dc.lft.to/lastmile_qr_scan", "ios": "https://dc.lft.to/lastmile_qr_scan"}, "bike_id": "f27980ecfd9d708919d68d0004849ba9", "lon": -77.04229983333333}, {"is_reserved": 0, "fusion_lon": 0.0, "fusion_lat": 0.0, "name": "e2dfe511ace982c71b1d94b0f611323d", "type": "electric_scooter", "is_disabled": 0, "lat": 38.93673533333333, "rental_uris": {"android": "https://dc.lft.to/lastmile_qr_scan", "ios": "https://dc.lft.to/lastmile_qr_scan"}, "bike_id": "e2dfe511ace982c71b1d94b0f611323d", "lon": -77.03576383333333}, {"is_reserved": 0, "fusion_lon": 0.0, "fusion_lat": 0.0, "name": "7f867cbeb3b734cc926f2ff69ae65779", "type": "electric_scooter", "is_disabled": 0, "lat": 38.905545833333335, "rental_uris": {"android": "https://dc.lft.to/lastmile_qr_scan", "ios": "https://dc.lft.to/lastmile_qr_scan"}, "bike_id": "7f867cbeb3b734cc926f2ff69ae65779", "lon": -77.004073}, {"is_reserved": 0, "fusion_lon": 0.0, "fusion_lat": 0.0, "name": "ac34744c827538dc5b2658514f3f31b8", "type": "electric_scooter", "is_disabled": 0, "lat": 38.907300166666666, "rental_uris": {"android": "https://dc.lft.to/lastmile_qr_scan", "ios": "https://dc.lft.to/lastmile_qr_scan"}, "bike_id": "ac34744c827538dc5b2658514f3f31b8", "lon": -76.98690616666667}, {"is_reserved": 0, "fusion_lon": 0.0, "fusion_lat": 0.0, "name": "5a7e93a16fdd5ea6962e67e5e86d983a", "type": "electric_scooter", "is_disabled": 0, "lat": 38.919906166666664, "rental_uris": {"android": "https://dc.lft.to/lastmile_qr_scan", "ios": "https://dc.lft.to/lastmile_qr_scan"}, "bike_id": "5a7e93a16fdd5ea6962e67e5e86d983a", "lon": -77.03246433333334}, {"is_reserved": 0, "fusion_lon": 0.0, "fusion_lat": 0.0, "name": "740f32f69fea6a4c9295e3f7d32fd8e2", "type": "electric_scooter", "is_disabled": 0, "lat": 38.872323, "rental_uris": {"android": "https://dc.lft.to/lastmile_qr_scan", "ios": "https://dc.lft.to/lastmile_qr_scan"}, "bike_id": "740f32f69fea6a4c9295e3f7d32fd8e2", "lon": -77.0115855}, {"is_reserved": 0, "fusion_lon": 0.0, "fusion_lat": 0.0, "name": "0b8505ca78a96e8e0ad482b4a6f0fa76", "type": "electric_bike", "is_disabled": 0, "lat": 38.959343, "rental_uris": {"android": "https://dc.lft.to/lastmile_qr_scan", "ios": "https://dc.lft.to/lastmile_qr_scan"}, "bike_id": "0b8505ca78a96e8e0ad482b4a6f0fa76", "lon": -76.92528033333333}, {"is_reserved": 0, "fusion_lon": 0.0, "fusion_lat": 0.0, "name": "47e38fd1ed08ed339ba0ce26cd904025", "type": "electric_scooter", "is_disabled": 0, "lat": 38.899179833333335, "rental_uris": {"android": "https://dc.lft.to/lastmile_qr_scan", "ios": "https://dc.lft.to/lastmile_qr_scan"}, "bike_id": "47e38fd1ed08ed339ba0ce26cd904025", "lon": -76.933519}, {"is_reserved": 0, "fusion_lon": 0.0, "fusion_lat": 0.0, "name": "d64c5bf6fa118af1c66100ed354da213", "type": "electric_scooter", "is_disabled": 0, "lat": 38.901696, "rental_uris": {"android": "https://dc.lft.to/lastmile_qr_scan", "ios": "https://dc.lft.to/lastmile_qr_scan"}, "bike_id": "d64c5bf6fa118af1c66100ed354da213", "lon": -77.02295183333334}, {"is_reserved": 0, "fusion_lon": 0.0, "fusion_lat": 0.0, "name": "e18395b1b7f80a007bffee422c1834b9", "type": "electric_scooter", "is_disabled": 0, "lat": 38.90159083333333, "rental_uris": {"android": "https://dc.lft.to/lastmile_qr_scan", "ios": "https://dc.lft.to/lastmile_qr_scan"}, "bike_id": "e18395b1b7f80a007bffee422c1834b9", "lon": -76.97631133333333}, {"is_reserved": 0, "fusion_lon": 0.0, "fusion_lat": 0.0, "name": "eff0e753cef80287fc09140ac0551bbe", "type": "electric_scooter", "is_disabled": 0, "lat": 38.917168333333336, "rental_uris": {"android": "https://dc.lft.to/lastmile_qr_scan", "ios": "https://dc.lft.to/lastmile_qr_scan"}, "bike_id": "eff0e753cef80287fc09140ac0551bbe", "lon": -77.00885}, {"is_reserved": 0, "fusion_lon": 0.0, "fusion_lat": 0.0, "name": "33b8fa024cbc0e321ac2cd6ef1778415", "type": "electric_scooter", "is_disabled": 0, "lat": 38.92400583333333, "rental_uris": {"android": "https://dc.lft.to/lastmile_qr_scan", "ios": "https://dc.lft.to/lastmile_qr_scan"}, "bike_id": "33b8fa024cbc0e321ac2cd6ef1778415", "lon": -77.026979}, {"is_reserved": 0, "fusion_lon": 0.0, "fusion_lat": 0.0, "name": "fad9f0f9d57df4e9e91d1c52c0ab9fc4", "type": "electric_scooter", "is_disabled": 0, "lat": 38.90145716666667, "rental_uris": {"android": "https://dc.lft.to/lastmile_qr_scan", "ios": "https://dc.lft.to/lastmile_qr_scan"}, "bike_id": "fad9f0f9d57df4e9e91d1c52c0ab9fc4", "lon": -77.0000985}, {"is_reserved": 0, "fusion_lon": 0.0, "fusion_lat": 0.0, "name": "d7218cc1d83f1e1d41d34b06ab73622c", "type": "electric_scooter", "is_disabled": 0, "lat": 38.90730533333333, "rental_uris": {"android": "https://dc.lft.to/lastmile_qr_scan", "ios": "https://dc.lft.to/lastmile_qr_scan"}, "bike_id": "d7218cc1d83f1e1d41d34b06ab73622c", "lon": -77.048142}, {"is_reserved": 0, "fusion_lon": 0.0, "fusion_lat": 0.0, "name": "5b9d0cbd7952dea295f3201cdf75603f", "type": "electric_scooter", "is_disabled": 0, "lat": 38.918007, "rental_uris": {"android": "https://dc.lft.to/lastmile_qr_scan", "ios": "https://dc.lft.to/lastmile_qr_scan"}, "bike_id": "5b9d0cbd7952dea295f3201cdf75603f", "lon": -77.03189}, {"is_reserved": 0, "fusion_lon": 0.0, "fusion_lat": 0.0, "name": "579bd8c83b43d6d5f2f65e085a8f9547", "type": "electric_scooter", "is_disabled": 0, "lat": 38.901349333333336, "rental_uris": {"android": "https://dc.lft.to/lastmile_qr_scan", "ios": "https://dc.lft.to/lastmile_qr_scan"}, "bike_id": "579bd8c83b43d6d5f2f65e085a8f9547", "lon": -77.04020333333334}, {"is_reserved": 0, "fusion_lon": 0.0, "fusion_lat": 0.0, "name": "6067d90cea23768fd301a7eeafc16f6a", "type": "electric_scooter", "is_disabled": 0, "lat": 38.903483666666666, "rental_uris": {"android": "https://dc.lft.to/lastmile_qr_scan", "ios": "https://dc.lft.to/lastmile_qr_scan"}, "bike_id": "6067d90cea23768fd301a7eeafc16f6a", "lon": -77.00577766666666}, {"is_reserved": 0, "fusion_lon": 0.0, "fusion_lat": 0.0, "name": "787b73733a33977b079fe1b5701bb9c0", "type": "electric_scooter", "is_disabled": 0, "lat": 38.913855833333336, "rental_uris": {"android": "https://dc.lft.to/lastmile_qr_scan", "ios": "https://dc.lft.to/lastmile_qr_scan"}, "bike_id": "787b73733a33977b079fe1b5701bb9c0", "lon": -77.01697816666666}, {"is_reserved": 0, "fusion_lon": 0.0, "fusion_lat": 0.0, "name": "3c171c1ce2938dd8530357c3b9d0d514", "type": "electric_scooter", "is_disabled": 0, "lat": 38.89018016666667, "rental_uris": {"android": "https://dc.lft.to/lastmile_qr_scan", "ios": "https://dc.lft.to/lastmile_qr_scan"}, "bike_id": "3c171c1ce2938dd8530357c3b9d0d514", "lon": -76.93730833333333}, {"is_reserved": 0, "fusion_lon": 0.0, "fusion_lat": 0.0, "name": "2e44a582da800805fab1f6b074bb3e04", "type": "electric_scooter", "is_disabled": 0, "lat": 38.909720166666666, "rental_uris": {"android": "https://dc.lft.to/lastmile_qr_scan", "ios": "https://dc.lft.to/lastmile_qr_scan"}, "bike_id": "2e44a582da800805fab1f6b074bb3e04", "lon": -77.03861866666666}, {"is_reserved": 0, "fusion_lon": 0.0, "fusion_lat": 0.0, "name": "a8ac933a2d6c83ded6387dbb66b143a8", "type": "electric_scooter", "is_disabled": 0, "lat": 38.91856133333334, "rental_uris": {"android": "https://dc.lft.to/lastmile_qr_scan", "ios": "https://dc.lft.to/lastmile_qr_scan"}, "bike_id": "a8ac933a2d6c83ded6387dbb66b143a8", "lon": -77.04460483333334}, {"is_reserved": 0, "fusion_lon": 0.0, "fusion_lat": 0.0, "name": "d39e449b1a976de58c1865ecc5f80776", "type": "electric_scooter", "is_disabled": 0, "lat": 38.93487483333333, "rental_uris": {"android": "https://dc.lft.to/lastmile_qr_scan", "ios": "https://dc.lft.to/lastmile_qr_scan"}, "bike_id": "d39e449b1a976de58c1865ecc5f80776", "lon": -77.06482016666666}, {"is_reserved": 0, "fusion_lon": 0.0, "fusion_lat": 0.0, "name": "6fba413650b28ab819ff64de1971f7a8", "type": "electric_scooter", "is_disabled": 0, "lat": 38.898218166666666, "rental_uris": {"android": "https://dc.lft.to/lastmile_qr_scan", "ios": "https://dc.lft.to/lastmile_qr_scan"}, "bike_id": "6fba413650b28ab819ff64de1971f7a8", "lon": -77.04015066666666}, {"is_reserved": 0, "fusion_lon": 0.0, "fusion_lat": 0.0, "name": "dee3b61ba0829ab0ea95b50b5630b322", "type": "electric_scooter", "is_disabled": 0, "lat": 38.907950666666665, "rental_uris": {"android": "https://dc.lft.to/lastmile_qr_scan", "ios": "https://dc.lft.to/lastmile_qr_scan"}, "bike_id": "dee3b61ba0829ab0ea95b50b5630b322", "lon": -77.03823166666666}, {"is_reserved": 0, "fusion_lon": 0.0, "fusion_lat": 0.0, "name": "0f95d0dc3112e0f8f462bff2ae6e0604", "type": "electric_scooter", "is_disabled": 0, "lat": 38.9520065, "rental_uris": {"android": "https://dc.lft.to/lastmile_qr_scan", "ios": "https://dc.lft.to/lastmile_qr_scan"}, "bike_id": "0f95d0dc3112e0f8f462bff2ae6e0604", "lon": -77.02728216666667}, {"is_reserved": 0, "fusion_lon": 0.0, "fusion_lat": 0.0, "name": "52b91374314d2f06c2f9210c7722f983", "type": "electric_scooter", "is_disabled": 0, "lat": 38.875451, "rental_uris": {"android": "https://dc.lft.to/lastmile_qr_scan", "ios": "https://dc.lft.to/lastmile_qr_scan"}, "bike_id": "52b91374314d2f06c2f9210c7722f983", "lon": -77.00605916666666}, {"is_reserved": 0, "fusion_lon": 0.0, "fusion_lat": 0.0, "name": "ad7b4620bc692ccff26d437a90f799a5", "type": "electric_scooter", "is_disabled": 0, "lat": 38.942009, "rental_uris": {"android": "https://dc.lft.to/lastmile_qr_scan", "ios": "https://dc.lft.to/lastmile_qr_scan"}, "bike_id": "ad7b4620bc692ccff26d437a90f799a5", "lon": -77.025017}, {"is_reserved": 0, "fusion_lon": 0.0, "fusion_lat": 0.0, "name": "83e66e9ebff9b85074936e70620a1d73", "type": "electric_scooter", "is_disabled": 0, "lat": 38.91131333333333, "rental_uris": {"android": "https://dc.lft.to/lastmile_qr_scan", "ios": "https://dc.lft.to/lastmile_qr_scan"}, "bike_id": "83e66e9ebff9b85074936e70620a1d73", "lon": -77.044147}, {"is_reserved": 0, "fusion_lon": 0.0, "fusion_lat": 0.0, "name": "a64fcafba69ed8ea52ad719cf4a09ca8", "type": "electric_scooter", "is_disabled": 0, "lat": 38.9334395, "rental_uris": {"android": "https://dc.lft.to/lastmile_qr_scan", "ios": "https://dc.lft.to/lastmile_qr_scan"}, "bike_id": "a64fcafba69ed8ea52ad719cf4a09ca8", "lon": -77.02623366666667}, {"is_reserved": 0, "fusion_lon": 0.0, "fusion_lat": 0.0, "name": "58facbeac56c741436c673ef21f10e95", "type": "electric_scooter", "is_disabled": 0, "lat": 38.886205, "rental_uris": {"android": "https://dc.lft.to/lastmile_qr_scan", "ios": "https://dc.lft.to/lastmile_qr_scan"}, "bike_id": "58facbeac56c741436c673ef21f10e95", "lon": -77.01997883333334}, {"is_reserved": 0, "fusion_lon": 0.0, "fusion_lat": 0.0, "name": "f45739da72df19cc56ad7eb5552f934f", "type": "electric_scooter", "is_disabled": 0, "lat": 38.945023, "rental_uris": {"android": "https://dc.lft.to/lastmile_qr_scan", "ios": "https://dc.lft.to/lastmile_qr_scan"}, "bike_id": "f45739da72df19cc56ad7eb5552f934f", "lon": -77.03498933333333}, {"is_reserved": 0, "fusion_lon": 0.0, "fusion_lat": 0.0, "name": "d629709b6ef6b633192fd92636421da7", "type": "electric_scooter", "is_disabled": 0, "lat": 38.8921775, "rental_uris": {"android": "https://dc.lft.to/lastmile_qr_scan", "ios": "https://dc.lft.to/lastmile_qr_scan"}, "bike_id": "d629709b6ef6b633192fd92636421da7", "lon": -76.95710483333333}, {"is_reserved": 0, "fusion_lon": 0.0, "fusion_lat": 0.0, "name": "f620d73f48b88061a6ab32548b7bcd62", "type": "electric_scooter", "is_disabled": 0, "lat": 38.918236666666665, "rental_uris": {"android": "https://dc.lft.to/lastmile_qr_scan", "ios": "https://dc.lft.to/lastmile_qr_scan"}, "bike_id": "f620d73f48b88061a6ab32548b7bcd62", "lon": -77.01203683333334}, {"is_reserved": 0, "fusion_lon": 0.0, "fusion_lat": 0.0, "name": "bba9551b99eda6fb79e9b5098b1900c9", "type": "electric_scooter", "is_disabled": 0, "lat": 38.9009365, "rental_uris": {"android": "https://dc.lft.to/lastmile_qr_scan", "ios": "https://dc.lft.to/lastmile_qr_scan"}, "bike_id": "bba9551b99eda6fb79e9b5098b1900c9", "lon": -76.93033683333333}, {"is_reserved": 0, "fusion_lon": 0.0, "fusion_lat": 0.0, "name": "3d41e1b15e3717c71c026143c566a6ee", "type": "electric_scooter", "is_disabled": 0, "lat": 38.8784365, "rental_uris": {"android": "https://dc.lft.to/lastmile_qr_scan", "ios": "https://dc.lft.to/lastmile_qr_scan"}, "bike_id": "3d41e1b15e3717c71c026143c566a6ee", "lon": -77.01969483333333}, {"is_reserved": 0, "fusion_lon": 0.0, "fusion_lat": 0.0, "name": "87474891300b813562647e6f8747249d", "type": "electric_scooter", "is_disabled": 0, "lat": 38.915171666666666, "rental_uris": {"android": "https://dc.lft.to/lastmile_qr_scan", "ios": "https://dc.lft.to/lastmile_qr_scan"}, "bike_id": "87474891300b813562647e6f8747249d", "lon": -77.04460033333334}, {"is_reserved": 0, "fusion_lon": 0.0, "fusion_lat": 0.0, "name": "ec2bc4c8d80bb84b26eab793265a7b2c", "type": "electric_scooter", "is_disabled": 0, "lat": 38.883914833333336, "rental_uris": {"android": "https://dc.lft.to/lastmile_qr_scan", "ios": "https://dc.lft.to/lastmile_qr_scan"}, "bike_id": "ec2bc4c8d80bb84b26eab793265a7b2c", "lon": -77.0261835}, {"is_reserved": 0, "fusion_lon": 0.0, "fusion_lat": 0.0, "name": "dd949f8b1103771c54f1f8837a37d1c9", "type": "electric_bike", "is_disabled": 0, "lat": 38.9370105, "rental_uris": {"android": "https://dc.lft.to/lastmile_qr_scan", "ios": "https://dc.lft.to/lastmile_qr_scan"}, "bike_id": "dd949f8b1103771c54f1f8837a37d1c9", "lon": -77.02976016666666}, {"is_reserved": 0, "fusion_lon": 0.0, "fusion_lat": 0.0, "name": "a4edc8826a0ab235d540cdf2f74098e5", "type": "electric_scooter", "is_disabled": 0, "lat": 38.91290383333333, "rental_uris": {"android": "https://dc.lft.to/lastmile_qr_scan", "ios": "https://dc.lft.to/lastmile_qr_scan"}, "bike_id": "a4edc8826a0ab235d540cdf2f74098e5", "lon": -77.03185733333333}, {"is_reserved": 0, "fusion_lon": 0.0, "fusion_lat": 0.0, "name": "2d4eb60a6d2fec78b63be495ae3f1637", "type": "electric_scooter", "is_disabled": 0, "lat": 38.892153666666665, "rental_uris": {"android": "https://dc.lft.to/lastmile_qr_scan", "ios": "https://dc.lft.to/lastmile_qr_scan"}, "bike_id": "2d4eb60a6d2fec78b63be495ae3f1637", "lon": -77.03168216666667}, {"is_reserved": 0, "fusion_lon": 0.0, "fusion_lat": 0.0, "name": "7119fae5cb997a580827e1048330c681", "type": "electric_scooter", "is_disabled": 0, "lat": 38.90784433333334, "rental_uris": {"android": "https://dc.lft.to/lastmile_qr_scan", "ios": "https://dc.lft.to/lastmile_qr_scan"}, "bike_id": "7119fae5cb997a580827e1048330c681", "lon": -77.01103966666666}, {"is_reserved": 0, "fusion_lon": 0.0, "fusion_lat": 0.0, "name": "dcb4706b5001818e1d409b8dd71b6373", "type": "electric_scooter", "is_disabled": 0, "lat": 38.918393, "rental_uris": {"android": "https://dc.lft.to/lastmile_qr_scan", "ios": "https://dc.lft.to/lastmile_qr_scan"}, "bike_id": "dcb4706b5001818e1d409b8dd71b6373", "lon": -77.0594905}, {"is_reserved": 0, "fusion_lon": 0.0, "fusion_lat": 0.0, "name": "5f1aaa0a99aeacba25cf4c2e15fc1ee3", "type": "electric_scooter", "is_disabled": 0, "lat": 38.88960816666667, "rental_uris": {"android": "https://dc.lft.to/lastmile_qr_scan", "ios": "https://dc.lft.to/lastmile_qr_scan"}, "bike_id": "5f1aaa0a99aeacba25cf4c2e15fc1ee3", "lon": -76.93706866666666}, {"is_reserved": 0, "fusion_lon": 0.0, "fusion_lat": 0.0, "name": "a100dac541664ac04487abc2b1ebd376", "type": "electric_scooter", "is_disabled": 0, "lat": 38.904075666666664, "rental_uris": {"android": "https://dc.lft.to/lastmile_qr_scan", "ios": "https://dc.lft.to/lastmile_qr_scan"}, "bike_id": "a100dac541664ac04487abc2b1ebd376", "lon": -76.97328633333333}, {"is_reserved": 0, "fusion_lon": 0.0, "fusion_lat": 0.0, "name": "db650a70cfa5854a83dcb2adf125de87", "type": "electric_bike", "is_disabled": 0, "lat": 38.88246816666667, "rental_uris": {"android": "https://dc.lft.to/lastmile_qr_scan", "ios": "https://dc.lft.to/lastmile_qr_scan"}, "bike_id": "db650a70cfa5854a83dcb2adf125de87", "lon": -76.96256766666667}, {"is_reserved": 0, "fusion_lon": 0.0, "fusion_lat": 0.0, "name": "d76dc079c64d5424f2f2220d93e2f2a7", "type": "electric_scooter", "is_disabled": 0, "lat": 38.92324933333333, "rental_uris": {"android": "https://dc.lft.to/lastmile_qr_scan", "ios": "https://dc.lft.to/lastmile_qr_scan"}, "bike_id": "d76dc079c64d5424f2f2220d93e2f2a7", "lon": -77.03546016666667}, {"is_reserved": 0, "fusion_lon": 0.0, "fusion_lat": 0.0, "name": "281ae219f660290b9e420e786e8c96d5", "type": "electric_scooter", "is_disabled": 0, "lat": 38.894847166666665, "rental_uris": {"android": "https://dc.lft.to/lastmile_qr_scan", "ios": "https://dc.lft.to/lastmile_qr_scan"}, "bike_id": "281ae219f660290b9e420e786e8c96d5", "lon": -77.0231395}, {"is_reserved": 0, "fusion_lon": 0.0, "fusion_lat": 0.0, "name": "1f161c666ea9360454a981d6f74b49f5", "type": "electric_bike", "is_disabled": 0, "lat": 38.95959116666667, "rental_uris": {"android": "https://dc.lft.to/lastmile_qr_scan", "ios": "https://dc.lft.to/lastmile_qr_scan"}, "bike_id": "1f161c666ea9360454a981d6f74b49f5", "lon": -77.03055333333333}, {"is_reserved": 0, "fusion_lon": 0.0, "fusion_lat": 0.0, "name": "44810ffc01a1fae0b18ffbd6d1598f66", "type": "electric_scooter", "is_disabled": 0, "lat": 38.91556033333333, "rental_uris": {"android": "https://dc.lft.to/lastmile_qr_scan", "ios": "https://dc.lft.to/lastmile_qr_scan"}, "bike_id": "44810ffc01a1fae0b18ffbd6d1598f66", "lon": -77.02207666666666}, {"is_reserved": 0, "fusion_lon": 0.0, "fusion_lat": 0.0, "name": "a2d76ee21a29fd4e812a4b617c8b4163", "type": "electric_scooter", "is_disabled": 0, "lat": 38.900321166666664, "rental_uris": {"android": "https://dc.lft.to/lastmile_qr_scan", "ios": "https://dc.lft.to/lastmile_qr_scan"}, "bike_id": "a2d76ee21a29fd4e812a4b617c8b4163", "lon": -76.99586766666667}, {"is_reserved": 0, "fusion_lon": 0.0, "fusion_lat": 0.0, "name": "686d9a14445ed316d16707275930ea16", "type": "electric_scooter", "is_disabled": 0, "lat": 38.9265885, "rental_uris": {"android": "https://dc.lft.to/lastmile_qr_scan", "ios": "https://dc.lft.to/lastmile_qr_scan"}, "bike_id": "686d9a14445ed316d16707275930ea16", "lon": -77.02276266666667}, {"is_reserved": 0, "fusion_lon": 0.0, "fusion_lat": 0.0, "name": "d77bd652f685d7058d06f26324a4ac49", "type": "electric_scooter", "is_disabled": 0, "lat": 38.8868615, "rental_uris": {"android": "https://dc.lft.to/lastmile_qr_scan", "ios": "https://dc.lft.to/lastmile_qr_scan"}, "bike_id": "d77bd652f685d7058d06f26324a4ac49", "lon": -76.9546735}, {"is_reserved": 0, "fusion_lon": 0.0, "fusion_lat": 0.0, "name": "08438e29886d9f76cdb7ebf94e4b378a", "type": "electric_scooter", "is_disabled": 0, "lat": 38.88743066666667, "rental_uris": {"android": "https://dc.lft.to/lastmile_qr_scan", "ios": "https://dc.lft.to/lastmile_qr_scan"}, "bike_id": "08438e29886d9f76cdb7ebf94e4b378a", "lon": -77.027363}, {"is_reserved": 0, "fusion_lon": 0.0, "fusion_lat": 0.0, "name": "285b30d44adf68bd4d5ab95143a629c7", "type": "electric_scooter", "is_disabled": 0, "lat": 38.863433666666666, "rental_uris": {"android": "https://dc.lft.to/lastmile_qr_scan", "ios": "https://dc.lft.to/lastmile_qr_scan"}, "bike_id": "285b30d44adf68bd4d5ab95143a629c7", "lon": -76.9870445}, {"is_reserved": 0, "fusion_lon": 0.0, "fusion_lat": 0.0, "name": "42b3a54ef3c50abf954e56fea0f177fe", "type": "electric_scooter", "is_disabled": 0, "lat": 38.892311, "rental_uris": {"android": "https://dc.lft.to/lastmile_qr_scan", "ios": "https://dc.lft.to/lastmile_qr_scan"}, "bike_id": "42b3a54ef3c50abf954e56fea0f177fe", "lon": -77.03146866666667}, {"is_reserved": 0, "fusion_lon": 0.0, "fusion_lat": 0.0, "name": "92e90c4b9b35de95a49a704393960b8d", "type": "electric_scooter", "is_disabled": 0, "lat": 38.907219166666664, "rental_uris": {"android": "https://dc.lft.to/lastmile_qr_scan", "ios": "https://dc.lft.to/lastmile_qr_scan"}, "bike_id": "92e90c4b9b35de95a49a704393960b8d", "lon": -77.0499935}, {"is_reserved": 0, "fusion_lon": 0.0, "fusion_lat": 0.0, "name": "485037577fb65ca82ef361cea3bf4bf4", "type": "electric_scooter", "is_disabled": 0, "lat": 38.9088695, "rental_uris": {"android": "https://dc.lft.to/lastmile_qr_scan", "ios": "https://dc.lft.to/lastmile_qr_scan"}, "bike_id": "485037577fb65ca82ef361cea3bf4bf4", "lon": -76.98540916666667}, {"is_reserved": 0, "fusion_lon": 0.0, "fusion_lat": 0.0, "name": "8d082f582056ae4fe0a16e813e308a6a", "type": "electric_scooter", "is_disabled": 0, "lat": 38.91559016666667, "rental_uris": {"android": "https://dc.lft.to/lastmile_qr_scan", "ios": "https://dc.lft.to/lastmile_qr_scan"}, "bike_id": "8d082f582056ae4fe0a16e813e308a6a", "lon": -77.02368866666667}, {"is_reserved": 0, "fusion_lon": 0.0, "fusion_lat": 0.0, "name": "fa46a8c9b5e2bf813ec678bf8e53256c", "type": "electric_scooter", "is_disabled": 0, "lat": 38.89876016666667, "rental_uris": {"android": "https://dc.lft.to/lastmile_qr_scan", "ios": "https://dc.lft.to/lastmile_qr_scan"}, "bike_id": "fa46a8c9b5e2bf813ec678bf8e53256c", "lon": -76.93186}, {"is_reserved": 0, "fusion_lon": 0.0, "fusion_lat": 0.0, "name": "b9ab43f9aa2bc7700cf6434cda4fb0ed", "type": "electric_bike", "is_disabled": 0, "lat": 38.842785666666664, "rental_uris": {"android": "https://dc.lft.to/lastmile_qr_scan", "ios": "https://dc.lft.to/lastmile_qr_scan"}, "bike_id": "b9ab43f9aa2bc7700cf6434cda4fb0ed", "lon": -76.98841416666667}, {"is_reserved": 0, "fusion_lon": 0.0, "fusion_lat": 0.0, "name": "f0c27f506482a56622122ea0c9346b8b", "type": "electric_scooter", "is_disabled": 0, "lat": 38.887366166666666, "rental_uris": {"android": "https://dc.lft.to/lastmile_qr_scan", "ios": "https://dc.lft.to/lastmile_qr_scan"}, "bike_id": "f0c27f506482a56622122ea0c9346b8b", "lon": -77.017408}, {"is_reserved": 0, "fusion_lon": 0.0, "fusion_lat": 0.0, "name": "eac901a553ee050e1f2300733212cef3", "type": "electric_scooter", "is_disabled": 0, "lat": 38.901335833333334, "rental_uris": {"android": "https://dc.lft.to/lastmile_qr_scan", "ios": "https://dc.lft.to/lastmile_qr_scan"}, "bike_id": "eac901a553ee050e1f2300733212cef3", "lon": -77.04002033333333}, {"is_reserved": 0, "fusion_lon": 0.0, "fusion_lat": 0.0, "name": "acde164b500d0ee8cf04a33db01107a5", "type": "electric_scooter", "is_disabled": 0, "lat": 38.92056483333333, "rental_uris": {"android": "https://dc.lft.to/lastmile_qr_scan", "ios": "https://dc.lft.to/lastmile_qr_scan"}, "bike_id": "acde164b500d0ee8cf04a33db01107a5", "lon": -76.99883233333334}, {"is_reserved": 0, "fusion_lon": 0.0, "fusion_lat": 0.0, "name": "513f1a2aed61a5c4c87cf083c131e9eb", "type": "electric_scooter", "is_disabled": 0, "lat": 38.910592333333334, "rental_uris": {"android": "https://dc.lft.to/lastmile_qr_scan", "ios": "https://dc.lft.to/lastmile_qr_scan"}, "bike_id": "513f1a2aed61a5c4c87cf083c131e9eb", "lon": -77.02974166666667}, {"is_reserved": 0, "fusion_lon": 0.0, "fusion_lat": 0.0, "name": "05f3b9f54d61367d395528a73a08385f", "type": "electric_scooter", "is_disabled": 0, "lat": 38.89997966666667, "rental_uris": {"android": "https://dc.lft.to/lastmile_qr_scan", "ios": "https://dc.lft.to/lastmile_qr_scan"}, "bike_id": "05f3b9f54d61367d395528a73a08385f", "lon": -76.99831416666666}, {"is_reserved": 0, "fusion_lon": 0.0, "fusion_lat": 0.0, "name": "52c4e19ff1d45231314d7bda020d0c90", "type": "electric_scooter", "is_disabled": 0, "lat": 38.9065885, "rental_uris": {"android": "https://dc.lft.to/lastmile_qr_scan", "ios": "https://dc.lft.to/lastmile_qr_scan"}, "bike_id": "52c4e19ff1d45231314d7bda020d0c90", "lon": -77.0414165}, {"is_reserved": 0, "fusion_lon": 0.0, "fusion_lat": 0.0, "name": "52696ef2efffdd002d0494d422fb9922", "type": "electric_scooter", "is_disabled": 0, "lat": 38.90567183333334, "rental_uris": {"android": "https://dc.lft.to/lastmile_qr_scan", "ios": "https://dc.lft.to/lastmile_qr_scan"}, "bike_id": "52696ef2efffdd002d0494d422fb9922", "lon": -77.00585083333333}, {"is_reserved": 0, "fusion_lon": 0.0, "fusion_lat": 0.0, "name": "fff71b235cb5a024400dfc98341103f8", "type": "electric_scooter", "is_disabled": 0, "lat": 38.90244083333333, "rental_uris": {"android": "https://dc.lft.to/lastmile_qr_scan", "ios": "https://dc.lft.to/lastmile_qr_scan"}, "bike_id": "fff71b235cb5a024400dfc98341103f8", "lon": -76.9896845}, {"is_reserved": 0, "fusion_lon": 0.0, "fusion_lat": 0.0, "name": "8734d1f2e6d9d789d7a76eb93bb1e02e", "type": "electric_scooter", "is_disabled": 0, "lat": 38.86694683333333, "rental_uris": {"android": "https://dc.lft.to/lastmile_qr_scan", "ios": "https://dc.lft.to/lastmile_qr_scan"}, "bike_id": "8734d1f2e6d9d789d7a76eb93bb1e02e", "lon": -76.98605216666667}, {"is_reserved": 0, "fusion_lon": 0.0, "fusion_lat": 0.0, "name": "d7de490c36e77a3a00af168435a9185a", "type": "electric_scooter", "is_disabled": 0, "lat": 38.894656, "rental_uris": {"android": "https://dc.lft.to/lastmile_qr_scan", "ios": "https://dc.lft.to/lastmile_qr_scan"}, "bike_id": "d7de490c36e77a3a00af168435a9185a", "lon": -77.02301283333334}, {"is_reserved": 0, "fusion_lon": 0.0, "fusion_lat": 0.0, "name": "ac2b23a83d0d0b09f587101481f71eef", "type": "electric_scooter", "is_disabled": 0, "lat": 38.9079135, "rental_uris": {"android": "https://dc.lft.to/lastmile_qr_scan", "ios": "https://dc.lft.to/lastmile_qr_scan"}, "bike_id": "ac2b23a83d0d0b09f587101481f71eef", "lon": -77.03187883333334}, {"is_reserved": 0, "fusion_lon": 0.0, "fusion_lat": 0.0, "name": "7ffbd78754f3eb64ac31737e3b4cd514", "type": "electric_scooter", "is_disabled": 0, "lat": 38.917731, "rental_uris": {"android": "https://dc.lft.to/lastmile_qr_scan", "ios": "https://dc.lft.to/lastmile_qr_scan"}, "bike_id": "7ffbd78754f3eb64ac31737e3b4cd514", "lon": -77.04061066666667}, {"is_reserved": 0, "fusion_lon": 0.0, "fusion_lat": 0.0, "name": "3ce113d75f0db6dfeae055f71e4e96a2", "type": "electric_scooter", "is_disabled": 0, "lat": 38.897542666666666, "rental_uris": {"android": "https://dc.lft.to/lastmile_qr_scan", "ios": "https://dc.lft.to/lastmile_qr_scan"}, "bike_id": "3ce113d75f0db6dfeae055f71e4e96a2", "lon": -77.033425}, {"is_reserved": 0, "fusion_lon": 0.0, "fusion_lat": 0.0, "name": "55b13f519ecde6a803b9658b5b95a187", "type": "electric_scooter", "is_disabled": 0, "lat": 38.923267333333335, "rental_uris": {"android": "https://dc.lft.to/lastmile_qr_scan", "ios": "https://dc.lft.to/lastmile_qr_scan"}, "bike_id": "55b13f519ecde6a803b9658b5b95a187", "lon": -77.03633}, {"is_reserved": 0, "fusion_lon": 0.0, "fusion_lat": 0.0, "name": "0b9a4513dc7a14063c0a981d54378832", "type": "electric_bike", "is_disabled": 0, "lat": 38.967993, "rental_uris": {"android": "https://dc.lft.to/lastmile_qr_scan", "ios": "https://dc.lft.to/lastmile_qr_scan"}, "bike_id": "0b9a4513dc7a14063c0a981d54378832", "lon": -77.00035883333334}, {"is_reserved": 0, "fusion_lon": 0.0, "fusion_lat": 0.0, "name": "956e85b41d7a4643db42dfbddedcacfc", "type": "electric_scooter", "is_disabled": 0, "lat": 38.88477116666667, "rental_uris": {"android": "https://dc.lft.to/lastmile_qr_scan", "ios": "https://dc.lft.to/lastmile_qr_scan"}, "bike_id": "956e85b41d7a4643db42dfbddedcacfc", "lon": -77.025819}, {"is_reserved": 0, "fusion_lon": 0.0, "fusion_lat": 0.0, "name": "cd2c6b5456685a5c71617d087b47fe6d", "type": "electric_scooter", "is_disabled": 0, "lat": 38.96116466666667, "rental_uris": {"android": "https://dc.lft.to/lastmile_qr_scan", "ios": "https://dc.lft.to/lastmile_qr_scan"}, "bike_id": "cd2c6b5456685a5c71617d087b47fe6d", "lon": -77.02790233333333}, {"is_reserved": 0, "fusion_lon": 0.0, "fusion_lat": 0.0, "name": "e4c5ede38135b4c38b8e3e0fac5e02fe", "type": "electric_scooter", "is_disabled": 0, "lat": 38.892352, "rental_uris": {"android": "https://dc.lft.to/lastmile_qr_scan", "ios": "https://dc.lft.to/lastmile_qr_scan"}, "bike_id": "e4c5ede38135b4c38b8e3e0fac5e02fe", "lon": -77.0320695}, {"is_reserved": 0, "fusion_lon": 0.0, "fusion_lat": 0.0, "name": "3a03b00c4a85893930ea3cdca224e82a", "type": "electric_scooter", "is_disabled": 0, "lat": 38.93538566666667, "rental_uris": {"android": "https://dc.lft.to/lastmile_qr_scan", "ios": "https://dc.lft.to/lastmile_qr_scan"}, "bike_id": "3a03b00c4a85893930ea3cdca224e82a", "lon": -77.02351616666667}, {"is_reserved": 0, "fusion_lon": 0.0, "fusion_lat": 0.0, "name": "7bd3756ffafead6e2f3e1dd5317bb249", "type": "electric_scooter", "is_disabled": 0, "lat": 38.901768, "rental_uris": {"android": "https://dc.lft.to/lastmile_qr_scan", "ios": "https://dc.lft.to/lastmile_qr_scan"}, "bike_id": "7bd3756ffafead6e2f3e1dd5317bb249", "lon": -76.980166}, {"is_reserved": 0, "fusion_lon": 0.0, "fusion_lat": 0.0, "name": "473a9ed66650108e4e3f3bf74d32d29a", "type": "electric_scooter", "is_disabled": 0, "lat": 38.905689, "rental_uris": {"android": "https://dc.lft.to/lastmile_qr_scan", "ios": "https://dc.lft.to/lastmile_qr_scan"}, "bike_id": "473a9ed66650108e4e3f3bf74d32d29a", "lon": -77.00588216666667}, {"is_reserved": 0, "fusion_lon": 0.0, "fusion_lat": 0.0, "name": "e2339759b580b4bb919a162f1a61d42e", "type": "electric_scooter", "is_disabled": 0, "lat": 38.905050833333334, "rental_uris": {"android": "https://dc.lft.to/lastmile_qr_scan", "ios": "https://dc.lft.to/lastmile_qr_scan"}, "bike_id": "e2339759b580b4bb919a162f1a61d42e", "lon": -76.9848365}, {"is_reserved": 0, "fusion_lon": 0.0, "fusion_lat": 0.0, "name": "49717599b3779f3341c97bd6f3f693fe", "type": "electric_scooter", "is_disabled": 0, "lat": 38.91874583333333, "rental_uris": {"android": "https://dc.lft.to/lastmile_qr_scan", "ios": "https://dc.lft.to/lastmile_qr_scan"}, "bike_id": "49717599b3779f3341c97bd6f3f693fe", "lon": -77.03500983333333}, {"is_reserved": 0, "fusion_lon": 0.0, "fusion_lat": 0.0, "name": "8d0ce09852043faa6bb457aab2dedb80", "type": "electric_scooter", "is_disabled": 0, "lat": 38.91195116666667, "rental_uris": {"android": "https://dc.lft.to/lastmile_qr_scan", "ios": "https://dc.lft.to/lastmile_qr_scan"}, "bike_id": "8d0ce09852043faa6bb457aab2dedb80", "lon": -77.03839633333334}, {"is_reserved": 0, "fusion_lon": 0.0, "fusion_lat": 0.0, "name": "5e6f5e9a632f84f6346c9cf5f1c53e48", "type": "electric_scooter", "is_disabled": 0, "lat": 38.90738066666667, "rental_uris": {"android": "https://dc.lft.to/lastmile_qr_scan", "ios": "https://dc.lft.to/lastmile_qr_scan"}, "bike_id": "5e6f5e9a632f84f6346c9cf5f1c53e48", "lon": -77.04192283333333}, {"is_reserved": 0, "fusion_lon": 0.0, "fusion_lat": 0.0, "name": "491abc787a2bc60cd2f3affc8db96286", "type": "electric_scooter", "is_disabled": 0, "lat": 38.900728666666666, "rental_uris": {"android": "https://dc.lft.to/lastmile_qr_scan", "ios": "https://dc.lft.to/lastmile_qr_scan"}, "bike_id": "491abc787a2bc60cd2f3affc8db96286", "lon": -77.002126}, {"is_reserved": 0, "fusion_lon": 0.0, "fusion_lat": 0.0, "name": "3153ae2a8218cd0bb8b80d23aed7a04f", "type": "electric_scooter", "is_disabled": 0, "lat": 38.91340433333333, "rental_uris": {"android": "https://dc.lft.to/lastmile_qr_scan", "ios": "https://dc.lft.to/lastmile_qr_scan"}, "bike_id": "3153ae2a8218cd0bb8b80d23aed7a04f", "lon": -77.03960533333333}, {"is_reserved": 0, "fusion_lon": 0.0, "fusion_lat": 0.0, "name": "ef2f4e0e458a0526b9f0b71634f7f4e7", "type": "electric_scooter", "is_disabled": 0, "lat": 38.9119575, "rental_uris": {"android": "https://dc.lft.to/lastmile_qr_scan", "ios": "https://dc.lft.to/lastmile_qr_scan"}, "bike_id": "ef2f4e0e458a0526b9f0b71634f7f4e7", "lon": -77.030136}, {"is_reserved": 0, "fusion_lon": 0.0, "fusion_lat": 0.0, "name": "0e327887f13fc4bf880bbff5dc45b5a4", "type": "electric_scooter", "is_disabled": 0, "lat": 38.903603, "rental_uris": {"android": "https://dc.lft.to/lastmile_qr_scan", "ios": "https://dc.lft.to/lastmile_qr_scan"}, "bike_id": "0e327887f13fc4bf880bbff5dc45b5a4", "lon": -77.00981516666667}, {"is_reserved": 0, "fusion_lon": 0.0, "fusion_lat": 0.0, "name": "940f81fb9f74d2c7b246abdd37119278", "type": "electric_scooter", "is_disabled": 0, "lat": 38.920832, "rental_uris": {"android": "https://dc.lft.to/lastmile_qr_scan", "ios": "https://dc.lft.to/lastmile_qr_scan"}, "bike_id": "940f81fb9f74d2c7b246abdd37119278", "lon": -77.04104966666667}, {"is_reserved": 0, "fusion_lon": 0.0, "fusion_lat": 0.0, "name": "fdce7459203a82b6f17109b7edb6f704", "type": "electric_scooter", "is_disabled": 0, "lat": 38.90128683333333, "rental_uris": {"android": "https://dc.lft.to/lastmile_qr_scan", "ios": "https://dc.lft.to/lastmile_qr_scan"}, "bike_id": "fdce7459203a82b6f17109b7edb6f704", "lon": -77.049847}, {"is_reserved": 0, "fusion_lon": 0.0, "fusion_lat": 0.0, "name": "6bd681f3dc306457b6f149f1ae4fdb25", "type": "electric_scooter", "is_disabled": 0, "lat": 38.90037016666667, "rental_uris": {"android": "https://dc.lft.to/lastmile_qr_scan", "ios": "https://dc.lft.to/lastmile_qr_scan"}, "bike_id": "6bd681f3dc306457b6f149f1ae4fdb25", "lon": -76.99621233333333}, {"is_reserved": 0, "fusion_lon": 0.0, "fusion_lat": 0.0, "name": "2997c083bbe80730703e41ca4b6b73f2", "type": "electric_scooter", "is_disabled": 0, "lat": 38.87985066666667, "rental_uris": {"android": "https://dc.lft.to/lastmile_qr_scan", "ios": "https://dc.lft.to/lastmile_qr_scan"}, "bike_id": "2997c083bbe80730703e41ca4b6b73f2", "lon": -77.01527116666666}, {"is_reserved": 0, "fusion_lon": 0.0, "fusion_lat": 0.0, "name": "9c3899a3beb35a02ba15151cae87ce8f", "type": "electric_bike", "is_disabled": 0, "lat": 38.82786016666667, "rental_uris": {"android": "https://dc.lft.to/lastmile_qr_scan", "ios": "https://dc.lft.to/lastmile_qr_scan"}, "bike_id": "9c3899a3beb35a02ba15151cae87ce8f", "lon": -77.00919883333333}, {"is_reserved": 0, "fusion_lon": 0.0, "fusion_lat": 0.0, "name": "4767bce255453df44ace2b6cade20b5e", "type": "electric_scooter", "is_disabled": 0, "lat": 38.90944266666666, "rental_uris": {"android": "https://dc.lft.to/lastmile_qr_scan", "ios": "https://dc.lft.to/lastmile_qr_scan"}, "bike_id": "4767bce255453df44ace2b6cade20b5e", "lon": -77.04562883333334}, {"is_reserved": 0, "fusion_lon": 0.0, "fusion_lat": 0.0, "name": "cafd7f862164454b704ce511bd8fdaf0", "type": "electric_bike", "is_disabled": 0, "lat": 38.95643916666667, "rental_uris": {"android": "https://dc.lft.to/lastmile_qr_scan", "ios": "https://dc.lft.to/lastmile_qr_scan"}, "bike_id": "cafd7f862164454b704ce511bd8fdaf0", "lon": -77.02255283333334}, {"is_reserved": 0, "fusion_lon": 0.0, "fusion_lat": 0.0, "name": "df03059079abbdc604fa391fe04b6b57", "type": "electric_scooter", "is_disabled": 0, "lat": 38.877838, "rental_uris": {"android": "https://dc.lft.to/lastmile_qr_scan", "ios": "https://dc.lft.to/lastmile_qr_scan"}, "bike_id": "df03059079abbdc604fa391fe04b6b57", "lon": -76.994096}, {"is_reserved": 0, "fusion_lon": 0.0, "fusion_lat": 0.0, "name": "5aecd0bda07080145c24128af9e11007", "type": "electric_scooter", "is_disabled": 0, "lat": 38.90356766666667, "rental_uris": {"android": "https://dc.lft.to/lastmile_qr_scan", "ios": "https://dc.lft.to/lastmile_qr_scan"}, "bike_id": "5aecd0bda07080145c24128af9e11007", "lon": -77.042113}, {"is_reserved": 0, "fusion_lon": 0.0, "fusion_lat": 0.0, "name": "abc60fd27c2b34f4eb4b32383bd3c374", "type": "electric_bike", "is_disabled": 0, "lat": 38.80655566666667, "rental_uris": {"android": "https://dc.lft.to/lastmile_qr_scan", "ios": "https://dc.lft.to/lastmile_qr_scan"}, "bike_id": "abc60fd27c2b34f4eb4b32383bd3c374", "lon": -77.08760516666666}, {"is_reserved": 0, "fusion_lon": 0.0, "fusion_lat": 0.0, "name": "b942f3ce76723ed8393191f6bea0bea6", "type": "electric_bike", "is_disabled": 0, "lat": 38.79676766666667, "rental_uris": {"android": "https://dc.lft.to/lastmile_qr_scan", "ios": "https://dc.lft.to/lastmile_qr_scan"}, "bike_id": "b942f3ce76723ed8393191f6bea0bea6", "lon": -76.99332533333333}, {"is_reserved": 0, "fusion_lon": 0.0, "fusion_lat": 0.0, "name": "2cc2deb117eb5fbfea0dba4ac728ec97", "type": "electric_scooter", "is_disabled": 0, "lat": 38.88742416666667, "rental_uris": {"android": "https://dc.lft.to/lastmile_qr_scan", "ios": "https://dc.lft.to/lastmile_qr_scan"}, "bike_id": "2cc2deb117eb5fbfea0dba4ac728ec97", "lon": -77.02205583333334}, {"is_reserved": 0, "fusion_lon": 0.0, "fusion_lat": 0.0, "name": "5dad216b3b5e0c8bf5f0d919ecca3a63", "type": "electric_scooter", "is_disabled": 0, "lat": 38.977246666666666, "rental_uris": {"android": "https://dc.lft.to/lastmile_qr_scan", "ios": "https://dc.lft.to/lastmile_qr_scan"}, "bike_id": "5dad216b3b5e0c8bf5f0d919ecca3a63", "lon": -77.01727833333334}, {"is_reserved": 0, "fusion_lon": 0.0, "fusion_lat": 0.0, "name": "3ae8f3098f5720ba69fd69d388ae5015", "type": "electric_scooter", "is_disabled": 0, "lat": 38.8930965, "rental_uris": {"android": "https://dc.lft.to/lastmile_qr_scan", "ios": "https://dc.lft.to/lastmile_qr_scan"}, "bike_id": "3ae8f3098f5720ba69fd69d388ae5015", "lon": -77.017974}, {"is_reserved": 0, "fusion_lon": 0.0, "fusion_lat": 0.0, "name": "ead8734da5ffa29182abc6a5e9211f3e", "type": "electric_scooter", "is_disabled": 0, "lat": 38.891672, "rental_uris": {"android": "https://dc.lft.to/lastmile_qr_scan", "ios": "https://dc.lft.to/lastmile_qr_scan"}, "bike_id": "ead8734da5ffa29182abc6a5e9211f3e", "lon": -76.95183266666666}, {"is_reserved": 0, "fusion_lon": 0.0, "fusion_lat": 0.0, "name": "870ba854314c2dcf3098d5ceb7147ea5", "type": "electric_scooter", "is_disabled": 0, "lat": 38.90238866666667, "rental_uris": {"android": "https://dc.lft.to/lastmile_qr_scan", "ios": "https://dc.lft.to/lastmile_qr_scan"}, "bike_id": "870ba854314c2dcf3098d5ceb7147ea5", "lon": -77.05342466666667}, {"is_reserved": 0, "fusion_lon": 0.0, "fusion_lat": 0.0, "name": "30326474dc09cf7d9389bf13614a2346", "type": "electric_scooter", "is_disabled": 0, "lat": 38.90960616666667, "rental_uris": {"android": "https://dc.lft.to/lastmile_qr_scan", "ios": "https://dc.lft.to/lastmile_qr_scan"}, "bike_id": "30326474dc09cf7d9389bf13614a2346", "lon": -77.03860416666667}, {"is_reserved": 0, "fusion_lon": 0.0, "fusion_lat": 0.0, "name": "1dab2c8bcd0c2bfaa00bfb7530d5b5e0", "type": "electric_scooter", "is_disabled": 0, "lat": 38.915508333333335, "rental_uris": {"android": "https://dc.lft.to/lastmile_qr_scan", "ios": "https://dc.lft.to/lastmile_qr_scan"}, "bike_id": "1dab2c8bcd0c2bfaa00bfb7530d5b5e0", "lon": -77.03850833333334}, {"is_reserved": 0, "fusion_lon": 0.0, "fusion_lat": 0.0, "name": "7d578652d9a5fc06f5fcc7955d118898", "type": "electric_scooter", "is_disabled": 0, "lat": 38.907656833333334, "rental_uris": {"android": "https://dc.lft.to/lastmile_qr_scan", "ios": "https://dc.lft.to/lastmile_qr_scan"}, "bike_id": "7d578652d9a5fc06f5fcc7955d118898", "lon": -77.00101166666667}, {"is_reserved": 0, "fusion_lon": 0.0, "fusion_lat": 0.0, "name": "9dbfcad0e4a4bb29e44651a7c395c51e", "type": "electric_scooter", "is_disabled": 0, "lat": 38.888167, "rental_uris": {"android": "https://dc.lft.to/lastmile_qr_scan", "ios": "https://dc.lft.to/lastmile_qr_scan"}, "bike_id": "9dbfcad0e4a4bb29e44651a7c395c51e", "lon": -76.93349666666667}, {"is_reserved": 0, "fusion_lon": 0.0, "fusion_lat": 0.0, "name": "adafdc8b4b53d41f2cd298ee1e754909", "type": "electric_scooter", "is_disabled": 0, "lat": 38.920967, "rental_uris": {"android": "https://dc.lft.to/lastmile_qr_scan", "ios": "https://dc.lft.to/lastmile_qr_scan"}, "bike_id": "adafdc8b4b53d41f2cd298ee1e754909", "lon": -77.00437733333334}, {"is_reserved": 0, "fusion_lon": 0.0, "fusion_lat": 0.0, "name": "03a3600b93b65341649ba35b3f5cfe83", "type": "electric_scooter", "is_disabled": 0, "lat": 38.91186233333333, "rental_uris": {"android": "https://dc.lft.to/lastmile_qr_scan", "ios": "https://dc.lft.to/lastmile_qr_scan"}, "bike_id": "03a3600b93b65341649ba35b3f5cfe83", "lon": -77.00970016666666}, {"is_reserved": 0, "fusion_lon": 0.0, "fusion_lat": 0.0, "name": "9fc2eeba9c32e7adc953768c3e997deb", "type": "electric_scooter", "is_disabled": 0, "lat": 38.887282666666664, "rental_uris": {"android": "https://dc.lft.to/lastmile_qr_scan", "ios": "https://dc.lft.to/lastmile_qr_scan"}, "bike_id": "9fc2eeba9c32e7adc953768c3e997deb", "lon": -77.0282765}, {"is_reserved": 0, "fusion_lon": 0.0, "fusion_lat": 0.0, "name": "fe16e0d9502fbbd3dbd00977486fb5f1", "type": "electric_scooter", "is_disabled": 0, "lat": 38.925763, "rental_uris": {"android": "https://dc.lft.to/lastmile_qr_scan", "ios": "https://dc.lft.to/lastmile_qr_scan"}, "bike_id": "fe16e0d9502fbbd3dbd00977486fb5f1", "lon": -77.0526425}, {"is_reserved": 0, "fusion_lon": 0.0, "fusion_lat": 0.0, "name": "b90f478d28e9999c200771caca57fe7e", "type": "electric_scooter", "is_disabled": 0, "lat": 38.90811266666667, "rental_uris": {"android": "https://dc.lft.to/lastmile_qr_scan", "ios": "https://dc.lft.to/lastmile_qr_scan"}, "bike_id": "b90f478d28e9999c200771caca57fe7e", "lon": -77.04316883333334}, {"is_reserved": 0, "fusion_lon": 0.0, "fusion_lat": 0.0, "name": "d96e5080431370c353986304cc3cc446", "type": "electric_scooter", "is_disabled": 0, "lat": 38.900291, "rental_uris": {"android": "https://dc.lft.to/lastmile_qr_scan", "ios": "https://dc.lft.to/lastmile_qr_scan"}, "bike_id": "d96e5080431370c353986304cc3cc446", "lon": -76.98858133333333}, {"is_reserved": 0, "fusion_lon": 0.0, "fusion_lat": 0.0, "name": "aff62dfe54856a5626a4cd5ffc90a726", "type": "electric_scooter", "is_disabled": 0, "lat": 38.904478, "rental_uris": {"android": "https://dc.lft.to/lastmile_qr_scan", "ios": "https://dc.lft.to/lastmile_qr_scan"}, "bike_id": "aff62dfe54856a5626a4cd5ffc90a726", "lon": -76.99621633333334}, {"is_reserved": 0, "fusion_lon": 0.0, "fusion_lat": 0.0, "name": "80993e7274f575c933c21455ce41033c", "type": "electric_bike", "is_disabled": 0, "lat": 38.904200833333334, "rental_uris": {"android": "https://dc.lft.to/lastmile_qr_scan", "ios": "https://dc.lft.to/lastmile_qr_scan"}, "bike_id": "80993e7274f575c933c21455ce41033c", "lon": -77.0278565}, {"is_reserved": 0, "fusion_lon": 0.0, "fusion_lat": 0.0, "name": "297b2369c30f136c15843a011942f3cd", "type": "electric_scooter", "is_disabled": 0, "lat": 38.91023116666667, "rental_uris": {"android": "https://dc.lft.to/lastmile_qr_scan", "ios": "https://dc.lft.to/lastmile_qr_scan"}, "bike_id": "297b2369c30f136c15843a011942f3cd", "lon": -77.064964}, {"is_reserved": 0, "fusion_lon": 0.0, "fusion_lat": 0.0, "name": "d14810a2de596bcd7534f21def7926c0", "type": "electric_scooter", "is_disabled": 0, "lat": 38.92427083333333, "rental_uris": {"android": "https://dc.lft.to/lastmile_qr_scan", "ios": "https://dc.lft.to/lastmile_qr_scan"}, "bike_id": "d14810a2de596bcd7534f21def7926c0", "lon": -77.035404}, {"is_reserved": 0, "fusion_lon": 0.0, "fusion_lat": 0.0, "name": "bcb00227c098aee86382244b7be3bb1b", "type": "electric_scooter", "is_disabled": 0, "lat": 38.918351666666666, "rental_uris": {"android": "https://dc.lft.to/lastmile_qr_scan", "ios": "https://dc.lft.to/lastmile_qr_scan"}, "bike_id": "bcb00227c098aee86382244b7be3bb1b", "lon": -77.0246385}, {"is_reserved": 0, "fusion_lon": 0.0, "fusion_lat": 0.0, "name": "d6a3f6413daeb7c5b495fed89d28de4d", "type": "electric_scooter", "is_disabled": 0, "lat": 38.914165833333335, "rental_uris": {"android": "https://dc.lft.to/lastmile_qr_scan", "ios": "https://dc.lft.to/lastmile_qr_scan"}, "bike_id": "d6a3f6413daeb7c5b495fed89d28de4d", "lon": -77.02164266666666}, {"is_reserved": 0, "fusion_lon": 0.0, "fusion_lat": 0.0, "name": "304be281f41b06b469281925a7864e1b", "type": "electric_scooter", "is_disabled": 0, "lat": 38.89558566666667, "rental_uris": {"android": "https://dc.lft.to/lastmile_qr_scan", "ios": "https://dc.lft.to/lastmile_qr_scan"}, "bike_id": "304be281f41b06b469281925a7864e1b", "lon": -77.02803633333333}, {"is_reserved": 0, "fusion_lon": 0.0, "fusion_lat": 0.0, "name": "11a50c208988534300a10c192d81f0c6", "type": "electric_scooter", "is_disabled": 0, "lat": 38.9078945, "rental_uris": {"android": "https://dc.lft.to/lastmile_qr_scan", "ios": "https://dc.lft.to/lastmile_qr_scan"}, "bike_id": "11a50c208988534300a10c192d81f0c6", "lon": -77.0344695}, {"is_reserved": 0, "fusion_lon": 0.0, "fusion_lat": 0.0, "name": "b6ad2f8be5ddb03035a0268636faef6a", "type": "electric_scooter", "is_disabled": 0, "lat": 38.900033, "rental_uris": {"android": "https://dc.lft.to/lastmile_qr_scan", "ios": "https://dc.lft.to/lastmile_qr_scan"}, "bike_id": "b6ad2f8be5ddb03035a0268636faef6a", "lon": -76.99837566666666}, {"is_reserved": 0, "fusion_lon": 0.0, "fusion_lat": 0.0, "name": "82d43f03583aba40f7286208ff811b49", "type": "electric_scooter", "is_disabled": 0, "lat": 38.9370665, "rental_uris": {"android": "https://dc.lft.to/lastmile_qr_scan", "ios": "https://dc.lft.to/lastmile_qr_scan"}, "bike_id": "82d43f03583aba40f7286208ff811b49", "lon": -77.02411366666666}, {"is_reserved": 0, "fusion_lon": 0.0, "fusion_lat": 0.0, "name": "4c9d8d1096b00e359749937c1ad761d3", "type": "electric_scooter", "is_disabled": 0, "lat": 38.900045666666664, "rental_uris": {"android": "https://dc.lft.to/lastmile_qr_scan", "ios": "https://dc.lft.to/lastmile_qr_scan"}, "bike_id": "4c9d8d1096b00e359749937c1ad761d3", "lon": -76.998463}, {"is_reserved": 0, "fusion_lon": 0.0, "fusion_lat": 0.0, "name": "54e1f31c5d3bb389d13843efd8ea924b", "type": "electric_bike", "is_disabled": 0, "lat": 39.013725, "rental_uris": {"android": "https://dc.lft.to/lastmile_qr_scan", "ios": "https://dc.lft.to/lastmile_qr_scan"}, "bike_id": "54e1f31c5d3bb389d13843efd8ea924b", "lon": -76.9213585}, {"is_reserved": 0, "fusion_lon": 0.0, "fusion_lat": 0.0, "name": "82dd66db4b40949f9a1969e92db14f2f", "type": "electric_scooter", "is_disabled": 0, "lat": 38.90896733333334, "rental_uris": {"android": "https://dc.lft.to/lastmile_qr_scan", "ios": "https://dc.lft.to/lastmile_qr_scan"}, "bike_id": "82dd66db4b40949f9a1969e92db14f2f", "lon": -76.98234366666667}, {"is_reserved": 0, "fusion_lon": 0.0, "fusion_lat": 0.0, "name": "79ec257c1b2a21aebd7e2b556d20551c", "type": "electric_bike", "is_disabled": 0, "lat": 38.895624, "rental_uris": {"android": "https://dc.lft.to/lastmile_qr_scan", "ios": "https://dc.lft.to/lastmile_qr_scan"}, "bike_id": "79ec257c1b2a21aebd7e2b556d20551c", "lon": -77.12732066666666}, {"is_reserved": 0, "fusion_lon": 0.0, "fusion_lat": 0.0, "name": "1d0020767dea50ee9a1fafe26a8c4b27", "type": "electric_scooter", "is_disabled": 0, "lat": 38.86151, "rental_uris": {"android": "https://dc.lft.to/lastmile_qr_scan", "ios": "https://dc.lft.to/lastmile_qr_scan"}, "bike_id": "1d0020767dea50ee9a1fafe26a8c4b27", "lon": -76.9837085}, {"is_reserved": 0, "fusion_lon": 0.0, "fusion_lat": 0.0, "name": "4d3c798c192d0e0184297385964002ee", "type": "electric_scooter", "is_disabled": 0, "lat": 38.919669999999996, "rental_uris": {"android": "https://dc.lft.to/lastmile_qr_scan", "ios": "https://dc.lft.to/lastmile_qr_scan"}, "bike_id": "4d3c798c192d0e0184297385964002ee", "lon": -77.023693}, {"is_reserved": 0, "fusion_lon": 0.0, "fusion_lat": 0.0, "name": "514f4cb48a24a98aab5f7521839864ac", "type": "electric_scooter", "is_disabled": 0, "lat": 38.91421483333333, "rental_uris": {"android": "https://dc.lft.to/lastmile_qr_scan", "ios": "https://dc.lft.to/lastmile_qr_scan"}, "bike_id": "514f4cb48a24a98aab5f7521839864ac", "lon": -77.021535}, {"is_reserved": 0, "fusion_lon": 0.0, "fusion_lat": 0.0, "name": "7eb0dd6d507411593a96b5fd46fa24bf", "type": "electric_scooter", "is_disabled": 0, "lat": 38.8922755, "rental_uris": {"android": "https://dc.lft.to/lastmile_qr_scan", "ios": "https://dc.lft.to/lastmile_qr_scan"}, "bike_id": "7eb0dd6d507411593a96b5fd46fa24bf", "lon": -77.04335366666666}, {"is_reserved": 0, "fusion_lon": 0.0, "fusion_lat": 0.0, "name": "23286403c74d45ab5c68f0af46b0de6a", "type": "electric_scooter", "is_disabled": 0, "lat": 38.916061666666664, "rental_uris": {"android": "https://dc.lft.to/lastmile_qr_scan", "ios": "https://dc.lft.to/lastmile_qr_scan"}, "bike_id": "23286403c74d45ab5c68f0af46b0de6a", "lon": -77.02389066666667}, {"is_reserved": 0, "fusion_lon": 0.0, "fusion_lat": 0.0, "name": "a75549222cfa8f26e63420f399e9fbc8", "type": "electric_scooter", "is_disabled": 0, "lat": 38.93951966666667, "rental_uris": {"android": "https://dc.lft.to/lastmile_qr_scan", "ios": "https://dc.lft.to/lastmile_qr_scan"}, "bike_id": "a75549222cfa8f26e63420f399e9fbc8", "lon": -77.03663883333333}, {"is_reserved": 0, "fusion_lon": 0.0, "fusion_lat": 0.0, "name": "5c4ee3e6489c8e126ee38b6a96fdc580", "type": "electric_scooter", "is_disabled": 0, "lat": 38.933416, "rental_uris": {"android": "https://dc.lft.to/lastmile_qr_scan", "ios": "https://dc.lft.to/lastmile_qr_scan"}, "bike_id": "5c4ee3e6489c8e126ee38b6a96fdc580", "lon": -77.02618}, {"is_reserved": 0, "fusion_lon": 0.0, "fusion_lat": 0.0, "name": "c3b76fabd804c82d4e0039620ca1bc86", "type": "electric_scooter", "is_disabled": 0, "lat": 38.88601033333333, "rental_uris": {"android": "https://dc.lft.to/lastmile_qr_scan", "ios": "https://dc.lft.to/lastmile_qr_scan"}, "bike_id": "c3b76fabd804c82d4e0039620ca1bc86", "lon": -77.01243483333333}, {"is_reserved": 0, "fusion_lon": 0.0, "fusion_lat": 0.0, "name": "e7d7d5fc915d36b956d51019e61d3c5d", "type": "electric_scooter", "is_disabled": 0, "lat": 38.887825666666664, "rental_uris": {"android": "https://dc.lft.to/lastmile_qr_scan", "ios": "https://dc.lft.to/lastmile_qr_scan"}, "bike_id": "e7d7d5fc915d36b956d51019e61d3c5d", "lon": -76.95518166666666}, {"is_reserved": 0, "fusion_lon": 0.0, "fusion_lat": 0.0, "name": "c63a8d0027d86a906fb8d1e39471f462", "type": "electric_scooter", "is_disabled": 0, "lat": 38.84310083333333, "rental_uris": {"android": "https://dc.lft.to/lastmile_qr_scan", "ios": "https://dc.lft.to/lastmile_qr_scan"}, "bike_id": "c63a8d0027d86a906fb8d1e39471f462", "lon": -76.99936483333333}, {"is_reserved": 0, "fusion_lon": 0.0, "fusion_lat": 0.0, "name": "859fe6ac8be89743821dc2c04fd764a3", "type": "electric_scooter", "is_disabled": 0, "lat": 38.918166166666666, "rental_uris": {"android": "https://dc.lft.to/lastmile_qr_scan", "ios": "https://dc.lft.to/lastmile_qr_scan"}, "bike_id": "859fe6ac8be89743821dc2c04fd764a3", "lon": -77.02977366666667}, {"is_reserved": 0, "fusion_lon": 0.0, "fusion_lat": 0.0, "name": "d8194d2cd4a329c600cae03643652400", "type": "electric_scooter", "is_disabled": 0, "lat": 38.9096055, "rental_uris": {"android": "https://dc.lft.to/lastmile_qr_scan", "ios": "https://dc.lft.to/lastmile_qr_scan"}, "bike_id": "d8194d2cd4a329c600cae03643652400", "lon": -77.03861616666667}, {"is_reserved": 0, "fusion_lon": 0.0, "fusion_lat": 0.0, "name": "e3a36972c281f28281b07bfa9bb2f7ba", "type": "electric_scooter", "is_disabled": 0, "lat": 38.90826, "rental_uris": {"android": "https://dc.lft.to/lastmile_qr_scan", "ios": "https://dc.lft.to/lastmile_qr_scan"}, "bike_id": "e3a36972c281f28281b07bfa9bb2f7ba", "lon": -77.03313466666667}, {"is_reserved": 0, "fusion_lon": 0.0, "fusion_lat": 0.0, "name": "646e27a6e60d0733adb49896837ac603", "type": "electric_scooter", "is_disabled": 0, "lat": 38.8808525, "rental_uris": {"android": "https://dc.lft.to/lastmile_qr_scan", "ios": "https://dc.lft.to/lastmile_qr_scan"}, "bike_id": "646e27a6e60d0733adb49896837ac603", "lon": -76.98502783333333}, {"is_reserved": 0, "fusion_lon": 0.0, "fusion_lat": 0.0, "name": "3eb4340b68974ae3af6bf31038fb7b87", "type": "electric_scooter", "is_disabled": 0, "lat": 38.92650583333333, "rental_uris": {"android": "https://dc.lft.to/lastmile_qr_scan", "ios": "https://dc.lft.to/lastmile_qr_scan"}, "bike_id": "3eb4340b68974ae3af6bf31038fb7b87", "lon": -77.04132983333334}, {"is_reserved": 0, "fusion_lon": 0.0, "fusion_lat": 0.0, "name": "f20e7eaf83af9cea123f54524d0bd37c", "type": "electric_scooter", "is_disabled": 0, "lat": 38.9072005, "rental_uris": {"android": "https://dc.lft.to/lastmile_qr_scan", "ios": "https://dc.lft.to/lastmile_qr_scan"}, "bike_id": "f20e7eaf83af9cea123f54524d0bd37c", "lon": -77.04348}, {"is_reserved": 0, "fusion_lon": 0.0, "fusion_lat": 0.0, "name": "6cae841388111d0659aea1c70b1b1b90", "type": "electric_scooter", "is_disabled": 0, "lat": 38.926036833333335, "rental_uris": {"android": "https://dc.lft.to/lastmile_qr_scan", "ios": "https://dc.lft.to/lastmile_qr_scan"}, "bike_id": "6cae841388111d0659aea1c70b1b1b90", "lon": -77.02154566666667}, {"is_reserved": 0, "fusion_lon": 0.0, "fusion_lat": 0.0, "name": "e785d2c7c7550105d7ed7d54b8abe8b3", "type": "electric_scooter", "is_disabled": 0, "lat": 38.892227166666665, "rental_uris": {"android": "https://dc.lft.to/lastmile_qr_scan", "ios": "https://dc.lft.to/lastmile_qr_scan"}, "bike_id": "e785d2c7c7550105d7ed7d54b8abe8b3", "lon": -77.02344616666667}, {"is_reserved": 0, "fusion_lon": 0.0, "fusion_lat": 0.0, "name": "0cb513a05f5ec96520104477e6f80481", "type": "electric_scooter", "is_disabled": 0, "lat": 38.896268666666664, "rental_uris": {"android": "https://dc.lft.to/lastmile_qr_scan", "ios": "https://dc.lft.to/lastmile_qr_scan"}, "bike_id": "0cb513a05f5ec96520104477e6f80481", "lon": -77.0239995}, {"is_reserved": 0, "fusion_lon": 0.0, "fusion_lat": 0.0, "name": "767eeda1b001bce65aa611e83700bfbb", "type": "electric_scooter", "is_disabled": 0, "lat": 38.9037185, "rental_uris": {"android": "https://dc.lft.to/lastmile_qr_scan", "ios": "https://dc.lft.to/lastmile_qr_scan"}, "bike_id": "767eeda1b001bce65aa611e83700bfbb", "lon": -77.04339066666667}, {"is_reserved": 0, "fusion_lon": 0.0, "fusion_lat": 0.0, "name": "bea28af14dd23b90d19f91f3089d8a56", "type": "electric_scooter", "is_disabled": 0, "lat": 38.931143666666664, "rental_uris": {"android": "https://dc.lft.to/lastmile_qr_scan", "ios": "https://dc.lft.to/lastmile_qr_scan"}, "bike_id": "bea28af14dd23b90d19f91f3089d8a56", "lon": -77.02348316666667}, {"is_reserved": 0, "fusion_lon": 0.0, "fusion_lat": 0.0, "name": "e49bac81a7b750436b011ec7b35f8bb2", "type": "electric_scooter", "is_disabled": 0, "lat": 38.9223105, "rental_uris": {"android": "https://dc.lft.to/lastmile_qr_scan", "ios": "https://dc.lft.to/lastmile_qr_scan"}, "bike_id": "e49bac81a7b750436b011ec7b35f8bb2", "lon": -77.04493083333334}, {"is_reserved": 0, "fusion_lon": 0.0, "fusion_lat": 0.0, "name": "880e8ad1dc7b1c7d73ce82a5ff6c6e53", "type": "electric_scooter", "is_disabled": 0, "lat": 38.89224566666667, "rental_uris": {"android": "https://dc.lft.to/lastmile_qr_scan", "ios": "https://dc.lft.to/lastmile_qr_scan"}, "bike_id": "880e8ad1dc7b1c7d73ce82a5ff6c6e53", "lon": -77.04864783333333}, {"is_reserved": 0, "fusion_lon": 0.0, "fusion_lat": 0.0, "name": "a84e2c37907fd88e29fe541a641689e7", "type": "electric_scooter", "is_disabled": 0, "lat": 38.92032316666667, "rental_uris": {"android": "https://dc.lft.to/lastmile_qr_scan", "ios": "https://dc.lft.to/lastmile_qr_scan"}, "bike_id": "a84e2c37907fd88e29fe541a641689e7", "lon": -76.984901}, {"is_reserved": 0, "fusion_lon": 0.0, "fusion_lat": 0.0, "name": "310c379c2303cd4ef3fcbc2ef155186a", "type": "electric_scooter", "is_disabled": 0, "lat": 38.8830265, "rental_uris": {"android": "https://dc.lft.to/lastmile_qr_scan", "ios": "https://dc.lft.to/lastmile_qr_scan"}, "bike_id": "310c379c2303cd4ef3fcbc2ef155186a", "lon": -77.03139483333334}, {"is_reserved": 0, "fusion_lon": 0.0, "fusion_lat": 0.0, "name": "3125581cf6277cca3b19dac982b5589e", "type": "electric_scooter", "is_disabled": 0, "lat": 38.938217333333334, "rental_uris": {"android": "https://dc.lft.to/lastmile_qr_scan", "ios": "https://dc.lft.to/lastmile_qr_scan"}, "bike_id": "3125581cf6277cca3b19dac982b5589e", "lon": -77.03383266666667}, {"is_reserved": 0, "fusion_lon": 0.0, "fusion_lat": 0.0, "name": "0731e3e1f74748db969b8c2a6cc5ca8f", "type": "electric_scooter", "is_disabled": 0, "lat": 38.911151833333335, "rental_uris": {"android": "https://dc.lft.to/lastmile_qr_scan", "ios": "https://dc.lft.to/lastmile_qr_scan"}, "bike_id": "0731e3e1f74748db969b8c2a6cc5ca8f", "lon": -77.02281066666667}, {"is_reserved": 0, "fusion_lon": 0.0, "fusion_lat": 0.0, "name": "788a4de0b7b0f79ec535f447e9625261", "type": "electric_scooter", "is_disabled": 0, "lat": 38.954831666666664, "rental_uris": {"android": "https://dc.lft.to/lastmile_qr_scan", "ios": "https://dc.lft.to/lastmile_qr_scan"}, "bike_id": "788a4de0b7b0f79ec535f447e9625261", "lon": -76.98875516666666}, {"is_reserved": 0, "fusion_lon": 0.0, "fusion_lat": 0.0, "name": "70b5414dae34cf7300fa8d2a39d8afe8", "type": "electric_scooter", "is_disabled": 0, "lat": 38.893714333333335, "rental_uris": {"android": "https://dc.lft.to/lastmile_qr_scan", "ios": "https://dc.lft.to/lastmile_qr_scan"}, "bike_id": "70b5414dae34cf7300fa8d2a39d8afe8", "lon": -77.047848}, {"is_reserved": 0, "fusion_lon": 0.0, "fusion_lat": 0.0, "name": "dc36c464b14a9e6b08db1ff70451f261", "type": "electric_scooter", "is_disabled": 0, "lat": 38.924862166666664, "rental_uris": {"android": "https://dc.lft.to/lastmile_qr_scan", "ios": "https://dc.lft.to/lastmile_qr_scan"}, "bike_id": "dc36c464b14a9e6b08db1ff70451f261", "lon": -77.02695766666666}, {"is_reserved": 0, "fusion_lon": 0.0, "fusion_lat": 0.0, "name": "0ffd2cc9253489155ce27a2c08642463", "type": "electric_scooter", "is_disabled": 0, "lat": 38.912642, "rental_uris": {"android": "https://dc.lft.to/lastmile_qr_scan", "ios": "https://dc.lft.to/lastmile_qr_scan"}, "bike_id": "0ffd2cc9253489155ce27a2c08642463", "lon": -77.03124766666667}, {"is_reserved": 0, "fusion_lon": 0.0, "fusion_lat": 0.0, "name": "211019a65e990d98b42932e459099eae", "type": "electric_scooter", "is_disabled": 0, "lat": 38.908685, "rental_uris": {"android": "https://dc.lft.to/lastmile_qr_scan", "ios": "https://dc.lft.to/lastmile_qr_scan"}, "bike_id": "211019a65e990d98b42932e459099eae", "lon": -77.0859115}, {"is_reserved": 0, "fusion_lon": 0.0, "fusion_lat": 0.0, "name": "98ba062a9d19f4541e01e9a2623e07cc", "type": "electric_bike", "is_disabled": 0, "lat": 38.86265183333333, "rental_uris": {"android": "https://dc.lft.to/lastmile_qr_scan", "ios": "https://dc.lft.to/lastmile_qr_scan"}, "bike_id": "98ba062a9d19f4541e01e9a2623e07cc", "lon": -76.9835065}, {"is_reserved": 0, "fusion_lon": 0.0, "fusion_lat": 0.0, "name": "7875cac9fae8d195b6fbc96ba74ebed1", "type": "electric_scooter", "is_disabled": 0, "lat": 38.917375, "rental_uris": {"android": "https://dc.lft.to/lastmile_qr_scan", "ios": "https://dc.lft.to/lastmile_qr_scan"}, "bike_id": "7875cac9fae8d195b6fbc96ba74ebed1", "lon": -77.0269485}, {"is_reserved": 0, "fusion_lon": 0.0, "fusion_lat": 0.0, "name": "1454a52e2a49e444a11f7d58c9825abb", "type": "electric_scooter", "is_disabled": 0, "lat": 38.9360705, "rental_uris": {"android": "https://dc.lft.to/lastmile_qr_scan", "ios": "https://dc.lft.to/lastmile_qr_scan"}, "bike_id": "1454a52e2a49e444a11f7d58c9825abb", "lon": -77.03781866666667}, {"is_reserved": 0, "fusion_lon": 0.0, "fusion_lat": 0.0, "name": "89210ee0929b5b91fc593e0c589a38f0", "type": "electric_scooter", "is_disabled": 0, "lat": 38.930412833333335, "rental_uris": {"android": "https://dc.lft.to/lastmile_qr_scan", "ios": "https://dc.lft.to/lastmile_qr_scan"}, "bike_id": "89210ee0929b5b91fc593e0c589a38f0", "lon": -77.0122655}, {"is_reserved": 0, "fusion_lon": 0.0, "fusion_lat": 0.0, "name": "050810833f6c5bd231e4af24ae9822ce", "type": "electric_bike", "is_disabled": 0, "lat": 38.963187833333336, "rental_uris": {"android": "https://dc.lft.to/lastmile_qr_scan", "ios": "https://dc.lft.to/lastmile_qr_scan"}, "bike_id": "050810833f6c5bd231e4af24ae9822ce", "lon": -76.97354916666667}, {"is_reserved": 0, "fusion_lon": 0.0, "fusion_lat": 0.0, "name": "7d29dbc97925801b54863c5e0e0ed9aa", "type": "electric_scooter", "is_disabled": 0, "lat": 38.928795666666666, "rental_uris": {"android": "https://dc.lft.to/lastmile_qr_scan", "ios": "https://dc.lft.to/lastmile_qr_scan"}, "bike_id": "7d29dbc97925801b54863c5e0e0ed9aa", "lon": -77.0365825}, {"is_reserved": 0, "fusion_lon": 0.0, "fusion_lat": 0.0, "name": "feea04a51f8be63a7792ac59eb6c29b7", "type": "electric_scooter", "is_disabled": 0, "lat": 38.91814766666667, "rental_uris": {"android": "https://dc.lft.to/lastmile_qr_scan", "ios": "https://dc.lft.to/lastmile_qr_scan"}, "bike_id": "feea04a51f8be63a7792ac59eb6c29b7", "lon": -77.08961283333333}, {"is_reserved": 0, "fusion_lon": 0.0, "fusion_lat": 0.0, "name": "309ab8dbc0b5662525bd74082fa13410", "type": "electric_bike", "is_disabled": 0, "lat": 38.81839983333333, "rental_uris": {"android": "https://dc.lft.to/lastmile_qr_scan", "ios": "https://dc.lft.to/lastmile_qr_scan"}, "bike_id": "309ab8dbc0b5662525bd74082fa13410", "lon": -77.10576533333334}, {"is_reserved": 0, "fusion_lon": 0.0, "fusion_lat": 0.0, "name": "7ad5b4212d399e85479dd721d74dd9ba", "type": "electric_scooter", "is_disabled": 0, "lat": 38.871859, "rental_uris": {"android": "https://dc.lft.to/lastmile_qr_scan", "ios": "https://dc.lft.to/lastmile_qr_scan"}, "bike_id": "7ad5b4212d399e85479dd721d74dd9ba", "lon": -77.00601916666666}, {"is_reserved": 0, "fusion_lon": 0.0, "fusion_lat": 0.0, "name": "3eb0383cdcd8e682795ba555f24ef21b", "type": "electric_scooter", "is_disabled": 0, "lat": 38.8987745, "rental_uris": {"android": "https://dc.lft.to/lastmile_qr_scan", "ios": "https://dc.lft.to/lastmile_qr_scan"}, "bike_id": "3eb0383cdcd8e682795ba555f24ef21b", "lon": -76.93187216666666}, {"is_reserved": 0, "fusion_lon": 0.0, "fusion_lat": 0.0, "name": "aea8b559e248b5eb3952baacadb3ff0b", "type": "electric_bike", "is_disabled": 0, "lat": 38.8662155, "rental_uris": {"android": "https://dc.lft.to/lastmile_qr_scan", "ios": "https://dc.lft.to/lastmile_qr_scan"}, "bike_id": "aea8b559e248b5eb3952baacadb3ff0b", "lon": -76.94567466666666}, {"is_reserved": 0, "fusion_lon": 0.0, "fusion_lat": 0.0, "name": "f88cb006e1221514cff33cea0bf13f7c", "type": "electric_scooter", "is_disabled": 0, "lat": 38.87471383333333, "rental_uris": {"android": "https://dc.lft.to/lastmile_qr_scan", "ios": "https://dc.lft.to/lastmile_qr_scan"}, "bike_id": "f88cb006e1221514cff33cea0bf13f7c", "lon": -77.00560416666667}, {"is_reserved": 0, "fusion_lon": 0.0, "fusion_lat": 0.0, "name": "2176bd7128e06728cd318d742690e4f3", "type": "electric_scooter", "is_disabled": 0, "lat": 38.9041325, "rental_uris": {"android": "https://dc.lft.to/lastmile_qr_scan", "ios": "https://dc.lft.to/lastmile_qr_scan"}, "bike_id": "2176bd7128e06728cd318d742690e4f3", "lon": -76.99836416666666}, {"is_reserved": 0, "fusion_lon": 0.0, "fusion_lat": 0.0, "name": "40380797767fd7363dbf2e96b930ad73", "type": "electric_scooter", "is_disabled": 0, "lat": 38.926185333333336, "rental_uris": {"android": "https://dc.lft.to/lastmile_qr_scan", "ios": "https://dc.lft.to/lastmile_qr_scan"}, "bike_id": "40380797767fd7363dbf2e96b930ad73", "lon": -77.03957883333334}, {"is_reserved": 0, "fusion_lon": 0.0, "fusion_lat": 0.0, "name": "3b26e422b6d36f6888e99b8ce3fd5a09", "type": "electric_scooter", "is_disabled": 0, "lat": 38.880832166666664, "rental_uris": {"android": "https://dc.lft.to/lastmile_qr_scan", "ios": "https://dc.lft.to/lastmile_qr_scan"}, "bike_id": "3b26e422b6d36f6888e99b8ce3fd5a09", "lon": -76.99837166666667}, {"is_reserved": 0, "fusion_lon": 0.0, "fusion_lat": 0.0, "name": "9517713f7f798885ab2157d648e1505b", "type": "electric_scooter", "is_disabled": 0, "lat": 38.91420733333333, "rental_uris": {"android": "https://dc.lft.to/lastmile_qr_scan", "ios": "https://dc.lft.to/lastmile_qr_scan"}, "bike_id": "9517713f7f798885ab2157d648e1505b", "lon": -77.04921316666666}, {"is_reserved": 0, "fusion_lon": 0.0, "fusion_lat": 0.0, "name": "30ab2989417493b84548dd53c0a944c1", "type": "electric_scooter", "is_disabled": 0, "lat": 38.90269833333333, "rental_uris": {"android": "https://dc.lft.to/lastmile_qr_scan", "ios": "https://dc.lft.to/lastmile_qr_scan"}, "bike_id": "30ab2989417493b84548dd53c0a944c1", "lon": -77.01759116666666}, {"is_reserved": 0, "fusion_lon": 0.0, "fusion_lat": 0.0, "name": "3c885760a677d9d0822a83e98df44948", "type": "electric_scooter", "is_disabled": 0, "lat": 38.9248395, "rental_uris": {"android": "https://dc.lft.to/lastmile_qr_scan", "ios": "https://dc.lft.to/lastmile_qr_scan"}, "bike_id": "3c885760a677d9d0822a83e98df44948", "lon": -77.0318655}, {"is_reserved": 0, "fusion_lon": 0.0, "fusion_lat": 0.0, "name": "a664c325c7321d57c8c3ae8ca07a4341", "type": "electric_scooter", "is_disabled": 0, "lat": 38.883858833333335, "rental_uris": {"android": "https://dc.lft.to/lastmile_qr_scan", "ios": "https://dc.lft.to/lastmile_qr_scan"}, "bike_id": "a664c325c7321d57c8c3ae8ca07a4341", "lon": -77.0303805}, {"is_reserved": 0, "fusion_lon": 0.0, "fusion_lat": 0.0, "name": "7d13ade63c03539cd9607a9cc2ac26d6", "type": "electric_scooter", "is_disabled": 0, "lat": 38.90624866666667, "rental_uris": {"android": "https://dc.lft.to/lastmile_qr_scan", "ios": "https://dc.lft.to/lastmile_qr_scan"}, "bike_id": "7d13ade63c03539cd9607a9cc2ac26d6", "lon": -76.98686}, {"is_reserved": 0, "fusion_lon": 0.0, "fusion_lat": 0.0, "name": "fd91179153b9b590b54bf510f373b1ee", "type": "electric_scooter", "is_disabled": 0, "lat": 38.91754366666667, "rental_uris": {"android": "https://dc.lft.to/lastmile_qr_scan", "ios": "https://dc.lft.to/lastmile_qr_scan"}, "bike_id": "fd91179153b9b590b54bf510f373b1ee", "lon": -77.01220533333333}, {"is_reserved": 0, "fusion_lon": 0.0, "fusion_lat": 0.0, "name": "18703a1b6033f113a15b933637a0535a", "type": "electric_scooter", "is_disabled": 0, "lat": 38.876343166666665, "rental_uris": {"android": "https://dc.lft.to/lastmile_qr_scan", "ios": "https://dc.lft.to/lastmile_qr_scan"}, "bike_id": "18703a1b6033f113a15b933637a0535a", "lon": -77.01255533333334}, {"is_reserved": 0, "fusion_lon": 0.0, "fusion_lat": 0.0, "name": "f5ea2785958a6d96d80ce182969119be", "type": "electric_scooter", "is_disabled": 0, "lat": 38.860085833333336, "rental_uris": {"android": "https://dc.lft.to/lastmile_qr_scan", "ios": "https://dc.lft.to/lastmile_qr_scan"}, "bike_id": "f5ea2785958a6d96d80ce182969119be", "lon": -76.98521266666667}, {"is_reserved": 0, "fusion_lon": 0.0, "fusion_lat": 0.0, "name": "6102f3aa589721041426bb3d9c891a10", "type": "electric_scooter", "is_disabled": 0, "lat": 38.900787333333334, "rental_uris": {"android": "https://dc.lft.to/lastmile_qr_scan", "ios": "https://dc.lft.to/lastmile_qr_scan"}, "bike_id": "6102f3aa589721041426bb3d9c891a10", "lon": -77.00202883333333}, {"is_reserved": 0, "fusion_lon": 0.0, "fusion_lat": 0.0, "name": "ef5a98ac198df92db47dab344c841a79", "type": "electric_scooter", "is_disabled": 0, "lat": 38.90498183333333, "rental_uris": {"android": "https://dc.lft.to/lastmile_qr_scan", "ios": "https://dc.lft.to/lastmile_qr_scan"}, "bike_id": "ef5a98ac198df92db47dab344c841a79", "lon": -76.974241}, {"is_reserved": 0, "fusion_lon": 0.0, "fusion_lat": 0.0, "name": "6c601f821820284067fb11961d8e5edf", "type": "electric_bike", "is_disabled": 0, "lat": 38.8961765, "rental_uris": {"android": "https://dc.lft.to/lastmile_qr_scan", "ios": "https://dc.lft.to/lastmile_qr_scan"}, "bike_id": "6c601f821820284067fb11961d8e5edf", "lon": -76.90745083333333}, {"is_reserved": 0, "fusion_lon": 0.0, "fusion_lat": 0.0, "name": "3578687604d50e7a73e2e1082b01dcd4", "type": "electric_scooter", "is_disabled": 0, "lat": 38.933318666666665, "rental_uris": {"android": "https://dc.lft.to/lastmile_qr_scan", "ios": "https://dc.lft.to/lastmile_qr_scan"}, "bike_id": "3578687604d50e7a73e2e1082b01dcd4", "lon": -77.03439916666666}, {"is_reserved": 0, "fusion_lon": 0.0, "fusion_lat": 0.0, "name": "9f122ea140b5a125933095d235045ac7", "type": "electric_scooter", "is_disabled": 0, "lat": 38.897317666666666, "rental_uris": {"android": "https://dc.lft.to/lastmile_qr_scan", "ios": "https://dc.lft.to/lastmile_qr_scan"}, "bike_id": "9f122ea140b5a125933095d235045ac7", "lon": -77.05567966666666}, {"is_reserved": 0, "fusion_lon": 0.0, "fusion_lat": 0.0, "name": "6d8041dfa2e51ba219979c47ac242730", "type": "electric_scooter", "is_disabled": 0, "lat": 38.88537633333333, "rental_uris": {"android": "https://dc.lft.to/lastmile_qr_scan", "ios": "https://dc.lft.to/lastmile_qr_scan"}, "bike_id": "6d8041dfa2e51ba219979c47ac242730", "lon": -76.98272933333334}, {"is_reserved": 0, "fusion_lon": 0.0, "fusion_lat": 0.0, "name": "7e9b511d2b6cf518efd3ae2602e15623", "type": "electric_scooter", "is_disabled": 0, "lat": 38.87914883333333, "rental_uris": {"android": "https://dc.lft.to/lastmile_qr_scan", "ios": "https://dc.lft.to/lastmile_qr_scan"}, "bike_id": "7e9b511d2b6cf518efd3ae2602e15623", "lon": -77.0069935}, {"is_reserved": 0, "fusion_lon": 0.0, "fusion_lat": 0.0, "name": "a664d82c7bdb0b0ee30f4e3072498b06", "type": "electric_scooter", "is_disabled": 0, "lat": 38.90445183333333, "rental_uris": {"android": "https://dc.lft.to/lastmile_qr_scan", "ios": "https://dc.lft.to/lastmile_qr_scan"}, "bike_id": "a664d82c7bdb0b0ee30f4e3072498b06", "lon": -77.01712633333334}, {"is_reserved": 0, "fusion_lon": 0.0, "fusion_lat": 0.0, "name": "ec13b47c4da04076385cbb0d99a1ddcc", "type": "electric_scooter", "is_disabled": 0, "lat": 38.91821433333333, "rental_uris": {"android": "https://dc.lft.to/lastmile_qr_scan", "ios": "https://dc.lft.to/lastmile_qr_scan"}, "bike_id": "ec13b47c4da04076385cbb0d99a1ddcc", "lon": -77.03463916666666}, {"is_reserved": 0, "fusion_lon": 0.0, "fusion_lat": 0.0, "name": "14578857bca6a9c40c1454bc776d5ea6", "type": "electric_scooter", "is_disabled": 0, "lat": 38.931024666666666, "rental_uris": {"android": "https://dc.lft.to/lastmile_qr_scan", "ios": "https://dc.lft.to/lastmile_qr_scan"}, "bike_id": "14578857bca6a9c40c1454bc776d5ea6", "lon": -77.02662283333333}, {"is_reserved": 0, "fusion_lon": 0.0, "fusion_lat": 0.0, "name": "129f8b041bfa37c28bfcb85d3cd4b7d1", "type": "electric_scooter", "is_disabled": 0, "lat": 38.90387716666667, "rental_uris": {"android": "https://dc.lft.to/lastmile_qr_scan", "ios": "https://dc.lft.to/lastmile_qr_scan"}, "bike_id": "129f8b041bfa37c28bfcb85d3cd4b7d1", "lon": -77.03009333333334}, {"is_reserved": 0, "fusion_lon": 0.0, "fusion_lat": 0.0, "name": "6de10e656861fb52c228534c451e46d4", "type": "electric_scooter", "is_disabled": 0, "lat": 38.897408666666664, "rental_uris": {"android": "https://dc.lft.to/lastmile_qr_scan", "ios": "https://dc.lft.to/lastmile_qr_scan"}, "bike_id": "6de10e656861fb52c228534c451e46d4", "lon": -77.03358116666666}, {"is_reserved": 0, "fusion_lon": 0.0, "fusion_lat": 0.0, "name": "f918008e283ab73c63e5578fb13fbd7a", "type": "electric_scooter", "is_disabled": 0, "lat": 38.88991033333333, "rental_uris": {"android": "https://dc.lft.to/lastmile_qr_scan", "ios": "https://dc.lft.to/lastmile_qr_scan"}, "bike_id": "f918008e283ab73c63e5578fb13fbd7a", "lon": -76.93109183333334}, {"is_reserved": 0, "fusion_lon": 0.0, "fusion_lat": 0.0, "name": "dd7d28dd365a2bad714f881d6dbdd206", "type": "electric_scooter", "is_disabled": 0, "lat": 38.908868, "rental_uris": {"android": "https://dc.lft.to/lastmile_qr_scan", "ios": "https://dc.lft.to/lastmile_qr_scan"}, "bike_id": "dd7d28dd365a2bad714f881d6dbdd206", "lon": -77.07292833333334}, {"is_reserved": 0, "fusion_lon": 0.0, "fusion_lat": 0.0, "name": "517ef384a6bf5ca694c931440eb9c5c2", "type": "electric_scooter", "is_disabled": 0, "lat": 38.92230333333333, "rental_uris": {"android": "https://dc.lft.to/lastmile_qr_scan", "ios": "https://dc.lft.to/lastmile_qr_scan"}, "bike_id": "517ef384a6bf5ca694c931440eb9c5c2", "lon": -76.97528683333333}, {"is_reserved": 0, "fusion_lon": 0.0, "fusion_lat": 0.0, "name": "15578c01453b5adc82b10e3edf8cf1a7", "type": "electric_scooter", "is_disabled": 0, "lat": 38.91698483333333, "rental_uris": {"android": "https://dc.lft.to/lastmile_qr_scan", "ios": "https://dc.lft.to/lastmile_qr_scan"}, "bike_id": "15578c01453b5adc82b10e3edf8cf1a7", "lon": -77.0320915}, {"is_reserved": 0, "fusion_lon": 0.0, "fusion_lat": 0.0, "name": "b763e994d02106f8d4ea80482824344a", "type": "electric_scooter", "is_disabled": 0, "lat": 38.892237, "rental_uris": {"android": "https://dc.lft.to/lastmile_qr_scan", "ios": "https://dc.lft.to/lastmile_qr_scan"}, "bike_id": "b763e994d02106f8d4ea80482824344a", "lon": -77.04376083333334}, {"is_reserved": 0, "fusion_lon": 0.0, "fusion_lat": 0.0, "name": "903d915cdfbecca63c20aaa76260fb6c", "type": "electric_scooter", "is_disabled": 0, "lat": 38.945297833333335, "rental_uris": {"android": "https://dc.lft.to/lastmile_qr_scan", "ios": "https://dc.lft.to/lastmile_qr_scan"}, "bike_id": "903d915cdfbecca63c20aaa76260fb6c", "lon": -77.02092516666667}, {"is_reserved": 0, "fusion_lon": 0.0, "fusion_lat": 0.0, "name": "1a5c34ed2419795dfd853e2892cd3513", "type": "electric_scooter", "is_disabled": 0, "lat": 38.90606533333333, "rental_uris": {"android": "https://dc.lft.to/lastmile_qr_scan", "ios": "https://dc.lft.to/lastmile_qr_scan"}, "bike_id": "1a5c34ed2419795dfd853e2892cd3513", "lon": -76.98520066666667}, {"is_reserved": 0, "fusion_lon": 0.0, "fusion_lat": 0.0, "name": "337916cc3300410cff408834698efa9e", "type": "electric_scooter", "is_disabled": 0, "lat": 38.923940333333334, "rental_uris": {"android": "https://dc.lft.to/lastmile_qr_scan", "ios": "https://dc.lft.to/lastmile_qr_scan"}, "bike_id": "337916cc3300410cff408834698efa9e", "lon": -77.03545066666666}, {"is_reserved": 0, "fusion_lon": 0.0, "fusion_lat": 0.0, "name": "11dd17f96d8eb150e889d0250b25aed2", "type": "electric_scooter", "is_disabled": 0, "lat": 38.934676333333336, "rental_uris": {"android": "https://dc.lft.to/lastmile_qr_scan", "ios": "https://dc.lft.to/lastmile_qr_scan"}, "bike_id": "11dd17f96d8eb150e889d0250b25aed2", "lon": -77.03051616666667}, {"is_reserved": 0, "fusion_lon": 0.0, "fusion_lat": 0.0, "name": "6e89ea700342fbd041fa3caf43aaa600", "type": "electric_scooter", "is_disabled": 0, "lat": 38.917992166666664, "rental_uris": {"android": "https://dc.lft.to/lastmile_qr_scan", "ios": "https://dc.lft.to/lastmile_qr_scan"}, "bike_id": "6e89ea700342fbd041fa3caf43aaa600", "lon": -77.03208766666667}, {"is_reserved": 0, "fusion_lon": 0.0, "fusion_lat": 0.0, "name": "9459a2b5abdf94c1b26227e9f61fb2fb", "type": "electric_scooter", "is_disabled": 0, "lat": 38.91263133333333, "rental_uris": {"android": "https://dc.lft.to/lastmile_qr_scan", "ios": "https://dc.lft.to/lastmile_qr_scan"}, "bike_id": "9459a2b5abdf94c1b26227e9f61fb2fb", "lon": -77.03118483333333}, {"is_reserved": 0, "fusion_lon": 0.0, "fusion_lat": 0.0, "name": "94ac7ef9f0b0f1f60d3d9cecf3e617b9", "type": "electric_scooter", "is_disabled": 0, "lat": 38.95057583333333, "rental_uris": {"android": "https://dc.lft.to/lastmile_qr_scan", "ios": "https://dc.lft.to/lastmile_qr_scan"}, "bike_id": "94ac7ef9f0b0f1f60d3d9cecf3e617b9", "lon": -77.007227}, {"is_reserved": 0, "fusion_lon": 0.0, "fusion_lat": 0.0, "name": "390b60bee9bb574eaf937d8dd102ab52", "type": "electric_scooter", "is_disabled": 0, "lat": 38.896196333333336, "rental_uris": {"android": "https://dc.lft.to/lastmile_qr_scan", "ios": "https://dc.lft.to/lastmile_qr_scan"}, "bike_id": "390b60bee9bb574eaf937d8dd102ab52", "lon": -76.99299066666667}, {"is_reserved": 0, "fusion_lon": 0.0, "fusion_lat": 0.0, "name": "27c2ab38dd527b8df28e83f4dcbae40d", "type": "electric_scooter", "is_disabled": 0, "lat": 38.892221666666664, "rental_uris": {"android": "https://dc.lft.to/lastmile_qr_scan", "ios": "https://dc.lft.to/lastmile_qr_scan"}, "bike_id": "27c2ab38dd527b8df28e83f4dcbae40d", "lon": -77.03161833333333}, {"is_reserved": 0, "fusion_lon": 0.0, "fusion_lat": 0.0, "name": "46cd812f8e96af1dd0330eb81c5b2d93", "type": "electric_bike", "is_disabled": 0, "lat": 38.922149833333336, "rental_uris": {"android": "https://dc.lft.to/lastmile_qr_scan", "ios": "https://dc.lft.to/lastmile_qr_scan"}, "bike_id": "46cd812f8e96af1dd0330eb81c5b2d93", "lon": -77.0819075}, {"is_reserved": 0, "fusion_lon": 0.0, "fusion_lat": 0.0, "name": "bcd1d4032eeb958318d4646ed6e41df2", "type": "electric_scooter", "is_disabled": 0, "lat": 38.913324333333335, "rental_uris": {"android": "https://dc.lft.to/lastmile_qr_scan", "ios": "https://dc.lft.to/lastmile_qr_scan"}, "bike_id": "bcd1d4032eeb958318d4646ed6e41df2", "lon": -77.04819466666666}, {"is_reserved": 0, "fusion_lon": 0.0, "fusion_lat": 0.0, "name": "99bf9ee6d0cd245a59651c0b76d5d3ab", "type": "electric_scooter", "is_disabled": 0, "lat": 38.9228305, "rental_uris": {"android": "https://dc.lft.to/lastmile_qr_scan", "ios": "https://dc.lft.to/lastmile_qr_scan"}, "bike_id": "99bf9ee6d0cd245a59651c0b76d5d3ab", "lon": -77.072836}, {"is_reserved": 0, "fusion_lon": 0.0, "fusion_lat": 0.0, "name": "450908345ac5da3e6b5476a62d2b8c8d", "type": "electric_scooter", "is_disabled": 0, "lat": 38.909052833333334, "rental_uris": {"android": "https://dc.lft.to/lastmile_qr_scan", "ios": "https://dc.lft.to/lastmile_qr_scan"}, "bike_id": "450908345ac5da3e6b5476a62d2b8c8d", "lon": -76.99857233333333}, {"is_reserved": 0, "fusion_lon": 0.0, "fusion_lat": 0.0, "name": "c0bfd9455def4e74133997e357d168db", "type": "electric_bike", "is_disabled": 0, "lat": 38.836064, "rental_uris": {"android": "https://dc.lft.to/lastmile_qr_scan", "ios": "https://dc.lft.to/lastmile_qr_scan"}, "bike_id": "c0bfd9455def4e74133997e357d168db", "lon": -77.0038215}, {"is_reserved": 0, "fusion_lon": 0.0, "fusion_lat": 0.0, "name": "ec8309d63e10bcde5f13b927d8c6ec6b", "type": "electric_scooter", "is_disabled": 0, "lat": 38.92158966666667, "rental_uris": {"android": "https://dc.lft.to/lastmile_qr_scan", "ios": "https://dc.lft.to/lastmile_qr_scan"}, "bike_id": "ec8309d63e10bcde5f13b927d8c6ec6b", "lon": -77.04226383333334}, {"is_reserved": 0, "fusion_lon": 0.0, "fusion_lat": 0.0, "name": "c2f50c3f9d91085383e4c2fbc36da647", "type": "electric_scooter", "is_disabled": 0, "lat": 38.90261983333333, "rental_uris": {"android": "https://dc.lft.to/lastmile_qr_scan", "ios": "https://dc.lft.to/lastmile_qr_scan"}, "bike_id": "c2f50c3f9d91085383e4c2fbc36da647", "lon": -77.03905116666667}, {"is_reserved": 0, "fusion_lon": 0.0, "fusion_lat": 0.0, "name": "e5ce85c3f517c3b7c864bbc75e9fbef0", "type": "electric_scooter", "is_disabled": 0, "lat": 38.9059425, "rental_uris": {"android": "https://dc.lft.to/lastmile_qr_scan", "ios": "https://dc.lft.to/lastmile_qr_scan"}, "bike_id": "e5ce85c3f517c3b7c864bbc75e9fbef0", "lon": -77.02219683333334}, {"is_reserved": 0, "fusion_lon": 0.0, "fusion_lat": 0.0, "name": "e232e53dcb8a921f59e4037619d35c70", "type": "electric_scooter", "is_disabled": 0, "lat": 38.849965166666664, "rental_uris": {"android": "https://dc.lft.to/lastmile_qr_scan", "ios": "https://dc.lft.to/lastmile_qr_scan"}, "bike_id": "e232e53dcb8a921f59e4037619d35c70", "lon": -76.983464}, {"is_reserved": 0, "fusion_lon": 0.0, "fusion_lat": 0.0, "name": "81aef9abeda9025ac636e302fd36bdca", "type": "electric_scooter", "is_disabled": 0, "lat": 38.90176783333333, "rental_uris": {"android": "https://dc.lft.to/lastmile_qr_scan", "ios": "https://dc.lft.to/lastmile_qr_scan"}, "bike_id": "81aef9abeda9025ac636e302fd36bdca", "lon": -76.92865366666666}, {"is_reserved": 0, "fusion_lon": 0.0, "fusion_lat": 0.0, "name": "94a07df3cd1921ee5f62ff582cdd0058", "type": "electric_scooter", "is_disabled": 0, "lat": 38.8585155, "rental_uris": {"android": "https://dc.lft.to/lastmile_qr_scan", "ios": "https://dc.lft.to/lastmile_qr_scan"}, "bike_id": "94a07df3cd1921ee5f62ff582cdd0058", "lon": -76.98563533333333}, {"is_reserved": 0, "fusion_lon": 0.0, "fusion_lat": 0.0, "name": "5b52040c72b3ff68edf7473f7f606974", "type": "electric_scooter", "is_disabled": 0, "lat": 38.890031666666665, "rental_uris": {"android": "https://dc.lft.to/lastmile_qr_scan", "ios": "https://dc.lft.to/lastmile_qr_scan"}, "bike_id": "5b52040c72b3ff68edf7473f7f606974", "lon": -77.048914}, {"is_reserved": 0, "fusion_lon": 0.0, "fusion_lat": 0.0, "name": "1b80b2e9342a8b9fe2ab44646984ee0c", "type": "electric_scooter", "is_disabled": 0, "lat": 38.90726166666666, "rental_uris": {"android": "https://dc.lft.to/lastmile_qr_scan", "ios": "https://dc.lft.to/lastmile_qr_scan"}, "bike_id": "1b80b2e9342a8b9fe2ab44646984ee0c", "lon": -77.0434845}, {"is_reserved": 0, "fusion_lon": 0.0, "fusion_lat": 0.0, "name": "373b869304c91836de596d3bd8d18117", "type": "electric_scooter", "is_disabled": 0, "lat": 38.89875633333333, "rental_uris": {"android": "https://dc.lft.to/lastmile_qr_scan", "ios": "https://dc.lft.to/lastmile_qr_scan"}, "bike_id": "373b869304c91836de596d3bd8d18117", "lon": -76.92741}, {"is_reserved": 0, "fusion_lon": 0.0, "fusion_lat": 0.0, "name": "2b5c50498c09c10e8a255926954cbe8e", "type": "electric_scooter", "is_disabled": 0, "lat": 38.90084933333333, "rental_uris": {"android": "https://dc.lft.to/lastmile_qr_scan", "ios": "https://dc.lft.to/lastmile_qr_scan"}, "bike_id": "2b5c50498c09c10e8a255926954cbe8e", "lon": -76.93021616666667}, {"is_reserved": 0, "fusion_lon": 0.0, "fusion_lat": 0.0, "name": "4fc9a5c8ffb029ee1b4ab827688c951b", "type": "electric_bike", "is_disabled": 0, "lat": 38.93570166666667, "rental_uris": {"android": "https://dc.lft.to/lastmile_qr_scan", "ios": "https://dc.lft.to/lastmile_qr_scan"}, "bike_id": "4fc9a5c8ffb029ee1b4ab827688c951b", "lon": -77.108523}, {"is_reserved": 0, "fusion_lon": 0.0, "fusion_lat": 0.0, "name": "d9dba85c48e4959dea3b272a13afe5a9", "type": "electric_bike", "is_disabled": 0, "lat": 38.956528666666664, "rental_uris": {"android": "https://dc.lft.to/lastmile_qr_scan", "ios": "https://dc.lft.to/lastmile_qr_scan"}, "bike_id": "d9dba85c48e4959dea3b272a13afe5a9", "lon": -77.0127925}, {"is_reserved": 0, "fusion_lon": 0.0, "fusion_lat": 0.0, "name": "189617256c35f38006785b2194f4ab53", "type": "electric_bike", "is_disabled": 0, "lat": 38.96508883333333, "rental_uris": {"android": "https://dc.lft.to/lastmile_qr_scan", "ios": "https://dc.lft.to/lastmile_qr_scan"}, "bike_id": "189617256c35f38006785b2194f4ab53", "lon": -77.028256}, {"is_reserved": 0, "fusion_lon": 0.0, "fusion_lat": 0.0, "name": "322fdb00f675e55db390c9d54660da0c", "type": "electric_scooter", "is_disabled": 0, "lat": 38.94126216666667, "rental_uris": {"android": "https://dc.lft.to/lastmile_qr_scan", "ios": "https://dc.lft.to/lastmile_qr_scan"}, "bike_id": "322fdb00f675e55db390c9d54660da0c", "lon": -77.0154295}, {"is_reserved": 0, "fusion_lon": 0.0, "fusion_lat": 0.0, "name": "95773ec1ebaf2b38099c93567d8c88a5", "type": "electric_scooter", "is_disabled": 0, "lat": 38.9177725, "rental_uris": {"android": "https://dc.lft.to/lastmile_qr_scan", "ios": "https://dc.lft.to/lastmile_qr_scan"}, "bike_id": "95773ec1ebaf2b38099c93567d8c88a5", "lon": -77.04058883333333}, {"is_reserved": 0, "fusion_lon": 0.0, "fusion_lat": 0.0, "name": "2c9b4f7e9757a7c2ef5beeb6e15aae89", "type": "electric_scooter", "is_disabled": 0, "lat": 38.88713766666667, "rental_uris": {"android": "https://dc.lft.to/lastmile_qr_scan", "ios": "https://dc.lft.to/lastmile_qr_scan"}, "bike_id": "2c9b4f7e9757a7c2ef5beeb6e15aae89", "lon": -77.017738}, {"is_reserved": 0, "fusion_lon": 0.0, "fusion_lat": 0.0, "name": "6c37752ccdc4395315b920426d4cf503", "type": "electric_scooter", "is_disabled": 0, "lat": 38.88481816666667, "rental_uris": {"android": "https://dc.lft.to/lastmile_qr_scan", "ios": "https://dc.lft.to/lastmile_qr_scan"}, "bike_id": "6c37752ccdc4395315b920426d4cf503", "lon": -76.92628083333334}, {"is_reserved": 0, "fusion_lon": 0.0, "fusion_lat": 0.0, "name": "4e388e12446508901779d9e2c2c1714e", "type": "electric_scooter", "is_disabled": 0, "lat": 38.91474616666667, "rental_uris": {"android": "https://dc.lft.to/lastmile_qr_scan", "ios": "https://dc.lft.to/lastmile_qr_scan"}, "bike_id": "4e388e12446508901779d9e2c2c1714e", "lon": -76.98364166666667}, {"is_reserved": 0, "fusion_lon": 0.0, "fusion_lat": 0.0, "name": "716ea7b1b5385d374dde0f55d16b9572", "type": "electric_scooter", "is_disabled": 0, "lat": 38.85537216666667, "rental_uris": {"android": "https://dc.lft.to/lastmile_qr_scan", "ios": "https://dc.lft.to/lastmile_qr_scan"}, "bike_id": "716ea7b1b5385d374dde0f55d16b9572", "lon": -76.98416866666666}, {"is_reserved": 0, "fusion_lon": 0.0, "fusion_lat": 0.0, "name": "a5333db590530ead2cff765607e12619", "type": "electric_scooter", "is_disabled": 0, "lat": 38.914724, "rental_uris": {"android": "https://dc.lft.to/lastmile_qr_scan", "ios": "https://dc.lft.to/lastmile_qr_scan"}, "bike_id": "a5333db590530ead2cff765607e12619", "lon": -77.038395}, {"is_reserved": 0, "fusion_lon": 0.0, "fusion_lat": 0.0, "name": "3376ba962fe506ca2a522d556d2169fe", "type": "electric_scooter", "is_disabled": 0, "lat": 38.90831416666666, "rental_uris": {"android": "https://dc.lft.to/lastmile_qr_scan", "ios": "https://dc.lft.to/lastmile_qr_scan"}, "bike_id": "3376ba962fe506ca2a522d556d2169fe", "lon": -77.07411783333333}, {"is_reserved": 0, "fusion_lon": 0.0, "fusion_lat": 0.0, "name": "db6b5e679e6d34cb246544e42db6287a", "type": "electric_scooter", "is_disabled": 0, "lat": 38.908319666666664, "rental_uris": {"android": "https://dc.lft.to/lastmile_qr_scan", "ios": "https://dc.lft.to/lastmile_qr_scan"}, "bike_id": "db6b5e679e6d34cb246544e42db6287a", "lon": -77.03314583333334}, {"is_reserved": 0, "fusion_lon": 0.0, "fusion_lat": 0.0, "name": "2149d4fc30280783e37b7cb2cda9b816", "type": "electric_scooter", "is_disabled": 0, "lat": 38.950717, "rental_uris": {"android": "https://dc.lft.to/lastmile_qr_scan", "ios": "https://dc.lft.to/lastmile_qr_scan"}, "bike_id": "2149d4fc30280783e37b7cb2cda9b816", "lon": -76.99565016666666}, {"is_reserved": 0, "fusion_lon": 0.0, "fusion_lat": 0.0, "name": "4616a7a87595df3284232c54c50a0be2", "type": "electric_scooter", "is_disabled": 0, "lat": 38.91549933333334, "rental_uris": {"android": "https://dc.lft.to/lastmile_qr_scan", "ios": "https://dc.lft.to/lastmile_qr_scan"}, "bike_id": "4616a7a87595df3284232c54c50a0be2", "lon": -77.03850466666667}, {"is_reserved": 0, "fusion_lon": 0.0, "fusion_lat": 0.0, "name": "89934d28a01ff0be0f09c9603471618d", "type": "electric_bike", "is_disabled": 0, "lat": 38.956881833333334, "rental_uris": {"android": "https://dc.lft.to/lastmile_qr_scan", "ios": "https://dc.lft.to/lastmile_qr_scan"}, "bike_id": "89934d28a01ff0be0f09c9603471618d", "lon": -77.02230166666666}, {"is_reserved": 0, "fusion_lon": 0.0, "fusion_lat": 0.0, "name": "2f119a81a3d48d42892253f549dfc093", "type": "electric_scooter", "is_disabled": 0, "lat": 38.89546416666666, "rental_uris": {"android": "https://dc.lft.to/lastmile_qr_scan", "ios": "https://dc.lft.to/lastmile_qr_scan"}, "bike_id": "2f119a81a3d48d42892253f549dfc093", "lon": -77.05660333333333}, {"is_reserved": 0, "fusion_lon": 0.0, "fusion_lat": 0.0, "name": "e77c93763ba01cb998b66f68235530c8", "type": "electric_scooter", "is_disabled": 0, "lat": 38.90352733333334, "rental_uris": {"android": "https://dc.lft.to/lastmile_qr_scan", "ios": "https://dc.lft.to/lastmile_qr_scan"}, "bike_id": "e77c93763ba01cb998b66f68235530c8", "lon": -77.0393755}, {"is_reserved": 0, "fusion_lon": 0.0, "fusion_lat": 0.0, "name": "7b996bceb2ab9d5be1c9fc5a4ca4cc79", "type": "electric_scooter", "is_disabled": 0, "lat": 38.9140445, "rental_uris": {"android": "https://dc.lft.to/lastmile_qr_scan", "ios": "https://dc.lft.to/lastmile_qr_scan"}, "bike_id": "7b996bceb2ab9d5be1c9fc5a4ca4cc79", "lon": -77.03952966666667}, {"is_reserved": 0, "fusion_lon": 0.0, "fusion_lat": 0.0, "name": "943f4f7b917965e2eda665e6154cddaf", "type": "electric_scooter", "is_disabled": 0, "lat": 38.91677083333333, "rental_uris": {"android": "https://dc.lft.to/lastmile_qr_scan", "ios": "https://dc.lft.to/lastmile_qr_scan"}, "bike_id": "943f4f7b917965e2eda665e6154cddaf", "lon": -77.029721}, {"is_reserved": 0, "fusion_lon": 0.0, "fusion_lat": 0.0, "name": "663eead22f06a427ef8fc9cd386c51c9", "type": "electric_scooter", "is_disabled": 0, "lat": 38.91764283333333, "rental_uris": {"android": "https://dc.lft.to/lastmile_qr_scan", "ios": "https://dc.lft.to/lastmile_qr_scan"}, "bike_id": "663eead22f06a427ef8fc9cd386c51c9", "lon": -77.01909066666667}, {"is_reserved": 0, "fusion_lon": 0.0, "fusion_lat": 0.0, "name": "b83164b6bcadbdaba71c11643d286cfb", "type": "electric_scooter", "is_disabled": 0, "lat": 38.909747833333334, "rental_uris": {"android": "https://dc.lft.to/lastmile_qr_scan", "ios": "https://dc.lft.to/lastmile_qr_scan"}, "bike_id": "b83164b6bcadbdaba71c11643d286cfb", "lon": -77.02689233333334}, {"is_reserved": 0, "fusion_lon": 0.0, "fusion_lat": 0.0, "name": "e222400deea7987043d3304e97fdca0e", "type": "electric_scooter", "is_disabled": 0, "lat": 38.90818566666667, "rental_uris": {"android": "https://dc.lft.to/lastmile_qr_scan", "ios": "https://dc.lft.to/lastmile_qr_scan"}, "bike_id": "e222400deea7987043d3304e97fdca0e", "lon": -77.03447616666666}, {"is_reserved": 0, "fusion_lon": 0.0, "fusion_lat": 0.0, "name": "b56f2d47ccf8b9d373a2eabd5a751e06", "type": "electric_scooter", "is_disabled": 0, "lat": 38.905363666666666, "rental_uris": {"android": "https://dc.lft.to/lastmile_qr_scan", "ios": "https://dc.lft.to/lastmile_qr_scan"}, "bike_id": "b56f2d47ccf8b9d373a2eabd5a751e06", "lon": -77.03142683333333}, {"is_reserved": 0, "fusion_lon": 0.0, "fusion_lat": 0.0, "name": "1e59595121ebc25ce7071fc3b7d25e73", "type": "electric_scooter", "is_disabled": 0, "lat": 38.87647583333333, "rental_uris": {"android": "https://dc.lft.to/lastmile_qr_scan", "ios": "https://dc.lft.to/lastmile_qr_scan"}, "bike_id": "1e59595121ebc25ce7071fc3b7d25e73", "lon": -76.96506983333333}, {"is_reserved": 0, "fusion_lon": 0.0, "fusion_lat": 0.0, "name": "1aa49a59ce960da94d1cbc78470f4550", "type": "electric_scooter", "is_disabled": 0, "lat": 38.91997333333333, "rental_uris": {"android": "https://dc.lft.to/lastmile_qr_scan", "ios": "https://dc.lft.to/lastmile_qr_scan"}, "bike_id": "1aa49a59ce960da94d1cbc78470f4550", "lon": -77.028801}, {"is_reserved": 0, "fusion_lon": 0.0, "fusion_lat": 0.0, "name": "0357b8a3d4be88fc6af73cbd8673fc7d", "type": "electric_scooter", "is_disabled": 0, "lat": 38.914414, "rental_uris": {"android": "https://dc.lft.to/lastmile_qr_scan", "ios": "https://dc.lft.to/lastmile_qr_scan"}, "bike_id": "0357b8a3d4be88fc6af73cbd8673fc7d", "lon": -77.0204725},