{"data": {"bikes": [{"bike_id": "fc2233b4046d157765e24d188afe50c7", "fusion_lon": 0.0, "lon": -77.0348605, "name": "fc2233b4046d157765e24d188afe50c7", "is_disabled": 0, "rental_uris": {"android": "https://dc.lft.to/lastmile_qr_scan", "ios": "https://dc.lft.to/lastmile_qr_scan"}, "type": "electric_bike", "lat": 38.903849, "is_reserved": 0, "fusion_lat": 0.0}, {"bike_id": "0c4ff68a143f4cdf94661388d1ca0b01", "fusion_lon": 0.0, "lon": -77.0319295, "name": "0c4ff68a143f4cdf94661388d1ca0b01", "is_disabled": 0, "rental_uris": {"android": "https://dc.lft.to/lastmile_qr_scan", "ios": "https://dc.lft.to/lastmile_qr_scan"}, "type": "electric_scooter", "lat": 38.913446666666665, "is_reserved": 0, "fusion_lat": 0.0}, {"bike_id": "3db7ab3f6751152d46b1e3f6b488215b", "fusion_lon": 0.0, "lon": -76.93227033333334, "name": "3db7ab3f6751152d46b1e3f6b488215b", "is_disabled": 0, "rental_uris": {"android": "https://dc.lft.to/lastmile_qr_scan", "ios": "https://dc.lft.to/lastmile_qr_scan"}, "type": "electric_scooter", "lat": 38.898810833333336, "is_reserved": 0, "fusion_lat": 0.0}, {"bike_id": "7afe4288618c7becf146d3d706b49a98", "fusion_lon": 0.0, "lon": -77.041758, "name": "7afe4288618c7becf146d3d706b49a98", "is_disabled": 0, "rental_uris": {"android": "https://dc.lft.to/lastmile_qr_scan", "ios": "https://dc.lft.to/lastmile_qr_scan"}, "type": "electric_scooter", "lat": 38.9047165, "is_reserved": 0, "fusion_lat": 0.0}, {"bike_id": "efcfa8bef27b7b42e1b926132b79d6fb", "fusion_lon": 0.0, "lon": -77.04593516666667, "name": "efcfa8bef27b7b42e1b926132b79d6fb", "is_disabled": 0, "rental_uris": {"android": "https://dc.lft.to/lastmile_qr_scan", "ios": "https://dc.lft.to/lastmile_qr_scan"}, "type": "electric_scooter", "lat": 38.9026935, "is_reserved": 0, "fusion_lat": 0.0}, {"bike_id": "0a004f19d73534baa6733fba4aa97e3d", "fusion_lon": 0.0, "lon": -77.04398883333333, "name": "0a004f19d73534baa6733fba4aa97e3d", "is_disabled": 0, "rental_uris": {"android": "https://dc.lft.to/lastmile_qr_scan", "ios": "https://dc.lft.to/lastmile_qr_scan"}, "type": "electric_scooter", "lat": 38.91083966666667, "is_reserved": 0, "fusion_lat": 0.0}, {"bike_id": "9d4b2f19f1cdb7a28e53b564c6b813a5", "fusion_lon": 0.0, "lon": -77.05746266666667, "name": "9d4b2f19f1cdb7a28e53b564c6b813a5", "is_disabled": 0, "rental_uris": {"android": "https://dc.lft.to/lastmile_qr_scan", "ios": "https://dc.lft.to/lastmile_qr_scan"}, "type": "electric_scooter", "lat": 38.92433916666667, "is_reserved": 0, "fusion_lat": 0.0}, {"bike_id": "3f51176fe3d797f7145b49dd71a95886", "fusion_lon": 0.0, "lon": -77.04276316666666, "name": "3f51176fe3d797f7145b49dd71a95886", "is_disabled": 0, "rental_uris": {"android": "https://dc.lft.to/lastmile_qr_scan", "ios": "https://dc.lft.to/lastmile_qr_scan"}, "type": "electric_scooter", "lat": 38.922853333333336, "is_reserved": 0, "fusion_lat": 0.0}, {"bike_id": "49385893c307ed1bcc9b0de4991be86c", "fusion_lon": 0.0, "lon": -77.03813116666667, "name": "49385893c307ed1bcc9b0de4991be86c", "is_disabled": 0, "rental_uris": {"android": "https://dc.lft.to/lastmile_qr_scan", "ios": "https://dc.lft.to/lastmile_qr_scan"}, "type": "electric_scooter", "lat": 38.905643833333336, "is_reserved": 0, "fusion_lat": 0.0}, {"bike_id": "cd2ca8892716ee437710cbff6a4b8cef", "fusion_lon": 0.0, "lon": -77.02491433333333, "name": "cd2ca8892716ee437710cbff6a4b8cef", "is_disabled": 0, "rental_uris": {"android": "https://dc.lft.to/lastmile_qr_scan", "ios": "https://dc.lft.to/lastmile_qr_scan"}, "type": "electric_scooter", "lat": 38.90728433333334, "is_reserved": 0, "fusion_lat": 0.0}, {"bike_id": "f73025955324caa24c9dc4b9bb1b3d9f", "fusion_lon": 0.0, "lon": -77.0297535, "name": "f73025955324caa24c9dc4b9bb1b3d9f", "is_disabled": 0, "rental_uris": {"android": "https://dc.lft.to/lastmile_qr_scan", "ios": "https://dc.lft.to/lastmile_qr_scan"}, "type": "electric_scooter", "lat": 38.903578333333336, "is_reserved": 0, "fusion_lat": 0.0}, {"bike_id": "352a28cda9061b57a9b7d6345368e1e7", "fusion_lon": 0.0, "lon": -77.04892516666666, "name": "352a28cda9061b57a9b7d6345368e1e7", "is_disabled": 0, "rental_uris": {"android": "https://dc.lft.to/lastmile_qr_scan", "ios": "https://dc.lft.to/lastmile_qr_scan"}, "type": "electric_scooter", "lat": 38.9008155, "is_reserved": 0, "fusion_lat": 0.0}, {"bike_id": "f80c6c0cc0f95fae5fb843b8d100ba74", "fusion_lon": 0.0, "lon": -77.05938633333334, "name": "f80c6c0cc0f95fae5fb843b8d100ba74", "is_disabled": 0, "rental_uris": {"android": "https://dc.lft.to/lastmile_qr_scan", "ios": "https://dc.lft.to/lastmile_qr_scan"}, "type": "electric_scooter", "lat": 38.9094295, "is_reserved": 0, "fusion_lat": 0.0}, {"bike_id": "f64b4a470e0c5283f4af40b7c6ba476c", "fusion_lon": 0.0, "lon": -77.06929283333334, "name": "f64b4a470e0c5283f4af40b7c6ba476c", "is_disabled": 0, "rental_uris": {"android": "https://dc.lft.to/lastmile_qr_scan", "ios": "https://dc.lft.to/lastmile_qr_scan"}, "type": "electric_scooter", "lat": 38.90777683333334, "is_reserved": 0, "fusion_lat": 0.0}, {"bike_id": "34cb48bfe9aef38c56ed78e8c1d8c2ec", "fusion_lon": 0.0, "lon": -77.04645116666667, "name": "34cb48bfe9aef38c56ed78e8c1d8c2ec", "is_disabled": 0, "rental_uris": {"android": "https://dc.lft.to/lastmile_qr_scan", "ios": "https://dc.lft.to/lastmile_qr_scan"}, "type": "electric_scooter", "lat": 38.915722833333334, "is_reserved": 0, "fusion_lat": 0.0}, {"bike_id": "f5fd4840cb673f510e5416615223cf53", "fusion_lon": 0.0, "lon": -77.01367683333334, "name": "f5fd4840cb673f510e5416615223cf53", "is_disabled": 0, "rental_uris": {"android": "https://dc.lft.to/lastmile_qr_scan", "ios": "https://dc.lft.to/lastmile_qr_scan"}, "type": "electric_scooter", "lat": 38.886742, "is_reserved": 0, "fusion_lat": 0.0}, {"bike_id": "6a5c70882c87016de1c31ec70b2fdd6a", "fusion_lon": 0.0, "lon": -77.03356466666666, "name": "6a5c70882c87016de1c31ec70b2fdd6a", "is_disabled": 0, "rental_uris": {"android": "https://dc.lft.to/lastmile_qr_scan", "ios": "https://dc.lft.to/lastmile_qr_scan"}, "type": "electric_scooter", "lat": 38.928911, "is_reserved": 0, "fusion_lat": 0.0}, {"bike_id": "aa2eae8563ffce18693a0d1a4dadddca", "fusion_lon": 0.0, "lon": -77.11598233333333, "name": "aa2eae8563ffce18693a0d1a4dadddca", "is_disabled": 0, "rental_uris": {"android": "https://dc.lft.to/lastmile_qr_scan", "ios": "https://dc.lft.to/lastmile_qr_scan"}, "type": "electric_bike", "lat": 39.07492416666667, "is_reserved": 0, "fusion_lat": 0.0}, {"bike_id": "35095e5eb2a49bf1f1da7ac8a861f41a", "fusion_lon": 0.0, "lon": -77.03444866666666, "name": "35095e5eb2a49bf1f1da7ac8a861f41a", "is_disabled": 0, "rental_uris": {"android": "https://dc.lft.to/lastmile_qr_scan", "ios": "https://dc.lft.to/lastmile_qr_scan"}, "type": "electric_scooter", "lat": 38.90946316666667, "is_reserved": 0, "fusion_lat": 0.0}, {"bike_id": "bb0a2eeb141f2088e7cfdf5ca4266b90", "fusion_lon": 0.0, "lon": -77.04507116666667, "name": "bb0a2eeb141f2088e7cfdf5ca4266b90", "is_disabled": 0, "rental_uris": {"android": "https://dc.lft.to/lastmile_qr_scan", "ios": "https://dc.lft.to/lastmile_qr_scan"}, "type": "electric_scooter", "lat": 38.90379433333333, "is_reserved": 0, "fusion_lat": 0.0}, {"bike_id": "6ac541124a624a6a993b2dc1031ecee9", "fusion_lon": 0.0, "lon": -77.01666816666666, "name": "6ac541124a624a6a993b2dc1031ecee9", "is_disabled": 0, "rental_uris": {"android": "https://dc.lft.to/lastmile_qr_scan", "ios": "https://dc.lft.to/lastmile_qr_scan"}, "type": "electric_scooter", "lat": 38.88127466666667, "is_reserved": 0, "fusion_lat": 0.0}, {"bike_id": "132a2850d9d355ad24dc1f7be18afeae", "fusion_lon": 0.0, "lon": -77.02707766666667, "name": "132a2850d9d355ad24dc1f7be18afeae", "is_disabled": 0, "rental_uris": {"android": "https://dc.lft.to/lastmile_qr_scan", "ios": "https://dc.lft.to/lastmile_qr_scan"}, "type": "electric_scooter", "lat": 38.88137483333333, "is_reserved": 0, "fusion_lat": 0.0}, {"bike_id": "7c985c62b2c13fb69309c162a0b515ee", "fusion_lon": 0.0, "lon": -76.9977995, "name": "7c985c62b2c13fb69309c162a0b515ee", "is_disabled": 0, "rental_uris": {"android": "https://dc.lft.to/lastmile_qr_scan", "ios": "https://dc.lft.to/lastmile_qr_scan"}, "type": "electric_scooter", "lat": 38.909084166666666, "is_reserved": 0, "fusion_lat": 0.0}, {"bike_id": "eb54958c135bb7447c1fc189852f3047", "fusion_lon": 0.0, "lon": -76.986335, "name": "eb54958c135bb7447c1fc189852f3047", "is_disabled": 0, "rental_uris": {"android": "https://dc.lft.to/lastmile_qr_scan", "ios": "https://dc.lft.to/lastmile_qr_scan"}, "type": "electric_scooter", "lat": 38.880374833333335, "is_reserved": 0, "fusion_lat": 0.0}, {"bike_id": "c64216ba00ae9ee8695ee12b9bf33d7a", "fusion_lon": 0.0, "lon": -77.08942566666667, "name": "c64216ba00ae9ee8695ee12b9bf33d7a", "is_disabled": 0, "rental_uris": {"android": "https://dc.lft.to/lastmile_qr_scan", "ios": "https://dc.lft.to/lastmile_qr_scan"}, "type": "electric_bike", "lat": 38.841132333333334, "is_reserved": 0, "fusion_lat": 0.0}, {"bike_id": "fd29c2ff96d81a412c18a2c999325719", "fusion_lon": 0.0, "lon": -77.04669633333333, "name": "fd29c2ff96d81a412c18a2c999325719", "is_disabled": 0, "rental_uris": {"android": "https://dc.lft.to/lastmile_qr_scan", "ios": "https://dc.lft.to/lastmile_qr_scan"}, "type": "electric_scooter", "lat": 38.89949433333334, "is_reserved": 0, "fusion_lat": 0.0}, {"bike_id": "3347f60eb22dd3c2e84326fd61f659cb", "fusion_lon": 0.0, "lon": -77.05087766666666, "name": "3347f60eb22dd3c2e84326fd61f659cb", "is_disabled": 0, "rental_uris": {"android": "https://dc.lft.to/lastmile_qr_scan", "ios": "https://dc.lft.to/lastmile_qr_scan"}, "type": "electric_bike", "lat": 38.813322166666666, "is_reserved": 0, "fusion_lat": 0.0}, {"bike_id": "7447c346d6e3ee9b5735d074ca01333f", "fusion_lon": 0.0, "lon": -77.02227633333334, "name": "7447c346d6e3ee9b5735d074ca01333f", "is_disabled": 0, "rental_uris": {"android": "https://dc.lft.to/lastmile_qr_scan", "ios": "https://dc.lft.to/lastmile_qr_scan"}, "type": "electric_scooter", "lat": 38.8788, "is_reserved": 0, "fusion_lat": 0.0}, {"bike_id": "cfcdf1aa6bd9141eaedf80e3bc57c499", "fusion_lon": 0.0, "lon": -77.05531566666667, "name": "cfcdf1aa6bd9141eaedf80e3bc57c499", "is_disabled": 0, "rental_uris": {"android": "https://dc.lft.to/lastmile_qr_scan", "ios": "https://dc.lft.to/lastmile_qr_scan"}, "type": "electric_scooter", "lat": 38.92981866666667, "is_reserved": 0, "fusion_lat": 0.0}, {"bike_id": "71878a1b754c772673ccaad6537a577a", "fusion_lon": 0.0, "lon": -77.03133116666666, "name": "71878a1b754c772673ccaad6537a577a", "is_disabled": 0, "rental_uris": {"android": "https://dc.lft.to/lastmile_qr_scan", "ios": "https://dc.lft.to/lastmile_qr_scan"}, "type": "electric_scooter", "lat": 38.9180195, "is_reserved": 0, "fusion_lat": 0.0}, {"bike_id": "92e84182f705cbc9e5342d3697493183", "fusion_lon": 0.0, "lon": -77.03185683333334, "name": "92e84182f705cbc9e5342d3697493183", "is_disabled": 0, "rental_uris": {"android": "https://dc.lft.to/lastmile_qr_scan", "ios": "https://dc.lft.to/lastmile_qr_scan"}, "type": "electric_scooter", "lat": 38.916318, "is_reserved": 0, "fusion_lat": 0.0}, {"bike_id": "7feddfbf87c5b5dce11fc830a8dd6793", "fusion_lon": 0.0, "lon": -77.02699466666667, "name": "7feddfbf87c5b5dce11fc830a8dd6793", "is_disabled": 0, "rental_uris": {"android": "https://dc.lft.to/lastmile_qr_scan", "ios": "https://dc.lft.to/lastmile_qr_scan"}, "type": "electric_scooter", "lat": 38.906664, "is_reserved": 0, "fusion_lat": 0.0}, {"bike_id": "b8d0f42295a74709b5bfce93bea5a8d5", "fusion_lon": 0.0, "lon": -77.04484833333333, "name": "b8d0f42295a74709b5bfce93bea5a8d5", "is_disabled": 0, "rental_uris": {"android": "https://dc.lft.to/lastmile_qr_scan", "ios": "https://dc.lft.to/lastmile_qr_scan"}, "type": "electric_scooter", "lat": 38.914031666666666, "is_reserved": 0, "fusion_lat": 0.0}, {"bike_id": "d981374a092fe513256a96e07d892b27", "fusion_lon": 0.0, "lon": -77.00727033333334, "name": "d981374a092fe513256a96e07d892b27", "is_disabled": 0, "rental_uris": {"android": "https://dc.lft.to/lastmile_qr_scan", "ios": "https://dc.lft.to/lastmile_qr_scan"}, "type": "electric_scooter", "lat": 38.8849295, "is_reserved": 0, "fusion_lat": 0.0}, {"bike_id": "a75eb7e2d7a282767dba9ad108a3c3a9", "fusion_lon": 0.0, "lon": -76.99353316666667, "name": "a75eb7e2d7a282767dba9ad108a3c3a9", "is_disabled": 0, "rental_uris": {"android": "https://dc.lft.to/lastmile_qr_scan", "ios": "https://dc.lft.to/lastmile_qr_scan"}, "type": "electric_bike", "lat": 38.84506416666667, "is_reserved": 0, "fusion_lat": 0.0}, {"bike_id": "04004dff8d1ae827cc75a475c3387cc3", "fusion_lon": 0.0, "lon": -77.0238325, "name": "04004dff8d1ae827cc75a475c3387cc3", "is_disabled": 0, "rental_uris": {"android": "https://dc.lft.to/lastmile_qr_scan", "ios": "https://dc.lft.to/lastmile_qr_scan"}, "type": "electric_scooter", "lat": 38.90553033333333, "is_reserved": 0, "fusion_lat": 0.0}, {"bike_id": "df64158f167ffa3b6b38015daa094498", "fusion_lon": 0.0, "lon": -77.03641833333333, "name": "df64158f167ffa3b6b38015daa094498", "is_disabled": 0, "rental_uris": {"android": "https://dc.lft.to/lastmile_qr_scan", "ios": "https://dc.lft.to/lastmile_qr_scan"}, "type": "electric_scooter", "lat": 38.906162333333334, "is_reserved": 0, "fusion_lat": 0.0}, {"bike_id": "1a771f8d4849ed4b2214055dfb8fe931", "fusion_lon": 0.0, "lon": -76.965269, "name": "1a771f8d4849ed4b2214055dfb8fe931", "is_disabled": 0, "rental_uris": {"android": "https://dc.lft.to/lastmile_qr_scan", "ios": "https://dc.lft.to/lastmile_qr_scan"}, "type": "electric_scooter", "lat": 38.87629666666667, "is_reserved": 0, "fusion_lat": 0.0}, {"bike_id": "4d7018aed9396f83de8bb0302104a6a3", "fusion_lon": 0.0, "lon": -77.0040415, "name": "4d7018aed9396f83de8bb0302104a6a3", "is_disabled": 0, "rental_uris": {"android": "https://dc.lft.to/lastmile_qr_scan", "ios": "https://dc.lft.to/lastmile_qr_scan"}, "type": "electric_scooter", "lat": 38.876588166666664, "is_reserved": 0, "fusion_lat": 0.0}, {"bike_id": "b60d75aa8b7b7c58dc1e9cfc73e45b96", "fusion_lon": 0.0, "lon": -77.03531933333333, "name": "b60d75aa8b7b7c58dc1e9cfc73e45b96", "is_disabled": 0, "rental_uris": {"android": "https://dc.lft.to/lastmile_qr_scan", "ios": "https://dc.lft.to/lastmile_qr_scan"}, "type": "electric_scooter", "lat": 38.91688583333333, "is_reserved": 0, "fusion_lat": 0.0}, {"bike_id": "54137d3e705c191bfefaaeb0313dfb8e", "fusion_lon": 0.0, "lon": -77.02199683333333, "name": "54137d3e705c191bfefaaeb0313dfb8e", "is_disabled": 0, "rental_uris": {"android": "https://dc.lft.to/lastmile_qr_scan", "ios": "https://dc.lft.to/lastmile_qr_scan"}, "type": "electric_scooter", "lat": 38.91100266666667, "is_reserved": 0, "fusion_lat": 0.0}, {"bike_id": "98c984cbdbc9df666fff8cbcfcae6062", "fusion_lon": 0.0, "lon": -77.11798866666666, "name": "98c984cbdbc9df666fff8cbcfcae6062", "is_disabled": 0, "rental_uris": {"android": "https://dc.lft.to/lastmile_qr_scan", "ios": "https://dc.lft.to/lastmile_qr_scan"}, "type": "electric_bike", "lat": 38.87371316666667, "is_reserved": 0, "fusion_lat": 0.0}, {"bike_id": "012513c8250f668d01b4ad96aed658bc", "fusion_lon": 0.0, "lon": -77.0325755, "name": "012513c8250f668d01b4ad96aed658bc", "is_disabled": 0, "rental_uris": {"android": "https://dc.lft.to/lastmile_qr_scan", "ios": "https://dc.lft.to/lastmile_qr_scan"}, "type": "electric_scooter", "lat": 38.9041055, "is_reserved": 0, "fusion_lat": 0.0}, {"bike_id": "295d983b8e24a1b0037210525d525915", "fusion_lon": 0.0, "lon": -77.04118, "name": "295d983b8e24a1b0037210525d525915", "is_disabled": 0, "rental_uris": {"android": "https://dc.lft.to/lastmile_qr_scan", "ios": "https://dc.lft.to/lastmile_qr_scan"}, "type": "electric_scooter", "lat": 38.9213345, "is_reserved": 0, "fusion_lat": 0.0}, {"bike_id": "10215ccfb82b8c2b1acd62c563388f95", "fusion_lon": 0.0, "lon": -77.03410933333333, "name": "10215ccfb82b8c2b1acd62c563388f95", "is_disabled": 0, "rental_uris": {"android": "https://dc.lft.to/lastmile_qr_scan", "ios": "https://dc.lft.to/lastmile_qr_scan"}, "type": "electric_scooter", "lat": 38.903695166666665, "is_reserved": 0, "fusion_lat": 0.0}, {"bike_id": "febeaba4ad6cd54f20fe61fc723698d7", "fusion_lon": 0.0, "lon": -76.99795116666667, "name": "febeaba4ad6cd54f20fe61fc723698d7", "is_disabled": 0, "rental_uris": {"android": "https://dc.lft.to/lastmile_qr_scan", "ios": "https://dc.lft.to/lastmile_qr_scan"}, "type": "electric_scooter", "lat": 38.87494316666667, "is_reserved": 0, "fusion_lat": 0.0}, {"bike_id": "be91057d64963069073d4789f84d9834", "fusion_lon": 0.0, "lon": -76.98357083333333, "name": "be91057d64963069073d4789f84d9834", "is_disabled": 0, "rental_uris": {"android": "https://dc.lft.to/lastmile_qr_scan", "ios": "https://dc.lft.to/lastmile_qr_scan"}, "type": "electric_scooter", "lat": 38.906297333333335, "is_reserved": 0, "fusion_lat": 0.0}, {"bike_id": "7b3a3ca3d94e5f6babbedf128de373aa", "fusion_lon": 0.0, "lon": -77.0199075, "name": "7b3a3ca3d94e5f6babbedf128de373aa", "is_disabled": 0, "rental_uris": {"android": "https://dc.lft.to/lastmile_qr_scan", "ios": "https://dc.lft.to/lastmile_qr_scan"}, "type": "electric_scooter", "lat": 38.9312505, "is_reserved": 0, "fusion_lat": 0.0}, {"bike_id": "ab8342bd5c69a4bdc9ef0ef027a95ab8", "fusion_lon": 0.0, "lon": -76.93732833333334, "name": "ab8342bd5c69a4bdc9ef0ef027a95ab8", "is_disabled": 0, "rental_uris": {"android": "https://dc.lft.to/lastmile_qr_scan", "ios": "https://dc.lft.to/lastmile_qr_scan"}, "type": "electric_scooter", "lat": 38.890146666666666, "is_reserved": 0, "fusion_lat": 0.0}, {"bike_id": "ec0d110f2ecf5cee6e7acd2cb42233f2", "fusion_lon": 0.0, "lon": -77.02818483333333, "name": "ec0d110f2ecf5cee6e7acd2cb42233f2", "is_disabled": 0, "rental_uris": {"android": "https://dc.lft.to/lastmile_qr_scan", "ios": "https://dc.lft.to/lastmile_qr_scan"}, "type": "electric_scooter", "lat": 38.9206425, "is_reserved": 0, "fusion_lat": 0.0}, {"bike_id": "17b8719be31294a1ac7f8aae10321a4d", "fusion_lon": 0.0, "lon": -77.02621466666666, "name": "17b8719be31294a1ac7f8aae10321a4d", "is_disabled": 0, "rental_uris": {"android": "https://dc.lft.to/lastmile_qr_scan", "ios": "https://dc.lft.to/lastmile_qr_scan"}, "type": "electric_bike", "lat": 38.969337833333334, "is_reserved": 0, "fusion_lat": 0.0}, {"bike_id": "53429ae1ba9a80084bdc8c77c4b208a1", "fusion_lon": 0.0, "lon": -77.035478, "name": "53429ae1ba9a80084bdc8c77c4b208a1", "is_disabled": 0, "rental_uris": {"android": "https://dc.lft.to/lastmile_qr_scan", "ios": "https://dc.lft.to/lastmile_qr_scan"}, "type": "electric_scooter", "lat": 38.908238, "is_reserved": 0, "fusion_lat": 0.0}, {"bike_id": "ddbfd259fa093fa20459cb164e1739ce", "fusion_lon": 0.0, "lon": -77.0342865, "name": "ddbfd259fa093fa20459cb164e1739ce", "is_disabled": 0, "rental_uris": {"android": "https://dc.lft.to/lastmile_qr_scan", "ios": "https://dc.lft.to/lastmile_qr_scan"}, "type": "electric_bike", "lat": 38.96616066666667, "is_reserved": 0, "fusion_lat": 0.0}, {"bike_id": "247715a9b17c97fbca2a99dea7a1c98f", "fusion_lon": 0.0, "lon": -76.98708266666667, "name": "247715a9b17c97fbca2a99dea7a1c98f", "is_disabled": 0, "rental_uris": {"android": "https://dc.lft.to/lastmile_qr_scan", "ios": "https://dc.lft.to/lastmile_qr_scan"}, "type": "electric_scooter", "lat": 38.86699433333333, "is_reserved": 0, "fusion_lat": 0.0}, {"bike_id": "4c12cfaa48338f3a7c2f308709603785", "fusion_lon": 0.0, "lon": -76.965263, "name": "4c12cfaa48338f3a7c2f308709603785", "is_disabled": 0, "rental_uris": {"android": "https://dc.lft.to/lastmile_qr_scan", "ios": "https://dc.lft.to/lastmile_qr_scan"}, "type": "electric_scooter", "lat": 38.87628866666667, "is_reserved": 0, "fusion_lat": 0.0}, {"bike_id": "7d63802bda51101c7307bc820be1eaac", "fusion_lon": 0.0, "lon": -77.03845, "name": "7d63802bda51101c7307bc820be1eaac", "is_disabled": 0, "rental_uris": {"android": "https://dc.lft.to/lastmile_qr_scan", "ios": "https://dc.lft.to/lastmile_qr_scan"}, "type": "electric_scooter", "lat": 38.91013866666667, "is_reserved": 0, "fusion_lat": 0.0}, {"bike_id": "8cae456bc560bf1826c5c2397cf5f833", "fusion_lon": 0.0, "lon": -77.04163866666667, "name": "8cae456bc560bf1826c5c2397cf5f833", "is_disabled": 0, "rental_uris": {"android": "https://dc.lft.to/lastmile_qr_scan", "ios": "https://dc.lft.to/lastmile_qr_scan"}, "type": "electric_scooter", "lat": 38.90445733333333, "is_reserved": 0, "fusion_lat": 0.0}, {"bike_id": "327a3fd81a86269d9c335b56fe08ef5a", "fusion_lon": 0.0, "lon": -77.0474385, "name": "327a3fd81a86269d9c335b56fe08ef5a", "is_disabled": 0, "rental_uris": {"android": "https://dc.lft.to/lastmile_qr_scan", "ios": "https://dc.lft.to/lastmile_qr_scan"}, "type": "electric_scooter", "lat": 38.90541616666667, "is_reserved": 0, "fusion_lat": 0.0}, {"bike_id": "c5685035186817bb9e6cb63305e63bea", "fusion_lon": 0.0, "lon": -77.03837583333333, "name": "c5685035186817bb9e6cb63305e63bea", "is_disabled": 0, "rental_uris": {"android": "https://dc.lft.to/lastmile_qr_scan", "ios": "https://dc.lft.to/lastmile_qr_scan"}, "type": "electric_scooter", "lat": 38.893279166666666, "is_reserved": 0, "fusion_lat": 0.0}, {"bike_id": "c84cc7a24c478f77fa60b543409230d3", "fusion_lon": 0.0, "lon": -77.0512365, "name": "c84cc7a24c478f77fa60b543409230d3", "is_disabled": 0, "rental_uris": {"android": "https://dc.lft.to/lastmile_qr_scan", "ios": "https://dc.lft.to/lastmile_qr_scan"}, "type": "electric_scooter", "lat": 38.92345683333333, "is_reserved": 0, "fusion_lat": 0.0}, {"bike_id": "14dfb976c44d0f7fd7ed5aef41db7920", "fusion_lon": 0.0, "lon": -77.019535, "name": "14dfb976c44d0f7fd7ed5aef41db7920", "is_disabled": 0, "rental_uris": {"android": "https://dc.lft.to/lastmile_qr_scan", "ios": "https://dc.lft.to/lastmile_qr_scan"}, "type": "electric_scooter", "lat": 38.922499, "is_reserved": 0, "fusion_lat": 0.0}, {"bike_id": "fcc56a3039987d33e15e3b29fe737951", "fusion_lon": 0.0, "lon": -77.03438433333334, "name": "fcc56a3039987d33e15e3b29fe737951", "is_disabled": 0, "rental_uris": {"android": "https://dc.lft.to/lastmile_qr_scan", "ios": "https://dc.lft.to/lastmile_qr_scan"}, "type": "electric_scooter", "lat": 38.9343405, "is_reserved": 0, "fusion_lat": 0.0}, {"bike_id": "425bd3bb18654eef31d1509fe24a3766", "fusion_lon": 0.0, "lon": -77.0279545, "name": "425bd3bb18654eef31d1509fe24a3766", "is_disabled": 0, "rental_uris": {"android": "https://dc.lft.to/lastmile_qr_scan", "ios": "https://dc.lft.to/lastmile_qr_scan"}, "type": "electric_scooter", "lat": 38.95417616666667, "is_reserved": 0, "fusion_lat": 0.0}, {"bike_id": "5b593903499eb0f81840176e99b89754", "fusion_lon": 0.0, "lon": -76.93132416666667, "name": "5b593903499eb0f81840176e99b89754", "is_disabled": 0, "rental_uris": {"android": "https://dc.lft.to/lastmile_qr_scan", "ios": "https://dc.lft.to/lastmile_qr_scan"}, "type": "electric_scooter", "lat": 38.89337116666667, "is_reserved": 0, "fusion_lat": 0.0}, {"bike_id": "dc50c94bf06751d42f1efd2d9337d277", "fusion_lon": 0.0, "lon": -77.02629916666666, "name": "dc50c94bf06751d42f1efd2d9337d277", "is_disabled": 0, "rental_uris": {"android": "https://dc.lft.to/lastmile_qr_scan", "ios": "https://dc.lft.to/lastmile_qr_scan"}, "type": "electric_bike", "lat": 38.9622495, "is_reserved": 0, "fusion_lat": 0.0}, {"bike_id": "9555dd2c35b8d35a47643737b7c25576", "fusion_lon": 0.0, "lon": -77.023695, "name": "9555dd2c35b8d35a47643737b7c25576", "is_disabled": 0, "rental_uris": {"android": "https://dc.lft.to/lastmile_qr_scan", "ios": "https://dc.lft.to/lastmile_qr_scan"}, "type": "electric_scooter", "lat": 38.905797, "is_reserved": 0, "fusion_lat": 0.0}, {"bike_id": "dde61d2e986c03500a01044d5b70e220", "fusion_lon": 0.0, "lon": -77.02172566666667, "name": "dde61d2e986c03500a01044d5b70e220", "is_disabled": 0, "rental_uris": {"android": "https://dc.lft.to/lastmile_qr_scan", "ios": "https://dc.lft.to/lastmile_qr_scan"}, "type": "electric_scooter", "lat": 38.942849, "is_reserved": 0, "fusion_lat": 0.0}, {"bike_id": "770d91264eeb8f0c969aeba422910c89", "fusion_lon": 0.0, "lon": -77.020083, "name": "770d91264eeb8f0c969aeba422910c89", "is_disabled": 0, "rental_uris": {"android": "https://dc.lft.to/lastmile_qr_scan", "ios": "https://dc.lft.to/lastmile_qr_scan"}, "type": "electric_scooter", "lat": 38.92416383333333, "is_reserved": 0, "fusion_lat": 0.0}, {"bike_id": "a3d360bb4f997ce0de08d9738f6e31f6", "fusion_lon": 0.0, "lon": -77.02764166666667, "name": "a3d360bb4f997ce0de08d9738f6e31f6", "is_disabled": 0, "rental_uris": {"android": "https://dc.lft.to/lastmile_qr_scan", "ios": "https://dc.lft.to/lastmile_qr_scan"}, "type": "electric_scooter", "lat": 38.95421666666667, "is_reserved": 0, "fusion_lat": 0.0}, {"bike_id": "d554848a0add72759e5978672e12d847", "fusion_lon": 0.0, "lon": -76.98093966666667, "name": "d554848a0add72759e5978672e12d847", "is_disabled": 0, "rental_uris": {"android": "https://dc.lft.to/lastmile_qr_scan", "ios": "https://dc.lft.to/lastmile_qr_scan"}, "type": "electric_bike", "lat": 38.953568833333335, "is_reserved": 0, "fusion_lat": 0.0}, {"bike_id": "f7dc7745933a29283e26b367bd922a2f", "fusion_lon": 0.0, "lon": -77.02814666666667, "name": "f7dc7745933a29283e26b367bd922a2f", "is_disabled": 0, "rental_uris": {"android": "https://dc.lft.to/lastmile_qr_scan", "ios": "https://dc.lft.to/lastmile_qr_scan"}, "type": "electric_scooter", "lat": 38.93170533333333, "is_reserved": 0, "fusion_lat": 0.0}, {"bike_id": "52d32c8c0f232f2c4aec0a1c8f2f7534", "fusion_lon": 0.0, "lon": -77.0425825, "name": "52d32c8c0f232f2c4aec0a1c8f2f7534", "is_disabled": 0, "rental_uris": {"android": "https://dc.lft.to/lastmile_qr_scan", "ios": "https://dc.lft.to/lastmile_qr_scan"}, "type": "electric_scooter", "lat": 38.90859366666667, "is_reserved": 0, "fusion_lat": 0.0}, {"bike_id": "f199f89d05f34923839e93b65d1e6007", "fusion_lon": 0.0, "lon": -77.01535816666667, "name": "f199f89d05f34923839e93b65d1e6007", "is_disabled": 0, "rental_uris": {"android": "https://dc.lft.to/lastmile_qr_scan", "ios": "https://dc.lft.to/lastmile_qr_scan"}, "type": "electric_scooter", "lat": 38.887404833333335, "is_reserved": 0, "fusion_lat": 0.0}, {"bike_id": "951879dbfafa5404d363a887c95266e8", "fusion_lon": 0.0, "lon": -77.04783966666666, "name": "951879dbfafa5404d363a887c95266e8", "is_disabled": 0, "rental_uris": {"android": "https://dc.lft.to/lastmile_qr_scan", "ios": "https://dc.lft.to/lastmile_qr_scan"}, "type": "electric_scooter", "lat": 38.893663333333336, "is_reserved": 0, "fusion_lat": 0.0}, {"bike_id": "15741ebfca02c5fa54e449e745eecaec", "fusion_lon": 0.0, "lon": -77.043952, "name": "15741ebfca02c5fa54e449e745eecaec", "is_disabled": 0, "rental_uris": {"android": "https://dc.lft.to/lastmile_qr_scan", "ios": "https://dc.lft.to/lastmile_qr_scan"}, "type": "electric_scooter", "lat": 38.91405866666667, "is_reserved": 0, "fusion_lat": 0.0}, {"bike_id": "18219ac085ec04addacaee0daa5113c5", "fusion_lon": 0.0, "lon": -76.98579383333333, "name": "18219ac085ec04addacaee0daa5113c5", "is_disabled": 0, "rental_uris": {"android": "https://dc.lft.to/lastmile_qr_scan", "ios": "https://dc.lft.to/lastmile_qr_scan"}, "type": "electric_scooter", "lat": 38.85447516666667, "is_reserved": 0, "fusion_lat": 0.0}, {"bike_id": "5919f38f94853d346246a95cff89e68a", "fusion_lon": 0.0, "lon": -76.96525633333333, "name": "5919f38f94853d346246a95cff89e68a", "is_disabled": 0, "rental_uris": {"android": "https://dc.lft.to/lastmile_qr_scan", "ios": "https://dc.lft.to/lastmile_qr_scan"}, "type": "electric_scooter", "lat": 38.876273, "is_reserved": 0, "fusion_lat": 0.0}, {"bike_id": "7189b86f4ad15b5657d6cfa9be2c4772", "fusion_lon": 0.0, "lon": -77.00973983333333, "name": "7189b86f4ad15b5657d6cfa9be2c4772", "is_disabled": 0, "rental_uris": {"android": "https://dc.lft.to/lastmile_qr_scan", "ios": "https://dc.lft.to/lastmile_qr_scan"}, "type": "electric_scooter", "lat": 38.915585666666665, "is_reserved": 0, "fusion_lat": 0.0}, {"bike_id": "e4319da0a42e2707035fd8975770249a", "fusion_lon": 0.0, "lon": -77.03483966666667, "name": "e4319da0a42e2707035fd8975770249a", "is_disabled": 0, "rental_uris": {"android": "https://dc.lft.to/lastmile_qr_scan", "ios": "https://dc.lft.to/lastmile_qr_scan"}, "type": "electric_scooter", "lat": 38.93266033333333, "is_reserved": 0, "fusion_lat": 0.0}, {"bike_id": "4f56290ddaab43e4e4662f4dbd1d7f73", "fusion_lon": 0.0, "lon": -77.03349933333334, "name": "4f56290ddaab43e4e4662f4dbd1d7f73", "is_disabled": 0, "rental_uris": {"android": "https://dc.lft.to/lastmile_qr_scan", "ios": "https://dc.lft.to/lastmile_qr_scan"}, "type": "electric_scooter", "lat": 38.899674166666664, "is_reserved": 0, "fusion_lat": 0.0}, {"bike_id": "246183dd0ff57b34bb752a65fc0dc026", "fusion_lon": 0.0, "lon": -77.05286766666667, "name": "246183dd0ff57b34bb752a65fc0dc026", "is_disabled": 0, "rental_uris": {"android": "https://dc.lft.to/lastmile_qr_scan", "ios": "https://dc.lft.to/lastmile_qr_scan"}, "type": "electric_scooter", "lat": 38.92715366666667, "is_reserved": 0, "fusion_lat": 0.0}, {"bike_id": "398b43962e73642077aa904c4aa726dc", "fusion_lon": 0.0, "lon": -77.04349333333333, "name": "398b43962e73642077aa904c4aa726dc", "is_disabled": 0, "rental_uris": {"android": "https://dc.lft.to/lastmile_qr_scan", "ios": "https://dc.lft.to/lastmile_qr_scan"}, "type": "electric_scooter", "lat": 38.9059705, "is_reserved": 0, "fusion_lat": 0.0}, {"bike_id": "97d8a2e5d8244b2f9202a65cebe757bb", "fusion_lon": 0.0, "lon": -77.04191816666666, "name": "97d8a2e5d8244b2f9202a65cebe757bb", "is_disabled": 0, "rental_uris": {"android": "https://dc.lft.to/lastmile_qr_scan", "ios": "https://dc.lft.to/lastmile_qr_scan"}, "type": "electric_scooter", "lat": 38.922675, "is_reserved": 0, "fusion_lat": 0.0}, {"bike_id": "9a795952b7f92a4867228d0c0ebd0a71", "fusion_lon": 0.0, "lon": -77.04594433333334, "name": "9a795952b7f92a4867228d0c0ebd0a71", "is_disabled": 0, "rental_uris": {"android": "https://dc.lft.to/lastmile_qr_scan", "ios": "https://dc.lft.to/lastmile_qr_scan"}, "type": "electric_scooter", "lat": 38.896080166666664, "is_reserved": 0, "fusion_lat": 0.0}, {"bike_id": "21a5aecf4b7ad38f68af3658a0e21def", "fusion_lon": 0.0, "lon": -77.038532, "name": "21a5aecf4b7ad38f68af3658a0e21def", "is_disabled": 0, "rental_uris": {"android": "https://dc.lft.to/lastmile_qr_scan", "ios": "https://dc.lft.to/lastmile_qr_scan"}, "type": "electric_scooter", "lat": 38.918025666666665, "is_reserved": 0, "fusion_lat": 0.0}, {"bike_id": "63cb7310c0aa7702a996e1735478a76e", "fusion_lon": 0.0, "lon": -77.03636233333333, "name": "63cb7310c0aa7702a996e1735478a76e", "is_disabled": 0, "rental_uris": {"android": "https://dc.lft.to/lastmile_qr_scan", "ios": "https://dc.lft.to/lastmile_qr_scan"}, "type": "electric_scooter", "lat": 38.93714083333333, "is_reserved": 0, "fusion_lat": 0.0}, {"bike_id": "9fde781a310ada377b0cfcee9e604059", "fusion_lon": 0.0, "lon": -77.02290883333333, "name": "9fde781a310ada377b0cfcee9e604059", "is_disabled": 0, "rental_uris": {"android": "https://dc.lft.to/lastmile_qr_scan", "ios": "https://dc.lft.to/lastmile_qr_scan"}, "type": "electric_scooter", "lat": 38.915638666666666, "is_reserved": 0, "fusion_lat": 0.0}, {"bike_id": "8642bae02a0f1fba7526be916c184960", "fusion_lon": 0.0, "lon": -77.05429266666667, "name": "8642bae02a0f1fba7526be916c184960", "is_disabled": 0, "rental_uris": {"android": "https://dc.lft.to/lastmile_qr_scan", "ios": "https://dc.lft.to/lastmile_qr_scan"}, "type": "electric_scooter", "lat": 38.92354233333333, "is_reserved": 0, "fusion_lat": 0.0}, {"bike_id": "cd059ded96d67bf55ba570156458a032", "fusion_lon": 0.0, "lon": -77.04132933333334, "name": "cd059ded96d67bf55ba570156458a032", "is_disabled": 0, "rental_uris": {"android": "https://dc.lft.to/lastmile_qr_scan", "ios": "https://dc.lft.to/lastmile_qr_scan"}, "type": "electric_scooter", "lat": 38.933649, "is_reserved": 0, "fusion_lat": 0.0}, {"bike_id": "8c3925eb083d2969f208141f9fea7940", "fusion_lon": 0.0, "lon": -76.99027966666667, "name": "8c3925eb083d2969f208141f9fea7940", "is_disabled": 0, "rental_uris": {"android": "https://dc.lft.to/lastmile_qr_scan", "ios": "https://dc.lft.to/lastmile_qr_scan"}, "type": "electric_scooter", "lat": 38.863752833333336, "is_reserved": 0, "fusion_lat": 0.0}, {"bike_id": "1976340bc7f823e5f59048de7f129a46", "fusion_lon": 0.0, "lon": -77.0280325, "name": "1976340bc7f823e5f59048de7f129a46", "is_disabled": 0, "rental_uris": {"android": "https://dc.lft.to/lastmile_qr_scan", "ios": "https://dc.lft.to/lastmile_qr_scan"}, "type": "electric_scooter", "lat": 38.895232, "is_reserved": 0, "fusion_lat": 0.0}, {"bike_id": "f24660d2fb8e0e662658b18279bee8bc", "fusion_lon": 0.0, "lon": -76.99366833333333, "name": "f24660d2fb8e0e662658b18279bee8bc", "is_disabled": 0, "rental_uris": {"android": "https://dc.lft.to/lastmile_qr_scan", "ios": "https://dc.lft.to/lastmile_qr_scan"}, "type": "electric_scooter", "lat": 38.928386, "is_reserved": 0, "fusion_lat": 0.0}, {"bike_id": "5b64939d1b8ecbadf56719b88978fd94", "fusion_lon": 0.0, "lon": -77.03162616666667, "name": "5b64939d1b8ecbadf56719b88978fd94", "is_disabled": 0, "rental_uris": {"android": "https://dc.lft.to/lastmile_qr_scan", "ios": "https://dc.lft.to/lastmile_qr_scan"}, "type": "electric_scooter", "lat": 38.89217033333333, "is_reserved": 0, "fusion_lat": 0.0}, {"bike_id": "b71467144d57fdf71e6bc2ca30d40a75", "fusion_lon": 0.0, "lon": -77.0353995, "name": "b71467144d57fdf71e6bc2ca30d40a75", "is_disabled": 0, "rental_uris": {"android": "https://dc.lft.to/lastmile_qr_scan", "ios": "https://dc.lft.to/lastmile_qr_scan"}, "type": "electric_scooter", "lat": 38.9246795, "is_reserved": 0, "fusion_lat": 0.0}, {"bike_id": "a28cd7821b88cd721f3c323040703f10", "fusion_lon": 0.0, "lon": -77.033212, "name": "a28cd7821b88cd721f3c323040703f10", "is_disabled": 0, "rental_uris": {"android": "https://dc.lft.to/lastmile_qr_scan", "ios": "https://dc.lft.to/lastmile_qr_scan"}, "type": "electric_scooter", "lat": 38.921505833333335, "is_reserved": 0, "fusion_lat": 0.0}, {"bike_id": "abc9e6cd37acd867957838e12830f097", "fusion_lon": 0.0, "lon": -77.01759083333333, "name": "abc9e6cd37acd867957838e12830f097", "is_disabled": 0, "rental_uris": {"android": "https://dc.lft.to/lastmile_qr_scan", "ios": "https://dc.lft.to/lastmile_qr_scan"}, "type": "electric_scooter", "lat": 38.902514833333335, "is_reserved": 0, "fusion_lat": 0.0}, {"bike_id": "754ad4450621dd6af2c7d17df8d283b2", "fusion_lon": 0.0, "lon": -77.15827933333334, "name": "754ad4450621dd6af2c7d17df8d283b2", "is_disabled": 0, "rental_uris": {"android": "https://dc.lft.to/lastmile_qr_scan", "ios": "https://dc.lft.to/lastmile_qr_scan"}, "type": "electric_bike", "lat": 38.8944845, "is_reserved": 0, "fusion_lat": 0.0}, {"bike_id": "e2f8cf4e5400253f4629835734f60203", "fusion_lon": 0.0, "lon": -77.04511166666667, "name": "e2f8cf4e5400253f4629835734f60203", "is_disabled": 0, "rental_uris": {"android": "https://dc.lft.to/lastmile_qr_scan", "ios": "https://dc.lft.to/lastmile_qr_scan"}, "type": "electric_scooter", "lat": 38.9036055, "is_reserved": 0, "fusion_lat": 0.0}, {"bike_id": "8a2efd0a14ad70e2a34485a9a359698a", "fusion_lon": 0.0, "lon": -77.05855166666667, "name": "8a2efd0a14ad70e2a34485a9a359698a", "is_disabled": 0, "rental_uris": {"android": "https://dc.lft.to/lastmile_qr_scan", "ios": "https://dc.lft.to/lastmile_qr_scan"}, "type": "electric_scooter", "lat": 38.936079166666666, "is_reserved": 0, "fusion_lat": 0.0}, {"bike_id": "8ab47c54214849025c342f9f2b89b306", "fusion_lon": 0.0, "lon": -77.06516716666667, "name": "8ab47c54214849025c342f9f2b89b306", "is_disabled": 0, "rental_uris": {"android": "https://dc.lft.to/lastmile_qr_scan", "ios": "https://dc.lft.to/lastmile_qr_scan"}, "type": "electric_scooter", "lat": 38.905838333333335, "is_reserved": 0, "fusion_lat": 0.0}, {"bike_id": "f0ec1f95b8b0b9413104a69c9487f3eb", "fusion_lon": 0.0, "lon": -77.04090983333333, "name": "f0ec1f95b8b0b9413104a69c9487f3eb", "is_disabled": 0, "rental_uris": {"android": "https://dc.lft.to/lastmile_qr_scan", "ios": "https://dc.lft.to/lastmile_qr_scan"}, "type": "electric_scooter", "lat": 38.924005333333334, "is_reserved": 0, "fusion_lat": 0.0}, {"bike_id": "127650d923ff8b329084174f88fbf3fd", "fusion_lon": 0.0, "lon": -77.01669066666666, "name": "127650d923ff8b329084174f88fbf3fd", "is_disabled": 0, "rental_uris": {"android": "https://dc.lft.to/lastmile_qr_scan", "ios": "https://dc.lft.to/lastmile_qr_scan"}, "type": "electric_scooter", "lat": 38.88125616666667, "is_reserved": 0, "fusion_lat": 0.0}, {"bike_id": "692e238ffa49f90c7ab1c706dde5a288", "fusion_lon": 0.0, "lon": -77.012145, "name": "692e238ffa49f90c7ab1c706dde5a288", "is_disabled": 0, "rental_uris": {"android": "https://dc.lft.to/lastmile_qr_scan", "ios": "https://dc.lft.to/lastmile_qr_scan"}, "type": "electric_scooter", "lat": 38.870944333333334, "is_reserved": 0, "fusion_lat": 0.0}, {"bike_id": "f5dd08a932dad20ee18c3aebf64189a0", "fusion_lon": 0.0, "lon": -77.04530666666666, "name": "f5dd08a932dad20ee18c3aebf64189a0", "is_disabled": 0, "rental_uris": {"android": "https://dc.lft.to/lastmile_qr_scan", "ios": "https://dc.lft.to/lastmile_qr_scan"}, "type": "electric_scooter", "lat": 38.913321333333336, "is_reserved": 0, "fusion_lat": 0.0}, {"bike_id": "caeee0fac132c0b6175a713660762ebd", "fusion_lon": 0.0, "lon": -76.9939415, "name": "caeee0fac132c0b6175a713660762ebd", "is_disabled": 0, "rental_uris": {"android": "https://dc.lft.to/lastmile_qr_scan", "ios": "https://dc.lft.to/lastmile_qr_scan"}, "type": "electric_scooter", "lat": 38.921645, "is_reserved": 0, "fusion_lat": 0.0}, {"bike_id": "cc2d1d0b3e816a085bc925716184e8e5", "fusion_lon": 0.0, "lon": -77.04510916666666, "name": "cc2d1d0b3e816a085bc925716184e8e5", "is_disabled": 0, "rental_uris": {"android": "https://dc.lft.to/lastmile_qr_scan", "ios": "https://dc.lft.to/lastmile_qr_scan"}, "type": "electric_scooter", "lat": 38.90357266666667, "is_reserved": 0, "fusion_lat": 0.0}, {"bike_id": "7a54ebeeb6c2ce8fddb772f445f75680", "fusion_lon": 0.0, "lon": -77.00888516666667, "name": "7a54ebeeb6c2ce8fddb772f445f75680", "is_disabled": 0, "rental_uris": {"android": "https://dc.lft.to/lastmile_qr_scan", "ios": "https://dc.lft.to/lastmile_qr_scan"}, "type": "electric_scooter", "lat": 38.92489966666667, "is_reserved": 0, "fusion_lat": 0.0}, {"bike_id": "b3326e718b97e8f0a22777e8ced81070", "fusion_lon": 0.0, "lon": -77.04349716666667, "name": "b3326e718b97e8f0a22777e8ced81070", "is_disabled": 0, "rental_uris": {"android": "https://dc.lft.to/lastmile_qr_scan", "ios": "https://dc.lft.to/lastmile_qr_scan"}, "type": "electric_scooter", "lat": 38.90257866666666, "is_reserved": 0, "fusion_lat": 0.0}, {"bike_id": "66c11cb6b47735854ada05f058b2a397", "fusion_lon": 0.0, "lon": -77.00201033333333, "name": "66c11cb6b47735854ada05f058b2a397", "is_disabled": 0, "rental_uris": {"android": "https://dc.lft.to/lastmile_qr_scan", "ios": "https://dc.lft.to/lastmile_qr_scan"}, "type": "electric_scooter", "lat": 38.90076216666667, "is_reserved": 0, "fusion_lat": 0.0}, {"bike_id": "eb224a918a7bb6935019bd3192a1593e", "fusion_lon": 0.0, "lon": -77.03621116666666, "name": "eb224a918a7bb6935019bd3192a1593e", "is_disabled": 0, "rental_uris": {"android": "https://dc.lft.to/lastmile_qr_scan", "ios": "https://dc.lft.to/lastmile_qr_scan"}, "type": "electric_scooter", "lat": 38.90564883333333, "is_reserved": 0, "fusion_lat": 0.0}, {"bike_id": "85cf6631f162e072d2e397103b6a7341", "fusion_lon": 0.0, "lon": -76.995351, "name": "85cf6631f162e072d2e397103b6a7341", "is_disabled": 0, "rental_uris": {"android": "https://dc.lft.to/lastmile_qr_scan", "ios": "https://dc.lft.to/lastmile_qr_scan"}, "type": "electric_scooter", "lat": 38.8624545, "is_reserved": 0, "fusion_lat": 0.0}, {"bike_id": "387ba74f929631077e29bdcc229bf006", "fusion_lon": 0.0, "lon": -76.97233716666666, "name": "387ba74f929631077e29bdcc229bf006", "is_disabled": 0, "rental_uris": {"android": "https://dc.lft.to/lastmile_qr_scan", "ios": "https://dc.lft.to/lastmile_qr_scan"}, "type": "electric_bike", "lat": 38.85456933333333, "is_reserved": 0, "fusion_lat": 0.0}, {"bike_id": "4f946db05b1076d727d5c2dae7ff344f", "fusion_lon": 0.0, "lon": -77.03864516666667, "name": "4f946db05b1076d727d5c2dae7ff344f", "is_disabled": 0, "rental_uris": {"android": "https://dc.lft.to/lastmile_qr_scan", "ios": "https://dc.lft.to/lastmile_qr_scan"}, "type": "electric_scooter", "lat": 38.9171075, "is_reserved": 0, "fusion_lat": 0.0}, {"bike_id": "ca41e7f6ddb7b3a29a590f47f782dd91", "fusion_lon": 0.0, "lon": -77.04137966666667, "name": "ca41e7f6ddb7b3a29a590f47f782dd91", "is_disabled": 0, "rental_uris": {"android": "https://dc.lft.to/lastmile_qr_scan", "ios": "https://dc.lft.to/lastmile_qr_scan"}, "type": "electric_scooter", "lat": 38.92270883333333, "is_reserved": 0, "fusion_lat": 0.0}, {"bike_id": "019c303de5fce2b92fdb16713e8c1ef3", "fusion_lon": 0.0, "lon": -77.0447725, "name": "019c303de5fce2b92fdb16713e8c1ef3", "is_disabled": 0, "rental_uris": {"android": "https://dc.lft.to/lastmile_qr_scan", "ios": "https://dc.lft.to/lastmile_qr_scan"}, "type": "electric_scooter", "lat": 38.9242475, "is_reserved": 0, "fusion_lat": 0.0}, {"bike_id": "d9aa4aa9afbcc5abc28a978f751c2a07", "fusion_lon": 0.0, "lon": -77.00832283333334, "name": "d9aa4aa9afbcc5abc28a978f751c2a07", "is_disabled": 0, "rental_uris": {"android": "https://dc.lft.to/lastmile_qr_scan", "ios": "https://dc.lft.to/lastmile_qr_scan"}, "type": "electric_bike", "lat": 38.829092833333334, "is_reserved": 0, "fusion_lat": 0.0}, {"bike_id": "936aa621d8639aae8b12e337af0255f4", "fusion_lon": 0.0, "lon": -77.0387305, "name": "936aa621d8639aae8b12e337af0255f4", "is_disabled": 0, "rental_uris": {"android": "https://dc.lft.to/lastmile_qr_scan", "ios": "https://dc.lft.to/lastmile_qr_scan"}, "type": "electric_scooter", "lat": 38.9324245, "is_reserved": 0, "fusion_lat": 0.0}, {"bike_id": "c1f3e8489c39fd3c4d6dc4c14fd2724e", "fusion_lon": 0.0, "lon": -76.99486016666667, "name": "c1f3e8489c39fd3c4d6dc4c14fd2724e", "is_disabled": 0, "rental_uris": {"android": "https://dc.lft.to/lastmile_qr_scan", "ios": "https://dc.lft.to/lastmile_qr_scan"}, "type": "electric_scooter", "lat": 38.909843333333335, "is_reserved": 0, "fusion_lat": 0.0}, {"bike_id": "2d2a344cf5b8b19b0b1728dcf44981cb", "fusion_lon": 0.0, "lon": -76.94942983333334, "name": "2d2a344cf5b8b19b0b1728dcf44981cb", "is_disabled": 0, "rental_uris": {"android": "https://dc.lft.to/lastmile_qr_scan", "ios": "https://dc.lft.to/lastmile_qr_scan"}, "type": "electric_scooter", "lat": 38.89497383333333, "is_reserved": 0, "fusion_lat": 0.0}, {"bike_id": "8a18429c0adbf559052950598a194245", "fusion_lon": 0.0, "lon": -77.028068, "name": "8a18429c0adbf559052950598a194245", "is_disabled": 0, "rental_uris": {"android": "https://dc.lft.to/lastmile_qr_scan", "ios": "https://dc.lft.to/lastmile_qr_scan"}, "type": "electric_scooter", "lat": 38.8993075, "is_reserved": 0, "fusion_lat": 0.0}, {"bike_id": "5bcfb11a9d7f55b77ed7dd2cbd2b9237", "fusion_lon": 0.0, "lon": -77.02366916666666, "name": "5bcfb11a9d7f55b77ed7dd2cbd2b9237", "is_disabled": 0, "rental_uris": {"android": "https://dc.lft.to/lastmile_qr_scan", "ios": "https://dc.lft.to/lastmile_qr_scan"}, "type": "electric_scooter", "lat": 38.901557833333335, "is_reserved": 0, "fusion_lat": 0.0}, {"bike_id": "d05f5297c7ad2766903b9fe75c58a85f", "fusion_lon": 0.0, "lon": -77.04011, "name": "d05f5297c7ad2766903b9fe75c58a85f", "is_disabled": 0, "rental_uris": {"android": "https://dc.lft.to/lastmile_qr_scan", "ios": "https://dc.lft.to/lastmile_qr_scan"}, "type": "electric_scooter", "lat": 38.903262833333336, "is_reserved": 0, "fusion_lat": 0.0}, {"bike_id": "9d1681c25f42a073bd539bf211e62f9b", "fusion_lon": 0.0, "lon": -77.03901166666667, "name": "9d1681c25f42a073bd539bf211e62f9b", "is_disabled": 0, "rental_uris": {"android": "https://dc.lft.to/lastmile_qr_scan", "ios": "https://dc.lft.to/lastmile_qr_scan"}, "type": "electric_scooter", "lat": 38.92203083333333, "is_reserved": 0, "fusion_lat": 0.0}, {"bike_id": "1a8a5a560418fb172109b5c105eac883", "fusion_lon": 0.0, "lon": -77.0210365, "name": "1a8a5a560418fb172109b5c105eac883", "is_disabled": 0, "rental_uris": {"android": "https://dc.lft.to/lastmile_qr_scan", "ios": "https://dc.lft.to/lastmile_qr_scan"}, "type": "electric_scooter", "lat": 38.88518883333333, "is_reserved": 0, "fusion_lat": 0.0}, {"bike_id": "6d6b2f7515ccdd2659d4e8650fa3b4fd", "fusion_lon": 0.0, "lon": -76.93543833333334, "name": "6d6b2f7515ccdd2659d4e8650fa3b4fd", "is_disabled": 0, "rental_uris": {"android": "https://dc.lft.to/lastmile_qr_scan", "ios": "https://dc.lft.to/lastmile_qr_scan"}, "type": "electric_bike", "lat": 38.95184616666667, "is_reserved": 0, "fusion_lat": 0.0}, {"bike_id": "68507c1228ebfe67d55d0afb88af06d6", "fusion_lon": 0.0, "lon": -76.9986455, "name": "68507c1228ebfe67d55d0afb88af06d6", "is_disabled": 0, "rental_uris": {"android": "https://dc.lft.to/lastmile_qr_scan", "ios": "https://dc.lft.to/lastmile_qr_scan"}, "type": "electric_scooter", "lat": 38.90027283333333, "is_reserved": 0, "fusion_lat": 0.0}, {"bike_id": "89ad21bd9f5ef660eea9e5805e6c6948", "fusion_lon": 0.0, "lon": -77.03255066666667, "name": "89ad21bd9f5ef660eea9e5805e6c6948", "is_disabled": 0, "rental_uris": {"android": "https://dc.lft.to/lastmile_qr_scan", "ios": "https://dc.lft.to/lastmile_qr_scan"}, "type": "electric_scooter", "lat": 38.923569, "is_reserved": 0, "fusion_lat": 0.0}, {"bike_id": "76b4b03ae563640f5142d6749c2ac818", "fusion_lon": 0.0, "lon": -77.00600483333334, "name": "76b4b03ae563640f5142d6749c2ac818", "is_disabled": 0, "rental_uris": {"android": "https://dc.lft.to/lastmile_qr_scan", "ios": "https://dc.lft.to/lastmile_qr_scan"}, "type": "electric_scooter", "lat": 38.905713666666664, "is_reserved": 0, "fusion_lat": 0.0}, {"bike_id": "4998466255a054a7b1f7262b0113d441", "fusion_lon": 0.0, "lon": -77.027642, "name": "4998466255a054a7b1f7262b0113d441", "is_disabled": 0, "rental_uris": {"android": "https://dc.lft.to/lastmile_qr_scan", "ios": "https://dc.lft.to/lastmile_qr_scan"}, "type": "electric_scooter", "lat": 38.90729833333333, "is_reserved": 0, "fusion_lat": 0.0}, {"bike_id": "bdfce33391449333eed9607d9be7b638", "fusion_lon": 0.0, "lon": -76.96659783333334, "name": "bdfce33391449333eed9607d9be7b638", "is_disabled": 0, "rental_uris": {"android": "https://dc.lft.to/lastmile_qr_scan", "ios": "https://dc.lft.to/lastmile_qr_scan"}, "type": "electric_scooter", "lat": 38.8509705, "is_reserved": 0, "fusion_lat": 0.0}, {"bike_id": "1cfee2ce2eefd0bca9e03405025ab4a0", "fusion_lon": 0.0, "lon": -77.11851866666666, "name": "1cfee2ce2eefd0bca9e03405025ab4a0", "is_disabled": 0, "rental_uris": {"android": "https://dc.lft.to/lastmile_qr_scan", "ios": "https://dc.lft.to/lastmile_qr_scan"}, "type": "electric_bike", "lat": 38.877287, "is_reserved": 0, "fusion_lat": 0.0}, {"bike_id": "f23e15bc6a89edaf4ffd112f7b6c9e82", "fusion_lon": 0.0, "lon": -77.03966233333334, "name": "f23e15bc6a89edaf4ffd112f7b6c9e82", "is_disabled": 0, "rental_uris": {"android": "https://dc.lft.to/lastmile_qr_scan", "ios": "https://dc.lft.to/lastmile_qr_scan"}, "type": "electric_scooter", "lat": 38.9061115, "is_reserved": 0, "fusion_lat": 0.0}, {"bike_id": "3b3c3bcd6e2b25bf6367670892203537", "fusion_lon": 0.0, "lon": -76.99762766666667, "name": "3b3c3bcd6e2b25bf6367670892203537", "is_disabled": 0, "rental_uris": {"android": "https://dc.lft.to/lastmile_qr_scan", "ios": "https://dc.lft.to/lastmile_qr_scan"}, "type": "electric_scooter", "lat": 38.887690166666665, "is_reserved": 0, "fusion_lat": 0.0}, {"bike_id": "34d73ba6b82dd614248b500b86678362", "fusion_lon": 0.0, "lon": -77.04382033333333, "name": "34d73ba6b82dd614248b500b86678362", "is_disabled": 0, "rental_uris": {"android": "https://dc.lft.to/lastmile_qr_scan", "ios": "https://dc.lft.to/lastmile_qr_scan"}, "type": "electric_scooter", "lat": 38.90029533333333, "is_reserved": 0, "fusion_lat": 0.0}, {"bike_id": "1f017a1a8c80aec19e521b4391698d79", "fusion_lon": 0.0, "lon": -77.03401116666667, "name": "1f017a1a8c80aec19e521b4391698d79", "is_disabled": 0, "rental_uris": {"android": "https://dc.lft.to/lastmile_qr_scan", "ios": "https://dc.lft.to/lastmile_qr_scan"}, "type": "electric_scooter", "lat": 38.931193666666665, "is_reserved": 0, "fusion_lat": 0.0}, {"bike_id": "30f72a41b1fd4d9170ca2d81d43b6a89", "fusion_lon": 0.0, "lon": -77.00565316666666, "name": "30f72a41b1fd4d9170ca2d81d43b6a89", "is_disabled": 0, "rental_uris": {"android": "https://dc.lft.to/lastmile_qr_scan", "ios": "https://dc.lft.to/lastmile_qr_scan"}, "type": "electric_scooter", "lat": 38.88502316666667, "is_reserved": 0, "fusion_lat": 0.0}, {"bike_id": "4f6f00a9a2a2e1df91d03640765a245c", "fusion_lon": 0.0, "lon": -77.03986533333334, "name": "4f6f00a9a2a2e1df91d03640765a245c", "is_disabled": 0, "rental_uris": {"android": "https://dc.lft.to/lastmile_qr_scan", "ios": "https://dc.lft.to/lastmile_qr_scan"}, "type": "electric_scooter", "lat": 38.9175675, "is_reserved": 0, "fusion_lat": 0.0}, {"bike_id": "0920834aded4befe7caf112c4b814046", "fusion_lon": 0.0, "lon": -77.00591966666667, "name": "0920834aded4befe7caf112c4b814046", "is_disabled": 0, "rental_uris": {"android": "https://dc.lft.to/lastmile_qr_scan", "ios": "https://dc.lft.to/lastmile_qr_scan"}, "type": "electric_scooter", "lat": 38.90630516666667, "is_reserved": 0, "fusion_lat": 0.0}, {"bike_id": "909c481dcf553142195d7a6208bebc87", "fusion_lon": 0.0, "lon": -77.03131616666667, "name": "909c481dcf553142195d7a6208bebc87", "is_disabled": 0, "rental_uris": {"android": "https://dc.lft.to/lastmile_qr_scan", "ios": "https://dc.lft.to/lastmile_qr_scan"}, "type": "electric_scooter", "lat": 38.91558833333333, "is_reserved": 0, "fusion_lat": 0.0}, {"bike_id": "12386a73c22a758210c1f494e715377e", "fusion_lon": 0.0, "lon": -76.92482033333333, "name": "12386a73c22a758210c1f494e715377e", "is_disabled": 0, "rental_uris": {"android": "https://dc.lft.to/lastmile_qr_scan", "ios": "https://dc.lft.to/lastmile_qr_scan"}, "type": "electric_bike", "lat": 38.958950333333334, "is_reserved": 0, "fusion_lat": 0.0}, {"bike_id": "53a668cfcfe33beb910fcbf3bb2e74b7", "fusion_lon": 0.0, "lon": -77.0267185, "name": "53a668cfcfe33beb910fcbf3bb2e74b7", "is_disabled": 0, "rental_uris": {"android": "https://dc.lft.to/lastmile_qr_scan", "ios": "https://dc.lft.to/lastmile_qr_scan"}, "type": "electric_scooter", "lat": 38.92874166666667, "is_reserved": 0, "fusion_lat": 0.0}, {"bike_id": "fe9e5d4f19b184221077ccb8d3f257f4", "fusion_lon": 0.0, "lon": -77.00801533333333, "name": "fe9e5d4f19b184221077ccb8d3f257f4", "is_disabled": 0, "rental_uris": {"android": "https://dc.lft.to/lastmile_qr_scan", "ios": "https://dc.lft.to/lastmile_qr_scan"}, "type": "electric_scooter", "lat": 38.897174666666665, "is_reserved": 0, "fusion_lat": 0.0}, {"bike_id": "78412cad4f76f7a197ce1f8b182b7fea", "fusion_lon": 0.0, "lon": -77.00400266666666, "name": "78412cad4f76f7a197ce1f8b182b7fea", "is_disabled": 0, "rental_uris": {"android": "https://dc.lft.to/lastmile_qr_scan", "ios": "https://dc.lft.to/lastmile_qr_scan"}, "type": "electric_scooter", "lat": 38.876548666666665, "is_reserved": 0, "fusion_lat": 0.0}, {"bike_id": "44bac902b4c21caad8d75bfc28465baf", "fusion_lon": 0.0, "lon": -77.030683, "name": "44bac902b4c21caad8d75bfc28465baf", "is_disabled": 0, "rental_uris": {"android": "https://dc.lft.to/lastmile_qr_scan", "ios": "https://dc.lft.to/lastmile_qr_scan"}, "type": "electric_scooter", "lat": 38.897532, "is_reserved": 0, "fusion_lat": 0.0}, {"bike_id": "91e2a81eae7dc2a31cba66960637eb7a", "fusion_lon": 0.0, "lon": -77.034454, "name": "91e2a81eae7dc2a31cba66960637eb7a", "is_disabled": 0, "rental_uris": {"android": "https://dc.lft.to/lastmile_qr_scan", "ios": "https://dc.lft.to/lastmile_qr_scan"}, "type": "electric_scooter", "lat": 38.91808416666667, "is_reserved": 0, "fusion_lat": 0.0}, {"bike_id": "72265560117b760f6ef439e34c481f5d", "fusion_lon": 0.0, "lon": -77.03500666666666, "name": "72265560117b760f6ef439e34c481f5d", "is_disabled": 0, "rental_uris": {"android": "https://dc.lft.to/lastmile_qr_scan", "ios": "https://dc.lft.to/lastmile_qr_scan"}, "type": "electric_scooter", "lat": 38.91868783333334, "is_reserved": 0, "fusion_lat": 0.0}, {"bike_id": "38bc18d3747bbb06a44e596fc0025f4c", "fusion_lon": 0.0, "lon": -77.13473633333334, "name": "38bc18d3747bbb06a44e596fc0025f4c", "is_disabled": 0, "rental_uris": {"android": "https://dc.lft.to/lastmile_qr_scan", "ios": "https://dc.lft.to/lastmile_qr_scan"}, "type": "electric_bike", "lat": 38.85357183333333, "is_reserved": 0, "fusion_lat": 0.0}, {"bike_id": "f01d5a53d09cf08a858e6c68401dc85c", "fusion_lon": 0.0, "lon": -77.0318565, "name": "f01d5a53d09cf08a858e6c68401dc85c", "is_disabled": 0, "rental_uris": {"android": "https://dc.lft.to/lastmile_qr_scan", "ios": "https://dc.lft.to/lastmile_qr_scan"}, "type": "electric_scooter", "lat": 38.91925416666667, "is_reserved": 0, "fusion_lat": 0.0}, {"bike_id": "d0b29108481164fe525b5de122fee72b", "fusion_lon": 0.0, "lon": -77.01767716666667, "name": "d0b29108481164fe525b5de122fee72b", "is_disabled": 0, "rental_uris": {"android": "https://dc.lft.to/lastmile_qr_scan", "ios": "https://dc.lft.to/lastmile_qr_scan"}, "type": "electric_scooter", "lat": 38.917255833333336, "is_reserved": 0, "fusion_lat": 0.0}, {"bike_id": "459ee9b3087bc5f5c6c25ac45097e770", "fusion_lon": 0.0, "lon": -77.026944, "name": "459ee9b3087bc5f5c6c25ac45097e770", "is_disabled": 0, "rental_uris": {"android": "https://dc.lft.to/lastmile_qr_scan", "ios": "https://dc.lft.to/lastmile_qr_scan"}, "type": "electric_scooter", "lat": 38.911347, "is_reserved": 0, "fusion_lat": 0.0}, {"bike_id": "75e5a0a98c24dc95a04593cb1fecb2d3", "fusion_lon": 0.0, "lon": -77.027175, "name": "75e5a0a98c24dc95a04593cb1fecb2d3", "is_disabled": 0, "rental_uris": {"android": "https://dc.lft.to/lastmile_qr_scan", "ios": "https://dc.lft.to/lastmile_qr_scan"}, "type": "electric_scooter", "lat": 38.909539333333335, "is_reserved": 0, "fusion_lat": 0.0}, {"bike_id": "eff2a725aebc223f45b59e5f8e579833", "fusion_lon": 0.0, "lon": -77.02979133333334, "name": "eff2a725aebc223f45b59e5f8e579833", "is_disabled": 0, "rental_uris": {"android": "https://dc.lft.to/lastmile_qr_scan", "ios": "https://dc.lft.to/lastmile_qr_scan"}, "type": "electric_scooter", "lat": 38.95195433333333, "is_reserved": 0, "fusion_lat": 0.0}, {"bike_id": "82d49b4e2079c000fbc325f172f094b5", "fusion_lon": 0.0, "lon": -76.96502783333334, "name": "82d49b4e2079c000fbc325f172f094b5", "is_disabled": 0, "rental_uris": {"android": "https://dc.lft.to/lastmile_qr_scan", "ios": "https://dc.lft.to/lastmile_qr_scan"}, "type": "electric_bike", "lat": 38.8755415, "is_reserved": 0, "fusion_lat": 0.0}, {"bike_id": "1250ae9c2dae6ba6630f9e09e9ecf266", "fusion_lon": 0.0, "lon": -77.03861133333334, "name": "1250ae9c2dae6ba6630f9e09e9ecf266", "is_disabled": 0, "rental_uris": {"android": "https://dc.lft.to/lastmile_qr_scan", "ios": "https://dc.lft.to/lastmile_qr_scan"}, "type": "electric_scooter", "lat": 38.90777766666667, "is_reserved": 0, "fusion_lat": 0.0}, {"bike_id": "2a8823f66ea88d4e9b068a12acff444b", "fusion_lon": 0.0, "lon": -77.062123, "name": "2a8823f66ea88d4e9b068a12acff444b", "is_disabled": 0, "rental_uris": {"android": "https://dc.lft.to/lastmile_qr_scan", "ios": "https://dc.lft.to/lastmile_qr_scan"}, "type": "electric_bike", "lat": 38.92036016666667, "is_reserved": 0, "fusion_lat": 0.0}, {"bike_id": "d99426ad2805d03face3b2b58ef63e1f", "fusion_lon": 0.0, "lon": -77.03573166666666, "name": "d99426ad2805d03face3b2b58ef63e1f", "is_disabled": 0, "rental_uris": {"android": "https://dc.lft.to/lastmile_qr_scan", "ios": "https://dc.lft.to/lastmile_qr_scan"}, "type": "electric_scooter", "lat": 38.923296666666666, "is_reserved": 0, "fusion_lat": 0.0}, {"bike_id": "f34a4e0f74c7739e16c464eea66189e3", "fusion_lon": 0.0, "lon": -77.050502, "name": "f34a4e0f74c7739e16c464eea66189e3", "is_disabled": 0, "rental_uris": {"android": "https://dc.lft.to/lastmile_qr_scan", "ios": "https://dc.lft.to/lastmile_qr_scan"}, "type": "electric_scooter", "lat": 38.92342583333333, "is_reserved": 0, "fusion_lat": 0.0}, {"bike_id": "1baa911a1772de53c22c24f782ffb54f", "fusion_lon": 0.0, "lon": -77.039477, "name": "1baa911a1772de53c22c24f782ffb54f", "is_disabled": 0, "rental_uris": {"android": "https://dc.lft.to/lastmile_qr_scan", "ios": "https://dc.lft.to/lastmile_qr_scan"}, "type": "electric_scooter", "lat": 38.908144666666665, "is_reserved": 0, "fusion_lat": 0.0}, {"bike_id": "f5e12e71ec07a57cb43a4057b3bad411", "fusion_lon": 0.0, "lon": -77.03184783333333, "name": "f5e12e71ec07a57cb43a4057b3bad411", "is_disabled": 0, "rental_uris": {"android": "https://dc.lft.to/lastmile_qr_scan", "ios": "https://dc.lft.to/lastmile_qr_scan"}, "type": "electric_scooter", "lat": 38.91344566666667, "is_reserved": 0, "fusion_lat": 0.0}, {"bike_id": "f8b4fbf523574d65f30e46203ad792f0", "fusion_lon": 0.0, "lon": -77.01759433333334, "name": "f8b4fbf523574d65f30e46203ad792f0", "is_disabled": 0, "rental_uris": {"android": "https://dc.lft.to/lastmile_qr_scan", "ios": "https://dc.lft.to/lastmile_qr_scan"}, "type": "electric_scooter", "lat": 38.87855366666667, "is_reserved": 0, "fusion_lat": 0.0}, {"bike_id": "43c38d2ce2ed5b167c497f56f0481c23", "fusion_lon": 0.0, "lon": -76.9774155, "name": "43c38d2ce2ed5b167c497f56f0481c23", "is_disabled": 0, "rental_uris": {"android": "https://dc.lft.to/lastmile_qr_scan", "ios": "https://dc.lft.to/lastmile_qr_scan"}, "type": "electric_scooter", "lat": 38.86834316666667, "is_reserved": 0, "fusion_lat": 0.0}, {"bike_id": "bbec8ded4d6e17727322af11d1cff90a", "fusion_lon": 0.0, "lon": -76.9828535, "name": "bbec8ded4d6e17727322af11d1cff90a", "is_disabled": 0, "rental_uris": {"android": "https://dc.lft.to/lastmile_qr_scan", "ios": "https://dc.lft.to/lastmile_qr_scan"}, "type": "electric_scooter", "lat": 38.899828, "is_reserved": 0, "fusion_lat": 0.0}, {"bike_id": "2f2cedc287265ea24440f3660a7589a0", "fusion_lon": 0.0, "lon": -77.029704, "name": "2f2cedc287265ea24440f3660a7589a0", "is_disabled": 0, "rental_uris": {"android": "https://dc.lft.to/lastmile_qr_scan", "ios": "https://dc.lft.to/lastmile_qr_scan"}, "type": "electric_scooter", "lat": 38.93191916666667, "is_reserved": 0, "fusion_lat": 0.0}, {"bike_id": "46321a98e80a576c5c57e888f7ffd547", "fusion_lon": 0.0, "lon": -77.04345566666667, "name": "46321a98e80a576c5c57e888f7ffd547", "is_disabled": 0, "rental_uris": {"android": "https://dc.lft.to/lastmile_qr_scan", "ios": "https://dc.lft.to/lastmile_qr_scan"}, "type": "electric_scooter", "lat": 38.912962666666665, "is_reserved": 0, "fusion_lat": 0.0}, {"bike_id": "9b78259db9ae249aaee077d3d9debd3a", "fusion_lon": 0.0, "lon": -77.032618, "name": "9b78259db9ae249aaee077d3d9debd3a", "is_disabled": 0, "rental_uris": {"android": "https://dc.lft.to/lastmile_qr_scan", "ios": "https://dc.lft.to/lastmile_qr_scan"}, "type": "electric_scooter", "lat": 38.933312, "is_reserved": 0, "fusion_lat": 0.0}, {"bike_id": "1847cdbde37c1db6e60498bb83deb029", "fusion_lon": 0.0, "lon": -77.07825066666666, "name": "1847cdbde37c1db6e60498bb83deb029", "is_disabled": 0, "rental_uris": {"android": "https://dc.lft.to/lastmile_qr_scan", "ios": "https://dc.lft.to/lastmile_qr_scan"}, "type": "electric_scooter", "lat": 38.912754, "is_reserved": 0, "fusion_lat": 0.0}, {"bike_id": "bf55cd55bc6d5667d8d5ddba6398443a", "fusion_lon": 0.0, "lon": -77.03258433333333, "name": "bf55cd55bc6d5667d8d5ddba6398443a", "is_disabled": 0, "rental_uris": {"android": "https://dc.lft.to/lastmile_qr_scan", "ios": "https://dc.lft.to/lastmile_qr_scan"}, "type": "electric_scooter", "lat": 38.91403283333333, "is_reserved": 0, "fusion_lat": 0.0}, {"bike_id": "48affb8f67bf82f0e22fbd463a1aeeda", "fusion_lon": 0.0, "lon": -77.0434975, "name": "48affb8f67bf82f0e22fbd463a1aeeda", "is_disabled": 0, "rental_uris": {"android": "https://dc.lft.to/lastmile_qr_scan", "ios": "https://dc.lft.to/lastmile_qr_scan"}, "type": "electric_scooter", "lat": 38.905575, "is_reserved": 0, "fusion_lat": 0.0}, {"bike_id": "737720d06b4a2943ac011311356d8ab4", "fusion_lon": 0.0, "lon": -76.9718595, "name": "737720d06b4a2943ac011311356d8ab4", "is_disabled": 0, "rental_uris": {"android": "https://dc.lft.to/lastmile_qr_scan", "ios": "https://dc.lft.to/lastmile_qr_scan"}, "type": "electric_bike", "lat": 38.933172666666664, "is_reserved": 0, "fusion_lat": 0.0}, {"bike_id": "0676662cef9d0dba97510a4a35e2083c", "fusion_lon": 0.0, "lon": -77.02961033333334, "name": "0676662cef9d0dba97510a4a35e2083c", "is_disabled": 0, "rental_uris": {"android": "https://dc.lft.to/lastmile_qr_scan", "ios": "https://dc.lft.to/lastmile_qr_scan"}, "type": "electric_bike", "lat": 38.95069733333333, "is_reserved": 0, "fusion_lat": 0.0}, {"bike_id": "c0fde1bdcfd4509aa07a3ae39ffa2235", "fusion_lon": 0.0, "lon": -77.0130615, "name": "c0fde1bdcfd4509aa07a3ae39ffa2235", "is_disabled": 0, "rental_uris": {"android": "https://dc.lft.to/lastmile_qr_scan", "ios": "https://dc.lft.to/lastmile_qr_scan"}, "type": "electric_scooter", "lat": 38.914052166666664, "is_reserved": 0, "fusion_lat": 0.0}, {"bike_id": "c9e5fc934e0eec1a0595f49975fe2969", "fusion_lon": 0.0, "lon": -77.05500016666667, "name": "c9e5fc934e0eec1a0595f49975fe2969", "is_disabled": 0, "rental_uris": {"android": "https://dc.lft.to/lastmile_qr_scan", "ios": "https://dc.lft.to/lastmile_qr_scan"}, "type": "electric_scooter", "lat": 38.9296795, "is_reserved": 0, "fusion_lat": 0.0}, {"bike_id": "68839acb09cd16d6cb49ea6f481f406b", "fusion_lon": 0.0, "lon": -77.00343283333333, "name": "68839acb09cd16d6cb49ea6f481f406b", "is_disabled": 0, "rental_uris": {"android": "https://dc.lft.to/lastmile_qr_scan", "ios": "https://dc.lft.to/lastmile_qr_scan"}, "type": "electric_scooter", "lat": 38.88995033333333, "is_reserved": 0, "fusion_lat": 0.0}, {"bike_id": "e5e44f648900006551d792bc10578808", "fusion_lon": 0.0, "lon": -77.03543033333334, "name": "e5e44f648900006551d792bc10578808", "is_disabled": 0, "rental_uris": {"android": "https://dc.lft.to/lastmile_qr_scan", "ios": "https://dc.lft.to/lastmile_qr_scan"}, "type": "electric_scooter", "lat": 38.92413833333333, "is_reserved": 0, "fusion_lat": 0.0}, {"bike_id": "35cc9b21a4ee8e1e94638d51aabc7a94", "fusion_lon": 0.0, "lon": -77.0514315, "name": "35cc9b21a4ee8e1e94638d51aabc7a94", "is_disabled": 0, "rental_uris": {"android": "https://dc.lft.to/lastmile_qr_scan", "ios": "https://dc.lft.to/lastmile_qr_scan"}, "type": "electric_scooter", "lat": 38.90530433333333, "is_reserved": 0, "fusion_lat": 0.0}, {"bike_id": "a7fd10e00ce63a4bcf007be176496dad", "fusion_lon": 0.0, "lon": -77.02568316666667, "name": "a7fd10e00ce63a4bcf007be176496dad", "is_disabled": 0, "rental_uris": {"android": "https://dc.lft.to/lastmile_qr_scan", "ios": "https://dc.lft.to/lastmile_qr_scan"}, "type": "electric_bike", "lat": 38.895831333333334, "is_reserved": 0, "fusion_lat": 0.0}, {"bike_id": "ba860220767609c27e42c4dd8b7d00e4", "fusion_lon": 0.0, "lon": -77.043357, "name": "ba860220767609c27e42c4dd8b7d00e4", "is_disabled": 0, "rental_uris": {"android": "https://dc.lft.to/lastmile_qr_scan", "ios": "https://dc.lft.to/lastmile_qr_scan"}, "type": "electric_scooter", "lat": 38.908326, "is_reserved": 0, "fusion_lat": 0.0}, {"bike_id": "78adc3a20e626d2a69e8f516a0826b1b", "fusion_lon": 0.0, "lon": -76.93197466666666, "name": "78adc3a20e626d2a69e8f516a0826b1b", "is_disabled": 0, "rental_uris": {"android": "https://dc.lft.to/lastmile_qr_scan", "ios": "https://dc.lft.to/lastmile_qr_scan"}, "type": "electric_scooter", "lat": 38.89881183333333, "is_reserved": 0, "fusion_lat": 0.0}, {"bike_id": "b863d931ac533a8e3aa7f99c9ee99133", "fusion_lon": 0.0, "lon": -77.04478133333333, "name": "b863d931ac533a8e3aa7f99c9ee99133", "is_disabled": 0, "rental_uris": {"android": "https://dc.lft.to/lastmile_qr_scan", "ios": "https://dc.lft.to/lastmile_qr_scan"}, "type": "electric_scooter", "lat": 38.922358833333334, "is_reserved": 0, "fusion_lat": 0.0}, {"bike_id": "bc94bcfd976bd229ce253c3744d5dc13", "fusion_lon": 0.0, "lon": -76.935461, "name": "bc94bcfd976bd229ce253c3744d5dc13", "is_disabled": 0, "rental_uris": {"android": "https://dc.lft.to/lastmile_qr_scan", "ios": "https://dc.lft.to/lastmile_qr_scan"}, "type": "electric_bike", "lat": 38.9555385, "is_reserved": 0, "fusion_lat": 0.0}, {"bike_id": "e330a951b6081482075deb91eb8e36dc", "fusion_lon": 0.0, "lon": -77.04722316666667, "name": "e330a951b6081482075deb91eb8e36dc", "is_disabled": 0, "rental_uris": {"android": "https://dc.lft.to/lastmile_qr_scan", "ios": "https://dc.lft.to/lastmile_qr_scan"}, "type": "electric_scooter", "lat": 38.905991666666665, "is_reserved": 0, "fusion_lat": 0.0}, {"bike_id": "02459b221c3a33a819aa6ea847859cf2", "fusion_lon": 0.0, "lon": -77.01581666666667, "name": "02459b221c3a33a819aa6ea847859cf2", "is_disabled": 0, "rental_uris": {"android": "https://dc.lft.to/lastmile_qr_scan", "ios": "https://dc.lft.to/lastmile_qr_scan"}, "type": "electric_scooter", "lat": 38.891836, "is_reserved": 0, "fusion_lat": 0.0}, {"bike_id": "c1f976e3f3b6a87112813dd7915098d6", "fusion_lon": 0.0, "lon": -77.02803633333333, "name": "c1f976e3f3b6a87112813dd7915098d6", "is_disabled": 0, "rental_uris": {"android": "https://dc.lft.to/lastmile_qr_scan", "ios": "https://dc.lft.to/lastmile_qr_scan"}, "type": "electric_scooter", "lat": 38.89925216666666, "is_reserved": 0, "fusion_lat": 0.0}, {"bike_id": "4749753283ad6b8c9fe0409988e9aae0", "fusion_lon": 0.0, "lon": -77.002093, "name": "4749753283ad6b8c9fe0409988e9aae0", "is_disabled": 0, "rental_uris": {"android": "https://dc.lft.to/lastmile_qr_scan", "ios": "https://dc.lft.to/lastmile_qr_scan"}, "type": "electric_scooter", "lat": 38.90038583333333, "is_reserved": 0, "fusion_lat": 0.0}, {"bike_id": "4359e47fa3f7c8fa995dc3de5fe94354", "fusion_lon": 0.0, "lon": -77.01772533333333, "name": "4359e47fa3f7c8fa995dc3de5fe94354", "is_disabled": 0, "rental_uris": {"android": "https://dc.lft.to/lastmile_qr_scan", "ios": "https://dc.lft.to/lastmile_qr_scan"}, "type": "electric_scooter", "lat": 38.88396766666666, "is_reserved": 0, "fusion_lat": 0.0}, {"bike_id": "f685698755803f4e7352836c4fc770ba", "fusion_lon": 0.0, "lon": -76.985044, "name": "f685698755803f4e7352836c4fc770ba", "is_disabled": 0, "rental_uris": {"android": "https://dc.lft.to/lastmile_qr_scan", "ios": "https://dc.lft.to/lastmile_qr_scan"}, "type": "electric_scooter", "lat": 38.86668683333333, "is_reserved": 0, "fusion_lat": 0.0}, {"bike_id": "b9421781b383f401607faf20600093b1", "fusion_lon": 0.0, "lon": -76.94630966666666, "name": "b9421781b383f401607faf20600093b1", "is_disabled": 0, "rental_uris": {"android": "https://dc.lft.to/lastmile_qr_scan", "ios": "https://dc.lft.to/lastmile_qr_scan"}, "type": "electric_scooter", "lat": 38.898449666666664, "is_reserved": 0, "fusion_lat": 0.0}, {"bike_id": "9d817141282df409647949315e3536c3", "fusion_lon": 0.0, "lon": -77.06706133333333, "name": "9d817141282df409647949315e3536c3", "is_disabled": 0, "rental_uris": {"android": "https://dc.lft.to/lastmile_qr_scan", "ios": "https://dc.lft.to/lastmile_qr_scan"}, "type": "electric_scooter", "lat": 38.9501035, "is_reserved": 0, "fusion_lat": 0.0}, {"bike_id": "e7cc363632200533599cab99e5db7998", "fusion_lon": 0.0, "lon": -77.02184233333334, "name": "e7cc363632200533599cab99e5db7998", "is_disabled": 0, "rental_uris": {"android": "https://dc.lft.to/lastmile_qr_scan", "ios": "https://dc.lft.to/lastmile_qr_scan"}, "type": "electric_scooter", "lat": 38.919089166666666, "is_reserved": 0, "fusion_lat": 0.0}, {"bike_id": "b71915c67b3e27d4fa46692d0388b431", "fusion_lon": 0.0, "lon": -77.04676316666666, "name": "b71915c67b3e27d4fa46692d0388b431", "is_disabled": 0, "rental_uris": {"android": "https://dc.lft.to/lastmile_qr_scan", "ios": "https://dc.lft.to/lastmile_qr_scan"}, "type": "electric_scooter", "lat": 38.8951025, "is_reserved": 0, "fusion_lat": 0.0}, {"bike_id": "d27d431fd582d6c41fd0362b3ef023aa", "fusion_lon": 0.0, "lon": -76.98400466666666, "name": "d27d431fd582d6c41fd0362b3ef023aa", "is_disabled": 0, "rental_uris": {"android": "https://dc.lft.to/lastmile_qr_scan", "ios": "https://dc.lft.to/lastmile_qr_scan"}, "type": "electric_scooter", "lat": 38.8669235, "is_reserved": 0, "fusion_lat": 0.0}, {"bike_id": "580f9fd6534c8c42efb7e99297d77c7f", "fusion_lon": 0.0, "lon": -77.0347555, "name": "580f9fd6534c8c42efb7e99297d77c7f", "is_disabled": 0, "rental_uris": {"android": "https://dc.lft.to/lastmile_qr_scan", "ios": "https://dc.lft.to/lastmile_qr_scan"}, "type": "electric_scooter", "lat": 38.92482733333333, "is_reserved": 0, "fusion_lat": 0.0}, {"bike_id": "90c11fa0866a4faf868a87c6a8f689f2", "fusion_lon": 0.0, "lon": -77.03324583333334, "name": "90c11fa0866a4faf868a87c6a8f689f2", "is_disabled": 0, "rental_uris": {"android": "https://dc.lft.to/lastmile_qr_scan", "ios": "https://dc.lft.to/lastmile_qr_scan"}, "type": "electric_scooter", "lat": 38.9035595, "is_reserved": 0, "fusion_lat": 0.0}, {"bike_id": "e68c49eac205a7d629e9fb61ddb1bde3", "fusion_lon": 0.0, "lon": -76.93734166666667, "name": "e68c49eac205a7d629e9fb61ddb1bde3", "is_disabled": 0, "rental_uris": {"android": "https://dc.lft.to/lastmile_qr_scan", "ios": "https://dc.lft.to/lastmile_qr_scan"}, "type": "electric_scooter", "lat": 38.8901415, "is_reserved": 0, "fusion_lat": 0.0}, {"bike_id": "1d3538aeb5e617886f08905cd8342b31", "fusion_lon": 0.0, "lon": -77.045517, "name": "1d3538aeb5e617886f08905cd8342b31", "is_disabled": 0, "rental_uris": {"android": "https://dc.lft.to/lastmile_qr_scan", "ios": "https://dc.lft.to/lastmile_qr_scan"}, "type": "electric_scooter", "lat": 38.92423466666666, "is_reserved": 0, "fusion_lat": 0.0}, {"bike_id": "d0ab54aa9d2344cadb325029a1ffb687", "fusion_lon": 0.0, "lon": -76.99946966666667, "name": "d0ab54aa9d2344cadb325029a1ffb687", "is_disabled": 0, "rental_uris": {"android": "https://dc.lft.to/lastmile_qr_scan", "ios": "https://dc.lft.to/lastmile_qr_scan"}, "type": "electric_scooter", "lat": 38.8429245, "is_reserved": 0, "fusion_lat": 0.0}, {"bike_id": "4a0127afdcef7054ce8efb695069951f", "fusion_lon": 0.0, "lon": -77.03369216666667, "name": "4a0127afdcef7054ce8efb695069951f", "is_disabled": 0, "rental_uris": {"android": "https://dc.lft.to/lastmile_qr_scan", "ios": "https://dc.lft.to/lastmile_qr_scan"}, "type": "electric_scooter", "lat": 38.92237, "is_reserved": 0, "fusion_lat": 0.0}, {"bike_id": "1713629cb09d04e3e547ff2d8a9e3142", "fusion_lon": 0.0, "lon": -77.03908766666666, "name": "1713629cb09d04e3e547ff2d8a9e3142", "is_disabled": 0, "rental_uris": {"android": "https://dc.lft.to/lastmile_qr_scan", "ios": "https://dc.lft.to/lastmile_qr_scan"}, "type": "electric_scooter", "lat": 38.915508, "is_reserved": 0, "fusion_lat": 0.0}, {"bike_id": "90e593e01d489b27c832a8b845d00f4f", "fusion_lon": 0.0, "lon": -77.0539375, "name": "90e593e01d489b27c832a8b845d00f4f", "is_disabled": 0, "rental_uris": {"android": "https://dc.lft.to/lastmile_qr_scan", "ios": "https://dc.lft.to/lastmile_qr_scan"}, "type": "electric_scooter", "lat": 38.92812983333334, "is_reserved": 0, "fusion_lat": 0.0}, {"bike_id": "02f3128d2893ec5d84eec7348e958df0", "fusion_lon": 0.0, "lon": -77.01946416666667, "name": "02f3128d2893ec5d84eec7348e958df0", "is_disabled": 0, "rental_uris": {"android": "https://dc.lft.to/lastmile_qr_scan", "ios": "https://dc.lft.to/lastmile_qr_scan"}, "type": "electric_scooter", "lat": 38.924181833333336, "is_reserved": 0, "fusion_lat": 0.0}, {"bike_id": "bdf372513c840ea830e07caccfd9e71e", "fusion_lon": 0.0, "lon": -76.98711166666666, "name": "bdf372513c840ea830e07caccfd9e71e", "is_disabled": 0, "rental_uris": {"android": "https://dc.lft.to/lastmile_qr_scan", "ios": "https://dc.lft.to/lastmile_qr_scan"}, "type": "electric_scooter", "lat": 38.8670025, "is_reserved": 0, "fusion_lat": 0.0}, {"bike_id": "cfc7841f3c1a0fe32ec5432624a65837", "fusion_lon": 0.0, "lon": -77.03655783333333, "name": "cfc7841f3c1a0fe32ec5432624a65837", "is_disabled": 0, "rental_uris": {"android": "https://dc.lft.to/lastmile_qr_scan", "ios": "https://dc.lft.to/lastmile_qr_scan"}, "type": "electric_scooter", "lat": 38.929837666666664, "is_reserved": 0, "fusion_lat": 0.0}, {"bike_id": "f29d39f6e83334772ad77cad90a88390", "fusion_lon": 0.0, "lon": -76.99823916666666, "name": "f29d39f6e83334772ad77cad90a88390", "is_disabled": 0, "rental_uris": {"android": "https://dc.lft.to/lastmile_qr_scan", "ios": "https://dc.lft.to/lastmile_qr_scan"}, "type": "electric_scooter", "lat": 38.907481833333335, "is_reserved": 0, "fusion_lat": 0.0}, {"bike_id": "cbed51c28bc0712401c6071da445129d", "fusion_lon": 0.0, "lon": -77.0118585, "name": "cbed51c28bc0712401c6071da445129d", "is_disabled": 0, "rental_uris": {"android": "https://dc.lft.to/lastmile_qr_scan", "ios": "https://dc.lft.to/lastmile_qr_scan"}, "type": "electric_scooter", "lat": 38.915432, "is_reserved": 0, "fusion_lat": 0.0}, {"bike_id": "65f0859e9274fd0a737b22bcded94824", "fusion_lon": 0.0, "lon": -77.035225, "name": "65f0859e9274fd0a737b22bcded94824", "is_disabled": 0, "rental_uris": {"android": "https://dc.lft.to/lastmile_qr_scan", "ios": "https://dc.lft.to/lastmile_qr_scan"}, "type": "electric_scooter", "lat": 38.9232105, "is_reserved": 0, "fusion_lat": 0.0}, {"bike_id": "1c58195dda11b8cc65e9b6e2eb7c2826", "fusion_lon": 0.0, "lon": -77.00673233333333, "name": "1c58195dda11b8cc65e9b6e2eb7c2826", "is_disabled": 0, "rental_uris": {"android": "https://dc.lft.to/lastmile_qr_scan", "ios": "https://dc.lft.to/lastmile_qr_scan"}, "type": "electric_bike", "lat": 38.945056, "is_reserved": 0, "fusion_lat": 0.0}, {"bike_id": "219212f47dbb8e3f38098fae12080d1a", "fusion_lon": 0.0, "lon": -77.025153, "name": "219212f47dbb8e3f38098fae12080d1a", "is_disabled": 0, "rental_uris": {"android": "https://dc.lft.to/lastmile_qr_scan", "ios": "https://dc.lft.to/lastmile_qr_scan"}, "type": "electric_scooter", "lat": 38.94617933333333, "is_reserved": 0, "fusion_lat": 0.0}, {"bike_id": "1737128e860b8fb5ad22b8354b28883f", "fusion_lon": 0.0, "lon": -76.95362666666666, "name": "1737128e860b8fb5ad22b8354b28883f", "is_disabled": 0, "rental_uris": {"android": "https://dc.lft.to/lastmile_qr_scan", "ios": "https://dc.lft.to/lastmile_qr_scan"}, "type": "electric_scooter", "lat": 38.8920415, "is_reserved": 0, "fusion_lat": 0.0}, {"bike_id": "743e1a6f2373a7b91aca19f21c28aca0", "fusion_lon": 0.0, "lon": -77.05883883333334, "name": "743e1a6f2373a7b91aca19f21c28aca0", "is_disabled": 0, "rental_uris": {"android": "https://dc.lft.to/lastmile_qr_scan", "ios": "https://dc.lft.to/lastmile_qr_scan"}, "type": "electric_scooter", "lat": 38.91823866666667, "is_reserved": 0, "fusion_lat": 0.0}, {"bike_id": "ab501d75b8153f6aa9f5852289c198ce", "fusion_lon": 0.0, "lon": -77.05902833333333, "name": "ab501d75b8153f6aa9f5852289c198ce", "is_disabled": 0, "rental_uris": {"android": "https://dc.lft.to/lastmile_qr_scan", "ios": "https://dc.lft.to/lastmile_qr_scan"}, "type": "electric_scooter", "lat": 38.93346116666667, "is_reserved": 0, "fusion_lat": 0.0}, {"bike_id": "dabb6a362ed0128e993c07a3a03096cb", "fusion_lon": 0.0, "lon": -77.03770383333334, "name": "dabb6a362ed0128e993c07a3a03096cb", "is_disabled": 0, "rental_uris": {"android": "https://dc.lft.to/lastmile_qr_scan", "ios": "https://dc.lft.to/lastmile_qr_scan"}, "type": "electric_scooter", "lat": 38.920084333333335, "is_reserved": 0, "fusion_lat": 0.0}, {"bike_id": "28cf2354b4f30b3e5a6bf300e4b9125c", "fusion_lon": 0.0, "lon": -77.02166716666666, "name": "28cf2354b4f30b3e5a6bf300e4b9125c", "is_disabled": 0, "rental_uris": {"android": "https://dc.lft.to/lastmile_qr_scan", "ios": "https://dc.lft.to/lastmile_qr_scan"}, "type": "electric_scooter", "lat": 38.885389, "is_reserved": 0, "fusion_lat": 0.0}, {"bike_id": "2e7fac63e5151a3d61880e895db6f5c3", "fusion_lon": 0.0, "lon": -76.9840035, "name": "2e7fac63e5151a3d61880e895db6f5c3", "is_disabled": 0, "rental_uris": {"android": "https://dc.lft.to/lastmile_qr_scan", "ios": "https://dc.lft.to/lastmile_qr_scan"}, "type": "electric_scooter", "lat": 38.867017, "is_reserved": 0, "fusion_lat": 0.0}, {"bike_id": "47749bac7bb7fa8917c30703e5bcefc5", "fusion_lon": 0.0, "lon": -77.04330383333334, "name": "47749bac7bb7fa8917c30703e5bcefc5", "is_disabled": 0, "rental_uris": {"android": "https://dc.lft.to/lastmile_qr_scan", "ios": "https://dc.lft.to/lastmile_qr_scan"}, "type": "electric_scooter", "lat": 38.90592383333333, "is_reserved": 0, "fusion_lat": 0.0}, {"bike_id": "4e3df39d50c77313a3435092c181d005", "fusion_lon": 0.0, "lon": -76.99401383333333, "name": "4e3df39d50c77313a3435092c181d005", "is_disabled": 0, "rental_uris": {"android": "https://dc.lft.to/lastmile_qr_scan", "ios": "https://dc.lft.to/lastmile_qr_scan"}, "type": "electric_scooter", "lat": 38.921629333333335, "is_reserved": 0, "fusion_lat": 0.0}, {"bike_id": "ab09666b8b839f119b5109fdbfa17a59", "fusion_lon": 0.0, "lon": -77.03466233333333, "name": "ab09666b8b839f119b5109fdbfa17a59", "is_disabled": 0, "rental_uris": {"android": "https://dc.lft.to/lastmile_qr_scan", "ios": "https://dc.lft.to/lastmile_qr_scan"}, "type": "electric_scooter", "lat": 38.907666, "is_reserved": 0, "fusion_lat": 0.0}, {"bike_id": "f773032124f3a66416d7c009ef542bb3", "fusion_lon": 0.0, "lon": -77.02786466666667, "name": "f773032124f3a66416d7c009ef542bb3", "is_disabled": 0, "rental_uris": {"android": "https://dc.lft.to/lastmile_qr_scan", "ios": "https://dc.lft.to/lastmile_qr_scan"}, "type": "electric_scooter", "lat": 38.901180333333336, "is_reserved": 0, "fusion_lat": 0.0}, {"bike_id": "602555e9702ddbd46593a8beb6b23ebb", "fusion_lon": 0.0, "lon": -76.98777533333333, "name": "602555e9702ddbd46593a8beb6b23ebb", "is_disabled": 0, "rental_uris": {"android": "https://dc.lft.to/lastmile_qr_scan", "ios": "https://dc.lft.to/lastmile_qr_scan"}, "type": "electric_bike", "lat": 38.8659795, "is_reserved": 0, "fusion_lat": 0.0}, {"bike_id": "270c3df8ed8ddaca1992b45f2bd80144", "fusion_lon": 0.0, "lon": -76.99483083333334, "name": "270c3df8ed8ddaca1992b45f2bd80144", "is_disabled": 0, "rental_uris": {"android": "https://dc.lft.to/lastmile_qr_scan", "ios": "https://dc.lft.to/lastmile_qr_scan"}, "type": "electric_bike", "lat": 38.877334166666664, "is_reserved": 0, "fusion_lat": 0.0}, {"bike_id": "3de78e171b32ccaec32b51710db0e656", "fusion_lon": 0.0, "lon": -77.02696566666667, "name": "3de78e171b32ccaec32b51710db0e656", "is_disabled": 0, "rental_uris": {"android": "https://dc.lft.to/lastmile_qr_scan", "ios": "https://dc.lft.to/lastmile_qr_scan"}, "type": "electric_scooter", "lat": 38.89714216666667, "is_reserved": 0, "fusion_lat": 0.0}, {"bike_id": "e9daf84f6277377253cd4c0397def11f", "fusion_lon": 0.0, "lon": -77.02687716666667, "name": "e9daf84f6277377253cd4c0397def11f", "is_disabled": 0, "rental_uris": {"android": "https://dc.lft.to/lastmile_qr_scan", "ios": "https://dc.lft.to/lastmile_qr_scan"}, "type": "electric_scooter", "lat": 38.898363833333335, "is_reserved": 0, "fusion_lat": 0.0}, {"bike_id": "fb072ea69d3cde4bdaa5428fa3cf7b7d", "fusion_lon": 0.0, "lon": -76.933445, "name": "fb072ea69d3cde4bdaa5428fa3cf7b7d", "is_disabled": 0, "rental_uris": {"android": "https://dc.lft.to/lastmile_qr_scan", "ios": "https://dc.lft.to/lastmile_qr_scan"}, "type": "electric_scooter", "lat": 38.88813183333333, "is_reserved": 0, "fusion_lat": 0.0}, {"bike_id": "fea64ad3aaf33156c55341817513622e", "fusion_lon": 0.0, "lon": -77.20838083333334, "name": "fea64ad3aaf33156c55341817513622e", "is_disabled": 0, "rental_uris": {"android": "https://dc.lft.to/lastmile_qr_scan", "ios": "https://dc.lft.to/lastmile_qr_scan"}, "type": "electric_bike", "lat": 38.924650666666665, "is_reserved": 0, "fusion_lat": 0.0}, {"bike_id": "6c204d8dfc945fce3ce40ede47f0924a", "fusion_lon": 0.0, "lon": -77.1132255, "name": "6c204d8dfc945fce3ce40ede47f0924a", "is_disabled": 0, "rental_uris": {"android": "https://dc.lft.to/lastmile_qr_scan", "ios": "https://dc.lft.to/lastmile_qr_scan"}, "type": "electric_bike", "lat": 38.831556, "is_reserved": 0, "fusion_lat": 0.0}, {"bike_id": "7696162fc39ac8274756e29f91db1b5d", "fusion_lon": 0.0, "lon": -77.0450615, "name": "7696162fc39ac8274756e29f91db1b5d", "is_disabled": 0, "rental_uris": {"android": "https://dc.lft.to/lastmile_qr_scan", "ios": "https://dc.lft.to/lastmile_qr_scan"}, "type": "electric_scooter", "lat": 38.91229916666666, "is_reserved": 0, "fusion_lat": 0.0}, {"bike_id": "3e49715a0af2874b75f559fc7e5e4819", "fusion_lon": 0.0, "lon": -77.02188516666666, "name": "3e49715a0af2874b75f559fc7e5e4819", "is_disabled": 0, "rental_uris": {"android": "https://dc.lft.to/lastmile_qr_scan", "ios": "https://dc.lft.to/lastmile_qr_scan"}, "type": "electric_scooter", "lat": 38.91059683333334, "is_reserved": 0, "fusion_lat": 0.0}, {"bike_id": "ca5d2095000ef5f99f54b4f3e3369dec", "fusion_lon": 0.0, "lon": -77.00579533333334, "name": "ca5d2095000ef5f99f54b4f3e3369dec", "is_disabled": 0, "rental_uris": {"android": "https://dc.lft.to/lastmile_qr_scan", "ios": "https://dc.lft.to/lastmile_qr_scan"}, "type": "electric_scooter", "lat": 38.905566666666665, "is_reserved": 0, "fusion_lat": 0.0}, {"bike_id": "4d67676b82613b609d369540892f1b0d", "fusion_lon": 0.0, "lon": -77.02845966666666, "name": "4d67676b82613b609d369540892f1b0d", "is_disabled": 0, "rental_uris": {"android": "https://dc.lft.to/lastmile_qr_scan", "ios": "https://dc.lft.to/lastmile_qr_scan"}, "type": "electric_scooter", "lat": 38.922379666666664, "is_reserved": 0, "fusion_lat": 0.0}, {"bike_id": "252df6356dc63dcde123663b86eec676", "fusion_lon": 0.0, "lon": -76.99004883333333, "name": "252df6356dc63dcde123663b86eec676", "is_disabled": 0, "rental_uris": {"android": "https://dc.lft.to/lastmile_qr_scan", "ios": "https://dc.lft.to/lastmile_qr_scan"}, "type": "electric_scooter", "lat": 38.86423216666667, "is_reserved": 0, "fusion_lat": 0.0}, {"bike_id": "350d0ab450a1af746ed67c3bd4f59391", "fusion_lon": 0.0, "lon": -77.04862233333333, "name": "350d0ab450a1af746ed67c3bd4f59391", "is_disabled": 0, "rental_uris": {"android": "https://dc.lft.to/lastmile_qr_scan", "ios": "https://dc.lft.to/lastmile_qr_scan"}, "type": "electric_scooter", "lat": 38.892221, "is_reserved": 0, "fusion_lat": 0.0}, {"bike_id": "4606024c48d1de72e19b74a7ecca544c", "fusion_lon": 0.0, "lon": -77.02830716666666, "name": "4606024c48d1de72e19b74a7ecca544c", "is_disabled": 0, "rental_uris": {"android": "https://dc.lft.to/lastmile_qr_scan", "ios": "https://dc.lft.to/lastmile_qr_scan"}, "type": "electric_scooter", "lat": 38.92479133333333, "is_reserved": 0, "fusion_lat": 0.0}, {"bike_id": "1dc0a7ee5da0131203a83bcd14ab8c3a", "fusion_lon": 0.0, "lon": -77.01779083333334, "name": "1dc0a7ee5da0131203a83bcd14ab8c3a", "is_disabled": 0, "rental_uris": {"android": "https://dc.lft.to/lastmile_qr_scan", "ios": "https://dc.lft.to/lastmile_qr_scan"}, "type": "electric_scooter", "lat": 38.92004683333333, "is_reserved": 0, "fusion_lat": 0.0}, {"bike_id": "8a3dc787d173aaa4c6c7cabf08a1064d", "fusion_lon": 0.0, "lon": -77.05899883333333, "name": "8a3dc787d173aaa4c6c7cabf08a1064d", "is_disabled": 0, "rental_uris": {"android": "https://dc.lft.to/lastmile_qr_scan", "ios": "https://dc.lft.to/lastmile_qr_scan"}, "type": "electric_scooter", "lat": 38.90306233333333, "is_reserved": 0, "fusion_lat": 0.0}, {"bike_id": "b9b04bdd352960aff467c40681ff37e2", "fusion_lon": 0.0, "lon": -77.0058445, "name": "b9b04bdd352960aff467c40681ff37e2", "is_disabled": 0, "rental_uris": {"android": "https://dc.lft.to/lastmile_qr_scan", "ios": "https://dc.lft.to/lastmile_qr_scan"}, "type": "electric_scooter", "lat": 38.90290183333333, "is_reserved": 0, "fusion_lat": 0.0}, {"bike_id": "a0b919f636386eec154349df7280c662", "fusion_lon": 0.0, "lon": -77.05764433333333, "name": "a0b919f636386eec154349df7280c662", "is_disabled": 0, "rental_uris": {"android": "https://dc.lft.to/lastmile_qr_scan", "ios": "https://dc.lft.to/lastmile_qr_scan"}, "type": "electric_scooter", "lat": 38.9052415, "is_reserved": 0, "fusion_lat": 0.0}, {"bike_id": "460e84593dcc7f834d570e689dca60ed", "fusion_lon": 0.0, "lon": -77.03231483333333, "name": "460e84593dcc7f834d570e689dca60ed", "is_disabled": 0, "rental_uris": {"android": "https://dc.lft.to/lastmile_qr_scan", "ios": "https://dc.lft.to/lastmile_qr_scan"}, "type": "electric_scooter", "lat": 38.91705116666667, "is_reserved": 0, "fusion_lat": 0.0}, {"bike_id": "3830ba8e2db7f615fc510ce0dae00c66", "fusion_lon": 0.0, "lon": -77.02183416666666, "name": "3830ba8e2db7f615fc510ce0dae00c66", "is_disabled": 0, "rental_uris": {"android": "https://dc.lft.to/lastmile_qr_scan", "ios": "https://dc.lft.to/lastmile_qr_scan"}, "type": "electric_scooter", "lat": 38.9129385, "is_reserved": 0, "fusion_lat": 0.0}, {"bike_id": "ad0b656ce38a399736ea02e52529b790", "fusion_lon": 0.0, "lon": -76.99575333333334, "name": "ad0b656ce38a399736ea02e52529b790", "is_disabled": 0, "rental_uris": {"android": "https://dc.lft.to/lastmile_qr_scan", "ios": "https://dc.lft.to/lastmile_qr_scan"}, "type": "electric_scooter", "lat": 38.851733, "is_reserved": 0, "fusion_lat": 0.0}, {"bike_id": "14471a338b1ccce27002587d16df425f", "fusion_lon": 0.0, "lon": -77.03698983333334, "name": "14471a338b1ccce27002587d16df425f", "is_disabled": 0, "rental_uris": {"android": "https://dc.lft.to/lastmile_qr_scan", "ios": "https://dc.lft.to/lastmile_qr_scan"}, "type": "electric_scooter", "lat": 38.9260445, "is_reserved": 0, "fusion_lat": 0.0}, {"bike_id": "c45d8c9cd7ee7e23b03a1dc99f4c6985", "fusion_lon": 0.0, "lon": -77.0196655, "name": "c45d8c9cd7ee7e23b03a1dc99f4c6985", "is_disabled": 0, "rental_uris": {"android": "https://dc.lft.to/lastmile_qr_scan", "ios": "https://dc.lft.to/lastmile_qr_scan"}, "type": "electric_scooter", "lat": 38.878412, "is_reserved": 0, "fusion_lat": 0.0}, {"bike_id": "df0ed5311e277b8fe2b6a7a3a66a0a83", "fusion_lon": 0.0, "lon": -76.9914805, "name": "df0ed5311e277b8fe2b6a7a3a66a0a83", "is_disabled": 0, "rental_uris": {"android": "https://dc.lft.to/lastmile_qr_scan", "ios": "https://dc.lft.to/lastmile_qr_scan"}, "type": "electric_scooter", "lat": 38.91024766666666, "is_reserved": 0, "fusion_lat": 0.0}, {"bike_id": "4fa1d0d61f68d7d5d3a79c90217820ac", "fusion_lon": 0.0, "lon": -77.0575615, "name": "4fa1d0d61f68d7d5d3a79c90217820ac", "is_disabled": 0, "rental_uris": {"android": "https://dc.lft.to/lastmile_qr_scan", "ios": "https://dc.lft.to/lastmile_qr_scan"}, "type": "electric_scooter", "lat": 38.924589166666664, "is_reserved": 0, "fusion_lat": 0.0}, {"bike_id": "ca38fceced56b5a3b4dd33a9ff6ae0bd", "fusion_lon": 0.0, "lon": -77.01533416666666, "name": "ca38fceced56b5a3b4dd33a9ff6ae0bd", "is_disabled": 0, "rental_uris": {"android": "https://dc.lft.to/lastmile_qr_scan", "ios": "https://dc.lft.to/lastmile_qr_scan"}, "type": "electric_scooter", "lat": 38.88740216666667, "is_reserved": 0, "fusion_lat": 0.0}, {"bike_id": "5a54a35f48f392fafb459504b4ca8ca4", "fusion_lon": 0.0, "lon": -77.045112, "name": "5a54a35f48f392fafb459504b4ca8ca4", "is_disabled": 0, "rental_uris": {"android": "https://dc.lft.to/lastmile_qr_scan", "ios": "https://dc.lft.to/lastmile_qr_scan"}, "type": "electric_scooter", "lat": 38.8860435, "is_reserved": 0, "fusion_lat": 0.0}, {"bike_id": "38632707e2716a5e814fd95cf58badda", "fusion_lon": 0.0, "lon": -77.01943483333334, "name": "38632707e2716a5e814fd95cf58badda", "is_disabled": 0, "rental_uris": {"android": "https://dc.lft.to/lastmile_qr_scan", "ios": "https://dc.lft.to/lastmile_qr_scan"}, "type": "electric_scooter", "lat": 38.924155999999996, "is_reserved": 0, "fusion_lat": 0.0}, {"bike_id": "7e6827868cd3ede773d24e4fc3462fe1", "fusion_lon": 0.0, "lon": -77.00820316666666, "name": "7e6827868cd3ede773d24e4fc3462fe1", "is_disabled": 0, "rental_uris": {"android": "https://dc.lft.to/lastmile_qr_scan", "ios": "https://dc.lft.to/lastmile_qr_scan"}, "type": "electric_scooter", "lat": 38.91367116666667, "is_reserved": 0, "fusion_lat": 0.0}, {"bike_id": "618239104ea003ab103f70aec5dd8e60", "fusion_lon": 0.0, "lon": -77.04903333333333, "name": "618239104ea003ab103f70aec5dd8e60", "is_disabled": 0, "rental_uris": {"android": "https://dc.lft.to/lastmile_qr_scan", "ios": "https://dc.lft.to/lastmile_qr_scan"}, "type": "electric_scooter", "lat": 38.890012666666664, "is_reserved": 0, "fusion_lat": 0.0}, {"bike_id": "6917abb906661eb615dc0076095ada69", "fusion_lon": 0.0, "lon": -77.05992016666667, "name": "6917abb906661eb615dc0076095ada69", "is_disabled": 0, "rental_uris": {"android": "https://dc.lft.to/lastmile_qr_scan", "ios": "https://dc.lft.to/lastmile_qr_scan"}, "type": "electric_scooter", "lat": 38.93819633333333, "is_reserved": 0, "fusion_lat": 0.0}, {"bike_id": "8f86c08ea383e5ca5c554fd9985a8cbb", "fusion_lon": 0.0, "lon": -77.024762, "name": "8f86c08ea383e5ca5c554fd9985a8cbb", "is_disabled": 0, "rental_uris": {"android": "https://dc.lft.to/lastmile_qr_scan", "ios": "https://dc.lft.to/lastmile_qr_scan"}, "type": "electric_scooter", "lat": 38.91815033333334, "is_reserved": 0, "fusion_lat": 0.0}, {"bike_id": "65ddf53da10e6ad18f9989c47b76dd51", "fusion_lon": 0.0, "lon": -77.05028916666667, "name": "65ddf53da10e6ad18f9989c47b76dd51", "is_disabled": 0, "rental_uris": {"android": "https://dc.lft.to/lastmile_qr_scan", "ios": "https://dc.lft.to/lastmile_qr_scan"}, "type": "electric_scooter", "lat": 38.8928195, "is_reserved": 0, "fusion_lat": 0.0}, {"bike_id": "2c6a3009349a452edfe5d4b3ac87eeca", "fusion_lon": 0.0, "lon": -77.053112, "name": "2c6a3009349a452edfe5d4b3ac87eeca", "is_disabled": 0, "rental_uris": {"android": "https://dc.lft.to/lastmile_qr_scan", "ios": "https://dc.lft.to/lastmile_qr_scan"}, "type": "electric_scooter", "lat": 38.90268066666667, "is_reserved": 0, "fusion_lat": 0.0}, {"bike_id": "c28e95962dcb5db80c8dbca9bea0e7bb", "fusion_lon": 0.0, "lon": -77.02280016666667, "name": "c28e95962dcb5db80c8dbca9bea0e7bb", "is_disabled": 0, "rental_uris": {"android": "https://dc.lft.to/lastmile_qr_scan", "ios": "https://dc.lft.to/lastmile_qr_scan"}, "type": "electric_scooter", "lat": 38.90148416666667, "is_reserved": 0, "fusion_lat": 0.0}, {"bike_id": "fd6d1710e69a5dc388e7a28289ccfee5", "fusion_lon": 0.0, "lon": -77.01766983333333, "name": "fd6d1710e69a5dc388e7a28289ccfee5", "is_disabled": 0, "rental_uris": {"android": "https://dc.lft.to/lastmile_qr_scan", "ios": "https://dc.lft.to/lastmile_qr_scan"}, "type": "electric_scooter", "lat": 38.88139783333333, "is_reserved": 0, "fusion_lat": 0.0}, {"bike_id": "af8f52a0b65ac3c079c3450098c29366", "fusion_lon": 0.0, "lon": -77.03476116666667, "name": "af8f52a0b65ac3c079c3450098c29366", "is_disabled": 0, "rental_uris": {"android": "https://dc.lft.to/lastmile_qr_scan", "ios": "https://dc.lft.to/lastmile_qr_scan"}, "type": "electric_scooter", "lat": 38.917111166666665, "is_reserved": 0, "fusion_lat": 0.0}, {"bike_id": "325c18d782da91c80c765f901b7be145", "fusion_lon": 0.0, "lon": -77.02716866666667, "name": "325c18d782da91c80c765f901b7be145", "is_disabled": 0, "rental_uris": {"android": "https://dc.lft.to/lastmile_qr_scan", "ios": "https://dc.lft.to/lastmile_qr_scan"}, "type": "electric_scooter", "lat": 38.91563516666667, "is_reserved": 0, "fusion_lat": 0.0}, {"bike_id": "09ddba929a601adeee600cffc89eba4e", "fusion_lon": 0.0, "lon": -77.04142683333333, "name": "09ddba929a601adeee600cffc89eba4e", "is_disabled": 0, "rental_uris": {"android": "https://dc.lft.to/lastmile_qr_scan", "ios": "https://dc.lft.to/lastmile_qr_scan"}, "type": "electric_scooter", "lat": 38.922991833333334, "is_reserved": 0, "fusion_lat": 0.0}, {"bike_id": "c54c4a7c82f8b0ff1eaf5f45ed15754e", "fusion_lon": 0.0, "lon": -77.04484166666667, "name": "c54c4a7c82f8b0ff1eaf5f45ed15754e", "is_disabled": 0, "rental_uris": {"android": "https://dc.lft.to/lastmile_qr_scan", "ios": "https://dc.lft.to/lastmile_qr_scan"}, "type": "electric_scooter", "lat": 38.90535233333333, "is_reserved": 0, "fusion_lat": 0.0}, {"bike_id": "6f7010204350a4cf307d901e48e04386", "fusion_lon": 0.0, "lon": -77.01590766666666, "name": "6f7010204350a4cf307d901e48e04386", "is_disabled": 0, "rental_uris": {"android": "https://dc.lft.to/lastmile_qr_scan", "ios": "https://dc.lft.to/lastmile_qr_scan"}, "type": "electric_scooter", "lat": 38.9493155, "is_reserved": 0, "fusion_lat": 0.0}, {"bike_id": "de96002b30d77ef0f10bdb1eb8bb924e", "fusion_lon": 0.0, "lon": -76.993488, "name": "de96002b30d77ef0f10bdb1eb8bb924e", "is_disabled": 0, "rental_uris": {"android": "https://dc.lft.to/lastmile_qr_scan", "ios": "https://dc.lft.to/lastmile_qr_scan"}, "type": "electric_scooter", "lat": 38.914836666666666, "is_reserved": 0, "fusion_lat": 0.0}, {"bike_id": "1a8568ae6723e9df62d2232b88b64370", "fusion_lon": 0.0, "lon": -77.02719033333334, "name": "1a8568ae6723e9df62d2232b88b64370", "is_disabled": 0, "rental_uris": {"android": "https://dc.lft.to/lastmile_qr_scan", "ios": "https://dc.lft.to/lastmile_qr_scan"}, "type": "electric_scooter", "lat": 38.94955783333333, "is_reserved": 0, "fusion_lat": 0.0}, {"bike_id": "b777cdc8f3c55e72fe0408e476b44800", "fusion_lon": 0.0, "lon": -77.03442683333333, "name": "b777cdc8f3c55e72fe0408e476b44800", "is_disabled": 0, "rental_uris": {"android": "https://dc.lft.to/lastmile_qr_scan", "ios": "https://dc.lft.to/lastmile_qr_scan"}, "type": "electric_scooter", "lat": 38.9039375, "is_reserved": 0, "fusion_lat": 0.0}, {"bike_id": "745729ee11614a089821defad1dec9a2", "fusion_lon": 0.0, "lon": -77.058606, "name": "745729ee11614a089821defad1dec9a2", "is_disabled": 0, "rental_uris": {"android": "https://dc.lft.to/lastmile_qr_scan", "ios": "https://dc.lft.to/lastmile_qr_scan"}, "type": "electric_scooter", "lat": 38.93607733333333, "is_reserved": 0, "fusion_lat": 0.0}, {"bike_id": "df2602bfa2fcc8bd1d6403f9840c878a", "fusion_lon": 0.0, "lon": -76.9810545, "name": "df2602bfa2fcc8bd1d6403f9840c878a", "is_disabled": 0, "rental_uris": {"android": "https://dc.lft.to/lastmile_qr_scan", "ios": "https://dc.lft.to/lastmile_qr_scan"}, "type": "electric_bike", "lat": 38.8772905, "is_reserved": 0, "fusion_lat": 0.0}, {"bike_id": "ec4576ab3c0422b333db7bd0eba6c3b0", "fusion_lon": 0.0, "lon": -77.06632483333334, "name": "ec4576ab3c0422b333db7bd0eba6c3b0", "is_disabled": 0, "rental_uris": {"android": "https://dc.lft.to/lastmile_qr_scan", "ios": "https://dc.lft.to/lastmile_qr_scan"}, "type": "electric_bike", "lat": 38.949595, "is_reserved": 0, "fusion_lat": 0.0}, {"bike_id": "2094cc1a0d3cde88759a08efd49817fb", "fusion_lon": 0.0, "lon": -77.018635, "name": "2094cc1a0d3cde88759a08efd49817fb", "is_disabled": 0, "rental_uris": {"android": "https://dc.lft.to/lastmile_qr_scan", "ios": "https://dc.lft.to/lastmile_qr_scan"}, "type": "electric_scooter", "lat": 38.973662, "is_reserved": 0, "fusion_lat": 0.0}, {"bike_id": "ad981a8336f22c9c5a8a9ecab5b0471a", "fusion_lon": 0.0, "lon": -77.02944733333334, "name": "ad981a8336f22c9c5a8a9ecab5b0471a", "is_disabled": 0, "rental_uris": {"android": "https://dc.lft.to/lastmile_qr_scan", "ios": "https://dc.lft.to/lastmile_qr_scan"}, "type": "electric_scooter", "lat": 38.89520666666667, "is_reserved": 0, "fusion_lat": 0.0}, {"bike_id": "66934387a9ccaad75483da954cf27d48", "fusion_lon": 0.0, "lon": -77.0552935, "name": "66934387a9ccaad75483da954cf27d48", "is_disabled": 0, "rental_uris": {"android": "https://dc.lft.to/lastmile_qr_scan", "ios": "https://dc.lft.to/lastmile_qr_scan"}, "type": "electric_scooter", "lat": 38.93015366666667, "is_reserved": 0, "fusion_lat": 0.0}, {"bike_id": "7028ff7f2211bfb145e8e0686cf0698b", "fusion_lon": 0.0, "lon": -77.02993283333333, "name": "7028ff7f2211bfb145e8e0686cf0698b", "is_disabled": 0, "rental_uris": {"android": "https://dc.lft.to/lastmile_qr_scan", "ios": "https://dc.lft.to/lastmile_qr_scan"}, "type": "electric_scooter", "lat": 38.9002975, "is_reserved": 0, "fusion_lat": 0.0}, {"bike_id": "22a09f71714c815a2fd8592f5831267d", "fusion_lon": 0.0, "lon": -77.04602766666666, "name": "22a09f71714c815a2fd8592f5831267d", "is_disabled": 0, "rental_uris": {"android": "https://dc.lft.to/lastmile_qr_scan", "ios": "https://dc.lft.to/lastmile_qr_scan"}, "type": "electric_scooter", "lat": 38.91916166666667, "is_reserved": 0, "fusion_lat": 0.0}, {"bike_id": "4cc90d88aa880fd43a9f2bf177a19c9f", "fusion_lon": 0.0, "lon": -77.04340866666666, "name": "4cc90d88aa880fd43a9f2bf177a19c9f", "is_disabled": 0, "rental_uris": {"android": "https://dc.lft.to/lastmile_qr_scan", "ios": "https://dc.lft.to/lastmile_qr_scan"}, "type": "electric_scooter", "lat": 38.90370766666667, "is_reserved": 0, "fusion_lat": 0.0}, {"bike_id": "e2cb150df11b2f392bc6d0631a4bb0c3", "fusion_lon": 0.0, "lon": -77.0389485, "name": "e2cb150df11b2f392bc6d0631a4bb0c3", "is_disabled": 0, "rental_uris": {"android": "https://dc.lft.to/lastmile_qr_scan", "ios": "https://dc.lft.to/lastmile_qr_scan"}, "type": "electric_scooter", "lat": 38.92226433333333, "is_reserved": 0, "fusion_lat": 0.0}, {"bike_id": "6cae8f988edc8b954117299fcd34215f", "fusion_lon": 0.0, "lon": -77.030263, "name": "6cae8f988edc8b954117299fcd34215f", "is_disabled": 0, "rental_uris": {"android": "https://dc.lft.to/lastmile_qr_scan", "ios": "https://dc.lft.to/lastmile_qr_scan"}, "type": "electric_scooter", "lat": 38.8962185, "is_reserved": 0, "fusion_lat": 0.0}, {"bike_id": "aaf1d50a173fc0b6cc8c46e48da872d2", "fusion_lon": 0.0, "lon": -76.99779116666667, "name": "aaf1d50a173fc0b6cc8c46e48da872d2", "is_disabled": 0, "rental_uris": {"android": "https://dc.lft.to/lastmile_qr_scan", "ios": "https://dc.lft.to/lastmile_qr_scan"}, "type": "electric_bike", "lat": 38.86212166666667, "is_reserved": 0, "fusion_lat": 0.0}, {"bike_id": "aa31bae1102ff0c0b7d27d9c5d7711ab", "fusion_lon": 0.0, "lon": -77.02404716666666, "name": "aa31bae1102ff0c0b7d27d9c5d7711ab", "is_disabled": 0, "rental_uris": {"android": "https://dc.lft.to/lastmile_qr_scan", "ios": "https://dc.lft.to/lastmile_qr_scan"}, "type": "electric_scooter", "lat": 38.8963675, "is_reserved": 0, "fusion_lat": 0.0}, {"bike_id": "2a576613bc50be75e518d63b9c0bf18a", "fusion_lon": 0.0, "lon": -77.01504016666667, "name": "2a576613bc50be75e518d63b9c0bf18a", "is_disabled": 0, "rental_uris": {"android": "https://dc.lft.to/lastmile_qr_scan", "ios": "https://dc.lft.to/lastmile_qr_scan"}, "type": "electric_scooter", "lat": 38.893042666666666, "is_reserved": 0, "fusion_lat": 0.0}, {"bike_id": "4caee48550b45e7c5d44b4aee986bb13", "fusion_lon": 0.0, "lon": -77.053258, "name": "4caee48550b45e7c5d44b4aee986bb13", "is_disabled": 0, "rental_uris": {"android": "https://dc.lft.to/lastmile_qr_scan", "ios": "https://dc.lft.to/lastmile_qr_scan"}, "type": "electric_scooter", "lat": 38.9279415, "is_reserved": 0, "fusion_lat": 0.0}, {"bike_id": "2d8a34608592e5615c476d7307da3bb7", "fusion_lon": 0.0, "lon": -76.9851915, "name": "2d8a34608592e5615c476d7307da3bb7", "is_disabled": 0, "rental_uris": {"android": "https://dc.lft.to/lastmile_qr_scan", "ios": "https://dc.lft.to/lastmile_qr_scan"}, "type": "electric_scooter", "lat": 38.866588, "is_reserved": 0, "fusion_lat": 0.0}, {"bike_id": "fd4a4baac78b93826f5239dcf0fa61b2", "fusion_lon": 0.0, "lon": -77.02946133333333, "name": "fd4a4baac78b93826f5239dcf0fa61b2", "is_disabled": 0, "rental_uris": {"android": "https://dc.lft.to/lastmile_qr_scan", "ios": "https://dc.lft.to/lastmile_qr_scan"}, "type": "electric_scooter", "lat": 38.904985833333335, "is_reserved": 0, "fusion_lat": 0.0}, {"bike_id": "68ac297f0df441f214178ecb416a5665", "fusion_lon": 0.0, "lon": -77.03850933333334, "name": "68ac297f0df441f214178ecb416a5665", "is_disabled": 0, "rental_uris": {"android": "https://dc.lft.to/lastmile_qr_scan", "ios": "https://dc.lft.to/lastmile_qr_scan"}, "type": "electric_scooter", "lat": 38.9035155, "is_reserved": 0, "fusion_lat": 0.0}, {"bike_id": "7cc5890b9a50c8385a1e25058b784bab", "fusion_lon": 0.0, "lon": -77.0531725, "name": "7cc5890b9a50c8385a1e25058b784bab", "is_disabled": 0, "rental_uris": {"android": "https://dc.lft.to/lastmile_qr_scan", "ios": "https://dc.lft.to/lastmile_qr_scan"}, "type": "electric_scooter", "lat": 38.90259266666666, "is_reserved": 0, "fusion_lat": 0.0}, {"bike_id": "34fe52b02380fa4c30bf9dfc32737b48", "fusion_lon": 0.0, "lon": -77.02608883333333, "name": "34fe52b02380fa4c30bf9dfc32737b48", "is_disabled": 0, "rental_uris": {"android": "https://dc.lft.to/lastmile_qr_scan", "ios": "https://dc.lft.to/lastmile_qr_scan"}, "type": "electric_scooter", "lat": 38.88357833333333, "is_reserved": 0, "fusion_lat": 0.0}, {"bike_id": "180e9a546dde27feb50419a0ab084274", "fusion_lon": 0.0, "lon": -76.99946483333333, "name": "180e9a546dde27feb50419a0ab084274", "is_disabled": 0, "rental_uris": {"android": "https://dc.lft.to/lastmile_qr_scan", "ios": "https://dc.lft.to/lastmile_qr_scan"}, "type": "electric_scooter", "lat": 38.842957, "is_reserved": 0, "fusion_lat": 0.0},