{"data": {"bikes": [{"is_disabled": 0, "fusion_lat": 0.0, "lat": 38.87845083333333, "type": "electric_scooter", "lon": -77.02263483333333, "is_reserved": 0, "fusion_lon": 0.0, "bike_id": "6f4411c970876ea381e8c8b0650e3e1e", "name": "6f4411c970876ea381e8c8b0650e3e1e", "rental_uris": {"ios": "https://dc.lft.to/lastmile_qr_scan", "android": "https://dc.lft.to/lastmile_qr_scan"}}, {"is_disabled": 0, "fusion_lat": 0.0, "lat": 38.91548, "type": "electric_scooter", "lon": -77.04170133333334, "is_reserved": 0, "fusion_lon": 0.0, "bike_id": "ebea1db4ada508374fa5accd761f17b7", "name": "ebea1db4ada508374fa5accd761f17b7", "rental_uris": {"ios": "https://dc.lft.to/lastmile_qr_scan", "android": "https://dc.lft.to/lastmile_qr_scan"}}, {"is_disabled": 0, "fusion_lat": 0.0, "lat": 38.89884083333333, "type": "electric_scooter", "lon": -76.93175266666667, "is_reserved": 0, "fusion_lon": 0.0, "bike_id": "f4142798e00fac97b41e7366e07d6ec3", "name": "f4142798e00fac97b41e7366e07d6ec3", "rental_uris": {"ios": "https://dc.lft.to/lastmile_qr_scan", "android": "https://dc.lft.to/lastmile_qr_scan"}}, {"is_disabled": 0, "fusion_lat": 0.0, "lat": 38.92749033333333, "type": "electric_scooter", "lon": -77.00587333333333, "is_reserved": 0, "fusion_lon": 0.0, "bike_id": "a3c8b29ade0acedebc8f0d1d80c9805c", "name": "a3c8b29ade0acedebc8f0d1d80c9805c", "rental_uris": {"ios": "https://dc.lft.to/lastmile_qr_scan", "android": "https://dc.lft.to/lastmile_qr_scan"}}, {"is_disabled": 0, "fusion_lat": 0.0, "lat": 38.927448, "type": "electric_scooter", "lon": -77.02530466666667, "is_reserved": 0, "fusion_lon": 0.0, "bike_id": "19df9c8424024fb753b1297d3672fc85", "name": "19df9c8424024fb753b1297d3672fc85", "rental_uris": {"ios": "https://dc.lft.to/lastmile_qr_scan", "android": "https://dc.lft.to/lastmile_qr_scan"}}, {"is_disabled": 0, "fusion_lat": 0.0, "lat": 38.9038135, "type": "electric_scooter", "lon": -77.04476016666666, "is_reserved": 0, "fusion_lon": 0.0, "bike_id": "d941c9a1b40575f8e7bff98c105a4f58", "name": "d941c9a1b40575f8e7bff98c105a4f58", "rental_uris": {"ios": "https://dc.lft.to/lastmile_qr_scan", "android": "https://dc.lft.to/lastmile_qr_scan"}}, {"is_disabled": 0, "fusion_lat": 0.0, "lat": 38.90125666666667, "type": "electric_scooter", "lon": -77.0436665, "is_reserved": 0, "fusion_lon": 0.0, "bike_id": "7b668289eeaf0b787ac8c5ef0fd97158", "name": "7b668289eeaf0b787ac8c5ef0fd97158", "rental_uris": {"ios": "https://dc.lft.to/lastmile_qr_scan", "android": "https://dc.lft.to/lastmile_qr_scan"}}, {"is_disabled": 0, "fusion_lat": 0.0, "lat": 38.90599783333333, "type": "electric_scooter", "lon": -77.05896033333333, "is_reserved": 0, "fusion_lon": 0.0, "bike_id": "af88f2988dd7b62daf850331568b617b", "name": "af88f2988dd7b62daf850331568b617b", "rental_uris": {"ios": "https://dc.lft.to/lastmile_qr_scan", "android": "https://dc.lft.to/lastmile_qr_scan"}}, {"is_disabled": 0, "fusion_lat": 0.0, "lat": 38.89827716666667, "type": "electric_scooter", "lon": -77.03348266666667, "is_reserved": 0, "fusion_lon": 0.0, "bike_id": "614a446745b34b3f0731da64f60dadcf", "name": "614a446745b34b3f0731da64f60dadcf", "rental_uris": {"ios": "https://dc.lft.to/lastmile_qr_scan", "android": "https://dc.lft.to/lastmile_qr_scan"}}, {"is_disabled": 0, "fusion_lat": 0.0, "lat": 38.91245466666667, "type": "electric_scooter", "lon": -77.01618216666667, "is_reserved": 0, "fusion_lon": 0.0, "bike_id": "4cb8da5f1d7197659a9642439e4b6f62", "name": "4cb8da5f1d7197659a9642439e4b6f62", "rental_uris": {"ios": "https://dc.lft.to/lastmile_qr_scan", "android": "https://dc.lft.to/lastmile_qr_scan"}}, {"is_disabled": 0, "fusion_lat": 0.0, "lat": 38.905191333333335, "type": "electric_scooter", "lon": -77.06860566666667, "is_reserved": 0, "fusion_lon": 0.0, "bike_id": "dfce8e37fb1f49acb7f18c19894ffe7b", "name": "dfce8e37fb1f49acb7f18c19894ffe7b", "rental_uris": {"ios": "https://dc.lft.to/lastmile_qr_scan", "android": "https://dc.lft.to/lastmile_qr_scan"}}, {"is_disabled": 0, "fusion_lat": 0.0, "lat": 38.907236166666664, "type": "electric_scooter", "lon": -77.02320266666666, "is_reserved": 0, "fusion_lon": 0.0, "bike_id": "6b5faf2248d5eb2ee553ef96dd219805", "name": "6b5faf2248d5eb2ee553ef96dd219805", "rental_uris": {"ios": "https://dc.lft.to/lastmile_qr_scan", "android": "https://dc.lft.to/lastmile_qr_scan"}}, {"is_disabled": 0, "fusion_lat": 0.0, "lat": 38.93321366666667, "type": "electric_scooter", "lon": -77.02920483333334, "is_reserved": 0, "fusion_lon": 0.0, "bike_id": "20ee8aa6f3ee9308fdd76fcf4ef085be", "name": "20ee8aa6f3ee9308fdd76fcf4ef085be", "rental_uris": {"ios": "https://dc.lft.to/lastmile_qr_scan", "android": "https://dc.lft.to/lastmile_qr_scan"}}, {"is_disabled": 0, "fusion_lat": 0.0, "lat": 38.906013333333334, "type": "electric_scooter", "lon": -77.03978916666667, "is_reserved": 0, "fusion_lon": 0.0, "bike_id": "d9c97e9494ccb0b93bfb3d90a993da1e", "name": "d9c97e9494ccb0b93bfb3d90a993da1e", "rental_uris": {"ios": "https://dc.lft.to/lastmile_qr_scan", "android": "https://dc.lft.to/lastmile_qr_scan"}}, {"is_disabled": 0, "fusion_lat": 0.0, "lat": 38.89725983333334, "type": "electric_scooter", "lon": -77.0313865, "is_reserved": 0, "fusion_lon": 0.0, "bike_id": "cadc3563b480facf46c4f79171c72a22", "name": "cadc3563b480facf46c4f79171c72a22", "rental_uris": {"ios": "https://dc.lft.to/lastmile_qr_scan", "android": "https://dc.lft.to/lastmile_qr_scan"}}, {"is_disabled": 0, "fusion_lat": 0.0, "lat": 38.919767666666665, "type": "electric_scooter", "lon": -77.04162833333334, "is_reserved": 0, "fusion_lon": 0.0, "bike_id": "6c49542ba28337f8d312f66c917dc411", "name": "6c49542ba28337f8d312f66c917dc411", "rental_uris": {"ios": "https://dc.lft.to/lastmile_qr_scan", "android": "https://dc.lft.to/lastmile_qr_scan"}}, {"is_disabled": 0, "fusion_lat": 0.0, "lat": 38.92483283333333, "type": "electric_scooter", "lon": -77.02722266666666, "is_reserved": 0, "fusion_lon": 0.0, "bike_id": "0a5391d748c6376bfb9fcf20b77cf6db", "name": "0a5391d748c6376bfb9fcf20b77cf6db", "rental_uris": {"ios": "https://dc.lft.to/lastmile_qr_scan", "android": "https://dc.lft.to/lastmile_qr_scan"}}, {"is_disabled": 0, "fusion_lat": 0.0, "lat": 38.9247785, "type": "electric_scooter", "lon": -77.02548166666666, "is_reserved": 0, "fusion_lon": 0.0, "bike_id": "0b804b397f5a0f5faff4c7747c5c9a66", "name": "0b804b397f5a0f5faff4c7747c5c9a66", "rental_uris": {"ios": "https://dc.lft.to/lastmile_qr_scan", "android": "https://dc.lft.to/lastmile_qr_scan"}}, {"is_disabled": 0, "fusion_lat": 0.0, "lat": 38.92497683333333, "type": "electric_scooter", "lon": -77.0215005, "is_reserved": 0, "fusion_lon": 0.0, "bike_id": "864774f1b063583601058e5dc96b8220", "name": "864774f1b063583601058e5dc96b8220", "rental_uris": {"ios": "https://dc.lft.to/lastmile_qr_scan", "android": "https://dc.lft.to/lastmile_qr_scan"}}, {"is_disabled": 0, "fusion_lat": 0.0, "lat": 38.912771166666666, "type": "electric_scooter", "lon": -77.02243683333333, "is_reserved": 0, "fusion_lon": 0.0, "bike_id": "16103e70d955403255f30d358196a066", "name": "16103e70d955403255f30d358196a066", "rental_uris": {"ios": "https://dc.lft.to/lastmile_qr_scan", "android": "https://dc.lft.to/lastmile_qr_scan"}}, {"is_disabled": 0, "fusion_lat": 0.0, "lat": 38.90343416666666, "type": "electric_scooter", "lon": -77.038389, "is_reserved": 0, "fusion_lon": 0.0, "bike_id": "40238395daf5b43991d9d4696ba28e90", "name": "40238395daf5b43991d9d4696ba28e90", "rental_uris": {"ios": "https://dc.lft.to/lastmile_qr_scan", "android": "https://dc.lft.to/lastmile_qr_scan"}}, {"is_disabled": 0, "fusion_lat": 0.0, "lat": 38.90928483333333, "type": "electric_scooter", "lon": -76.999636, "is_reserved": 0, "fusion_lon": 0.0, "bike_id": "4b98741761615470dba76850fd764d31", "name": "4b98741761615470dba76850fd764d31", "rental_uris": {"ios": "https://dc.lft.to/lastmile_qr_scan", "android": "https://dc.lft.to/lastmile_qr_scan"}}, {"is_disabled": 0, "fusion_lat": 0.0, "lat": 38.90124766666667, "type": "electric_scooter", "lon": -76.99658816666667, "is_reserved": 0, "fusion_lon": 0.0, "bike_id": "9b2148c81d8f89699fc9a9064bce0cd0", "name": "9b2148c81d8f89699fc9a9064bce0cd0", "rental_uris": {"ios": "https://dc.lft.to/lastmile_qr_scan", "android": "https://dc.lft.to/lastmile_qr_scan"}}, {"is_disabled": 0, "fusion_lat": 0.0, "lat": 39.058101666666666, "type": "electric_bike", "lon": -77.12621283333333, "is_reserved": 0, "fusion_lon": 0.0, "bike_id": "4333db9fbdac55514ceb69e7ee1e3089", "name": "4333db9fbdac55514ceb69e7ee1e3089", "rental_uris": {"ios": "https://dc.lft.to/lastmile_qr_scan", "android": "https://dc.lft.to/lastmile_qr_scan"}}, {"is_disabled": 0, "fusion_lat": 0.0, "lat": 38.9236735, "type": "electric_scooter", "lon": -77.05124866666667, "is_reserved": 0, "fusion_lon": 0.0, "bike_id": "f98ba176690bcb4f5e3bf0ee17937619", "name": "f98ba176690bcb4f5e3bf0ee17937619", "rental_uris": {"ios": "https://dc.lft.to/lastmile_qr_scan", "android": "https://dc.lft.to/lastmile_qr_scan"}}, {"is_disabled": 0, "fusion_lat": 0.0, "lat": 38.95359416666667, "type": "electric_bike", "lon": -76.98089433333334, "is_reserved": 0, "fusion_lon": 0.0, "bike_id": "6f9f2a1c0b46bf7226a7acbca2f715e7", "name": "6f9f2a1c0b46bf7226a7acbca2f715e7", "rental_uris": {"ios": "https://dc.lft.to/lastmile_qr_scan", "android": "https://dc.lft.to/lastmile_qr_scan"}}, {"is_disabled": 0, "fusion_lat": 0.0, "lat": 38.89555716666667, "type": "electric_scooter", "lon": -76.93041283333334, "is_reserved": 0, "fusion_lon": 0.0, "bike_id": "d974d45b9051f7702a33ffd718b5fa24", "name": "d974d45b9051f7702a33ffd718b5fa24", "rental_uris": {"ios": "https://dc.lft.to/lastmile_qr_scan", "android": "https://dc.lft.to/lastmile_qr_scan"}}, {"is_disabled": 0, "fusion_lat": 0.0, "lat": 38.896183666666666, "type": "electric_scooter", "lon": -77.040469, "is_reserved": 0, "fusion_lon": 0.0, "bike_id": "f740d99503785bfdcd4a87c932b8953d", "name": "f740d99503785bfdcd4a87c932b8953d", "rental_uris": {"ios": "https://dc.lft.to/lastmile_qr_scan", "android": "https://dc.lft.to/lastmile_qr_scan"}}, {"is_disabled": 0, "fusion_lat": 0.0, "lat": 38.8460985, "type": "electric_bike", "lon": -76.96902433333334, "is_reserved": 0, "fusion_lon": 0.0, "bike_id": "88a5850be3330256f65f0567373de5fb", "name": "88a5850be3330256f65f0567373de5fb", "rental_uris": {"ios": "https://dc.lft.to/lastmile_qr_scan", "android": "https://dc.lft.to/lastmile_qr_scan"}}, {"is_disabled": 0, "fusion_lat": 0.0, "lat": 38.84617633333333, "type": "electric_bike", "lon": -76.978137, "is_reserved": 0, "fusion_lon": 0.0, "bike_id": "052ef0562ceb0232c04ce11316c1e6d1", "name": "052ef0562ceb0232c04ce11316c1e6d1", "rental_uris": {"ios": "https://dc.lft.to/lastmile_qr_scan", "android": "https://dc.lft.to/lastmile_qr_scan"}}, {"is_disabled": 0, "fusion_lat": 0.0, "lat": 38.87628016666667, "type": "electric_scooter", "lon": -76.96521433333334, "is_reserved": 0, "fusion_lon": 0.0, "bike_id": "acfdcadf8ed2778f0364f568797c17a2", "name": "acfdcadf8ed2778f0364f568797c17a2", "rental_uris": {"ios": "https://dc.lft.to/lastmile_qr_scan", "android": "https://dc.lft.to/lastmile_qr_scan"}}, {"is_disabled": 0, "fusion_lat": 0.0, "lat": 38.941752, "type": "electric_scooter", "lon": -77.02496716666667, "is_reserved": 0, "fusion_lon": 0.0, "bike_id": "514e01e3ecd8e6d76a4622713de1b7f2", "name": "514e01e3ecd8e6d76a4622713de1b7f2", "rental_uris": {"ios": "https://dc.lft.to/lastmile_qr_scan", "android": "https://dc.lft.to/lastmile_qr_scan"}}, {"is_disabled": 0, "fusion_lat": 0.0, "lat": 38.902791, "type": "electric_scooter", "lon": -77.03357933333334, "is_reserved": 0, "fusion_lon": 0.0, "bike_id": "588489dbfc29a7e3413258183cf863c2", "name": "588489dbfc29a7e3413258183cf863c2", "rental_uris": {"ios": "https://dc.lft.to/lastmile_qr_scan", "android": "https://dc.lft.to/lastmile_qr_scan"}}, {"is_disabled": 0, "fusion_lat": 0.0, "lat": 38.8429765, "type": "electric_scooter", "lon": -76.99947933333334, "is_reserved": 0, "fusion_lon": 0.0, "bike_id": "de2c14dcd9cee00f401992a2b35df3f8", "name": "de2c14dcd9cee00f401992a2b35df3f8", "rental_uris": {"ios": "https://dc.lft.to/lastmile_qr_scan", "android": "https://dc.lft.to/lastmile_qr_scan"}}, {"is_disabled": 0, "fusion_lat": 0.0, "lat": 38.93319533333333, "type": "electric_scooter", "lon": -77.0327495, "is_reserved": 0, "fusion_lon": 0.0, "bike_id": "8d5684ffead03478d9353737e0788a20", "name": "8d5684ffead03478d9353737e0788a20", "rental_uris": {"ios": "https://dc.lft.to/lastmile_qr_scan", "android": "https://dc.lft.to/lastmile_qr_scan"}}, {"is_disabled": 0, "fusion_lat": 0.0, "lat": 38.897013666666666, "type": "electric_scooter", "lon": -77.026788, "is_reserved": 0, "fusion_lon": 0.0, "bike_id": "0de12ac4ee0750f1128da7250ba407d8", "name": "0de12ac4ee0750f1128da7250ba407d8", "rental_uris": {"ios": "https://dc.lft.to/lastmile_qr_scan", "android": "https://dc.lft.to/lastmile_qr_scan"}}, {"is_disabled": 0, "fusion_lat": 0.0, "lat": 38.90230733333333, "type": "electric_scooter", "lon": -77.0173145, "is_reserved": 0, "fusion_lon": 0.0, "bike_id": "50b6052bb2ad9aaa1e846e62a019019f", "name": "50b6052bb2ad9aaa1e846e62a019019f", "rental_uris": {"ios": "https://dc.lft.to/lastmile_qr_scan", "android": "https://dc.lft.to/lastmile_qr_scan"}}, {"is_disabled": 0, "fusion_lat": 0.0, "lat": 38.907169, "type": "electric_scooter", "lon": -77.02192383333333, "is_reserved": 0, "fusion_lon": 0.0, "bike_id": "fffe1c273d5af161e1df7b0872d9cbc9", "name": "fffe1c273d5af161e1df7b0872d9cbc9", "rental_uris": {"ios": "https://dc.lft.to/lastmile_qr_scan", "android": "https://dc.lft.to/lastmile_qr_scan"}}, {"is_disabled": 0, "fusion_lat": 0.0, "lat": 38.857215833333335, "type": "electric_scooter", "lon": -76.980884, "is_reserved": 0, "fusion_lon": 0.0, "bike_id": "6ed3c8860e2a5abb7f0fbdb4545a79eb", "name": "6ed3c8860e2a5abb7f0fbdb4545a79eb", "rental_uris": {"ios": "https://dc.lft.to/lastmile_qr_scan", "android": "https://dc.lft.to/lastmile_qr_scan"}}, {"is_disabled": 0, "fusion_lat": 0.0, "lat": 38.91792566666667, "type": "electric_scooter", "lon": -77.03652683333334, "is_reserved": 0, "fusion_lon": 0.0, "bike_id": "61a088fee141981099cbb9c43d96bbec", "name": "61a088fee141981099cbb9c43d96bbec", "rental_uris": {"ios": "https://dc.lft.to/lastmile_qr_scan", "android": "https://dc.lft.to/lastmile_qr_scan"}}, {"is_disabled": 0, "fusion_lat": 0.0, "lat": 38.894607666666666, "type": "electric_scooter", "lon": -77.02157933333334, "is_reserved": 0, "fusion_lon": 0.0, "bike_id": "3c7dabc7cae8bdeaad818dcdee56835f", "name": "3c7dabc7cae8bdeaad818dcdee56835f", "rental_uris": {"ios": "https://dc.lft.to/lastmile_qr_scan", "android": "https://dc.lft.to/lastmile_qr_scan"}}, {"is_disabled": 0, "fusion_lat": 0.0, "lat": 38.91550316666667, "type": "electric_scooter", "lon": -77.0351145, "is_reserved": 0, "fusion_lon": 0.0, "bike_id": "2849ddb21e6945fa47c12f5d5dab5f42", "name": "2849ddb21e6945fa47c12f5d5dab5f42", "rental_uris": {"ios": "https://dc.lft.to/lastmile_qr_scan", "android": "https://dc.lft.to/lastmile_qr_scan"}}, {"is_disabled": 0, "fusion_lat": 0.0, "lat": 38.923276333333334, "type": "electric_scooter", "lon": -77.03900283333333, "is_reserved": 0, "fusion_lon": 0.0, "bike_id": "371e5b90dba7ca88274573938d6d0ac9", "name": "371e5b90dba7ca88274573938d6d0ac9", "rental_uris": {"ios": "https://dc.lft.to/lastmile_qr_scan", "android": "https://dc.lft.to/lastmile_qr_scan"}}, {"is_disabled": 0, "fusion_lat": 0.0, "lat": 39.030504666666666, "type": "electric_bike", "lon": -77.0947765, "is_reserved": 0, "fusion_lon": 0.0, "bike_id": "d09e23701f3c0254820771a044c2f72b", "name": "d09e23701f3c0254820771a044c2f72b", "rental_uris": {"ios": "https://dc.lft.to/lastmile_qr_scan", "android": "https://dc.lft.to/lastmile_qr_scan"}}, {"is_disabled": 0, "fusion_lat": 0.0, "lat": 38.905546, "type": "electric_scooter", "lon": -77.0465125, "is_reserved": 0, "fusion_lon": 0.0, "bike_id": "78ef518cec725d755172eeb19af1f4db", "name": "78ef518cec725d755172eeb19af1f4db", "rental_uris": {"ios": "https://dc.lft.to/lastmile_qr_scan", "android": "https://dc.lft.to/lastmile_qr_scan"}}, {"is_disabled": 0, "fusion_lat": 0.0, "lat": 38.88552633333333, "type": "electric_bike", "lon": -76.98550916666667, "is_reserved": 0, "fusion_lon": 0.0, "bike_id": "794e241671847360547c4ee3f4d08937", "name": "794e241671847360547c4ee3f4d08937", "rental_uris": {"ios": "https://dc.lft.to/lastmile_qr_scan", "android": "https://dc.lft.to/lastmile_qr_scan"}}, {"is_disabled": 0, "fusion_lat": 0.0, "lat": 38.905013, "type": "electric_scooter", "lon": -77.06268583333333, "is_reserved": 0, "fusion_lon": 0.0, "bike_id": "754c67c9501b8fc71ebd515a4e55480e", "name": "754c67c9501b8fc71ebd515a4e55480e", "rental_uris": {"ios": "https://dc.lft.to/lastmile_qr_scan", "android": "https://dc.lft.to/lastmile_qr_scan"}}, {"is_disabled": 0, "fusion_lat": 0.0, "lat": 38.887031666666665, "type": "electric_scooter", "lon": -77.00147583333333, "is_reserved": 0, "fusion_lon": 0.0, "bike_id": "4ad24f4fc7a13bd70f2848b3372acbb9", "name": "4ad24f4fc7a13bd70f2848b3372acbb9", "rental_uris": {"ios": "https://dc.lft.to/lastmile_qr_scan", "android": "https://dc.lft.to/lastmile_qr_scan"}}, {"is_disabled": 0, "fusion_lat": 0.0, "lat": 38.897734, "type": "electric_scooter", "lon": -76.9772475, "is_reserved": 0, "fusion_lon": 0.0, "bike_id": "56d7430c0e301a1753bd0e1bb107a206", "name": "56d7430c0e301a1753bd0e1bb107a206", "rental_uris": {"ios": "https://dc.lft.to/lastmile_qr_scan", "android": "https://dc.lft.to/lastmile_qr_scan"}}, {"is_disabled": 0, "fusion_lat": 0.0, "lat": 38.920520333333336, "type": "electric_scooter", "lon": -77.0466905, "is_reserved": 0, "fusion_lon": 0.0, "bike_id": "d77dc4b37df72c948adbaee416e0221e", "name": "d77dc4b37df72c948adbaee416e0221e", "rental_uris": {"ios": "https://dc.lft.to/lastmile_qr_scan", "android": "https://dc.lft.to/lastmile_qr_scan"}}, {"is_disabled": 0, "fusion_lat": 0.0, "lat": 38.921785166666666, "type": "electric_scooter", "lon": -77.042259, "is_reserved": 0, "fusion_lon": 0.0, "bike_id": "d2d0639779df3aec0d118a953aaf1f9c", "name": "d2d0639779df3aec0d118a953aaf1f9c", "rental_uris": {"ios": "https://dc.lft.to/lastmile_qr_scan", "android": "https://dc.lft.to/lastmile_qr_scan"}}, {"is_disabled": 0, "fusion_lat": 0.0, "lat": 38.92315816666667, "type": "electric_scooter", "lon": -77.021208, "is_reserved": 0, "fusion_lon": 0.0, "bike_id": "fbb71f301126fb0d05002670227a6677", "name": "fbb71f301126fb0d05002670227a6677", "rental_uris": {"ios": "https://dc.lft.to/lastmile_qr_scan", "android": "https://dc.lft.to/lastmile_qr_scan"}}, {"is_disabled": 0, "fusion_lat": 0.0, "lat": 38.89464783333333, "type": "electric_scooter", "lon": -76.99380633333334, "is_reserved": 0, "fusion_lon": 0.0, "bike_id": "c110862d40d8d893b181e73a0ebe4990", "name": "c110862d40d8d893b181e73a0ebe4990", "rental_uris": {"ios": "https://dc.lft.to/lastmile_qr_scan", "android": "https://dc.lft.to/lastmile_qr_scan"}}, {"is_disabled": 0, "fusion_lat": 0.0, "lat": 38.931633, "type": "electric_scooter", "lon": -77.03624583333334, "is_reserved": 0, "fusion_lon": 0.0, "bike_id": "bf0510c85f1636157acc16db63d95739", "name": "bf0510c85f1636157acc16db63d95739", "rental_uris": {"ios": "https://dc.lft.to/lastmile_qr_scan", "android": "https://dc.lft.to/lastmile_qr_scan"}}, {"is_disabled": 0, "fusion_lat": 0.0, "lat": 38.917118333333335, "type": "electric_scooter", "lon": -77.02892166666666, "is_reserved": 0, "fusion_lon": 0.0, "bike_id": "8ce63f0e30f77976c66cc594d7f59018", "name": "8ce63f0e30f77976c66cc594d7f59018", "rental_uris": {"ios": "https://dc.lft.to/lastmile_qr_scan", "android": "https://dc.lft.to/lastmile_qr_scan"}}, {"is_disabled": 0, "fusion_lat": 0.0, "lat": 38.8817845, "type": "electric_scooter", "lon": -77.0280715, "is_reserved": 0, "fusion_lon": 0.0, "bike_id": "afef51ae1dc7cc40d59f9dec4c04d9bb", "name": "afef51ae1dc7cc40d59f9dec4c04d9bb", "rental_uris": {"ios": "https://dc.lft.to/lastmile_qr_scan", "android": "https://dc.lft.to/lastmile_qr_scan"}}, {"is_disabled": 0, "fusion_lat": 0.0, "lat": 38.903217, "type": "electric_scooter", "lon": -77.03806516666667, "is_reserved": 0, "fusion_lon": 0.0, "bike_id": "4ad3906ca04469dfb70a5f623b682079", "name": "4ad3906ca04469dfb70a5f623b682079", "rental_uris": {"ios": "https://dc.lft.to/lastmile_qr_scan", "android": "https://dc.lft.to/lastmile_qr_scan"}}, {"is_disabled": 0, "fusion_lat": 0.0, "lat": 38.92545166666667, "type": "electric_scooter", "lon": -76.981228, "is_reserved": 0, "fusion_lon": 0.0, "bike_id": "8502d487f99b62dcbecd44a926c0ee57", "name": "8502d487f99b62dcbecd44a926c0ee57", "rental_uris": {"ios": "https://dc.lft.to/lastmile_qr_scan", "android": "https://dc.lft.to/lastmile_qr_scan"}}, {"is_disabled": 0, "fusion_lat": 0.0, "lat": 38.97323733333333, "type": "electric_bike", "lon": -77.021446, "is_reserved": 0, "fusion_lon": 0.0, "bike_id": "8c30e8cf6b3cc06fbad767a9d3676c58", "name": "8c30e8cf6b3cc06fbad767a9d3676c58", "rental_uris": {"ios": "https://dc.lft.to/lastmile_qr_scan", "android": "https://dc.lft.to/lastmile_qr_scan"}}, {"is_disabled": 0, "fusion_lat": 0.0, "lat": 38.958814833333335, "type": "electric_bike", "lon": -76.92483133333333, "is_reserved": 0, "fusion_lon": 0.0, "bike_id": "6479e501353702a83218ab285fdb6510", "name": "6479e501353702a83218ab285fdb6510", "rental_uris": {"ios": "https://dc.lft.to/lastmile_qr_scan", "android": "https://dc.lft.to/lastmile_qr_scan"}}, {"is_disabled": 0, "fusion_lat": 0.0, "lat": 38.957526666666666, "type": "electric_scooter", "lon": -77.02065316666666, "is_reserved": 0, "fusion_lon": 0.0, "bike_id": "5a79254beac095736f40d2fab7951ce4", "name": "5a79254beac095736f40d2fab7951ce4", "rental_uris": {"ios": "https://dc.lft.to/lastmile_qr_scan", "android": "https://dc.lft.to/lastmile_qr_scan"}}, {"is_disabled": 0, "fusion_lat": 0.0, "lat": 38.900725666666666, "type": "electric_scooter", "lon": -76.9983345, "is_reserved": 0, "fusion_lon": 0.0, "bike_id": "e5fbb9e35eced4c619395384d412b575", "name": "e5fbb9e35eced4c619395384d412b575", "rental_uris": {"ios": "https://dc.lft.to/lastmile_qr_scan", "android": "https://dc.lft.to/lastmile_qr_scan"}}, {"is_disabled": 0, "fusion_lat": 0.0, "lat": 38.89375233333333, "type": "electric_scooter", "lon": -76.94998483333333, "is_reserved": 0, "fusion_lon": 0.0, "bike_id": "67f2b18a8c29f43f4fc0341905afd4b0", "name": "67f2b18a8c29f43f4fc0341905afd4b0", "rental_uris": {"ios": "https://dc.lft.to/lastmile_qr_scan", "android": "https://dc.lft.to/lastmile_qr_scan"}}, {"is_disabled": 0, "fusion_lat": 0.0, "lat": 38.845949, "type": "electric_bike", "lon": -77.07677, "is_reserved": 0, "fusion_lon": 0.0, "bike_id": "71e8ff304df74c0de7cb9077ac3d5cca", "name": "71e8ff304df74c0de7cb9077ac3d5cca", "rental_uris": {"ios": "https://dc.lft.to/lastmile_qr_scan", "android": "https://dc.lft.to/lastmile_qr_scan"}}, {"is_disabled": 0, "fusion_lat": 0.0, "lat": 38.89608316666666, "type": "electric_scooter", "lon": -77.04499283333334, "is_reserved": 0, "fusion_lon": 0.0, "bike_id": "c41f37d1bd23233b4462974e3fda0eba", "name": "c41f37d1bd23233b4462974e3fda0eba", "rental_uris": {"ios": "https://dc.lft.to/lastmile_qr_scan", "android": "https://dc.lft.to/lastmile_qr_scan"}}, {"is_disabled": 0, "fusion_lat": 0.0, "lat": 38.90569083333333, "type": "electric_scooter", "lon": -77.02208583333334, "is_reserved": 0, "fusion_lon": 0.0, "bike_id": "0197ada32df5a6d540f60c3f8d8b6b55", "name": "0197ada32df5a6d540f60c3f8d8b6b55", "rental_uris": {"ios": "https://dc.lft.to/lastmile_qr_scan", "android": "https://dc.lft.to/lastmile_qr_scan"}}, {"is_disabled": 0, "fusion_lat": 0.0, "lat": 38.94183233333333, "type": "electric_scooter", "lon": -77.024873, "is_reserved": 0, "fusion_lon": 0.0, "bike_id": "bc9ba2de004d1179f6b8cd3a17a9e0e0", "name": "bc9ba2de004d1179f6b8cd3a17a9e0e0", "rental_uris": {"ios": "https://dc.lft.to/lastmile_qr_scan", "android": "https://dc.lft.to/lastmile_qr_scan"}}, {"is_disabled": 0, "fusion_lat": 0.0, "lat": 38.86617283333333, "type": "electric_scooter", "lon": -76.98661883333334, "is_reserved": 0, "fusion_lon": 0.0, "bike_id": "01431f4f5e72c381e8ad6d531f8f319c", "name": "01431f4f5e72c381e8ad6d531f8f319c", "rental_uris": {"ios": "https://dc.lft.to/lastmile_qr_scan", "android": "https://dc.lft.to/lastmile_qr_scan"}}, {"is_disabled": 0, "fusion_lat": 0.0, "lat": 38.93538733333333, "type": "electric_scooter", "lon": -77.07259933333333, "is_reserved": 0, "fusion_lon": 0.0, "bike_id": "b92a6599139c6aaca58c5d0f992a7f9c", "name": "b92a6599139c6aaca58c5d0f992a7f9c", "rental_uris": {"ios": "https://dc.lft.to/lastmile_qr_scan", "android": "https://dc.lft.to/lastmile_qr_scan"}}, {"is_disabled": 0, "fusion_lat": 0.0, "lat": 38.892644, "type": "electric_scooter", "lon": -76.941532, "is_reserved": 0, "fusion_lon": 0.0, "bike_id": "6809ebae7ff9d7d63cc2b32107d7c5c5", "name": "6809ebae7ff9d7d63cc2b32107d7c5c5", "rental_uris": {"ios": "https://dc.lft.to/lastmile_qr_scan", "android": "https://dc.lft.to/lastmile_qr_scan"}}, {"is_disabled": 0, "fusion_lat": 0.0, "lat": 38.926305, "type": "electric_scooter", "lon": -77.03786583333333, "is_reserved": 0, "fusion_lon": 0.0, "bike_id": "d6af10ebad90dcad216f0d2dce1e8f4e", "name": "d6af10ebad90dcad216f0d2dce1e8f4e", "rental_uris": {"ios": "https://dc.lft.to/lastmile_qr_scan", "android": "https://dc.lft.to/lastmile_qr_scan"}}, {"is_disabled": 0, "fusion_lat": 0.0, "lat": 38.89741133333333, "type": "electric_scooter", "lon": -77.04678716666666, "is_reserved": 0, "fusion_lon": 0.0, "bike_id": "585946e0439057ce6a8c5708621782c0", "name": "585946e0439057ce6a8c5708621782c0", "rental_uris": {"ios": "https://dc.lft.to/lastmile_qr_scan", "android": "https://dc.lft.to/lastmile_qr_scan"}}, {"is_disabled": 0, "fusion_lat": 0.0, "lat": 38.9141625, "type": "electric_scooter", "lon": -77.01288, "is_reserved": 0, "fusion_lon": 0.0, "bike_id": "6bde57808994bf12143b39751fde6421", "name": "6bde57808994bf12143b39751fde6421", "rental_uris": {"ios": "https://dc.lft.to/lastmile_qr_scan", "android": "https://dc.lft.to/lastmile_qr_scan"}}, {"is_disabled": 0, "fusion_lat": 0.0, "lat": 38.923333166666666, "type": "electric_scooter", "lon": -77.03578616666667, "is_reserved": 0, "fusion_lon": 0.0, "bike_id": "08050709a696f54fcfbf6cb3da742098", "name": "08050709a696f54fcfbf6cb3da742098", "rental_uris": {"ios": "https://dc.lft.to/lastmile_qr_scan", "android": "https://dc.lft.to/lastmile_qr_scan"}}, {"is_disabled": 0, "fusion_lat": 0.0, "lat": 38.8922425, "type": "electric_scooter", "lon": -77.04651466666667, "is_reserved": 0, "fusion_lon": 0.0, "bike_id": "080df60c55caf150e152438083ea3566", "name": "080df60c55caf150e152438083ea3566", "rental_uris": {"ios": "https://dc.lft.to/lastmile_qr_scan", "android": "https://dc.lft.to/lastmile_qr_scan"}}, {"is_disabled": 0, "fusion_lat": 0.0, "lat": 38.92253783333334, "type": "electric_scooter", "lon": -77.0340655, "is_reserved": 0, "fusion_lon": 0.0, "bike_id": "19e4bec335be292529b049c9810f07dd", "name": "19e4bec335be292529b049c9810f07dd", "rental_uris": {"ios": "https://dc.lft.to/lastmile_qr_scan", "android": "https://dc.lft.to/lastmile_qr_scan"}}, {"is_disabled": 0, "fusion_lat": 0.0, "lat": 38.896106, "type": "electric_scooter", "lon": -77.044907, "is_reserved": 0, "fusion_lon": 0.0, "bike_id": "198fe7760eda2e88f1c1f53a46112039", "name": "198fe7760eda2e88f1c1f53a46112039", "rental_uris": {"ios": "https://dc.lft.to/lastmile_qr_scan", "android": "https://dc.lft.to/lastmile_qr_scan"}}, {"is_disabled": 0, "fusion_lat": 0.0, "lat": 38.874768333333336, "type": "electric_scooter", "lon": -77.01069133333333, "is_reserved": 0, "fusion_lon": 0.0, "bike_id": "a56ee89742d362b57eb0c677502cf8a6", "name": "a56ee89742d362b57eb0c677502cf8a6", "rental_uris": {"ios": "https://dc.lft.to/lastmile_qr_scan", "android": "https://dc.lft.to/lastmile_qr_scan"}}, {"is_disabled": 0, "fusion_lat": 0.0, "lat": 38.864477, "type": "electric_scooter", "lon": -76.97359833333333, "is_reserved": 0, "fusion_lon": 0.0, "bike_id": "2487eca80d2bdaade765504f2559ca49", "name": "2487eca80d2bdaade765504f2559ca49", "rental_uris": {"ios": "https://dc.lft.to/lastmile_qr_scan", "android": "https://dc.lft.to/lastmile_qr_scan"}}, {"is_disabled": 0, "fusion_lat": 0.0, "lat": 38.87656716666667, "type": "electric_scooter", "lon": -77.0045235, "is_reserved": 0, "fusion_lon": 0.0, "bike_id": "9eab1768623b99bd47216086f11a89c7", "name": "9eab1768623b99bd47216086f11a89c7", "rental_uris": {"ios": "https://dc.lft.to/lastmile_qr_scan", "android": "https://dc.lft.to/lastmile_qr_scan"}}, {"is_disabled": 0, "fusion_lat": 0.0, "lat": 38.93247366666667, "type": "electric_scooter", "lon": -77.03263483333333, "is_reserved": 0, "fusion_lon": 0.0, "bike_id": "6f622c8b938e5f3d26280c4028e94433", "name": "6f622c8b938e5f3d26280c4028e94433", "rental_uris": {"ios": "https://dc.lft.to/lastmile_qr_scan", "android": "https://dc.lft.to/lastmile_qr_scan"}}, {"is_disabled": 0, "fusion_lat": 0.0, "lat": 38.894551, "type": "electric_bike", "lon": -76.97031516666667, "is_reserved": 0, "fusion_lon": 0.0, "bike_id": "1a8c93f7c22ccc213a4d5a211a461d7d", "name": "1a8c93f7c22ccc213a4d5a211a461d7d", "rental_uris": {"ios": "https://dc.lft.to/lastmile_qr_scan", "android": "https://dc.lft.to/lastmile_qr_scan"}}, {"is_disabled": 0, "fusion_lat": 0.0, "lat": 38.9056905, "type": "electric_scooter", "lon": -77.029828, "is_reserved": 0, "fusion_lon": 0.0, "bike_id": "82e411f46175c61f9a7cbf86a54fe9ad", "name": "82e411f46175c61f9a7cbf86a54fe9ad", "rental_uris": {"ios": "https://dc.lft.to/lastmile_qr_scan", "android": "https://dc.lft.to/lastmile_qr_scan"}}, {"is_disabled": 0, "fusion_lat": 0.0, "lat": 38.90819333333334, "type": "electric_scooter", "lon": -76.99845116666667, "is_reserved": 0, "fusion_lon": 0.0, "bike_id": "b86bbadf90d7cea3a8c4d84000642659", "name": "b86bbadf90d7cea3a8c4d84000642659", "rental_uris": {"ios": "https://dc.lft.to/lastmile_qr_scan", "android": "https://dc.lft.to/lastmile_qr_scan"}}, {"is_disabled": 0, "fusion_lat": 0.0, "lat": 38.8995955, "type": "electric_scooter", "lon": -77.051738, "is_reserved": 0, "fusion_lon": 0.0, "bike_id": "dca2e554aeeec233b033d027fec6f2e0", "name": "dca2e554aeeec233b033d027fec6f2e0", "rental_uris": {"ios": "https://dc.lft.to/lastmile_qr_scan", "android": "https://dc.lft.to/lastmile_qr_scan"}}, {"is_disabled": 0, "fusion_lat": 0.0, "lat": 38.822595, "type": "electric_bike", "lon": -77.00545566666666, "is_reserved": 0, "fusion_lon": 0.0, "bike_id": "9f5c344f4fd6773399f490db74e2aa65", "name": "9f5c344f4fd6773399f490db74e2aa65", "rental_uris": {"ios": "https://dc.lft.to/lastmile_qr_scan", "android": "https://dc.lft.to/lastmile_qr_scan"}}, {"is_disabled": 0, "fusion_lat": 0.0, "lat": 38.89221583333333, "type": "electric_scooter", "lon": -77.02642983333334, "is_reserved": 0, "fusion_lon": 0.0, "bike_id": "6aadd8a581ebad05ee3c1cd22e6df062", "name": "6aadd8a581ebad05ee3c1cd22e6df062", "rental_uris": {"ios": "https://dc.lft.to/lastmile_qr_scan", "android": "https://dc.lft.to/lastmile_qr_scan"}}, {"is_disabled": 0, "fusion_lat": 0.0, "lat": 38.90133683333333, "type": "electric_scooter", "lon": -77.04179416666666, "is_reserved": 0, "fusion_lon": 0.0, "bike_id": "654bbfe66b02f2c071de7794a0af160d", "name": "654bbfe66b02f2c071de7794a0af160d", "rental_uris": {"ios": "https://dc.lft.to/lastmile_qr_scan", "android": "https://dc.lft.to/lastmile_qr_scan"}}, {"is_disabled": 0, "fusion_lat": 0.0, "lat": 38.871615166666665, "type": "electric_scooter", "lon": -77.01350866666667, "is_reserved": 0, "fusion_lon": 0.0, "bike_id": "5f1bf84f005f39de71fe46956217e2a0", "name": "5f1bf84f005f39de71fe46956217e2a0", "rental_uris": {"ios": "https://dc.lft.to/lastmile_qr_scan", "android": "https://dc.lft.to/lastmile_qr_scan"}}, {"is_disabled": 0, "fusion_lat": 0.0, "lat": 38.845724, "type": "electric_bike", "lon": -77.09623666666667, "is_reserved": 0, "fusion_lon": 0.0, "bike_id": "11ab39facdccecd4e2b23f0f3f606ef3", "name": "11ab39facdccecd4e2b23f0f3f606ef3", "rental_uris": {"ios": "https://dc.lft.to/lastmile_qr_scan", "android": "https://dc.lft.to/lastmile_qr_scan"}}, {"is_disabled": 0, "fusion_lat": 0.0, "lat": 38.8922115, "type": "electric_scooter", "lon": -77.02218316666666, "is_reserved": 0, "fusion_lon": 0.0, "bike_id": "4f4ec777cad7124e02d72ca8bb0c25c1", "name": "4f4ec777cad7124e02d72ca8bb0c25c1", "rental_uris": {"ios": "https://dc.lft.to/lastmile_qr_scan", "android": "https://dc.lft.to/lastmile_qr_scan"}}, {"is_disabled": 0, "fusion_lat": 0.0, "lat": 38.90022483333333, "type": "electric_scooter", "lon": -76.998561, "is_reserved": 0, "fusion_lon": 0.0, "bike_id": "026c83c637a1a7b538d86da9c71d5138", "name": "026c83c637a1a7b538d86da9c71d5138", "rental_uris": {"ios": "https://dc.lft.to/lastmile_qr_scan", "android": "https://dc.lft.to/lastmile_qr_scan"}}, {"is_disabled": 0, "fusion_lat": 0.0, "lat": 38.90350466666666, "type": "electric_scooter", "lon": -77.06574216666667, "is_reserved": 0, "fusion_lon": 0.0, "bike_id": "7f235af1e88cf9864d543a6e52bef362", "name": "7f235af1e88cf9864d543a6e52bef362", "rental_uris": {"ios": "https://dc.lft.to/lastmile_qr_scan", "android": "https://dc.lft.to/lastmile_qr_scan"}}, {"is_disabled": 0, "fusion_lat": 0.0, "lat": 38.90916383333333, "type": "electric_scooter", "lon": -76.992633, "is_reserved": 0, "fusion_lon": 0.0, "bike_id": "3bab44dd43d6df29b23552c2d8dbe1a7", "name": "3bab44dd43d6df29b23552c2d8dbe1a7", "rental_uris": {"ios": "https://dc.lft.to/lastmile_qr_scan", "android": "https://dc.lft.to/lastmile_qr_scan"}}, {"is_disabled": 0, "fusion_lat": 0.0, "lat": 38.917806666666664, "type": "electric_scooter", "lon": -77.03455383333333, "is_reserved": 0, "fusion_lon": 0.0, "bike_id": "a266d26f084fdcff113980eec7f77c37", "name": "a266d26f084fdcff113980eec7f77c37", "rental_uris": {"ios": "https://dc.lft.to/lastmile_qr_scan", "android": "https://dc.lft.to/lastmile_qr_scan"}}, {"is_disabled": 0, "fusion_lat": 0.0, "lat": 38.924137333333334, "type": "electric_bike", "lon": -77.20812366666667, "is_reserved": 0, "fusion_lon": 0.0, "bike_id": "e3f15f6d20656f0e521ed87928d2a212", "name": "e3f15f6d20656f0e521ed87928d2a212", "rental_uris": {"ios": "https://dc.lft.to/lastmile_qr_scan", "android": "https://dc.lft.to/lastmile_qr_scan"}}, {"is_disabled": 0, "fusion_lat": 0.0, "lat": 38.903628499999996, "type": "electric_scooter", "lon": -77.03989966666667, "is_reserved": 0, "fusion_lon": 0.0, "bike_id": "eb4d29df915b5ab35a7846bef440e752", "name": "eb4d29df915b5ab35a7846bef440e752", "rental_uris": {"ios": "https://dc.lft.to/lastmile_qr_scan", "android": "https://dc.lft.to/lastmile_qr_scan"}}, {"is_disabled": 0, "fusion_lat": 0.0, "lat": 38.91729083333333, "type": "electric_scooter", "lon": -77.036562, "is_reserved": 0, "fusion_lon": 0.0, "bike_id": "39534625dc5bf42d7830b598e5bfb456", "name": "39534625dc5bf42d7830b598e5bfb456", "rental_uris": {"ios": "https://dc.lft.to/lastmile_qr_scan", "android": "https://dc.lft.to/lastmile_qr_scan"}}, {"is_disabled": 0, "fusion_lat": 0.0, "lat": 38.917280166666664, "type": "electric_scooter", "lon": -77.0366005, "is_reserved": 0, "fusion_lon": 0.0, "bike_id": "cf76704ac57fc6e4fddd0cba947c23f7", "name": "cf76704ac57fc6e4fddd0cba947c23f7", "rental_uris": {"ios": "https://dc.lft.to/lastmile_qr_scan", "android": "https://dc.lft.to/lastmile_qr_scan"}}, {"is_disabled": 0, "fusion_lat": 0.0, "lat": 38.908423, "type": "electric_scooter", "lon": -77.03289516666666, "is_reserved": 0, "fusion_lon": 0.0, "bike_id": "6dc4d372a91c795d703fa1fd4abbedac", "name": "6dc4d372a91c795d703fa1fd4abbedac", "rental_uris": {"ios": "https://dc.lft.to/lastmile_qr_scan", "android": "https://dc.lft.to/lastmile_qr_scan"}}, {"is_disabled": 0, "fusion_lat": 0.0, "lat": 39.05633383333333, "type": "electric_bike", "lon": -77.12526116666666, "is_reserved": 0, "fusion_lon": 0.0, "bike_id": "a5928728f0f06af9d896c667724d6f49", "name": "a5928728f0f06af9d896c667724d6f49", "rental_uris": {"ios": "https://dc.lft.to/lastmile_qr_scan", "android": "https://dc.lft.to/lastmile_qr_scan"}}, {"is_disabled": 0, "fusion_lat": 0.0, "lat": 38.96137916666667, "type": "electric_scooter", "lon": -77.02782166666667, "is_reserved": 0, "fusion_lon": 0.0, "bike_id": "eabd46d827ee092264aa132ad055e1f7", "name": "eabd46d827ee092264aa132ad055e1f7", "rental_uris": {"ios": "https://dc.lft.to/lastmile_qr_scan", "android": "https://dc.lft.to/lastmile_qr_scan"}}, {"is_disabled": 0, "fusion_lat": 0.0, "lat": 38.907826666666665, "type": "electric_scooter", "lon": -77.0715325, "is_reserved": 0, "fusion_lon": 0.0, "bike_id": "5eb68d52e80f25cbfc739be64cd8e867", "name": "5eb68d52e80f25cbfc739be64cd8e867", "rental_uris": {"ios": "https://dc.lft.to/lastmile_qr_scan", "android": "https://dc.lft.to/lastmile_qr_scan"}}, {"is_disabled": 0, "fusion_lat": 0.0, "lat": 38.92528016666667, "type": "electric_scooter", "lon": -77.03850416666667, "is_reserved": 0, "fusion_lon": 0.0, "bike_id": "c8b8c391df6addff6a3bb063edcbc30e", "name": "c8b8c391df6addff6a3bb063edcbc30e", "rental_uris": {"ios": "https://dc.lft.to/lastmile_qr_scan", "android": "https://dc.lft.to/lastmile_qr_scan"}}, {"is_disabled": 0, "fusion_lat": 0.0, "lat": 38.9071035, "type": "electric_scooter", "lon": -77.000855, "is_reserved": 0, "fusion_lon": 0.0, "bike_id": "cdd681b2058e00f3e70df31b4f9da2d5", "name": "cdd681b2058e00f3e70df31b4f9da2d5", "rental_uris": {"ios": "https://dc.lft.to/lastmile_qr_scan", "android": "https://dc.lft.to/lastmile_qr_scan"}}, {"is_disabled": 0, "fusion_lat": 0.0, "lat": 38.914008333333335, "type": "electric_scooter", "lon": -77.03924833333333, "is_reserved": 0, "fusion_lon": 0.0, "bike_id": "d73060a9937d981da5389162bf0287be", "name": "d73060a9937d981da5389162bf0287be", "rental_uris": {"ios": "https://dc.lft.to/lastmile_qr_scan", "android": "https://dc.lft.to/lastmile_qr_scan"}}, {"is_disabled": 0, "fusion_lat": 0.0, "lat": 38.9073605, "type": "electric_scooter", "lon": -76.99848883333334, "is_reserved": 0, "fusion_lon": 0.0, "bike_id": "230d624051bdbf5d5b2db2df3f4fee2c", "name": "230d624051bdbf5d5b2db2df3f4fee2c", "rental_uris": {"ios": "https://dc.lft.to/lastmile_qr_scan", "android": "https://dc.lft.to/lastmile_qr_scan"}}, {"is_disabled": 0, "fusion_lat": 0.0, "lat": 38.88637766666667, "type": "electric_bike", "lon": -76.95469566666667, "is_reserved": 0, "fusion_lon": 0.0, "bike_id": "3d9bb61aecec40db60ed46ecf1f2ae5f", "name": "3d9bb61aecec40db60ed46ecf1f2ae5f", "rental_uris": {"ios": "https://dc.lft.to/lastmile_qr_scan", "android": "https://dc.lft.to/lastmile_qr_scan"}}, {"is_disabled": 0, "fusion_lat": 0.0, "lat": 38.916474, "type": "electric_scooter", "lon": -77.03283816666666, "is_reserved": 0, "fusion_lon": 0.0, "bike_id": "4558b1636cd67f1ea46cec1e1ea45e3d", "name": "4558b1636cd67f1ea46cec1e1ea45e3d", "rental_uris": {"ios": "https://dc.lft.to/lastmile_qr_scan", "android": "https://dc.lft.to/lastmile_qr_scan"}}, {"is_disabled": 0, "fusion_lat": 0.0, "lat": 38.90568316666667, "type": "electric_scooter", "lon": -77.02210016666666, "is_reserved": 0, "fusion_lon": 0.0, "bike_id": "51d8bc2cb7e55611d002bbd86650709f", "name": "51d8bc2cb7e55611d002bbd86650709f", "rental_uris": {"ios": "https://dc.lft.to/lastmile_qr_scan", "android": "https://dc.lft.to/lastmile_qr_scan"}}, {"is_disabled": 0, "fusion_lat": 0.0, "lat": 38.885140166666666, "type": "electric_scooter", "lon": -77.00569516666667, "is_reserved": 0, "fusion_lon": 0.0, "bike_id": "1707c5f4609e8d96d5064a228af0c70e", "name": "1707c5f4609e8d96d5064a228af0c70e", "rental_uris": {"ios": "https://dc.lft.to/lastmile_qr_scan", "android": "https://dc.lft.to/lastmile_qr_scan"}}, {"is_disabled": 0, "fusion_lat": 0.0, "lat": 38.92363916666667, "type": "electric_scooter", "lon": -77.041299, "is_reserved": 0, "fusion_lon": 0.0, "bike_id": "7e62e27113cab4ef067d269000140221", "name": "7e62e27113cab4ef067d269000140221", "rental_uris": {"ios": "https://dc.lft.to/lastmile_qr_scan", "android": "https://dc.lft.to/lastmile_qr_scan"}}, {"is_disabled": 0, "fusion_lat": 0.0, "lat": 38.90774416666667, "type": "electric_scooter", "lon": -77.03827533333333, "is_reserved": 0, "fusion_lon": 0.0, "bike_id": "1c9bf4cadd599293d6e75f4ac38adc7b", "name": "1c9bf4cadd599293d6e75f4ac38adc7b", "rental_uris": {"ios": "https://dc.lft.to/lastmile_qr_scan", "android": "https://dc.lft.to/lastmile_qr_scan"}}, {"is_disabled": 0, "fusion_lat": 0.0, "lat": 38.85808983333333, "type": "electric_scooter", "lon": -76.98651733333334, "is_reserved": 0, "fusion_lon": 0.0, "bike_id": "bd491a1c2de8e0dcea23722910497c3c", "name": "bd491a1c2de8e0dcea23722910497c3c", "rental_uris": {"ios": "https://dc.lft.to/lastmile_qr_scan", "android": "https://dc.lft.to/lastmile_qr_scan"}}, {"is_disabled": 0, "fusion_lat": 0.0, "lat": 38.9209695, "type": "electric_scooter", "lon": -77.01777533333333, "is_reserved": 0, "fusion_lon": 0.0, "bike_id": "d7aadf26fc66647de48feed9497ed264", "name": "d7aadf26fc66647de48feed9497ed264", "rental_uris": {"ios": "https://dc.lft.to/lastmile_qr_scan", "android": "https://dc.lft.to/lastmile_qr_scan"}}, {"is_disabled": 0, "fusion_lat": 0.0, "lat": 38.91863433333333, "type": "electric_scooter", "lon": -77.03197016666667, "is_reserved": 0, "fusion_lon": 0.0, "bike_id": "bfa41e51ee406626b479aea56b8ddfc5", "name": "bfa41e51ee406626b479aea56b8ddfc5", "rental_uris": {"ios": "https://dc.lft.to/lastmile_qr_scan", "android": "https://dc.lft.to/lastmile_qr_scan"}}, {"is_disabled": 0, "fusion_lat": 0.0, "lat": 38.891895166666664, "type": "electric_bike", "lon": -77.12257866666667, "is_reserved": 0, "fusion_lon": 0.0, "bike_id": "ff43b41cf2424b4509490846e4d95473", "name": "ff43b41cf2424b4509490846e4d95473", "rental_uris": {"ios": "https://dc.lft.to/lastmile_qr_scan", "android": "https://dc.lft.to/lastmile_qr_scan"}}, {"is_disabled": 0, "fusion_lat": 0.0, "lat": 38.921241, "type": "electric_scooter", "lon": -77.03188983333334, "is_reserved": 0, "fusion_lon": 0.0, "bike_id": "b24562599a80f41e1692bf635369025d", "name": "b24562599a80f41e1692bf635369025d", "rental_uris": {"ios": "https://dc.lft.to/lastmile_qr_scan", "android": "https://dc.lft.to/lastmile_qr_scan"}}, {"is_disabled": 0, "fusion_lat": 0.0, "lat": 38.8972165, "type": "electric_scooter", "lon": -77.0215995, "is_reserved": 0, "fusion_lon": 0.0, "bike_id": "4f10ebb1e1eedc1ec6ffd99e5d9b761a", "name": "4f10ebb1e1eedc1ec6ffd99e5d9b761a", "rental_uris": {"ios": "https://dc.lft.to/lastmile_qr_scan", "android": "https://dc.lft.to/lastmile_qr_scan"}}, {"is_disabled": 0, "fusion_lat": 0.0, "lat": 38.94168333333333, "type": "electric_scooter", "lon": -77.02532783333334, "is_reserved": 0, "fusion_lon": 0.0, "bike_id": "ed59578617cc4afecca22abc1f7e24ca", "name": "ed59578617cc4afecca22abc1f7e24ca", "rental_uris": {"ios": "https://dc.lft.to/lastmile_qr_scan", "android": "https://dc.lft.to/lastmile_qr_scan"}}, {"is_disabled": 0, "fusion_lat": 0.0, "lat": 38.907028833333335, "type": "electric_scooter", "lon": -76.99797766666667, "is_reserved": 0, "fusion_lon": 0.0, "bike_id": "cb7207b700c6d30021d16e32934de825", "name": "cb7207b700c6d30021d16e32934de825", "rental_uris": {"ios": "https://dc.lft.to/lastmile_qr_scan", "android": "https://dc.lft.to/lastmile_qr_scan"}}, {"is_disabled": 0, "fusion_lat": 0.0, "lat": 38.9026615, "type": "electric_scooter", "lon": -77.04106416666667, "is_reserved": 0, "fusion_lon": 0.0, "bike_id": "a0e48ef3c1902dcfb1e431bbd8395630", "name": "a0e48ef3c1902dcfb1e431bbd8395630", "rental_uris": {"ios": "https://dc.lft.to/lastmile_qr_scan", "android": "https://dc.lft.to/lastmile_qr_scan"}}, {"is_disabled": 0, "fusion_lat": 0.0, "lat": 38.93597966666667, "type": "electric_scooter", "lon": -77.02331416666667, "is_reserved": 0, "fusion_lon": 0.0, "bike_id": "cf754bc137f6e80816754ff57765304a", "name": "cf754bc137f6e80816754ff57765304a", "rental_uris": {"ios": "https://dc.lft.to/lastmile_qr_scan", "android": "https://dc.lft.to/lastmile_qr_scan"}}, {"is_disabled": 0, "fusion_lat": 0.0, "lat": 38.916160833333336, "type": "electric_scooter", "lon": -77.02285016666667, "is_reserved": 0, "fusion_lon": 0.0, "bike_id": "148828cb51043467b9fa217f430211cd", "name": "148828cb51043467b9fa217f430211cd", "rental_uris": {"ios": "https://dc.lft.to/lastmile_qr_scan", "android": "https://dc.lft.to/lastmile_qr_scan"}}, {"is_disabled": 0, "fusion_lat": 0.0, "lat": 38.9242685, "type": "electric_scooter", "lon": -77.04242466666666, "is_reserved": 0, "fusion_lon": 0.0, "bike_id": "3f72f048b487cc550fd6fbdfce16b276", "name": "3f72f048b487cc550fd6fbdfce16b276", "rental_uris": {"ios": "https://dc.lft.to/lastmile_qr_scan", "android": "https://dc.lft.to/lastmile_qr_scan"}}, {"is_disabled": 0, "fusion_lat": 0.0, "lat": 38.910184, "type": "electric_scooter", "lon": -77.05465833333334, "is_reserved": 0, "fusion_lon": 0.0, "bike_id": "228efd101297941ccd1309c1b18aab2c", "name": "228efd101297941ccd1309c1b18aab2c", "rental_uris": {"ios": "https://dc.lft.to/lastmile_qr_scan", "android": "https://dc.lft.to/lastmile_qr_scan"}}, {"is_disabled": 0, "fusion_lat": 0.0, "lat": 38.924655333333334, "type": "electric_bike", "lon": -77.208338, "is_reserved": 0, "fusion_lon": 0.0, "bike_id": "682a28bded562fb557320e02cb7e850f", "name": "682a28bded562fb557320e02cb7e850f", "rental_uris": {"ios": "https://dc.lft.to/lastmile_qr_scan", "android": "https://dc.lft.to/lastmile_qr_scan"}}, {"is_disabled": 0, "fusion_lat": 0.0, "lat": 38.86619483333333, "type": "electric_bike", "lon": -76.94574033333333, "is_reserved": 0, "fusion_lon": 0.0, "bike_id": "f5cff57eee2daa85e8ad574937f3fe62", "name": "f5cff57eee2daa85e8ad574937f3fe62", "rental_uris": {"ios": "https://dc.lft.to/lastmile_qr_scan", "android": "https://dc.lft.to/lastmile_qr_scan"}}, {"is_disabled": 0, "fusion_lat": 0.0, "lat": 38.89062583333333, "type": "electric_scooter", "lon": -76.94328933333334, "is_reserved": 0, "fusion_lon": 0.0, "bike_id": "6e96b93861cdee43d24042a3966cc6da", "name": "6e96b93861cdee43d24042a3966cc6da", "rental_uris": {"ios": "https://dc.lft.to/lastmile_qr_scan", "android": "https://dc.lft.to/lastmile_qr_scan"}}, {"is_disabled": 0, "fusion_lat": 0.0, "lat": 38.91298716666667, "type": "electric_scooter", "lon": -77.043411, "is_reserved": 0, "fusion_lon": 0.0, "bike_id": "c0488ef56827e3dbc0c7ac60545c774d", "name": "c0488ef56827e3dbc0c7ac60545c774d", "rental_uris": {"ios": "https://dc.lft.to/lastmile_qr_scan", "android": "https://dc.lft.to/lastmile_qr_scan"}}, {"is_disabled": 0, "fusion_lat": 0.0, "lat": 38.8829555, "type": "electric_scooter", "lon": -76.99137133333333, "is_reserved": 0, "fusion_lon": 0.0, "bike_id": "a09f0e2c8f8bb4ca77c1737b1e4cfae0", "name": "a09f0e2c8f8bb4ca77c1737b1e4cfae0", "rental_uris": {"ios": "https://dc.lft.to/lastmile_qr_scan", "android": "https://dc.lft.to/lastmile_qr_scan"}}, {"is_disabled": 0, "fusion_lat": 0.0, "lat": 38.9077705, "type": "electric_scooter", "lon": -77.0383265, "is_reserved": 0, "fusion_lon": 0.0, "bike_id": "69fecabc269ca8ec790f773f25cecc42", "name": "69fecabc269ca8ec790f773f25cecc42", "rental_uris": {"ios": "https://dc.lft.to/lastmile_qr_scan", "android": "https://dc.lft.to/lastmile_qr_scan"}}, {"is_disabled": 0, "fusion_lat": 0.0, "lat": 38.903215, "type": "electric_scooter", "lon": -77.051764, "is_reserved": 0, "fusion_lon": 0.0, "bike_id": "91349d33786fe66891fc3debd3891750", "name": "91349d33786fe66891fc3debd3891750", "rental_uris": {"ios": "https://dc.lft.to/lastmile_qr_scan", "android": "https://dc.lft.to/lastmile_qr_scan"}}, {"is_disabled": 0, "fusion_lat": 0.0, "lat": 38.90728883333333, "type": "electric_scooter", "lon": -77.01072766666667, "is_reserved": 0, "fusion_lon": 0.0, "bike_id": "990cf9f003df8c837368ad9dc62e84aa", "name": "990cf9f003df8c837368ad9dc62e84aa", "rental_uris": {"ios": "https://dc.lft.to/lastmile_qr_scan", "android": "https://dc.lft.to/lastmile_qr_scan"}}, {"is_disabled": 0, "fusion_lat": 0.0, "lat": 38.90514833333334, "type": "electric_scooter", "lon": -77.06378416666666, "is_reserved": 0, "fusion_lon": 0.0, "bike_id": "4cba19aeab2dfe3558a9f0b5596c8248", "name": "4cba19aeab2dfe3558a9f0b5596c8248", "rental_uris": {"ios": "https://dc.lft.to/lastmile_qr_scan", "android": "https://dc.lft.to/lastmile_qr_scan"}}, {"is_disabled": 0, "fusion_lat": 0.0, "lat": 38.875024333333336, "type": "electric_bike", "lon": -77.02586333333333, "is_reserved": 0, "fusion_lon": 0.0, "bike_id": "51916d8993d1b0d88534c7fac2e88c2d", "name": "51916d8993d1b0d88534c7fac2e88c2d", "rental_uris": {"ios": "https://dc.lft.to/lastmile_qr_scan", "android": "https://dc.lft.to/lastmile_qr_scan"}}, {"is_disabled": 0, "fusion_lat": 0.0, "lat": 38.920513666666665, "type": "electric_scooter", "lon": -77.03464166666667, "is_reserved": 0, "fusion_lon": 0.0, "bike_id": "14d05647d5ee46f66e64fd0580208459", "name": "14d05647d5ee46f66e64fd0580208459", "rental_uris": {"ios": "https://dc.lft.to/lastmile_qr_scan", "android": "https://dc.lft.to/lastmile_qr_scan"}}, {"is_disabled": 0, "fusion_lat": 0.0, "lat": 38.88151116666667, "type": "electric_scooter", "lon": -77.02678516666667, "is_reserved": 0, "fusion_lon": 0.0, "bike_id": "b203804df8f265500a7385d5da34eea6", "name": "b203804df8f265500a7385d5da34eea6", "rental_uris": {"ios": "https://dc.lft.to/lastmile_qr_scan", "android": "https://dc.lft.to/lastmile_qr_scan"}}, {"is_disabled": 0, "fusion_lat": 0.0, "lat": 38.891214, "type": "electric_scooter", "lon": -76.94086266666666, "is_reserved": 0, "fusion_lon": 0.0, "bike_id": "5a43760530f1c9daa0c8825e15c53a34", "name": "5a43760530f1c9daa0c8825e15c53a34", "rental_uris": {"ios": "https://dc.lft.to/lastmile_qr_scan", "android": "https://dc.lft.to/lastmile_qr_scan"}}, {"is_disabled": 0, "fusion_lat": 0.0, "lat": 38.908308166666664, "type": "electric_scooter", "lon": -77.085085, "is_reserved": 0, "fusion_lon": 0.0, "bike_id": "681df70d4ac40ff0e642cabc75eb6479", "name": "681df70d4ac40ff0e642cabc75eb6479", "rental_uris": {"ios": "https://dc.lft.to/lastmile_qr_scan", "android": "https://dc.lft.to/lastmile_qr_scan"}}, {"is_disabled": 0, "fusion_lat": 0.0, "lat": 39.015914, "type": "electric_bike", "lon": -77.04422116666667, "is_reserved": 0, "fusion_lon": 0.0, "bike_id": "d2ceafb9f5bc5c24e230a8dd57974f41", "name": "d2ceafb9f5bc5c24e230a8dd57974f41", "rental_uris": {"ios": "https://dc.lft.to/lastmile_qr_scan", "android": "https://dc.lft.to/lastmile_qr_scan"}}, {"is_disabled": 0, "fusion_lat": 0.0, "lat": 38.932351, "type": "electric_scooter", "lon": -77.0386165, "is_reserved": 0, "fusion_lon": 0.0, "bike_id": "b6d719a353db04c814a2024b5c754a91", "name": "b6d719a353db04c814a2024b5c754a91", "rental_uris": {"ios": "https://dc.lft.to/lastmile_qr_scan", "android": "https://dc.lft.to/lastmile_qr_scan"}}, {"is_disabled": 0, "fusion_lat": 0.0, "lat": 38.92212933333333, "type": "electric_scooter", "lon": -77.0329455, "is_reserved": 0, "fusion_lon": 0.0, "bike_id": "ad3688962655549e08a0aea2eec7d704", "name": "ad3688962655549e08a0aea2eec7d704", "rental_uris": {"ios": "https://dc.lft.to/lastmile_qr_scan", "android": "https://dc.lft.to/lastmile_qr_scan"}}, {"is_disabled": 0, "fusion_lat": 0.0, "lat": 38.919255, "type": "electric_scooter", "lon": -77.03191633333333, "is_reserved": 0, "fusion_lon": 0.0, "bike_id": "cd6adae663f34309c2ddd037eccb9e29", "name": "cd6adae663f34309c2ddd037eccb9e29", "rental_uris": {"ios": "https://dc.lft.to/lastmile_qr_scan", "android": "https://dc.lft.to/lastmile_qr_scan"}}, {"is_disabled": 0, "fusion_lat": 0.0, "lat": 38.887212, "type": "electric_scooter", "lon": -77.03169633333333, "is_reserved": 0, "fusion_lon": 0.0, "bike_id": "6d880df9209aaea25b563e917d06793f", "name": "6d880df9209aaea25b563e917d06793f", "rental_uris": {"ios": "https://dc.lft.to/lastmile_qr_scan", "android": "https://dc.lft.to/lastmile_qr_scan"}}, {"is_disabled": 0, "fusion_lat": 0.0, "lat": 38.88407683333333, "type": "electric_scooter", "lon": -77.03049416666667, "is_reserved": 0, "fusion_lon": 0.0, "bike_id": "b7bb878c1412724f7d4b45db7e719b2b", "name": "b7bb878c1412724f7d4b45db7e719b2b", "rental_uris": {"ios": "https://dc.lft.to/lastmile_qr_scan", "android": "https://dc.lft.to/lastmile_qr_scan"}}, {"is_disabled": 0, "fusion_lat": 0.0, "lat": 38.983666, "type": "electric_scooter", "lon": -77.02642383333334, "is_reserved": 0, "fusion_lon": 0.0, "bike_id": "e3dbe953bcf0dd61fd4c2939305be272", "name": "e3dbe953bcf0dd61fd4c2939305be272", "rental_uris": {"ios": "https://dc.lft.to/lastmile_qr_scan", "android": "https://dc.lft.to/lastmile_qr_scan"}}, {"is_disabled": 0, "fusion_lat": 0.0, "lat": 38.8980855, "type": "electric_bike", "lon": -76.99062466666666, "is_reserved": 0, "fusion_lon": 0.0, "bike_id": "60bce266db73d0fb79f2bad78733d7f9", "name": "60bce266db73d0fb79f2bad78733d7f9", "rental_uris": {"ios": "https://dc.lft.to/lastmile_qr_scan", "android": "https://dc.lft.to/lastmile_qr_scan"}}, {"is_disabled": 0, "fusion_lat": 0.0, "lat": 38.940566833333335, "type": "electric_bike", "lon": -76.9538455, "is_reserved": 0, "fusion_lon": 0.0, "bike_id": "a8eb1bcc20293affef8db56a11b337b6", "name": "a8eb1bcc20293affef8db56a11b337b6", "rental_uris": {"ios": "https://dc.lft.to/lastmile_qr_scan", "android": "https://dc.lft.to/lastmile_qr_scan"}}, {"is_disabled": 0, "fusion_lat": 0.0, "lat": 38.92859816666667, "type": "electric_bike", "lon": -77.22215716666666, "is_reserved": 0, "fusion_lon": 0.0, "bike_id": "c087f4d0c0abbb18f4f8c62d047b2c67", "name": "c087f4d0c0abbb18f4f8c62d047b2c67", "rental_uris": {"ios": "https://dc.lft.to/lastmile_qr_scan", "android": "https://dc.lft.to/lastmile_qr_scan"}}, {"is_disabled": 0, "fusion_lat": 0.0, "lat": 39.08859366666667, "type": "electric_bike", "lon": -77.17840516666666, "is_reserved": 0, "fusion_lon": 0.0, "bike_id": "c41671240996ab9ee372d3fd8c19c11d", "name": "c41671240996ab9ee372d3fd8c19c11d", "rental_uris": {"ios": "https://dc.lft.to/lastmile_qr_scan", "android": "https://dc.lft.to/lastmile_qr_scan"}}, {"is_disabled": 0, "fusion_lat": 0.0, "lat": 38.92947216666666, "type": "electric_bike", "lon": -77.04397116666667, "is_reserved": 0, "fusion_lon": 0.0, "bike_id": "1a2dc587adc4111053d1ea2f6bd6121f", "name": "1a2dc587adc4111053d1ea2f6bd6121f", "rental_uris": {"ios": "https://dc.lft.to/lastmile_qr_scan", "android": "https://dc.lft.to/lastmile_qr_scan"}}, {"is_disabled": 0, "fusion_lat": 0.0, "lat": 38.904968833333335, "type": "electric_scooter", "lon": -77.04321866666666, "is_reserved": 0, "fusion_lon": 0.0, "bike_id": "d9c12f9002a87224f2e81b05e77e5967", "name": "d9c12f9002a87224f2e81b05e77e5967", "rental_uris": {"ios": "https://dc.lft.to/lastmile_qr_scan", "android": "https://dc.lft.to/lastmile_qr_scan"}}, {"is_disabled": 0, "fusion_lat": 0.0, "lat": 38.9231845, "type": "electric_scooter", "lon": -77.0451555, "is_reserved": 0, "fusion_lon": 0.0, "bike_id": "92387b910b467ed5b91387b3b87251dc", "name": "92387b910b467ed5b91387b3b87251dc", "rental_uris": {"ios": "https://dc.lft.to/lastmile_qr_scan", "android": "https://dc.lft.to/lastmile_qr_scan"}}, {"is_disabled": 0, "fusion_lat": 0.0, "lat": 38.91547283333333, "type": "electric_scooter", "lon": -77.0383985, "is_reserved": 0, "fusion_lon": 0.0, "bike_id": "ce4de82decafbe95a030ed31bd2e729a", "name": "ce4de82decafbe95a030ed31bd2e729a", "rental_uris": {"ios": "https://dc.lft.to/lastmile_qr_scan", "android": "https://dc.lft.to/lastmile_qr_scan"}}, {"is_disabled": 0, "fusion_lat": 0.0, "lat": 38.899846833333335, "type": "electric_bike", "lon": -77.0549455, "is_reserved": 0, "fusion_lon": 0.0, "bike_id": "e77fb9a72b992c7a0f3404ba8fd25ddd", "name": "e77fb9a72b992c7a0f3404ba8fd25ddd", "rental_uris": {"ios": "https://dc.lft.to/lastmile_qr_scan", "android": "https://dc.lft.to/lastmile_qr_scan"}}, {"is_disabled": 0, "fusion_lat": 0.0, "lat": 38.901565833333336, "type": "electric_scooter", "lon": -76.97627533333333, "is_reserved": 0, "fusion_lon": 0.0, "bike_id": "28c5b2a7732046dfc234d52483bcfb44", "name": "28c5b2a7732046dfc234d52483bcfb44", "rental_uris": {"ios": "https://dc.lft.to/lastmile_qr_scan", "android": "https://dc.lft.to/lastmile_qr_scan"}}, {"is_disabled": 0, "fusion_lat": 0.0, "lat": 38.91117533333333, "type": "electric_scooter", "lon": -77.0481915, "is_reserved": 0, "fusion_lon": 0.0, "bike_id": "c137a945f2e143f8d9b56087458507ca", "name": "c137a945f2e143f8d9b56087458507ca", "rental_uris": {"ios": "https://dc.lft.to/lastmile_qr_scan", "android": "https://dc.lft.to/lastmile_qr_scan"}}, {"is_disabled": 0, "fusion_lat": 0.0, "lat": 38.903115, "type": "electric_scooter", "lon": -77.05179983333333, "is_reserved": 0, "fusion_lon": 0.0, "bike_id": "b9f65fd9167245f1251c44953242202d", "name": "b9f65fd9167245f1251c44953242202d", "rental_uris": {"ios": "https://dc.lft.to/lastmile_qr_scan", "android": "https://dc.lft.to/lastmile_qr_scan"}}, {"is_disabled": 0, "fusion_lat": 0.0, "lat": 38.87629183333333, "type": "electric_scooter", "lon": -76.9651805, "is_reserved": 0, "fusion_lon": 0.0, "bike_id": "f26bc47d08b5669e000dab964b63d536", "name": "f26bc47d08b5669e000dab964b63d536", "rental_uris": {"ios": "https://dc.lft.to/lastmile_qr_scan", "android": "https://dc.lft.to/lastmile_qr_scan"}}, {"is_disabled": 0, "fusion_lat": 0.0, "lat": 38.90837633333334, "type": "electric_scooter", "lon": -77.04327066666667, "is_reserved": 0, "fusion_lon": 0.0, "bike_id": "a3bbf2fef5b77efc0976c88e5faf6e74", "name": "a3bbf2fef5b77efc0976c88e5faf6e74", "rental_uris": {"ios": "https://dc.lft.to/lastmile_qr_scan", "android": "https://dc.lft.to/lastmile_qr_scan"}}, {"is_disabled": 0, "fusion_lat": 0.0, "lat": 38.893290666666665, "type": "electric_scooter", "lon": -76.92989033333333, "is_reserved": 0, "fusion_lon": 0.0, "bike_id": "3a06da3c78075ccc5cbd6e2f1846a48a", "name": "3a06da3c78075ccc5cbd6e2f1846a48a", "rental_uris": {"ios": "https://dc.lft.to/lastmile_qr_scan", "android": "https://dc.lft.to/lastmile_qr_scan"}}, {"is_disabled": 0, "fusion_lat": 0.0, "lat": 38.92190933333333, "type": "electric_scooter", "lon": -77.03204066666666, "is_reserved": 0, "fusion_lon": 0.0, "bike_id": "e9fcf372b6821cb2be9cf9b2ad53c1b6", "name": "e9fcf372b6821cb2be9cf9b2ad53c1b6", "rental_uris": {"ios": "https://dc.lft.to/lastmile_qr_scan", "android": "https://dc.lft.to/lastmile_qr_scan"}}, {"is_disabled": 0, "fusion_lat": 0.0, "lat": 38.90515166666667, "type": "electric_scooter", "lon": -76.98830733333334, "is_reserved": 0, "fusion_lon": 0.0, "bike_id": "fcb46e5889ef809e281269b9bc4cb473", "name": "fcb46e5889ef809e281269b9bc4cb473", "rental_uris": {"ios": "https://dc.lft.to/lastmile_qr_scan", "android": "https://dc.lft.to/lastmile_qr_scan"}}, {"is_disabled": 0, "fusion_lat": 0.0, "lat": 38.89742283333333, "type": "electric_scooter", "lon": -77.024575, "is_reserved": 0, "fusion_lon": 0.0, "bike_id": "379e511b057390c85fd475be0c6d20dd", "name": "379e511b057390c85fd475be0c6d20dd", "rental_uris": {"ios": "https://dc.lft.to/lastmile_qr_scan", "android": "https://dc.lft.to/lastmile_qr_scan"}}, {"is_disabled": 0, "fusion_lat": 0.0, "lat": 38.90511083333333, "type": "electric_scooter", "lon": -77.05128683333334, "is_reserved": 0, "fusion_lon": 0.0, "bike_id": "87cf274e6923debbe56126d3d5a65748", "name": "87cf274e6923debbe56126d3d5a65748", "rental_uris": {"ios": "https://dc.lft.to/lastmile_qr_scan", "android": "https://dc.lft.to/lastmile_qr_scan"}}, {"is_disabled": 0, "fusion_lat": 0.0, "lat": 38.87371916666667, "type": "electric_scooter", "lon": -77.00094816666666, "is_reserved": 0, "fusion_lon": 0.0, "bike_id": "ff7b4c0a0fd93a67cdd639e7d9a937ef", "name": "ff7b4c0a0fd93a67cdd639e7d9a937ef", "rental_uris": {"ios": "https://dc.lft.to/lastmile_qr_scan", "android": "https://dc.lft.to/lastmile_qr_scan"}}, {"is_disabled": 0, "fusion_lat": 0.0, "lat": 38.916962833333336, "type": "electric_scooter", "lon": -77.0289425, "is_reserved": 0, "fusion_lon": 0.0, "bike_id": "45924460df947609529b5cbbae9160b2", "name": "45924460df947609529b5cbbae9160b2", "rental_uris": {"ios": "https://dc.lft.to/lastmile_qr_scan", "android": "https://dc.lft.to/lastmile_qr_scan"}}, {"is_disabled": 0, "fusion_lat": 0.0, "lat": 38.91778133333333, "type": "electric_scooter", "lon": -77.02307833333333, "is_reserved": 0, "fusion_lon": 0.0, "bike_id": "20e4a7bf80edee8837a687e1beeccd1f", "name": "20e4a7bf80edee8837a687e1beeccd1f", "rental_uris": {"ios": "https://dc.lft.to/lastmile_qr_scan", "android": "https://dc.lft.to/lastmile_qr_scan"}}, {"is_disabled": 0, "fusion_lat": 0.0, "lat": 38.872656166666665, "type": "electric_bike", "lon": -76.97909783333333, "is_reserved": 0, "fusion_lon": 0.0, "bike_id": "218e625c3648f3a4e6301054a3f35e69", "name": "218e625c3648f3a4e6301054a3f35e69", "rental_uris": {"ios": "https://dc.lft.to/lastmile_qr_scan", "android": "https://dc.lft.to/lastmile_qr_scan"}}, {"is_disabled": 0, "fusion_lat": 0.0, "lat": 38.89843233333333, "type": "electric_scooter", "lon": -76.9447675, "is_reserved": 0, "fusion_lon": 0.0, "bike_id": "68378af1690a0c3ac76252c2ad71aa94", "name": "68378af1690a0c3ac76252c2ad71aa94", "rental_uris": {"ios": "https://dc.lft.to/lastmile_qr_scan", "android": "https://dc.lft.to/lastmile_qr_scan"}}, {"is_disabled": 0, "fusion_lat": 0.0, "lat": 38.91683483333333, "type": "electric_scooter", "lon": -77.029441, "is_reserved": 0, "fusion_lon": 0.0, "bike_id": "75308aa7bd7d9e6da8ba25f9cecf5031", "name": "75308aa7bd7d9e6da8ba25f9cecf5031", "rental_uris": {"ios": "https://dc.lft.to/lastmile_qr_scan", "android": "https://dc.lft.to/lastmile_qr_scan"}}, {"is_disabled": 0, "fusion_lat": 0.0, "lat": 38.92668583333333, "type": "electric_bike", "lon": -77.00811683333333, "is_reserved": 0, "fusion_lon": 0.0, "bike_id": "1ea99e82459a71e803d919be47d6a141", "name": "1ea99e82459a71e803d919be47d6a141", "rental_uris": {"ios": "https://dc.lft.to/lastmile_qr_scan", "android": "https://dc.lft.to/lastmile_qr_scan"}}, {"is_disabled": 0, "fusion_lat": 0.0, "lat": 38.9028365, "type": "electric_scooter", "lon": -77.04272633333333, "is_reserved": 0, "fusion_lon": 0.0, "bike_id": "5b3d3e5308eda50bf5c8c52e9ad61cec", "name": "5b3d3e5308eda50bf5c8c52e9ad61cec", "rental_uris": {"ios": "https://dc.lft.to/lastmile_qr_scan", "android": "https://dc.lft.to/lastmile_qr_scan"}}, {"is_disabled": 0, "fusion_lat": 0.0, "lat": 38.862894, "type": "electric_scooter", "lon": -76.99236116666667, "is_reserved": 0, "fusion_lon": 0.0, "bike_id": "aecc9eed620b008bc5239fb208eacc76", "name": "aecc9eed620b008bc5239fb208eacc76", "rental_uris": {"ios": "https://dc.lft.to/lastmile_qr_scan", "android": "https://dc.lft.to/lastmile_qr_scan"}}, {"is_disabled": 0, "fusion_lat": 0.0, "lat": 38.920178, "type": "electric_scooter", "lon": -77.031573, "is_reserved": 0, "fusion_lon": 0.0, "bike_id": "51f69dd0db697b2e67eae234123c8148", "name": "51f69dd0db697b2e67eae234123c8148", "rental_uris": {"ios": "https://dc.lft.to/lastmile_qr_scan", "android": "https://dc.lft.to/lastmile_qr_scan"}}, {"is_disabled": 0, "fusion_lat": 0.0, "lat": 38.95010583333333, "type": "electric_bike", "lon": -77.0155835, "is_reserved": 0, "fusion_lon": 0.0, "bike_id": "a5e6f5e79fb01273b486dd88f8911e63", "name": "a5e6f5e79fb01273b486dd88f8911e63", "rental_uris": {"ios": "https://dc.lft.to/lastmile_qr_scan", "android": "https://dc.lft.to/lastmile_qr_scan"}}, {"is_disabled": 0, "fusion_lat": 0.0, "lat": 38.930934, "type": "electric_scooter", "lon": -77.03765, "is_reserved": 0, "fusion_lon": 0.0, "bike_id": "a7724b549ed59e64b3c3efccd4feb3e2", "name": "a7724b549ed59e64b3c3efccd4feb3e2", "rental_uris": {"ios": "https://dc.lft.to/lastmile_qr_scan", "android": "https://dc.lft.to/lastmile_qr_scan"}}, {"is_disabled": 0, "fusion_lat": 0.0, "lat": 39.09439116666667, "type": "electric_bike", "lon": -77.13460416666666, "is_reserved": 0, "fusion_lon": 0.0, "bike_id": "353715c2a62278b3b6782282e69d0868", "name": "353715c2a62278b3b6782282e69d0868", "rental_uris": {"ios": "https://dc.lft.to/lastmile_qr_scan", "android": "https://dc.lft.to/lastmile_qr_scan"}}, {"is_disabled": 0, "fusion_lat": 0.0, "lat": 38.887174, "type": "electric_scooter", "lon": -77.01375083333333, "is_reserved": 0, "fusion_lon": 0.0, "bike_id": "be069ce668e55ad875d7e6a948c007b3", "name": "be069ce668e55ad875d7e6a948c007b3", "rental_uris": {"ios": "https://dc.lft.to/lastmile_qr_scan", "android": "https://dc.lft.to/lastmile_qr_scan"}}, {"is_disabled": 0, "fusion_lat": 0.0, "lat": 38.9271005, "type": "electric_scooter", "lon": -77.02421983333333, "is_reserved": 0, "fusion_lon": 0.0, "bike_id": "07ae2456cf92639a497f5022e897f8b2", "name": "07ae2456cf92639a497f5022e897f8b2", "rental_uris": {"ios": "https://dc.lft.to/lastmile_qr_scan", "android": "https://dc.lft.to/lastmile_qr_scan"}}, {"is_disabled": 0, "fusion_lat": 0.0, "lat": 38.922005666666664, "type": "electric_scooter", "lon": -77.0401415, "is_reserved": 0, "fusion_lon": 0.0, "bike_id": "d189a8e811062ce27e7221ce1b43e936", "name": "d189a8e811062ce27e7221ce1b43e936", "rental_uris": {"ios": "https://dc.lft.to/lastmile_qr_scan", "android": "https://dc.lft.to/lastmile_qr_scan"}}, {"is_disabled": 0, "fusion_lat": 0.0, "lat": 38.90218, "type": "electric_bike", "lon": -76.95046916666666, "is_reserved": 0, "fusion_lon": 0.0, "bike_id": "80b4f48d19e063764090183129a4dcee", "name": "80b4f48d19e063764090183129a4dcee", "rental_uris": {"ios": "https://dc.lft.to/lastmile_qr_scan", "android": "https://dc.lft.to/lastmile_qr_scan"}}, {"is_disabled": 0, "fusion_lat": 0.0, "lat": 38.932423166666666, "type": "electric_scooter", "lon": -77.03282816666666, "is_reserved": 0, "fusion_lon": 0.0, "bike_id": "70a418e53dc9f213f388b0ad07bb8cca", "name": "70a418e53dc9f213f388b0ad07bb8cca", "rental_uris": {"ios": "https://dc.lft.to/lastmile_qr_scan", "android": "https://dc.lft.to/lastmile_qr_scan"}}, {"is_disabled": 0, "fusion_lat": 0.0, "lat": 38.931360166666664, "type": "electric_scooter", "lon": -77.05603066666667, "is_reserved": 0, "fusion_lon": 0.0, "bike_id": "e2f4b88dc41b7f849bf3ae693e3820fb", "name": "e2f4b88dc41b7f849bf3ae693e3820fb", "rental_uris": {"ios": "https://dc.lft.to/lastmile_qr_scan", "android": "https://dc.lft.to/lastmile_qr_scan"}}, {"is_disabled": 0, "fusion_lat": 0.0, "lat": 38.90365, "type": "electric_scooter", "lon": -77.042682, "is_reserved": 0, "fusion_lon": 0.0, "bike_id": "b512bbcc423daf4d5bccc8ddb71f742f", "name": "b512bbcc423daf4d5bccc8ddb71f742f", "rental_uris": {"ios": "https://dc.lft.to/lastmile_qr_scan", "android": "https://dc.lft.to/lastmile_qr_scan"}}, {"is_disabled": 0, "fusion_lat": 0.0, "lat": 38.89829316666667, "type": "electric_scooter", "lon": -77.05018483333333, "is_reserved": 0, "fusion_lon": 0.0, "bike_id": "c8dc6ea969859a4d87eea114a69f7a4a", "name": "c8dc6ea969859a4d87eea114a69f7a4a", "rental_uris": {"ios": "https://dc.lft.to/lastmile_qr_scan", "android": "https://dc.lft.to/lastmile_qr_scan"}}, {"is_disabled": 0, "fusion_lat": 0.0, "lat": 38.924530833333336, "type": "electric_scooter", "lon": -77.03278083333333, "is_reserved": 0, "fusion_lon": 0.0, "bike_id": "87d478b4a8ab0b9d659fdbeee38d0d76", "name": "87d478b4a8ab0b9d659fdbeee38d0d76", "rental_uris": {"ios": "https://dc.lft.to/lastmile_qr_scan", "android": "https://dc.lft.to/lastmile_qr_scan"}}, {"is_disabled": 0, "fusion_lat": 0.0, "lat": 38.9026635, "type": "electric_scooter", "lon": -77.04583066666666, "is_reserved": 0, "fusion_lon": 0.0, "bike_id": "4efaf08f34d2a454afdf102c7970b27b", "name": "4efaf08f34d2a454afdf102c7970b27b", "rental_uris": {"ios": "https://dc.lft.to/lastmile_qr_scan", "android": "https://dc.lft.to/lastmile_qr_scan"}}, {"is_disabled": 0, "fusion_lat": 0.0, "lat": 38.93760483333333, "type": "electric_scooter", "lon": -77.0313625, "is_reserved": 0, "fusion_lon": 0.0, "bike_id": "e833b3f90402466be3074a91fc2fd8e2", "name": "e833b3f90402466be3074a91fc2fd8e2", "rental_uris": {"ios": "https://dc.lft.to/lastmile_qr_scan", "android": "https://dc.lft.to/lastmile_qr_scan"}}, {"is_disabled": 0, "fusion_lat": 0.0, "lat": 38.928498, "type": "electric_bike", "lon": -77.10678166666666, "is_reserved": 0, "fusion_lon": 0.0, "bike_id": "1e80840789aaa9de84fa14e74b4c5251", "name": "1e80840789aaa9de84fa14e74b4c5251", "rental_uris": {"ios": "https://dc.lft.to/lastmile_qr_scan", "android": "https://dc.lft.to/lastmile_qr_scan"}}, {"is_disabled": 0, "fusion_lat": 0.0, "lat": 38.94833416666667, "type": "electric_scooter", "lon": -77.02416866666667, "is_reserved": 0, "fusion_lon": 0.0, "bike_id": "e2c664b2ddea0477654ff51a51eb5891", "name": "e2c664b2ddea0477654ff51a51eb5891", "rental_uris": {"ios": "https://dc.lft.to/lastmile_qr_scan", "android": "https://dc.lft.to/lastmile_qr_scan"}}, {"is_disabled": 0, "fusion_lat": 0.0, "lat": 38.92547783333333, "type": "electric_scooter", "lon": -77.04084833333333, "is_reserved": 0, "fusion_lon": 0.0, "bike_id": "998c949b1af015256d357c96339e6e67", "name": "998c949b1af015256d357c96339e6e67", "rental_uris": {"ios": "https://dc.lft.to/lastmile_qr_scan", "android": "https://dc.lft.to/lastmile_qr_scan"}}, {"is_disabled": 0, "fusion_lat": 0.0, "lat": 38.887244833333334, "type": "electric_scooter", "lon": -77.03175183333333, "is_reserved": 0, "fusion_lon": 0.0, "bike_id": "42edc92c0316587401222d30cbedb781", "name": "42edc92c0316587401222d30cbedb781", "rental_uris": {"ios": "https://dc.lft.to/lastmile_qr_scan", "android": "https://dc.lft.to/lastmile_qr_scan"}}, {"is_disabled": 0, "fusion_lat": 0.0, "lat": 38.807435, "type": "electric_bike", "lon": -77.09425433333334, "is_reserved": 0, "fusion_lon": 0.0, "bike_id": "9761894561ad8ba175b98c87bd3ee303", "name": "9761894561ad8ba175b98c87bd3ee303", "rental_uris": {"ios": "https://dc.lft.to/lastmile_qr_scan", "android": "https://dc.lft.to/lastmile_qr_scan"}}, {"is_disabled": 0, "fusion_lat": 0.0, "lat": 38.906149166666665, "type": "electric_scooter", "lon": -77.06509133333333, "is_reserved": 0, "fusion_lon": 0.0, "bike_id": "4d926a5b44bac68674b7157f1192d4c7", "name": "4d926a5b44bac68674b7157f1192d4c7", "rental_uris": {"ios": "https://dc.lft.to/lastmile_qr_scan", "android": "https://dc.lft.to/lastmile_qr_scan"}}, {"is_disabled": 0, "fusion_lat": 0.0, "lat": 38.93000266666667, "type": "electric_scooter", "lon": -77.0443435, "is_reserved": 0, "fusion_lon": 0.0, "bike_id": "e6933da51f4ab6997a025dc06822c1b6", "name": "e6933da51f4ab6997a025dc06822c1b6", "rental_uris": {"ios": "https://dc.lft.to/lastmile_qr_scan", "android": "https://dc.lft.to/lastmile_qr_scan"}}, {"is_disabled": 0, "fusion_lat": 0.0, "lat": 38.901621166666665, "type": "electric_scooter", "lon": -77.04991133333333, "is_reserved": 0, "fusion_lon": 0.0, "bike_id": "d73f415e8d8c764b62a40f06949b2bcc", "name": "d73f415e8d8c764b62a40f06949b2bcc", "rental_uris": {"ios": "https://dc.lft.to/lastmile_qr_scan", "android": "https://dc.lft.to/lastmile_qr_scan"}}, {"is_disabled": 0, "fusion_lat": 0.0, "lat": 38.910557, "type": "electric_scooter", "lon": -77.045878, "is_reserved": 0, "fusion_lon": 0.0, "bike_id": "3e1deb08a2a9a8667b9d1cbecadbcce9", "name": "3e1deb08a2a9a8667b9d1cbecadbcce9", "rental_uris": {"ios": "https://dc.lft.to/lastmile_qr_scan", "android": "https://dc.lft.to/lastmile_qr_scan"}}, {"is_disabled": 0, "fusion_lat": 0.0, "lat": 38.89878083333333, "type": "electric_scooter", "lon": -76.931576, "is_reserved": 0, "fusion_lon": 0.0, "bike_id": "c969712260863462000dd798bb41d457", "name": "c969712260863462000dd798bb41d457", "rental_uris": {"ios": "https://dc.lft.to/lastmile_qr_scan", "android": "https://dc.lft.to/lastmile_qr_scan"}}, {"is_disabled": 0, "fusion_lat": 0.0, "lat": 38.93151133333333, "type": "electric_scooter", "lon": -77.0309225, "is_reserved": 0, "fusion_lon": 0.0, "bike_id": "ce52b1c475e76399b3c01de1ea9e384b", "name": "ce52b1c475e76399b3c01de1ea9e384b", "rental_uris": {"ios": "https://dc.lft.to/lastmile_qr_scan", "android": "https://dc.lft.to/lastmile_qr_scan"}}, {"is_disabled": 0, "fusion_lat": 0.0, "lat": 38.919680166666666, "type": "electric_scooter", "lon": -77.04149683333333, "is_reserved": 0, "fusion_lon": 0.0, "bike_id": "10fa51ba27c3702a4b64e72eb8aca36a", "name": "10fa51ba27c3702a4b64e72eb8aca36a", "rental_uris": {"ios": "https://dc.lft.to/lastmile_qr_scan", "android": "https://dc.lft.to/lastmile_qr_scan"}}, {"is_disabled": 0, "fusion_lat": 0.0, "lat": 38.93421583333333, "type": "electric_scooter", "lon": -77.04409816666667, "is_reserved": 0, "fusion_lon": 0.0, "bike_id": "8f540589ed60b9b3e9638418123ef389", "name": "8f540589ed60b9b3e9638418123ef389", "rental_uris": {"ios": "https://dc.lft.to/lastmile_qr_scan", "android": "https://dc.lft.to/lastmile_qr_scan"}}, {"is_disabled": 0, "fusion_lat": 0.0, "lat": 38.97089616666667, "type": "electric_bike", "lon": -77.069644, "is_reserved": 0, "fusion_lon": 0.0, "bike_id": "897289e88017562416db12883e86263c", "name": "897289e88017562416db12883e86263c", "rental_uris": {"ios": "https://dc.lft.to/lastmile_qr_scan", "android": "https://dc.lft.to/lastmile_qr_scan"}}, {"is_disabled": 0, "fusion_lat": 0.0, "lat": 38.925842833333334, "type": "electric_scooter", "lon": -77.0047275, "is_reserved": 0, "fusion_lon": 0.0, "bike_id": "d4ec57c1cc7cfba93ec5497759fd3112", "name": "d4ec57c1cc7cfba93ec5497759fd3112", "rental_uris": {"ios": "https://dc.lft.to/lastmile_qr_scan", "android": "https://dc.lft.to/lastmile_qr_scan"}}, {"is_disabled": 0, "fusion_lat": 0.0, "lat": 38.900640333333335, "type": "electric_scooter", "lon": -77.00238933333333, "is_reserved": 0, "fusion_lon": 0.0, "bike_id": "c8f90c69cc2381a94524a775b7784fdd", "name": "c8f90c69cc2381a94524a775b7784fdd", "rental_uris": {"ios": "https://dc.lft.to/lastmile_qr_scan", "android": "https://dc.lft.to/lastmile_qr_scan"}}, {"is_disabled": 0, "fusion_lat": 0.0, "lat": 38.88522783333333, "type": "electric_scooter", "lon": -77.01549416666667, "is_reserved": 0, "fusion_lon": 0.0, "bike_id": "d41491731db52823d29452980eef48da", "name": "d41491731db52823d29452980eef48da", "rental_uris": {"ios": "https://dc.lft.to/lastmile_qr_scan", "android": "https://dc.lft.to/lastmile_qr_scan"}}, {"is_disabled": 0, "fusion_lat": 0.0, "lat": 38.903142333333335, "type": "electric_scooter", "lon": -76.9780125, "is_reserved": 0, "fusion_lon": 0.0, "bike_id": "87e4d71d8b7d4f48f2199cc46bdda266", "name": "87e4d71d8b7d4f48f2199cc46bdda266", "rental_uris": {"ios": "https://dc.lft.to/lastmile_qr_scan", "android": "https://dc.lft.to/lastmile_qr_scan"}}, {"is_disabled": 0, "fusion_lat": 0.0, "lat": 38.867189833333335, "type": "electric_bike", "lon": -76.989537, "is_reserved": 0, "fusion_lon": 0.0, "bike_id": "6f27a029d0313b9bcf66f957f038c48b", "name": "6f27a029d0313b9bcf66f957f038c48b", "rental_uris": {"ios": "https://dc.lft.to/lastmile_qr_scan", "android": "https://dc.lft.to/lastmile_qr_scan"}}, {"is_disabled": 0, "fusion_lat": 0.0, "lat": 38.85696983333333, "type": "electric_scooter", "lon": -76.98949983333333, "is_reserved": 0, "fusion_lon": 0.0, "bike_id": "c57bd55260b26bd4dcb750af69bb3c7c", "name": "c57bd55260b26bd4dcb750af69bb3c7c", "rental_uris": {"ios": "https://dc.lft.to/lastmile_qr_scan", "android": "https://dc.lft.to/lastmile_qr_scan"}}, {"is_disabled": 0, "fusion_lat": 0.0, "lat": 38.89995166666667, "type": "electric_scooter", "lon": -77.026651, "is_reserved": 0, "fusion_lon": 0.0, "bike_id": "6d816c1aee3b31459cecfe150e676139", "name": "6d816c1aee3b31459cecfe150e676139", "rental_uris": {"ios": "https://dc.lft.to/lastmile_qr_scan", "android": "https://dc.lft.to/lastmile_qr_scan"}}, {"is_disabled": 0, "fusion_lat": 0.0, "lat": 38.898745, "type": "electric_scooter", "lon": -76.93179033333334, "is_reserved": 0, "fusion_lon": 0.0, "bike_id": "883089dddc7e08c0655537c1393c064b", "name": "883089dddc7e08c0655537c1393c064b", "rental_uris": {"ios": "https://dc.lft.to/lastmile_qr_scan", "android": "https://dc.lft.to/lastmile_qr_scan"}}, {"is_disabled": 0, "fusion_lat": 0.0, "lat": 38.9250655, "type": "electric_scooter", "lon": -77.038819, "is_reserved": 0, "fusion_lon": 0.0, "bike_id": "ff2f17c06872f2012576bae43293fd15", "name": "ff2f17c06872f2012576bae43293fd15", "rental_uris": {"ios": "https://dc.lft.to/lastmile_qr_scan", "android": "https://dc.lft.to/lastmile_qr_scan"}}, {"is_disabled": 0, "fusion_lat": 0.0, "lat": 38.91328016666667, "type": "electric_scooter", "lon": -77.0481095, "is_reserved": 0, "fusion_lon": 0.0, "bike_id": "10c07adf0b629f9da085ff04deff71ac", "name": "10c07adf0b629f9da085ff04deff71ac", "rental_uris": {"ios": "https://dc.lft.to/lastmile_qr_scan", "android": "https://dc.lft.to/lastmile_qr_scan"}}, {"is_disabled": 0, "fusion_lat": 0.0, "lat": 38.933716, "type": "electric_scooter", "lon": -77.034448, "is_reserved": 0, "fusion_lon": 0.0, "bike_id": "44532a3ed4813a8da59cf2f01c40ea93", "name": "44532a3ed4813a8da59cf2f01c40ea93", "rental_uris": {"ios": "https://dc.lft.to/lastmile_qr_scan", "android": "https://dc.lft.to/lastmile_qr_scan"}}, {"is_disabled": 0, "fusion_lat": 0.0, "lat": 38.91689733333333, "type": "electric_scooter", "lon": -77.03145383333333, "is_reserved": 0, "fusion_lon": 0.0, "bike_id": "ff92a1ac68c1fdcd64751c950824c2ed", "name": "ff92a1ac68c1fdcd64751c950824c2ed", "rental_uris": {"ios": "https://dc.lft.to/lastmile_qr_scan", "android": "https://dc.lft.to/lastmile_qr_scan"}}, {"is_disabled": 0, "fusion_lat": 0.0, "lat": 38.89801533333333, "type": "electric_scooter", "lon": -77.01900966666666, "is_reserved": 0, "fusion_lon": 0.0, "bike_id": "a8692504a75d4ae71f424c17ccdeb1fd", "name": "a8692504a75d4ae71f424c17ccdeb1fd", "rental_uris": {"ios": "https://dc.lft.to/lastmile_qr_scan", "android": "https://dc.lft.to/lastmile_qr_scan"}}, {"is_disabled": 0, "fusion_lat": 0.0, "lat": 38.87921466666667, "type": "electric_scooter", "lon": -76.99248066666667, "is_reserved": 0, "fusion_lon": 0.0, "bike_id": "0361574523870cba40585261f18bc08b", "name": "0361574523870cba40585261f18bc08b", "rental_uris": {"ios": "https://dc.lft.to/lastmile_qr_scan", "android": "https://dc.lft.to/lastmile_qr_scan"}}, {"is_disabled": 0, "fusion_lat": 0.0, "lat": 38.937976166666665, "type": "electric_scooter", "lon": -77.06003566666666, "is_reserved": 0, "fusion_lon": 0.0, "bike_id": "105da60f81d45a104018fb059cf479e8", "name": "105da60f81d45a104018fb059cf479e8", "rental_uris": {"ios": "https://dc.lft.to/lastmile_qr_scan", "android": "https://dc.lft.to/lastmile_qr_scan"}}, {"is_disabled": 0, "fusion_lat": 0.0, "lat": 38.92286433333334, "type": "electric_scooter", "lon": -77.04130533333333, "is_reserved": 0, "fusion_lon": 0.0, "bike_id": "530a5f9da4a06e03554fc48f158e4165", "name": "530a5f9da4a06e03554fc48f158e4165", "rental_uris": {"ios": "https://dc.lft.to/lastmile_qr_scan", "android": "https://dc.lft.to/lastmile_qr_scan"}}, {"is_disabled": 0, "fusion_lat": 0.0, "lat": 38.9130245, "type": "electric_bike", "lon": -77.0828415, "is_reserved": 0, "fusion_lon": 0.0, "bike_id": "ebf41b35beb09aafaa4e02e21b8a96b5", "name": "ebf41b35beb09aafaa4e02e21b8a96b5", "rental_uris": {"ios": "https://dc.lft.to/lastmile_qr_scan", "android": "https://dc.lft.to/lastmile_qr_scan"}}, {"is_disabled": 0, "fusion_lat": 0.0, "lat": 38.898846166666665, "type": "electric_scooter", "lon": -76.931725, "is_reserved": 0, "fusion_lon": 0.0, "bike_id": "ac73a0836077af95521f17e702b84299", "name": "ac73a0836077af95521f17e702b84299", "rental_uris": {"ios": "https://dc.lft.to/lastmile_qr_scan", "android": "https://dc.lft.to/lastmile_qr_scan"}}, {"is_disabled": 0, "fusion_lat": 0.0, "lat": 38.91550466666666, "type": "electric_scooter", "lon": -77.04152666666667, "is_reserved": 0, "fusion_lon": 0.0, "bike_id": "c45664f1499b05f375e6e991f22c889d", "name": "c45664f1499b05f375e6e991f22c889d", "rental_uris": {"ios": "https://dc.lft.to/lastmile_qr_scan", "android": "https://dc.lft.to/lastmile_qr_scan"}}, {"is_disabled": 0, "fusion_lat": 0.0, "lat": 38.9054445, "type": "electric_scooter", "lon": -77.04645233333333, "is_reserved": 0, "fusion_lon": 0.0, "bike_id": "42d96edc7b5009fe407acbecf47ca05a", "name": "42d96edc7b5009fe407acbecf47ca05a", "rental_uris": {"ios": "https://dc.lft.to/lastmile_qr_scan", "android": "https://dc.lft.to/lastmile_qr_scan"}}, {"is_disabled": 0, "fusion_lat": 0.0, "lat": 38.92552583333333, "type": "electric_bike", "lon": -77.00127666666667, "is_reserved": 0, "fusion_lon": 0.0, "bike_id": "69ad91d43f93fd34132ee26e6a4df8c1", "name": "69ad91d43f93fd34132ee26e6a4df8c1", "rental_uris": {"ios": "https://dc.lft.to/lastmile_qr_scan", "android": "https://dc.lft.to/lastmile_qr_scan"}}, {"is_disabled": 0, "fusion_lat": 0.0, "lat": 38.920664333333335, "type": "electric_scooter", "lon": -77.0437355, "is_reserved": 0, "fusion_lon": 0.0, "bike_id": "fec885334f11fe6e126dcbc8d1b4d31e", "name": "fec885334f11fe6e126dcbc8d1b4d31e", "rental_uris": {"ios": "https://dc.lft.to/lastmile_qr_scan", "android": "https://dc.lft.to/lastmile_qr_scan"}}, {"is_disabled": 0, "fusion_lat": 0.0, "lat": 38.8505945, "type": "electric_bike", "lon": -76.97320633333334, "is_reserved": 0, "fusion_lon": 0.0, "bike_id": "fa9cbd8d1f83fbe2763bcac0e920ee68", "name": "fa9cbd8d1f83fbe2763bcac0e920ee68", "rental_uris": {"ios": "https://dc.lft.to/lastmile_qr_scan", "android": "https://dc.lft.to/lastmile_qr_scan"}}, {"is_disabled": 0, "fusion_lat": 0.0, "lat": 38.94024566666667, "type": "electric_scooter", "lon": -77.07169483333334, "is_reserved": 0, "fusion_lon": 0.0, "bike_id": "a2e9245404ff7e7233c1dca365d67800", "name": "a2e9245404ff7e7233c1dca365d67800", "rental_uris": {"ios": "https://dc.lft.to/lastmile_qr_scan", "android": "https://dc.lft.to/lastmile_qr_scan"}}, {"is_disabled": 0, "fusion_lat": 0.0, "lat": 38.8637165, "type": "electric_bike", "lon": -76.97003416666666, "is_reserved": 0, "fusion_lon": 0.0, "bike_id": "2c761e7dacc8bb15241c8c862216b745", "name": "2c761e7dacc8bb15241c8c862216b745", "rental_uris": {"ios": "https://dc.lft.to/lastmile_qr_scan", "android": "https://dc.lft.to/lastmile_qr_scan"}}, {"is_disabled": 0, "fusion_lat": 0.0, "lat": 38.928879, "type": "electric_scooter", "lon": -77.032738, "is_reserved": 0, "fusion_lon": 0.0, "bike_id": "7b0037dc26e6e6a17bff269b15630cf7", "name": "7b0037dc26e6e6a17bff269b15630cf7", "rental_uris": {"ios": "https://dc.lft.to/lastmile_qr_scan", "android": "https://dc.lft.to/lastmile_qr_scan"}}, {"is_disabled": 0, "fusion_lat": 0.0, "lat": 38.914532666666666, "type": "electric_scooter", "lon": -77.04606383333333, "is_reserved": 0, "fusion_lon": 0.0, "bike_id": "017bc766d64337614fd516ba1404e68d", "name": "017bc766d64337614fd516ba1404e68d", "rental_uris": {"ios": "https://dc.lft.to/lastmile_qr_scan", "android": "https://dc.lft.to/lastmile_qr_scan"}}, {"is_disabled": 0, "fusion_lat": 0.0, "lat": 38.902591666666666, "type": "electric_scooter", "lon": -77.05304566666666, "is_reserved": 0, "fusion_lon": 0.0, "bike_id": "6b875a3f2e16d8a085f7d2b9e7613e8d", "name": "6b875a3f2e16d8a085f7d2b9e7613e8d", "rental_uris": {"ios": "https://dc.lft.to/lastmile_qr_scan", "android": "https://dc.lft.to/lastmile_qr_scan"}}, {"is_disabled": 0, "fusion_lat": 0.0, "lat": 38.917053333333335, "type": "electric_scooter", "lon": -77.03868066666666, "is_reserved": 0, "fusion_lon": 0.0, "bike_id": "4b229d8ae0236c4d1c43bd20bd135673", "name": "4b229d8ae0236c4d1c43bd20bd135673", "rental_uris": {"ios": "https://dc.lft.to/lastmile_qr_scan", "android": "https://dc.lft.to/lastmile_qr_scan"}}, {"is_disabled": 0, "fusion_lat": 0.0, "lat": 38.90029916666667, "type": "electric_scooter", "lon": -77.01216816666667, "is_reserved": 0, "fusion_lon": 0.0, "bike_id": "a9d7f86fd3dc9637235eea21eec98170", "name": "a9d7f86fd3dc9637235eea21eec98170", "rental_uris": {"ios": "https://dc.lft.to/lastmile_qr_scan", "android": "https://dc.lft.to/lastmile_qr_scan"}}, {"is_disabled": 0, "fusion_lat": 0.0, "lat": 38.91615, "type": "electric_scooter", "lon": -77.031495, "is_reserved": 0, "fusion_lon": 0.0, "bike_id": "8a47df7b97e82f7d673da3f3e3d34f89", "name": "8a47df7b97e82f7d673da3f3e3d34f89", "rental_uris": {"ios": "https://dc.lft.to/lastmile_qr_scan", "android": "https://dc.lft.to/lastmile_qr_scan"}}, {"is_disabled": 0, "fusion_lat": 0.0, "lat": 38.89764783333333, "type": "electric_scooter", "lon": -77.03171433333333, "is_reserved": 0, "fusion_lon": 0.0, "bike_id": "a66813bb2fc70310a61769edbd29ba16", "name": "a66813bb2fc70310a61769edbd29ba16", "rental_uris": {"ios": "https://dc.lft.to/lastmile_qr_scan", "android": "https://dc.lft.to/lastmile_qr_scan"}}, {"is_disabled": 0, "fusion_lat": 0.0, "lat": 38.9170715, "type": "electric_scooter", "lon": -77.0334945, "is_reserved": 0, "fusion_lon": 0.0, "bike_id": "82575be612e6059339a337a92da8bd47", "name": "82575be612e6059339a337a92da8bd47", "rental_uris": {"ios": "https://dc.lft.to/lastmile_qr_scan", "android": "https://dc.lft.to/lastmile_qr_scan"}}, {"is_disabled": 0, "fusion_lat": 0.0, "lat": 38.90279966666667, "type": "electric_scooter", "lon": -77.038279, "is_reserved": 0, "fusion_lon": 0.0, "bike_id": "b68ba4c642585476ed74397e7a923123", "name": "b68ba4c642585476ed74397e7a923123", "rental_uris": {"ios": "https://dc.lft.to/lastmile_qr_scan", "android": "https://dc.lft.to/lastmile_qr_scan"}}, {"is_disabled": 0, "fusion_lat": 0.0, "lat": 38.932103, "type": "electric_scooter", "lon": -77.02352266666666, "is_reserved": 0, "fusion_lon": 0.0, "bike_id": "984e70df7f6d4286da7fa4bcbb330497", "name": "984e70df7f6d4286da7fa4bcbb330497", "rental_uris": {"ios": "https://dc.lft.to/lastmile_qr_scan", "android": "https://dc.lft.to/lastmile_qr_scan"}}, {"is_disabled": 0, "fusion_lat": 0.0, "lat": 38.973201, "type": "electric_bike", "lon": -77.02142083333334, "is_reserved": 0, "fusion_lon": 0.0, "bike_id": "d562e6e0c0356a6d584533161d237c71", "name": "d562e6e0c0356a6d584533161d237c71", "rental_uris": {"ios": "https://dc.lft.to/lastmile_qr_scan", "android": "https://dc.lft.to/lastmile_qr_scan"}}, {"is_disabled": 0, "fusion_lat": 0.0, "lat": 38.90301766666666, "type": "electric_scooter", "lon": -76.99249, "is_reserved": 0, "fusion_lon": 0.0, "bike_id": "b5cc5b931e1108957efa72b1c6790e7d", "name": "b5cc5b931e1108957efa72b1c6790e7d", "rental_uris": {"ios": "https://dc.lft.to/lastmile_qr_scan", "android": "https://dc.lft.to/lastmile_qr_scan"}}, {"is_disabled": 0, "fusion_lat": 0.0, "lat": 38.86221833333333, "type": "electric_scooter", "lon": -76.9946155, "is_reserved": 0, "fusion_lon": 0.0, "bike_id": "dc7a177164cacac37718799356d41490", "name": "dc7a177164cacac37718799356d41490", "rental_uris": {"ios": "https://dc.lft.to/lastmile_qr_scan", "android": "https://dc.lft.to/lastmile_qr_scan"}}, {"is_disabled": 0, "fusion_lat": 0.0, "lat": 38.90974033333333, "type": "electric_scooter", "lon": -77.03444633333334, "is_reserved": 0, "fusion_lon": 0.0, "bike_id": "4cbf989c09283d4f2e98bff68da41a72", "name": "4cbf989c09283d4f2e98bff68da41a72", "rental_uris": {"ios": "https://dc.lft.to/lastmile_qr_scan", "android": "https://dc.lft.to/lastmile_qr_scan"}}, {"is_disabled": 0, "fusion_lat": 0.0, "lat": 38.844287, "type": "electric_scooter", "lon": -76.99777266666666, "is_reserved": 0, "fusion_lon": 0.0, "bike_id": "54e25600e700586816852d267bc8ef76", "name": "54e25600e700586816852d267bc8ef76", "rental_uris": {"ios": "https://dc.lft.to/lastmile_qr_scan", "android": "https://dc.lft.to/lastmile_qr_scan"}}, {"is_disabled": 0, "fusion_lat": 0.0, "lat": 38.898352, "type": "electric_scooter", "lon": -76.9463425, "is_reserved": 0, "fusion_lon": 0.0, "bike_id": "5f1e9a2408c061c933abc201c590eb81", "name": "5f1e9a2408c061c933abc201c590eb81", "rental_uris": {"ios": "https://dc.lft.to/lastmile_qr_scan", "android": "https://dc.lft.to/lastmile_qr_scan"}}, {"is_disabled": 0, "fusion_lat": 0.0, "lat": 38.907133, "type": "electric_scooter", "lon": -77.04342483333333, "is_reserved": 0, "fusion_lon": 0.0, "bike_id": "b1d1bd483dcc450fe19a9f23c16825dd", "name": "b1d1bd483dcc450fe19a9f23c16825dd", "rental_uris": {"ios": "https://dc.lft.to/lastmile_qr_scan", "android": "https://dc.lft.to/lastmile_qr_scan"}}, {"is_disabled": 0, "fusion_lat": 0.0, "lat": 38.91170283333334, "type": "electric_scooter", "lon": -77.06859183333333, "is_reserved": 0, "fusion_lon": 0.0, "bike_id": "8c0c12ec00534be6945263cded8ee66d", "name": "8c0c12ec00534be6945263cded8ee66d", "rental_uris": {"ios": "https://dc.lft.to/lastmile_qr_scan", "android": "https://dc.lft.to/lastmile_qr_scan"}}, {"is_disabled": 0, "fusion_lat": 0.0, "lat": 38.94552766666666, "type": "electric_bike", "lon": -76.89533166666666, "is_reserved": 0, "fusion_lon": 0.0, "bike_id": "4dad32e834ef07f6fcad8ced21caad84", "name": "4dad32e834ef07f6fcad8ced21caad84", "rental_uris": {"ios": "https://dc.lft.to/lastmile_qr_scan", "android": "https://dc.lft.to/lastmile_qr_scan"}}, {"is_disabled": 0, "fusion_lat": 0.0, "lat": 38.95249066666667, "type": "electric_scooter", "lon": -77.06977983333333, "is_reserved": 0, "fusion_lon": 0.0, "bike_id": "6f8578495370aaa90ab79146169c0dd5", "name": "6f8578495370aaa90ab79146169c0dd5", "rental_uris": {"ios": "https://dc.lft.to/lastmile_qr_scan", "android": "https://dc.lft.to/lastmile_qr_scan"}}, {"is_disabled": 0, "fusion_lat": 0.0, "lat": 38.9257325, "type": "electric_scooter", "lon": -77.02840166666667, "is_reserved": 0, "fusion_lon": 0.0, "bike_id": "04b1568545daab9f6670b9e76f1e444f", "name": "04b1568545daab9f6670b9e76f1e444f", "rental_uris": {"ios": "https://dc.lft.to/lastmile_qr_scan", "android": "https://dc.lft.to/lastmile_qr_scan"}}, {"is_disabled": 0, "fusion_lat": 0.0, "lat": 38.949297333333334, "type": "electric_bike", "lon": -77.016191, "is_reserved": 0, "fusion_lon": 0.0, "bike_id": "470ef516064f37f9a3a13fa4e68b21a0", "name": "470ef516064f37f9a3a13fa4e68b21a0", "rental_uris": {"ios": "https://dc.lft.to/lastmile_qr_scan", "android": "https://dc.lft.to/lastmile_qr_scan"}}, {"is_disabled": 0, "fusion_lat": 0.0, "lat": 38.909595, "type": "electric_scooter", "lon": -77.014371, "is_reserved": 0, "fusion_lon": 0.0, "bike_id": "9aed1b9ba601927d8a95e399f2f0c6d5", "name": "9aed1b9ba601927d8a95e399f2f0c6d5", "rental_uris": {"ios": "https://dc.lft.to/lastmile_qr_scan", "android": "https://dc.lft.to/lastmile_qr_scan"}}, {"is_disabled": 0, "fusion_lat": 0.0, "lat": 38.920739833333336, "type": "electric_scooter", "lon": -77.02389666666667, "is_reserved": 0, "fusion_lon": 0.0, "bike_id": "42f55f109d356d4b462951a04af8604d", "name": "42f55f109d356d4b462951a04af8604d", "rental_uris": {"ios": "https://dc.lft.to/lastmile_qr_scan", "android": "https://dc.lft.to/lastmile_qr_scan"}}, {"is_disabled": 0, "fusion_lat": 0.0, "lat": 38.9049885, "type": "electric_scooter", "lon": -77.06286316666667, "is_reserved": 0, "fusion_lon": 0.0, "bike_id": "1d36e45d748e8ce7672de18e98c807dc", "name": "1d36e45d748e8ce7672de18e98c807dc", "rental_uris": {"ios": "https://dc.lft.to/lastmile_qr_scan", "android": "https://dc.lft.to/lastmile_qr_scan"}}, {"is_disabled": 0, "fusion_lat": 0.0, "lat": 38.9245085, "type": "electric_scooter", "lon": -77.03273733333333, "is_reserved": 0, "fusion_lon": 0.0, "bike_id": "a389f7ea49f313e4178c7d1aff61f15c", "name": "a389f7ea49f313e4178c7d1aff61f15c", "rental_uris": {"ios": "https://dc.lft.to/lastmile_qr_scan", "android": "https://dc.lft.to/lastmile_qr_scan"}}, {"is_disabled": 0, "fusion_lat": 0.0, "lat": 38.8961625, "type": "electric_scooter", "lon": -77.02791283333333, "is_reserved": 0, "fusion_lon": 0.0, "bike_id": "32d6c609ebb5378fd7e66679aa6d20b7", "name": "32d6c609ebb5378fd7e66679aa6d20b7", "rental_uris": {"ios": "https://dc.lft.to/lastmile_qr_scan", "android": "https://dc.lft.to/lastmile_qr_scan"}}, {"is_disabled": 0, "fusion_lat": 0.0, "lat": 38.86276616666667, "type": "electric_scooter", "lon": -76.99236866666666, "is_reserved": 0, "fusion_lon": 0.0, "bike_id": "0e11e8b13084697bb9888274f5cde582", "name": "0e11e8b13084697bb9888274f5cde582", "rental_uris": {"ios": "https://dc.lft.to/lastmile_qr_scan", "android": "https://dc.lft.to/lastmile_qr_scan"}}, {"is_disabled": 0, "fusion_lat": 0.0, "lat": 38.923953, "type": "electric_scooter", "lon": -77.02552783333333, "is_reserved": 0, "fusion_lon": 0.0, "bike_id": "2132d97960510484b9297100e3be3d2e", "name": "2132d97960510484b9297100e3be3d2e", "rental_uris": {"ios": "https://dc.lft.to/lastmile_qr_scan", "android": "https://dc.lft.to/lastmile_qr_scan"}}, {"is_disabled": 0, "fusion_lat": 0.0, "lat": 38.941696666666665, "type": "electric_scooter", "lon": -77.0253105, "is_reserved": 0, "fusion_lon": 0.0, "bike_id": "0a73c7b16ac3709d7b77ced6c8a6ae7f", "name": "0a73c7b16ac3709d7b77ced6c8a6ae7f", "rental_uris": {"ios": "https://dc.lft.to/lastmile_qr_scan", "android": "https://dc.lft.to/lastmile_qr_scan"}}, {"is_disabled": 0, "fusion_lat": 0.0, "lat": 38.94174366666667, "type": "electric_scooter", "lon": -77.023301, "is_reserved": 0, "fusion_lon": 0.0, "bike_id": "b07ad9b7a4ce83f8d5dc6854f9830879", "name": "b07ad9b7a4ce83f8d5dc6854f9830879", "rental_uris": {"ios": "https://dc.lft.to/lastmile_qr_scan", "android": "https://dc.lft.to/lastmile_qr_scan"}}, {"is_disabled": 0, "fusion_lat": 0.0, "lat": 38.9981995, "type": "electric_bike", "lon": -76.88375966666666, "is_reserved": 0, "fusion_lon": 0.0, "bike_id": "b36e00fb9308fb2878ba8246ceba6f98", "name": "b36e00fb9308fb2878ba8246ceba6f98", "rental_uris": {"ios": "https://dc.lft.to/lastmile_qr_scan", "android": "https://dc.lft.to/lastmile_qr_scan"}}, {"is_disabled": 0, "fusion_lat": 0.0, "lat": 38.903955833333335, "type": "electric_scooter", "lon": -77.011056, "is_reserved": 0, "fusion_lon": 0.0, "bike_id": "2d236f78bf63f067516314fdfccc6520", "name": "2d236f78bf63f067516314fdfccc6520", "rental_uris": {"ios": "https://dc.lft.to/lastmile_qr_scan", "android": "https://dc.lft.to/lastmile_qr_scan"}}, {"is_disabled": 0, "fusion_lat": 0.0, "lat": 38.925531166666666, "type": "electric_scooter", "lon": -77.05295283333334, "is_reserved": 0, "fusion_lon": 0.0, "bike_id": "be41942f4d5cfedabb3b3e3e8f24aba6", "name": "be41942f4d5cfedabb3b3e3e8f24aba6", "rental_uris": {"ios": "https://dc.lft.to/lastmile_qr_scan", "android": "https://dc.lft.to/lastmile_qr_scan"}}, {"is_disabled": 0, "fusion_lat": 0.0, "lat": 38.9519655, "type": "electric_bike", "lon": -76.96722016666666, "is_reserved": 0, "fusion_lon": 0.0, "bike_id": "76b76cb902c05acb86d4386b42cd8d6d", "name": "76b76cb902c05acb86d4386b42cd8d6d", "rental_uris": {"ios": "https://dc.lft.to/lastmile_qr_scan", "android": "https://dc.lft.to/lastmile_qr_scan"}}, {"is_disabled": 0, "fusion_lat": 0.0, "lat": 38.9416855, "type": "electric_scooter", "lon": -77.0412545, "is_reserved": 0, "fusion_lon": 0.0, "bike_id": "5efeec6be80a9a55e2598225eae13356", "name": "5efeec6be80a9a55e2598225eae13356", "rental_uris": {"ios": "https://dc.lft.to/lastmile_qr_scan", "android": "https://dc.lft.to/lastmile_qr_scan"}}, {"is_disabled": 0, "fusion_lat": 0.0, "lat": 38.906800833333335, "type": "electric_scooter", "lon": -77.0635255, "is_reserved": 0, "fusion_lon": 0.0, "bike_id": "860f272f96434cc62be6e3386bf7835b", "name": "860f272f96434cc62be6e3386bf7835b", "rental_uris": {"ios": "https://dc.lft.to/lastmile_qr_scan", "android": "https://dc.lft.to/lastmile_qr_scan"}}, {"is_disabled": 0, "fusion_lat": 0.0, "lat": 38.863884166666665, "type": "electric_bike", "lon": -76.98989216666666, "is_reserved": 0, "fusion_lon": 0.0, "bike_id": "f429e1b33f76c6441de0135c1d88c3f3", "name": "f429e1b33f76c6441de0135c1d88c3f3", "rental_uris": {"ios": "https://dc.lft.to/lastmile_qr_scan", "android": "https://dc.lft.to/lastmile_qr_scan"}}, {"is_disabled": 0, "fusion_lat": 0.0, "lat": 38.91229366666666, "type": "electric_scooter", "lon": -77.04872916666666, "is_reserved": 0, "fusion_lon": 0.0, "bike_id": "2b01a2bd4b2de0cffb71b821bb63edb6", "name": "2b01a2bd4b2de0cffb71b821bb63edb6", "rental_uris": {"ios": "https://dc.lft.to/lastmile_qr_scan", "android": "https://dc.lft.to/lastmile_qr_scan"}}, {"is_disabled": 0, "fusion_lat": 0.0, "lat": 38.933186666666664, "type": "electric_scooter", "lon": -77.032802, "is_reserved": 0, "fusion_lon": 0.0, "bike_id": "3ab2d80fd561bda5856601a53ea93b6c", "name": "3ab2d80fd561bda5856601a53ea93b6c", "rental_uris": {"ios": "https://dc.lft.to/lastmile_qr_scan", "android": "https://dc.lft.to/lastmile_qr_scan"}}, {"is_disabled": 0, "fusion_lat": 0.0, "lat": 38.903477333333335, "type": "electric_scooter", "lon": -76.97559533333333, "is_reserved": 0, "fusion_lon": 0.0, "bike_id": "1ba413853e7c0a1de64175a3e0721c85", "name": "1ba413853e7c0a1de64175a3e0721c85", "rental_uris": {"ios": "https://dc.lft.to/lastmile_qr_scan", "android": "https://dc.lft.to/lastmile_qr_scan"}}, {"is_disabled": 0, "fusion_lat": 0.0, "lat": 38.91339966666666, "type": "electric_scooter", "lon": -77.0300855, "is_reserved": 0, "fusion_lon": 0.0, "bike_id": "878c86e32a80dc9c68a828c4cab12639", "name": "878c86e32a80dc9c68a828c4cab12639", "rental_uris": {"ios": "https://dc.lft.to/lastmile_qr_scan", "android": "https://dc.lft.to/lastmile_qr_scan"}}, {"is_disabled": 0, "fusion_lat": 0.0, "lat": 38.91262916666667, "type": "electric_scooter", "lon": -77.038658, "is_reserved": 0, "fusion_lon": 0.0, "bike_id": "c8199743e4942c427ecde9e863514f19", "name": "c8199743e4942c427ecde9e863514f19", "rental_uris": {"ios": "https://dc.lft.to/lastmile_qr_scan", "android": "https://dc.lft.to/lastmile_qr_scan"}}, {"is_disabled": 0, "fusion_lat": 0.0, "lat": 38.89916133333333, "type": "electric_scooter", "lon": -76.93375383333333, "is_reserved": 0, "fusion_lon": 0.0, "bike_id": "fb1086b0aead48ba25a852efd23a932e", "name": "fb1086b0aead48ba25a852efd23a932e", "rental_uris": {"ios": "https://dc.lft.to/lastmile_qr_scan", "android": "https://dc.lft.to/lastmile_qr_scan"}}, {"is_disabled": 0, "fusion_lat": 0.0, "lat": 38.92831066666667, "type": "electric_scooter", "lon": -77.03246933333334, "is_reserved": 0, "fusion_lon": 0.0, "bike_id": "c8a5bb5821fc57d7ee6bb391893ce206", "name": "c8a5bb5821fc57d7ee6bb391893ce206", "rental_uris": {"ios": "https://dc.lft.to/lastmile_qr_scan", "android": "https://dc.lft.to/lastmile_qr_scan"}}, {"is_disabled": 0, "fusion_lat": 0.0, "lat": 38.92320733333333, "type": "electric_scooter", "lon": -77.03804316666667, "is_reserved": 0, "fusion_lon": 0.0, "bike_id": "35be069e08491fb8b7443d8e76f9f17a", "name": "35be069e08491fb8b7443d8e76f9f17a", "rental_uris": {"ios": "https://dc.lft.to/lastmile_qr_scan", "android": "https://dc.lft.to/lastmile_qr_scan"}}, {"is_disabled": 0, "fusion_lat": 0.0, "lat": 38.92074616666667, "type": "electric_scooter", "lon": -77.03179133333333, "is_reserved": 0, "fusion_lon": 0.0, "bike_id": "78306dd3044c9a05790200f143191025", "name": "78306dd3044c9a05790200f143191025", "rental_uris": {"ios": "https://dc.lft.to/lastmile_qr_scan", "android": "https://dc.lft.to/lastmile_qr_scan"}}, {"is_disabled": 0, "fusion_lat": 0.0, "lat": 38.91048283333333, "type": "electric_scooter", "lon": -77.01508433333333, "is_reserved": 0, "fusion_lon": 0.0, "bike_id": "856e069c44b8d63344b89d6f7c8de1ba", "name": "856e069c44b8d63344b89d6f7c8de1ba", "rental_uris": {"ios": "https://dc.lft.to/lastmile_qr_scan", "android": "https://dc.lft.to/lastmile_qr_scan"}}, {"is_disabled": 0, "fusion_lat": 0.0, "lat": 38.916646, "type": "electric_scooter", "lon": -77.03840783333334, "is_reserved": 0, "fusion_lon": 0.0, "bike_id": "0105470c2fad8998a5315168b4264b59", "name": "0105470c2fad8998a5315168b4264b59", "rental_uris": {"ios": "https://dc.lft.to/lastmile_qr_scan", "android": "https://dc.lft.to/lastmile_qr_scan"}}, {"is_disabled": 0, "fusion_lat": 0.0, "lat": 38.91116866666667, "type": "electric_scooter", "lon": -77.03827033333333, "is_reserved": 0, "fusion_lon": 0.0, "bike_id": "bcd6a105f39413f222bd2141d0928b8c", "name": "bcd6a105f39413f222bd2141d0928b8c", "rental_uris": {"ios": "https://dc.lft.to/lastmile_qr_scan", "android": "https://dc.lft.to/lastmile_qr_scan"}}, {"is_disabled": 0, "fusion_lat": 0.0, "lat": 38.933476666666664, "type": "electric_scooter", "lon": -77.058636, "is_reserved": 0, "fusion_lon": 0.0, "bike_id": "d605ea7412f083db6fccd73086352676", "name": "d605ea7412f083db6fccd73086352676", "rental_uris": {"ios": "https://dc.lft.to/lastmile_qr_scan", "android": "https://dc.lft.to/lastmile_qr_scan"}}, {"is_disabled": 0, "fusion_lat": 0.0, "lat": 38.9316345, "type": "electric_scooter", "lon": -77.03626666666666, "is_reserved": 0, "fusion_lon": 0.0, "bike_id": "70495a52177fee9119a78cf3f269bf99", "name": "70495a52177fee9119a78cf3f269bf99", "rental_uris": {"ios": "https://dc.lft.to/lastmile_qr_scan", "android": "https://dc.lft.to/lastmile_qr_scan"}}, {"is_disabled": 0, "fusion_lat": 0.0, "lat": 38.86101766666667, "type": "electric_scooter", "lon": -76.98332316666666, "is_reserved": 0, "fusion_lon": 0.0, "bike_id": "3468963ef73f37241c6856091fd9d95d", "name": "3468963ef73f37241c6856091fd9d95d", "rental_uris": {"ios": "https://dc.lft.to/lastmile_qr_scan", "android": "https://dc.lft.to/lastmile_qr_scan"}},