{"data": {"bikes": [{"rental_uris": {"ios": "https://dc.lft.to/lastmile_qr_scan", "android": "https://dc.lft.to/lastmile_qr_scan"}, "type": "electric_scooter", "name": "c70920300e5558cf7194c3b5eedbe4bf", "is_reserved": 0, "lon": -77.03839, "is_disabled": 0, "fusion_lat": 0.0, "lat": 38.916534666666664, "bike_id": "c70920300e5558cf7194c3b5eedbe4bf", "fusion_lon": 0.0}, {"rental_uris": {"ios": "https://dc.lft.to/lastmile_qr_scan", "android": "https://dc.lft.to/lastmile_qr_scan"}, "type": "electric_scooter", "name": "e83c4f2f82b2e6329e745e8a8ae9b5b3", "is_reserved": 0, "lon": -76.93376866666667, "is_disabled": 0, "fusion_lat": 0.0, "lat": 38.89864633333333, "bike_id": "e83c4f2f82b2e6329e745e8a8ae9b5b3", "fusion_lon": 0.0}, {"rental_uris": {"ios": "https://dc.lft.to/lastmile_qr_scan", "android": "https://dc.lft.to/lastmile_qr_scan"}, "type": "electric_scooter", "name": "97db983b7427d45ba4986dc35c5541de", "is_reserved": 0, "lon": -77.03659983333333, "is_disabled": 0, "fusion_lat": 0.0, "lat": 38.93205183333333, "bike_id": "97db983b7427d45ba4986dc35c5541de", "fusion_lon": 0.0}, {"rental_uris": {"ios": "https://dc.lft.to/lastmile_qr_scan", "android": "https://dc.lft.to/lastmile_qr_scan"}, "type": "electric_bike", "name": "c691a04660214c3f1bef876a86df705c", "is_reserved": 0, "lon": -76.99443816666667, "is_disabled": 0, "fusion_lat": 0.0, "lat": 38.831048833333334, "bike_id": "c691a04660214c3f1bef876a86df705c", "fusion_lon": 0.0}, {"rental_uris": {"ios": "https://dc.lft.to/lastmile_qr_scan", "android": "https://dc.lft.to/lastmile_qr_scan"}, "type": "electric_scooter", "name": "875a5dc77866a62721b4c5fe463249fa", "is_reserved": 0, "lon": -77.03186933333333, "is_disabled": 0, "fusion_lat": 0.0, "lat": 38.91819566666667, "bike_id": "875a5dc77866a62721b4c5fe463249fa", "fusion_lon": 0.0}, {"rental_uris": {"ios": "https://dc.lft.to/lastmile_qr_scan", "android": "https://dc.lft.to/lastmile_qr_scan"}, "type": "electric_scooter", "name": "3e76feaf1e33f24f774dd3cd05296aba", "is_reserved": 0, "lon": -76.98888883333333, "is_disabled": 0, "fusion_lat": 0.0, "lat": 38.906530333333336, "bike_id": "3e76feaf1e33f24f774dd3cd05296aba", "fusion_lon": 0.0}, {"rental_uris": {"ios": "https://dc.lft.to/lastmile_qr_scan", "android": "https://dc.lft.to/lastmile_qr_scan"}, "type": "electric_scooter", "name": "7281bbf367069256e80c9a5e0fe57a0b", "is_reserved": 0, "lon": -77.002362, "is_disabled": 0, "fusion_lat": 0.0, "lat": 38.90023033333333, "bike_id": "7281bbf367069256e80c9a5e0fe57a0b", "fusion_lon": 0.0}, {"rental_uris": {"ios": "https://dc.lft.to/lastmile_qr_scan", "android": "https://dc.lft.to/lastmile_qr_scan"}, "type": "electric_scooter", "name": "dc86a466f4ce0fcab201b0cc175f357b", "is_reserved": 0, "lon": -77.020548, "is_disabled": 0, "fusion_lat": 0.0, "lat": 38.929278333333336, "bike_id": "dc86a466f4ce0fcab201b0cc175f357b", "fusion_lon": 0.0}, {"rental_uris": {"ios": "https://dc.lft.to/lastmile_qr_scan", "android": "https://dc.lft.to/lastmile_qr_scan"}, "type": "electric_scooter", "name": "8cf20c0f2c8d56eff2c2fb87c26eb00c", "is_reserved": 0, "lon": -77.04852733333334, "is_disabled": 0, "fusion_lat": 0.0, "lat": 38.91264966666667, "bike_id": "8cf20c0f2c8d56eff2c2fb87c26eb00c", "fusion_lon": 0.0}, {"rental_uris": {"ios": "https://dc.lft.to/lastmile_qr_scan", "android": "https://dc.lft.to/lastmile_qr_scan"}, "type": "electric_scooter", "name": "4b3e5f9804f8689370ef9a1c32d15706", "is_reserved": 0, "lon": -77.03652266666667, "is_disabled": 0, "fusion_lat": 0.0, "lat": 38.9212185, "bike_id": "4b3e5f9804f8689370ef9a1c32d15706", "fusion_lon": 0.0}, {"rental_uris": {"ios": "https://dc.lft.to/lastmile_qr_scan", "android": "https://dc.lft.to/lastmile_qr_scan"}, "type": "electric_scooter", "name": "2d9f6c1a1cbb92173d42e9d27ae07888", "is_reserved": 0, "lon": -77.0215295, "is_disabled": 0, "fusion_lat": 0.0, "lat": 38.887424, "bike_id": "2d9f6c1a1cbb92173d42e9d27ae07888", "fusion_lon": 0.0}, {"rental_uris": {"ios": "https://dc.lft.to/lastmile_qr_scan", "android": "https://dc.lft.to/lastmile_qr_scan"}, "type": "electric_scooter", "name": "b2acda1977574ff97872de19064e93c3", "is_reserved": 0, "lon": -77.025343, "is_disabled": 0, "fusion_lat": 0.0, "lat": 38.945345, "bike_id": "b2acda1977574ff97872de19064e93c3", "fusion_lon": 0.0}, {"rental_uris": {"ios": "https://dc.lft.to/lastmile_qr_scan", "android": "https://dc.lft.to/lastmile_qr_scan"}, "type": "electric_scooter", "name": "d26f7638b728a2f614aa50ef455705f1", "is_reserved": 0, "lon": -77.0494185, "is_disabled": 0, "fusion_lat": 0.0, "lat": 38.909789333333336, "bike_id": "d26f7638b728a2f614aa50ef455705f1", "fusion_lon": 0.0}, {"rental_uris": {"ios": "https://dc.lft.to/lastmile_qr_scan", "android": "https://dc.lft.to/lastmile_qr_scan"}, "type": "electric_scooter", "name": "152175bba9fd37a6def0263ac6502026", "is_reserved": 0, "lon": -77.02356283333333, "is_disabled": 0, "fusion_lat": 0.0, "lat": 38.945262666666665, "bike_id": "152175bba9fd37a6def0263ac6502026", "fusion_lon": 0.0}, {"rental_uris": {"ios": "https://dc.lft.to/lastmile_qr_scan", "android": "https://dc.lft.to/lastmile_qr_scan"}, "type": "electric_scooter", "name": "c8892e655ae45fd9f9ee0874d04528c3", "is_reserved": 0, "lon": -77.04505366666666, "is_disabled": 0, "fusion_lat": 0.0, "lat": 38.89222683333333, "bike_id": "c8892e655ae45fd9f9ee0874d04528c3", "fusion_lon": 0.0}, {"rental_uris": {"ios": "https://dc.lft.to/lastmile_qr_scan", "android": "https://dc.lft.to/lastmile_qr_scan"}, "type": "electric_scooter", "name": "ce5e8c1dfeb5ffa6d6b78d2007442629", "is_reserved": 0, "lon": -77.03025966666667, "is_disabled": 0, "fusion_lat": 0.0, "lat": 38.92248766666667, "bike_id": "ce5e8c1dfeb5ffa6d6b78d2007442629", "fusion_lon": 0.0}, {"rental_uris": {"ios": "https://dc.lft.to/lastmile_qr_scan", "android": "https://dc.lft.to/lastmile_qr_scan"}, "type": "electric_scooter", "name": "acee171f60f147242346976c221704dd", "is_reserved": 0, "lon": -77.02708266666667, "is_disabled": 0, "fusion_lat": 0.0, "lat": 38.905962, "bike_id": "acee171f60f147242346976c221704dd", "fusion_lon": 0.0}, {"rental_uris": {"ios": "https://dc.lft.to/lastmile_qr_scan", "android": "https://dc.lft.to/lastmile_qr_scan"}, "type": "electric_scooter", "name": "6ccb80c9060dacebcc00897927ff2c10", "is_reserved": 0, "lon": -77.02221116666666, "is_disabled": 0, "fusion_lat": 0.0, "lat": 38.8935545, "bike_id": "6ccb80c9060dacebcc00897927ff2c10", "fusion_lon": 0.0}, {"rental_uris": {"ios": "https://dc.lft.to/lastmile_qr_scan", "android": "https://dc.lft.to/lastmile_qr_scan"}, "type": "electric_scooter", "name": "61e0c234e3d6682ea0df53aaf71156f9", "is_reserved": 0, "lon": -77.0387, "is_disabled": 0, "fusion_lat": 0.0, "lat": 38.921533, "bike_id": "61e0c234e3d6682ea0df53aaf71156f9", "fusion_lon": 0.0}, {"rental_uris": {"ios": "https://dc.lft.to/lastmile_qr_scan", "android": "https://dc.lft.to/lastmile_qr_scan"}, "type": "electric_scooter", "name": "2b9f8cfd4b1abf18818dadd8b58b8005", "is_reserved": 0, "lon": -76.99877116666667, "is_disabled": 0, "fusion_lat": 0.0, "lat": 38.90028083333333, "bike_id": "2b9f8cfd4b1abf18818dadd8b58b8005", "fusion_lon": 0.0}, {"rental_uris": {"ios": "https://dc.lft.to/lastmile_qr_scan", "android": "https://dc.lft.to/lastmile_qr_scan"}, "type": "electric_bike", "name": "4f4b08dc631d7b6c4892e61b1be6f96b", "is_reserved": 0, "lon": -77.01231566666667, "is_disabled": 0, "fusion_lat": 0.0, "lat": 38.95085233333333, "bike_id": "4f4b08dc631d7b6c4892e61b1be6f96b", "fusion_lon": 0.0}, {"rental_uris": {"ios": "https://dc.lft.to/lastmile_qr_scan", "android": "https://dc.lft.to/lastmile_qr_scan"}, "type": "electric_scooter", "name": "b91df9cdbe17567dbdd5b4ebcf5e06e3", "is_reserved": 0, "lon": -77.02817383333333, "is_disabled": 0, "fusion_lat": 0.0, "lat": 38.9024675, "bike_id": "b91df9cdbe17567dbdd5b4ebcf5e06e3", "fusion_lon": 0.0}, {"rental_uris": {"ios": "https://dc.lft.to/lastmile_qr_scan", "android": "https://dc.lft.to/lastmile_qr_scan"}, "type": "electric_scooter", "name": "e74ac11be8ae8ce4de9873c80d36b743", "is_reserved": 0, "lon": -76.98581383333334, "is_disabled": 0, "fusion_lat": 0.0, "lat": 38.8544525, "bike_id": "e74ac11be8ae8ce4de9873c80d36b743", "fusion_lon": 0.0}, {"rental_uris": {"ios": "https://dc.lft.to/lastmile_qr_scan", "android": "https://dc.lft.to/lastmile_qr_scan"}, "type": "electric_bike", "name": "cf19b425b383728d81fc279fd9878a73", "is_reserved": 0, "lon": -76.99998516666666, "is_disabled": 0, "fusion_lat": 0.0, "lat": 38.923900833333335, "bike_id": "cf19b425b383728d81fc279fd9878a73", "fusion_lon": 0.0}, {"rental_uris": {"ios": "https://dc.lft.to/lastmile_qr_scan", "android": "https://dc.lft.to/lastmile_qr_scan"}, "type": "electric_scooter", "name": "4e0755bf7c9cf9cd7c9a19597789a081", "is_reserved": 0, "lon": -77.0412175, "is_disabled": 0, "fusion_lat": 0.0, "lat": 38.93103116666666, "bike_id": "4e0755bf7c9cf9cd7c9a19597789a081", "fusion_lon": 0.0}, {"rental_uris": {"ios": "https://dc.lft.to/lastmile_qr_scan", "android": "https://dc.lft.to/lastmile_qr_scan"}, "type": "electric_scooter", "name": "6653a0fc92e07115833a2460991d6405", "is_reserved": 0, "lon": -77.02408616666666, "is_disabled": 0, "fusion_lat": 0.0, "lat": 38.90569583333333, "bike_id": "6653a0fc92e07115833a2460991d6405", "fusion_lon": 0.0}, {"rental_uris": {"ios": "https://dc.lft.to/lastmile_qr_scan", "android": "https://dc.lft.to/lastmile_qr_scan"}, "type": "electric_bike", "name": "4f21024e1ed91d874b50d9c9cd8ec9fa", "is_reserved": 0, "lon": -76.99249116666667, "is_disabled": 0, "fusion_lat": 0.0, "lat": 38.9606895, "bike_id": "4f21024e1ed91d874b50d9c9cd8ec9fa", "fusion_lon": 0.0}, {"rental_uris": {"ios": "https://dc.lft.to/lastmile_qr_scan", "android": "https://dc.lft.to/lastmile_qr_scan"}, "type": "electric_scooter", "name": "5b90b6709a6f39766df1d314a6d7a14c", "is_reserved": 0, "lon": -77.06097333333334, "is_disabled": 0, "fusion_lat": 0.0, "lat": 38.939862166666664, "bike_id": "5b90b6709a6f39766df1d314a6d7a14c", "fusion_lon": 0.0}, {"rental_uris": {"ios": "https://dc.lft.to/lastmile_qr_scan", "android": "https://dc.lft.to/lastmile_qr_scan"}, "type": "electric_scooter", "name": "f2aa192f425e395909c3a31a2ae0b7d2", "is_reserved": 0, "lon": -77.05672583333333, "is_disabled": 0, "fusion_lat": 0.0, "lat": 38.9060195, "bike_id": "f2aa192f425e395909c3a31a2ae0b7d2", "fusion_lon": 0.0}, {"rental_uris": {"ios": "https://dc.lft.to/lastmile_qr_scan", "android": "https://dc.lft.to/lastmile_qr_scan"}, "type": "electric_scooter", "name": "5bd079a321331a2062038e2c4d063551", "is_reserved": 0, "lon": -76.97571866666667, "is_disabled": 0, "fusion_lat": 0.0, "lat": 38.94420133333333, "bike_id": "5bd079a321331a2062038e2c4d063551", "fusion_lon": 0.0}, {"rental_uris": {"ios": "https://dc.lft.to/lastmile_qr_scan", "android": "https://dc.lft.to/lastmile_qr_scan"}, "type": "electric_bike", "name": "9228f6b673ff78181c43251f535dbc09", "is_reserved": 0, "lon": -77.001327, "is_disabled": 0, "fusion_lat": 0.0, "lat": 38.99497316666667, "bike_id": "9228f6b673ff78181c43251f535dbc09", "fusion_lon": 0.0}, {"rental_uris": {"ios": "https://dc.lft.to/lastmile_qr_scan", "android": "https://dc.lft.to/lastmile_qr_scan"}, "type": "electric_scooter", "name": "016282e33a864439c63184950c757eee", "is_reserved": 0, "lon": -77.02387716666667, "is_disabled": 0, "fusion_lat": 0.0, "lat": 38.9352165, "bike_id": "016282e33a864439c63184950c757eee", "fusion_lon": 0.0}, {"rental_uris": {"ios": "https://dc.lft.to/lastmile_qr_scan", "android": "https://dc.lft.to/lastmile_qr_scan"}, "type": "electric_bike", "name": "465bdf50b7b5fe1b729bcdb45a4438f8", "is_reserved": 0, "lon": -76.95794216666667, "is_disabled": 0, "fusion_lat": 0.0, "lat": 38.9804475, "bike_id": "465bdf50b7b5fe1b729bcdb45a4438f8", "fusion_lon": 0.0}, {"rental_uris": {"ios": "https://dc.lft.to/lastmile_qr_scan", "android": "https://dc.lft.to/lastmile_qr_scan"}, "type": "electric_scooter", "name": "b57ec443d74778281d151e2db0b5fc21", "is_reserved": 0, "lon": -76.93742316666666, "is_disabled": 0, "fusion_lat": 0.0, "lat": 38.890030333333335, "bike_id": "b57ec443d74778281d151e2db0b5fc21", "fusion_lon": 0.0}, {"rental_uris": {"ios": "https://dc.lft.to/lastmile_qr_scan", "android": "https://dc.lft.to/lastmile_qr_scan"}, "type": "electric_scooter", "name": "9ba633985352fd05d86bdc856455dba3", "is_reserved": 0, "lon": -77.05505266666667, "is_disabled": 0, "fusion_lat": 0.0, "lat": 38.92833666666667, "bike_id": "9ba633985352fd05d86bdc856455dba3", "fusion_lon": 0.0}, {"rental_uris": {"ios": "https://dc.lft.to/lastmile_qr_scan", "android": "https://dc.lft.to/lastmile_qr_scan"}, "type": "electric_scooter", "name": "8f9c26fb960ed7d35961a44b0fe1bf55", "is_reserved": 0, "lon": -76.9979405, "is_disabled": 0, "fusion_lat": 0.0, "lat": 38.87634416666667, "bike_id": "8f9c26fb960ed7d35961a44b0fe1bf55", "fusion_lon": 0.0}, {"rental_uris": {"ios": "https://dc.lft.to/lastmile_qr_scan", "android": "https://dc.lft.to/lastmile_qr_scan"}, "type": "electric_scooter", "name": "e7293432af40df65b209048d4faf1138", "is_reserved": 0, "lon": -77.07341266666667, "is_disabled": 0, "fusion_lat": 0.0, "lat": 38.96090366666667, "bike_id": "e7293432af40df65b209048d4faf1138", "fusion_lon": 0.0}, {"rental_uris": {"ios": "https://dc.lft.to/lastmile_qr_scan", "android": "https://dc.lft.to/lastmile_qr_scan"}, "type": "electric_bike", "name": "a4baf65a764943ad8c619d076c57fc3a", "is_reserved": 0, "lon": -76.90290666666667, "is_disabled": 0, "fusion_lat": 0.0, "lat": 39.00290183333333, "bike_id": "a4baf65a764943ad8c619d076c57fc3a", "fusion_lon": 0.0}, {"rental_uris": {"ios": "https://dc.lft.to/lastmile_qr_scan", "android": "https://dc.lft.to/lastmile_qr_scan"}, "type": "electric_scooter", "name": "568faf7f6653bebef6846cf753064138", "is_reserved": 0, "lon": -77.02880333333333, "is_disabled": 0, "fusion_lat": 0.0, "lat": 38.90734916666667, "bike_id": "568faf7f6653bebef6846cf753064138", "fusion_lon": 0.0}, {"rental_uris": {"ios": "https://dc.lft.to/lastmile_qr_scan", "android": "https://dc.lft.to/lastmile_qr_scan"}, "type": "electric_scooter", "name": "f056cd4050aa7d6c509c1a3f978fbc22", "is_reserved": 0, "lon": -77.008708, "is_disabled": 0, "fusion_lat": 0.0, "lat": 38.91246483333333, "bike_id": "f056cd4050aa7d6c509c1a3f978fbc22", "fusion_lon": 0.0}, {"rental_uris": {"ios": "https://dc.lft.to/lastmile_qr_scan", "android": "https://dc.lft.to/lastmile_qr_scan"}, "type": "electric_scooter", "name": "4f514d2ceebc621a8eeca6464d55a4cb", "is_reserved": 0, "lon": -77.0351335, "is_disabled": 0, "fusion_lat": 0.0, "lat": 38.92216833333333, "bike_id": "4f514d2ceebc621a8eeca6464d55a4cb", "fusion_lon": 0.0}, {"rental_uris": {"ios": "https://dc.lft.to/lastmile_qr_scan", "android": "https://dc.lft.to/lastmile_qr_scan"}, "type": "electric_scooter", "name": "2af928c9a7ced812179498d481e71f28", "is_reserved": 0, "lon": -76.99843866666667, "is_disabled": 0, "fusion_lat": 0.0, "lat": 38.90297366666667, "bike_id": "2af928c9a7ced812179498d481e71f28", "fusion_lon": 0.0}, {"rental_uris": {"ios": "https://dc.lft.to/lastmile_qr_scan", "android": "https://dc.lft.to/lastmile_qr_scan"}, "type": "electric_scooter", "name": "95a60fe876e5cb0ab18ea048d233ef22", "is_reserved": 0, "lon": -77.05058916666667, "is_disabled": 0, "fusion_lat": 0.0, "lat": 38.9235545, "bike_id": "95a60fe876e5cb0ab18ea048d233ef22", "fusion_lon": 0.0}, {"rental_uris": {"ios": "https://dc.lft.to/lastmile_qr_scan", "android": "https://dc.lft.to/lastmile_qr_scan"}, "type": "electric_scooter", "name": "321ff9549322295a2c42fe767451457b", "is_reserved": 0, "lon": -77.0372015, "is_disabled": 0, "fusion_lat": 0.0, "lat": 38.926479666666665, "bike_id": "321ff9549322295a2c42fe767451457b", "fusion_lon": 0.0}, {"rental_uris": {"ios": "https://dc.lft.to/lastmile_qr_scan", "android": "https://dc.lft.to/lastmile_qr_scan"}, "type": "electric_scooter", "name": "1548b8962b8d96925173f5c12e9d7144", "is_reserved": 0, "lon": -77.00551733333333, "is_disabled": 0, "fusion_lat": 0.0, "lat": 38.909295666666665, "bike_id": "1548b8962b8d96925173f5c12e9d7144", "fusion_lon": 0.0}, {"rental_uris": {"ios": "https://dc.lft.to/lastmile_qr_scan", "android": "https://dc.lft.to/lastmile_qr_scan"}, "type": "electric_scooter", "name": "21e1c6409b56309d277605c78904c07d", "is_reserved": 0, "lon": -76.99411166666667, "is_disabled": 0, "fusion_lat": 0.0, "lat": 38.877833333333335, "bike_id": "21e1c6409b56309d277605c78904c07d", "fusion_lon": 0.0}, {"rental_uris": {"ios": "https://dc.lft.to/lastmile_qr_scan", "android": "https://dc.lft.to/lastmile_qr_scan"}, "type": "electric_scooter", "name": "9c4b8cb6fc34f19f095802572c9c477d", "is_reserved": 0, "lon": -77.03471033333334, "is_disabled": 0, "fusion_lat": 0.0, "lat": 38.9302195, "bike_id": "9c4b8cb6fc34f19f095802572c9c477d", "fusion_lon": 0.0}, {"rental_uris": {"ios": "https://dc.lft.to/lastmile_qr_scan", "android": "https://dc.lft.to/lastmile_qr_scan"}, "type": "electric_scooter", "name": "57c50006946dc77cf6333f9d8e5403ac", "is_reserved": 0, "lon": -77.0342095, "is_disabled": 0, "fusion_lat": 0.0, "lat": 38.9220175, "bike_id": "57c50006946dc77cf6333f9d8e5403ac", "fusion_lon": 0.0}, {"rental_uris": {"ios": "https://dc.lft.to/lastmile_qr_scan", "android": "https://dc.lft.to/lastmile_qr_scan"}, "type": "electric_scooter", "name": "ec4739285937a504e7ca865e56b9176b", "is_reserved": 0, "lon": -76.98503633333333, "is_disabled": 0, "fusion_lat": 0.0, "lat": 38.879939, "bike_id": "ec4739285937a504e7ca865e56b9176b", "fusion_lon": 0.0}, {"rental_uris": {"ios": "https://dc.lft.to/lastmile_qr_scan", "android": "https://dc.lft.to/lastmile_qr_scan"}, "type": "electric_scooter", "name": "649dd15b996d8a3e5909fa78b82bf97d", "is_reserved": 0, "lon": -77.0663325, "is_disabled": 0, "fusion_lat": 0.0, "lat": 38.905182333333336, "bike_id": "649dd15b996d8a3e5909fa78b82bf97d", "fusion_lon": 0.0}, {"rental_uris": {"ios": "https://dc.lft.to/lastmile_qr_scan", "android": "https://dc.lft.to/lastmile_qr_scan"}, "type": "electric_scooter", "name": "79d449699301bc83c6625c3ea7fdfcbe", "is_reserved": 0, "lon": -77.00548816666667, "is_disabled": 0, "fusion_lat": 0.0, "lat": 38.876387, "bike_id": "79d449699301bc83c6625c3ea7fdfcbe", "fusion_lon": 0.0}, {"rental_uris": {"ios": "https://dc.lft.to/lastmile_qr_scan", "android": "https://dc.lft.to/lastmile_qr_scan"}, "type": "electric_bike", "name": "d9a6b50edac4c4a989857b6e3936b8f3", "is_reserved": 0, "lon": -77.08527633333334, "is_disabled": 0, "fusion_lat": 0.0, "lat": 38.85649183333334, "bike_id": "d9a6b50edac4c4a989857b6e3936b8f3", "fusion_lon": 0.0}, {"rental_uris": {"ios": "https://dc.lft.to/lastmile_qr_scan", "android": "https://dc.lft.to/lastmile_qr_scan"}, "type": "electric_scooter", "name": "a45d7fb4afddfd83b38ca699687e376d", "is_reserved": 0, "lon": -77.025102, "is_disabled": 0, "fusion_lat": 0.0, "lat": 38.93548583333333, "bike_id": "a45d7fb4afddfd83b38ca699687e376d", "fusion_lon": 0.0}, {"rental_uris": {"ios": "https://dc.lft.to/lastmile_qr_scan", "android": "https://dc.lft.to/lastmile_qr_scan"}, "type": "electric_scooter", "name": "1f7ae34fdb8303fcb0d1c7fb457df151", "is_reserved": 0, "lon": -77.05917483333333, "is_disabled": 0, "fusion_lat": 0.0, "lat": 38.9027155, "bike_id": "1f7ae34fdb8303fcb0d1c7fb457df151", "fusion_lon": 0.0}, {"rental_uris": {"ios": "https://dc.lft.to/lastmile_qr_scan", "android": "https://dc.lft.to/lastmile_qr_scan"}, "type": "electric_bike", "name": "6300543e78b50ddda22a886e5ec6a043", "is_reserved": 0, "lon": -77.12653866666666, "is_disabled": 0, "fusion_lat": 0.0, "lat": 38.8191065, "bike_id": "6300543e78b50ddda22a886e5ec6a043", "fusion_lon": 0.0}, {"rental_uris": {"ios": "https://dc.lft.to/lastmile_qr_scan", "android": "https://dc.lft.to/lastmile_qr_scan"}, "type": "electric_scooter", "name": "f6c179ab913f62f574e764f525859a0b", "is_reserved": 0, "lon": -77.05134116666666, "is_disabled": 0, "fusion_lat": 0.0, "lat": 38.90647466666667, "bike_id": "f6c179ab913f62f574e764f525859a0b", "fusion_lon": 0.0}, {"rental_uris": {"ios": "https://dc.lft.to/lastmile_qr_scan", "android": "https://dc.lft.to/lastmile_qr_scan"}, "type": "electric_scooter", "name": "d9b64a887f87d02d592d4b7f0cc6df9b", "is_reserved": 0, "lon": -77.02478783333333, "is_disabled": 0, "fusion_lat": 0.0, "lat": 38.91813066666667, "bike_id": "d9b64a887f87d02d592d4b7f0cc6df9b", "fusion_lon": 0.0}, {"rental_uris": {"ios": "https://dc.lft.to/lastmile_qr_scan", "android": "https://dc.lft.to/lastmile_qr_scan"}, "type": "electric_scooter", "name": "c9b5da0da748dd6094362ddad61c0bad", "is_reserved": 0, "lon": -77.02501266666667, "is_disabled": 0, "fusion_lat": 0.0, "lat": 38.932817666666665, "bike_id": "c9b5da0da748dd6094362ddad61c0bad", "fusion_lon": 0.0}, {"rental_uris": {"ios": "https://dc.lft.to/lastmile_qr_scan", "android": "https://dc.lft.to/lastmile_qr_scan"}, "type": "electric_bike", "name": "5b100c5f06f84199ef33c886b8a0a5b2", "is_reserved": 0, "lon": -76.94152866666667, "is_disabled": 0, "fusion_lat": 0.0, "lat": 38.890135666666666, "bike_id": "5b100c5f06f84199ef33c886b8a0a5b2", "fusion_lon": 0.0}, {"rental_uris": {"ios": "https://dc.lft.to/lastmile_qr_scan", "android": "https://dc.lft.to/lastmile_qr_scan"}, "type": "electric_scooter", "name": "91e669686e0689360ea4415a3ba9efd5", "is_reserved": 0, "lon": -76.989962, "is_disabled": 0, "fusion_lat": 0.0, "lat": 38.864234333333336, "bike_id": "91e669686e0689360ea4415a3ba9efd5", "fusion_lon": 0.0}, {"rental_uris": {"ios": "https://dc.lft.to/lastmile_qr_scan", "android": "https://dc.lft.to/lastmile_qr_scan"}, "type": "electric_scooter", "name": "26d5c1038dc3b83d946dd506fe03d1f7", "is_reserved": 0, "lon": -77.0382575, "is_disabled": 0, "fusion_lat": 0.0, "lat": 38.96261716666667, "bike_id": "26d5c1038dc3b83d946dd506fe03d1f7", "fusion_lon": 0.0}, {"rental_uris": {"ios": "https://dc.lft.to/lastmile_qr_scan", "android": "https://dc.lft.to/lastmile_qr_scan"}, "type": "electric_scooter", "name": "d545a97819c822fdb89c74f3a70c40fb", "is_reserved": 0, "lon": -76.99916283333333, "is_disabled": 0, "fusion_lat": 0.0, "lat": 38.90057016666667, "bike_id": "d545a97819c822fdb89c74f3a70c40fb", "fusion_lon": 0.0}, {"rental_uris": {"ios": "https://dc.lft.to/lastmile_qr_scan", "android": "https://dc.lft.to/lastmile_qr_scan"}, "type": "electric_scooter", "name": "51694e65ee8ddd3e15e3e6653a2a7235", "is_reserved": 0, "lon": -77.04589383333334, "is_disabled": 0, "fusion_lat": 0.0, "lat": 38.918621, "bike_id": "51694e65ee8ddd3e15e3e6653a2a7235", "fusion_lon": 0.0}, {"rental_uris": {"ios": "https://dc.lft.to/lastmile_qr_scan", "android": "https://dc.lft.to/lastmile_qr_scan"}, "type": "electric_scooter", "name": "d336839237a4981342b86d32a471736e", "is_reserved": 0, "lon": -77.03857416666666, "is_disabled": 0, "fusion_lat": 0.0, "lat": 38.917138, "bike_id": "d336839237a4981342b86d32a471736e", "fusion_lon": 0.0}, {"rental_uris": {"ios": "https://dc.lft.to/lastmile_qr_scan", "android": "https://dc.lft.to/lastmile_qr_scan"}, "type": "electric_scooter", "name": "d559c53bc6cdd5e77c256926436ae72b", "is_reserved": 0, "lon": -77.0436915, "is_disabled": 0, "fusion_lat": 0.0, "lat": 38.892192666666666, "bike_id": "d559c53bc6cdd5e77c256926436ae72b", "fusion_lon": 0.0}, {"rental_uris": {"ios": "https://dc.lft.to/lastmile_qr_scan", "android": "https://dc.lft.to/lastmile_qr_scan"}, "type": "electric_bike", "name": "986066131b21256050461f8f1a0a47a3", "is_reserved": 0, "lon": -77.129295, "is_disabled": 0, "fusion_lat": 0.0, "lat": 38.86579583333334, "bike_id": "986066131b21256050461f8f1a0a47a3", "fusion_lon": 0.0}, {"rental_uris": {"ios": "https://dc.lft.to/lastmile_qr_scan", "android": "https://dc.lft.to/lastmile_qr_scan"}, "type": "electric_scooter", "name": "1f1a26a4c87b00a9cde6604c967b8898", "is_reserved": 0, "lon": -77.02163166666666, "is_disabled": 0, "fusion_lat": 0.0, "lat": 38.924958833333335, "bike_id": "1f1a26a4c87b00a9cde6604c967b8898", "fusion_lon": 0.0}, {"rental_uris": {"ios": "https://dc.lft.to/lastmile_qr_scan", "android": "https://dc.lft.to/lastmile_qr_scan"}, "type": "electric_scooter", "name": "499ad02ec2aa0a73bc94d8dbb197decd", "is_reserved": 0, "lon": -77.05814566666666, "is_disabled": 0, "fusion_lat": 0.0, "lat": 38.93521116666667, "bike_id": "499ad02ec2aa0a73bc94d8dbb197decd", "fusion_lon": 0.0}, {"rental_uris": {"ios": "https://dc.lft.to/lastmile_qr_scan", "android": "https://dc.lft.to/lastmile_qr_scan"}, "type": "electric_scooter", "name": "12ace1eed4619a29ce4fe0edd54d2821", "is_reserved": 0, "lon": -77.00038816666667, "is_disabled": 0, "fusion_lat": 0.0, "lat": 38.8744275, "bike_id": "12ace1eed4619a29ce4fe0edd54d2821", "fusion_lon": 0.0}, {"rental_uris": {"ios": "https://dc.lft.to/lastmile_qr_scan", "android": "https://dc.lft.to/lastmile_qr_scan"}, "type": "electric_scooter", "name": "bd929b40e09e22f175b60695be26b53f", "is_reserved": 0, "lon": -76.93187583333334, "is_disabled": 0, "fusion_lat": 0.0, "lat": 38.8987355, "bike_id": "bd929b40e09e22f175b60695be26b53f", "fusion_lon": 0.0}, {"rental_uris": {"ios": "https://dc.lft.to/lastmile_qr_scan", "android": "https://dc.lft.to/lastmile_qr_scan"}, "type": "electric_scooter", "name": "cd73d17d81c274a77104d65802e33dce", "is_reserved": 0, "lon": -77.07022433333333, "is_disabled": 0, "fusion_lat": 0.0, "lat": 38.89328883333334, "bike_id": "cd73d17d81c274a77104d65802e33dce", "fusion_lon": 0.0}, {"rental_uris": {"ios": "https://dc.lft.to/lastmile_qr_scan", "android": "https://dc.lft.to/lastmile_qr_scan"}, "type": "electric_scooter", "name": "475ce897782be17629d9dc01db5e56b8", "is_reserved": 0, "lon": -77.04572816666666, "is_disabled": 0, "fusion_lat": 0.0, "lat": 38.90965333333333, "bike_id": "475ce897782be17629d9dc01db5e56b8", "fusion_lon": 0.0}, {"rental_uris": {"ios": "https://dc.lft.to/lastmile_qr_scan", "android": "https://dc.lft.to/lastmile_qr_scan"}, "type": "electric_scooter", "name": "863b8be2b69981fb1840c7c48e00f6c7", "is_reserved": 0, "lon": -77.00182066666666, "is_disabled": 0, "fusion_lat": 0.0, "lat": 38.911891, "bike_id": "863b8be2b69981fb1840c7c48e00f6c7", "fusion_lon": 0.0}, {"rental_uris": {"ios": "https://dc.lft.to/lastmile_qr_scan", "android": "https://dc.lft.to/lastmile_qr_scan"}, "type": "electric_scooter", "name": "b8b80ffa82d01c3ab0334d9e90a80a8e", "is_reserved": 0, "lon": -77.05531066666667, "is_disabled": 0, "fusion_lat": 0.0, "lat": 38.91000716666667, "bike_id": "b8b80ffa82d01c3ab0334d9e90a80a8e", "fusion_lon": 0.0}, {"rental_uris": {"ios": "https://dc.lft.to/lastmile_qr_scan", "android": "https://dc.lft.to/lastmile_qr_scan"}, "type": "electric_scooter", "name": "6ca6609955468f86faf9e5b56ca5bacb", "is_reserved": 0, "lon": -77.02591233333334, "is_disabled": 0, "fusion_lat": 0.0, "lat": 38.958218, "bike_id": "6ca6609955468f86faf9e5b56ca5bacb", "fusion_lon": 0.0}, {"rental_uris": {"ios": "https://dc.lft.to/lastmile_qr_scan", "android": "https://dc.lft.to/lastmile_qr_scan"}, "type": "electric_bike", "name": "1e05474b8a94de022803d64e903d1552", "is_reserved": 0, "lon": -76.96267633333333, "is_disabled": 0, "fusion_lat": 0.0, "lat": 38.96783116666667, "bike_id": "1e05474b8a94de022803d64e903d1552", "fusion_lon": 0.0}, {"rental_uris": {"ios": "https://dc.lft.to/lastmile_qr_scan", "android": "https://dc.lft.to/lastmile_qr_scan"}, "type": "electric_scooter", "name": "3e2aa2b729b1cca6f33e72df73fc9473", "is_reserved": 0, "lon": -77.031762, "is_disabled": 0, "fusion_lat": 0.0, "lat": 38.9133165, "bike_id": "3e2aa2b729b1cca6f33e72df73fc9473", "fusion_lon": 0.0}, {"rental_uris": {"ios": "https://dc.lft.to/lastmile_qr_scan", "android": "https://dc.lft.to/lastmile_qr_scan"}, "type": "electric_scooter", "name": "2f227c9a42d75cd917d18361c7587b9b", "is_reserved": 0, "lon": -77.0034445, "is_disabled": 0, "fusion_lat": 0.0, "lat": 38.9177025, "bike_id": "2f227c9a42d75cd917d18361c7587b9b", "fusion_lon": 0.0}, {"rental_uris": {"ios": "https://dc.lft.to/lastmile_qr_scan", "android": "https://dc.lft.to/lastmile_qr_scan"}, "type": "electric_scooter", "name": "3b16ed74afbc31f22cfbb73289e60345", "is_reserved": 0, "lon": -77.0435755, "is_disabled": 0, "fusion_lat": 0.0, "lat": 38.90736166666667, "bike_id": "3b16ed74afbc31f22cfbb73289e60345", "fusion_lon": 0.0}, {"rental_uris": {"ios": "https://dc.lft.to/lastmile_qr_scan", "android": "https://dc.lft.to/lastmile_qr_scan"}, "type": "electric_bike", "name": "91364f3f361546fd761893d56cd300ba", "is_reserved": 0, "lon": -76.98685616666667, "is_disabled": 0, "fusion_lat": 0.0, "lat": 38.9447305, "bike_id": "91364f3f361546fd761893d56cd300ba", "fusion_lon": 0.0}, {"rental_uris": {"ios": "https://dc.lft.to/lastmile_qr_scan", "android": "https://dc.lft.to/lastmile_qr_scan"}, "type": "electric_scooter", "name": "def9f1a6c765bcdb3b14c0d5a217e437", "is_reserved": 0, "lon": -76.9883795, "is_disabled": 0, "fusion_lat": 0.0, "lat": 38.84292416666667, "bike_id": "def9f1a6c765bcdb3b14c0d5a217e437", "fusion_lon": 0.0}, {"rental_uris": {"ios": "https://dc.lft.to/lastmile_qr_scan", "android": "https://dc.lft.to/lastmile_qr_scan"}, "type": "electric_bike", "name": "79e09807c070e5f57b8cbbe21db64204", "is_reserved": 0, "lon": -77.10210483333333, "is_disabled": 0, "fusion_lat": 0.0, "lat": 38.919958333333334, "bike_id": "79e09807c070e5f57b8cbbe21db64204", "fusion_lon": 0.0}, {"rental_uris": {"ios": "https://dc.lft.to/lastmile_qr_scan", "android": "https://dc.lft.to/lastmile_qr_scan"}, "type": "electric_bike", "name": "27033eb2a196cb65a60e0718854009f3", "is_reserved": 0, "lon": -77.03624833333333, "is_disabled": 0, "fusion_lat": 0.0, "lat": 38.9729765, "bike_id": "27033eb2a196cb65a60e0718854009f3", "fusion_lon": 0.0}, {"rental_uris": {"ios": "https://dc.lft.to/lastmile_qr_scan", "android": "https://dc.lft.to/lastmile_qr_scan"}, "type": "electric_scooter", "name": "25d613a87a42022959d499bb6ef3bff5", "is_reserved": 0, "lon": -77.04468416666667, "is_disabled": 0, "fusion_lat": 0.0, "lat": 38.9036665, "bike_id": "25d613a87a42022959d499bb6ef3bff5", "fusion_lon": 0.0}, {"rental_uris": {"ios": "https://dc.lft.to/lastmile_qr_scan", "android": "https://dc.lft.to/lastmile_qr_scan"}, "type": "electric_scooter", "name": "910334e6e2760b9b2b9252b2a7e78fec", "is_reserved": 0, "lon": -76.996253, "is_disabled": 0, "fusion_lat": 0.0, "lat": 38.8896455, "bike_id": "910334e6e2760b9b2b9252b2a7e78fec", "fusion_lon": 0.0}, {"rental_uris": {"ios": "https://dc.lft.to/lastmile_qr_scan", "android": "https://dc.lft.to/lastmile_qr_scan"}, "type": "electric_scooter", "name": "8f605fc3a7945abe1ff24898d3ffaacd", "is_reserved": 0, "lon": -77.03838966666666, "is_disabled": 0, "fusion_lat": 0.0, "lat": 38.911798166666664, "bike_id": "8f605fc3a7945abe1ff24898d3ffaacd", "fusion_lon": 0.0}, {"rental_uris": {"ios": "https://dc.lft.to/lastmile_qr_scan", "android": "https://dc.lft.to/lastmile_qr_scan"}, "type": "electric_scooter", "name": "50ae5798196947a48616645aa71f7ec0", "is_reserved": 0, "lon": -77.026529, "is_disabled": 0, "fusion_lat": 0.0, "lat": 38.89607016666667, "bike_id": "50ae5798196947a48616645aa71f7ec0", "fusion_lon": 0.0}, {"rental_uris": {"ios": "https://dc.lft.to/lastmile_qr_scan", "android": "https://dc.lft.to/lastmile_qr_scan"}, "type": "electric_scooter", "name": "5c3f411fd6164346cff8ce0be9e38d89", "is_reserved": 0, "lon": -77.019493, "is_disabled": 0, "fusion_lat": 0.0, "lat": 38.950452166666665, "bike_id": "5c3f411fd6164346cff8ce0be9e38d89", "fusion_lon": 0.0}, {"rental_uris": {"ios": "https://dc.lft.to/lastmile_qr_scan", "android": "https://dc.lft.to/lastmile_qr_scan"}, "type": "electric_scooter", "name": "722447b004c72300c87bc843923645f9", "is_reserved": 0, "lon": -77.04693433333334, "is_disabled": 0, "fusion_lat": 0.0, "lat": 38.920641833333335, "bike_id": "722447b004c72300c87bc843923645f9", "fusion_lon": 0.0}, {"rental_uris": {"ios": "https://dc.lft.to/lastmile_qr_scan", "android": "https://dc.lft.to/lastmile_qr_scan"}, "type": "electric_scooter", "name": "1030ad5486cc614c1a36f1da727d9bcc", "is_reserved": 0, "lon": -77.0240185, "is_disabled": 0, "fusion_lat": 0.0, "lat": 38.909758333333336, "bike_id": "1030ad5486cc614c1a36f1da727d9bcc", "fusion_lon": 0.0}, {"rental_uris": {"ios": "https://dc.lft.to/lastmile_qr_scan", "android": "https://dc.lft.to/lastmile_qr_scan"}, "type": "electric_scooter", "name": "e9ead8e7839ff338ea80107284be839b", "is_reserved": 0, "lon": -77.01181816666667, "is_disabled": 0, "fusion_lat": 0.0, "lat": 38.95155066666667, "bike_id": "e9ead8e7839ff338ea80107284be839b", "fusion_lon": 0.0}, {"rental_uris": {"ios": "https://dc.lft.to/lastmile_qr_scan", "android": "https://dc.lft.to/lastmile_qr_scan"}, "type": "electric_bike", "name": "a6c16c83d9ab9706c39d41156816acd4", "is_reserved": 0, "lon": -76.9754595, "is_disabled": 0, "fusion_lat": 0.0, "lat": 38.90430766666667, "bike_id": "a6c16c83d9ab9706c39d41156816acd4", "fusion_lon": 0.0}, {"rental_uris": {"ios": "https://dc.lft.to/lastmile_qr_scan", "android": "https://dc.lft.to/lastmile_qr_scan"}, "type": "electric_bike", "name": "4805bce192ab3ea3d7d788d2b709d469", "is_reserved": 0, "lon": -77.01847233333334, "is_disabled": 0, "fusion_lat": 0.0, "lat": 38.931098, "bike_id": "4805bce192ab3ea3d7d788d2b709d469", "fusion_lon": 0.0}, {"rental_uris": {"ios": "https://dc.lft.to/lastmile_qr_scan", "android": "https://dc.lft.to/lastmile_qr_scan"}, "type": "electric_scooter", "name": "b35a5d324f6d75124e0c4b9b941d11da", "is_reserved": 0, "lon": -77.02048866666667, "is_disabled": 0, "fusion_lat": 0.0, "lat": 38.894409833333334, "bike_id": "b35a5d324f6d75124e0c4b9b941d11da", "fusion_lon": 0.0}, {"rental_uris": {"ios": "https://dc.lft.to/lastmile_qr_scan", "android": "https://dc.lft.to/lastmile_qr_scan"}, "type": "electric_scooter", "name": "d16e3aa7f71ec2bacc331012a0dc791a", "is_reserved": 0, "lon": -77.03461383333334, "is_disabled": 0, "fusion_lat": 0.0, "lat": 38.90562, "bike_id": "d16e3aa7f71ec2bacc331012a0dc791a", "fusion_lon": 0.0}, {"rental_uris": {"ios": "https://dc.lft.to/lastmile_qr_scan", "android": "https://dc.lft.to/lastmile_qr_scan"}, "type": "electric_scooter", "name": "b79f80e40c89f09efd8cfa9ce723642e", "is_reserved": 0, "lon": -77.03280266666667, "is_disabled": 0, "fusion_lat": 0.0, "lat": 38.9324925, "bike_id": "b79f80e40c89f09efd8cfa9ce723642e", "fusion_lon": 0.0}, {"rental_uris": {"ios": "https://dc.lft.to/lastmile_qr_scan", "android": "https://dc.lft.to/lastmile_qr_scan"}, "type": "electric_scooter", "name": "2dffb87b8b4ac999b60625447754a90b", "is_reserved": 0, "lon": -77.01338216666667, "is_disabled": 0, "fusion_lat": 0.0, "lat": 38.91911366666667, "bike_id": "2dffb87b8b4ac999b60625447754a90b", "fusion_lon": 0.0}, {"rental_uris": {"ios": "https://dc.lft.to/lastmile_qr_scan", "android": "https://dc.lft.to/lastmile_qr_scan"}, "type": "electric_scooter", "name": "a32ac47ae9bf7c3e0ef3e9fd2a027ae2", "is_reserved": 0, "lon": -77.00156033333333, "is_disabled": 0, "fusion_lat": 0.0, "lat": 38.821333833333334, "bike_id": "a32ac47ae9bf7c3e0ef3e9fd2a027ae2", "fusion_lon": 0.0}, {"rental_uris": {"ios": "https://dc.lft.to/lastmile_qr_scan", "android": "https://dc.lft.to/lastmile_qr_scan"}, "type": "electric_bike", "name": "44d3b2f40d5ac98ae4b2ec79b25c8a6d", "is_reserved": 0, "lon": -76.95160366666667, "is_disabled": 0, "fusion_lat": 0.0, "lat": 39.084355, "bike_id": "44d3b2f40d5ac98ae4b2ec79b25c8a6d", "fusion_lon": 0.0}, {"rental_uris": {"ios": "https://dc.lft.to/lastmile_qr_scan", "android": "https://dc.lft.to/lastmile_qr_scan"}, "type": "electric_scooter", "name": "012f9445095db6ace0541edf0508e75c", "is_reserved": 0, "lon": -77.07565716666667, "is_disabled": 0, "fusion_lat": 0.0, "lat": 38.90642366666667, "bike_id": "012f9445095db6ace0541edf0508e75c", "fusion_lon": 0.0}, {"rental_uris": {"ios": "https://dc.lft.to/lastmile_qr_scan", "android": "https://dc.lft.to/lastmile_qr_scan"}, "type": "electric_scooter", "name": "4c408d31d4b9cb34ab7ad21f810fb1c0", "is_reserved": 0, "lon": -77.032758, "is_disabled": 0, "fusion_lat": 0.0, "lat": 38.92890466666667, "bike_id": "4c408d31d4b9cb34ab7ad21f810fb1c0", "fusion_lon": 0.0}, {"rental_uris": {"ios": "https://dc.lft.to/lastmile_qr_scan", "android": "https://dc.lft.to/lastmile_qr_scan"}, "type": "electric_scooter", "name": "190a6b8647f8b36d7edcf3609f92ab7e", "is_reserved": 0, "lon": -77.02228716666667, "is_disabled": 0, "fusion_lat": 0.0, "lat": 38.891945666666665, "bike_id": "190a6b8647f8b36d7edcf3609f92ab7e", "fusion_lon": 0.0}, {"rental_uris": {"ios": "https://dc.lft.to/lastmile_qr_scan", "android": "https://dc.lft.to/lastmile_qr_scan"}, "type": "electric_scooter", "name": "566b3281efe0dc5358a64c161b22555b", "is_reserved": 0, "lon": -77.07254933333333, "is_disabled": 0, "fusion_lat": 0.0, "lat": 38.934390666666665, "bike_id": "566b3281efe0dc5358a64c161b22555b", "fusion_lon": 0.0}, {"rental_uris": {"ios": "https://dc.lft.to/lastmile_qr_scan", "android": "https://dc.lft.to/lastmile_qr_scan"}, "type": "electric_scooter", "name": "ce8f6268ad7f8d6672ea31556e98a67e", "is_reserved": 0, "lon": -77.036606, "is_disabled": 0, "fusion_lat": 0.0, "lat": 38.906429, "bike_id": "ce8f6268ad7f8d6672ea31556e98a67e", "fusion_lon": 0.0}, {"rental_uris": {"ios": "https://dc.lft.to/lastmile_qr_scan", "android": "https://dc.lft.to/lastmile_qr_scan"}, "type": "electric_scooter", "name": "cfc8982176f64f912cdf23da883aeb13", "is_reserved": 0, "lon": -77.06692483333333, "is_disabled": 0, "fusion_lat": 0.0, "lat": 38.909728, "bike_id": "cfc8982176f64f912cdf23da883aeb13", "fusion_lon": 0.0}, {"rental_uris": {"ios": "https://dc.lft.to/lastmile_qr_scan", "android": "https://dc.lft.to/lastmile_qr_scan"}, "type": "electric_scooter", "name": "2cd0e8fcd9eb7c72a8cf10e110cda598", "is_reserved": 0, "lon": -77.03330633333333, "is_disabled": 0, "fusion_lat": 0.0, "lat": 38.89711783333333, "bike_id": "2cd0e8fcd9eb7c72a8cf10e110cda598", "fusion_lon": 0.0}, {"rental_uris": {"ios": "https://dc.lft.to/lastmile_qr_scan", "android": "https://dc.lft.to/lastmile_qr_scan"}, "type": "electric_scooter", "name": "e8b0f7e589821b9be0f01e1c7b51ece3", "is_reserved": 0, "lon": -76.986963, "is_disabled": 0, "fusion_lat": 0.0, "lat": 38.91292, "bike_id": "e8b0f7e589821b9be0f01e1c7b51ece3", "fusion_lon": 0.0}, {"rental_uris": {"ios": "https://dc.lft.to/lastmile_qr_scan", "android": "https://dc.lft.to/lastmile_qr_scan"}, "type": "electric_scooter", "name": "2417d499bcf0e3ed18bf5c403c062788", "is_reserved": 0, "lon": -77.00282066666666, "is_disabled": 0, "fusion_lat": 0.0, "lat": 38.90126816666667, "bike_id": "2417d499bcf0e3ed18bf5c403c062788", "fusion_lon": 0.0}, {"rental_uris": {"ios": "https://dc.lft.to/lastmile_qr_scan", "android": "https://dc.lft.to/lastmile_qr_scan"}, "type": "electric_scooter", "name": "5d4b5422b2f2cc6f795b343ab47f6463", "is_reserved": 0, "lon": -77.00170566666667, "is_disabled": 0, "fusion_lat": 0.0, "lat": 38.873806, "bike_id": "5d4b5422b2f2cc6f795b343ab47f6463", "fusion_lon": 0.0}, {"rental_uris": {"ios": "https://dc.lft.to/lastmile_qr_scan", "android": "https://dc.lft.to/lastmile_qr_scan"}, "type": "electric_scooter", "name": "d1d33de81e6644ffd67367e5d15accdb", "is_reserved": 0, "lon": -77.0163245, "is_disabled": 0, "fusion_lat": 0.0, "lat": 38.929405333333335, "bike_id": "d1d33de81e6644ffd67367e5d15accdb", "fusion_lon": 0.0}, {"rental_uris": {"ios": "https://dc.lft.to/lastmile_qr_scan", "android": "https://dc.lft.to/lastmile_qr_scan"}, "type": "electric_scooter", "name": "4cab6cd66d4bb19ca1e52f1afa8948fe", "is_reserved": 0, "lon": -77.02915283333333, "is_disabled": 0, "fusion_lat": 0.0, "lat": 38.934534166666666, "bike_id": "4cab6cd66d4bb19ca1e52f1afa8948fe", "fusion_lon": 0.0}, {"rental_uris": {"ios": "https://dc.lft.to/lastmile_qr_scan", "android": "https://dc.lft.to/lastmile_qr_scan"}, "type": "electric_scooter", "name": "53c07b4f4c12f61382c09aaac6ff9108", "is_reserved": 0, "lon": -77.02562183333333, "is_disabled": 0, "fusion_lat": 0.0, "lat": 38.9203285, "bike_id": "53c07b4f4c12f61382c09aaac6ff9108", "fusion_lon": 0.0}, {"rental_uris": {"ios": "https://dc.lft.to/lastmile_qr_scan", "android": "https://dc.lft.to/lastmile_qr_scan"}, "type": "electric_scooter", "name": "b34e30dd884f88ee2b51ff56a49995b3", "is_reserved": 0, "lon": -77.009332, "is_disabled": 0, "fusion_lat": 0.0, "lat": 38.871159666666664, "bike_id": "b34e30dd884f88ee2b51ff56a49995b3", "fusion_lon": 0.0}, {"rental_uris": {"ios": "https://dc.lft.to/lastmile_qr_scan", "android": "https://dc.lft.to/lastmile_qr_scan"}, "type": "electric_scooter", "name": "409565c1a3ad736161959593e86bc23c", "is_reserved": 0, "lon": -77.002524, "is_disabled": 0, "fusion_lat": 0.0, "lat": 38.91252766666667, "bike_id": "409565c1a3ad736161959593e86bc23c", "fusion_lon": 0.0}, {"rental_uris": {"ios": "https://dc.lft.to/lastmile_qr_scan", "android": "https://dc.lft.to/lastmile_qr_scan"}, "type": "electric_scooter", "name": "7529fe1572e1fcf85e57b4f1e74e2f96", "is_reserved": 0, "lon": -77.018776, "is_disabled": 0, "fusion_lat": 0.0, "lat": 38.877223, "bike_id": "7529fe1572e1fcf85e57b4f1e74e2f96", "fusion_lon": 0.0}, {"rental_uris": {"ios": "https://dc.lft.to/lastmile_qr_scan", "android": "https://dc.lft.to/lastmile_qr_scan"}, "type": "electric_scooter", "name": "8369a6acda0e710a0977e7dfd96c8a07", "is_reserved": 0, "lon": -77.05119533333334, "is_disabled": 0, "fusion_lat": 0.0, "lat": 38.897659, "bike_id": "8369a6acda0e710a0977e7dfd96c8a07", "fusion_lon": 0.0}, {"rental_uris": {"ios": "https://dc.lft.to/lastmile_qr_scan", "android": "https://dc.lft.to/lastmile_qr_scan"}, "type": "electric_bike", "name": "e98cf35fa14d0ec0c64315ccec7bd4f8", "is_reserved": 0, "lon": -76.97616483333333, "is_disabled": 0, "fusion_lat": 0.0, "lat": 38.89289016666667, "bike_id": "e98cf35fa14d0ec0c64315ccec7bd4f8", "fusion_lon": 0.0}, {"rental_uris": {"ios": "https://dc.lft.to/lastmile_qr_scan", "android": "https://dc.lft.to/lastmile_qr_scan"}, "type": "electric_scooter", "name": "1d889997194272b8681a890ce40afe8a", "is_reserved": 0, "lon": -77.036248, "is_disabled": 0, "fusion_lat": 0.0, "lat": 38.926571833333334, "bike_id": "1d889997194272b8681a890ce40afe8a", "fusion_lon": 0.0}, {"rental_uris": {"ios": "https://dc.lft.to/lastmile_qr_scan", "android": "https://dc.lft.to/lastmile_qr_scan"}, "type": "electric_scooter", "name": "526fef620809f77c22b5a7ac5600c052", "is_reserved": 0, "lon": -77.019167, "is_disabled": 0, "fusion_lat": 0.0, "lat": 38.9055865, "bike_id": "526fef620809f77c22b5a7ac5600c052", "fusion_lon": 0.0}, {"rental_uris": {"ios": "https://dc.lft.to/lastmile_qr_scan", "android": "https://dc.lft.to/lastmile_qr_scan"}, "type": "electric_bike", "name": "7ad994179d1787b87d6f95fe7db0a08a", "is_reserved": 0, "lon": -77.22184533333333, "is_disabled": 0, "fusion_lat": 0.0, "lat": 38.87171283333333, "bike_id": "7ad994179d1787b87d6f95fe7db0a08a", "fusion_lon": 0.0}, {"rental_uris": {"ios": "https://dc.lft.to/lastmile_qr_scan", "android": "https://dc.lft.to/lastmile_qr_scan"}, "type": "electric_scooter", "name": "8239faff88f8ddf88f9cc05d2adf0ef0", "is_reserved": 0, "lon": -77.006916, "is_disabled": 0, "fusion_lat": 0.0, "lat": 38.90513766666667, "bike_id": "8239faff88f8ddf88f9cc05d2adf0ef0", "fusion_lon": 0.0}, {"rental_uris": {"ios": "https://dc.lft.to/lastmile_qr_scan", "android": "https://dc.lft.to/lastmile_qr_scan"}, "type": "electric_scooter", "name": "0df1d9f1d1aa44ba46c10bee43f24215", "is_reserved": 0, "lon": -77.04175083333334, "is_disabled": 0, "fusion_lat": 0.0, "lat": 38.918311833333334, "bike_id": "0df1d9f1d1aa44ba46c10bee43f24215", "fusion_lon": 0.0}, {"rental_uris": {"ios": "https://dc.lft.to/lastmile_qr_scan", "android": "https://dc.lft.to/lastmile_qr_scan"}, "type": "electric_scooter", "name": "1fb3ba72a6d6f213d60a8fd7c095e4d7", "is_reserved": 0, "lon": -76.99476416666667, "is_disabled": 0, "fusion_lat": 0.0, "lat": 38.86212733333333, "bike_id": "1fb3ba72a6d6f213d60a8fd7c095e4d7", "fusion_lon": 0.0}, {"rental_uris": {"ios": "https://dc.lft.to/lastmile_qr_scan", "android": "https://dc.lft.to/lastmile_qr_scan"}, "type": "electric_scooter", "name": "9551d7ba548c1c7f536ef4eb4012ea23", "is_reserved": 0, "lon": -77.045022, "is_disabled": 0, "fusion_lat": 0.0, "lat": 38.892199, "bike_id": "9551d7ba548c1c7f536ef4eb4012ea23", "fusion_lon": 0.0}, {"rental_uris": {"ios": "https://dc.lft.to/lastmile_qr_scan", "android": "https://dc.lft.to/lastmile_qr_scan"}, "type": "electric_scooter", "name": "11a004670053da6c8294e5ca43d05f21", "is_reserved": 0, "lon": -77.03340033333333, "is_disabled": 0, "fusion_lat": 0.0, "lat": 38.914153166666665, "bike_id": "11a004670053da6c8294e5ca43d05f21", "fusion_lon": 0.0}, {"rental_uris": {"ios": "https://dc.lft.to/lastmile_qr_scan", "android": "https://dc.lft.to/lastmile_qr_scan"}, "type": "electric_scooter", "name": "ea90707b29e03b75bbbbeff8fc43b78b", "is_reserved": 0, "lon": -76.98887966666666, "is_disabled": 0, "fusion_lat": 0.0, "lat": 38.899548, "bike_id": "ea90707b29e03b75bbbbeff8fc43b78b", "fusion_lon": 0.0}, {"rental_uris": {"ios": "https://dc.lft.to/lastmile_qr_scan", "android": "https://dc.lft.to/lastmile_qr_scan"}, "type": "electric_scooter", "name": "7074a2bffe15f7fe0a96c6fe61927af4", "is_reserved": 0, "lon": -77.04189866666667, "is_disabled": 0, "fusion_lat": 0.0, "lat": 38.901495, "bike_id": "7074a2bffe15f7fe0a96c6fe61927af4", "fusion_lon": 0.0}, {"rental_uris": {"ios": "https://dc.lft.to/lastmile_qr_scan", "android": "https://dc.lft.to/lastmile_qr_scan"}, "type": "electric_scooter", "name": "d24acaca103fb415e53a22c7feb33772", "is_reserved": 0, "lon": -77.02271533333334, "is_disabled": 0, "fusion_lat": 0.0, "lat": 38.9184575, "bike_id": "d24acaca103fb415e53a22c7feb33772", "fusion_lon": 0.0}, {"rental_uris": {"ios": "https://dc.lft.to/lastmile_qr_scan", "android": "https://dc.lft.to/lastmile_qr_scan"}, "type": "electric_scooter", "name": "6d4d159d62dcb9c76567b6d131b00711", "is_reserved": 0, "lon": -77.04482866666666, "is_disabled": 0, "fusion_lat": 0.0, "lat": 38.89220783333333, "bike_id": "6d4d159d62dcb9c76567b6d131b00711", "fusion_lon": 0.0}, {"rental_uris": {"ios": "https://dc.lft.to/lastmile_qr_scan", "android": "https://dc.lft.to/lastmile_qr_scan"}, "type": "electric_scooter", "name": "3ac519d1954eb6a586d8c15913d83128", "is_reserved": 0, "lon": -77.04340466666666, "is_disabled": 0, "fusion_lat": 0.0, "lat": 38.92162116666667, "bike_id": "3ac519d1954eb6a586d8c15913d83128", "fusion_lon": 0.0}, {"rental_uris": {"ios": "https://dc.lft.to/lastmile_qr_scan", "android": "https://dc.lft.to/lastmile_qr_scan"}, "type": "electric_scooter", "name": "ebf53903f83fd709a0f4cbc562aeb549", "is_reserved": 0, "lon": -77.01326966666667, "is_disabled": 0, "fusion_lat": 0.0, "lat": 38.920308166666665, "bike_id": "ebf53903f83fd709a0f4cbc562aeb549", "fusion_lon": 0.0}, {"rental_uris": {"ios": "https://dc.lft.to/lastmile_qr_scan", "android": "https://dc.lft.to/lastmile_qr_scan"}, "type": "electric_scooter", "name": "b441b7829a47f8de89da8b04c6a60cb6", "is_reserved": 0, "lon": -76.9910225, "is_disabled": 0, "fusion_lat": 0.0, "lat": 38.85728316666667, "bike_id": "b441b7829a47f8de89da8b04c6a60cb6", "fusion_lon": 0.0}, {"rental_uris": {"ios": "https://dc.lft.to/lastmile_qr_scan", "android": "https://dc.lft.to/lastmile_qr_scan"}, "type": "electric_scooter", "name": "18e6cb72b980e2d2c456928b14968c66", "is_reserved": 0, "lon": -77.01541133333333, "is_disabled": 0, "fusion_lat": 0.0, "lat": 38.90186166666667, "bike_id": "18e6cb72b980e2d2c456928b14968c66", "fusion_lon": 0.0}, {"rental_uris": {"ios": "https://dc.lft.to/lastmile_qr_scan", "android": "https://dc.lft.to/lastmile_qr_scan"}, "type": "electric_scooter", "name": "b398770f8e0a2728b4d0226c2e22c6b1", "is_reserved": 0, "lon": -77.07114116666666, "is_disabled": 0, "fusion_lat": 0.0, "lat": 38.90587683333333, "bike_id": "b398770f8e0a2728b4d0226c2e22c6b1", "fusion_lon": 0.0}, {"rental_uris": {"ios": "https://dc.lft.to/lastmile_qr_scan", "android": "https://dc.lft.to/lastmile_qr_scan"}, "type": "electric_scooter", "name": "9f690ab0c2688c3a761a52396a91bbd0", "is_reserved": 0, "lon": -77.0222315, "is_disabled": 0, "fusion_lat": 0.0, "lat": 38.8921795, "bike_id": "9f690ab0c2688c3a761a52396a91bbd0", "fusion_lon": 0.0}, {"rental_uris": {"ios": "https://dc.lft.to/lastmile_qr_scan", "android": "https://dc.lft.to/lastmile_qr_scan"}, "type": "electric_scooter", "name": "8a35749ffd0d8a536b94c0c3c7ac4432", "is_reserved": 0, "lon": -77.010979, "is_disabled": 0, "fusion_lat": 0.0, "lat": 38.885371, "bike_id": "8a35749ffd0d8a536b94c0c3c7ac4432", "fusion_lon": 0.0}, {"rental_uris": {"ios": "https://dc.lft.to/lastmile_qr_scan", "android": "https://dc.lft.to/lastmile_qr_scan"}, "type": "electric_scooter", "name": "eb0005029fccb8ed580a1d2bb7d05119", "is_reserved": 0, "lon": -77.04084766666666, "is_disabled": 0, "fusion_lat": 0.0, "lat": 38.930612333333336, "bike_id": "eb0005029fccb8ed580a1d2bb7d05119", "fusion_lon": 0.0}, {"rental_uris": {"ios": "https://dc.lft.to/lastmile_qr_scan", "android": "https://dc.lft.to/lastmile_qr_scan"}, "type": "electric_scooter", "name": "7b41777c0d29f1adc0a6e1bcd9533545", "is_reserved": 0, "lon": -77.02071083333334, "is_disabled": 0, "fusion_lat": 0.0, "lat": 38.9125615, "bike_id": "7b41777c0d29f1adc0a6e1bcd9533545", "fusion_lon": 0.0}, {"rental_uris": {"ios": "https://dc.lft.to/lastmile_qr_scan", "android": "https://dc.lft.to/lastmile_qr_scan"}, "type": "electric_scooter", "name": "1ab41a2ead0ac0c912260cf563849863", "is_reserved": 0, "lon": -77.0585935, "is_disabled": 0, "fusion_lat": 0.0, "lat": 38.90430666666666, "bike_id": "1ab41a2ead0ac0c912260cf563849863", "fusion_lon": 0.0}, {"rental_uris": {"ios": "https://dc.lft.to/lastmile_qr_scan", "android": "https://dc.lft.to/lastmile_qr_scan"}, "type": "electric_scooter", "name": "2032e36dbc1eca14728377279ea84031", "is_reserved": 0, "lon": -77.0345205, "is_disabled": 0, "fusion_lat": 0.0, "lat": 38.908349666666666, "bike_id": "2032e36dbc1eca14728377279ea84031", "fusion_lon": 0.0}, {"rental_uris": {"ios": "https://dc.lft.to/lastmile_qr_scan", "android": "https://dc.lft.to/lastmile_qr_scan"}, "type": "electric_bike", "name": "9542a4c35e507250e46a62b6f31ed853", "is_reserved": 0, "lon": -76.98139566666667, "is_disabled": 0, "fusion_lat": 0.0, "lat": 38.934916333333334, "bike_id": "9542a4c35e507250e46a62b6f31ed853", "fusion_lon": 0.0}, {"rental_uris": {"ios": "https://dc.lft.to/lastmile_qr_scan", "android": "https://dc.lft.to/lastmile_qr_scan"}, "type": "electric_scooter", "name": "01410d577e4413abe5eb93fff6ce9bed", "is_reserved": 0, "lon": -77.00765083333333, "is_disabled": 0, "fusion_lat": 0.0, "lat": 38.87837316666667, "bike_id": "01410d577e4413abe5eb93fff6ce9bed", "fusion_lon": 0.0}, {"rental_uris": {"ios": "https://dc.lft.to/lastmile_qr_scan", "android": "https://dc.lft.to/lastmile_qr_scan"}, "type": "electric_scooter", "name": "9a3d6207284bbf16d6e4037e1b3b8628", "is_reserved": 0, "lon": -77.03507766666667, "is_disabled": 0, "fusion_lat": 0.0, "lat": 38.9187715, "bike_id": "9a3d6207284bbf16d6e4037e1b3b8628", "fusion_lon": 0.0}, {"rental_uris": {"ios": "https://dc.lft.to/lastmile_qr_scan", "android": "https://dc.lft.to/lastmile_qr_scan"}, "type": "electric_scooter", "name": "1fcb2423c64576e97bb28f56056fd73d", "is_reserved": 0, "lon": -77.03151683333333, "is_disabled": 0, "fusion_lat": 0.0, "lat": 38.8876365, "bike_id": "1fcb2423c64576e97bb28f56056fd73d", "fusion_lon": 0.0}, {"rental_uris": {"ios": "https://dc.lft.to/lastmile_qr_scan", "android": "https://dc.lft.to/lastmile_qr_scan"}, "type": "electric_scooter", "name": "cae8f455f51de134d12fdb689946c68a", "is_reserved": 0, "lon": -77.01757233333333, "is_disabled": 0, "fusion_lat": 0.0, "lat": 38.9026705, "bike_id": "cae8f455f51de134d12fdb689946c68a", "fusion_lon": 0.0}, {"rental_uris": {"ios": "https://dc.lft.to/lastmile_qr_scan", "android": "https://dc.lft.to/lastmile_qr_scan"}, "type": "electric_scooter", "name": "9211348d6ed233c3997daefcad3e7f7a", "is_reserved": 0, "lon": -77.03980166666666, "is_disabled": 0, "fusion_lat": 0.0, "lat": 38.909704833333336, "bike_id": "9211348d6ed233c3997daefcad3e7f7a", "fusion_lon": 0.0}, {"rental_uris": {"ios": "https://dc.lft.to/lastmile_qr_scan", "android": "https://dc.lft.to/lastmile_qr_scan"}, "type": "electric_scooter", "name": "47b10519a7caada637dafca333b3a9b0", "is_reserved": 0, "lon": -77.016034, "is_disabled": 0, "fusion_lat": 0.0, "lat": 38.91072283333333, "bike_id": "47b10519a7caada637dafca333b3a9b0", "fusion_lon": 0.0}, {"rental_uris": {"ios": "https://dc.lft.to/lastmile_qr_scan", "android": "https://dc.lft.to/lastmile_qr_scan"}, "type": "electric_bike", "name": "3614980ec4e7af3bbd36b96edb856a5a", "is_reserved": 0, "lon": -76.961022, "is_disabled": 0, "fusion_lat": 0.0, "lat": 38.94965116666667, "bike_id": "3614980ec4e7af3bbd36b96edb856a5a", "fusion_lon": 0.0}, {"rental_uris": {"ios": "https://dc.lft.to/lastmile_qr_scan", "android": "https://dc.lft.to/lastmile_qr_scan"}, "type": "electric_scooter", "name": "4b603501546af8f1d6f866b302cd6c80", "is_reserved": 0, "lon": -77.04651066666666, "is_disabled": 0, "fusion_lat": 0.0, "lat": 38.900640333333335, "bike_id": "4b603501546af8f1d6f866b302cd6c80", "fusion_lon": 0.0}, {"rental_uris": {"ios": "https://dc.lft.to/lastmile_qr_scan", "android": "https://dc.lft.to/lastmile_qr_scan"}, "type": "electric_scooter", "name": "45f9fb0f713eb823aa997042fb3a0b60", "is_reserved": 0, "lon": -77.002098, "is_disabled": 0, "fusion_lat": 0.0, "lat": 38.901567166666666, "bike_id": "45f9fb0f713eb823aa997042fb3a0b60", "fusion_lon": 0.0}, {"rental_uris": {"ios": "https://dc.lft.to/lastmile_qr_scan", "android": "https://dc.lft.to/lastmile_qr_scan"}, "type": "electric_scooter", "name": "ca29ffd2bc5d14f7a09f9cd9c75020a0", "is_reserved": 0, "lon": -77.068062, "is_disabled": 0, "fusion_lat": 0.0, "lat": 38.95214, "bike_id": "ca29ffd2bc5d14f7a09f9cd9c75020a0", "fusion_lon": 0.0}, {"rental_uris": {"ios": "https://dc.lft.to/lastmile_qr_scan", "android": "https://dc.lft.to/lastmile_qr_scan"}, "type": "electric_scooter", "name": "51961b0fe9ad4cf62b825786fc755576", "is_reserved": 0, "lon": -76.98647683333333, "is_disabled": 0, "fusion_lat": 0.0, "lat": 38.90537233333333, "bike_id": "51961b0fe9ad4cf62b825786fc755576", "fusion_lon": 0.0}, {"rental_uris": {"ios": "https://dc.lft.to/lastmile_qr_scan", "android": "https://dc.lft.to/lastmile_qr_scan"}, "type": "electric_scooter", "name": "0351f8284e1338107be7cae06bf748fe", "is_reserved": 0, "lon": -77.01994583333334, "is_disabled": 0, "fusion_lat": 0.0, "lat": 38.93046316666667, "bike_id": "0351f8284e1338107be7cae06bf748fe", "fusion_lon": 0.0}, {"rental_uris": {"ios": "https://dc.lft.to/lastmile_qr_scan", "android": "https://dc.lft.to/lastmile_qr_scan"}, "type": "electric_scooter", "name": "d3690f9736a8b62c8cfc02819bff5ef5", "is_reserved": 0, "lon": -77.04165466666667, "is_disabled": 0, "fusion_lat": 0.0, "lat": 38.91846433333333, "bike_id": "d3690f9736a8b62c8cfc02819bff5ef5", "fusion_lon": 0.0}, {"rental_uris": {"ios": "https://dc.lft.to/lastmile_qr_scan", "android": "https://dc.lft.to/lastmile_qr_scan"}, "type": "electric_scooter", "name": "8a5172352d7e45f77c934645d0d9e63d", "is_reserved": 0, "lon": -77.016287, "is_disabled": 0, "fusion_lat": 0.0, "lat": 38.903778, "bike_id": "8a5172352d7e45f77c934645d0d9e63d", "fusion_lon": 0.0}, {"rental_uris": {"ios": "https://dc.lft.to/lastmile_qr_scan", "android": "https://dc.lft.to/lastmile_qr_scan"}, "type": "electric_bike", "name": "70bdda155aac22215bf3f50c9b4e114d", "is_reserved": 0, "lon": -77.0245335, "is_disabled": 0, "fusion_lat": 0.0, "lat": 38.932904, "bike_id": "70bdda155aac22215bf3f50c9b4e114d", "fusion_lon": 0.0}, {"rental_uris": {"ios": "https://dc.lft.to/lastmile_qr_scan", "android": "https://dc.lft.to/lastmile_qr_scan"}, "type": "electric_scooter", "name": "10b65d04cd1a0250c8849fec6c9d974f", "is_reserved": 0, "lon": -77.0265885, "is_disabled": 0, "fusion_lat": 0.0, "lat": 38.93099, "bike_id": "10b65d04cd1a0250c8849fec6c9d974f", "fusion_lon": 0.0}, {"rental_uris": {"ios": "https://dc.lft.to/lastmile_qr_scan", "android": "https://dc.lft.to/lastmile_qr_scan"}, "type": "electric_bike", "name": "e3f8ac5b23a3db6e2e3ce40e32d5071e", "is_reserved": 0, "lon": -77.23177, "is_disabled": 0, "fusion_lat": 0.0, "lat": 38.9289365, "bike_id": "e3f8ac5b23a3db6e2e3ce40e32d5071e", "fusion_lon": 0.0}, {"rental_uris": {"ios": "https://dc.lft.to/lastmile_qr_scan", "android": "https://dc.lft.to/lastmile_qr_scan"}, "type": "electric_scooter", "name": "5666070a8084167f097460527baaac11", "is_reserved": 0, "lon": -77.03212533333334, "is_disabled": 0, "fusion_lat": 0.0, "lat": 38.921869666666666, "bike_id": "5666070a8084167f097460527baaac11", "fusion_lon": 0.0}, {"rental_uris": {"ios": "https://dc.lft.to/lastmile_qr_scan", "android": "https://dc.lft.to/lastmile_qr_scan"}, "type": "electric_bike", "name": "b3f0a378e3871189a5c22ac7de36b668", "is_reserved": 0, "lon": -76.97926683333333, "is_disabled": 0, "fusion_lat": 0.0, "lat": 38.92000683333333, "bike_id": "b3f0a378e3871189a5c22ac7de36b668", "fusion_lon": 0.0}, {"rental_uris": {"ios": "https://dc.lft.to/lastmile_qr_scan", "android": "https://dc.lft.to/lastmile_qr_scan"}, "type": "electric_scooter", "name": "fae9f58ab426e375283203a5a8536e72", "is_reserved": 0, "lon": -77.02004766666667, "is_disabled": 0, "fusion_lat": 0.0, "lat": 38.92803466666667, "bike_id": "fae9f58ab426e375283203a5a8536e72", "fusion_lon": 0.0}, {"rental_uris": {"ios": "https://dc.lft.to/lastmile_qr_scan", "android": "https://dc.lft.to/lastmile_qr_scan"}, "type": "electric_bike", "name": "c8838a69529dc6b1f696d995d6782a1d", "is_reserved": 0, "lon": -77.10293333333334, "is_disabled": 0, "fusion_lat": 0.0, "lat": 38.852511166666666, "bike_id": "c8838a69529dc6b1f696d995d6782a1d", "fusion_lon": 0.0}, {"rental_uris": {"ios": "https://dc.lft.to/lastmile_qr_scan", "android": "https://dc.lft.to/lastmile_qr_scan"}, "type": "electric_scooter", "name": "884d4f8c823f4f0ca15e2e9b27c326b8", "is_reserved": 0, "lon": -77.01496883333333, "is_disabled": 0, "fusion_lat": 0.0, "lat": 38.9065195, "bike_id": "884d4f8c823f4f0ca15e2e9b27c326b8", "fusion_lon": 0.0}, {"rental_uris": {"ios": "https://dc.lft.to/lastmile_qr_scan", "android": "https://dc.lft.to/lastmile_qr_scan"}, "type": "electric_scooter", "name": "06b601682826a3e6b4038774fda1b2d4", "is_reserved": 0, "lon": -77.00562816666667, "is_disabled": 0, "fusion_lat": 0.0, "lat": 38.87660416666667, "bike_id": "06b601682826a3e6b4038774fda1b2d4", "fusion_lon": 0.0}, {"rental_uris": {"ios": "https://dc.lft.to/lastmile_qr_scan", "android": "https://dc.lft.to/lastmile_qr_scan"}, "type": "electric_scooter", "name": "7247704b353b5eea83c869441dd2cc3e", "is_reserved": 0, "lon": -77.03407383333334, "is_disabled": 0, "fusion_lat": 0.0, "lat": 38.901300666666664, "bike_id": "7247704b353b5eea83c869441dd2cc3e", "fusion_lon": 0.0}, {"rental_uris": {"ios": "https://dc.lft.to/lastmile_qr_scan", "android": "https://dc.lft.to/lastmile_qr_scan"}, "type": "electric_scooter", "name": "23dd38689204493f916f1a15a1a6e6ec", "is_reserved": 0, "lon": -76.92303983333333, "is_disabled": 0, "fusion_lat": 0.0, "lat": 38.893838833333334, "bike_id": "23dd38689204493f916f1a15a1a6e6ec", "fusion_lon": 0.0}, {"rental_uris": {"ios": "https://dc.lft.to/lastmile_qr_scan", "android": "https://dc.lft.to/lastmile_qr_scan"}, "type": "electric_scooter", "name": "291bdf34458f0653fe38842d1fea1c92", "is_reserved": 0, "lon": -77.0257345, "is_disabled": 0, "fusion_lat": 0.0, "lat": 38.948428166666666, "bike_id": "291bdf34458f0653fe38842d1fea1c92", "fusion_lon": 0.0}, {"rental_uris": {"ios": "https://dc.lft.to/lastmile_qr_scan", "android": "https://dc.lft.to/lastmile_qr_scan"}, "type": "electric_scooter", "name": "b846bde4943b201856da23cf2e47b5ff", "is_reserved": 0, "lon": -76.94634483333333, "is_disabled": 0, "fusion_lat": 0.0, "lat": 38.89863416666667, "bike_id": "b846bde4943b201856da23cf2e47b5ff", "fusion_lon": 0.0}, {"rental_uris": {"ios": "https://dc.lft.to/lastmile_qr_scan", "android": "https://dc.lft.to/lastmile_qr_scan"}, "type": "electric_scooter", "name": "bc717bb579c897c4d8b2a8a64ad480e6", "is_reserved": 0, "lon": -77.0334355, "is_disabled": 0, "fusion_lat": 0.0, "lat": 38.928717, "bike_id": "bc717bb579c897c4d8b2a8a64ad480e6", "fusion_lon": 0.0}, {"rental_uris": {"ios": "https://dc.lft.to/lastmile_qr_scan", "android": "https://dc.lft.to/lastmile_qr_scan"}, "type": "electric_scooter", "name": "6b9ba9e643c172a35604283c82517a74", "is_reserved": 0, "lon": -77.01062183333333, "is_disabled": 0, "fusion_lat": 0.0, "lat": 38.911962833333334, "bike_id": "6b9ba9e643c172a35604283c82517a74", "fusion_lon": 0.0}, {"rental_uris": {"ios": "https://dc.lft.to/lastmile_qr_scan", "android": "https://dc.lft.to/lastmile_qr_scan"}, "type": "electric_scooter", "name": "b9a6894f2b3bbb8cffb0a09f4dab96b3", "is_reserved": 0, "lon": -77.02016916666666, "is_disabled": 0, "fusion_lat": 0.0, "lat": 38.92326533333333, "bike_id": "b9a6894f2b3bbb8cffb0a09f4dab96b3", "fusion_lon": 0.0}, {"rental_uris": {"ios": "https://dc.lft.to/lastmile_qr_scan", "android": "https://dc.lft.to/lastmile_qr_scan"}, "type": "electric_scooter", "name": "69312142f684fc8df4c2a0b657ca3e15", "is_reserved": 0, "lon": -77.0364165, "is_disabled": 0, "fusion_lat": 0.0, "lat": 38.9248335, "bike_id": "69312142f684fc8df4c2a0b657ca3e15", "fusion_lon": 0.0}, {"rental_uris": {"ios": "https://dc.lft.to/lastmile_qr_scan", "android": "https://dc.lft.to/lastmile_qr_scan"}, "type": "electric_scooter", "name": "a294dda7ed4825c59cc64d080287cc7e", "is_reserved": 0, "lon": -77.00316016666666, "is_disabled": 0, "fusion_lat": 0.0, "lat": 38.9091405, "bike_id": "a294dda7ed4825c59cc64d080287cc7e", "fusion_lon": 0.0}, {"rental_uris": {"ios": "https://dc.lft.to/lastmile_qr_scan", "android": "https://dc.lft.to/lastmile_qr_scan"}, "type": "electric_scooter", "name": "1e1ad875a0b1a21113a3a447f046645e", "is_reserved": 0, "lon": -77.005538, "is_disabled": 0, "fusion_lat": 0.0, "lat": 38.91178933333333, "bike_id": "1e1ad875a0b1a21113a3a447f046645e", "fusion_lon": 0.0}, {"rental_uris": {"ios": "https://dc.lft.to/lastmile_qr_scan", "android": "https://dc.lft.to/lastmile_qr_scan"}, "type": "electric_scooter", "name": "d55a7bf3feff8787368c553513b55325", "is_reserved": 0, "lon": -77.04674966666667, "is_disabled": 0, "fusion_lat": 0.0, "lat": 38.892248333333335, "bike_id": "d55a7bf3feff8787368c553513b55325", "fusion_lon": 0.0}, {"rental_uris": {"ios": "https://dc.lft.to/lastmile_qr_scan", "android": "https://dc.lft.to/lastmile_qr_scan"}, "type": "electric_scooter", "name": "5f26f8b5982ef726844b96a16456ac51", "is_reserved": 0, "lon": -76.98084333333334, "is_disabled": 0, "fusion_lat": 0.0, "lat": 38.90412, "bike_id": "5f26f8b5982ef726844b96a16456ac51", "fusion_lon": 0.0}, {"rental_uris": {"ios": "https://dc.lft.to/lastmile_qr_scan", "android": "https://dc.lft.to/lastmile_qr_scan"}, "type": "electric_bike", "name": "1274c3f94cc8100f1e839ce7ff901ecd", "is_reserved": 0, "lon": -77.04354483333333, "is_disabled": 0, "fusion_lat": 0.0, "lat": 38.8972335, "bike_id": "1274c3f94cc8100f1e839ce7ff901ecd", "fusion_lon": 0.0}, {"rental_uris": {"ios": "https://dc.lft.to/lastmile_qr_scan", "android": "https://dc.lft.to/lastmile_qr_scan"}, "type": "electric_scooter", "name": "0531de67a112edd34fdec6366a4c8da7", "is_reserved": 0, "lon": -77.0152875, "is_disabled": 0, "fusion_lat": 0.0, "lat": 38.887322, "bike_id": "0531de67a112edd34fdec6366a4c8da7", "fusion_lon": 0.0}, {"rental_uris": {"ios": "https://dc.lft.to/lastmile_qr_scan", "android": "https://dc.lft.to/lastmile_qr_scan"}, "type": "electric_scooter", "name": "c67b4150923d0883a046c4ce1fa852ae", "is_reserved": 0, "lon": -77.05421166666666, "is_disabled": 0, "fusion_lat": 0.0, "lat": 38.9282985, "bike_id": "c67b4150923d0883a046c4ce1fa852ae", "fusion_lon": 0.0}, {"rental_uris": {"ios": "https://dc.lft.to/lastmile_qr_scan", "android": "https://dc.lft.to/lastmile_qr_scan"}, "type": "electric_scooter", "name": "103087da34c21b2839faaf68d1a35a5d", "is_reserved": 0, "lon": -77.02283933333334, "is_disabled": 0, "fusion_lat": 0.0, "lat": 38.92665866666667, "bike_id": "103087da34c21b2839faaf68d1a35a5d", "fusion_lon": 0.0}, {"rental_uris": {"ios": "https://dc.lft.to/lastmile_qr_scan", "android": "https://dc.lft.to/lastmile_qr_scan"}, "type": "electric_scooter", "name": "76129b9bc5218bc646e81860ae07e5e0", "is_reserved": 0, "lon": -77.02198316666667, "is_disabled": 0, "fusion_lat": 0.0, "lat": 38.879027, "bike_id": "76129b9bc5218bc646e81860ae07e5e0", "fusion_lon": 0.0}, {"rental_uris": {"ios": "https://dc.lft.to/lastmile_qr_scan", "android": "https://dc.lft.to/lastmile_qr_scan"}, "type": "electric_scooter", "name": "0b06ff4c8846d014ed58f2e4ba906f1f", "is_reserved": 0, "lon": -77.03481533333333, "is_disabled": 0, "fusion_lat": 0.0, "lat": 38.9303135, "bike_id": "0b06ff4c8846d014ed58f2e4ba906f1f", "fusion_lon": 0.0}, {"rental_uris": {"ios": "https://dc.lft.to/lastmile_qr_scan", "android": "https://dc.lft.to/lastmile_qr_scan"}, "type": "electric_scooter", "name": "bd8fbb45bd5bb7a054efd3a01615e2fd", "is_reserved": 0, "lon": -77.03963716666667, "is_disabled": 0, "fusion_lat": 0.0, "lat": 38.931479833333334, "bike_id": "bd8fbb45bd5bb7a054efd3a01615e2fd", "fusion_lon": 0.0}, {"rental_uris": {"ios": "https://dc.lft.to/lastmile_qr_scan", "android": "https://dc.lft.to/lastmile_qr_scan"}, "type": "electric_scooter", "name": "7c73ba7a70f71ccbfb58e7b43073d370", "is_reserved": 0, "lon": -77.02155433333333, "is_disabled": 0, "fusion_lat": 0.0, "lat": 38.9250595, "bike_id": "7c73ba7a70f71ccbfb58e7b43073d370", "fusion_lon": 0.0}, {"rental_uris": {"ios": "https://dc.lft.to/lastmile_qr_scan", "android": "https://dc.lft.to/lastmile_qr_scan"}, "type": "electric_scooter", "name": "3490289b9970a3bb455960d36dc3b30b", "is_reserved": 0, "lon": -77.0424195, "is_disabled": 0, "fusion_lat": 0.0, "lat": 38.9243745, "bike_id": "3490289b9970a3bb455960d36dc3b30b", "fusion_lon": 0.0}, {"rental_uris": {"ios": "https://dc.lft.to/lastmile_qr_scan", "android": "https://dc.lft.to/lastmile_qr_scan"}, "type": "electric_scooter", "name": "0eb9c541f743e6d2d56fe850e4616c4b", "is_reserved": 0, "lon": -77.007229, "is_disabled": 0, "fusion_lat": 0.0, "lat": 38.87831516666667, "bike_id": "0eb9c541f743e6d2d56fe850e4616c4b", "fusion_lon": 0.0}, {"rental_uris": {"ios": "https://dc.lft.to/lastmile_qr_scan", "android": "https://dc.lft.to/lastmile_qr_scan"}, "type": "electric_scooter", "name": "c343357b342cb2b6418fc18f8afe9ce5", "is_reserved": 0, "lon": -77.02723816666666, "is_disabled": 0, "fusion_lat": 0.0, "lat": 38.924830166666666, "bike_id": "c343357b342cb2b6418fc18f8afe9ce5", "fusion_lon": 0.0}, {"rental_uris": {"ios": "https://dc.lft.to/lastmile_qr_scan", "android": "https://dc.lft.to/lastmile_qr_scan"}, "type": "electric_scooter", "name": "b300f8fef0bc828bada9b59c19d99c76", "is_reserved": 0, "lon": -77.02453633333333, "is_disabled": 0, "fusion_lat": 0.0, "lat": 38.9177795, "bike_id": "b300f8fef0bc828bada9b59c19d99c76", "fusion_lon": 0.0}, {"rental_uris": {"ios": "https://dc.lft.to/lastmile_qr_scan", "android": "https://dc.lft.to/lastmile_qr_scan"}, "type": "electric_scooter", "name": "9685b885d63dc859fa27a8e3df45b173", "is_reserved": 0, "lon": -77.02072983333333, "is_disabled": 0, "fusion_lat": 0.0, "lat": 38.924124, "bike_id": "9685b885d63dc859fa27a8e3df45b173", "fusion_lon": 0.0}, {"rental_uris": {"ios": "https://dc.lft.to/lastmile_qr_scan", "android": "https://dc.lft.to/lastmile_qr_scan"}, "type": "electric_scooter", "name": "5e06353468431180a67c5be9439d43ae", "is_reserved": 0, "lon": -77.02339116666667, "is_disabled": 0, "fusion_lat": 0.0, "lat": 38.88136033333333, "bike_id": "5e06353468431180a67c5be9439d43ae", "fusion_lon": 0.0}, {"rental_uris": {"ios": "https://dc.lft.to/lastmile_qr_scan", "android": "https://dc.lft.to/lastmile_qr_scan"}, "type": "electric_scooter", "name": "38ab8a9b6be82232e791cda858025143", "is_reserved": 0, "lon": -77.04116716666667, "is_disabled": 0, "fusion_lat": 0.0, "lat": 38.92115316666667, "bike_id": "38ab8a9b6be82232e791cda858025143", "fusion_lon": 0.0}, {"rental_uris": {"ios": "https://dc.lft.to/lastmile_qr_scan", "android": "https://dc.lft.to/lastmile_qr_scan"}, "type": "electric_scooter", "name": "3a6946037e0ccf7584d265022ed63207", "is_reserved": 0, "lon": -77.00409833333333, "is_disabled": 0, "fusion_lat": 0.0, "lat": 38.87470616666667, "bike_id": "3a6946037e0ccf7584d265022ed63207", "fusion_lon": 0.0}, {"rental_uris": {"ios": "https://dc.lft.to/lastmile_qr_scan", "android": "https://dc.lft.to/lastmile_qr_scan"}, "type": "electric_scooter", "name": "2af05cb5ea1429842441df06ae77c9f4", "is_reserved": 0, "lon": -77.01637483333333, "is_disabled": 0, "fusion_lat": 0.0, "lat": 38.9158705, "bike_id": "2af05cb5ea1429842441df06ae77c9f4", "fusion_lon": 0.0}, {"rental_uris": {"ios": "https://dc.lft.to/lastmile_qr_scan", "android": "https://dc.lft.to/lastmile_qr_scan"}, "type": "electric_scooter", "name": "3d8e98b789413c9279110234509ed667", "is_reserved": 0, "lon": -77.00480616666667, "is_disabled": 0, "fusion_lat": 0.0, "lat": 38.874579833333335, "bike_id": "3d8e98b789413c9279110234509ed667", "fusion_lon": 0.0}, {"rental_uris": {"ios": "https://dc.lft.to/lastmile_qr_scan", "android": "https://dc.lft.to/lastmile_qr_scan"}, "type": "electric_scooter", "name": "eae567541c22b4f4be076038863079b2", "is_reserved": 0, "lon": -77.04630066666667, "is_disabled": 0, "fusion_lat": 0.0, "lat": 38.90050016666667, "bike_id": "eae567541c22b4f4be076038863079b2", "fusion_lon": 0.0}, {"rental_uris": {"ios": "https://dc.lft.to/lastmile_qr_scan", "android": "https://dc.lft.to/lastmile_qr_scan"}, "type": "electric_scooter", "name": "07c4cb1d0576b81c71ef46ab4081da23", "is_reserved": 0, "lon": -77.00839683333334, "is_disabled": 0, "fusion_lat": 0.0, "lat": 38.91254966666666, "bike_id": "07c4cb1d0576b81c71ef46ab4081da23", "fusion_lon": 0.0}, {"rental_uris": {"ios": "https://dc.lft.to/lastmile_qr_scan", "android": "https://dc.lft.to/lastmile_qr_scan"}, "type": "electric_scooter", "name": "29aa8400ced7a1dee148e141a8132b88", "is_reserved": 0, "lon": -77.0387255, "is_disabled": 0, "fusion_lat": 0.0, "lat": 38.91265033333333, "bike_id": "29aa8400ced7a1dee148e141a8132b88", "fusion_lon": 0.0}, {"rental_uris": {"ios": "https://dc.lft.to/lastmile_qr_scan", "android": "https://dc.lft.to/lastmile_qr_scan"}, "type": "electric_scooter", "name": "2a99c5c048e74fc329b50a7a51d4c840", "is_reserved": 0, "lon": -77.027765, "is_disabled": 0, "fusion_lat": 0.0, "lat": 38.88744766666667, "bike_id": "2a99c5c048e74fc329b50a7a51d4c840", "fusion_lon": 0.0}, {"rental_uris": {"ios": "https://dc.lft.to/lastmile_qr_scan", "android": "https://dc.lft.to/lastmile_qr_scan"}, "type": "electric_scooter", "name": "7f7dba7763d40fad28ef5db308896f35", "is_reserved": 0, "lon": -77.025015, "is_disabled": 0, "fusion_lat": 0.0, "lat": 38.94032816666667, "bike_id": "7f7dba7763d40fad28ef5db308896f35", "fusion_lon": 0.0}, {"rental_uris": {"ios": "https://dc.lft.to/lastmile_qr_scan", "android": "https://dc.lft.to/lastmile_qr_scan"}, "type": "electric_scooter", "name": "7133597ff7aceeb484a1da922139abee", "is_reserved": 0, "lon": -77.00589833333333, "is_disabled": 0, "fusion_lat": 0.0, "lat": 38.900355166666664, "bike_id": "7133597ff7aceeb484a1da922139abee", "fusion_lon": 0.0}, {"rental_uris": {"ios": "https://dc.lft.to/lastmile_qr_scan", "android": "https://dc.lft.to/lastmile_qr_scan"}, "type": "electric_scooter", "name": "0c2112690d305aea113bff19bca526d8", "is_reserved": 0, "lon": -77.068089, "is_disabled": 0, "fusion_lat": 0.0, "lat": 38.905071, "bike_id": "0c2112690d305aea113bff19bca526d8", "fusion_lon": 0.0}, {"rental_uris": {"ios": "https://dc.lft.to/lastmile_qr_scan", "android": "https://dc.lft.to/lastmile_qr_scan"}, "type": "electric_scooter", "name": "e9019ecc272cc43e7c80efbeacf55f9e", "is_reserved": 0, "lon": -76.99035083333334, "is_disabled": 0, "fusion_lat": 0.0, "lat": 38.8887425, "bike_id": "e9019ecc272cc43e7c80efbeacf55f9e", "fusion_lon": 0.0}, {"rental_uris": {"ios": "https://dc.lft.to/lastmile_qr_scan", "android": "https://dc.lft.to/lastmile_qr_scan"}, "type": "electric_scooter", "name": "99f2fd71db0391f5981123b81be35b8b", "is_reserved": 0, "lon": -77.071965, "is_disabled": 0, "fusion_lat": 0.0, "lat": 38.9125315, "bike_id": "99f2fd71db0391f5981123b81be35b8b", "fusion_lon": 0.0}, {"rental_uris": {"ios": "https://dc.lft.to/lastmile_qr_scan", "android": "https://dc.lft.to/lastmile_qr_scan"}, "type": "electric_scooter", "name": "e4b3facc3ec71641d4c24e97cc68177d", "is_reserved": 0, "lon": -77.04677083333333, "is_disabled": 0, "fusion_lat": 0.0, "lat": 38.90720833333334, "bike_id": "e4b3facc3ec71641d4c24e97cc68177d", "fusion_lon": 0.0}, {"rental_uris": {"ios": "https://dc.lft.to/lastmile_qr_scan", "android": "https://dc.lft.to/lastmile_qr_scan"}, "type": "electric_scooter", "name": "0f9f1bd01323ab19de9bba54f86f8634", "is_reserved": 0, "lon": -77.0628325, "is_disabled": 0, "fusion_lat": 0.0, "lat": 38.912434166666664, "bike_id": "0f9f1bd01323ab19de9bba54f86f8634", "fusion_lon": 0.0}, {"rental_uris": {"ios": "https://dc.lft.to/lastmile_qr_scan", "android": "https://dc.lft.to/lastmile_qr_scan"}, "type": "electric_scooter", "name": "1efcfe7a774db699cbd7a3106ea1d959", "is_reserved": 0, "lon": -77.038703, "is_disabled": 0, "fusion_lat": 0.0, "lat": 38.921475, "bike_id": "1efcfe7a774db699cbd7a3106ea1d959", "fusion_lon": 0.0}, {"rental_uris": {"ios": "https://dc.lft.to/lastmile_qr_scan", "android": "https://dc.lft.to/lastmile_qr_scan"}, "type": "electric_scooter", "name": "42e1564a02c38215d0f9553d23c57dd9", "is_reserved": 0, "lon": -77.03339533333333, "is_disabled": 0, "fusion_lat": 0.0, "lat": 38.91914533333333, "bike_id": "42e1564a02c38215d0f9553d23c57dd9", "fusion_lon": 0.0}, {"rental_uris": {"ios": "https://dc.lft.to/lastmile_qr_scan", "android": "https://dc.lft.to/lastmile_qr_scan"}, "type": "electric_scooter", "name": "cec10ff17e8c36dfe4c982febd13dd2c", "is_reserved": 0, "lon": -77.043667, "is_disabled": 0, "fusion_lat": 0.0, "lat": 38.89220683333333, "bike_id": "cec10ff17e8c36dfe4c982febd13dd2c", "fusion_lon": 0.0}, {"rental_uris": {"ios": "https://dc.lft.to/lastmile_qr_scan", "android": "https://dc.lft.to/lastmile_qr_scan"}, "type": "electric_scooter", "name": "b1377682ae3b1ed5800725fc2bf90b66", "is_reserved": 0, "lon": -77.0344075, "is_disabled": 0, "fusion_lat": 0.0, "lat": 38.91798983333333, "bike_id": "b1377682ae3b1ed5800725fc2bf90b66", "fusion_lon": 0.0}, {"rental_uris": {"ios": "https://dc.lft.to/lastmile_qr_scan", "android": "https://dc.lft.to/lastmile_qr_scan"}, "type": "electric_scooter", "name": "beb656eeac60d14d8410379fea0415b5", "is_reserved": 0, "lon": -77.02108283333334, "is_disabled": 0, "fusion_lat": 0.0, "lat": 38.9268965, "bike_id": "beb656eeac60d14d8410379fea0415b5", "fusion_lon": 0.0}, {"rental_uris": {"ios": "https://dc.lft.to/lastmile_qr_scan", "android": "https://dc.lft.to/lastmile_qr_scan"}, "type": "electric_scooter", "name": "1b2b49420c903a483eadd14c22362e46", "is_reserved": 0, "lon": -77.02604916666667, "is_disabled": 0, "fusion_lat": 0.0, "lat": 38.92421866666667, "bike_id": "1b2b49420c903a483eadd14c22362e46", "fusion_lon": 0.0}, {"rental_uris": {"ios": "https://dc.lft.to/lastmile_qr_scan", "android": "https://dc.lft.to/lastmile_qr_scan"}, "type": "electric_scooter", "name": "e5f664867269eeed91076ccb7d8029d3", "is_reserved": 0, "lon": -77.029169, "is_disabled": 0, "fusion_lat": 0.0, "lat": 38.904175333333335, "bike_id": "e5f664867269eeed91076ccb7d8029d3", "fusion_lon": 0.0}, {"rental_uris": {"ios": "https://dc.lft.to/lastmile_qr_scan", "android": "https://dc.lft.to/lastmile_qr_scan"}, "type": "electric_scooter", "name": "3ca14a41a19b5b59089f74fc0bcfa810", "is_reserved": 0, "lon": -76.98541916666667, "is_disabled": 0, "fusion_lat": 0.0, "lat": 38.9129265, "bike_id": "3ca14a41a19b5b59089f74fc0bcfa810", "fusion_lon": 0.0}, {"rental_uris": {"ios": "https://dc.lft.to/lastmile_qr_scan", "android": "https://dc.lft.to/lastmile_qr_scan"}, "type": "electric_scooter", "name": "e6663e56b34bd5e0480f9d0c24c2c0ac", "is_reserved": 0, "lon": -77.0337105, "is_disabled": 0, "fusion_lat": 0.0, "lat": 38.9110545, "bike_id": "e6663e56b34bd5e0480f9d0c24c2c0ac", "fusion_lon": 0.0}, {"rental_uris": {"ios": "https://dc.lft.to/lastmile_qr_scan", "android": "https://dc.lft.to/lastmile_qr_scan"}, "type": "electric_bike", "name": "3db8f888520b87281c6bccd3161f1d8e", "is_reserved": 0, "lon": -77.05182433333333, "is_disabled": 0, "fusion_lat": 0.0, "lat": 38.844711333333336, "bike_id": "3db8f888520b87281c6bccd3161f1d8e", "fusion_lon": 0.0}, {"rental_uris": {"ios": "https://dc.lft.to/lastmile_qr_scan", "android": "https://dc.lft.to/lastmile_qr_scan"}, "type": "electric_scooter", "name": "f56ff0aa6fd65e80186df625d52f3f81", "is_reserved": 0, "lon": -77.028156, "is_disabled": 0, "fusion_lat": 0.0, "lat": 38.899196833333335, "bike_id": "f56ff0aa6fd65e80186df625d52f3f81", "fusion_lon": 0.0}, {"rental_uris": {"ios": "https://dc.lft.to/lastmile_qr_scan", "android": "https://dc.lft.to/lastmile_qr_scan"}, "type": "electric_scooter", "name": "97b38635532e97c03e3f24beb4fc51b2", "is_reserved": 0, "lon": -77.045123, "is_disabled": 0, "fusion_lat": 0.0, "lat": 38.92314533333333, "bike_id": "97b38635532e97c03e3f24beb4fc51b2", "fusion_lon": 0.0}, {"rental_uris": {"ios": "https://dc.lft.to/lastmile_qr_scan", "android": "https://dc.lft.to/lastmile_qr_scan"}, "type": "electric_scooter", "name": "812e0fe9160da1ed2c5a9e6fe491052d", "is_reserved": 0, "lon": -77.07167583333333, "is_disabled": 0, "fusion_lat": 0.0, "lat": 38.907612666666665, "bike_id": "812e0fe9160da1ed2c5a9e6fe491052d", "fusion_lon": 0.0}, {"rental_uris": {"ios": "https://dc.lft.to/lastmile_qr_scan", "android": "https://dc.lft.to/lastmile_qr_scan"}, "type": "electric_scooter", "name": "c82f132510f8785b3deb1e78d344d23c", "is_reserved": 0, "lon": -77.01589366666667, "is_disabled": 0, "fusion_lat": 0.0, "lat": 38.8722275, "bike_id": "c82f132510f8785b3deb1e78d344d23c", "fusion_lon": 0.0}, {"rental_uris": {"ios": "https://dc.lft.to/lastmile_qr_scan", "android": "https://dc.lft.to/lastmile_qr_scan"}, "type": "electric_scooter", "name": "879406fab5cce2a0e70fcf4becce59b2", "is_reserved": 0, "lon": -77.0248195, "is_disabled": 0, "fusion_lat": 0.0, "lat": 38.923973833333335, "bike_id": "879406fab5cce2a0e70fcf4becce59b2", "fusion_lon": 0.0}, {"rental_uris": {"ios": "https://dc.lft.to/lastmile_qr_scan", "android": "https://dc.lft.to/lastmile_qr_scan"}, "type": "electric_scooter", "name": "1d295c0ad63c5d8bfa4da186ef4a41da", "is_reserved": 0, "lon": -77.03847533333334, "is_disabled": 0, "fusion_lat": 0.0, "lat": 38.9094485, "bike_id": "1d295c0ad63c5d8bfa4da186ef4a41da", "fusion_lon": 0.0}, {"rental_uris": {"ios": "https://dc.lft.to/lastmile_qr_scan", "android": "https://dc.lft.to/lastmile_qr_scan"}, "type": "electric_scooter", "name": "5dfc6052d506c2e26d127180c0476630", "is_reserved": 0, "lon": -76.92949766666666, "is_disabled": 0, "fusion_lat": 0.0, "lat": 38.9033375, "bike_id": "5dfc6052d506c2e26d127180c0476630", "fusion_lon": 0.0}, {"rental_uris": {"ios": "https://dc.lft.to/lastmile_qr_scan", "android": "https://dc.lft.to/lastmile_qr_scan"}, "type": "electric_scooter", "name": "7cee84ed7712df5bccc70f807f649792", "is_reserved": 0, "lon": -77.02700066666667, "is_disabled": 0, "fusion_lat": 0.0, "lat": 38.9190875, "bike_id": "7cee84ed7712df5bccc70f807f649792", "fusion_lon": 0.0}, {"rental_uris": {"ios": "https://dc.lft.to/lastmile_qr_scan", "android": "https://dc.lft.to/lastmile_qr_scan"}, "type": "electric_scooter", "name": "105faa5182557e384858122a920f44b5", "is_reserved": 0, "lon": -77.05072866666667, "is_disabled": 0, "fusion_lat": 0.0, "lat": 38.903769, "bike_id": "105faa5182557e384858122a920f44b5", "fusion_lon": 0.0}, {"rental_uris": {"ios": "https://dc.lft.to/lastmile_qr_scan", "android": "https://dc.lft.to/lastmile_qr_scan"}, "type": "electric_bike", "name": "3fec5d972fcd8decc8c40d623b838979", "is_reserved": 0, "lon": -76.99865533333333, "is_disabled": 0, "fusion_lat": 0.0, "lat": 38.908989, "bike_id": "3fec5d972fcd8decc8c40d623b838979", "fusion_lon": 0.0}, {"rental_uris": {"ios": "https://dc.lft.to/lastmile_qr_scan", "android": "https://dc.lft.to/lastmile_qr_scan"}, "type": "electric_scooter", "name": "b9a8b59bbebc7f3bedf1b3e32949dade", "is_reserved": 0, "lon": -77.03467916666666, "is_disabled": 0, "fusion_lat": 0.0, "lat": 38.905642, "bike_id": "b9a8b59bbebc7f3bedf1b3e32949dade", "fusion_lon": 0.0}, {"rental_uris": {"ios": "https://dc.lft.to/lastmile_qr_scan", "android": "https://dc.lft.to/lastmile_qr_scan"}, "type": "electric_bike", "name": "8d5cd1551bf5fea063cdb908c15520cc", "is_reserved": 0, "lon": -76.9630305, "is_disabled": 0, "fusion_lat": 0.0, "lat": 38.89696883333333, "bike_id": "8d5cd1551bf5fea063cdb908c15520cc", "fusion_lon": 0.0}, {"rental_uris": {"ios": "https://dc.lft.to/lastmile_qr_scan", "android": "https://dc.lft.to/lastmile_qr_scan"}, "type": "electric_scooter", "name": "8ed4c404eaf13ec2d73fa9b7bafdbee4", "is_reserved": 0, "lon": -77.02812683333333, "is_disabled": 0, "fusion_lat": 0.0, "lat": 38.892325666666665, "bike_id": "8ed4c404eaf13ec2d73fa9b7bafdbee4", "fusion_lon": 0.0}, {"rental_uris": {"ios": "https://dc.lft.to/lastmile_qr_scan", "android": "https://dc.lft.to/lastmile_qr_scan"}, "type": "electric_scooter", "name": "6f5da65279a933f6446332140f1dcd54", "is_reserved": 0, "lon": -77.04021333333333, "is_disabled": 0, "fusion_lat": 0.0, "lat": 38.92250683333333, "bike_id": "6f5da65279a933f6446332140f1dcd54", "fusion_lon": 0.0}, {"rental_uris": {"ios": "https://dc.lft.to/lastmile_qr_scan", "android": "https://dc.lft.to/lastmile_qr_scan"}, "type": "electric_scooter", "name": "26652636d5769acb86328d9a5f090c88", "is_reserved": 0, "lon": -77.00618033333333, "is_disabled": 0, "fusion_lat": 0.0, "lat": 38.87835033333333, "bike_id": "26652636d5769acb86328d9a5f090c88", "fusion_lon": 0.0}, {"rental_uris": {"ios": "https://dc.lft.to/lastmile_qr_scan", "android": "https://dc.lft.to/lastmile_qr_scan"}, "type": "electric_scooter", "name": "1f6af5dd7bc8452315515aabc025cba2", "is_reserved": 0, "lon": -77.044423, "is_disabled": 0, "fusion_lat": 0.0, "lat": 38.91265633333333, "bike_id": "1f6af5dd7bc8452315515aabc025cba2", "fusion_lon": 0.0}, {"rental_uris": {"ios": "https://dc.lft.to/lastmile_qr_scan", "android": "https://dc.lft.to/lastmile_qr_scan"}, "type": "electric_scooter", "name": "0e12cc4f121e316ae5ab81124ebc2239", "is_reserved": 0, "lon": -76.98279766666667, "is_disabled": 0, "fusion_lat": 0.0, "lat": 38.9034235, "bike_id": "0e12cc4f121e316ae5ab81124ebc2239", "fusion_lon": 0.0}, {"rental_uris": {"ios": "https://dc.lft.to/lastmile_qr_scan", "android": "https://dc.lft.to/lastmile_qr_scan"}, "type": "electric_scooter", "name": "8c53796df43bab4f749d238cde664030", "is_reserved": 0, "lon": -77.03073533333334, "is_disabled": 0, "fusion_lat": 0.0, "lat": 38.92380166666667, "bike_id": "8c53796df43bab4f749d238cde664030", "fusion_lon": 0.0}, {"rental_uris": {"ios": "https://dc.lft.to/lastmile_qr_scan", "android": "https://dc.lft.to/lastmile_qr_scan"}, "type": "electric_scooter", "name": "ca1528a19b9dec5ba2eda69b8c8ad853", "is_reserved": 0, "lon": -77.002095, "is_disabled": 0, "fusion_lat": 0.0, "lat": 38.9004315, "bike_id": "ca1528a19b9dec5ba2eda69b8c8ad853", "fusion_lon": 0.0}, {"rental_uris": {"ios": "https://dc.lft.to/lastmile_qr_scan", "android": "https://dc.lft.to/lastmile_qr_scan"}, "type": "electric_scooter", "name": "88c60ab74a6a1812bf1cf59047609272", "is_reserved": 0, "lon": -77.02931216666667, "is_disabled": 0, "fusion_lat": 0.0, "lat": 38.897525333333334, "bike_id": "88c60ab74a6a1812bf1cf59047609272", "fusion_lon": 0.0}, {"rental_uris": {"ios": "https://dc.lft.to/lastmile_qr_scan", "android": "https://dc.lft.to/lastmile_qr_scan"}, "type": "electric_scooter", "name": "8fdd3b6eacb0caee3909295d7752c9a2", "is_reserved": 0, "lon": -77.06100316666667, "is_disabled": 0, "fusion_lat": 0.0, "lat": 38.93701866666667, "bike_id": "8fdd3b6eacb0caee3909295d7752c9a2", "fusion_lon": 0.0}, {"rental_uris": {"ios": "https://dc.lft.to/lastmile_qr_scan", "android": "https://dc.lft.to/lastmile_qr_scan"}, "type": "electric_scooter", "name": "963e7dd5945ca6a6842bfc9ebb8ed2c9", "is_reserved": 0, "lon": -77.02692166666667, "is_disabled": 0, "fusion_lat": 0.0, "lat": 38.97244416666667, "bike_id": "963e7dd5945ca6a6842bfc9ebb8ed2c9", "fusion_lon": 0.0}, {"rental_uris": {"ios": "https://dc.lft.to/lastmile_qr_scan", "android": "https://dc.lft.to/lastmile_qr_scan"}, "type": "electric_scooter", "name": "0a4667a0d149c9e51fe73284597631bd", "is_reserved": 0, "lon": -77.02270633333333, "is_disabled": 0, "fusion_lat": 0.0, "lat": 38.91840033333333, "bike_id": "0a4667a0d149c9e51fe73284597631bd", "fusion_lon": 0.0}, {"rental_uris": {"ios": "https://dc.lft.to/lastmile_qr_scan", "android": "https://dc.lft.to/lastmile_qr_scan"}, "type": "electric_scooter", "name": "b0a6f1f1f929cbf24dc678963ca9a570", "is_reserved": 0, "lon": -77.03840716666667, "is_disabled": 0, "fusion_lat": 0.0, "lat": 38.909814, "bike_id": "b0a6f1f1f929cbf24dc678963ca9a570", "fusion_lon": 0.0}, {"rental_uris": {"ios": "https://dc.lft.to/lastmile_qr_scan", "android": "https://dc.lft.to/lastmile_qr_scan"}, "type": "electric_scooter", "name": "8c5c334b9e5db2a74c129d4c5fd350dd", "is_reserved": 0, "lon": -77.0019855, "is_disabled": 0, "fusion_lat": 0.0, "lat": 38.90236766666666, "bike_id": "8c5c334b9e5db2a74c129d4c5fd350dd", "fusion_lon": 0.0}, {"rental_uris": {"ios": "https://dc.lft.to/lastmile_qr_scan", "android": "https://dc.lft.to/lastmile_qr_scan"}, "type": "electric_scooter", "name": "715d1ca86d2ac095a5a93ec37fe6a187", "is_reserved": 0, "lon": -77.03036616666667, "is_disabled": 0, "fusion_lat": 0.0, "lat": 38.89712166666666, "bike_id": "715d1ca86d2ac095a5a93ec37fe6a187", "fusion_lon": 0.0}, {"rental_uris": {"ios": "https://dc.lft.to/lastmile_qr_scan", "android": "https://dc.lft.to/lastmile_qr_scan"}, "type": "electric_bike", "name": "2fe8aa20b9d2efe53e15e26787cfa2a4", "is_reserved": 0, "lon": -76.993534, "is_disabled": 0, "fusion_lat": 0.0, "lat": 38.845042666666664, "bike_id": "2fe8aa20b9d2efe53e15e26787cfa2a4", "fusion_lon": 0.0}, {"rental_uris": {"ios": "https://dc.lft.to/lastmile_qr_scan", "android": "https://dc.lft.to/lastmile_qr_scan"}, "type": "electric_scooter", "name": "494530306c93529ac030eee8b7ed839f", "is_reserved": 0, "lon": -77.04917, "is_disabled": 0, "fusion_lat": 0.0, "lat": 38.90078233333333, "bike_id": "494530306c93529ac030eee8b7ed839f", "fusion_lon": 0.0}, {"rental_uris": {"ios": "https://dc.lft.to/lastmile_qr_scan", "android": "https://dc.lft.to/lastmile_qr_scan"}, "type": "electric_scooter", "name": "bd6e12287217c7df2bd9acb55f92b7ef", "is_reserved": 0, "lon": -76.995897, "is_disabled": 0, "fusion_lat": 0.0, "lat": 38.9094065, "bike_id": "bd6e12287217c7df2bd9acb55f92b7ef", "fusion_lon": 0.0}, {"rental_uris": {"ios": "https://dc.lft.to/lastmile_qr_scan", "android": "https://dc.lft.to/lastmile_qr_scan"}, "type": "electric_scooter", "name": "99be2b8fc84436584a82dab341598598", "is_reserved": 0, "lon": -77.06099, "is_disabled": 0, "fusion_lat": 0.0, "lat": 38.93987333333333, "bike_id": "99be2b8fc84436584a82dab341598598", "fusion_lon": 0.0}, {"rental_uris": {"ios": "https://dc.lft.to/lastmile_qr_scan", "android": "https://dc.lft.to/lastmile_qr_scan"}, "type": "electric_scooter", "name": "3e79d7a3eb05399d34fa0de5ce68062d", "is_reserved": 0, "lon": -77.06852016666667, "is_disabled": 0, "fusion_lat": 0.0, "lat": 38.90412, "bike_id": "3e79d7a3eb05399d34fa0de5ce68062d", "fusion_lon": 0.0}, {"rental_uris": {"ios": "https://dc.lft.to/lastmile_qr_scan", "android": "https://dc.lft.to/lastmile_qr_scan"}, "type": "electric_scooter", "name": "092bdd58f3dab271a5254cbbd53a477c", "is_reserved": 0, "lon": -77.048235, "is_disabled": 0, "fusion_lat": 0.0, "lat": 38.914868, "bike_id": "092bdd58f3dab271a5254cbbd53a477c", "fusion_lon": 0.0}, {"rental_uris": {"ios": "https://dc.lft.to/lastmile_qr_scan", "android": "https://dc.lft.to/lastmile_qr_scan"}, "type": "electric_scooter", "name": "b42f170e48367e13c92e0aa86dea8527", "is_reserved": 0, "lon": -77.01518866666666, "is_disabled": 0, "fusion_lat": 0.0, "lat": 38.88493866666666, "bike_id": "b42f170e48367e13c92e0aa86dea8527", "fusion_lon": 0.0}, {"rental_uris": {"ios": "https://dc.lft.to/lastmile_qr_scan", "android": "https://dc.lft.to/lastmile_qr_scan"}, "type": "electric_scooter", "name": "f5e844e4e6524e8b8c4eabc94b405bed", "is_reserved": 0, "lon": -76.9732975, "is_disabled": 0, "fusion_lat": 0.0, "lat": 38.904097666666665, "bike_id": "f5e844e4e6524e8b8c4eabc94b405bed", "fusion_lon": 0.0}, {"rental_uris": {"ios": "https://dc.lft.to/lastmile_qr_scan", "android": "https://dc.lft.to/lastmile_qr_scan"}, "type": "electric_bike", "name": "43a7c9ea13b28de213ce7450ce8cfded", "is_reserved": 0, "lon": -77.06948433333334, "is_disabled": 0, "fusion_lat": 0.0, "lat": 38.836309, "bike_id": "43a7c9ea13b28de213ce7450ce8cfded", "fusion_lon": 0.0}, {"rental_uris": {"ios": "https://dc.lft.to/lastmile_qr_scan", "android": "https://dc.lft.to/lastmile_qr_scan"}, "type": "electric_scooter", "name": "65b05755d056bbef6c7ddfd3bfed37bf", "is_reserved": 0, "lon": -77.03976316666666, "is_disabled": 0, "fusion_lat": 0.0, "lat": 38.93147333333334, "bike_id": "65b05755d056bbef6c7ddfd3bfed37bf", "fusion_lon": 0.0}, {"rental_uris": {"ios": "https://dc.lft.to/lastmile_qr_scan", "android": "https://dc.lft.to/lastmile_qr_scan"}, "type": "electric_scooter", "name": "c47bd7ec098a11f9a18214001e55ad2b", "is_reserved": 0, "lon": -77.01149516666666, "is_disabled": 0, "fusion_lat": 0.0, "lat": 38.909626333333335, "bike_id": "c47bd7ec098a11f9a18214001e55ad2b", "fusion_lon": 0.0}, {"rental_uris": {"ios": "https://dc.lft.to/lastmile_qr_scan", "android": "https://dc.lft.to/lastmile_qr_scan"}, "type": "electric_scooter", "name": "fd9c108d37b567698a8192a54ad9171a", "is_reserved": 0, "lon": -77.021112, "is_disabled": 0, "fusion_lat": 0.0, "lat": 38.91418083333333, "bike_id": "fd9c108d37b567698a8192a54ad9171a", "fusion_lon": 0.0}, {"rental_uris": {"ios": "https://dc.lft.to/lastmile_qr_scan", "android": "https://dc.lft.to/lastmile_qr_scan"}, "type": "electric_scooter", "name": "2b686df411f006f737e6e50db64e366a", "is_reserved": 0, "lon": -76.9989625, "is_disabled": 0, "fusion_lat": 0.0, "lat": 38.952927833333334, "bike_id": "2b686df411f006f737e6e50db64e366a", "fusion_lon": 0.0}, {"rental_uris": {"ios": "https://dc.lft.to/lastmile_qr_scan", "android": "https://dc.lft.to/lastmile_qr_scan"}, "type": "electric_scooter", "name": "af4ecf188484dae7d5d9cb783942a291", "is_reserved": 0, "lon": -77.02364716666666, "is_disabled": 0, "fusion_lat": 0.0, "lat": 38.9022045, "bike_id": "af4ecf188484dae7d5d9cb783942a291", "fusion_lon": 0.0}, {"rental_uris": {"ios": "https://dc.lft.to/lastmile_qr_scan", "android": "https://dc.lft.to/lastmile_qr_scan"}, "type": "electric_scooter", "name": "5f856cb50068fac138c820721e3e4f43", "is_reserved": 0, "lon": -77.0089205, "is_disabled": 0, "fusion_lat": 0.0, "lat": 38.9232905, "bike_id": "5f856cb50068fac138c820721e3e4f43", "fusion_lon": 0.0}, {"rental_uris": {"ios": "https://dc.lft.to/lastmile_qr_scan", "android": "https://dc.lft.to/lastmile_qr_scan"}, "type": "electric_scooter", "name": "ad3d359a58640786ae9d60602937f7fc", "is_reserved": 0, "lon": -76.94860716666666, "is_disabled": 0, "fusion_lat": 0.0, "lat": 38.89474933333333, "bike_id": "ad3d359a58640786ae9d60602937f7fc", "fusion_lon": 0.0}, {"rental_uris": {"ios": "https://dc.lft.to/lastmile_qr_scan", "android": "https://dc.lft.to/lastmile_qr_scan"}, "type": "electric_scooter", "name": "2a30dfc3135d3ea6a28e0a88c9bcb112", "is_reserved": 0, "lon": -77.02967716666667, "is_disabled": 0, "fusion_lat": 0.0, "lat": 38.923302166666666, "bike_id": "2a30dfc3135d3ea6a28e0a88c9bcb112", "fusion_lon": 0.0}, {"rental_uris": {"ios": "https://dc.lft.to/lastmile_qr_scan", "android": "https://dc.lft.to/lastmile_qr_scan"}, "type": "electric_scooter", "name": "90d026806d67651ef4d0af14585f0980", "is_reserved": 0, "lon": -77.03185966666666, "is_disabled": 0, "fusion_lat": 0.0, "lat": 38.920021, "bike_id": "90d026806d67651ef4d0af14585f0980", "fusion_lon": 0.0}, {"rental_uris": {"ios": "https://dc.lft.to/lastmile_qr_scan", "android": "https://dc.lft.to/lastmile_qr_scan"}, "type": "electric_scooter", "name": "6d00670ef8e7f08739d925aea38ef278", "is_reserved": 0, "lon": -77.0055695, "is_disabled": 0, "fusion_lat": 0.0, "lat": 38.876608, "bike_id": "6d00670ef8e7f08739d925aea38ef278", "fusion_lon": 0.0}, {"rental_uris": {"ios": "https://dc.lft.to/lastmile_qr_scan", "android": "https://dc.lft.to/lastmile_qr_scan"}, "type": "electric_scooter", "name": "477c8760f634f3beee95f7cea0e743a6", "is_reserved": 0, "lon": -77.02918033333333, "is_disabled": 0, "fusion_lat": 0.0, "lat": 38.906965166666666, "bike_id": "477c8760f634f3beee95f7cea0e743a6", "fusion_lon": 0.0}, {"rental_uris": {"ios": "https://dc.lft.to/lastmile_qr_scan", "android": "https://dc.lft.to/lastmile_qr_scan"}, "type": "electric_scooter", "name": "dc8d30e0e26d84f869fe734f61c70516", "is_reserved": 0, "lon": -77.0349745, "is_disabled": 0, "fusion_lat": 0.0, "lat": 38.9118635, "bike_id": "dc8d30e0e26d84f869fe734f61c70516", "fusion_lon": 0.0}, {"rental_uris": {"ios": "https://dc.lft.to/lastmile_qr_scan", "android": "https://dc.lft.to/lastmile_qr_scan"}, "type": "electric_scooter", "name": "59aada3e1d36c4bdd65c333778663b69", "is_reserved": 0, "lon": -77.020678, "is_disabled": 0, "fusion_lat": 0.0, "lat": 38.93122666666667, "bike_id": "59aada3e1d36c4bdd65c333778663b69", "fusion_lon": 0.0}, {"rental_uris": {"ios": "https://dc.lft.to/lastmile_qr_scan", "android": "https://dc.lft.to/lastmile_qr_scan"}, "type": "electric_bike", "name": "f6a6bb34d948621f412fa0435db3dc8e", "is_reserved": 0, "lon": -77.00397566666666, "is_disabled": 0, "fusion_lat": 0.0, "lat": 38.9211625, "bike_id": "f6a6bb34d948621f412fa0435db3dc8e", "fusion_lon": 0.0}, {"rental_uris": {"ios": "https://dc.lft.to/lastmile_qr_scan", "android": "https://dc.lft.to/lastmile_qr_scan"}, "type": "electric_scooter", "name": "a86b8cc0190df023d2eb8e7248a44969", "is_reserved": 0, "lon": -77.02951833333333, "is_disabled": 0, "fusion_lat": 0.0, "lat": 38.932447333333336, "bike_id": "a86b8cc0190df023d2eb8e7248a44969", "fusion_lon": 0.0}, {"rental_uris": {"ios": "https://dc.lft.to/lastmile_qr_scan", "android": "https://dc.lft.to/lastmile_qr_scan"}, "type": "electric_scooter", "name": "1aec5bdb8847c6a459c05f79d1134f3a", "is_reserved": 0, "lon": -77.03693266666667, "is_disabled": 0, "fusion_lat": 0.0, "lat": 38.939181, "bike_id": "1aec5bdb8847c6a459c05f79d1134f3a", "fusion_lon": 0.0}, {"rental_uris": {"ios": "https://dc.lft.to/lastmile_qr_scan", "android": "https://dc.lft.to/lastmile_qr_scan"}, "type": "electric_scooter", "name": "a4475655377660dacd476c184dc7ac70", "is_reserved": 0, "lon": -77.0242955, "is_disabled": 0, "fusion_lat": 0.0, "lat": 38.91562966666667, "bike_id": "a4475655377660dacd476c184dc7ac70", "fusion_lon": 0.0}, {"rental_uris": {"ios": "https://dc.lft.to/lastmile_qr_scan", "android": "https://dc.lft.to/lastmile_qr_scan"}, "type": "electric_scooter", "name": "303ff15532c32339e363f8fd43fc3009", "is_reserved": 0, "lon": -77.024102, "is_disabled": 0, "fusion_lat": 0.0, "lat": 38.9451275, "bike_id": "303ff15532c32339e363f8fd43fc3009", "fusion_lon": 0.0}, {"rental_uris": {"ios": "https://dc.lft.to/lastmile_qr_scan", "android": "https://dc.lft.to/lastmile_qr_scan"}, "type": "electric_scooter", "name": "40ece0554db05ab513fad8cf227c3804", "is_reserved": 0, "lon": -77.0048115, "is_disabled": 0, "fusion_lat": 0.0, "lat": 38.874597666666666, "bike_id": "40ece0554db05ab513fad8cf227c3804", "fusion_lon": 0.0}, {"rental_uris": {"ios": "https://dc.lft.to/lastmile_qr_scan", "android": "https://dc.lft.to/lastmile_qr_scan"}, "type": "electric_scooter", "name": "bcbab357b5a0cf8bc46ef91e04108b89", "is_reserved": 0, "lon": -77.01899483333334, "is_disabled": 0, "fusion_lat": 0.0, "lat": 38.87469333333333, "bike_id": "bcbab357b5a0cf8bc46ef91e04108b89", "fusion_lon": 0.0}, {"rental_uris": {"ios": "https://dc.lft.to/lastmile_qr_scan", "android": "https://dc.lft.to/lastmile_qr_scan"}, "type": "electric_scooter", "name": "07b3e05c51abd348bb7f1966949b58ff", "is_reserved": 0, "lon": -77.00649166666666, "is_disabled": 0, "fusion_lat": 0.0, "lat": 38.9124915, "bike_id": "07b3e05c51abd348bb7f1966949b58ff", "fusion_lon": 0.0}, {"rental_uris": {"ios": "https://dc.lft.to/lastmile_qr_scan", "android": "https://dc.lft.to/lastmile_qr_scan"}, "type": "electric_bike", "name": "be2b856c8ab0028814246dce213a2f86", "is_reserved": 0, "lon": -76.98058883333333, "is_disabled": 0, "fusion_lat": 0.0, "lat": 38.9724835, "bike_id": "be2b856c8ab0028814246dce213a2f86", "fusion_lon": 0.0}, {"rental_uris": {"ios": "https://dc.lft.to/lastmile_qr_scan", "android": "https://dc.lft.to/lastmile_qr_scan"}, "type": "electric_scooter", "name": "e5852dde2f939701f4b8d1fea094aa34", "is_reserved": 0, "lon": -77.03986083333334, "is_disabled": 0, "fusion_lat": 0.0, "lat": 38.93402, "bike_id": "e5852dde2f939701f4b8d1fea094aa34", "fusion_lon": 0.0}, {"rental_uris": {"ios": "https://dc.lft.to/lastmile_qr_scan", "android": "https://dc.lft.to/lastmile_qr_scan"}, "type": "electric_scooter", "name": "7851ad9e95326d0fa8d1bf31478acff7", "is_reserved": 0, "lon": -77.00319916666666, "is_disabled": 0, "fusion_lat": 0.0, "lat": 38.877170166666666, "bike_id": "7851ad9e95326d0fa8d1bf31478acff7", "fusion_lon": 0.0}, {"rental_uris": {"ios": "https://dc.lft.to/lastmile_qr_scan", "android": "https://dc.lft.to/lastmile_qr_scan"}, "type": "electric_scooter", "name": "e81a2ffcbbceef6f445d0cbc2c61ff41", "is_reserved": 0, "lon": -77.03954316666666, "is_disabled": 0, "fusion_lat": 0.0, "lat": 38.89823616666666, "bike_id": "e81a2ffcbbceef6f445d0cbc2c61ff41", "fusion_lon": 0.0}, {"rental_uris": {"ios": "https://dc.lft.to/lastmile_qr_scan", "android": "https://dc.lft.to/lastmile_qr_scan"}, "type": "electric_scooter", "name": "8e1630944b9878a6e8ea5cb6b6b2c20c", "is_reserved": 0, "lon": -77.00066283333334, "is_disabled": 0, "fusion_lat": 0.0, "lat": 38.8768475, "bike_id": "8e1630944b9878a6e8ea5cb6b6b2c20c", "fusion_lon": 0.0}, {"rental_uris": {"ios": "https://dc.lft.to/lastmile_qr_scan", "android": "https://dc.lft.to/lastmile_qr_scan"}, "type": "electric_scooter", "name": "b34ac132f647a3747003403281a5241f", "is_reserved": 0, "lon": -77.0261175, "is_disabled": 0, "fusion_lat": 0.0, "lat": 38.91693433333333, "bike_id": "b34ac132f647a3747003403281a5241f", "fusion_lon": 0.0}, {"rental_uris": {"ios": "https://dc.lft.to/lastmile_qr_scan", "android": "https://dc.lft.to/lastmile_qr_scan"}, "type": "electric_bike", "name": "8151c477108c10ed29004eccf48fb327", "is_reserved": 0, "lon": -77.00763166666667, "is_disabled": 0, "fusion_lat": 0.0, "lat": 38.99780966666667, "bike_id": "8151c477108c10ed29004eccf48fb327", "fusion_lon": 0.0}, {"rental_uris": {"ios": "https://dc.lft.to/lastmile_qr_scan", "android": "https://dc.lft.to/lastmile_qr_scan"}, "type": "electric_bike", "name": "48805296d71c0be220a3f2cf80a1c030", "is_reserved": 0, "lon": -76.9454315, "is_disabled": 0, "fusion_lat": 0.0, "lat": 38.98298033333333, "bike_id": "48805296d71c0be220a3f2cf80a1c030", "fusion_lon": 0.0}, {"rental_uris": {"ios": "https://dc.lft.to/lastmile_qr_scan", "android": "https://dc.lft.to/lastmile_qr_scan"}, "type": "electric_scooter", "name": "93a3b75293f5570dd11b4ee425149961", "is_reserved": 0, "lon": -77.0389905, "is_disabled": 0, "fusion_lat": 0.0, "lat": 38.92243116666667, "bike_id": "93a3b75293f5570dd11b4ee425149961", "fusion_lon": 0.0}, {"rental_uris": {"ios": "https://dc.lft.to/lastmile_qr_scan", "android": "https://dc.lft.to/lastmile_qr_scan"}, "type": "electric_scooter", "name": "b97cbd548569d2b0b9edec7ceb8588de", "is_reserved": 0, "lon": -77.08404016666667, "is_disabled": 0, "fusion_lat": 0.0, "lat": 38.908054, "bike_id": "b97cbd548569d2b0b9edec7ceb8588de", "fusion_lon": 0.0}, {"rental_uris": {"ios": "https://dc.lft.to/lastmile_qr_scan", "android": "https://dc.lft.to/lastmile_qr_scan"}, "type": "electric_bike", "name": "7c479d7a22dc8b23883ea54b5999298a", "is_reserved": 0, "lon": -76.95243533333333, "is_disabled": 0, "fusion_lat": 0.0, "lat": 38.88474133333333, "bike_id": "7c479d7a22dc8b23883ea54b5999298a", "fusion_lon": 0.0}, {"rental_uris": {"ios": "https://dc.lft.to/lastmile_qr_scan", "android": "https://dc.lft.to/lastmile_qr_scan"},