{"data": {"bikes": [{"is_reserved": 0, "type": "electric_scooter", "fusion_lat": 0.0, "is_disabled": 0, "rental_uris": {"ios": "https://dc.lft.to/lastmile_qr_scan", "android": "https://dc.lft.to/lastmile_qr_scan"}, "bike_id": "5082978587f80cfab205427fdca0812c", "lat": 38.89895816666667, "name": "5082978587f80cfab205427fdca0812c", "lon": -77.048798, "fusion_lon": 0.0}, {"is_reserved": 0, "type": "electric_scooter", "fusion_lat": 0.0, "is_disabled": 0, "rental_uris": {"ios": "https://dc.lft.to/lastmile_qr_scan", "android": "https://dc.lft.to/lastmile_qr_scan"}, "bike_id": "a9f2dcdb8f98af9eb965e889a7287b21", "lat": 38.9105845, "name": "a9f2dcdb8f98af9eb965e889a7287b21", "lon": -77.02653616666667, "fusion_lon": 0.0}, {"is_reserved": 0, "type": "electric_scooter", "fusion_lat": 0.0, "is_disabled": 0, "rental_uris": {"ios": "https://dc.lft.to/lastmile_qr_scan", "android": "https://dc.lft.to/lastmile_qr_scan"}, "bike_id": "0605f2af6c8906fa35db5b6806f36827", "lat": 38.8948745, "name": "0605f2af6c8906fa35db5b6806f36827", "lon": -77.05509516666666, "fusion_lon": 0.0}, {"is_reserved": 0, "type": "electric_scooter", "fusion_lat": 0.0, "is_disabled": 0, "rental_uris": {"ios": "https://dc.lft.to/lastmile_qr_scan", "android": "https://dc.lft.to/lastmile_qr_scan"}, "bike_id": "46bba7bc3388e7b1e730de3fcabe73cc", "lat": 38.9194345, "name": "46bba7bc3388e7b1e730de3fcabe73cc", "lon": -77.00213016666666, "fusion_lon": 0.0}, {"is_reserved": 0, "type": "electric_bike", "fusion_lat": 0.0, "is_disabled": 0, "rental_uris": {"ios": "https://dc.lft.to/lastmile_qr_scan", "android": "https://dc.lft.to/lastmile_qr_scan"}, "bike_id": "d63bdececca5316182b89678845fb7c9", "lat": 38.94517616666667, "name": "d63bdececca5316182b89678845fb7c9", "lon": -76.96807516666667, "fusion_lon": 0.0}, {"is_reserved": 0, "type": "electric_scooter", "fusion_lat": 0.0, "is_disabled": 0, "rental_uris": {"ios": "https://dc.lft.to/lastmile_qr_scan", "android": "https://dc.lft.to/lastmile_qr_scan"}, "bike_id": "1a2ebf8a43cfd6c542b07f6fa08aebb4", "lat": 38.91712733333333, "name": "1a2ebf8a43cfd6c542b07f6fa08aebb4", "lon": -77.09205866666667, "fusion_lon": 0.0}, {"is_reserved": 0, "type": "electric_scooter", "fusion_lat": 0.0, "is_disabled": 0, "rental_uris": {"ios": "https://dc.lft.to/lastmile_qr_scan", "android": "https://dc.lft.to/lastmile_qr_scan"}, "bike_id": "22c89cb405a022fd70f300c7132a1285", "lat": 38.885782166666665, "name": "22c89cb405a022fd70f300c7132a1285", "lon": -77.00038166666667, "fusion_lon": 0.0}, {"is_reserved": 0, "type": "electric_scooter", "fusion_lat": 0.0, "is_disabled": 0, "rental_uris": {"ios": "https://dc.lft.to/lastmile_qr_scan", "android": "https://dc.lft.to/lastmile_qr_scan"}, "bike_id": "77be0686fb614b75f72311c4d7f38a16", "lat": 38.876356333333334, "name": "77be0686fb614b75f72311c4d7f38a16", "lon": -77.00207033333334, "fusion_lon": 0.0}, {"is_reserved": 0, "type": "electric_scooter", "fusion_lat": 0.0, "is_disabled": 0, "rental_uris": {"ios": "https://dc.lft.to/lastmile_qr_scan", "android": "https://dc.lft.to/lastmile_qr_scan"}, "bike_id": "89c1495bd1085efe9961e19c74da7602", "lat": 38.91275783333333, "name": "89c1495bd1085efe9961e19c74da7602", "lon": -77.04771016666666, "fusion_lon": 0.0}, {"is_reserved": 0, "type": "electric_scooter", "fusion_lat": 0.0, "is_disabled": 0, "rental_uris": {"ios": "https://dc.lft.to/lastmile_qr_scan", "android": "https://dc.lft.to/lastmile_qr_scan"}, "bike_id": "1f1f30173f8375da8704d4d4c7a0a36d", "lat": 38.903929833333336, "name": "1f1f30173f8375da8704d4d4c7a0a36d", "lon": -77.04822033333333, "fusion_lon": 0.0}, {"is_reserved": 0, "type": "electric_scooter", "fusion_lat": 0.0, "is_disabled": 0, "rental_uris": {"ios": "https://dc.lft.to/lastmile_qr_scan", "android": "https://dc.lft.to/lastmile_qr_scan"}, "bike_id": "f4b85e6a2e100a1dc636b982e4260337", "lat": 38.899377666666666, "name": "f4b85e6a2e100a1dc636b982e4260337", "lon": -76.93756733333333, "fusion_lon": 0.0}, {"is_reserved": 0, "type": "electric_scooter", "fusion_lat": 0.0, "is_disabled": 0, "rental_uris": {"ios": "https://dc.lft.to/lastmile_qr_scan", "android": "https://dc.lft.to/lastmile_qr_scan"}, "bike_id": "b27aaf8b7ee484d404352b25d5dcc90f", "lat": 38.8876875, "name": "b27aaf8b7ee484d404352b25d5dcc90f", "lon": -76.9773165, "fusion_lon": 0.0}, {"is_reserved": 0, "type": "electric_scooter", "fusion_lat": 0.0, "is_disabled": 0, "rental_uris": {"ios": "https://dc.lft.to/lastmile_qr_scan", "android": "https://dc.lft.to/lastmile_qr_scan"}, "bike_id": "b9e32f1d13d35ce2d497891c1ba095b8", "lat": 38.8876895, "name": "b9e32f1d13d35ce2d497891c1ba095b8", "lon": -76.97728933333333, "fusion_lon": 0.0}, {"is_reserved": 0, "type": "electric_scooter", "fusion_lat": 0.0, "is_disabled": 0, "rental_uris": {"ios": "https://dc.lft.to/lastmile_qr_scan", "android": "https://dc.lft.to/lastmile_qr_scan"}, "bike_id": "15d83b7ed0c61b9d11d424d373dc34eb", "lat": 38.9243155, "name": "15d83b7ed0c61b9d11d424d373dc34eb", "lon": -77.01951333333334, "fusion_lon": 0.0}, {"is_reserved": 0, "type": "electric_scooter", "fusion_lat": 0.0, "is_disabled": 0, "rental_uris": {"ios": "https://dc.lft.to/lastmile_qr_scan", "android": "https://dc.lft.to/lastmile_qr_scan"}, "bike_id": "9f8c0ed41e950940742b4a99416d95f0", "lat": 38.92180783333333, "name": "9f8c0ed41e950940742b4a99416d95f0", "lon": -77.04228666666667, "fusion_lon": 0.0}, {"is_reserved": 0, "type": "electric_scooter", "fusion_lat": 0.0, "is_disabled": 0, "rental_uris": {"ios": "https://dc.lft.to/lastmile_qr_scan", "android": "https://dc.lft.to/lastmile_qr_scan"}, "bike_id": "ec89c4a55bc3d2595b2667cb9779b5c8", "lat": 38.909143666666665, "name": "ec89c4a55bc3d2595b2667cb9779b5c8", "lon": -77.04944166666667, "fusion_lon": 0.0}, {"is_reserved": 0, "type": "electric_scooter", "fusion_lat": 0.0, "is_disabled": 0, "rental_uris": {"ios": "https://dc.lft.to/lastmile_qr_scan", "android": "https://dc.lft.to/lastmile_qr_scan"}, "bike_id": "6faf58ebc39e72edb8c740a20baa0161", "lat": 38.9377675, "name": "6faf58ebc39e72edb8c740a20baa0161", "lon": -77.02434766666667, "fusion_lon": 0.0}, {"is_reserved": 0, "type": "electric_scooter", "fusion_lat": 0.0, "is_disabled": 0, "rental_uris": {"ios": "https://dc.lft.to/lastmile_qr_scan", "android": "https://dc.lft.to/lastmile_qr_scan"}, "bike_id": "1611011df7a1ba6d648ff20df152fa4b", "lat": 38.9470365, "name": "1611011df7a1ba6d648ff20df152fa4b", "lon": -77.01939716666666, "fusion_lon": 0.0}, {"is_reserved": 0, "type": "electric_scooter", "fusion_lat": 0.0, "is_disabled": 0, "rental_uris": {"ios": "https://dc.lft.to/lastmile_qr_scan", "android": "https://dc.lft.to/lastmile_qr_scan"}, "bike_id": "6f6370356b0992e3eba508f3f2ac480a", "lat": 38.87352116666667, "name": "6f6370356b0992e3eba508f3f2ac480a", "lon": -77.001927, "fusion_lon": 0.0}, {"is_reserved": 0, "type": "electric_scooter", "fusion_lat": 0.0, "is_disabled": 0, "rental_uris": {"ios": "https://dc.lft.to/lastmile_qr_scan", "android": "https://dc.lft.to/lastmile_qr_scan"}, "bike_id": "ce216e0a89b74b196092c340755834f9", "lat": 38.9128765, "name": "ce216e0a89b74b196092c340755834f9", "lon": -77.06797083333333, "fusion_lon": 0.0}, {"is_reserved": 0, "type": "electric_scooter", "fusion_lat": 0.0, "is_disabled": 0, "rental_uris": {"ios": "https://dc.lft.to/lastmile_qr_scan", "android": "https://dc.lft.to/lastmile_qr_scan"}, "bike_id": "291e47e1b44c9b204cfc8a8d300f1e49", "lat": 38.9156715, "name": "291e47e1b44c9b204cfc8a8d300f1e49", "lon": -77.04092866666667, "fusion_lon": 0.0}, {"is_reserved": 0, "type": "electric_scooter", "fusion_lat": 0.0, "is_disabled": 0, "rental_uris": {"ios": "https://dc.lft.to/lastmile_qr_scan", "android": "https://dc.lft.to/lastmile_qr_scan"}, "bike_id": "1126428d923b81823c99c31dcaf8de17", "lat": 38.926812, "name": "1126428d923b81823c99c31dcaf8de17", "lon": -77.02692683333333, "fusion_lon": 0.0}, {"is_reserved": 0, "type": "electric_scooter", "fusion_lat": 0.0, "is_disabled": 0, "rental_uris": {"ios": "https://dc.lft.to/lastmile_qr_scan", "android": "https://dc.lft.to/lastmile_qr_scan"}, "bike_id": "beb487ff532f36f57350df2c4a1c2d02", "lat": 38.8794475, "name": "beb487ff532f36f57350df2c4a1c2d02", "lon": -77.01004666666667, "fusion_lon": 0.0}, {"is_reserved": 0, "type": "electric_scooter", "fusion_lat": 0.0, "is_disabled": 0, "rental_uris": {"ios": "https://dc.lft.to/lastmile_qr_scan", "android": "https://dc.lft.to/lastmile_qr_scan"}, "bike_id": "615140085876601221b4e17d3f9d8de2", "lat": 38.920393, "name": "615140085876601221b4e17d3f9d8de2", "lon": -77.019692, "fusion_lon": 0.0}, {"is_reserved": 0, "type": "electric_scooter", "fusion_lat": 0.0, "is_disabled": 0, "rental_uris": {"ios": "https://dc.lft.to/lastmile_qr_scan", "android": "https://dc.lft.to/lastmile_qr_scan"}, "bike_id": "487dc0f4f828ef14258a68718ac409e1", "lat": 38.90730116666667, "name": "487dc0f4f828ef14258a68718ac409e1", "lon": -77.00368283333333, "fusion_lon": 0.0}, {"is_reserved": 0, "type": "electric_scooter", "fusion_lat": 0.0, "is_disabled": 0, "rental_uris": {"ios": "https://dc.lft.to/lastmile_qr_scan", "android": "https://dc.lft.to/lastmile_qr_scan"}, "bike_id": "6c93b38a2ec55a12a355003e88f87fd7", "lat": 38.91634616666666, "name": "6c93b38a2ec55a12a355003e88f87fd7", "lon": -77.03189816666666, "fusion_lon": 0.0}, {"is_reserved": 0, "type": "electric_scooter", "fusion_lat": 0.0, "is_disabled": 0, "rental_uris": {"ios": "https://dc.lft.to/lastmile_qr_scan", "android": "https://dc.lft.to/lastmile_qr_scan"}, "bike_id": "2829ea1fa7794ad5c3d8c6ffe554e32d", "lat": 38.8742435, "name": "2829ea1fa7794ad5c3d8c6ffe554e32d", "lon": -76.97182683333334, "fusion_lon": 0.0}, {"is_reserved": 0, "type": "electric_scooter", "fusion_lat": 0.0, "is_disabled": 0, "rental_uris": {"ios": "https://dc.lft.to/lastmile_qr_scan", "android": "https://dc.lft.to/lastmile_qr_scan"}, "bike_id": "7869ab0e81aa128f36f6327b101eba44", "lat": 38.91472683333333, "name": "7869ab0e81aa128f36f6327b101eba44", "lon": -77.00213516666666, "fusion_lon": 0.0}, {"is_reserved": 0, "type": "electric_scooter", "fusion_lat": 0.0, "is_disabled": 0, "rental_uris": {"ios": "https://dc.lft.to/lastmile_qr_scan", "android": "https://dc.lft.to/lastmile_qr_scan"}, "bike_id": "90abbe4485f509c4873727af2715fe6a", "lat": 38.91695566666667, "name": "90abbe4485f509c4873727af2715fe6a", "lon": -77.05298033333334, "fusion_lon": 0.0}, {"is_reserved": 0, "type": "electric_scooter", "fusion_lat": 0.0, "is_disabled": 0, "rental_uris": {"ios": "https://dc.lft.to/lastmile_qr_scan", "android": "https://dc.lft.to/lastmile_qr_scan"}, "bike_id": "527f017d995f7d6454cb1809e26fc7d7", "lat": 38.912212833333335, "name": "527f017d995f7d6454cb1809e26fc7d7", "lon": -77.03842033333333, "fusion_lon": 0.0}, {"is_reserved": 0, "type": "electric_scooter", "fusion_lat": 0.0, "is_disabled": 0, "rental_uris": {"ios": "https://dc.lft.to/lastmile_qr_scan", "android": "https://dc.lft.to/lastmile_qr_scan"}, "bike_id": "470b611c00a7b660a1dab53f99e59567", "lat": 38.917356833333336, "name": "470b611c00a7b660a1dab53f99e59567", "lon": -77.06847016666667, "fusion_lon": 0.0}, {"is_reserved": 0, "type": "electric_bike", "fusion_lat": 0.0, "is_disabled": 0, "rental_uris": {"ios": "https://dc.lft.to/lastmile_qr_scan", "android": "https://dc.lft.to/lastmile_qr_scan"}, "bike_id": "318a7ccf45190e2a9169077d6d5948f4", "lat": 38.822111666666665, "name": "318a7ccf45190e2a9169077d6d5948f4", "lon": -76.97703583333333, "fusion_lon": 0.0}, {"is_reserved": 0, "type": "electric_scooter", "fusion_lat": 0.0, "is_disabled": 0, "rental_uris": {"ios": "https://dc.lft.to/lastmile_qr_scan", "android": "https://dc.lft.to/lastmile_qr_scan"}, "bike_id": "df5a1aeba67528807f1ddbf23d86a128", "lat": 38.902925333333336, "name": "df5a1aeba67528807f1ddbf23d86a128", "lon": -77.03345083333333, "fusion_lon": 0.0}, {"is_reserved": 0, "type": "electric_bike", "fusion_lat": 0.0, "is_disabled": 0, "rental_uris": {"ios": "https://dc.lft.to/lastmile_qr_scan", "android": "https://dc.lft.to/lastmile_qr_scan"}, "bike_id": "e0c0526c02122be89b9d2472fbcf62c7", "lat": 38.88026816666667, "name": "e0c0526c02122be89b9d2472fbcf62c7", "lon": -76.9862415, "fusion_lon": 0.0}, {"is_reserved": 0, "type": "electric_scooter", "fusion_lat": 0.0, "is_disabled": 0, "rental_uris": {"ios": "https://dc.lft.to/lastmile_qr_scan", "android": "https://dc.lft.to/lastmile_qr_scan"}, "bike_id": "a7a0ee0d05fd63b9e8e7dec80cc64859", "lat": 38.929529, "name": "a7a0ee0d05fd63b9e8e7dec80cc64859", "lon": -77.03298583333333, "fusion_lon": 0.0}, {"is_reserved": 0, "type": "electric_scooter", "fusion_lat": 0.0, "is_disabled": 0, "rental_uris": {"ios": "https://dc.lft.to/lastmile_qr_scan", "android": "https://dc.lft.to/lastmile_qr_scan"}, "bike_id": "9bae864838283e70c010f5fe2b8e9ac0", "lat": 38.896733, "name": "9bae864838283e70c010f5fe2b8e9ac0", "lon": -77.04346316666667, "fusion_lon": 0.0}, {"is_reserved": 0, "type": "electric_scooter", "fusion_lat": 0.0, "is_disabled": 0, "rental_uris": {"ios": "https://dc.lft.to/lastmile_qr_scan", "android": "https://dc.lft.to/lastmile_qr_scan"}, "bike_id": "a38256b25adcc997546e6bd8ed418db6", "lat": 38.92888966666666, "name": "a38256b25adcc997546e6bd8ed418db6", "lon": -77.037356, "fusion_lon": 0.0}, {"is_reserved": 0, "type": "electric_scooter", "fusion_lat": 0.0, "is_disabled": 0, "rental_uris": {"ios": "https://dc.lft.to/lastmile_qr_scan", "android": "https://dc.lft.to/lastmile_qr_scan"}, "bike_id": "b2143aad9533106b949d95805c46d3c4", "lat": 38.89221216666667, "name": "b2143aad9533106b949d95805c46d3c4", "lon": -77.02538816666667, "fusion_lon": 0.0}, {"is_reserved": 0, "type": "electric_scooter", "fusion_lat": 0.0, "is_disabled": 0, "rental_uris": {"ios": "https://dc.lft.to/lastmile_qr_scan", "android": "https://dc.lft.to/lastmile_qr_scan"}, "bike_id": "c740f5a3147d5ce1c461a4215afaecaa", "lat": 38.92368466666667, "name": "c740f5a3147d5ce1c461a4215afaecaa", "lon": -77.01958266666666, "fusion_lon": 0.0}, {"is_reserved": 0, "type": "electric_scooter", "fusion_lat": 0.0, "is_disabled": 0, "rental_uris": {"ios": "https://dc.lft.to/lastmile_qr_scan", "android": "https://dc.lft.to/lastmile_qr_scan"}, "bike_id": "632afd79b40b5ce0e73d7e49658199ab", "lat": 38.88709566666667, "name": "632afd79b40b5ce0e73d7e49658199ab", "lon": -76.98343, "fusion_lon": 0.0}, {"is_reserved": 0, "type": "electric_scooter", "fusion_lat": 0.0, "is_disabled": 0, "rental_uris": {"ios": "https://dc.lft.to/lastmile_qr_scan", "android": "https://dc.lft.to/lastmile_qr_scan"}, "bike_id": "8445ce3e1a558f381d57d37d52f67317", "lat": 38.925045833333336, "name": "8445ce3e1a558f381d57d37d52f67317", "lon": -77.04333783333334, "fusion_lon": 0.0}, {"is_reserved": 0, "type": "electric_scooter", "fusion_lat": 0.0, "is_disabled": 0, "rental_uris": {"ios": "https://dc.lft.to/lastmile_qr_scan", "android": "https://dc.lft.to/lastmile_qr_scan"}, "bike_id": "3ac276d3ca3020fb1a96df6d47551dba", "lat": 38.88548383333333, "name": "3ac276d3ca3020fb1a96df6d47551dba", "lon": -77.00071383333334, "fusion_lon": 0.0}, {"is_reserved": 0, "type": "electric_scooter", "fusion_lat": 0.0, "is_disabled": 0, "rental_uris": {"ios": "https://dc.lft.to/lastmile_qr_scan", "android": "https://dc.lft.to/lastmile_qr_scan"}, "bike_id": "74f50e931748727b63624495397daa07", "lat": 38.908585333333335, "name": "74f50e931748727b63624495397daa07", "lon": -77.00263533333333, "fusion_lon": 0.0}, {"is_reserved": 0, "type": "electric_scooter", "fusion_lat": 0.0, "is_disabled": 0, "rental_uris": {"ios": "https://dc.lft.to/lastmile_qr_scan", "android": "https://dc.lft.to/lastmile_qr_scan"}, "bike_id": "feb587677d79be859e30f02ae5499ff0", "lat": 38.90783783333333, "name": "feb587677d79be859e30f02ae5499ff0", "lon": -77.07257583333333, "fusion_lon": 0.0}, {"is_reserved": 0, "type": "electric_scooter", "fusion_lat": 0.0, "is_disabled": 0, "rental_uris": {"ios": "https://dc.lft.to/lastmile_qr_scan", "android": "https://dc.lft.to/lastmile_qr_scan"}, "bike_id": "34d63da9429cdd4a818b1d1c07b06004", "lat": 38.9311455, "name": "34d63da9429cdd4a818b1d1c07b06004", "lon": -77.02798066666666, "fusion_lon": 0.0}, {"is_reserved": 0, "type": "electric_bike", "fusion_lat": 0.0, "is_disabled": 0, "rental_uris": {"ios": "https://dc.lft.to/lastmile_qr_scan", "android": "https://dc.lft.to/lastmile_qr_scan"}, "bike_id": "8455f7472123e9a08ab75dff370778f9", "lat": 38.998692, "name": "8455f7472123e9a08ab75dff370778f9", "lon": -77.00389183333333, "fusion_lon": 0.0}, {"is_reserved": 0, "type": "electric_scooter", "fusion_lat": 0.0, "is_disabled": 0, "rental_uris": {"ios": "https://dc.lft.to/lastmile_qr_scan", "android": "https://dc.lft.to/lastmile_qr_scan"}, "bike_id": "d6c5470e7211325e4287a064aeaf1583", "lat": 38.897868833333334, "name": "d6c5470e7211325e4287a064aeaf1583", "lon": -77.05027883333334, "fusion_lon": 0.0}, {"is_reserved": 0, "type": "electric_scooter", "fusion_lat": 0.0, "is_disabled": 0, "rental_uris": {"ios": "https://dc.lft.to/lastmile_qr_scan", "android": "https://dc.lft.to/lastmile_qr_scan"}, "bike_id": "aca06495ccfd52624b73c511cad37358", "lat": 38.92060466666667, "name": "aca06495ccfd52624b73c511cad37358", "lon": -77.044013, "fusion_lon": 0.0}, {"is_reserved": 0, "type": "electric_scooter", "fusion_lat": 0.0, "is_disabled": 0, "rental_uris": {"ios": "https://dc.lft.to/lastmile_qr_scan", "android": "https://dc.lft.to/lastmile_qr_scan"}, "bike_id": "a2682335c6a749a61f09cb70578f96ec", "lat": 38.920250833333334, "name": "a2682335c6a749a61f09cb70578f96ec", "lon": -77.07130316666667, "fusion_lon": 0.0}, {"is_reserved": 0, "type": "electric_scooter", "fusion_lat": 0.0, "is_disabled": 0, "rental_uris": {"ios": "https://dc.lft.to/lastmile_qr_scan", "android": "https://dc.lft.to/lastmile_qr_scan"}, "bike_id": "aad9f97496bec0f809a38d7644904bb8", "lat": 38.921095666666666, "name": "aad9f97496bec0f809a38d7644904bb8", "lon": -77.04576016666667, "fusion_lon": 0.0}, {"is_reserved": 0, "type": "electric_scooter", "fusion_lat": 0.0, "is_disabled": 0, "rental_uris": {"ios": "https://dc.lft.to/lastmile_qr_scan", "android": "https://dc.lft.to/lastmile_qr_scan"}, "bike_id": "cc676a2822d5625e341d2acb25e7c530", "lat": 38.89724366666667, "name": "cc676a2822d5625e341d2acb25e7c530", "lon": -77.04160816666666, "fusion_lon": 0.0}, {"is_reserved": 0, "type": "electric_scooter", "fusion_lat": 0.0, "is_disabled": 0, "rental_uris": {"ios": "https://dc.lft.to/lastmile_qr_scan", "android": "https://dc.lft.to/lastmile_qr_scan"}, "bike_id": "7ad7a3ed1f23e82d273a55704ed99f73", "lat": 38.87850366666667, "name": "7ad7a3ed1f23e82d273a55704ed99f73", "lon": -77.00581366666667, "fusion_lon": 0.0}, {"is_reserved": 0, "type": "electric_scooter", "fusion_lat": 0.0, "is_disabled": 0, "rental_uris": {"ios": "https://dc.lft.to/lastmile_qr_scan", "android": "https://dc.lft.to/lastmile_qr_scan"}, "bike_id": "1122aeacb9576bdabc61a7cbc787024d", "lat": 38.89725966666666, "name": "1122aeacb9576bdabc61a7cbc787024d", "lon": -77.02170033333333, "fusion_lon": 0.0}, {"is_reserved": 0, "type": "electric_scooter", "fusion_lat": 0.0, "is_disabled": 0, "rental_uris": {"ios": "https://dc.lft.to/lastmile_qr_scan", "android": "https://dc.lft.to/lastmile_qr_scan"}, "bike_id": "1da7b1771c133820b4e119f49e5a8cc0", "lat": 38.914608666666666, "name": "1da7b1771c133820b4e119f49e5a8cc0", "lon": -77.02181116666667, "fusion_lon": 0.0}, {"is_reserved": 0, "type": "electric_scooter", "fusion_lat": 0.0, "is_disabled": 0, "rental_uris": {"ios": "https://dc.lft.to/lastmile_qr_scan", "android": "https://dc.lft.to/lastmile_qr_scan"}, "bike_id": "e1fe04603e8ffaada6fbe1a2d2ac2391", "lat": 38.8996845, "name": "e1fe04603e8ffaada6fbe1a2d2ac2391", "lon": -77.01507633333334, "fusion_lon": 0.0}, {"is_reserved": 0, "type": "electric_scooter", "fusion_lat": 0.0, "is_disabled": 0, "rental_uris": {"ios": "https://dc.lft.to/lastmile_qr_scan", "android": "https://dc.lft.to/lastmile_qr_scan"}, "bike_id": "8737d93cb3ce2a231429bf8edd8e5d39", "lat": 38.917256333333334, "name": "8737d93cb3ce2a231429bf8edd8e5d39", "lon": -77.03459866666667, "fusion_lon": 0.0}, {"is_reserved": 0, "type": "electric_scooter", "fusion_lat": 0.0, "is_disabled": 0, "rental_uris": {"ios": "https://dc.lft.to/lastmile_qr_scan", "android": "https://dc.lft.to/lastmile_qr_scan"}, "bike_id": "7bcc1e96c0a5c0df2083749c66fa4d80", "lat": 38.9299925, "name": "7bcc1e96c0a5c0df2083749c66fa4d80", "lon": -77.0379995, "fusion_lon": 0.0}, {"is_reserved": 0, "type": "electric_scooter", "fusion_lat": 0.0, "is_disabled": 0, "rental_uris": {"ios": "https://dc.lft.to/lastmile_qr_scan", "android": "https://dc.lft.to/lastmile_qr_scan"}, "bike_id": "38ccd0f262f30ca02d4c02c3dbc18723", "lat": 38.93765166666667, "name": "38ccd0f262f30ca02d4c02c3dbc18723", "lon": -77.02662566666666, "fusion_lon": 0.0}, {"is_reserved": 0, "type": "electric_scooter", "fusion_lat": 0.0, "is_disabled": 0, "rental_uris": {"ios": "https://dc.lft.to/lastmile_qr_scan", "android": "https://dc.lft.to/lastmile_qr_scan"}, "bike_id": "12779bf13dc54a7c916084887996506f", "lat": 38.94278, "name": "12779bf13dc54a7c916084887996506f", "lon": -77.08194383333333, "fusion_lon": 0.0}, {"is_reserved": 0, "type": "electric_scooter", "fusion_lat": 0.0, "is_disabled": 0, "rental_uris": {"ios": "https://dc.lft.to/lastmile_qr_scan", "android": "https://dc.lft.to/lastmile_qr_scan"}, "bike_id": "dfb0102a2695644c3d38ce74a2cd0c63", "lat": 38.91265466666667, "name": "dfb0102a2695644c3d38ce74a2cd0c63", "lon": -77.00993783333334, "fusion_lon": 0.0}, {"is_reserved": 0, "type": "electric_scooter", "fusion_lat": 0.0, "is_disabled": 0, "rental_uris": {"ios": "https://dc.lft.to/lastmile_qr_scan", "android": "https://dc.lft.to/lastmile_qr_scan"}, "bike_id": "3b50bc3f21766210981d6549e79d2cd8", "lat": 38.8933635, "name": "3b50bc3f21766210981d6549e79d2cd8", "lon": -76.92893266666667, "fusion_lon": 0.0}, {"is_reserved": 0, "type": "electric_scooter", "fusion_lat": 0.0, "is_disabled": 0, "rental_uris": {"ios": "https://dc.lft.to/lastmile_qr_scan", "android": "https://dc.lft.to/lastmile_qr_scan"}, "bike_id": "5ec70d5d26aa867ff55d0fa75897a907", "lat": 38.956399833333336, "name": "5ec70d5d26aa867ff55d0fa75897a907", "lon": -77.0363225, "fusion_lon": 0.0}, {"is_reserved": 0, "type": "electric_scooter", "fusion_lat": 0.0, "is_disabled": 0, "rental_uris": {"ios": "https://dc.lft.to/lastmile_qr_scan", "android": "https://dc.lft.to/lastmile_qr_scan"}, "bike_id": "e34e91eb457d5af82a01eb9d9ede67f4", "lat": 38.92243783333333, "name": "e34e91eb457d5af82a01eb9d9ede67f4", "lon": -77.03887783333333, "fusion_lon": 0.0}, {"is_reserved": 0, "type": "electric_scooter", "fusion_lat": 0.0, "is_disabled": 0, "rental_uris": {"ios": "https://dc.lft.to/lastmile_qr_scan", "android": "https://dc.lft.to/lastmile_qr_scan"}, "bike_id": "c7617f275ebe293b2cdf7f9134efad38", "lat": 38.92215933333333, "name": "c7617f275ebe293b2cdf7f9134efad38", "lon": -77.04232433333334, "fusion_lon": 0.0}, {"is_reserved": 0, "type": "electric_scooter", "fusion_lat": 0.0, "is_disabled": 0, "rental_uris": {"ios": "https://dc.lft.to/lastmile_qr_scan", "android": "https://dc.lft.to/lastmile_qr_scan"}, "bike_id": "6acca3ebfa887d66b58713639716f3f8", "lat": 38.894458166666666, "name": "6acca3ebfa887d66b58713639716f3f8", "lon": -76.98082316666667, "fusion_lon": 0.0}, {"is_reserved": 0, "type": "electric_scooter", "fusion_lat": 0.0, "is_disabled": 0, "rental_uris": {"ios": "https://dc.lft.to/lastmile_qr_scan", "android": "https://dc.lft.to/lastmile_qr_scan"}, "bike_id": "93f6919cced6e634ad037a29d30a704b", "lat": 38.918303, "name": "93f6919cced6e634ad037a29d30a704b", "lon": -77.03194933333333, "fusion_lon": 0.0}, {"is_reserved": 0, "type": "electric_scooter", "fusion_lat": 0.0, "is_disabled": 0, "rental_uris": {"ios": "https://dc.lft.to/lastmile_qr_scan", "android": "https://dc.lft.to/lastmile_qr_scan"}, "bike_id": "9eef5281138fedce38bf027541566d70", "lat": 38.92469033333333, "name": "9eef5281138fedce38bf027541566d70", "lon": -77.02242033333333, "fusion_lon": 0.0}, {"is_reserved": 0, "type": "electric_scooter", "fusion_lat": 0.0, "is_disabled": 0, "rental_uris": {"ios": "https://dc.lft.to/lastmile_qr_scan", "android": "https://dc.lft.to/lastmile_qr_scan"}, "bike_id": "e349a625e79381a075c8b9f58b7b62e9", "lat": 38.915609333333336, "name": "e349a625e79381a075c8b9f58b7b62e9", "lon": -77.0204615, "fusion_lon": 0.0}, {"is_reserved": 0, "type": "electric_bike", "fusion_lat": 0.0, "is_disabled": 0, "rental_uris": {"ios": "https://dc.lft.to/lastmile_qr_scan", "android": "https://dc.lft.to/lastmile_qr_scan"}, "bike_id": "d3de0bd3aaf683a94a18e1ee2bb4bc07", "lat": 38.88305616666667, "name": "d3de0bd3aaf683a94a18e1ee2bb4bc07", "lon": -77.00197683333333, "fusion_lon": 0.0}, {"is_reserved": 0, "type": "electric_scooter", "fusion_lat": 0.0, "is_disabled": 0, "rental_uris": {"ios": "https://dc.lft.to/lastmile_qr_scan", "android": "https://dc.lft.to/lastmile_qr_scan"}, "bike_id": "5aea415beff379229e7b383c6142ccbe", "lat": 38.92162, "name": "5aea415beff379229e7b383c6142ccbe", "lon": -77.03386166666667, "fusion_lon": 0.0}, {"is_reserved": 0, "type": "electric_scooter", "fusion_lat": 0.0, "is_disabled": 0, "rental_uris": {"ios": "https://dc.lft.to/lastmile_qr_scan", "android": "https://dc.lft.to/lastmile_qr_scan"}, "bike_id": "04e283c21cef906e4c6c4b0fbff81977", "lat": 38.91881716666666, "name": "04e283c21cef906e4c6c4b0fbff81977", "lon": -77.0350725, "fusion_lon": 0.0}, {"is_reserved": 0, "type": "electric_scooter", "fusion_lat": 0.0, "is_disabled": 0, "rental_uris": {"ios": "https://dc.lft.to/lastmile_qr_scan", "android": "https://dc.lft.to/lastmile_qr_scan"}, "bike_id": "81122d3c53cfd4605ccff904bbf3ee27", "lat": 38.916595, "name": "81122d3c53cfd4605ccff904bbf3ee27", "lon": -77.01020283333334, "fusion_lon": 0.0}, {"is_reserved": 0, "type": "electric_scooter", "fusion_lat": 0.0, "is_disabled": 0, "rental_uris": {"ios": "https://dc.lft.to/lastmile_qr_scan", "android": "https://dc.lft.to/lastmile_qr_scan"}, "bike_id": "de91c31932c1715709c1a6514144b516", "lat": 38.944899666666664, "name": "de91c31932c1715709c1a6514144b516", "lon": -77.09500333333334, "fusion_lon": 0.0}, {"is_reserved": 0, "type": "electric_bike", "fusion_lat": 0.0, "is_disabled": 0, "rental_uris": {"ios": "https://dc.lft.to/lastmile_qr_scan", "android": "https://dc.lft.to/lastmile_qr_scan"}, "bike_id": "9bba4a10aa7866c5f5c60acece18fc65", "lat": 38.80979216666667, "name": "9bba4a10aa7866c5f5c60acece18fc65", "lon": -77.07659133333334, "fusion_lon": 0.0}, {"is_reserved": 0, "type": "electric_scooter", "fusion_lat": 0.0, "is_disabled": 0, "rental_uris": {"ios": "https://dc.lft.to/lastmile_qr_scan", "android": "https://dc.lft.to/lastmile_qr_scan"}, "bike_id": "82e77a0af0be9893aae079ed44085a05", "lat": 38.935968833333334, "name": "82e77a0af0be9893aae079ed44085a05", "lon": -77.03760083333333, "fusion_lon": 0.0}, {"is_reserved": 0, "type": "electric_scooter", "fusion_lat": 0.0, "is_disabled": 0, "rental_uris": {"ios": "https://dc.lft.to/lastmile_qr_scan", "android": "https://dc.lft.to/lastmile_qr_scan"}, "bike_id": "045105ddb2ebe4fc4436e2d39e02bee3", "lat": 38.89637583333333, "name": "045105ddb2ebe4fc4436e2d39e02bee3", "lon": -77.028506, "fusion_lon": 0.0}, {"is_reserved": 0, "type": "electric_scooter", "fusion_lat": 0.0, "is_disabled": 0, "rental_uris": {"ios": "https://dc.lft.to/lastmile_qr_scan", "android": "https://dc.lft.to/lastmile_qr_scan"}, "bike_id": "431ea3d909bfaa26e2695d6cec627bdb", "lat": 38.892247, "name": "431ea3d909bfaa26e2695d6cec627bdb", "lon": -77.04646133333334, "fusion_lon": 0.0}, {"is_reserved": 0, "type": "electric_scooter", "fusion_lat": 0.0, "is_disabled": 0, "rental_uris": {"ios": "https://dc.lft.to/lastmile_qr_scan", "android": "https://dc.lft.to/lastmile_qr_scan"}, "bike_id": "17a1b0b248ac25397c4f699254d17ade", "lat": 38.926700333333336, "name": "17a1b0b248ac25397c4f699254d17ade", "lon": -76.99538683333333, "fusion_lon": 0.0}, {"is_reserved": 0, "type": "electric_bike", "fusion_lat": 0.0, "is_disabled": 0, "rental_uris": {"ios": "https://dc.lft.to/lastmile_qr_scan", "android": "https://dc.lft.to/lastmile_qr_scan"}, "bike_id": "4300cafecf6d149cd9ed92c350b23611", "lat": 38.920219333333335, "name": "4300cafecf6d149cd9ed92c350b23611", "lon": -77.00331183333333, "fusion_lon": 0.0}, {"is_reserved": 0, "type": "electric_scooter", "fusion_lat": 0.0, "is_disabled": 0, "rental_uris": {"ios": "https://dc.lft.to/lastmile_qr_scan", "android": "https://dc.lft.to/lastmile_qr_scan"}, "bike_id": "a65572230a6e8a774bc14686bfe309ca", "lat": 38.8977885, "name": "a65572230a6e8a774bc14686bfe309ca", "lon": -77.0477895, "fusion_lon": 0.0}, {"is_reserved": 0, "type": "electric_scooter", "fusion_lat": 0.0, "is_disabled": 0, "rental_uris": {"ios": "https://dc.lft.to/lastmile_qr_scan", "android": "https://dc.lft.to/lastmile_qr_scan"}, "bike_id": "e57b9f42b31707301c3f077ed7559940", "lat": 38.898291, "name": "e57b9f42b31707301c3f077ed7559940", "lon": -76.93001433333333, "fusion_lon": 0.0}, {"is_reserved": 0, "type": "electric_bike", "fusion_lat": 0.0, "is_disabled": 0, "rental_uris": {"ios": "https://dc.lft.to/lastmile_qr_scan", "android": "https://dc.lft.to/lastmile_qr_scan"}, "bike_id": "e0e82284e1dcc67c83dfe35b29f24317", "lat": 38.936407, "name": "e0e82284e1dcc67c83dfe35b29f24317", "lon": -76.95455483333333, "fusion_lon": 0.0}, {"is_reserved": 0, "type": "electric_scooter", "fusion_lat": 0.0, "is_disabled": 0, "rental_uris": {"ios": "https://dc.lft.to/lastmile_qr_scan", "android": "https://dc.lft.to/lastmile_qr_scan"}, "bike_id": "8cf552df0b714479ea2f04b309654ec0", "lat": 38.898301000000004, "name": "8cf552df0b714479ea2f04b309654ec0", "lon": -77.0125945, "fusion_lon": 0.0}, {"is_reserved": 0, "type": "electric_scooter", "fusion_lat": 0.0, "is_disabled": 0, "rental_uris": {"ios": "https://dc.lft.to/lastmile_qr_scan", "android": "https://dc.lft.to/lastmile_qr_scan"}, "bike_id": "279d5878a0c48a373773ff7adb82235f", "lat": 38.90906833333333, "name": "279d5878a0c48a373773ff7adb82235f", "lon": -76.99764916666666, "fusion_lon": 0.0}, {"is_reserved": 0, "type": "electric_scooter", "fusion_lat": 0.0, "is_disabled": 0, "rental_uris": {"ios": "https://dc.lft.to/lastmile_qr_scan", "android": "https://dc.lft.to/lastmile_qr_scan"}, "bike_id": "ccbedd4ab7b059385b89d235ac8f16f7", "lat": 38.918071166666664, "name": "ccbedd4ab7b059385b89d235ac8f16f7", "lon": -77.044399, "fusion_lon": 0.0}, {"is_reserved": 0, "type": "electric_scooter", "fusion_lat": 0.0, "is_disabled": 0, "rental_uris": {"ios": "https://dc.lft.to/lastmile_qr_scan", "android": "https://dc.lft.to/lastmile_qr_scan"}, "bike_id": "6dce2543cd749fae21785108d17dd120", "lat": 38.912927, "name": "6dce2543cd749fae21785108d17dd120", "lon": -76.986957, "fusion_lon": 0.0}, {"is_reserved": 0, "type": "electric_scooter", "fusion_lat": 0.0, "is_disabled": 0, "rental_uris": {"ios": "https://dc.lft.to/lastmile_qr_scan", "android": "https://dc.lft.to/lastmile_qr_scan"}, "bike_id": "ade1237cce7f03a271637d337c00e718", "lat": 38.92521333333333, "name": "ade1237cce7f03a271637d337c00e718", "lon": -76.9983685, "fusion_lon": 0.0}, {"is_reserved": 0, "type": "electric_bike", "fusion_lat": 0.0, "is_disabled": 0, "rental_uris": {"ios": "https://dc.lft.to/lastmile_qr_scan", "android": "https://dc.lft.to/lastmile_qr_scan"}, "bike_id": "ce063edfa685b1f540a65a3feefc2740", "lat": 38.84687983333333, "name": "ce063edfa685b1f540a65a3feefc2740", "lon": -76.98065516666666, "fusion_lon": 0.0}, {"is_reserved": 0, "type": "electric_bike", "fusion_lat": 0.0, "is_disabled": 0, "rental_uris": {"ios": "https://dc.lft.to/lastmile_qr_scan", "android": "https://dc.lft.to/lastmile_qr_scan"}, "bike_id": "902fb0e9d16db068216d574d169c2609", "lat": 38.88770183333333, "name": "902fb0e9d16db068216d574d169c2609", "lon": -77.15656133333333, "fusion_lon": 0.0}, {"is_reserved": 0, "type": "electric_scooter", "fusion_lat": 0.0, "is_disabled": 0, "rental_uris": {"ios": "https://dc.lft.to/lastmile_qr_scan", "android": "https://dc.lft.to/lastmile_qr_scan"}, "bike_id": "5db54c2aa6e7e6c4aafae87393dd28fb", "lat": 38.895397, "name": "5db54c2aa6e7e6c4aafae87393dd28fb", "lon": -77.02678666666667, "fusion_lon": 0.0}, {"is_reserved": 0, "type": "electric_scooter", "fusion_lat": 0.0, "is_disabled": 0, "rental_uris": {"ios": "https://dc.lft.to/lastmile_qr_scan", "android": "https://dc.lft.to/lastmile_qr_scan"}, "bike_id": "65fed5696e662733323f6ed902014e96", "lat": 38.905914833333334, "name": "65fed5696e662733323f6ed902014e96", "lon": -77.01613516666667, "fusion_lon": 0.0}, {"is_reserved": 0, "type": "electric_scooter", "fusion_lat": 0.0, "is_disabled": 0, "rental_uris": {"ios": "https://dc.lft.to/lastmile_qr_scan", "android": "https://dc.lft.to/lastmile_qr_scan"}, "bike_id": "74bf4489c81806b496e2b2276e71cca5", "lat": 38.897239666666664, "name": "74bf4489c81806b496e2b2276e71cca5", "lon": -77.0305095, "fusion_lon": 0.0}, {"is_reserved": 0, "type": "electric_scooter", "fusion_lat": 0.0, "is_disabled": 0, "rental_uris": {"ios": "https://dc.lft.to/lastmile_qr_scan", "android": "https://dc.lft.to/lastmile_qr_scan"}, "bike_id": "0b9f6df856ba56f43218a82a2c00edf5", "lat": 38.919284, "name": "0b9f6df856ba56f43218a82a2c00edf5", "lon": -77.024853, "fusion_lon": 0.0}, {"is_reserved": 0, "type": "electric_scooter", "fusion_lat": 0.0, "is_disabled": 0, "rental_uris": {"ios": "https://dc.lft.to/lastmile_qr_scan", "android": "https://dc.lft.to/lastmile_qr_scan"}, "bike_id": "5afc341af949e972ac445b028e7992da", "lat": 38.913344, "name": "5afc341af949e972ac445b028e7992da", "lon": -77.030306, "fusion_lon": 0.0}, {"is_reserved": 0, "type": "electric_bike", "fusion_lat": 0.0, "is_disabled": 0, "rental_uris": {"ios": "https://dc.lft.to/lastmile_qr_scan", "android": "https://dc.lft.to/lastmile_qr_scan"}, "bike_id": "af264d1728acb693f2e394dff66a0717", "lat": 38.897241, "name": "af264d1728acb693f2e394dff66a0717", "lon": -76.972354, "fusion_lon": 0.0}, {"is_reserved": 0, "type": "electric_scooter", "fusion_lat": 0.0, "is_disabled": 0, "rental_uris": {"ios": "https://dc.lft.to/lastmile_qr_scan", "android": "https://dc.lft.to/lastmile_qr_scan"}, "bike_id": "b22cd1a50484127560ee1ad4f7e27446", "lat": 38.900863, "name": "b22cd1a50484127560ee1ad4f7e27446", "lon": -77.02989366666667, "fusion_lon": 0.0}, {"is_reserved": 0, "type": "electric_scooter", "fusion_lat": 0.0, "is_disabled": 0, "rental_uris": {"ios": "https://dc.lft.to/lastmile_qr_scan", "android": "https://dc.lft.to/lastmile_qr_scan"}, "bike_id": "0323da436906e322038e1c495278676e", "lat": 38.97240716666667, "name": "0323da436906e322038e1c495278676e", "lon": -77.027225, "fusion_lon": 0.0}, {"is_reserved": 0, "type": "electric_scooter", "fusion_lat": 0.0, "is_disabled": 0, "rental_uris": {"ios": "https://dc.lft.to/lastmile_qr_scan", "android": "https://dc.lft.to/lastmile_qr_scan"}, "bike_id": "5abdde2ae2898e9215b0bee42baf6861", "lat": 38.897914166666666, "name": "5abdde2ae2898e9215b0bee42baf6861", "lon": -77.05020183333333, "fusion_lon": 0.0}, {"is_reserved": 0, "type": "electric_scooter", "fusion_lat": 0.0, "is_disabled": 0, "rental_uris": {"ios": "https://dc.lft.to/lastmile_qr_scan", "android": "https://dc.lft.to/lastmile_qr_scan"}, "bike_id": "e7553e505bfeb288f824b873c135b1a5", "lat": 38.948586166666665, "name": "e7553e505bfeb288f824b873c135b1a5", "lon": -77.0788395, "fusion_lon": 0.0}, {"is_reserved": 0, "type": "electric_scooter", "fusion_lat": 0.0, "is_disabled": 0, "rental_uris": {"ios": "https://dc.lft.to/lastmile_qr_scan", "android": "https://dc.lft.to/lastmile_qr_scan"}, "bike_id": "6f078a9a7e4dc0ce7a50452d82d0c6de", "lat": 38.92268466666667, "name": "6f078a9a7e4dc0ce7a50452d82d0c6de", "lon": -76.99773833333333, "fusion_lon": 0.0}, {"is_reserved": 0, "type": "electric_scooter", "fusion_lat": 0.0, "is_disabled": 0, "rental_uris": {"ios": "https://dc.lft.to/lastmile_qr_scan", "android": "https://dc.lft.to/lastmile_qr_scan"}, "bike_id": "08d52ae3f9ca07a3858cc653637c1029", "lat": 38.91654333333334, "name": "08d52ae3f9ca07a3858cc653637c1029", "lon": -77.0417775, "fusion_lon": 0.0}, {"is_reserved": 0, "type": "electric_bike", "fusion_lat": 0.0, "is_disabled": 0, "rental_uris": {"ios": "https://dc.lft.to/lastmile_qr_scan", "android": "https://dc.lft.to/lastmile_qr_scan"}, "bike_id": "60d615b7e4a2fa1677d18cc13c156653", "lat": 38.96888633333333, "name": "60d615b7e4a2fa1677d18cc13c156653", "lon": -76.95588183333334, "fusion_lon": 0.0}, {"is_reserved": 0, "type": "electric_scooter", "fusion_lat": 0.0, "is_disabled": 0, "rental_uris": {"ios": "https://dc.lft.to/lastmile_qr_scan", "android": "https://dc.lft.to/lastmile_qr_scan"}, "bike_id": "a3e2b3e0a6e48450ea4ad4a06f88eed3", "lat": 38.8969635, "name": "a3e2b3e0a6e48450ea4ad4a06f88eed3", "lon": -77.04339933333333, "fusion_lon": 0.0}, {"is_reserved": 0, "type": "electric_scooter", "fusion_lat": 0.0, "is_disabled": 0, "rental_uris": {"ios": "https://dc.lft.to/lastmile_qr_scan", "android": "https://dc.lft.to/lastmile_qr_scan"}, "bike_id": "12e3579a9c64984a1841d7fba79fded5", "lat": 38.93444433333333, "name": "12e3579a9c64984a1841d7fba79fded5", "lon": -77.03284533333333, "fusion_lon": 0.0}, {"is_reserved": 0, "type": "electric_scooter", "fusion_lat": 0.0, "is_disabled": 0, "rental_uris": {"ios": "https://dc.lft.to/lastmile_qr_scan", "android": "https://dc.lft.to/lastmile_qr_scan"}, "bike_id": "990ba05df92b04eec0d10956f89c1870", "lat": 38.8988135, "name": "990ba05df92b04eec0d10956f89c1870", "lon": -76.93176916666667, "fusion_lon": 0.0}, {"is_reserved": 0, "type": "electric_scooter", "fusion_lat": 0.0, "is_disabled": 0, "rental_uris": {"ios": "https://dc.lft.to/lastmile_qr_scan", "android": "https://dc.lft.to/lastmile_qr_scan"}, "bike_id": "e39b81f0cdd239928aa4e3efc877562b", "lat": 38.9289175, "name": "e39b81f0cdd239928aa4e3efc877562b", "lon": -77.0387265, "fusion_lon": 0.0}, {"is_reserved": 0, "type": "electric_scooter", "fusion_lat": 0.0, "is_disabled": 0, "rental_uris": {"ios": "https://dc.lft.to/lastmile_qr_scan", "android": "https://dc.lft.to/lastmile_qr_scan"}, "bike_id": "9f59368c5192e3719d9ca236f35333be", "lat": 38.902977166666666, "name": "9f59368c5192e3719d9ca236f35333be", "lon": -77.03369683333334, "fusion_lon": 0.0}, {"is_reserved": 0, "type": "electric_scooter", "fusion_lat": 0.0, "is_disabled": 0, "rental_uris": {"ios": "https://dc.lft.to/lastmile_qr_scan", "android": "https://dc.lft.to/lastmile_qr_scan"}, "bike_id": "a8f49a09aead82b1cdf7150e1b007a27", "lat": 38.910268333333335, "name": "a8f49a09aead82b1cdf7150e1b007a27", "lon": -77.03834233333333, "fusion_lon": 0.0}, {"is_reserved": 0, "type": "electric_bike", "fusion_lat": 0.0, "is_disabled": 0, "rental_uris": {"ios": "https://dc.lft.to/lastmile_qr_scan", "android": "https://dc.lft.to/lastmile_qr_scan"}, "bike_id": "96a5b7ce1cd9095414cadebc68f7e754", "lat": 38.998319333333335, "name": "96a5b7ce1cd9095414cadebc68f7e754", "lon": -76.99727133333333, "fusion_lon": 0.0}, {"is_reserved": 0, "type": "electric_bike", "fusion_lat": 0.0, "is_disabled": 0, "rental_uris": {"ios": "https://dc.lft.to/lastmile_qr_scan", "android": "https://dc.lft.to/lastmile_qr_scan"}, "bike_id": "78051ca0a2b211b2655142dae9299259", "lat": 38.87520716666667, "name": "78051ca0a2b211b2655142dae9299259", "lon": -77.04732533333333, "fusion_lon": 0.0}, {"is_reserved": 0, "type": "electric_scooter", "fusion_lat": 0.0, "is_disabled": 0, "rental_uris": {"ios": "https://dc.lft.to/lastmile_qr_scan", "android": "https://dc.lft.to/lastmile_qr_scan"}, "bike_id": "1c054799de94b35a9eabe44c142a89d1", "lat": 38.892102666666666, "name": "1c054799de94b35a9eabe44c142a89d1", "lon": -76.96118283333334, "fusion_lon": 0.0}, {"is_reserved": 0, "type": "electric_scooter", "fusion_lat": 0.0, "is_disabled": 0, "rental_uris": {"ios": "https://dc.lft.to/lastmile_qr_scan", "android": "https://dc.lft.to/lastmile_qr_scan"}, "bike_id": "73d8a980b76621a5d44ea3453bd02610", "lat": 38.9595955, "name": "73d8a980b76621a5d44ea3453bd02610", "lon": -77.03315216666667, "fusion_lon": 0.0}, {"is_reserved": 0, "type": "electric_scooter", "fusion_lat": 0.0, "is_disabled": 0, "rental_uris": {"ios": "https://dc.lft.to/lastmile_qr_scan", "android": "https://dc.lft.to/lastmile_qr_scan"}, "bike_id": "378bd77af1ec92185c3542bf32f201e2", "lat": 38.92205116666667, "name": "378bd77af1ec92185c3542bf32f201e2", "lon": -77.04330583333333, "fusion_lon": 0.0}, {"is_reserved": 0, "type": "electric_scooter", "fusion_lat": 0.0, "is_disabled": 0, "rental_uris": {"ios": "https://dc.lft.to/lastmile_qr_scan", "android": "https://dc.lft.to/lastmile_qr_scan"}, "bike_id": "778e8d3c30de7d6f9201fa284040c284", "lat": 38.912751166666666, "name": "778e8d3c30de7d6f9201fa284040c284", "lon": -77.04669183333333, "fusion_lon": 0.0}, {"is_reserved": 0, "type": "electric_scooter", "fusion_lat": 0.0, "is_disabled": 0, "rental_uris": {"ios": "https://dc.lft.to/lastmile_qr_scan", "android": "https://dc.lft.to/lastmile_qr_scan"}, "bike_id": "897c7338afdfd18f5ce6d600e2fed57a", "lat": 38.8838255, "name": "897c7338afdfd18f5ce6d600e2fed57a", "lon": -77.0460795, "fusion_lon": 0.0}, {"is_reserved": 0, "type": "electric_bike", "fusion_lat": 0.0, "is_disabled": 0, "rental_uris": {"ios": "https://dc.lft.to/lastmile_qr_scan", "android": "https://dc.lft.to/lastmile_qr_scan"}, "bike_id": "5d8c9620f4e234dfec4bb83c24826a4d", "lat": 38.94411366666667, "name": "5d8c9620f4e234dfec4bb83c24826a4d", "lon": -77.02186183333333, "fusion_lon": 0.0}, {"is_reserved": 0, "type": "electric_scooter", "fusion_lat": 0.0, "is_disabled": 0, "rental_uris": {"ios": "https://dc.lft.to/lastmile_qr_scan", "android": "https://dc.lft.to/lastmile_qr_scan"}, "bike_id": "07980b2b5461ace3f3868ceadc8c6dfd", "lat": 38.911867, "name": "07980b2b5461ace3f3868ceadc8c6dfd", "lon": -77.0177015, "fusion_lon": 0.0}, {"is_reserved": 0, "type": "electric_scooter", "fusion_lat": 0.0, "is_disabled": 0, "rental_uris": {"ios": "https://dc.lft.to/lastmile_qr_scan", "android": "https://dc.lft.to/lastmile_qr_scan"}, "bike_id": "8f8f7ba0977fc92f110e248e898940cc", "lat": 38.87378366666667, "name": "8f8f7ba0977fc92f110e248e898940cc", "lon": -77.00129833333334, "fusion_lon": 0.0}, {"is_reserved": 0, "type": "electric_scooter", "fusion_lat": 0.0, "is_disabled": 0, "rental_uris": {"ios": "https://dc.lft.to/lastmile_qr_scan", "android": "https://dc.lft.to/lastmile_qr_scan"}, "bike_id": "fee597acdeec1f1507ce210e384712db", "lat": 38.944652833333336, "name": "fee597acdeec1f1507ce210e384712db", "lon": -77.006583, "fusion_lon": 0.0}, {"is_reserved": 0, "type": "electric_scooter", "fusion_lat": 0.0, "is_disabled": 0, "rental_uris": {"ios": "https://dc.lft.to/lastmile_qr_scan", "android": "https://dc.lft.to/lastmile_qr_scan"}, "bike_id": "610c9c946288cd6ab655df7a015f0fe2", "lat": 38.912194166666666, "name": "610c9c946288cd6ab655df7a015f0fe2", "lon": -77.006624, "fusion_lon": 0.0}, {"is_reserved": 0, "type": "electric_scooter", "fusion_lat": 0.0, "is_disabled": 0, "rental_uris": {"ios": "https://dc.lft.to/lastmile_qr_scan", "android": "https://dc.lft.to/lastmile_qr_scan"}, "bike_id": "c915a1d5246d5fa4a81d30aa1a3a4f2a", "lat": 38.92229183333333, "name": "c915a1d5246d5fa4a81d30aa1a3a4f2a", "lon": -77.04366366666666, "fusion_lon": 0.0}, {"is_reserved": 0, "type": "electric_scooter", "fusion_lat": 0.0, "is_disabled": 0, "rental_uris": {"ios": "https://dc.lft.to/lastmile_qr_scan", "android": "https://dc.lft.to/lastmile_qr_scan"}, "bike_id": "cc20bb21550cbd74ea22716c77145ab3", "lat": 38.902718666666665, "name": "cc20bb21550cbd74ea22716c77145ab3", "lon": -76.98981233333333, "fusion_lon": 0.0}, {"is_reserved": 0, "type": "electric_scooter", "fusion_lat": 0.0, "is_disabled": 0, "rental_uris": {"ios": "https://dc.lft.to/lastmile_qr_scan", "android": "https://dc.lft.to/lastmile_qr_scan"}, "bike_id": "66d63f447dd4d1ce3c8821d2db6e7286", "lat": 38.907843666666665, "name": "66d63f447dd4d1ce3c8821d2db6e7286", "lon": -77.07261433333333, "fusion_lon": 0.0}, {"is_reserved": 0, "type": "electric_scooter", "fusion_lat": 0.0, "is_disabled": 0, "rental_uris": {"ios": "https://dc.lft.to/lastmile_qr_scan", "android": "https://dc.lft.to/lastmile_qr_scan"}, "bike_id": "bf035d9fc008e9df8c94ebf6ab484ca8", "lat": 38.91552733333333, "name": "bf035d9fc008e9df8c94ebf6ab484ca8", "lon": -77.0296505, "fusion_lon": 0.0}, {"is_reserved": 0, "type": "electric_scooter", "fusion_lat": 0.0, "is_disabled": 0, "rental_uris": {"ios": "https://dc.lft.to/lastmile_qr_scan", "android": "https://dc.lft.to/lastmile_qr_scan"}, "bike_id": "25833148ebf6b9ffc210f08da82ea4a6", "lat": 38.90513033333333, "name": "25833148ebf6b9ffc210f08da82ea4a6", "lon": -77.04339616666667, "fusion_lon": 0.0}, {"is_reserved": 0, "type": "electric_scooter", "fusion_lat": 0.0, "is_disabled": 0, "rental_uris": {"ios": "https://dc.lft.to/lastmile_qr_scan", "android": "https://dc.lft.to/lastmile_qr_scan"}, "bike_id": "0786914bc3af43a27cbafb7d44ac2a9f", "lat": 38.907111666666665, "name": "0786914bc3af43a27cbafb7d44ac2a9f", "lon": -77.032012, "fusion_lon": 0.0}, {"is_reserved": 0, "type": "electric_bike", "fusion_lat": 0.0, "is_disabled": 0, "rental_uris": {"ios": "https://dc.lft.to/lastmile_qr_scan", "android": "https://dc.lft.to/lastmile_qr_scan"}, "bike_id": "ac57a41a145f580d59625e6e5967f286", "lat": 38.894222166666665, "name": "ac57a41a145f580d59625e6e5967f286", "lon": -77.0944795, "fusion_lon": 0.0}, {"is_reserved": 0, "type": "electric_scooter", "fusion_lat": 0.0, "is_disabled": 0, "rental_uris": {"ios": "https://dc.lft.to/lastmile_qr_scan", "android": "https://dc.lft.to/lastmile_qr_scan"}, "bike_id": "b2b2679337f2f5c391a8cd82a4a98bd4", "lat": 38.883716, "name": "b2b2679337f2f5c391a8cd82a4a98bd4", "lon": -76.99516666666666, "fusion_lon": 0.0}, {"is_reserved": 0, "type": "electric_scooter", "fusion_lat": 0.0, "is_disabled": 0, "rental_uris": {"ios": "https://dc.lft.to/lastmile_qr_scan", "android": "https://dc.lft.to/lastmile_qr_scan"}, "bike_id": "4c00c69c9abb57fefdafec88ab4912bf", "lat": 38.906626, "name": "4c00c69c9abb57fefdafec88ab4912bf", "lon": -77.01627033333334, "fusion_lon": 0.0}, {"is_reserved": 0, "type": "electric_bike", "fusion_lat": 0.0, "is_disabled": 0, "rental_uris": {"ios": "https://dc.lft.to/lastmile_qr_scan", "android": "https://dc.lft.to/lastmile_qr_scan"}, "bike_id": "fe3d75f01ab22e5052c8cecb62e340af", "lat": 38.982261333333334, "name": "fe3d75f01ab22e5052c8cecb62e340af", "lon": -77.09579533333333, "fusion_lon": 0.0}, {"is_reserved": 0, "type": "electric_bike", "fusion_lat": 0.0, "is_disabled": 0, "rental_uris": {"ios": "https://dc.lft.to/lastmile_qr_scan", "android": "https://dc.lft.to/lastmile_qr_scan"}, "bike_id": "67141c0d8046e8086da7cd74f4adceaa", "lat": 38.840899666666665, "name": "67141c0d8046e8086da7cd74f4adceaa", "lon": -76.97031233333334, "fusion_lon": 0.0}, {"is_reserved": 0, "type": "electric_scooter", "fusion_lat": 0.0, "is_disabled": 0, "rental_uris": {"ios": "https://dc.lft.to/lastmile_qr_scan", "android": "https://dc.lft.to/lastmile_qr_scan"}, "bike_id": "1351ec65779c78f3e6e59bf410a94d08", "lat": 38.89847866666667, "name": "1351ec65779c78f3e6e59bf410a94d08", "lon": -77.01871016666666, "fusion_lon": 0.0}, {"is_reserved": 0, "type": "electric_scooter", "fusion_lat": 0.0, "is_disabled": 0, "rental_uris": {"ios": "https://dc.lft.to/lastmile_qr_scan", "android": "https://dc.lft.to/lastmile_qr_scan"}, "bike_id": "c851764c8ba3cf23656f5b92d6f347ef", "lat": 38.912112, "name": "c851764c8ba3cf23656f5b92d6f347ef", "lon": -77.03839616666667, "fusion_lon": 0.0}, {"is_reserved": 0, "type": "electric_bike", "fusion_lat": 0.0, "is_disabled": 0, "rental_uris": {"ios": "https://dc.lft.to/lastmile_qr_scan", "android": "https://dc.lft.to/lastmile_qr_scan"}, "bike_id": "15f9473d581145b2e0dd564485d221a6", "lat": 39.02301083333333, "name": "15f9473d581145b2e0dd564485d221a6", "lon": -77.02108066666666, "fusion_lon": 0.0}, {"is_reserved": 0, "type": "electric_scooter", "fusion_lat": 0.0, "is_disabled": 0, "rental_uris": {"ios": "https://dc.lft.to/lastmile_qr_scan", "android": "https://dc.lft.to/lastmile_qr_scan"}, "bike_id": "3a3aebda1c8b55e866047a5db5d0754e", "lat": 38.91979366666666, "name": "3a3aebda1c8b55e866047a5db5d0754e", "lon": -77.04224716666667, "fusion_lon": 0.0}, {"is_reserved": 0, "type": "electric_bike", "fusion_lat": 0.0, "is_disabled": 0, "rental_uris": {"ios": "https://dc.lft.to/lastmile_qr_scan", "android": "https://dc.lft.to/lastmile_qr_scan"}, "bike_id": "4f60541487e2e3d79f98313b754d66af", "lat": 38.974805833333335, "name": "4f60541487e2e3d79f98313b754d66af", "lon": -76.98672983333333, "fusion_lon": 0.0}, {"is_reserved": 0, "type": "electric_scooter", "fusion_lat": 0.0, "is_disabled": 0, "rental_uris": {"ios": "https://dc.lft.to/lastmile_qr_scan", "android": "https://dc.lft.to/lastmile_qr_scan"}, "bike_id": "9d995ad77eeabfecadee449331d4b4bc", "lat": 38.903795, "name": "9d995ad77eeabfecadee449331d4b4bc", "lon": -77.05087533333334, "fusion_lon": 0.0}, {"is_reserved": 0, "type": "electric_scooter", "fusion_lat": 0.0, "is_disabled": 0, "rental_uris": {"ios": "https://dc.lft.to/lastmile_qr_scan", "android": "https://dc.lft.to/lastmile_qr_scan"}, "bike_id": "5432918aecd730bab0a6fc657f8b631a", "lat": 38.8839025, "name": "5432918aecd730bab0a6fc657f8b631a", "lon": -76.93038166666666, "fusion_lon": 0.0}, {"is_reserved": 0, "type": "electric_scooter", "fusion_lat": 0.0, "is_disabled": 0, "rental_uris": {"ios": "https://dc.lft.to/lastmile_qr_scan", "android": "https://dc.lft.to/lastmile_qr_scan"}, "bike_id": "0c6721c9549df50459b37198322bc33f", "lat": 38.903739333333334, "name": "0c6721c9549df50459b37198322bc33f", "lon": -77.00558383333333, "fusion_lon": 0.0}, {"is_reserved": 0, "type": "electric_scooter", "fusion_lat": 0.0, "is_disabled": 0, "rental_uris": {"ios": "https://dc.lft.to/lastmile_qr_scan", "android": "https://dc.lft.to/lastmile_qr_scan"}, "bike_id": "ef034a808b01a11d878dacded92e7d2a", "lat": 38.92362283333333, "name": "ef034a808b01a11d878dacded92e7d2a", "lon": -77.02983783333333, "fusion_lon": 0.0}, {"is_reserved": 0, "type": "electric_bike", "fusion_lat": 0.0, "is_disabled": 0, "rental_uris": {"ios": "https://dc.lft.to/lastmile_qr_scan", "android": "https://dc.lft.to/lastmile_qr_scan"}, "bike_id": "84828c9f5443be86d3cf4919cb65e33c", "lat": 39.08434333333334, "name": "84828c9f5443be86d3cf4919cb65e33c", "lon": -76.951442, "fusion_lon": 0.0}, {"is_reserved": 0, "type": "electric_scooter", "fusion_lat": 0.0, "is_disabled": 0, "rental_uris": {"ios": "https://dc.lft.to/lastmile_qr_scan", "android": "https://dc.lft.to/lastmile_qr_scan"}, "bike_id": "37c6cea8ff5483dd8cb0f0da5b686897", "lat": 38.92105433333333, "name": "37c6cea8ff5483dd8cb0f0da5b686897", "lon": -77.04224366666666, "fusion_lon": 0.0}, {"is_reserved": 0, "type": "electric_scooter", "fusion_lat": 0.0, "is_disabled": 0, "rental_uris": {"ios": "https://dc.lft.to/lastmile_qr_scan", "android": "https://dc.lft.to/lastmile_qr_scan"}, "bike_id": "4d165332387ae9489ef8580f349e7ba6", "lat": 38.92801516666667, "name": "4d165332387ae9489ef8580f349e7ba6", "lon": -77.02387316666666, "fusion_lon": 0.0}, {"is_reserved": 0, "type": "electric_scooter", "fusion_lat": 0.0, "is_disabled": 0, "rental_uris": {"ios": "https://dc.lft.to/lastmile_qr_scan", "android": "https://dc.lft.to/lastmile_qr_scan"}, "bike_id": "ffc3f5d3f3c2645458f547349eb68e5e", "lat": 38.89855766666667, "name": "ffc3f5d3f3c2645458f547349eb68e5e", "lon": -76.99032583333333, "fusion_lon": 0.0}, {"is_reserved": 0, "type": "electric_scooter", "fusion_lat": 0.0, "is_disabled": 0, "rental_uris": {"ios": "https://dc.lft.to/lastmile_qr_scan", "android": "https://dc.lft.to/lastmile_qr_scan"}, "bike_id": "7a53c8f0950fae4a56233a508f9762cf", "lat": 38.926822666666666, "name": "7a53c8f0950fae4a56233a508f9762cf", "lon": -77.008803, "fusion_lon": 0.0}, {"is_reserved": 0, "type": "electric_scooter", "fusion_lat": 0.0, "is_disabled": 0, "rental_uris": {"ios": "https://dc.lft.to/lastmile_qr_scan", "android": "https://dc.lft.to/lastmile_qr_scan"}, "bike_id": "b57770362122471649dfb03942ee968b", "lat": 38.92421983333333, "name": "b57770362122471649dfb03942ee968b", "lon": -77.01951033333333, "fusion_lon": 0.0}, {"is_reserved": 0, "type": "electric_scooter", "fusion_lat": 0.0, "is_disabled": 0, "rental_uris": {"ios": "https://dc.lft.to/lastmile_qr_scan", "android": "https://dc.lft.to/lastmile_qr_scan"}, "bike_id": "ec57ab6cba0ca803c973092813da4791", "lat": 38.93165233333333, "name": "ec57ab6cba0ca803c973092813da4791", "lon": -77.0560605, "fusion_lon": 0.0}, {"is_reserved": 0, "type": "electric_bike", "fusion_lat": 0.0, "is_disabled": 0, "rental_uris": {"ios": "https://dc.lft.to/lastmile_qr_scan", "android": "https://dc.lft.to/lastmile_qr_scan"}, "bike_id": "6337ae0a5fd7702379b7dedeee22b707", "lat": 38.85793066666667, "name": "6337ae0a5fd7702379b7dedeee22b707", "lon": -77.09962633333333, "fusion_lon": 0.0}, {"is_reserved": 0, "type": "electric_scooter", "fusion_lat": 0.0, "is_disabled": 0, "rental_uris": {"ios": "https://dc.lft.to/lastmile_qr_scan", "android": "https://dc.lft.to/lastmile_qr_scan"}, "bike_id": "6a3dbce7454e58419c1d60c8cbf85303", "lat": 38.909465, "name": "6a3dbce7454e58419c1d60c8cbf85303", "lon": -76.93594983333334, "fusion_lon": 0.0}, {"is_reserved": 0, "type": "electric_scooter", "fusion_lat": 0.0, "is_disabled": 0, "rental_uris": {"ios": "https://dc.lft.to/lastmile_qr_scan", "android": "https://dc.lft.to/lastmile_qr_scan"}, "bike_id": "baea983d0175ba6b210b76d685a985da", "lat": 38.9170815, "name": "baea983d0175ba6b210b76d685a985da", "lon": -77.02990683333333, "fusion_lon": 0.0}, {"is_reserved": 0, "type": "electric_scooter", "fusion_lat": 0.0, "is_disabled": 0, "rental_uris": {"ios": "https://dc.lft.to/lastmile_qr_scan", "android": "https://dc.lft.to/lastmile_qr_scan"}, "bike_id": "33cc33164ec920aefba63f9892251489", "lat": 38.907467, "name": "33cc33164ec920aefba63f9892251489", "lon": -77.0450905, "fusion_lon": 0.0}, {"is_reserved": 0, "type": "electric_bike", "fusion_lat": 0.0, "is_disabled": 0, "rental_uris": {"ios": "https://dc.lft.to/lastmile_qr_scan", "android": "https://dc.lft.to/lastmile_qr_scan"}, "bike_id": "18da30439ac1917774b17291d8686078", "lat": 38.883759166666664, "name": "18da30439ac1917774b17291d8686078", "lon": -76.92370616666666, "fusion_lon": 0.0}, {"is_reserved": 0, "type": "electric_scooter", "fusion_lat": 0.0, "is_disabled": 0, "rental_uris": {"ios": "https://dc.lft.to/lastmile_qr_scan", "android": "https://dc.lft.to/lastmile_qr_scan"}, "bike_id": "293732361ff59f2b13b140a4c329229a", "lat": 38.90041866666667, "name": "293732361ff59f2b13b140a4c329229a", "lon": -77.02189816666667, "fusion_lon": 0.0}, {"is_reserved": 0, "type": "electric_scooter", "fusion_lat": 0.0, "is_disabled": 0, "rental_uris": {"ios": "https://dc.lft.to/lastmile_qr_scan", "android": "https://dc.lft.to/lastmile_qr_scan"}, "bike_id": "ccdae6d5817222ad21c7b84bf131fecf", "lat": 38.942010833333335, "name": "ccdae6d5817222ad21c7b84bf131fecf", "lon": -77.01337666666667, "fusion_lon": 0.0}, {"is_reserved": 0, "type": "electric_scooter", "fusion_lat": 0.0, "is_disabled": 0, "rental_uris": {"ios": "https://dc.lft.to/lastmile_qr_scan", "android": "https://dc.lft.to/lastmile_qr_scan"}, "bike_id": "d1d7979f5169ff5666560de06d20ed19", "lat": 38.955916, "name": "d1d7979f5169ff5666560de06d20ed19", "lon": -77.01783433333334, "fusion_lon": 0.0}, {"is_reserved": 0, "type": "electric_scooter", "fusion_lat": 0.0, "is_disabled": 0, "rental_uris": {"ios": "https://dc.lft.to/lastmile_qr_scan", "android": "https://dc.lft.to/lastmile_qr_scan"}, "bike_id": "9314637d191724d070ba93fd96168859", "lat": 38.9326585, "name": "9314637d191724d070ba93fd96168859", "lon": -77.02098083333334, "fusion_lon": 0.0}, {"is_reserved": 0, "type": "electric_bike", "fusion_lat": 0.0, "is_disabled": 0, "rental_uris": {"ios": "https://dc.lft.to/lastmile_qr_scan", "android": "https://dc.lft.to/lastmile_qr_scan"}, "bike_id": "1c490f5eef9b555a9f33246c1a97bfb9", "lat": 39.02650466666667, "name": "1c490f5eef9b555a9f33246c1a97bfb9", "lon": -77.03683566666666, "fusion_lon": 0.0}, {"is_reserved": 0, "type": "electric_scooter", "fusion_lat": 0.0, "is_disabled": 0, "rental_uris": {"ios": "https://dc.lft.to/lastmile_qr_scan", "android": "https://dc.lft.to/lastmile_qr_scan"}, "bike_id": "e5e57dbecb0b7d93383d406ee681e439", "lat": 38.8737925, "name": "e5e57dbecb0b7d93383d406ee681e439", "lon": -77.00130166666666, "fusion_lon": 0.0}, {"is_reserved": 0, "type": "electric_scooter", "fusion_lat": 0.0, "is_disabled": 0, "rental_uris": {"ios": "https://dc.lft.to/lastmile_qr_scan", "android": "https://dc.lft.to/lastmile_qr_scan"}, "bike_id": "ea80f438e071ebb8dd6f9e82d26303c4", "lat": 38.91368, "name": "ea80f438e071ebb8dd6f9e82d26303c4", "lon": -77.020492, "fusion_lon": 0.0}, {"is_reserved": 0, "type": "electric_scooter", "fusion_lat": 0.0, "is_disabled": 0, "rental_uris": {"ios": "https://dc.lft.to/lastmile_qr_scan", "android": "https://dc.lft.to/lastmile_qr_scan"}, "bike_id": "65ddafad50299e74140e35a9e2b63d76", "lat": 38.880509333333336, "name": "65ddafad50299e74140e35a9e2b63d76", "lon": -77.01737966666667, "fusion_lon": 0.0}, {"is_reserved": 0, "type": "electric_scooter", "fusion_lat": 0.0, "is_disabled": 0, "rental_uris": {"ios": "https://dc.lft.to/lastmile_qr_scan", "android": "https://dc.lft.to/lastmile_qr_scan"}, "bike_id": "6ad02aab3dfebe022087dd0eb7e68909", "lat": 38.92202416666667, "name": "6ad02aab3dfebe022087dd0eb7e68909", "lon": -77.020439, "fusion_lon": 0.0}, {"is_reserved": 0, "type": "electric_scooter", "fusion_lat": 0.0, "is_disabled": 0, "rental_uris": {"ios": "https://dc.lft.to/lastmile_qr_scan", "android": "https://dc.lft.to/lastmile_qr_scan"}, "bike_id": "7a3cce94e9219ac9348b1f161d301437", "lat": 38.9238895, "name": "7a3cce94e9219ac9348b1f161d301437", "lon": -77.0295945, "fusion_lon": 0.0}, {"is_reserved": 0, "type": "electric_scooter", "fusion_lat": 0.0, "is_disabled": 0, "rental_uris": {"ios": "https://dc.lft.to/lastmile_qr_scan", "android": "https://dc.lft.to/lastmile_qr_scan"}, "bike_id": "2c22b8b83d62a9e2fb8d2989ee6e875e", "lat": 38.8974655, "name": "2c22b8b83d62a9e2fb8d2989ee6e875e", "lon": -76.946918, "fusion_lon": 0.0}, {"is_reserved": 0, "type": "electric_scooter", "fusion_lat": 0.0, "is_disabled": 0, "rental_uris": {"ios": "https://dc.lft.to/lastmile_qr_scan", "android": "https://dc.lft.to/lastmile_qr_scan"}, "bike_id": "4da7a23288a02e0b30d3abc9580bcc6d", "lat": 38.900885833333334, "name": "4da7a23288a02e0b30d3abc9580bcc6d", "lon": -76.9833535, "fusion_lon": 0.0}, {"is_reserved": 0, "type": "electric_scooter", "fusion_lat": 0.0, "is_disabled": 0, "rental_uris": {"ios": "https://dc.lft.to/lastmile_qr_scan", "android": "https://dc.lft.to/lastmile_qr_scan"}, "bike_id": "9453827b79db69c878e7b6282dc769c5", "lat": 38.92763866666667, "name": "9453827b79db69c878e7b6282dc769c5", "lon": -77.05275283333333, "fusion_lon": 0.0}, {"is_reserved": 0, "type": "electric_scooter", "fusion_lat": 0.0, "is_disabled": 0, "rental_uris": {"ios": "https://dc.lft.to/lastmile_qr_scan", "android": "https://dc.lft.to/lastmile_qr_scan"}, "bike_id": "ce1836e3213eb5419091104d5e8c3f74", "lat": 38.88624883333333, "name": "ce1836e3213eb5419091104d5e8c3f74", "lon": -76.926309, "fusion_lon": 0.0}, {"is_reserved": 0, "type": "electric_scooter", "fusion_lat": 0.0, "is_disabled": 0, "rental_uris": {"ios": "https://dc.lft.to/lastmile_qr_scan", "android": "https://dc.lft.to/lastmile_qr_scan"}, "bike_id": "3277983794a88baf983a74a2029767c7", "lat": 38.904346, "name": "3277983794a88baf983a74a2029767c7", "lon": -77.04349366666666, "fusion_lon": 0.0}, {"is_reserved": 0, "type": "electric_scooter", "fusion_lat": 0.0, "is_disabled": 0, "rental_uris": {"ios": "https://dc.lft.to/lastmile_qr_scan", "android": "https://dc.lft.to/lastmile_qr_scan"}, "bike_id": "d46ab64b54b78301218551000b5a37f1", "lat": 38.92808266666667, "name": "d46ab64b54b78301218551000b5a37f1", "lon": -77.04327683333334, "fusion_lon": 0.0}, {"is_reserved": 0, "type": "electric_scooter", "fusion_lat": 0.0, "is_disabled": 0, "rental_uris": {"ios": "https://dc.lft.to/lastmile_qr_scan", "android": "https://dc.lft.to/lastmile_qr_scan"}, "bike_id": "ab96405b1a507dc614486e5804b68b80", "lat": 38.879307, "name": "ab96405b1a507dc614486e5804b68b80", "lon": -77.02165483333333, "fusion_lon": 0.0}, {"is_reserved": 0, "type": "electric_scooter", "fusion_lat": 0.0, "is_disabled": 0, "rental_uris": {"ios": "https://dc.lft.to/lastmile_qr_scan", "android": "https://dc.lft.to/lastmile_qr_scan"}, "bike_id": "17b426b543715fb4bd6490db18f5cc68", "lat": 38.9111065, "name": "17b426b543715fb4bd6490db18f5cc68", "lon": -77.01162833333333, "fusion_lon": 0.0}, {"is_reserved": 0, "type": "electric_bike", "fusion_lat": 0.0, "is_disabled": 0, "rental_uris": {"ios": "https://dc.lft.to/lastmile_qr_scan", "android": "https://dc.lft.to/lastmile_qr_scan"}, "bike_id": "46a5e6d1fe5fd06338b65cfd29161890", "lat": 38.96779316666667, "name": "46a5e6d1fe5fd06338b65cfd29161890", "lon": -76.99647616666667, "fusion_lon": 0.0}, {"is_reserved": 0, "type": "electric_scooter", "fusion_lat": 0.0, "is_disabled": 0, "rental_uris": {"ios": "https://dc.lft.to/lastmile_qr_scan", "android": "https://dc.lft.to/lastmile_qr_scan"}, "bike_id": "62e1314d16412696bd53666699581c3b", "lat": 38.8792355, "name": "62e1314d16412696bd53666699581c3b", "lon": -77.01335083333333, "fusion_lon": 0.0}, {"is_reserved": 0, "type": "electric_scooter", "fusion_lat": 0.0, "is_disabled": 0, "rental_uris": {"ios": "https://dc.lft.to/lastmile_qr_scan", "android": "https://dc.lft.to/lastmile_qr_scan"}, "bike_id": "5ff89c5d17c4a2ea4e91931ee9c0d0c8", "lat": 38.90013783333333, "name": "5ff89c5d17c4a2ea4e91931ee9c0d0c8", "lon": -77.01180133333334, "fusion_lon": 0.0}, {"is_reserved": 0, "type": "electric_scooter", "fusion_lat": 0.0, "is_disabled": 0, "rental_uris": {"ios": "https://dc.lft.to/lastmile_qr_scan", "android": "https://dc.lft.to/lastmile_qr_scan"}, "bike_id": "9a4d82ddcfb934f7ac1b9123febc7618", "lat": 38.91582, "name": "9a4d82ddcfb934f7ac1b9123febc7618", "lon": -77.020035, "fusion_lon": 0.0}, {"is_reserved": 0, "type": "electric_bike", "fusion_lat": 0.0, "is_disabled": 0, "rental_uris": {"ios": "https://dc.lft.to/lastmile_qr_scan", "android": "https://dc.lft.to/lastmile_qr_scan"}, "bike_id": "f57fac5040b53e51d9fe17c7e1d65d82", "lat": 38.90389183333333, "name": "f57fac5040b53e51d9fe17c7e1d65d82", "lon": -76.9375335, "fusion_lon": 0.0}, {"is_reserved": 0, "type": "electric_scooter", "fusion_lat": 0.0, "is_disabled": 0, "rental_uris": {"ios": "https://dc.lft.to/lastmile_qr_scan", "android": "https://dc.lft.to/lastmile_qr_scan"}, "bike_id": "b216bf2b1e25caf8282cdfa3ae3f73f2", "lat": 38.92373, "name": "b216bf2b1e25caf8282cdfa3ae3f73f2", "lon": -77.07283483333333, "fusion_lon": 0.0}, {"is_reserved": 0, "type": "electric_scooter", "fusion_lat": 0.0, "is_disabled": 0, "rental_uris": {"ios": "https://dc.lft.to/lastmile_qr_scan", "android": "https://dc.lft.to/lastmile_qr_scan"}, "bike_id": "1c8e3a28b6e2ad38e58056ca8eb9c524", "lat": 38.887006, "name": "1c8e3a28b6e2ad38e58056ca8eb9c524", "lon": -77.0006205, "fusion_lon": 0.0}, {"is_reserved": 0, "type": "electric_scooter", "fusion_lat": 0.0, "is_disabled": 0, "rental_uris": {"ios": "https://dc.lft.to/lastmile_qr_scan", "android": "https://dc.lft.to/lastmile_qr_scan"}, "bike_id": "8b76cdcc2334065965c2e9b92c751051", "lat": 38.93542, "name": "8b76cdcc2334065965c2e9b92c751051", "lon": -77.05748383333334, "fusion_lon": 0.0}, {"is_reserved": 0, "type": "electric_scooter", "fusion_lat": 0.0, "is_disabled": 0, "rental_uris": {"ios": "https://dc.lft.to/lastmile_qr_scan", "android": "https://dc.lft.to/lastmile_qr_scan"}, "bike_id": "5de8035acc0e31e365cbf8c0855052a6", "lat": 38.91557433333333, "name": "5de8035acc0e31e365cbf8c0855052a6", "lon": -77.04124866666666, "fusion_lon": 0.0}, {"is_reserved": 0, "type": "electric_scooter", "fusion_lat": 0.0, "is_disabled": 0, "rental_uris": {"ios": "https://dc.lft.to/lastmile_qr_scan", "android": "https://dc.lft.to/lastmile_qr_scan"}, "bike_id": "f704bc8410eb3e70babc49a0edc4bfdf", "lat": 38.93588283333333, "name": "f704bc8410eb3e70babc49a0edc4bfdf", "lon": -77.074338, "fusion_lon": 0.0}, {"is_reserved": 0, "type": "electric_scooter", "fusion_lat": 0.0, "is_disabled": 0, "rental_uris": {"ios": "https://dc.lft.to/lastmile_qr_scan", "android": "https://dc.lft.to/lastmile_qr_scan"}, "bike_id": "10d2970629305cfd4d3dfb16d365e541", "lat": 38.8774945, "name": "10d2970629305cfd4d3dfb16d365e541", "lon": -77.00611833333333, "fusion_lon": 0.0}, {"is_reserved": 0, "type": "electric_scooter", "fusion_lat": 0.0, "is_disabled": 0, "rental_uris": {"ios": "https://dc.lft.to/lastmile_qr_scan", "android": "https://dc.lft.to/lastmile_qr_scan"}, "bike_id": "90b563c2b3fddf86d1bb30d4b0cb6908", "lat": 38.928069666666666, "name": "90b563c2b3fddf86d1bb30d4b0cb6908", "lon": -77.03696116666667, "fusion_lon": 0.0}, {"is_reserved": 0, "type": "electric_scooter", "fusion_lat": 0.0, "is_disabled": 0, "rental_uris": {"ios": "https://dc.lft.to/lastmile_qr_scan", "android": "https://dc.lft.to/lastmile_qr_scan"}, "bike_id": "d553f2fcb27e616d9c6f6ded9efbb6f8", "lat": 38.9027165, "name": "d553f2fcb27e616d9c6f6ded9efbb6f8", "lon": -77.03965066666666, "fusion_lon": 0.0}, {"is_reserved": 0, "type": "electric_scooter", "fusion_lat": 0.0, "is_disabled": 0, "rental_uris": {"ios": "https://dc.lft.to/lastmile_qr_scan", "android": "https://dc.lft.to/lastmile_qr_scan"}, "bike_id": "19807235a39ae0876be136bb34b22556", "lat": 38.893442666666665, "name": "19807235a39ae0876be136bb34b22556", "lon": -76.98559933333334, "fusion_lon": 0.0}, {"is_reserved": 0, "type": "electric_scooter", "fusion_lat": 0.0, "is_disabled": 0, "rental_uris": {"ios": "https://dc.lft.to/lastmile_qr_scan", "android": "https://dc.lft.to/lastmile_qr_scan"}, "bike_id": "4b8c476d24bbc1c968474593e0d8a9ba", "lat": 38.91701583333333, "name": "4b8c476d24bbc1c968474593e0d8a9ba", "lon": -77.04054966666666, "fusion_lon": 0.0}, {"is_reserved": 0, "type": "electric_scooter", "fusion_lat": 0.0, "is_disabled": 0, "rental_uris": {"ios": "https://dc.lft.to/lastmile_qr_scan", "android": "https://dc.lft.to/lastmile_qr_scan"}, "bike_id": "e4f245d8a21c115ba9b619d26c8a1473", "lat": 38.91869633333334, "name": "e4f245d8a21c115ba9b619d26c8a1473", "lon": -77.03529, "fusion_lon": 0.0}, {"is_reserved": 0, "type": "electric_scooter", "fusion_lat": 0.0, "is_disabled": 0, "rental_uris": {"ios": "https://dc.lft.to/lastmile_qr_scan", "android": "https://dc.lft.to/lastmile_qr_scan"}, "bike_id": "9a7a9a202c42163b4ba243c08171ec72", "lat": 38.900894, "name": "9a7a9a202c42163b4ba243c08171ec72", "lon": -77.04351783333334, "fusion_lon": 0.0}, {"is_reserved": 0, "type": "electric_scooter", "fusion_lat": 0.0, "is_disabled": 0, "rental_uris": {"ios": "https://dc.lft.to/lastmile_qr_scan", "android": "https://dc.lft.to/lastmile_qr_scan"}, "bike_id": "445e252638deca9563de9be8178dd819", "lat": 38.923701333333334, "name": "445e252638deca9563de9be8178dd819", "lon": -77.02051083333333, "fusion_lon": 0.0}, {"is_reserved": 0, "type": "electric_scooter", "fusion_lat": 0.0, "is_disabled": 0, "rental_uris": {"ios": "https://dc.lft.to/lastmile_qr_scan", "android": "https://dc.lft.to/lastmile_qr_scan"}, "bike_id": "d1aebfc029df8e734fe32a3cf9b010ef", "lat": 38.924774166666666, "name": "d1aebfc029df8e734fe32a3cf9b010ef", "lon": -77.02212933333334, "fusion_lon": 0.0}, {"is_reserved": 0, "type": "electric_scooter", "fusion_lat": 0.0, "is_disabled": 0, "rental_uris": {"ios": "https://dc.lft.to/lastmile_qr_scan", "android": "https://dc.lft.to/lastmile_qr_scan"}, "bike_id": "d646904e31259f53eb4d12800584071c", "lat": 38.938611333333334, "name": "d646904e31259f53eb4d12800584071c", "lon": -77.078306, "fusion_lon": 0.0}, {"is_reserved": 0, "type": "electric_scooter", "fusion_lat": 0.0, "is_disabled": 0, "rental_uris": {"ios": "https://dc.lft.to/lastmile_qr_scan", "android": "https://dc.lft.to/lastmile_qr_scan"}, "bike_id": "896c1cef1d91dde172c0afbeae94161a", "lat": 38.92370433333333, "name": "896c1cef1d91dde172c0afbeae94161a", "lon": -77.0402625, "fusion_lon": 0.0}, {"is_reserved": 0, "type": "electric_scooter", "fusion_lat": 0.0, "is_disabled": 0, "rental_uris": {"ios": "https://dc.lft.to/lastmile_qr_scan", "android": "https://dc.lft.to/lastmile_qr_scan"}, "bike_id": "651771a85f27b301704e0b0808f4705a", "lat": 38.9223085, "name": "651771a85f27b301704e0b0808f4705a", "lon": -76.9753345, "fusion_lon": 0.0}, {"is_reserved": 0, "type": "electric_scooter", "fusion_lat": 0.0, "is_disabled": 0, "rental_uris": {"ios": "https://dc.lft.to/lastmile_qr_scan", "android": "https://dc.lft.to/lastmile_qr_scan"}, "bike_id": "bbecfc6af21ca8998483f4a0d65e0994", "lat": 38.933932, "name": "bbecfc6af21ca8998483f4a0d65e0994", "lon": -77.07384416666666, "fusion_lon": 0.0}, {"is_reserved": 0, "type": "electric_scooter", "fusion_lat": 0.0, "is_disabled": 0, "rental_uris": {"ios": "https://dc.lft.to/lastmile_qr_scan", "android": "https://dc.lft.to/lastmile_qr_scan"}, "bike_id": "f328ddbb58f5629b0cd25713f3079b88", "lat": 38.906887, "name": "f328ddbb58f5629b0cd25713f3079b88", "lon": -77.04882783333333, "fusion_lon": 0.0}, {"is_reserved": 0, "type": "electric_scooter", "fusion_lat": 0.0, "is_disabled": 0, "rental_uris": {"ios": "https://dc.lft.to/lastmile_qr_scan", "android": "https://dc.lft.to/lastmile_qr_scan"}, "bike_id": "0bf5ae99f39835147c0509e301001e24", "lat": 38.921862, "name": "0bf5ae99f39835147c0509e301001e24", "lon": -77.0459635, "fusion_lon": 0.0}, {"is_reserved": 0, "type": "electric_scooter", "fusion_lat": 0.0, "is_disabled": 0, "rental_uris": {"ios": "https://dc.lft.to/lastmile_qr_scan", "android": "https://dc.lft.to/lastmile_qr_scan"}, "bike_id": "9c8cdee7fbed88be7cc40f12b4e72ecc", "lat": 38.901434, "name": "9c8cdee7fbed88be7cc40f12b4e72ecc", "lon": -76.93160633333333, "fusion_lon": 0.0}, {"is_reserved": 0, "type": "electric_scooter", "fusion_lat": 0.0, "is_disabled": 0, "rental_uris": {"ios": "https://dc.lft.to/lastmile_qr_scan", "android": "https://dc.lft.to/lastmile_qr_scan"}, "bike_id": "ee1f2d35d0d042fbad2d817715999514", "lat": 38.92175916666667, "name": "ee1f2d35d0d042fbad2d817715999514", "lon": -77.03838433333334, "fusion_lon": 0.0}, {"is_reserved": 0, "type": "electric_bike", "fusion_lat": 0.0, "is_disabled": 0, "rental_uris": {"ios": "https://dc.lft.to/lastmile_qr_scan", "android": "https://dc.lft.to/lastmile_qr_scan"}, "bike_id": "d83667250d56d88dbe94ec810b895c9d", "lat": 38.90692683333333, "name": "d83667250d56d88dbe94ec810b895c9d", "lon": -76.95254616666666, "fusion_lon": 0.0}, {"is_reserved": 0, "type": "electric_scooter", "fusion_lat": 0.0, "is_disabled": 0, "rental_uris": {"ios": "https://dc.lft.to/lastmile_qr_scan", "android": "https://dc.lft.to/lastmile_qr_scan"}, "bike_id": "ff554aff79cc92ba33171f718e9d174d", "lat": 38.90127283333333, "name": "ff554aff79cc92ba33171f718e9d174d", "lon": -77.0183145, "fusion_lon": 0.0}, {"is_reserved": 0, "type": "electric_scooter", "fusion_lat": 0.0, "is_disabled": 0, "rental_uris": {"ios": "https://dc.lft.to/lastmile_qr_scan", "android": "https://dc.lft.to/lastmile_qr_scan"}, "bike_id": "6e1a079c825b2b22ccd308fb47ff20a5", "lat": 38.9662315, "name": "6e1a079c825b2b22ccd308fb47ff20a5", "lon": -77.02004116666667, "fusion_lon": 0.0}, {"is_reserved": 0, "type": "electric_scooter", "fusion_lat": 0.0, "is_disabled": 0, "rental_uris": {"ios": "https://dc.lft.to/lastmile_qr_scan", "android": "https://dc.lft.to/lastmile_qr_scan"}, "bike_id": "ecf2e98ea493aaf1811162dc65b7708a", "lat": 38.917378, "name": "ecf2e98ea493aaf1811162dc65b7708a", "lon": -77.0361055, "fusion_lon": 0.0}, {"is_reserved": 0, "type": "electric_scooter", "fusion_lat": 0.0, "is_disabled": 0, "rental_uris": {"ios": "https://dc.lft.to/lastmile_qr_scan", "android": "https://dc.lft.to/lastmile_qr_scan"}, "bike_id": "0e1bbc976711879dd886badf4a1a744f", "lat": 38.892273, "name": "0e1bbc976711879dd886badf4a1a744f", "lon": -77.04644016666667, "fusion_lon": 0.0}, {"is_reserved": 0, "type": "electric_bike", "fusion_lat": 0.0, "is_disabled": 0, "rental_uris": {"ios": "https://dc.lft.to/lastmile_qr_scan", "android": "https://dc.lft.to/lastmile_qr_scan"}, "bike_id": "ad83d746daa61f6af7fa40366758997d", "lat": 38.86554266666667, "name": "ad83d746daa61f6af7fa40366758997d", "lon": -76.94146883333333, "fusion_lon": 0.0}, {"is_reserved": 0, "type": "electric_scooter", "fusion_lat": 0.0, "is_disabled": 0, "rental_uris": {"ios": "https://dc.lft.to/lastmile_qr_scan", "android": "https://dc.lft.to/lastmile_qr_scan"}, "bike_id": "1408967bf5c5c6eb90c3cc0e98568c35", "lat": 38.912527, "name": "1408967bf5c5c6eb90c3cc0e98568c35", "lon": -76.98674183333333, "fusion_lon": 0.0}, {"is_reserved": 0, "type": "electric_scooter", "fusion_lat": 0.0, "is_disabled": 0, "rental_uris": {"ios": "https://dc.lft.to/lastmile_qr_scan", "android": "https://dc.lft.to/lastmile_qr_scan"}, "bike_id": "4f2a4ac48b01452d3d50795b6bcfd102", "lat": 38.91075716666667, "name": "4f2a4ac48b01452d3d50795b6bcfd102", "lon": -77.01615516666666, "fusion_lon": 0.0}, {"is_reserved": 0, "type": "electric_scooter", "fusion_lat": 0.0, "is_disabled": 0, "rental_uris": {"ios": "https://dc.lft.to/lastmile_qr_scan", "android": "https://dc.lft.to/lastmile_qr_scan"}, "bike_id": "54117b68582d26bf06fa032f66985a8f", "lat": 38.897767, "name": "54117b68582d26bf06fa032f66985a8f", "lon": -77.047862, "fusion_lon": 0.0}, {"is_reserved": 0, "type": "electric_scooter", "fusion_lat": 0.0, "is_disabled": 0, "rental_uris": {"ios": "https://dc.lft.to/lastmile_qr_scan", "android": "https://dc.lft.to/lastmile_qr_scan"}, "bike_id": "b11d2c88aa793683ea0c0b197ef0f0c7", "lat": 38.8649885, "name": "b11d2c88aa793683ea0c0b197ef0f0c7", "lon": -76.97730833333334, "fusion_lon": 0.0}, {"is_reserved": 0, "type": "electric_scooter", "fusion_lat": 0.0, "is_disabled": 0, "rental_uris": {"ios": "https://dc.lft.to/lastmile_qr_scan", "android": "https://dc.lft.to/lastmile_qr_scan"}, "bike_id": "0db6b6fd04182bb73e676f44dd17f77c", "lat": 38.89953533333333, "name": "0db6b6fd04182bb73e676f44dd17f77c", "lon": -76.9263465, "fusion_lon": 0.0}, {"is_reserved": 0, "type": "electric_scooter", "fusion_lat": 0.0, "is_disabled": 0, "rental_uris": {"ios": "https://dc.lft.to/lastmile_qr_scan", "android": "https://dc.lft.to/lastmile_qr_scan"}, "bike_id": "3a663627e058adcd021a35282cfe94e5", "lat": 38.89304666666666, "name": "3a663627e058adcd021a35282cfe94e5", "lon": -77.0201355, "fusion_lon": 0.0}, {"is_reserved": 0, "type": "electric_scooter", "fusion_lat": 0.0, "is_disabled": 0, "rental_uris": {"ios": "https://dc.lft.to/lastmile_qr_scan", "android": "https://dc.lft.to/lastmile_qr_scan"}, "bike_id": "2065af87e9e7850a09de6ac615153330", "lat": 38.930004, "name": "2065af87e9e7850a09de6ac615153330", "lon": -77.03801833333333, "fusion_lon": 0.0}, {"is_reserved": 0, "type": "electric_bike", "fusion_lat": 0.0, "is_disabled": 0, "rental_uris": {"ios": "https://dc.lft.to/lastmile_qr_scan", "android": "https://dc.lft.to/lastmile_qr_scan"}, "bike_id": "3b8906f3cec0f5058639252ad2a2f641", "lat": 39.025210666666666, "name": "3b8906f3cec0f5058639252ad2a2f641", "lon": -77.01964916666667, "fusion_lon": 0.0}, {"is_reserved": 0, "type": "electric_bike", "fusion_lat": 0.0, "is_disabled": 0, "rental_uris": {"ios": "https://dc.lft.to/lastmile_qr_scan", "android": "https://dc.lft.to/lastmile_qr_scan"}, "bike_id": "1bf45a7c5c27c24784019812ed702fd0", "lat": 39.084735333333334, "name": "1bf45a7c5c27c24784019812ed702fd0", "lon": -76.95072416666666, "fusion_lon": 0.0}, {"is_reserved": 0, "type": "electric_scooter", "fusion_lat": 0.0, "is_disabled": 0, "rental_uris": {"ios": "https://dc.lft.to/lastmile_qr_scan", "android": "https://dc.lft.to/lastmile_qr_scan"}, "bike_id": "05df06d7ecba1fc7da33e07ed88be76c", "lat": 38.934867833333335, "name": "05df06d7ecba1fc7da33e07ed88be76c", "lon": -77.05796083333334, "fusion_lon": 0.0}, {"is_reserved": 0, "type": "electric_scooter", "fusion_lat": 0.0, "is_disabled": 0, "rental_uris": {"ios": "https://dc.lft.to/lastmile_qr_scan", "android": "https://dc.lft.to/lastmile_qr_scan"}, "bike_id": "e834d3f47e91fdf568b7c5ca42519a36", "lat": 38.87881933333333, "name": "e834d3f47e91fdf568b7c5ca42519a36", "lon": -77.00054416666667, "fusion_lon": 0.0}, {"is_reserved": 0, "type": "electric_scooter", "fusion_lat": 0.0, "is_disabled": 0, "rental_uris": {"ios": "https://dc.lft.to/lastmile_qr_scan", "android": "https://dc.lft.to/lastmile_qr_scan"}, "bike_id": "f380c9de6b5daa0f9e7c394a9166fd3a", "lat": 38.92068183333333, "name": "f380c9de6b5daa0f9e7c394a9166fd3a", "lon": -77.04230483333333, "fusion_lon": 0.0}, {"is_reserved": 0, "type": "electric_scooter", "fusion_lat": 0.0, "is_disabled": 0, "rental_uris": {"ios": "https://dc.lft.to/lastmile_qr_scan", "android": "https://dc.lft.to/lastmile_qr_scan"}, "bike_id": "aff7c155e7c284a46059659ae42c9667", "lat": 38.940948666666664, "name": "aff7c155e7c284a46059659ae42c9667", "lon": -77.027238, "fusion_lon": 0.0}, {"is_reserved": 0, "type": "electric_scooter", "fusion_lat": 0.0, "is_disabled": 0, "rental_uris": {"ios": "https://dc.lft.to/lastmile_qr_scan", "android": "https://dc.lft.to/lastmile_qr_scan"}, "bike_id": "560fd4df72fd66a40d33fdc0e4a38fba", "lat": 38.92472183333334, "name": "560fd4df72fd66a40d33fdc0e4a38fba", "lon": -77.0222165, "fusion_lon": 0.0}, {"is_reserved": 0, "type": "electric_scooter", "fusion_lat": 0.0, "is_disabled": 0, "rental_uris": {"ios": "https://dc.lft.to/lastmile_qr_scan", "android": "https://dc.lft.to/lastmile_qr_scan"}, "bike_id": "a3147ff2682410e2a29383adeddeb315", "lat": 38.90047583333333, "name": "a3147ff2682410e2a29383adeddeb315", "lon": -77.01689733333333, "fusion_lon": 0.0}, {"is_reserved": 0, "type": "electric_scooter", "fusion_lat": 0.0, "is_disabled": 0, "rental_uris": {"ios": "https://dc.lft.to/lastmile_qr_scan", "android": "https://dc.lft.to/lastmile_qr_scan"}, "bike_id": "c1f4f9faa058be8a327a72f848780d53", "lat": 38.87072533333333, "name": "c1f4f9faa058be8a327a72f848780d53", "lon": -76.979421, "fusion_lon": 0.0}, {"is_reserved": 0, "type": "electric_scooter", "fusion_lat": 0.0, "is_disabled": 0, "rental_uris": {"ios": "https://dc.lft.to/lastmile_qr_scan", "android": "https://dc.lft.to/lastmile_qr_scan"}, "bike_id": "27f8b9c3b17eeb37f15e0aaadd3a99ed", "lat": 38.91711466666667, "name": "27f8b9c3b17eeb37f15e0aaadd3a99ed", "lon": -77.0276455, "fusion_lon": 0.0}, {"is_reserved": 0, "type": "electric_bike", "fusion_lat": 0.0, "is_disabled": 0, "rental_uris": {"ios": "https://dc.lft.to/lastmile_qr_scan", "android": "https://dc.lft.to/lastmile_qr_scan"}, "bike_id": "230af06600fb123f0c2ac300e8a0d331", "lat": 38.830655666666665, "name": "230af06600fb123f0c2ac300e8a0d331", "lon": -77.040812, "fusion_lon": 0.0}, {"is_reserved": 0, "type": "electric_scooter", "fusion_lat": 0.0, "is_disabled": 0, "rental_uris": {"ios": "https://dc.lft.to/lastmile_qr_scan", "android": "https://dc.lft.to/lastmile_qr_scan"}, "bike_id": "4cb70d102493c6ab11780d6fea562abf", "lat": 38.9073725, "name": "4cb70d102493c6ab11780d6fea562abf", "lon": -77.0454775, "fusion_lon": 0.0}, {"is_reserved": 0, "type": "electric_scooter", "fusion_lat": 0.0, "is_disabled": 0, "rental_uris": {"ios": "https://dc.lft.to/lastmile_qr_scan", "android": "https://dc.lft.to/lastmile_qr_scan"}, "bike_id": "ff5e2036e887e4e889e5b75d52b45391", "lat": 38.905096, "name": "ff5e2036e887e4e889e5b75d52b45391", "lon": -77.05131516666667, "fusion_lon": 0.0}, {"is_reserved": 0, "type": "electric_scooter", "fusion_lat": 0.0, "is_disabled": 0, "rental_uris": {"ios": "https://dc.lft.to/lastmile_qr_scan", "android": "https://dc.lft.to/lastmile_qr_scan"}, "bike_id": "c58fff44b4215dd65dc13f26498ddfef", "lat": 38.898333, "name": "c58fff44b4215dd65dc13f26498ddfef", "lon": -76.94635383333333, "fusion_lon": 0.0}, {"is_reserved": 0, "type": "electric_scooter", "fusion_lat": 0.0, "is_disabled": 0, "rental_uris": {"ios": "https://dc.lft.to/lastmile_qr_scan", "android": "https://dc.lft.to/lastmile_qr_scan"}, "bike_id": "4244ff17dffec4424c95b68684035fd0", "lat": 38.90638333333333, "name": "4244ff17dffec4424c95b68684035fd0", "lon": -77.018435, "fusion_lon": 0.0}, {"is_reserved": 0, "type": "electric_scooter", "fusion_lat": 0.0, "is_disabled": 0, "rental_uris": {"ios": "https://dc.lft.to/lastmile_qr_scan", "android": "https://dc.lft.to/lastmile_qr_scan"}, "bike_id": "ae766a2f1c80fb871dd932236b39d46b", "lat": 38.90345266666667, "name": "ae766a2f1c80fb871dd932236b39d46b", "lon": -77.02606583333333, "fusion_lon": 0.0}, {"is_reserved": 0, "type": "electric_bike", "fusion_lat": 0.0, "is_disabled": 0, "rental_uris": {"ios": "https://dc.lft.to/lastmile_qr_scan", "android": "https://dc.lft.to/lastmile_qr_scan"}, "bike_id": "7619d86b588059997cb17405fa32d738", "lat": 39.00393916666667, "name": "7619d86b588059997cb17405fa32d738", "lon": -77.012851, "fusion_lon": 0.0}, {"is_reserved": 0, "type": "electric_scooter", "fusion_lat": 0.0, "is_disabled": 0, "rental_uris": {"ios": "https://dc.lft.to/lastmile_qr_scan", "android": "https://dc.lft.to/lastmile_qr_scan"}, "bike_id": "a1996940e3441b5fa531adbb17b4123a", "lat": 38.935662666666666, "name": "a1996940e3441b5fa531adbb17b4123a", "lon": -77.0285575, "fusion_lon": 0.0}, {"is_reserved": 0, "type": "electric_scooter", "fusion_lat": 0.0, "is_disabled": 0, "rental_uris": {"ios": "https://dc.lft.to/lastmile_qr_scan", "android": "https://dc.lft.to/lastmile_qr_scan"}, "bike_id": "b2b02ed2ff94caa4d5b0071605758ad0", "lat": 38.898659333333335, "name": "b2b02ed2ff94caa4d5b0071605758ad0", "lon": -76.946357, "fusion_lon": 0.0}, {"is_reserved": 0, "type": "electric_scooter", "fusion_lat": 0.0, "is_disabled": 0, "rental_uris": {"ios": "https://dc.lft.to/lastmile_qr_scan", "android": "https://dc.lft.to/lastmile_qr_scan"}, "bike_id": "ab410dab16b5654a12649ee4eeca835c", "lat": 38.89677483333333, "name": "ab410dab16b5654a12649ee4eeca835c", "lon": -77.0503285, "fusion_lon": 0.0}, {"is_reserved": 0, "type": "electric_scooter", "fusion_lat": 0.0, "is_disabled": 0, "rental_uris": {"ios": "https://dc.lft.to/lastmile_qr_scan", "android": "https://dc.lft.to/lastmile_qr_scan"}, "bike_id": "e8a335031c8ee0aa334c37effc7ec8d5", "lat": 38.8936345, "name": "e8a335031c8ee0aa334c37effc7ec8d5", "lon": -77.04479933333333, "fusion_lon": 0.0}, {"is_reserved": 0, "type": "electric_scooter", "fusion_lat": 0.0, "is_disabled": 0, "rental_uris": {"ios": "https://dc.lft.to/lastmile_qr_scan", "android": "https://dc.lft.to/lastmile_qr_scan"}, "bike_id": "e45d2296e5d1f86370a8cb255fcd16cc", "lat": 38.934517, "name": "e45d2296e5d1f86370a8cb255fcd16cc", "lon": -77.0280555, "fusion_lon": 0.0}, {"is_reserved": 0, "type": "electric_scooter", "fusion_lat": 0.0, "is_disabled": 0, "rental_uris": {"ios": "https://dc.lft.to/lastmile_qr_scan", "android": "https://dc.lft.to/lastmile_qr_scan"}, "bike_id": "364f0b4c8611a0f73cc026ce4062b302", "lat": 38.90544516666667, "name": "364f0b4c8611a0f73cc026ce4062b302", "lon": -76.97550866666667, "fusion_lon": 0.0}, {"is_reserved": 0, "type": "electric_scooter", "fusion_lat": 0.0, "is_disabled": 0, "rental_uris": {"ios": "https://dc.lft.to/lastmile_qr_scan", "android": "https://dc.lft.to/lastmile_qr_scan"}, "bike_id": "600728078bbe526e88e77a493f4de56b", "lat": 38.9337435, "name": "600728078bbe526e88e77a493f4de56b", "lon": -77.02400666666666, "fusion_lon": 0.0}, {"is_reserved": 0, "type": "electric_scooter", "fusion_lat": 0.0, "is_disabled": 0, "rental_uris": {"ios": "https://dc.lft.to/lastmile_qr_scan", "android": "https://dc.lft.to/lastmile_qr_scan"}, "bike_id": "9b9efc6e81e0cf44c71bea0bebeab959", "lat": 38.9119085, "name": "9b9efc6e81e0cf44c71bea0bebeab959", "lon": -77.06619283333333, "fusion_lon": 0.0}, {"is_reserved": 0, "type": "electric_scooter", "fusion_lat": 0.0, "is_disabled": 0, "rental_uris": {"ios": "https://dc.lft.to/lastmile_qr_scan", "android": "https://dc.lft.to/lastmile_qr_scan"}, "bike_id": "50478679ad886ed0a165a509d9faf6d5", "lat": 38.95615733333333, "name": "50478679ad886ed0a165a509d9faf6d5", "lon": -77.0331105, "fusion_lon": 0.0}, {"is_reserved": 0, "type": "electric_scooter", "fusion_lat": 0.0, "is_disabled": 0, "rental_uris": {"ios": "https://dc.lft.to/lastmile_qr_scan", "android": "https://dc.lft.to/lastmile_qr_scan"}, "bike_id": "610207ef63bf4028db9daaa9d2de501d", "lat": 38.939732166666666, "name": "610207ef63bf4028db9daaa9d2de501d", "lon": -77.03250016666667, "fusion_lon": 0.0}, {"is_reserved": 0, "type": "electric_scooter", "fusion_lat": 0.0, "is_disabled": 0, "rental_uris": {"ios": "https://dc.lft.to/lastmile_qr_scan", "android": "https://dc.lft.to/lastmile_qr_scan"}, "bike_id": "68b34223ff1c7b8da06d557450f99259", "lat": 38.91819783333333, "name": "68b34223ff1c7b8da06d557450f99259", "lon": -77.03256566666667, "fusion_lon": 0.0}, {"is_reserved": 0, "type": "electric_scooter", "fusion_lat": 0.0, "is_disabled": 0, "rental_uris": {"ios": "https://dc.lft.to/lastmile_qr_scan", "android": "https://dc.lft.to/lastmile_qr_scan"}, "bike_id": "0b378c6aa48bff9e46127377e41aa526", "lat": 38.87645933333334, "name": "0b378c6aa48bff9e46127377e41aa526", "lon": -77.00075166666667, "fusion_lon": 0.0}, {"is_reserved": 0, "type": "electric_scooter", "fusion_lat": 0.0, "is_disabled": 0, "rental_uris": {"ios": "https://dc.lft.to/lastmile_qr_scan", "android": "https://dc.lft.to/lastmile_qr_scan"}, "bike_id": "6416128d3fa0cce84761153fc86f8d89", "lat": 38.920936166666664, "name": "6416128d3fa0cce84761153fc86f8d89", "lon": -77.02514783333334, "fusion_lon": 0.0}, {"is_reserved": 0, "type": "electric_scooter", "fusion_lat": 0.0, "is_disabled": 0, "rental_uris": {"ios": "https://dc.lft.to/lastmile_qr_scan", "android": "https://dc.lft.to/lastmile_qr_scan"}, "bike_id": "c03670ada7b3c84ca5985922ed22baa6", "lat": 38.9332855, "name": "c03670ada7b3c84ca5985922ed22baa6", "lon": -77.0238215, "fusion_lon": 0.0}, {"is_reserved": 0, "type": "electric_bike", "fusion_lat": 0.0, "is_disabled": 0, "rental_uris": {"ios": "https://dc.lft.to/lastmile_qr_scan", "android": "https://dc.lft.to/lastmile_qr_scan"}, "bike_id": "b1c537b716579ae47b58c03ccdd491b3", "lat": 39.00454283333333, "name": "b1c537b716579ae47b58c03ccdd491b3", "lon": -76.90116516666667, "fusion_lon": 0.0}, {"is_reserved": 0, "type": "electric_scooter", "fusion_lat": 0.0, "is_disabled": 0, "rental_uris": {"ios": "https://dc.lft.to/lastmile_qr_scan", "android": "https://dc.lft.to/lastmile_qr_scan"}, "bike_id": "c51aaf676e0468a35757dd61a5e58ff9", "lat": 38.912608, "name": "c51aaf676e0468a35757dd61a5e58ff9", "lon": -77.04797133333334, "fusion_lon": 0.0}, {"is_reserved": 0, "type": "electric_scooter", "fusion_lat": 0.0, "is_disabled": 0, "rental_uris": {"ios": "https://dc.lft.to/lastmile_qr_scan", "android": "https://dc.lft.to/lastmile_qr_scan"}, "bike_id": "648c91064737991c052ef729597aebd4", "lat": 38.90818, "name": "648c91064737991c052ef729597aebd4", "lon": -77.0842755, "fusion_lon": 0.0}, {"is_reserved": 0, "type": "electric_scooter", "fusion_lat": 0.0, "is_disabled": 0, "rental_uris": {"ios": "https://dc.lft.to/lastmile_qr_scan", "android": "https://dc.lft.to/lastmile_qr_scan"}, "bike_id": "edf22d68919a60bda85ae2b9420b5c4d", "lat": 38.93511933333333, "name": "edf22d68919a60bda85ae2b9420b5c4d", "lon": -77.03679166666667, "fusion_lon": 0.0}, {"is_reserved": 0, "type": "electric_scooter", "fusion_lat": 0.0, "is_disabled": 0, "rental_uris": {"ios": "https://dc.lft.to/lastmile_qr_scan", "android": "https://dc.lft.to/lastmile_qr_scan"}, "bike_id": "39b70a842c4ed511c7b1f112d14179c8", "lat": 38.91564433333333, "name": "39b70a842c4ed511c7b1f112d14179c8", "lon": -77.03257983333333, "fusion_lon": 0.0}, {"is_reserved": 0, "type": "electric_scooter", "fusion_lat": 0.0, "is_disabled": 0, "rental_uris": {"ios": "https://dc.lft.to/lastmile_qr_scan", "android": "https://dc.lft.to/lastmile_qr_scan"}, "bike_id": "08bf8c9e526ac29e6f6f0a432061deef", "lat": 38.91556716666667, "name": "08bf8c9e526ac29e6f6f0a432061deef", "lon": -76.9850215, "fusion_lon": 0.0}, {"is_reserved": 0, "type": "electric_scooter", "fusion_lat": 0.0, "is_disabled": 0, "rental_uris": {"ios": "https://dc.lft.to/lastmile_qr_scan", "android": "https://dc.lft.to/lastmile_qr_scan"}, "bike_id": "1d5877411c144ecc4641cd71aceef7a7", "lat": 38.9191755, "name": "1d5877411c144ecc4641cd71aceef7a7", "lon": -77.0304785, "fusion_lon": 0.0}, {"is_reserved": 0, "type": "electric_scooter", "fusion_lat": 0.0, "is_disabled": 0, "rental_uris": {"ios": "https://dc.lft.to/lastmile_qr_scan", "android": "https://dc.lft.to/lastmile_qr_scan"}, "bike_id": "6b2e9d61cadec3ba2d13f63807d0c18b", "lat": 38.88579266666667, "name": "6b2e9d61cadec3ba2d13f63807d0c18b", "lon": -77.01217133333333, "fusion_lon": 0.0}, {"is_reserved": 0, "type": "electric_bike", "fusion_lat": 0.0, "is_disabled": 0, "rental_uris": {"ios": "https://dc.lft.to/lastmile_qr_scan", "android": "https://dc.lft.to/lastmile_qr_scan"}, "bike_id": "7d26f1e5c21fc491f087b7aa76db811a", "lat": 38.84620533333333, "name": "7d26f1e5c21fc491f087b7aa76db811a", "lon": -76.97838033333333, "fusion_lon": 0.0}, {"is_reserved": 0, "type": "electric_scooter", "fusion_lat": 0.0, "is_disabled": 0, "rental_uris": {"ios": "https://dc.lft.to/lastmile_qr_scan", "android": "https://dc.lft.to/lastmile_qr_scan"}, "bike_id": "84da4bda5a2dd4f837f490887d68cdd4", "lat": 38.887145, "name": "84da4bda5a2dd4f837f490887d68cdd4", "lon": -76.98343266666667, "fusion_lon": 0.0}, {"is_reserved": 0, "type": "electric_scooter", "fusion_lat": 0.0, "is_disabled": 0, "rental_uris": {"ios": "https://dc.lft.to/lastmile_qr_scan", "android": "https://dc.lft.to/lastmile_qr_scan"}, "bike_id": "2f077e565160c77c342f57ab83b51be3", "lat": 38.93229316666667, "name": "2f077e565160c77c342f57ab83b51be3", "lon": -77.02965216666666, "fusion_lon": 0.0}, {"is_reserved": 0, "type": "electric_scooter", "fusion_lat": 0.0, "is_disabled": 0, "rental_uris": {"ios": "https://dc.lft.to/lastmile_qr_scan", "android": "https://dc.lft.to/lastmile_qr_scan"}, "bike_id": "f751e64431b437245b1df670083cf94a", "lat": 38.92474033333333, "name": "f751e64431b437245b1df670083cf94a", "lon": -77.02221466666667, "fusion_lon": 0.0}, {"is_reserved": 0, "type": "electric_scooter", "fusion_lat": 0.0, "is_disabled": 0, "rental_uris": {"ios": "https://dc.lft.to/lastmile_qr_scan", "android": "https://dc.lft.to/lastmile_qr_scan"}, "bike_id": "f1a5142437d7dc45a39c2a3062339396", "lat": 38.9050455, "name": "f1a5142437d7dc45a39c2a3062339396", "lon": -76.9918065, "fusion_lon": 0.0}, {"is_reserved": 0, "type": "electric_scooter", "fusion_lat": 0.0, "is_disabled": 0, "rental_uris": {"ios": "https://dc.lft.to/lastmile_qr_scan", "android": "https://dc.lft.to/lastmile_qr_scan"}, "bike_id": "4d017b44ad43eaf1fb6e22bfaa11b445", "lat": 38.925991833333335, "name": "4d017b44ad43eaf1fb6e22bfaa11b445", "lon": -77.0250555, "fusion_lon": 0.0}, {"is_reserved": 0, "type": "electric_scooter", "fusion_lat": 0.0, "is_disabled": 0, "rental_uris": {"ios": "https://dc.lft.to/lastmile_qr_scan", "android": "https://dc.lft.to/lastmile_qr_scan"}, "bike_id": "85a9acfa2bf89999a8ba0ef39fa612bc", "lat": 38.904065833333334, "name": "85a9acfa2bf89999a8ba0ef39fa612bc", "lon": -77.03985283333333, "fusion_lon": 0.0}, {"is_reserved": 0, "type": "electric_scooter", "fusion_lat": 0.0, "is_disabled": 0, "rental_uris": {"ios": "https://dc.lft.to/lastmile_qr_scan", "android": "https://dc.lft.to/lastmile_qr_scan"}, "bike_id": "8a75e8d3647a030a472eab05c6e97712", "lat": 38.915377166666666, "name": "8a75e8d3647a030a472eab05c6e97712", "lon": -77.031918, "fusion_lon": 0.0}, {"is_reserved": 0, "type": "electric_scooter", "fusion_lat": 0.0, "is_disabled": 0, "rental_uris": {"ios": "https://dc.lft.to/lastmile_qr_scan", "android": "https://dc.lft.to/lastmile_qr_scan"}, "bike_id": "71145edfa22dcc7ba3954aaa4c78d78b", "lat": 38.92222783333333, "name": "71145edfa22dcc7ba3954aaa4c78d78b", "lon": -77.04306516666666, "fusion_lon": 0.0}, {"is_reserved": 0, "type": "electric_bike", "fusion_lat": 0.0, "is_disabled": 0, "rental_uris": {"ios": "https://dc.lft.to/lastmile_qr_scan", "android": "https://dc.lft.to/lastmile_qr_scan"}, "bike_id": "a484b024598b0b8b44559d8707bf191b", "lat": 38.92439916666667, "name": "a484b024598b0b8b44559d8707bf191b", "lon": -77.02498566666667, "fusion_lon": 0.0}, {"is_reserved": 0, "type": "electric_scooter", "fusion_lat": 0.0, "is_disabled": 0, "rental_uris": {"ios": "https://dc.lft.to/lastmile_qr_scan", "android": "https://dc.lft.to/lastmile_qr_scan"}, "bike_id": "507982fde90ca8f927c7d18cd550c713", "lat": 38.92972183333333, "name": "507982fde90ca8f927c7d18cd550c713", "lon": -77.02343266666666, "fusion_lon": 0.0}, {"is_reserved": 0, "type": "electric_scooter", "fusion_lat": 0.0, "is_disabled": 0, "rental_uris": {"ios": "https://dc.lft.to/lastmile_qr_scan", "android": "https://dc.lft.to/lastmile_qr_scan"}, "bike_id": "e5085ca13ec7cba5cf64e1c8b01ff1dc", "lat": 38.88041583333333, "name": "e5085ca13ec7cba5cf64e1c8b01ff1dc", "lon": -76.9272605, "fusion_lon": 0.0}, {"is_reserved": 0, "type": "electric_scooter", "fusion_lat": 0.0, "is_disabled": 0, "rental_uris": {"ios": "https://dc.lft.to/lastmile_qr_scan", "android": "https://dc.lft.to/lastmile_qr_scan"}, "bike_id": "fca11719d951072b3b9b0ce6894c0fc2", "lat": 38.9248325, "name": "fca11719d951072b3b9b0ce6894c0fc2", "lon": -77.0223105, "fusion_lon": 0.0}, {"is_reserved": 0, "type": "electric_scooter", "fusion_lat": 0.0, "is_disabled": 0, "rental_uris": {"ios": "https://dc.lft.to/lastmile_qr_scan", "android": "https://dc.lft.to/lastmile_qr_scan"}, "bike_id": "bd94c34243a7ecd9b66843ca45f1fc3c", "lat": 38.906878, "name": "bd94c34243a7ecd9b66843ca45f1fc3c", "lon": -77.027211, "fusion_lon": 0.0}, {"is_reserved": 0, "type": "electric_scooter", "fusion_lat": 0.0, "is_disabled": 0, "rental_uris": {"ios": "https://dc.lft.to/lastmile_qr_scan", "android": "https://dc.lft.to/lastmile_qr_scan"}, "bike_id": "855981e967022c59b4180dc1c6c2ad4e", "lat": 38.94174666666667, "name": "855981e967022c59b4180dc1c6c2ad4e", "lon": -77.02540533333334, "fusion_lon": 0.0}, {"is_reserved": 0, "type": "electric_scooter", "fusion_lat": 0.0, "is_disabled": 0, "rental_uris": {"ios": "https://dc.lft.to/lastmile_qr_scan", "android": "https://dc.lft.to/lastmile_qr_scan"}, "bike_id": "5a48763a3968416fff030c8d965d3141", "lat": 38.9097865, "name": "5a48763a3968416fff030c8d965d3141", "lon": -77.04844933333334, "fusion_lon": 0.0}, {"is_reserved": 0, "type": "electric_bike", "fusion_lat": 0.0, "is_disabled": 0, "rental_uris": {"ios": "https://dc.lft.to/lastmile_qr_scan", "android": "https://dc.lft.to/lastmile_qr_scan"}, "bike_id": "3dec0681b7f97d246a17bba382635754", "lat": 38.82931166666667, "name": "3dec0681b7f97d246a17bba382635754", "lon": -77.06882866666666, "fusion_lon": 0.0}, {"is_reserved": 0, "type": "electric_scooter", "fusion_lat": 0.0, "is_disabled": 0, "rental_uris": {"ios": "https://dc.lft.to/lastmile_qr_scan", "android": "https://dc.lft.to/lastmile_qr_scan"}, "bike_id": "5def220a2ca61e86c79b569dc18c7228", "lat": 38.9026505, "name": "5def220a2ca61e86c79b569dc18c7228", "lon": -77.0280255, "fusion_lon": 0.0}, {"is_reserved": 0, "type": "electric_scooter", "fusion_lat": 0.0, "is_disabled": 0, "rental_uris": {"ios": "https://dc.lft.to/lastmile_qr_scan", "android": "https://dc.lft.to/lastmile_qr_scan"}, "bike_id": "d9d813282386e8c187edc8942c39388b", "lat": 38.916054, "name": "d9d813282386e8c187edc8942c39388b", "lon": -77.04635333333333, "fusion_lon": 0.0}, {"is_reserved": 0, "type": "electric_scooter", "fusion_lat": 0.0, "is_disabled": 0, "rental_uris": {"ios": "https://dc.lft.to/lastmile_qr_scan", "android": "https://dc.lft.to/lastmile_qr_scan"}, "bike_id": "a3c8fbcee9f7be6fcc838aecc9b6f177", "lat": 38.9238695, "name": "a3c8fbcee9f7be6fcc838aecc9b6f177", "lon": -77.02610333333334, "fusion_lon": 0.0}, {"is_reserved": 0, "type": "electric_scooter", "fusion_lat": 0.0, "is_disabled": 0, "rental_uris": {"ios": "https://dc.lft.to/lastmile_qr_scan", "android": "https://dc.lft.to/lastmile_qr_scan"}, "bike_id": "ebee934a0db1433582499c952e1476b7", "lat": 38.899128166666664, "name": "ebee934a0db1433582499c952e1476b7", "lon": -76.93388783333333, "fusion_lon": 0.0}, {"is_reserved": 0, "type": "electric_scooter", "fusion_lat": 0.0, "is_disabled": 0, "rental_uris": {"ios": "https://dc.lft.to/lastmile_qr_scan", "android": "https://dc.lft.to/lastmile_qr_scan"}, "bike_id": "2821ff5123e949850923c27fb9e3695f", "lat": 38.911193833333336, "name": "2821ff5123e949850923c27fb9e3695f", "lon": -77.0387155, "fusion_lon": 0.0}, {"is_reserved": 0, "type": "electric_bike", "fusion_lat": 0.0, "is_disabled": 0, "rental_uris": {"ios": "https://dc.lft.to/lastmile_qr_scan", "android": "https://dc.lft.to/lastmile_qr_scan"}, "bike_id": "4e8fa21592708f930f659d079784c1c4", "lat": 38.852456, "name": "4e8fa21592708f930f659d079784c1c4", "lon": -77.1140995, "fusion_lon": 0.0}, {"is_reserved": 0, "type": "electric_scooter", "fusion_lat": 0.0, "is_disabled": 0, "rental_uris": {"ios": "https://dc.lft.to/lastmile_qr_scan", "android": "https://dc.lft.to/lastmile_qr_scan"}, "bike_id": "1a1c19b7af19cf4975826e8746520202", "lat": 38.924233666666666, "name": "1a1c19b7af19cf4975826e8746520202", "lon": -77.0448265, "fusion_lon": 0.0}, {"is_reserved": 0, "type": "electric_scooter", "fusion_lat": 0.0, "is_disabled": 0, "rental_uris": {"ios": "https://dc.lft.to/lastmile_qr_scan", "android": "https://dc.lft.to/lastmile_qr_scan"}, "bike_id": "560a009cafa687da6b06dd9d03203603", "lat": 38.883046, "name": "560a009cafa687da6b06dd9d03203603", "lon": -76.9348565, "fusion_lon": 0.0}, {"is_reserved": 0, "type": "electric_scooter", "fusion_lat": 0.0, "is_disabled": 0, "rental_uris": {"ios": "https://dc.lft.to/lastmile_qr_scan", "android": "https://dc.lft.to/lastmile_qr_scan"}, "bike_id": "7292f8a9e175efb39662a4c28eb0b104", "lat": 38.924117833333334, "name": "7292f8a9e175efb39662a4c28eb0b104", "lon": -77.020056, "fusion_lon": 0.0}, {"is_reserved": 0, "type": "electric_scooter", "fusion_lat": 0.0, "is_disabled": 0, "rental_uris": {"ios": "https://dc.lft.to/lastmile_qr_scan", "android": "https://dc.lft.to/lastmile_qr_scan"}, "bike_id": "0ee92e14b0c5c5c1c7334f1196b16d21", "lat": 38.91045283333333, "name": "0ee92e14b0c5c5c1c7334f1196b16d21", "lon": -76.99805833333333, "fusion_lon": 0.0}, {"is_reserved": 0, "type": "electric_scooter", "fusion_lat": 0.0, "is_disabled": 0, "rental_uris": {"ios": "https://dc.lft.to/lastmile_qr_scan", "android": "https://dc.lft.to/lastmile_qr_scan"}, "bike_id": "b91242a9f1db169a37a21d8b1733ef92", "lat": 38.911402, "name": "b91242a9f1db169a37a21d8b1733ef92", "lon": -77.02803233333333, "fusion_lon": 0.0}, {"is_reserved": 0, "type": "electric_bike", "fusion_lat": 0.0, "is_disabled": 0, "rental_uris": {"ios": "https://dc.lft.to/lastmile_qr_scan", "android": "https://dc.lft.to/lastmile_qr_scan"}, "bike_id": "82f7fa5d037edbf9f7418aea98856413", "lat": 39.00644333333333, "name": "82f7fa5d037edbf9f7418aea98856413", "lon": -76.90023533333333, "fusion_lon": 0.0}, {"is_reserved": 0, "type": "electric_scooter", "fusion_lat": 0.0, "is_disabled": 0, "rental_uris": {"ios": "https://dc.lft.to/lastmile_qr_scan", "android": "https://dc.lft.to/lastmile_qr_scan"}, "bike_id": "450e83361d8bb3f053a5a87fb2e22086", "lat": 38.952157, "name": "450e83361d8bb3f053a5a87fb2e22086", "lon": -77.0886965, "fusion_lon": 0.0}, {"is_reserved": 0, "type": "electric_scooter", "fusion_lat": 0.0, "is_disabled": 0, "rental_uris": {"ios": "https://dc.lft.to/lastmile_qr_scan", "android": "https://dc.lft.to/lastmile_qr_scan"}, "bike_id": "69c2211c7d0e8dc4d770eafa0f6dbb21", "lat": 38.905324, "name": "69c2211c7d0e8dc4d770eafa0f6dbb21", "lon": -77.01713266666667, "fusion_lon": 0.0}, {"is_reserved": 0, "type": "electric_scooter", "fusion_lat": 0.0, "is_disabled": 0, "rental_uris": {"ios": "https://dc.lft.to/lastmile_qr_scan", "android": "https://dc.lft.to/lastmile_qr_scan"}, "bike_id": "352334a9ead30777c3d9954c09b2c39e", "lat": 38.89738466666667, "name": "352334a9ead30777c3d9954c09b2c39e", "lon": -77.05125433333333, "fusion_lon": 0.0}, {"is_reserved": 0, "type": "electric_scooter", "fusion_lat": 0.0, "is_disabled": 0, "rental_uris": {"ios": "https://dc.lft.to/lastmile_qr_scan", "android": "https://dc.lft.to/lastmile_qr_scan"}, "bike_id": "55f70fb46917a37a1bc7a846ea0aa285", "lat": 38.903929833333336, "name": "55f70fb46917a37a1bc7a846ea0aa285", "lon": -77.03945816666666, "fusion_lon": 0.0}, {"is_reserved": 0, "type": "electric_scooter", "fusion_lat": 0.0, "is_disabled": 0, "rental_uris": {"ios": "https://dc.lft.to/lastmile_qr_scan", "android": "https://dc.lft.to/lastmile_qr_scan"},