{"data": {"bikes": [{"lon": -77.03200466666667, "is_disabled": 0, "lat": 38.892418166666666, "fusion_lat": 0.0, "is_reserved": 0, "rental_uris": {"ios": "https://dc.lft.to/lastmile_qr_scan", "android": "https://dc.lft.to/lastmile_qr_scan"}, "fusion_lon": 0.0, "type": "electric_scooter", "bike_id": "0dfbaf4c1db43aa193db0d9ddcfe62ff", "name": "0dfbaf4c1db43aa193db0d9ddcfe62ff"}, {"lon": -77.12654233333333, "is_disabled": 0, "lat": 38.815119833333334, "fusion_lat": 0.0, "is_reserved": 0, "rental_uris": {"ios": "https://dc.lft.to/lastmile_qr_scan", "android": "https://dc.lft.to/lastmile_qr_scan"}, "fusion_lon": 0.0, "type": "electric_bike", "bike_id": "de6f9e84b0eac795f25f1d099c078aa8", "name": "de6f9e84b0eac795f25f1d099c078aa8"}, {"lon": -77.02493633333333, "is_disabled": 0, "lat": 38.918085833333336, "fusion_lat": 0.0, "is_reserved": 0, "rental_uris": {"ios": "https://dc.lft.to/lastmile_qr_scan", "android": "https://dc.lft.to/lastmile_qr_scan"}, "fusion_lon": 0.0, "type": "electric_scooter", "bike_id": "61a3a405c3007b4cf889fdc23d6fe674", "name": "61a3a405c3007b4cf889fdc23d6fe674"}, {"lon": -76.946405, "is_disabled": 0, "lat": 38.898655833333336, "fusion_lat": 0.0, "is_reserved": 0, "rental_uris": {"ios": "https://dc.lft.to/lastmile_qr_scan", "android": "https://dc.lft.to/lastmile_qr_scan"}, "fusion_lon": 0.0, "type": "electric_scooter", "bike_id": "dd909e5292ca619ec0967fd0335a6da7", "name": "dd909e5292ca619ec0967fd0335a6da7"}, {"lon": -77.03224583333333, "is_disabled": 0, "lat": 38.91706716666667, "fusion_lat": 0.0, "is_reserved": 0, "rental_uris": {"ios": "https://dc.lft.to/lastmile_qr_scan", "android": "https://dc.lft.to/lastmile_qr_scan"}, "fusion_lon": 0.0, "type": "electric_scooter", "bike_id": "ea81fcf2665ecbc9f4fd4e139db92b77", "name": "ea81fcf2665ecbc9f4fd4e139db92b77"}, {"lon": -76.98181083333333, "is_disabled": 0, "lat": 38.895751, "fusion_lat": 0.0, "is_reserved": 0, "rental_uris": {"ios": "https://dc.lft.to/lastmile_qr_scan", "android": "https://dc.lft.to/lastmile_qr_scan"}, "fusion_lon": 0.0, "type": "electric_scooter", "bike_id": "1255fb3e3bead76994405e735776e9eb", "name": "1255fb3e3bead76994405e735776e9eb"}, {"lon": -76.99246216666667, "is_disabled": 0, "lat": 38.7947255, "fusion_lat": 0.0, "is_reserved": 0, "rental_uris": {"ios": "https://dc.lft.to/lastmile_qr_scan", "android": "https://dc.lft.to/lastmile_qr_scan"}, "fusion_lon": 0.0, "type": "electric_bike", "bike_id": "8fd75aaf5e8ea1f99a8c31a138975f1e", "name": "8fd75aaf5e8ea1f99a8c31a138975f1e"}, {"lon": -77.021954, "is_disabled": 0, "lat": 38.90830666666667, "fusion_lat": 0.0, "is_reserved": 0, "rental_uris": {"ios": "https://dc.lft.to/lastmile_qr_scan", "android": "https://dc.lft.to/lastmile_qr_scan"}, "fusion_lon": 0.0, "type": "electric_scooter", "bike_id": "97f9c301bb6ca65c40d0e950b9109df5", "name": "97f9c301bb6ca65c40d0e950b9109df5"}, {"lon": -77.0016125, "is_disabled": 0, "lat": 38.87368816666667, "fusion_lat": 0.0, "is_reserved": 0, "rental_uris": {"ios": "https://dc.lft.to/lastmile_qr_scan", "android": "https://dc.lft.to/lastmile_qr_scan"}, "fusion_lon": 0.0, "type": "electric_scooter", "bike_id": "38486bef7bed1c9c6b2be160d30f2992", "name": "38486bef7bed1c9c6b2be160d30f2992"}, {"lon": -77.0321375, "is_disabled": 0, "lat": 38.90855883333333, "fusion_lat": 0.0, "is_reserved": 0, "rental_uris": {"ios": "https://dc.lft.to/lastmile_qr_scan", "android": "https://dc.lft.to/lastmile_qr_scan"}, "fusion_lon": 0.0, "type": "electric_scooter", "bike_id": "26496e223abbbe2fb97face150233b44", "name": "26496e223abbbe2fb97face150233b44"}, {"lon": -77.03661883333334, "is_disabled": 0, "lat": 38.921615833333334, "fusion_lat": 0.0, "is_reserved": 0, "rental_uris": {"ios": "https://dc.lft.to/lastmile_qr_scan", "android": "https://dc.lft.to/lastmile_qr_scan"}, "fusion_lon": 0.0, "type": "electric_scooter", "bike_id": "cd163702c9524614acfa46376ca204a9", "name": "cd163702c9524614acfa46376ca204a9"}, {"lon": -77.025876, "is_disabled": 0, "lat": 38.914116666666665, "fusion_lat": 0.0, "is_reserved": 0, "rental_uris": {"ios": "https://dc.lft.to/lastmile_qr_scan", "android": "https://dc.lft.to/lastmile_qr_scan"}, "fusion_lon": 0.0, "type": "electric_scooter", "bike_id": "0ef7476927b378c4125dcde4cf812a1a", "name": "0ef7476927b378c4125dcde4cf812a1a"}, {"lon": -77.03375616666666, "is_disabled": 0, "lat": 38.928638666666664, "fusion_lat": 0.0, "is_reserved": 0, "rental_uris": {"ios": "https://dc.lft.to/lastmile_qr_scan", "android": "https://dc.lft.to/lastmile_qr_scan"}, "fusion_lon": 0.0, "type": "electric_scooter", "bike_id": "446959cd2753a6727425b91e58a03316", "name": "446959cd2753a6727425b91e58a03316"}, {"lon": -77.0422775, "is_disabled": 0, "lat": 38.91328516666667, "fusion_lat": 0.0, "is_reserved": 0, "rental_uris": {"ios": "https://dc.lft.to/lastmile_qr_scan", "android": "https://dc.lft.to/lastmile_qr_scan"}, "fusion_lon": 0.0, "type": "electric_scooter", "bike_id": "96fb2b46e87df42d13aa21e4d977aa53", "name": "96fb2b46e87df42d13aa21e4d977aa53"}, {"lon": -77.0465355, "is_disabled": 0, "lat": 38.892218666666665, "fusion_lat": 0.0, "is_reserved": 0, "rental_uris": {"ios": "https://dc.lft.to/lastmile_qr_scan", "android": "https://dc.lft.to/lastmile_qr_scan"}, "fusion_lon": 0.0, "type": "electric_scooter", "bike_id": "99e28e66335609d514cbe7b86000b4a8", "name": "99e28e66335609d514cbe7b86000b4a8"}, {"lon": -77.03270333333333, "is_disabled": 0, "lat": 38.928581666666666, "fusion_lat": 0.0, "is_reserved": 0, "rental_uris": {"ios": "https://dc.lft.to/lastmile_qr_scan", "android": "https://dc.lft.to/lastmile_qr_scan"}, "fusion_lon": 0.0, "type": "electric_scooter", "bike_id": "95d9b8dacf185b89d91b06772f3c3a4f", "name": "95d9b8dacf185b89d91b06772f3c3a4f"}, {"lon": -77.02692516666667, "is_disabled": 0, "lat": 38.90870866666667, "fusion_lat": 0.0, "is_reserved": 0, "rental_uris": {"ios": "https://dc.lft.to/lastmile_qr_scan", "android": "https://dc.lft.to/lastmile_qr_scan"}, "fusion_lon": 0.0, "type": "electric_scooter", "bike_id": "17105c26a731ed0947fa59b99179ae04", "name": "17105c26a731ed0947fa59b99179ae04"}, {"lon": -76.90736916666667, "is_disabled": 0, "lat": 38.8961015, "fusion_lat": 0.0, "is_reserved": 0, "rental_uris": {"ios": "https://dc.lft.to/lastmile_qr_scan", "android": "https://dc.lft.to/lastmile_qr_scan"}, "fusion_lon": 0.0, "type": "electric_bike", "bike_id": "c2203757fdaaebe83d1ab9dca412ee6b", "name": "c2203757fdaaebe83d1ab9dca412ee6b"}, {"lon": -77.03123316666667, "is_disabled": 0, "lat": 38.915648166666664, "fusion_lat": 0.0, "is_reserved": 0, "rental_uris": {"ios": "https://dc.lft.to/lastmile_qr_scan", "android": "https://dc.lft.to/lastmile_qr_scan"}, "fusion_lon": 0.0, "type": "electric_scooter", "bike_id": "4c9232e80f9ea49dc4bb39b8ef32cccf", "name": "4c9232e80f9ea49dc4bb39b8ef32cccf"}, {"lon": -77.043542, "is_disabled": 0, "lat": 38.90120733333333, "fusion_lat": 0.0, "is_reserved": 0, "rental_uris": {"ios": "https://dc.lft.to/lastmile_qr_scan", "android": "https://dc.lft.to/lastmile_qr_scan"}, "fusion_lon": 0.0, "type": "electric_scooter", "bike_id": "3b7a0aaefd03f20680a139d9c34ade7d", "name": "3b7a0aaefd03f20680a139d9c34ade7d"}, {"lon": -77.037032, "is_disabled": 0, "lat": 38.935055, "fusion_lat": 0.0, "is_reserved": 0, "rental_uris": {"ios": "https://dc.lft.to/lastmile_qr_scan", "android": "https://dc.lft.to/lastmile_qr_scan"}, "fusion_lon": 0.0, "type": "electric_scooter", "bike_id": "b5965a29fdf3660a8440b37f51203932", "name": "b5965a29fdf3660a8440b37f51203932"}, {"lon": -77.04724066666667, "is_disabled": 0, "lat": 38.89731466666667, "fusion_lat": 0.0, "is_reserved": 0, "rental_uris": {"ios": "https://dc.lft.to/lastmile_qr_scan", "android": "https://dc.lft.to/lastmile_qr_scan"}, "fusion_lon": 0.0, "type": "electric_scooter", "bike_id": "cb9cc47d308c7123867d3b617f25e36b", "name": "cb9cc47d308c7123867d3b617f25e36b"}, {"lon": -77.04661383333334, "is_disabled": 0, "lat": 38.905705, "fusion_lat": 0.0, "is_reserved": 0, "rental_uris": {"ios": "https://dc.lft.to/lastmile_qr_scan", "android": "https://dc.lft.to/lastmile_qr_scan"}, "fusion_lon": 0.0, "type": "electric_scooter", "bike_id": "ca91837d0ff53364b41f87a36831d901", "name": "ca91837d0ff53364b41f87a36831d901"}, {"lon": -77.03474433333334, "is_disabled": 0, "lat": 38.90766833333333, "fusion_lat": 0.0, "is_reserved": 0, "rental_uris": {"ios": "https://dc.lft.to/lastmile_qr_scan", "android": "https://dc.lft.to/lastmile_qr_scan"}, "fusion_lon": 0.0, "type": "electric_scooter", "bike_id": "4f2ef75a35871aaa87e1b903ea5412b7", "name": "4f2ef75a35871aaa87e1b903ea5412b7"}, {"lon": -76.973687, "is_disabled": 0, "lat": 38.96316133333333, "fusion_lat": 0.0, "is_reserved": 0, "rental_uris": {"ios": "https://dc.lft.to/lastmile_qr_scan", "android": "https://dc.lft.to/lastmile_qr_scan"}, "fusion_lon": 0.0, "type": "electric_bike", "bike_id": "c97fb6d89750210ec58ad2915600fd1f", "name": "c97fb6d89750210ec58ad2915600fd1f"}, {"lon": -77.00141916666666, "is_disabled": 0, "lat": 38.87309116666667, "fusion_lat": 0.0, "is_reserved": 0, "rental_uris": {"ios": "https://dc.lft.to/lastmile_qr_scan", "android": "https://dc.lft.to/lastmile_qr_scan"}, "fusion_lon": 0.0, "type": "electric_scooter", "bike_id": "7f7b6802bdde7a7a5b25189b3879f604", "name": "7f7b6802bdde7a7a5b25189b3879f604"}, {"lon": -77.02586216666667, "is_disabled": 0, "lat": 38.942063166666664, "fusion_lat": 0.0, "is_reserved": 0, "rental_uris": {"ios": "https://dc.lft.to/lastmile_qr_scan", "android": "https://dc.lft.to/lastmile_qr_scan"}, "fusion_lon": 0.0, "type": "electric_scooter", "bike_id": "f58223e5e12fd02c51f0b39f6d329c46", "name": "f58223e5e12fd02c51f0b39f6d329c46"}, {"lon": -77.01693, "is_disabled": 0, "lat": 38.975009166666666, "fusion_lat": 0.0, "is_reserved": 0, "rental_uris": {"ios": "https://dc.lft.to/lastmile_qr_scan", "android": "https://dc.lft.to/lastmile_qr_scan"}, "fusion_lon": 0.0, "type": "electric_scooter", "bike_id": "ade823d3bfceb60c8e62bfb0d95abadf", "name": "ade823d3bfceb60c8e62bfb0d95abadf"}, {"lon": -77.07028083333333, "is_disabled": 0, "lat": 38.9053045, "fusion_lat": 0.0, "is_reserved": 0, "rental_uris": {"ios": "https://dc.lft.to/lastmile_qr_scan", "android": "https://dc.lft.to/lastmile_qr_scan"}, "fusion_lon": 0.0, "type": "electric_scooter", "bike_id": "d41dcbbfa74ce130f3dc9ccbcbaf09e2", "name": "d41dcbbfa74ce130f3dc9ccbcbaf09e2"}, {"lon": -77.01069916666667, "is_disabled": 0, "lat": 38.909550333333335, "fusion_lat": 0.0, "is_reserved": 0, "rental_uris": {"ios": "https://dc.lft.to/lastmile_qr_scan", "android": "https://dc.lft.to/lastmile_qr_scan"}, "fusion_lon": 0.0, "type": "electric_scooter", "bike_id": "a4cbabc79df2271ea3b487b43b2ea435", "name": "a4cbabc79df2271ea3b487b43b2ea435"}, {"lon": -77.036457, "is_disabled": 0, "lat": 38.916785, "fusion_lat": 0.0, "is_reserved": 0, "rental_uris": {"ios": "https://dc.lft.to/lastmile_qr_scan", "android": "https://dc.lft.to/lastmile_qr_scan"}, "fusion_lon": 0.0, "type": "electric_scooter", "bike_id": "8ab4a3bbd0ca806b97e28cfc69d33580", "name": "8ab4a3bbd0ca806b97e28cfc69d33580"}, {"lon": -76.972559, "is_disabled": 0, "lat": 38.9574505, "fusion_lat": 0.0, "is_reserved": 0, "rental_uris": {"ios": "https://dc.lft.to/lastmile_qr_scan", "android": "https://dc.lft.to/lastmile_qr_scan"}, "fusion_lon": 0.0, "type": "electric_bike", "bike_id": "23f08d67cfcf6c3c3c23e099b10a16b1", "name": "23f08d67cfcf6c3c3c23e099b10a16b1"}, {"lon": -77.01983633333333, "is_disabled": 0, "lat": 38.88720333333333, "fusion_lat": 0.0, "is_reserved": 0, "rental_uris": {"ios": "https://dc.lft.to/lastmile_qr_scan", "android": "https://dc.lft.to/lastmile_qr_scan"}, "fusion_lon": 0.0, "type": "electric_scooter", "bike_id": "aa257242146460d4cdff06e0b8c6aac3", "name": "aa257242146460d4cdff06e0b8c6aac3"}, {"lon": -77.03164233333334, "is_disabled": 0, "lat": 38.920873666666665, "fusion_lat": 0.0, "is_reserved": 0, "rental_uris": {"ios": "https://dc.lft.to/lastmile_qr_scan", "android": "https://dc.lft.to/lastmile_qr_scan"}, "fusion_lon": 0.0, "type": "electric_scooter", "bike_id": "39b85da969d4aeb49c66d2b31071ee95", "name": "39b85da969d4aeb49c66d2b31071ee95"}, {"lon": -77.01116266666666, "is_disabled": 0, "lat": 38.96297783333333, "fusion_lat": 0.0, "is_reserved": 0, "rental_uris": {"ios": "https://dc.lft.to/lastmile_qr_scan", "android": "https://dc.lft.to/lastmile_qr_scan"}, "fusion_lon": 0.0, "type": "electric_bike", "bike_id": "7ced703b70c9af54eaf3604a439ce8b8", "name": "7ced703b70c9af54eaf3604a439ce8b8"}, {"lon": -77.03459983333333, "is_disabled": 0, "lat": 38.916999833333335, "fusion_lat": 0.0, "is_reserved": 0, "rental_uris": {"ios": "https://dc.lft.to/lastmile_qr_scan", "android": "https://dc.lft.to/lastmile_qr_scan"}, "fusion_lon": 0.0, "type": "electric_scooter", "bike_id": "9544abe6e8b68646430468aa82c2cca2", "name": "9544abe6e8b68646430468aa82c2cca2"}, {"lon": -77.04498783333334, "is_disabled": 0, "lat": 38.903607666666666, "fusion_lat": 0.0, "is_reserved": 0, "rental_uris": {"ios": "https://dc.lft.to/lastmile_qr_scan", "android": "https://dc.lft.to/lastmile_qr_scan"}, "fusion_lon": 0.0, "type": "electric_scooter", "bike_id": "00050545533205ed5372774b1a9eabd4", "name": "00050545533205ed5372774b1a9eabd4"}, {"lon": -77.09437866666667, "is_disabled": 0, "lat": 38.94489216666667, "fusion_lat": 0.0, "is_reserved": 0, "rental_uris": {"ios": "https://dc.lft.to/lastmile_qr_scan", "android": "https://dc.lft.to/lastmile_qr_scan"}, "fusion_lon": 0.0, "type": "electric_scooter", "bike_id": "cb213106f3064708adc74cff4a96f345", "name": "cb213106f3064708adc74cff4a96f345"}, {"lon": -77.023101, "is_disabled": 0, "lat": 38.955225, "fusion_lat": 0.0, "is_reserved": 0, "rental_uris": {"ios": "https://dc.lft.to/lastmile_qr_scan", "android": "https://dc.lft.to/lastmile_qr_scan"}, "fusion_lon": 0.0, "type": "electric_scooter", "bike_id": "f46ed29e602d622c61197fc3bb9bc278", "name": "f46ed29e602d622c61197fc3bb9bc278"}, {"lon": -76.93158066666666, "is_disabled": 0, "lat": 38.8992895, "fusion_lat": 0.0, "is_reserved": 0, "rental_uris": {"ios": "https://dc.lft.to/lastmile_qr_scan", "android": "https://dc.lft.to/lastmile_qr_scan"}, "fusion_lon": 0.0, "type": "electric_scooter", "bike_id": "24f5329b6bf0aa14f1b7fbf4ab6fb730", "name": "24f5329b6bf0aa14f1b7fbf4ab6fb730"}, {"lon": -77.0364895, "is_disabled": 0, "lat": 38.90812566666666, "fusion_lat": 0.0, "is_reserved": 0, "rental_uris": {"ios": "https://dc.lft.to/lastmile_qr_scan", "android": "https://dc.lft.to/lastmile_qr_scan"}, "fusion_lon": 0.0, "type": "electric_scooter", "bike_id": "d86613d7255a5fb20fb0da0d722368f5", "name": "d86613d7255a5fb20fb0da0d722368f5"}, {"lon": -77.02121866666667, "is_disabled": 0, "lat": 38.936010333333336, "fusion_lat": 0.0, "is_reserved": 0, "rental_uris": {"ios": "https://dc.lft.to/lastmile_qr_scan", "android": "https://dc.lft.to/lastmile_qr_scan"}, "fusion_lon": 0.0, "type": "electric_bike", "bike_id": "4cf8ce27c615f01f01aa4f4cb25fd2f2", "name": "4cf8ce27c615f01f01aa4f4cb25fd2f2"}, {"lon": -77.01828683333333, "is_disabled": 0, "lat": 38.906402166666666, "fusion_lat": 0.0, "is_reserved": 0, "rental_uris": {"ios": "https://dc.lft.to/lastmile_qr_scan", "android": "https://dc.lft.to/lastmile_qr_scan"}, "fusion_lon": 0.0, "type": "electric_scooter", "bike_id": "f4359e9b2a7471767f6eae360d31dc06", "name": "f4359e9b2a7471767f6eae360d31dc06"}, {"lon": -77.0176285, "is_disabled": 0, "lat": 38.8721575, "fusion_lat": 0.0, "is_reserved": 0, "rental_uris": {"ios": "https://dc.lft.to/lastmile_qr_scan", "android": "https://dc.lft.to/lastmile_qr_scan"}, "fusion_lon": 0.0, "type": "electric_scooter", "bike_id": "b90e658e3c8c2a2a7af50b69472f0393", "name": "b90e658e3c8c2a2a7af50b69472f0393"}, {"lon": -77.00547116666667, "is_disabled": 0, "lat": 38.8764125, "fusion_lat": 0.0, "is_reserved": 0, "rental_uris": {"ios": "https://dc.lft.to/lastmile_qr_scan", "android": "https://dc.lft.to/lastmile_qr_scan"}, "fusion_lon": 0.0, "type": "electric_scooter", "bike_id": "8bc3a9d7c15da2a47ef0efe73d453fa8", "name": "8bc3a9d7c15da2a47ef0efe73d453fa8"}, {"lon": -77.03347416666666, "is_disabled": 0, "lat": 38.93898933333333, "fusion_lat": 0.0, "is_reserved": 0, "rental_uris": {"ios": "https://dc.lft.to/lastmile_qr_scan", "android": "https://dc.lft.to/lastmile_qr_scan"}, "fusion_lon": 0.0, "type": "electric_scooter", "bike_id": "e0ee4b501e1fc495facf60f43bfb6caa", "name": "e0ee4b501e1fc495facf60f43bfb6caa"}, {"lon": -77.02953733333334, "is_disabled": 0, "lat": 38.90494183333333, "fusion_lat": 0.0, "is_reserved": 0, "rental_uris": {"ios": "https://dc.lft.to/lastmile_qr_scan", "android": "https://dc.lft.to/lastmile_qr_scan"}, "fusion_lon": 0.0, "type": "electric_scooter", "bike_id": "f02f46400a91037a5a41a42f16007915", "name": "f02f46400a91037a5a41a42f16007915"}, {"lon": -77.02001433333334, "is_disabled": 0, "lat": 38.9118415, "fusion_lat": 0.0, "is_reserved": 0, "rental_uris": {"ios": "https://dc.lft.to/lastmile_qr_scan", "android": "https://dc.lft.to/lastmile_qr_scan"}, "fusion_lon": 0.0, "type": "electric_scooter", "bike_id": "d0aef25996238fc09a929847ec81af51", "name": "d0aef25996238fc09a929847ec81af51"}, {"lon": -76.98945766666667, "is_disabled": 0, "lat": 38.903899333333335, "fusion_lat": 0.0, "is_reserved": 0, "rental_uris": {"ios": "https://dc.lft.to/lastmile_qr_scan", "android": "https://dc.lft.to/lastmile_qr_scan"}, "fusion_lon": 0.0, "type": "electric_scooter", "bike_id": "92c5e8508016654a3cbc931410184f36", "name": "92c5e8508016654a3cbc931410184f36"}, {"lon": -77.04988166666666, "is_disabled": 0, "lat": 38.901155833333334, "fusion_lat": 0.0, "is_reserved": 0, "rental_uris": {"ios": "https://dc.lft.to/lastmile_qr_scan", "android": "https://dc.lft.to/lastmile_qr_scan"}, "fusion_lon": 0.0, "type": "electric_scooter", "bike_id": "87e4b38d8158e9c765a3f5d9b549f06a", "name": "87e4b38d8158e9c765a3f5d9b549f06a"}, {"lon": -77.02184266666667, "is_disabled": 0, "lat": 38.90951716666667, "fusion_lat": 0.0, "is_reserved": 0, "rental_uris": {"ios": "https://dc.lft.to/lastmile_qr_scan", "android": "https://dc.lft.to/lastmile_qr_scan"}, "fusion_lon": 0.0, "type": "electric_scooter", "bike_id": "ad6209c64437d928f66492667cb44b4f", "name": "ad6209c64437d928f66492667cb44b4f"}, {"lon": -77.00487216666667, "is_disabled": 0, "lat": 38.87463616666667, "fusion_lat": 0.0, "is_reserved": 0, "rental_uris": {"ios": "https://dc.lft.to/lastmile_qr_scan", "android": "https://dc.lft.to/lastmile_qr_scan"}, "fusion_lon": 0.0, "type": "electric_scooter", "bike_id": "a41c3273e66313fab35c090025a2f873", "name": "a41c3273e66313fab35c090025a2f873"}, {"lon": -77.032204, "is_disabled": 0, "lat": 38.896186, "fusion_lat": 0.0, "is_reserved": 0, "rental_uris": {"ios": "https://dc.lft.to/lastmile_qr_scan", "android": "https://dc.lft.to/lastmile_qr_scan"}, "fusion_lon": 0.0, "type": "electric_scooter", "bike_id": "dd0fce9dc20055df3d62f767c93ae480", "name": "dd0fce9dc20055df3d62f767c93ae480"}, {"lon": -77.05832083333334, "is_disabled": 0, "lat": 38.9305025, "fusion_lat": 0.0, "is_reserved": 0, "rental_uris": {"ios": "https://dc.lft.to/lastmile_qr_scan", "android": "https://dc.lft.to/lastmile_qr_scan"}, "fusion_lon": 0.0, "type": "electric_scooter", "bike_id": "18c27e9d1ee846da551d95153a941e40", "name": "18c27e9d1ee846da551d95153a941e40"}, {"lon": -77.02858333333333, "is_disabled": 0, "lat": 38.88740466666667, "fusion_lat": 0.0, "is_reserved": 0, "rental_uris": {"ios": "https://dc.lft.to/lastmile_qr_scan", "android": "https://dc.lft.to/lastmile_qr_scan"}, "fusion_lon": 0.0, "type": "electric_scooter", "bike_id": "6eb492658ce89baf9453536547ad0ead", "name": "6eb492658ce89baf9453536547ad0ead"}, {"lon": -77.04878116666667, "is_disabled": 0, "lat": 38.89293766666667, "fusion_lat": 0.0, "is_reserved": 0, "rental_uris": {"ios": "https://dc.lft.to/lastmile_qr_scan", "android": "https://dc.lft.to/lastmile_qr_scan"}, "fusion_lon": 0.0, "type": "electric_scooter", "bike_id": "a0518b423f65654da6a09ab91eb3cef6", "name": "a0518b423f65654da6a09ab91eb3cef6"}, {"lon": -77.05325083333334, "is_disabled": 0, "lat": 38.904344333333334, "fusion_lat": 0.0, "is_reserved": 0, "rental_uris": {"ios": "https://dc.lft.to/lastmile_qr_scan", "android": "https://dc.lft.to/lastmile_qr_scan"}, "fusion_lon": 0.0, "type": "electric_scooter", "bike_id": "e17e2806cc9d518386c8a963c7a6864e", "name": "e17e2806cc9d518386c8a963c7a6864e"}, {"lon": -77.0098625, "is_disabled": 0, "lat": 38.872872, "fusion_lat": 0.0, "is_reserved": 0, "rental_uris": {"ios": "https://dc.lft.to/lastmile_qr_scan", "android": "https://dc.lft.to/lastmile_qr_scan"}, "fusion_lon": 0.0, "type": "electric_scooter", "bike_id": "cb875d8fbf9298ce532c2bdddeaf8f0c", "name": "cb875d8fbf9298ce532c2bdddeaf8f0c"}, {"lon": -77.01770133333333, "is_disabled": 0, "lat": 38.91449083333333, "fusion_lat": 0.0, "is_reserved": 0, "rental_uris": {"ios": "https://dc.lft.to/lastmile_qr_scan", "android": "https://dc.lft.to/lastmile_qr_scan"}, "fusion_lon": 0.0, "type": "electric_scooter", "bike_id": "817c7174e4b06197da53224eb96e620f", "name": "817c7174e4b06197da53224eb96e620f"}, {"lon": -76.9956935, "is_disabled": 0, "lat": 38.8921365, "fusion_lat": 0.0, "is_reserved": 0, "rental_uris": {"ios": "https://dc.lft.to/lastmile_qr_scan", "android": "https://dc.lft.to/lastmile_qr_scan"}, "fusion_lon": 0.0, "type": "electric_scooter", "bike_id": "d693ee744e21e79884ef1ca1d306b6a9", "name": "d693ee744e21e79884ef1ca1d306b6a9"}, {"lon": -77.03626883333334, "is_disabled": 0, "lat": 38.9654615, "fusion_lat": 0.0, "is_reserved": 0, "rental_uris": {"ios": "https://dc.lft.to/lastmile_qr_scan", "android": "https://dc.lft.to/lastmile_qr_scan"}, "fusion_lon": 0.0, "type": "electric_scooter", "bike_id": "688d0d60f6b25b442d0fabf360c0654b", "name": "688d0d60f6b25b442d0fabf360c0654b"}, {"lon": -77.039514, "is_disabled": 0, "lat": 38.902478333333335, "fusion_lat": 0.0, "is_reserved": 0, "rental_uris": {"ios": "https://dc.lft.to/lastmile_qr_scan", "android": "https://dc.lft.to/lastmile_qr_scan"}, "fusion_lon": 0.0, "type": "electric_scooter", "bike_id": "92028fda958b45f0393ccc607ce09b2e", "name": "92028fda958b45f0393ccc607ce09b2e"}, {"lon": -77.04597566666666, "is_disabled": 0, "lat": 38.91511, "fusion_lat": 0.0, "is_reserved": 0, "rental_uris": {"ios": "https://dc.lft.to/lastmile_qr_scan", "android": "https://dc.lft.to/lastmile_qr_scan"}, "fusion_lon": 0.0, "type": "electric_scooter", "bike_id": "57e1f5f58c7c5e63713d64a4acd6e012", "name": "57e1f5f58c7c5e63713d64a4acd6e012"}, {"lon": -77.01698316666666, "is_disabled": 0, "lat": 38.88120633333333, "fusion_lat": 0.0, "is_reserved": 0, "rental_uris": {"ios": "https://dc.lft.to/lastmile_qr_scan", "android": "https://dc.lft.to/lastmile_qr_scan"}, "fusion_lon": 0.0, "type": "electric_bike", "bike_id": "ccf9ec572942985def0da0826a93894d", "name": "ccf9ec572942985def0da0826a93894d"}, {"lon": -77.06308333333334, "is_disabled": 0, "lat": 38.90528283333333, "fusion_lat": 0.0, "is_reserved": 0, "rental_uris": {"ios": "https://dc.lft.to/lastmile_qr_scan", "android": "https://dc.lft.to/lastmile_qr_scan"}, "fusion_lon": 0.0, "type": "electric_scooter", "bike_id": "02254f2b24eb500ba1688b903ff48285", "name": "02254f2b24eb500ba1688b903ff48285"}, {"lon": -77.03008916666667, "is_disabled": 0, "lat": 38.928526833333336, "fusion_lat": 0.0, "is_reserved": 0, "rental_uris": {"ios": "https://dc.lft.to/lastmile_qr_scan", "android": "https://dc.lft.to/lastmile_qr_scan"}, "fusion_lon": 0.0, "type": "electric_scooter", "bike_id": "ca95baaa3810c76c2d825173f74c8d0b", "name": "ca95baaa3810c76c2d825173f74c8d0b"}, {"lon": -77.01947733333333, "is_disabled": 0, "lat": 38.92417966666667, "fusion_lat": 0.0, "is_reserved": 0, "rental_uris": {"ios": "https://dc.lft.to/lastmile_qr_scan", "android": "https://dc.lft.to/lastmile_qr_scan"}, "fusion_lon": 0.0, "type": "electric_scooter", "bike_id": "0fa243120fc8df893b6338110726f669", "name": "0fa243120fc8df893b6338110726f669"}, {"lon": -77.02165866666667, "is_disabled": 0, "lat": 38.9198605, "fusion_lat": 0.0, "is_reserved": 0, "rental_uris": {"ios": "https://dc.lft.to/lastmile_qr_scan", "android": "https://dc.lft.to/lastmile_qr_scan"}, "fusion_lon": 0.0, "type": "electric_scooter", "bike_id": "5692f87c3c53f93c23c61b560d62f89d", "name": "5692f87c3c53f93c23c61b560d62f89d"}, {"lon": -77.03206116666667, "is_disabled": 0, "lat": 38.9085715, "fusion_lat": 0.0, "is_reserved": 0, "rental_uris": {"ios": "https://dc.lft.to/lastmile_qr_scan", "android": "https://dc.lft.to/lastmile_qr_scan"}, "fusion_lon": 0.0, "type": "electric_scooter", "bike_id": "1d82e642ed65a3ee0fcc3c967c240b9d", "name": "1d82e642ed65a3ee0fcc3c967c240b9d"}, {"lon": -77.022133, "is_disabled": 0, "lat": 38.91266066666667, "fusion_lat": 0.0, "is_reserved": 0, "rental_uris": {"ios": "https://dc.lft.to/lastmile_qr_scan", "android": "https://dc.lft.to/lastmile_qr_scan"}, "fusion_lon": 0.0, "type": "electric_scooter", "bike_id": "87b9e1ebffae4214b15867cace724a03", "name": "87b9e1ebffae4214b15867cace724a03"}, {"lon": -77.02347083333333, "is_disabled": 0, "lat": 38.935343333333336, "fusion_lat": 0.0, "is_reserved": 0, "rental_uris": {"ios": "https://dc.lft.to/lastmile_qr_scan", "android": "https://dc.lft.to/lastmile_qr_scan"}, "fusion_lon": 0.0, "type": "electric_scooter", "bike_id": "4c75528f9907f0b339d6554f8e4980e6", "name": "4c75528f9907f0b339d6554f8e4980e6"}, {"lon": -77.09529933333333, "is_disabled": 0, "lat": 38.847282666666665, "fusion_lat": 0.0, "is_reserved": 0, "rental_uris": {"ios": "https://dc.lft.to/lastmile_qr_scan", "android": "https://dc.lft.to/lastmile_qr_scan"}, "fusion_lon": 0.0, "type": "electric_bike", "bike_id": "3df585db464732cbc7ecb5f0a6ea7bec", "name": "3df585db464732cbc7ecb5f0a6ea7bec"}, {"lon": -77.09523933333334, "is_disabled": 0, "lat": 38.83810883333334, "fusion_lat": 0.0, "is_reserved": 0, "rental_uris": {"ios": "https://dc.lft.to/lastmile_qr_scan", "android": "https://dc.lft.to/lastmile_qr_scan"}, "fusion_lon": 0.0, "type": "electric_bike", "bike_id": "0182ac8154406cda5b6ed02f63061b35", "name": "0182ac8154406cda5b6ed02f63061b35"}, {"lon": -76.99556966666667, "is_disabled": 0, "lat": 38.885907, "fusion_lat": 0.0, "is_reserved": 0, "rental_uris": {"ios": "https://dc.lft.to/lastmile_qr_scan", "android": "https://dc.lft.to/lastmile_qr_scan"}, "fusion_lon": 0.0, "type": "electric_scooter", "bike_id": "510db83e75a3b038a0d75a7d7ea13eea", "name": "510db83e75a3b038a0d75a7d7ea13eea"}, {"lon": -76.9833395, "is_disabled": 0, "lat": 38.900878, "fusion_lat": 0.0, "is_reserved": 0, "rental_uris": {"ios": "https://dc.lft.to/lastmile_qr_scan", "android": "https://dc.lft.to/lastmile_qr_scan"}, "fusion_lon": 0.0, "type": "electric_scooter", "bike_id": "0833c02e3712e1e7b637536003004fbd", "name": "0833c02e3712e1e7b637536003004fbd"}, {"lon": -77.029677, "is_disabled": 0, "lat": 38.933169666666664, "fusion_lat": 0.0, "is_reserved": 0, "rental_uris": {"ios": "https://dc.lft.to/lastmile_qr_scan", "android": "https://dc.lft.to/lastmile_qr_scan"}, "fusion_lon": 0.0, "type": "electric_scooter", "bike_id": "53e24aa07a490c434c4731f4f74397e7", "name": "53e24aa07a490c434c4731f4f74397e7"}, {"lon": -76.95328866666667, "is_disabled": 0, "lat": 38.892373, "fusion_lat": 0.0, "is_reserved": 0, "rental_uris": {"ios": "https://dc.lft.to/lastmile_qr_scan", "android": "https://dc.lft.to/lastmile_qr_scan"}, "fusion_lon": 0.0, "type": "electric_scooter", "bike_id": "a6ee6f42ff86a93c3041c416e9fbdfbb", "name": "a6ee6f42ff86a93c3041c416e9fbdfbb"}, {"lon": -77.01900116666667, "is_disabled": 0, "lat": 38.92336383333333, "fusion_lat": 0.0, "is_reserved": 0, "rental_uris": {"ios": "https://dc.lft.to/lastmile_qr_scan", "android": "https://dc.lft.to/lastmile_qr_scan"}, "fusion_lon": 0.0, "type": "electric_scooter", "bike_id": "a923f8a677d1e058474d9a72e5f7d53a", "name": "a923f8a677d1e058474d9a72e5f7d53a"}, {"lon": -77.08653866666667, "is_disabled": 0, "lat": 38.809069, "fusion_lat": 0.0, "is_reserved": 0, "rental_uris": {"ios": "https://dc.lft.to/lastmile_qr_scan", "android": "https://dc.lft.to/lastmile_qr_scan"}, "fusion_lon": 0.0, "type": "electric_bike", "bike_id": "2a3bde74d83f77a7dc51d75b3670ce59", "name": "2a3bde74d83f77a7dc51d75b3670ce59"}, {"lon": -76.99008633333334, "is_disabled": 0, "lat": 38.8650345, "fusion_lat": 0.0, "is_reserved": 0, "rental_uris": {"ios": "https://dc.lft.to/lastmile_qr_scan", "android": "https://dc.lft.to/lastmile_qr_scan"}, "fusion_lon": 0.0, "type": "electric_scooter", "bike_id": "7676833ec76fa7f426038371cd113262", "name": "7676833ec76fa7f426038371cd113262"}, {"lon": -77.04399, "is_disabled": 0, "lat": 38.8972425, "fusion_lat": 0.0, "is_reserved": 0, "rental_uris": {"ios": "https://dc.lft.to/lastmile_qr_scan", "android": "https://dc.lft.to/lastmile_qr_scan"}, "fusion_lon": 0.0, "type": "electric_scooter", "bike_id": "86bc6869b836e73d11d70e8abe371902", "name": "86bc6869b836e73d11d70e8abe371902"}, {"lon": -77.02775516666667, "is_disabled": 0, "lat": 38.896097, "fusion_lat": 0.0, "is_reserved": 0, "rental_uris": {"ios": "https://dc.lft.to/lastmile_qr_scan", "android": "https://dc.lft.to/lastmile_qr_scan"}, "fusion_lon": 0.0, "type": "electric_scooter", "bike_id": "c49e9db709ce68a261b254ca1dffe37f", "name": "c49e9db709ce68a261b254ca1dffe37f"}, {"lon": -77.03955633333334, "is_disabled": 0, "lat": 38.902374, "fusion_lat": 0.0, "is_reserved": 0, "rental_uris": {"ios": "https://dc.lft.to/lastmile_qr_scan", "android": "https://dc.lft.to/lastmile_qr_scan"}, "fusion_lon": 0.0, "type": "electric_scooter", "bike_id": "d3e0f056d001abaa977b01a9af1c60a6", "name": "d3e0f056d001abaa977b01a9af1c60a6"}, {"lon": -77.02505233333333, "is_disabled": 0, "lat": 38.920777333333334, "fusion_lat": 0.0, "is_reserved": 0, "rental_uris": {"ios": "https://dc.lft.to/lastmile_qr_scan", "android": "https://dc.lft.to/lastmile_qr_scan"}, "fusion_lon": 0.0, "type": "electric_scooter", "bike_id": "2ba3ea9c5024e0e1f5338d39f7ea9d80", "name": "2ba3ea9c5024e0e1f5338d39f7ea9d80"}, {"lon": -77.01232466666667, "is_disabled": 0, "lat": 38.8750675, "fusion_lat": 0.0, "is_reserved": 0, "rental_uris": {"ios": "https://dc.lft.to/lastmile_qr_scan", "android": "https://dc.lft.to/lastmile_qr_scan"}, "fusion_lon": 0.0, "type": "electric_scooter", "bike_id": "1709765b317fd4dbec4970acbcb6aeaa", "name": "1709765b317fd4dbec4970acbcb6aeaa"}, {"lon": -77.04457733333334, "is_disabled": 0, "lat": 38.9111555, "fusion_lat": 0.0, "is_reserved": 0, "rental_uris": {"ios": "https://dc.lft.to/lastmile_qr_scan", "android": "https://dc.lft.to/lastmile_qr_scan"}, "fusion_lon": 0.0, "type": "electric_scooter", "bike_id": "907cec90330cb1a9e1b23562d6e649d2", "name": "907cec90330cb1a9e1b23562d6e649d2"}, {"lon": -77.03942616666667, "is_disabled": 0, "lat": 38.898594, "fusion_lat": 0.0, "is_reserved": 0, "rental_uris": {"ios": "https://dc.lft.to/lastmile_qr_scan", "android": "https://dc.lft.to/lastmile_qr_scan"}, "fusion_lon": 0.0, "type": "electric_scooter", "bike_id": "4ae442cd036ae020d780e649be6005c9", "name": "4ae442cd036ae020d780e649be6005c9"}, {"lon": -77.05882666666666, "is_disabled": 0, "lat": 38.9363605, "fusion_lat": 0.0, "is_reserved": 0, "rental_uris": {"ios": "https://dc.lft.to/lastmile_qr_scan", "android": "https://dc.lft.to/lastmile_qr_scan"}, "fusion_lon": 0.0, "type": "electric_scooter", "bike_id": "f1a7ef7d1522040652e74bebcf6dea30", "name": "f1a7ef7d1522040652e74bebcf6dea30"}, {"lon": -77.0194665, "is_disabled": 0, "lat": 38.883692333333336, "fusion_lat": 0.0, "is_reserved": 0, "rental_uris": {"ios": "https://dc.lft.to/lastmile_qr_scan", "android": "https://dc.lft.to/lastmile_qr_scan"}, "fusion_lon": 0.0, "type": "electric_scooter", "bike_id": "604712b6619bd81127dcf6ea65ca5917", "name": "604712b6619bd81127dcf6ea65ca5917"}, {"lon": -76.926804, "is_disabled": 0, "lat": 38.88849366666667, "fusion_lat": 0.0, "is_reserved": 0, "rental_uris": {"ios": "https://dc.lft.to/lastmile_qr_scan", "android": "https://dc.lft.to/lastmile_qr_scan"}, "fusion_lon": 0.0, "type": "electric_scooter", "bike_id": "e790b896ab059cb1177fc60d699309ad", "name": "e790b896ab059cb1177fc60d699309ad"}, {"lon": -76.99559933333333, "is_disabled": 0, "lat": 38.939886, "fusion_lat": 0.0, "is_reserved": 0, "rental_uris": {"ios": "https://dc.lft.to/lastmile_qr_scan", "android": "https://dc.lft.to/lastmile_qr_scan"}, "fusion_lon": 0.0, "type": "electric_bike", "bike_id": "20b3f14061c5674b0e8d8a920cfa5258", "name": "20b3f14061c5674b0e8d8a920cfa5258"}, {"lon": -76.98413383333333, "is_disabled": 0, "lat": 38.91388416666667, "fusion_lat": 0.0, "is_reserved": 0, "rental_uris": {"ios": "https://dc.lft.to/lastmile_qr_scan", "android": "https://dc.lft.to/lastmile_qr_scan"}, "fusion_lon": 0.0, "type": "electric_scooter", "bike_id": "9bbe6420d8743ac21a7a0ed45dc5c7de", "name": "9bbe6420d8743ac21a7a0ed45dc5c7de"}, {"lon": -77.024695, "is_disabled": 0, "lat": 38.91882316666667, "fusion_lat": 0.0, "is_reserved": 0, "rental_uris": {"ios": "https://dc.lft.to/lastmile_qr_scan", "android": "https://dc.lft.to/lastmile_qr_scan"}, "fusion_lon": 0.0, "type": "electric_scooter", "bike_id": "c0868a0523446d92504ff65146d41725", "name": "c0868a0523446d92504ff65146d41725"}, {"lon": -77.0057455, "is_disabled": 0, "lat": 38.875682, "fusion_lat": 0.0, "is_reserved": 0, "rental_uris": {"ios": "https://dc.lft.to/lastmile_qr_scan", "android": "https://dc.lft.to/lastmile_qr_scan"}, "fusion_lon": 0.0, "type": "electric_scooter", "bike_id": "b8639d0f8591e28bafc8ff11fd664130", "name": "b8639d0f8591e28bafc8ff11fd664130"}, {"lon": -77.05675416666666, "is_disabled": 0, "lat": 38.923249166666665, "fusion_lat": 0.0, "is_reserved": 0, "rental_uris": {"ios": "https://dc.lft.to/lastmile_qr_scan", "android": "https://dc.lft.to/lastmile_qr_scan"}, "fusion_lon": 0.0, "type": "electric_scooter", "bike_id": "e03bec3b6ad7059590905cd90f736375", "name": "e03bec3b6ad7059590905cd90f736375"}, {"lon": -76.96987966666667, "is_disabled": 0, "lat": 38.87866366666667, "fusion_lat": 0.0, "is_reserved": 0, "rental_uris": {"ios": "https://dc.lft.to/lastmile_qr_scan", "android": "https://dc.lft.to/lastmile_qr_scan"}, "fusion_lon": 0.0, "type": "electric_scooter", "bike_id": "41f57c25606b99e2d317d1f0260489fa", "name": "41f57c25606b99e2d317d1f0260489fa"}, {"lon": -77.05321283333333, "is_disabled": 0, "lat": 38.90425116666667, "fusion_lat": 0.0, "is_reserved": 0, "rental_uris": {"ios": "https://dc.lft.to/lastmile_qr_scan", "android": "https://dc.lft.to/lastmile_qr_scan"}, "fusion_lon": 0.0, "type": "electric_scooter", "bike_id": "f3b28573d3a461d4b696f107f054ab5a", "name": "f3b28573d3a461d4b696f107f054ab5a"}, {"lon": -77.00321533333333, "is_disabled": 0, "lat": 38.91918116666667, "fusion_lat": 0.0, "is_reserved": 0, "rental_uris": {"ios": "https://dc.lft.to/lastmile_qr_scan", "android": "https://dc.lft.to/lastmile_qr_scan"}, "fusion_lon": 0.0, "type": "electric_scooter", "bike_id": "8288d07f9ccd092dc1847b1abb87bef4", "name": "8288d07f9ccd092dc1847b1abb87bef4"}, {"lon": -76.969077, "is_disabled": 0, "lat": 38.87420483333333, "fusion_lat": 0.0, "is_reserved": 0, "rental_uris": {"ios": "https://dc.lft.to/lastmile_qr_scan", "android": "https://dc.lft.to/lastmile_qr_scan"}, "fusion_lon": 0.0, "type": "electric_scooter", "bike_id": "7c631df20d0e95465cf3c60bd8e22614", "name": "7c631df20d0e95465cf3c60bd8e22614"}, {"lon": -76.98015166666667, "is_disabled": 0, "lat": 38.85312716666667, "fusion_lat": 0.0, "is_reserved": 0, "rental_uris": {"ios": "https://dc.lft.to/lastmile_qr_scan", "android": "https://dc.lft.to/lastmile_qr_scan"}, "fusion_lon": 0.0, "type": "electric_scooter", "bike_id": "1363533a89457011cd3842dd35baefa0", "name": "1363533a89457011cd3842dd35baefa0"}, {"lon": -77.02198083333333, "is_disabled": 0, "lat": 38.89618183333333, "fusion_lat": 0.0, "is_reserved": 0, "rental_uris": {"ios": "https://dc.lft.to/lastmile_qr_scan", "android": "https://dc.lft.to/lastmile_qr_scan"}, "fusion_lon": 0.0, "type": "electric_scooter", "bike_id": "d298d3e1f014dc8165e31f20843a68c8", "name": "d298d3e1f014dc8165e31f20843a68c8"}, {"lon": -77.0446065, "is_disabled": 0, "lat": 38.911183333333334, "fusion_lat": 0.0, "is_reserved": 0, "rental_uris": {"ios": "https://dc.lft.to/lastmile_qr_scan", "android": "https://dc.lft.to/lastmile_qr_scan"}, "fusion_lon": 0.0, "type": "electric_scooter", "bike_id": "090c16d3c14e7cd4893c38689f9c337a", "name": "090c16d3c14e7cd4893c38689f9c337a"}, {"lon": -77.01534083333334, "is_disabled": 0, "lat": 38.9502985, "fusion_lat": 0.0, "is_reserved": 0, "rental_uris": {"ios": "https://dc.lft.to/lastmile_qr_scan", "android": "https://dc.lft.to/lastmile_qr_scan"}, "fusion_lon": 0.0, "type": "electric_bike", "bike_id": "471961f01b58f4d6ab75e58ad23633e6", "name": "471961f01b58f4d6ab75e58ad23633e6"}, {"lon": -76.94255533333333, "is_disabled": 0, "lat": 38.8984775, "fusion_lat": 0.0, "is_reserved": 0, "rental_uris": {"ios": "https://dc.lft.to/lastmile_qr_scan", "android": "https://dc.lft.to/lastmile_qr_scan"}, "fusion_lon": 0.0, "type": "electric_scooter", "bike_id": "fd1ae2427ed280411d837f6b6a01307d", "name": "fd1ae2427ed280411d837f6b6a01307d"}, {"lon": -77.03859083333333, "is_disabled": 0, "lat": 38.90713083333333, "fusion_lat": 0.0, "is_reserved": 0, "rental_uris": {"ios": "https://dc.lft.to/lastmile_qr_scan", "android": "https://dc.lft.to/lastmile_qr_scan"}, "fusion_lon": 0.0, "type": "electric_scooter", "bike_id": "bb43138dca0dce5e7a5e4de3dceb661e", "name": "bb43138dca0dce5e7a5e4de3dceb661e"}, {"lon": -77.02789233333333, "is_disabled": 0, "lat": 38.927675, "fusion_lat": 0.0, "is_reserved": 0, "rental_uris": {"ios": "https://dc.lft.to/lastmile_qr_scan", "android": "https://dc.lft.to/lastmile_qr_scan"}, "fusion_lon": 0.0, "type": "electric_scooter", "bike_id": "ac77b92b0e3357977b4b2511459114fb", "name": "ac77b92b0e3357977b4b2511459114fb"}, {"lon": -77.23256416666666, "is_disabled": 0, "lat": 38.872566, "fusion_lat": 0.0, "is_reserved": 0, "rental_uris": {"ios": "https://dc.lft.to/lastmile_qr_scan", "android": "https://dc.lft.to/lastmile_qr_scan"}, "fusion_lon": 0.0, "type": "electric_bike", "bike_id": "a86bbfdfe8557ac6b3258a8db4a9457c", "name": "a86bbfdfe8557ac6b3258a8db4a9457c"}, {"lon": -77.05057533333333, "is_disabled": 0, "lat": 38.90530283333333, "fusion_lat": 0.0, "is_reserved": 0, "rental_uris": {"ios": "https://dc.lft.to/lastmile_qr_scan", "android": "https://dc.lft.to/lastmile_qr_scan"}, "fusion_lon": 0.0, "type": "electric_scooter", "bike_id": "495d828c39205e7804be88553835ccce", "name": "495d828c39205e7804be88553835ccce"}, {"lon": -77.04812833333334, "is_disabled": 0, "lat": 38.9094605, "fusion_lat": 0.0, "is_reserved": 0, "rental_uris": {"ios": "https://dc.lft.to/lastmile_qr_scan", "android": "https://dc.lft.to/lastmile_qr_scan"}, "fusion_lon": 0.0, "type": "electric_scooter", "bike_id": "9e9d9fa5a705465bc0db9bdb91c5aa29", "name": "9e9d9fa5a705465bc0db9bdb91c5aa29"}, {"lon": -76.98876333333334, "is_disabled": 0, "lat": 38.866592833333335, "fusion_lat": 0.0, "is_reserved": 0, "rental_uris": {"ios": "https://dc.lft.to/lastmile_qr_scan", "android": "https://dc.lft.to/lastmile_qr_scan"}, "fusion_lon": 0.0, "type": "electric_scooter", "bike_id": "0d07fa0aed63bcfb12553f970bd4edd3", "name": "0d07fa0aed63bcfb12553f970bd4edd3"}, {"lon": -77.01843233333334, "is_disabled": 0, "lat": 38.9096805, "fusion_lat": 0.0, "is_reserved": 0, "rental_uris": {"ios": "https://dc.lft.to/lastmile_qr_scan", "android": "https://dc.lft.to/lastmile_qr_scan"}, "fusion_lon": 0.0, "type": "electric_scooter", "bike_id": "d3ebad100040d4e4e4c558795c5fcfd5", "name": "d3ebad100040d4e4e4c558795c5fcfd5"}, {"lon": -77.01493433333333, "is_disabled": 0, "lat": 38.91754516666666, "fusion_lat": 0.0, "is_reserved": 0, "rental_uris": {"ios": "https://dc.lft.to/lastmile_qr_scan", "android": "https://dc.lft.to/lastmile_qr_scan"}, "fusion_lon": 0.0, "type": "electric_scooter", "bike_id": "81c3626f2af0f005963310eeb7cd67c0", "name": "81c3626f2af0f005963310eeb7cd67c0"}, {"lon": -77.00773066666666, "is_disabled": 0, "lat": 38.8791515, "fusion_lat": 0.0, "is_reserved": 0, "rental_uris": {"ios": "https://dc.lft.to/lastmile_qr_scan", "android": "https://dc.lft.to/lastmile_qr_scan"}, "fusion_lon": 0.0, "type": "electric_scooter", "bike_id": "3baf664feaad08c4fd30a634ac62801f", "name": "3baf664feaad08c4fd30a634ac62801f"}, {"lon": -77.22889133333334, "is_disabled": 0, "lat": 38.90955366666667, "fusion_lat": 0.0, "is_reserved": 0, "rental_uris": {"ios": "https://dc.lft.to/lastmile_qr_scan", "android": "https://dc.lft.to/lastmile_qr_scan"}, "fusion_lon": 0.0, "type": "electric_bike", "bike_id": "c6e0ab5e3abf281d68d96cf5017adaad", "name": "c6e0ab5e3abf281d68d96cf5017adaad"}, {"lon": -77.033449, "is_disabled": 0, "lat": 38.89840983333333, "fusion_lat": 0.0, "is_reserved": 0, "rental_uris": {"ios": "https://dc.lft.to/lastmile_qr_scan", "android": "https://dc.lft.to/lastmile_qr_scan"}, "fusion_lon": 0.0, "type": "electric_scooter", "bike_id": "91b51e8b4630a5cbbc56c24b120e0221", "name": "91b51e8b4630a5cbbc56c24b120e0221"}, {"lon": -76.98172966666667, "is_disabled": 0, "lat": 38.869642999999996, "fusion_lat": 0.0, "is_reserved": 0, "rental_uris": {"ios": "https://dc.lft.to/lastmile_qr_scan", "android": "https://dc.lft.to/lastmile_qr_scan"}, "fusion_lon": 0.0, "type": "electric_scooter", "bike_id": "f6f185992d28ff03a5888647834c6ac3", "name": "f6f185992d28ff03a5888647834c6ac3"}, {"lon": -77.04124033333333, "is_disabled": 0, "lat": 38.91037883333333, "fusion_lat": 0.0, "is_reserved": 0, "rental_uris": {"ios": "https://dc.lft.to/lastmile_qr_scan", "android": "https://dc.lft.to/lastmile_qr_scan"}, "fusion_lon": 0.0, "type": "electric_scooter", "bike_id": "82e70ceabf4447452be11cf6a4bf0419", "name": "82e70ceabf4447452be11cf6a4bf0419"}, {"lon": -77.03420533333333, "is_disabled": 0, "lat": 38.928594333333336, "fusion_lat": 0.0, "is_reserved": 0, "rental_uris": {"ios": "https://dc.lft.to/lastmile_qr_scan", "android": "https://dc.lft.to/lastmile_qr_scan"}, "fusion_lon": 0.0, "type": "electric_scooter", "bike_id": "237592ce0360cd12077dcb26e6b80ae4", "name": "237592ce0360cd12077dcb26e6b80ae4"}, {"lon": -77.03933216666667, "is_disabled": 0, "lat": 38.898545, "fusion_lat": 0.0, "is_reserved": 0, "rental_uris": {"ios": "https://dc.lft.to/lastmile_qr_scan", "android": "https://dc.lft.to/lastmile_qr_scan"}, "fusion_lon": 0.0, "type": "electric_scooter", "bike_id": "f61a37a0fdf5c4dbb066af75277f8791", "name": "f61a37a0fdf5c4dbb066af75277f8791"}, {"lon": -77.04175633333334, "is_disabled": 0, "lat": 38.9139475, "fusion_lat": 0.0, "is_reserved": 0, "rental_uris": {"ios": "https://dc.lft.to/lastmile_qr_scan", "android": "https://dc.lft.to/lastmile_qr_scan"}, "fusion_lon": 0.0, "type": "electric_scooter", "bike_id": "ac1a8f2676a689f99e3f1b7a309e789a", "name": "ac1a8f2676a689f99e3f1b7a309e789a"}, {"lon": -76.97837683333333, "is_disabled": 0, "lat": 38.89847983333333, "fusion_lat": 0.0, "is_reserved": 0, "rental_uris": {"ios": "https://dc.lft.to/lastmile_qr_scan", "android": "https://dc.lft.to/lastmile_qr_scan"}, "fusion_lon": 0.0, "type": "electric_scooter", "bike_id": "9ded4097cdf2b1fbd7d2ce504813bbdb", "name": "9ded4097cdf2b1fbd7d2ce504813bbdb"}, {"lon": -77.02459416666666, "is_disabled": 0, "lat": 38.93854833333333, "fusion_lat": 0.0, "is_reserved": 0, "rental_uris": {"ios": "https://dc.lft.to/lastmile_qr_scan", "android": "https://dc.lft.to/lastmile_qr_scan"}, "fusion_lon": 0.0, "type": "electric_scooter", "bike_id": "7dab68dbf41a3a1701d11c129f04aa66", "name": "7dab68dbf41a3a1701d11c129f04aa66"}, {"lon": -77.03632, "is_disabled": 0, "lat": 38.917882166666665, "fusion_lat": 0.0, "is_reserved": 0, "rental_uris": {"ios": "https://dc.lft.to/lastmile_qr_scan", "android": "https://dc.lft.to/lastmile_qr_scan"}, "fusion_lon": 0.0, "type": "electric_scooter", "bike_id": "978c76ed29e3887b3679d25c5994982a", "name": "978c76ed29e3887b3679d25c5994982a"}, {"lon": -77.01146916666667, "is_disabled": 0, "lat": 38.896366, "fusion_lat": 0.0, "is_reserved": 0, "rental_uris": {"ios": "https://dc.lft.to/lastmile_qr_scan", "android": "https://dc.lft.to/lastmile_qr_scan"}, "fusion_lon": 0.0, "type": "electric_scooter", "bike_id": "480be964500d1aea9ba6f35500753e15", "name": "480be964500d1aea9ba6f35500753e15"}, {"lon": -77.032101, "is_disabled": 0, "lat": 38.89216566666666, "fusion_lat": 0.0, "is_reserved": 0, "rental_uris": {"ios": "https://dc.lft.to/lastmile_qr_scan", "android": "https://dc.lft.to/lastmile_qr_scan"}, "fusion_lon": 0.0, "type": "electric_scooter", "bike_id": "f2d3e7ff72bfbec4ec6e999e99d52b84", "name": "f2d3e7ff72bfbec4ec6e999e99d52b84"}, {"lon": -77.03206016666667, "is_disabled": 0, "lat": 38.892287, "fusion_lat": 0.0, "is_reserved": 0, "rental_uris": {"ios": "https://dc.lft.to/lastmile_qr_scan", "android": "https://dc.lft.to/lastmile_qr_scan"}, "fusion_lon": 0.0, "type": "electric_scooter", "bike_id": "ce9409065b03e55a2566529622d3c244", "name": "ce9409065b03e55a2566529622d3c244"}, {"lon": -77.025397, "is_disabled": 0, "lat": 38.905594, "fusion_lat": 0.0, "is_reserved": 0, "rental_uris": {"ios": "https://dc.lft.to/lastmile_qr_scan", "android": "https://dc.lft.to/lastmile_qr_scan"}, "fusion_lon": 0.0, "type": "electric_scooter", "bike_id": "04c8f90a0170bdc9d0f1dcb7a0e30ce5", "name": "04c8f90a0170bdc9d0f1dcb7a0e30ce5"}, {"lon": -77.024924, "is_disabled": 0, "lat": 38.941834666666665, "fusion_lat": 0.0, "is_reserved": 0, "rental_uris": {"ios": "https://dc.lft.to/lastmile_qr_scan", "android": "https://dc.lft.to/lastmile_qr_scan"}, "fusion_lon": 0.0, "type": "electric_scooter", "bike_id": "9a5e27d447087721c06cfc655945d7d2", "name": "9a5e27d447087721c06cfc655945d7d2"}, {"lon": -76.99813516666667, "is_disabled": 0, "lat": 38.8198055, "fusion_lat": 0.0, "is_reserved": 0, "rental_uris": {"ios": "https://dc.lft.to/lastmile_qr_scan", "android": "https://dc.lft.to/lastmile_qr_scan"}, "fusion_lon": 0.0, "type": "electric_bike", "bike_id": "cd75f579d150e5b914052a71b055ab42", "name": "cd75f579d150e5b914052a71b055ab42"}, {"lon": -77.0321565, "is_disabled": 0, "lat": 38.920599833333334, "fusion_lat": 0.0, "is_reserved": 0, "rental_uris": {"ios": "https://dc.lft.to/lastmile_qr_scan", "android": "https://dc.lft.to/lastmile_qr_scan"}, "fusion_lon": 0.0, "type": "electric_scooter", "bike_id": "8d6921d45e7a3b02e6846afd68591388", "name": "8d6921d45e7a3b02e6846afd68591388"}, {"lon": -77.01517033333333, "is_disabled": 0, "lat": 38.926573833333336, "fusion_lat": 0.0, "is_reserved": 0, "rental_uris": {"ios": "https://dc.lft.to/lastmile_qr_scan", "android": "https://dc.lft.to/lastmile_qr_scan"}, "fusion_lon": 0.0, "type": "electric_scooter", "bike_id": "a556b4d4759c27af3a60df1986c2c540", "name": "a556b4d4759c27af3a60df1986c2c540"}, {"lon": -76.949562, "is_disabled": 0, "lat": 38.89472833333333, "fusion_lat": 0.0, "is_reserved": 0, "rental_uris": {"ios": "https://dc.lft.to/lastmile_qr_scan", "android": "https://dc.lft.to/lastmile_qr_scan"}, "fusion_lon": 0.0, "type": "electric_scooter", "bike_id": "18fbb8a41e00b5ab6b39be5601871574", "name": "18fbb8a41e00b5ab6b39be5601871574"}, {"lon": -77.0504525, "is_disabled": 0, "lat": 38.901935333333334, "fusion_lat": 0.0, "is_reserved": 0, "rental_uris": {"ios": "https://dc.lft.to/lastmile_qr_scan", "android": "https://dc.lft.to/lastmile_qr_scan"}, "fusion_lon": 0.0, "type": "electric_scooter", "bike_id": "3b7ec1fa2bd2e225b36eb250cba7211b", "name": "3b7ec1fa2bd2e225b36eb250cba7211b"}, {"lon": -77.03279133333334, "is_disabled": 0, "lat": 38.9325065, "fusion_lat": 0.0, "is_reserved": 0, "rental_uris": {"ios": "https://dc.lft.to/lastmile_qr_scan", "android": "https://dc.lft.to/lastmile_qr_scan"}, "fusion_lon": 0.0, "type": "electric_scooter", "bike_id": "09ab36b42e5c1f70bf8992fe937b270a", "name": "09ab36b42e5c1f70bf8992fe937b270a"}, {"lon": -76.99545466666666, "is_disabled": 0, "lat": 38.83159833333333, "fusion_lat": 0.0, "is_reserved": 0, "rental_uris": {"ios": "https://dc.lft.to/lastmile_qr_scan", "android": "https://dc.lft.to/lastmile_qr_scan"}, "fusion_lon": 0.0, "type": "electric_bike", "bike_id": "5892b9e8d587612bb0c1a16c58e36b88", "name": "5892b9e8d587612bb0c1a16c58e36b88"}, {"lon": -76.98572483333334, "is_disabled": 0, "lat": 38.9081555, "fusion_lat": 0.0, "is_reserved": 0, "rental_uris": {"ios": "https://dc.lft.to/lastmile_qr_scan", "android": "https://dc.lft.to/lastmile_qr_scan"}, "fusion_lon": 0.0, "type": "electric_scooter", "bike_id": "63ea2c085d2e71f5a15e6afa870a7640", "name": "63ea2c085d2e71f5a15e6afa870a7640"}, {"lon": -76.98241216666666, "is_disabled": 0, "lat": 38.87112066666667, "fusion_lat": 0.0, "is_reserved": 0, "rental_uris": {"ios": "https://dc.lft.to/lastmile_qr_scan", "android": "https://dc.lft.to/lastmile_qr_scan"}, "fusion_lon": 0.0, "type": "electric_scooter", "bike_id": "7c3f16bcb50afe76ffb524148bc78ce7", "name": "7c3f16bcb50afe76ffb524148bc78ce7"}, {"lon": -77.00343783333334, "is_disabled": 0, "lat": 38.89530116666667, "fusion_lat": 0.0, "is_reserved": 0, "rental_uris": {"ios": "https://dc.lft.to/lastmile_qr_scan", "android": "https://dc.lft.to/lastmile_qr_scan"}, "fusion_lon": 0.0, "type": "electric_scooter", "bike_id": "cda3d5489b15e58fc2e905430be5a39c", "name": "cda3d5489b15e58fc2e905430be5a39c"}, {"lon": -76.99190116666666, "is_disabled": 0, "lat": 38.85833083333333, "fusion_lat": 0.0, "is_reserved": 0, "rental_uris": {"ios": "https://dc.lft.to/lastmile_qr_scan", "android": "https://dc.lft.to/lastmile_qr_scan"}, "fusion_lon": 0.0, "type": "electric_scooter", "bike_id": "b03107dcb0c1c725d30f803ca60348b4", "name": "b03107dcb0c1c725d30f803ca60348b4"}, {"lon": -77.02976383333333, "is_disabled": 0, "lat": 38.922852666666664, "fusion_lat": 0.0, "is_reserved": 0, "rental_uris": {"ios": "https://dc.lft.to/lastmile_qr_scan", "android": "https://dc.lft.to/lastmile_qr_scan"}, "fusion_lon": 0.0, "type": "electric_scooter", "bike_id": "f66dd7d69d3e25cd641f946608f418d0", "name": "f66dd7d69d3e25cd641f946608f418d0"}, {"lon": -77.15020383333334, "is_disabled": 0, "lat": 39.05789, "fusion_lat": 0.0, "is_reserved": 0, "rental_uris": {"ios": "https://dc.lft.to/lastmile_qr_scan", "android": "https://dc.lft.to/lastmile_qr_scan"}, "fusion_lon": 0.0, "type": "electric_bike", "bike_id": "394c8dbe98ac567d39187e3d0f531eb6", "name": "394c8dbe98ac567d39187e3d0f531eb6"}, {"lon": -77.02391616666667, "is_disabled": 0, "lat": 38.9056405, "fusion_lat": 0.0, "is_reserved": 0, "rental_uris": {"ios": "https://dc.lft.to/lastmile_qr_scan", "android": "https://dc.lft.to/lastmile_qr_scan"}, "fusion_lon": 0.0, "type": "electric_scooter", "bike_id": "8caef5f5ee29450de71c150a793f2b1d", "name": "8caef5f5ee29450de71c150a793f2b1d"}, {"lon": -77.04355766666667, "is_disabled": 0, "lat": 38.911012, "fusion_lat": 0.0, "is_reserved": 0, "rental_uris": {"ios": "https://dc.lft.to/lastmile_qr_scan", "android": "https://dc.lft.to/lastmile_qr_scan"}, "fusion_lon": 0.0, "type": "electric_scooter", "bike_id": "0643f14f9689260b94da2e50bff22439", "name": "0643f14f9689260b94da2e50bff22439"}, {"lon": -77.0321515, "is_disabled": 0, "lat": 38.91905383333334, "fusion_lat": 0.0, "is_reserved": 0, "rental_uris": {"ios": "https://dc.lft.to/lastmile_qr_scan", "android": "https://dc.lft.to/lastmile_qr_scan"}, "fusion_lon": 0.0, "type": "electric_scooter", "bike_id": "a8e7e2d9df068079b534ec235b3105dc", "name": "a8e7e2d9df068079b534ec235b3105dc"}, {"lon": -76.94638333333333, "is_disabled": 0, "lat": 38.898640666666665, "fusion_lat": 0.0, "is_reserved": 0, "rental_uris": {"ios": "https://dc.lft.to/lastmile_qr_scan", "android": "https://dc.lft.to/lastmile_qr_scan"}, "fusion_lon": 0.0, "type": "electric_scooter", "bike_id": "878ca363bbc0ac3422963c464acf5cfd", "name": "878ca363bbc0ac3422963c464acf5cfd"}, {"lon": -77.05152116666666, "is_disabled": 0, "lat": 38.9054285, "fusion_lat": 0.0, "is_reserved": 0, "rental_uris": {"ios": "https://dc.lft.to/lastmile_qr_scan", "android": "https://dc.lft.to/lastmile_qr_scan"}, "fusion_lon": 0.0, "type": "electric_scooter", "bike_id": "60559e1dd2188e989ca1145b2ee75f38", "name": "60559e1dd2188e989ca1145b2ee75f38"}, {"lon": -77.02151116666667, "is_disabled": 0, "lat": 38.915637, "fusion_lat": 0.0, "is_reserved": 0, "rental_uris": {"ios": "https://dc.lft.to/lastmile_qr_scan", "android": "https://dc.lft.to/lastmile_qr_scan"}, "fusion_lon": 0.0, "type": "electric_scooter", "bike_id": "d9846f0f2647efe0de3aa91ce46a06e8", "name": "d9846f0f2647efe0de3aa91ce46a06e8"}, {"lon": -77.025678, "is_disabled": 0, "lat": 38.88744583333333, "fusion_lat": 0.0, "is_reserved": 0, "rental_uris": {"ios": "https://dc.lft.to/lastmile_qr_scan", "android": "https://dc.lft.to/lastmile_qr_scan"}, "fusion_lon": 0.0, "type": "electric_scooter", "bike_id": "2b60b5ca962dc3bf6c75d03cba4ee1c9", "name": "2b60b5ca962dc3bf6c75d03cba4ee1c9"}, {"lon": -77.05493, "is_disabled": 0, "lat": 39.01477383333334, "fusion_lat": 0.0, "is_reserved": 0, "rental_uris": {"ios": "https://dc.lft.to/lastmile_qr_scan", "android": "https://dc.lft.to/lastmile_qr_scan"}, "fusion_lon": 0.0, "type": "electric_bike", "bike_id": "ffb1e7ce4e2769ec3fcc4c97424a82ac", "name": "ffb1e7ce4e2769ec3fcc4c97424a82ac"}, {"lon": -77.00905066666667, "is_disabled": 0, "lat": 38.87524233333333, "fusion_lat": 0.0, "is_reserved": 0, "rental_uris": {"ios": "https://dc.lft.to/lastmile_qr_scan", "android": "https://dc.lft.to/lastmile_qr_scan"}, "fusion_lon": 0.0, "type": "electric_bike", "bike_id": "034dcaec8f22fd95212b21af8275e26a", "name": "034dcaec8f22fd95212b21af8275e26a"}, {"lon": -77.03729216666666, "is_disabled": 0, "lat": 38.92656783333334, "fusion_lat": 0.0, "is_reserved": 0, "rental_uris": {"ios": "https://dc.lft.to/lastmile_qr_scan", "android": "https://dc.lft.to/lastmile_qr_scan"}, "fusion_lon": 0.0, "type": "electric_scooter", "bike_id": "3ede07bcfe4173b0321aa1192e59afdb", "name": "3ede07bcfe4173b0321aa1192e59afdb"}, {"lon": -77.03577916666667, "is_disabled": 0, "lat": 38.911229, "fusion_lat": 0.0, "is_reserved": 0, "rental_uris": {"ios": "https://dc.lft.to/lastmile_qr_scan", "android": "https://dc.lft.to/lastmile_qr_scan"}, "fusion_lon": 0.0, "type": "electric_scooter", "bike_id": "8e7a064b66a8bfe2ca09084ac038d12b", "name": "8e7a064b66a8bfe2ca09084ac038d12b"}, {"lon": -77.04557966666667, "is_disabled": 0, "lat": 38.91472866666667, "fusion_lat": 0.0, "is_reserved": 0, "rental_uris": {"ios": "https://dc.lft.to/lastmile_qr_scan", "android": "https://dc.lft.to/lastmile_qr_scan"}, "fusion_lon": 0.0, "type": "electric_scooter", "bike_id": "f10d04c3009b2ae2a3e435f5225756db", "name": "f10d04c3009b2ae2a3e435f5225756db"}, {"lon": -77.02490366666666, "is_disabled": 0, "lat": 38.95778683333333, "fusion_lat": 0.0, "is_reserved": 0, "rental_uris": {"ios": "https://dc.lft.to/lastmile_qr_scan", "android": "https://dc.lft.to/lastmile_qr_scan"}, "fusion_lon": 0.0, "type": "electric_scooter", "bike_id": "90f37b721bb97fa95e4df9422d0ee607", "name": "90f37b721bb97fa95e4df9422d0ee607"}, {"lon": -77.02754816666666, "is_disabled": 0, "lat": 38.91709083333333, "fusion_lat": 0.0, "is_reserved": 0, "rental_uris": {"ios": "https://dc.lft.to/lastmile_qr_scan", "android": "https://dc.lft.to/lastmile_qr_scan"}, "fusion_lon": 0.0, "type": "electric_scooter", "bike_id": "b76e898c09d6d19b59949ba80f0ee5e7", "name": "b76e898c09d6d19b59949ba80f0ee5e7"}, {"lon": -77.03546266666666, "is_disabled": 0, "lat": 38.912633, "fusion_lat": 0.0, "is_reserved": 0, "rental_uris": {"ios": "https://dc.lft.to/lastmile_qr_scan", "android": "https://dc.lft.to/lastmile_qr_scan"}, "fusion_lon": 0.0, "type": "electric_scooter", "bike_id": "7cd9ed4cac82f15824200502df9e6c9d", "name": "7cd9ed4cac82f15824200502df9e6c9d"}, {"lon": -77.02381233333334, "is_disabled": 0, "lat": 38.90687366666667, "fusion_lat": 0.0, "is_reserved": 0, "rental_uris": {"ios": "https://dc.lft.to/lastmile_qr_scan", "android": "https://dc.lft.to/lastmile_qr_scan"}, "fusion_lon": 0.0, "type": "electric_scooter", "bike_id": "8e633a0c2ce4dda24e30407e1128b228", "name": "8e633a0c2ce4dda24e30407e1128b228"}, {"lon": -76.99502216666667, "is_disabled": 0, "lat": 38.8624745, "fusion_lat": 0.0, "is_reserved": 0, "rental_uris": {"ios": "https://dc.lft.to/lastmile_qr_scan", "android": "https://dc.lft.to/lastmile_qr_scan"}, "fusion_lon": 0.0, "type": "electric_scooter", "bike_id": "e6305594a5223597256f931053fbc9b8", "name": "e6305594a5223597256f931053fbc9b8"}, {"lon": -77.005868, "is_disabled": 0, "lat": 38.90538033333333, "fusion_lat": 0.0, "is_reserved": 0, "rental_uris": {"ios": "https://dc.lft.to/lastmile_qr_scan", "android": "https://dc.lft.to/lastmile_qr_scan"}, "fusion_lon": 0.0, "type": "electric_scooter", "bike_id": "8cac2539df276eecb77ce6eff37523e5", "name": "8cac2539df276eecb77ce6eff37523e5"}, {"lon": -77.00585416666667, "is_disabled": 0, "lat": 38.9063605, "fusion_lat": 0.0, "is_reserved": 0, "rental_uris": {"ios": "https://dc.lft.to/lastmile_qr_scan", "android": "https://dc.lft.to/lastmile_qr_scan"}, "fusion_lon": 0.0, "type": "electric_scooter", "bike_id": "72481491f2a54689e5d2dfb6bc959535", "name": "72481491f2a54689e5d2dfb6bc959535"}, {"lon": -77.0367835, "is_disabled": 0, "lat": 38.922636833333335, "fusion_lat": 0.0, "is_reserved": 0, "rental_uris": {"ios": "https://dc.lft.to/lastmile_qr_scan", "android": "https://dc.lft.to/lastmile_qr_scan"}, "fusion_lon": 0.0, "type": "electric_scooter", "bike_id": "9344e38cdb905d893480d78f40b17ca2", "name": "9344e38cdb905d893480d78f40b17ca2"}, {"lon": -77.006787, "is_disabled": 0, "lat": 38.871642, "fusion_lat": 0.0, "is_reserved": 0, "rental_uris": {"ios": "https://dc.lft.to/lastmile_qr_scan", "android": "https://dc.lft.to/lastmile_qr_scan"}, "fusion_lon": 0.0, "type": "electric_scooter", "bike_id": "d4a4dbdd52a4e62ea85a599d0da75b82", "name": "d4a4dbdd52a4e62ea85a599d0da75b82"}, {"lon": -77.03941233333333, "is_disabled": 0, "lat": 38.90954966666666, "fusion_lat": 0.0, "is_reserved": 0, "rental_uris": {"ios": "https://dc.lft.to/lastmile_qr_scan", "android": "https://dc.lft.to/lastmile_qr_scan"}, "fusion_lon": 0.0, "type": "electric_scooter", "bike_id": "4d43f3d64cc1fa5db84c17d7930e0eb1", "name": "4d43f3d64cc1fa5db84c17d7930e0eb1"}, {"lon": -77.02410733333333, "is_disabled": 0, "lat": 38.909650666666664, "fusion_lat": 0.0, "is_reserved": 0, "rental_uris": {"ios": "https://dc.lft.to/lastmile_qr_scan", "android": "https://dc.lft.to/lastmile_qr_scan"}, "fusion_lon": 0.0, "type": "electric_scooter", "bike_id": "915bbff97dc1187f04bc741f7cbaf1b2", "name": "915bbff97dc1187f04bc741f7cbaf1b2"}, {"lon": -77.0344545, "is_disabled": 0, "lat": 38.9073485, "fusion_lat": 0.0, "is_reserved": 0, "rental_uris": {"ios": "https://dc.lft.to/lastmile_qr_scan", "android": "https://dc.lft.to/lastmile_qr_scan"}, "fusion_lon": 0.0, "type": "electric_scooter", "bike_id": "eda4e3f20710ecd0760a43f8a719330f", "name": "eda4e3f20710ecd0760a43f8a719330f"}, {"lon": -77.02159466666667, "is_disabled": 0, "lat": 38.9250155, "fusion_lat": 0.0, "is_reserved": 0, "rental_uris": {"ios": "https://dc.lft.to/lastmile_qr_scan", "android": "https://dc.lft.to/lastmile_qr_scan"}, "fusion_lon": 0.0, "type": "electric_scooter", "bike_id": "553647c13b8f0e964c14f4e7a9e1003b", "name": "553647c13b8f0e964c14f4e7a9e1003b"}, {"lon": -77.02490933333333, "is_disabled": 0, "lat": 38.941811333333334, "fusion_lat": 0.0, "is_reserved": 0, "rental_uris": {"ios": "https://dc.lft.to/lastmile_qr_scan", "android": "https://dc.lft.to/lastmile_qr_scan"}, "fusion_lon": 0.0, "type": "electric_scooter", "bike_id": "08b5b1274ed8b5cc4a1df890537a7174", "name": "08b5b1274ed8b5cc4a1df890537a7174"}, {"lon": -77.01144533333333, "is_disabled": 0, "lat": 38.90645133333334, "fusion_lat": 0.0, "is_reserved": 0, "rental_uris": {"ios": "https://dc.lft.to/lastmile_qr_scan", "android": "https://dc.lft.to/lastmile_qr_scan"}, "fusion_lon": 0.0, "type": "electric_scooter", "bike_id": "0573d55b485e1e80d011b3f6a7fade1c", "name": "0573d55b485e1e80d011b3f6a7fade1c"}, {"lon": -77.06048516666667, "is_disabled": 0, "lat": 38.939176333333336, "fusion_lat": 0.0, "is_reserved": 0, "rental_uris": {"ios": "https://dc.lft.to/lastmile_qr_scan", "android": "https://dc.lft.to/lastmile_qr_scan"}, "fusion_lon": 0.0, "type": "electric_scooter", "bike_id": "522b8e9d4c24a05668442539067aba71", "name": "522b8e9d4c24a05668442539067aba71"}, {"lon": -77.0285795, "is_disabled": 0, "lat": 39.0369475, "fusion_lat": 0.0, "is_reserved": 0, "rental_uris": {"ios": "https://dc.lft.to/lastmile_qr_scan", "android": "https://dc.lft.to/lastmile_qr_scan"}, "fusion_lon": 0.0, "type": "electric_bike", "bike_id": "dc4bf98298ea99d7eb8c0270779b7f96", "name": "dc4bf98298ea99d7eb8c0270779b7f96"}, {"lon": -77.02576116666667, "is_disabled": 0, "lat": 38.91484766666667, "fusion_lat": 0.0, "is_reserved": 0, "rental_uris": {"ios": "https://dc.lft.to/lastmile_qr_scan", "android": "https://dc.lft.to/lastmile_qr_scan"}, "fusion_lon": 0.0, "type": "electric_scooter", "bike_id": "8ef250c1d1f7d52bf90f72ad02106867", "name": "8ef250c1d1f7d52bf90f72ad02106867"}, {"lon": -76.958675, "is_disabled": 0, "lat": 38.8756655, "fusion_lat": 0.0, "is_reserved": 0, "rental_uris": {"ios": "https://dc.lft.to/lastmile_qr_scan", "android": "https://dc.lft.to/lastmile_qr_scan"}, "fusion_lon": 0.0, "type": "electric_scooter", "bike_id": "f59f8130d65cb2862f30c463dd3b916e", "name": "f59f8130d65cb2862f30c463dd3b916e"}, {"lon": -77.0483335, "is_disabled": 0, "lat": 38.89836416666667, "fusion_lat": 0.0, "is_reserved": 0, "rental_uris": {"ios": "https://dc.lft.to/lastmile_qr_scan", "android": "https://dc.lft.to/lastmile_qr_scan"}, "fusion_lon": 0.0, "type": "electric_scooter", "bike_id": "7cd0412d048f6dd8e279dfc7f72110cf", "name": "7cd0412d048f6dd8e279dfc7f72110cf"}, {"lon": -77.0138625, "is_disabled": 0, "lat": 38.919473833333335, "fusion_lat": 0.0, "is_reserved": 0, "rental_uris": {"ios": "https://dc.lft.to/lastmile_qr_scan", "android": "https://dc.lft.to/lastmile_qr_scan"}, "fusion_lon": 0.0, "type": "electric_scooter", "bike_id": "02ce9e028a784e1ebc2fec9984fb14df", "name": "02ce9e028a784e1ebc2fec9984fb14df"}, {"lon": -77.02612916666666, "is_disabled": 0, "lat": 38.91410533333333, "fusion_lat": 0.0, "is_reserved": 0, "rental_uris": {"ios": "https://dc.lft.to/lastmile_qr_scan", "android": "https://dc.lft.to/lastmile_qr_scan"}, "fusion_lon": 0.0, "type": "electric_scooter", "bike_id": "8d810c64362b0bbea1bb3bd06e981096", "name": "8d810c64362b0bbea1bb3bd06e981096"}, {"lon": -76.99806383333333, "is_disabled": 0, "lat": 38.90850916666667, "fusion_lat": 0.0, "is_reserved": 0, "rental_uris": {"ios": "https://dc.lft.to/lastmile_qr_scan", "android": "https://dc.lft.to/lastmile_qr_scan"}, "fusion_lon": 0.0, "type": "electric_scooter", "bike_id": "c832322b9bbca6c50ef3590310d0b6dd", "name": "c832322b9bbca6c50ef3590310d0b6dd"}, {"lon": -77.0424205, "is_disabled": 0, "lat": 38.908358166666666, "fusion_lat": 0.0, "is_reserved": 0, "rental_uris": {"ios": "https://dc.lft.to/lastmile_qr_scan", "android": "https://dc.lft.to/lastmile_qr_scan"}, "fusion_lon": 0.0, "type": "electric_scooter", "bike_id": "5e155a50288cd0619b35b7f0a94adde1", "name": "5e155a50288cd0619b35b7f0a94adde1"}, {"lon": -77.06391833333333, "is_disabled": 0, "lat": 38.944169333333335, "fusion_lat": 0.0, "is_reserved": 0, "rental_uris": {"ios": "https://dc.lft.to/lastmile_qr_scan", "android": "https://dc.lft.to/lastmile_qr_scan"}, "fusion_lon": 0.0, "type": "electric_scooter", "bike_id": "fa52cb96048c13b44dcc21df6d045a6e", "name": "fa52cb96048c13b44dcc21df6d045a6e"}, {"lon": -77.02211, "is_disabled": 0, "lat": 38.929917, "fusion_lat": 0.0, "is_reserved": 0, "rental_uris": {"ios": "https://dc.lft.to/lastmile_qr_scan", "android": "https://dc.lft.to/lastmile_qr_scan"}, "fusion_lon": 0.0, "type": "electric_scooter", "bike_id": "fe21a9535ac744c49892b3c33aab26b0", "name": "fe21a9535ac744c49892b3c33aab26b0"}, {"lon": -77.02293566666667, "is_disabled": 0, "lat": 38.915851, "fusion_lat": 0.0, "is_reserved": 0, "rental_uris": {"ios": "https://dc.lft.to/lastmile_qr_scan", "android": "https://dc.lft.to/lastmile_qr_scan"}, "fusion_lon": 0.0, "type": "electric_scooter", "bike_id": "2f9a1a67cb76a781beaae99de31d0f52", "name": "2f9a1a67cb76a781beaae99de31d0f52"}, {"lon": -77.001943, "is_disabled": 0, "lat": 38.9003685, "fusion_lat": 0.0, "is_reserved": 0, "rental_uris": {"ios": "https://dc.lft.to/lastmile_qr_scan", "android": "https://dc.lft.to/lastmile_qr_scan"}, "fusion_lon": 0.0, "type": "electric_scooter", "bike_id": "498df1b8b84045f32edeec42a940a430", "name": "498df1b8b84045f32edeec42a940a430"}, {"lon": -77.01915733333334, "is_disabled": 0, "lat": 38.937740166666664, "fusion_lat": 0.0, "is_reserved": 0, "rental_uris": {"ios": "https://dc.lft.to/lastmile_qr_scan", "android": "https://dc.lft.to/lastmile_qr_scan"}, "fusion_lon": 0.0, "type": "electric_bike", "bike_id": "8b15d64c7fcda69485ffa8b584f1b8e2", "name": "8b15d64c7fcda69485ffa8b584f1b8e2"}, {"lon": -77.02172516666667, "is_disabled": 0, "lat": 38.9103235, "fusion_lat": 0.0, "is_reserved": 0, "rental_uris": {"ios": "https://dc.lft.to/lastmile_qr_scan", "android": "https://dc.lft.to/lastmile_qr_scan"}, "fusion_lon": 0.0, "type": "electric_scooter", "bike_id": "bb85a13eb720e6d8c44de2b8950b98b4", "name": "bb85a13eb720e6d8c44de2b8950b98b4"}, {"lon": -77.08091366666666, "is_disabled": 0, "lat": 38.950919, "fusion_lat": 0.0, "is_reserved": 0, "rental_uris": {"ios": "https://dc.lft.to/lastmile_qr_scan", "android": "https://dc.lft.to/lastmile_qr_scan"}, "fusion_lon": 0.0, "type": "electric_bike", "bike_id": "accb0227cb8d1bf97be42e6c5ebd2000", "name": "accb0227cb8d1bf97be42e6c5ebd2000"}, {"lon": -77.02450966666666, "is_disabled": 0, "lat": 38.94815716666667, "fusion_lat": 0.0, "is_reserved": 0, "rental_uris": {"ios": "https://dc.lft.to/lastmile_qr_scan", "android": "https://dc.lft.to/lastmile_qr_scan"}, "fusion_lon": 0.0, "type": "electric_scooter", "bike_id": "e3804fa37bb42e748124d787e3d7b612", "name": "e3804fa37bb42e748124d787e3d7b612"}, {"lon": -77.023756, "is_disabled": 0, "lat": 38.90198516666667, "fusion_lat": 0.0, "is_reserved": 0, "rental_uris": {"ios": "https://dc.lft.to/lastmile_qr_scan", "android": "https://dc.lft.to/lastmile_qr_scan"}, "fusion_lon": 0.0, "type": "electric_scooter", "bike_id": "56b8031dc7b8f6d3c80a8c8ab9cb3f26", "name": "56b8031dc7b8f6d3c80a8c8ab9cb3f26"}, {"lon": -77.006705, "is_disabled": 0, "lat": 38.90007383333333, "fusion_lat": 0.0, "is_reserved": 0, "rental_uris": {"ios": "https://dc.lft.to/lastmile_qr_scan", "android": "https://dc.lft.to/lastmile_qr_scan"}, "fusion_lon": 0.0, "type": "electric_scooter", "bike_id": "0a01dece6254d3e7ece2d967dbf656ef", "name": "0a01dece6254d3e7ece2d967dbf656ef"}, {"lon": -77.04268666666667, "is_disabled": 0, "lat": 38.90855216666667, "fusion_lat": 0.0, "is_reserved": 0, "rental_uris": {"ios": "https://dc.lft.to/lastmile_qr_scan", "android": "https://dc.lft.to/lastmile_qr_scan"}, "fusion_lon": 0.0, "type": "electric_scooter", "bike_id": "3625e6c398dca151b25632ac8a4a0a13", "name": "3625e6c398dca151b25632ac8a4a0a13"}, {"lon": -77.0148965, "is_disabled": 0, "lat": 38.892234333333334, "fusion_lat": 0.0, "is_reserved": 0, "rental_uris": {"ios": "https://dc.lft.to/lastmile_qr_scan", "android": "https://dc.lft.to/lastmile_qr_scan"}, "fusion_lon": 0.0, "type": "electric_scooter", "bike_id": "8da1a545ba51aa9858904d854c14f227", "name": "8da1a545ba51aa9858904d854c14f227"}, {"lon": -76.98031933333333, "is_disabled": 0, "lat": 38.90789866666667, "fusion_lat": 0.0, "is_reserved": 0, "rental_uris": {"ios": "https://dc.lft.to/lastmile_qr_scan", "android": "https://dc.lft.to/lastmile_qr_scan"}, "fusion_lon": 0.0, "type": "electric_scooter", "bike_id": "7a5add8b9bc33ccde0db843b81cd2ced", "name": "7a5add8b9bc33ccde0db843b81cd2ced"}, {"lon": -77.02309833333334, "is_disabled": 0, "lat": 38.91773933333333, "fusion_lat": 0.0, "is_reserved": 0, "rental_uris": {"ios": "https://dc.lft.to/lastmile_qr_scan", "android": "https://dc.lft.to/lastmile_qr_scan"}, "fusion_lon": 0.0, "type": "electric_scooter", "bike_id": "41d5ddce39de9b6dd177eb4a0dd3ae9e", "name": "41d5ddce39de9b6dd177eb4a0dd3ae9e"}, {"lon": -77.031939, "is_disabled": 0, "lat": 38.897838166666666, "fusion_lat": 0.0, "is_reserved": 0, "rental_uris": {"ios": "https://dc.lft.to/lastmile_qr_scan", "android": "https://dc.lft.to/lastmile_qr_scan"}, "fusion_lon": 0.0, "type": "electric_scooter", "bike_id": "c5dc37b6fb89f8485b6d36aff620d994", "name": "c5dc37b6fb89f8485b6d36aff620d994"}, {"lon": -77.05912133333334, "is_disabled": 0, "lat": 38.90157816666667, "fusion_lat": 0.0, "is_reserved": 0, "rental_uris": {"ios": "https://dc.lft.to/lastmile_qr_scan", "android": "https://dc.lft.to/lastmile_qr_scan"}, "fusion_lon": 0.0, "type": "electric_scooter", "bike_id": "228d78e13c69719e0dc410323c85d34f", "name": "228d78e13c69719e0dc410323c85d34f"}, {"lon": -77.02715183333333, "is_disabled": 0, "lat": 38.90711433333333, "fusion_lat": 0.0, "is_reserved": 0, "rental_uris": {"ios": "https://dc.lft.to/lastmile_qr_scan", "android": "https://dc.lft.to/lastmile_qr_scan"}, "fusion_lon": 0.0, "type": "electric_scooter", "bike_id": "80f3b979bb071a3314b960752c203f2a", "name": "80f3b979bb071a3314b960752c203f2a"}, {"lon": -77.04766133333334, "is_disabled": 0, "lat": 38.917629166666664, "fusion_lat": 0.0, "is_reserved": 0, "rental_uris": {"ios": "https://dc.lft.to/lastmile_qr_scan", "android": "https://dc.lft.to/lastmile_qr_scan"}, "fusion_lon": 0.0, "type": "electric_scooter", "bike_id": "8062e349e720818d794b56cfbde9dddf", "name": "8062e349e720818d794b56cfbde9dddf"}, {"lon": -77.04161683333334, "is_disabled": 0, "lat": 38.9066105, "fusion_lat": 0.0, "is_reserved": 0, "rental_uris": {"ios": "https://dc.lft.to/lastmile_qr_scan", "android": "https://dc.lft.to/lastmile_qr_scan"}, "fusion_lon": 0.0, "type": "electric_scooter", "bike_id": "c249e9b7a42570fc4ed091bde9350b21", "name": "c249e9b7a42570fc4ed091bde9350b21"}, {"lon": -76.94248816666666, "is_disabled": 0, "lat": 38.897363166666665, "fusion_lat": 0.0, "is_reserved": 0, "rental_uris": {"ios": "https://dc.lft.to/lastmile_qr_scan", "android": "https://dc.lft.to/lastmile_qr_scan"}, "fusion_lon": 0.0, "type": "electric_bike", "bike_id": "8dc754ce260b40ee1edfea76d55483bd", "name": "8dc754ce260b40ee1edfea76d55483bd"}, {"lon": -77.00419733333334, "is_disabled": 0, "lat": 38.906066333333335, "fusion_lat": 0.0, "is_reserved": 0, "rental_uris": {"ios": "https://dc.lft.to/lastmile_qr_scan", "android": "https://dc.lft.to/lastmile_qr_scan"}, "fusion_lon": 0.0, "type": "electric_scooter", "bike_id": "9721bcd7ea7eae5ee8ae2e22243ea556", "name": "9721bcd7ea7eae5ee8ae2e22243ea556"}, {"lon": -77.013246, "is_disabled": 0, "lat": 38.92955166666667, "fusion_lat": 0.0, "is_reserved": 0, "rental_uris": {"ios": "https://dc.lft.to/lastmile_qr_scan", "android": "https://dc.lft.to/lastmile_qr_scan"}, "fusion_lon": 0.0, "type": "electric_bike", "bike_id": "2c722a9cd2e9da9047f4807901043da1", "name": "2c722a9cd2e9da9047f4807901043da1"}, {"lon": -76.98717883333333, "is_disabled": 0, "lat": 38.86625633333333, "fusion_lat": 0.0, "is_reserved": 0, "rental_uris": {"ios": "https://dc.lft.to/lastmile_qr_scan", "android": "https://dc.lft.to/lastmile_qr_scan"}, "fusion_lon": 0.0, "type": "electric_scooter", "bike_id": "8815d805549be71f81542fc260abb377", "name": "8815d805549be71f81542fc260abb377"}, {"lon": -77.04834516666666, "is_disabled": 0, "lat": 38.916073, "fusion_lat": 0.0, "is_reserved": 0, "rental_uris": {"ios": "https://dc.lft.to/lastmile_qr_scan", "android": "https://dc.lft.to/lastmile_qr_scan"}, "fusion_lon": 0.0, "type": "electric_scooter", "bike_id": "8d9d83c30b2d9779c1a1f8dacfdb5aa7", "name": "8d9d83c30b2d9779c1a1f8dacfdb5aa7"}, {"lon": -77.02394816666667, "is_disabled": 0, "lat": 38.905657166666664, "fusion_lat": 0.0, "is_reserved": 0, "rental_uris": {"ios": "https://dc.lft.to/lastmile_qr_scan", "android": "https://dc.lft.to/lastmile_qr_scan"}, "fusion_lon": 0.0, "type": "electric_scooter", "bike_id": "9cc4ce229d81b65bd43b34db74afa262", "name": "9cc4ce229d81b65bd43b34db74afa262"}, {"lon": -77.022983, "is_disabled": 0, "lat": 38.896926666666666, "fusion_lat": 0.0, "is_reserved": 0, "rental_uris": {"ios": "https://dc.lft.to/lastmile_qr_scan", "android": "https://dc.lft.to/lastmile_qr_scan"}, "fusion_lon": 0.0, "type": "electric_scooter", "bike_id": "618bd33f21deb6e1c366769d6b2d2d99", "name": "618bd33f21deb6e1c366769d6b2d2d99"}, {"lon": -76.98572, "is_disabled": 0, "lat": 38.86686183333333, "fusion_lat": 0.0, "is_reserved": 0, "rental_uris": {"ios": "https://dc.lft.to/lastmile_qr_scan", "android": "https://dc.lft.to/lastmile_qr_scan"}, "fusion_lon": 0.0, "type": "electric_scooter", "bike_id": "97f229c2250938cbb7c38c59517f4621", "name": "97f229c2250938cbb7c38c59517f4621"}, {"lon": -77.01363466666666, "is_disabled": 0, "lat": 38.886377333333336, "fusion_lat": 0.0, "is_reserved": 0, "rental_uris": {"ios": "https://dc.lft.to/lastmile_qr_scan", "android": "https://dc.lft.to/lastmile_qr_scan"}, "fusion_lon": 0.0, "type": "electric_scooter", "bike_id": "9656657969a93e4005d198bf44d6ece4", "name": "9656657969a93e4005d198bf44d6ece4"}, {"lon": -77.02895566666666, "is_disabled": 0, "lat": 38.90136833333333, "fusion_lat": 0.0, "is_reserved": 0, "rental_uris": {"ios": "https://dc.lft.to/lastmile_qr_scan", "android": "https://dc.lft.to/lastmile_qr_scan"}, "fusion_lon": 0.0, "type": "electric_scooter", "bike_id": "2541b6709db14bba738a37bfc634f60f", "name": "2541b6709db14bba738a37bfc634f60f"}, {"lon": -77.02159166666667, "is_disabled": 0, "lat": 38.92605416666667, "fusion_lat": 0.0, "is_reserved": 0, "rental_uris": {"ios": "https://dc.lft.to/lastmile_qr_scan", "android": "https://dc.lft.to/lastmile_qr_scan"}, "fusion_lon": 0.0, "type": "electric_scooter", "bike_id": "3c8ee97b7fa201b8a6ea12558f8f4cf7", "name": "3c8ee97b7fa201b8a6ea12558f8f4cf7"}, {"lon": -77.00341033333333, "is_disabled": 0, "lat": 38.894623833333334, "fusion_lat": 0.0, "is_reserved": 0, "rental_uris": {"ios": "https://dc.lft.to/lastmile_qr_scan", "android": "https://dc.lft.to/lastmile_qr_scan"}, "fusion_lon": 0.0, "type": "electric_scooter", "bike_id": "65b4522574bfc446e99d9068a33f9904", "name": "65b4522574bfc446e99d9068a33f9904"}, {"lon": -77.04135416666666, "is_disabled": 0, "lat": 38.900091833333335, "fusion_lat": 0.0, "is_reserved": 0, "rental_uris": {"ios": "https://dc.lft.to/lastmile_qr_scan", "android": "https://dc.lft.to/lastmile_qr_scan"}, "fusion_lon": 0.0, "type": "electric_scooter", "bike_id": "894b35c25db1f6682b396084980825a6", "name": "894b35c25db1f6682b396084980825a6"}, {"lon": -76.99800583333334, "is_disabled": 0, "lat": 38.90877183333333, "fusion_lat": 0.0, "is_reserved": 0, "rental_uris": {"ios": "https://dc.lft.to/lastmile_qr_scan", "android": "https://dc.lft.to/lastmile_qr_scan"}, "fusion_lon": 0.0, "type": "electric_scooter", "bike_id": "ea7ea68c504883c8bcc172779afed953", "name": "ea7ea68c504883c8bcc172779afed953"}, {"lon": -76.985154, "is_disabled": 0, "lat": 38.903459833333336, "fusion_lat": 0.0, "is_reserved": 0, "rental_uris": {"ios": "https://dc.lft.to/lastmile_qr_scan", "android": "https://dc.lft.to/lastmile_qr_scan"}, "fusion_lon": 0.0, "type": "electric_scooter", "bike_id": "c2a667807692c35185bf57deb85dd83f", "name": "c2a667807692c35185bf57deb85dd83f"}, {"lon": -77.04281666666667, "is_disabled": 0, "lat": 38.91559683333333, "fusion_lat": 0.0, "is_reserved": 0, "rental_uris": {"ios": "https://dc.lft.to/lastmile_qr_scan", "android": "https://dc.lft.to/lastmile_qr_scan"}, "fusion_lon": 0.0, "type": "electric_scooter", "bike_id": "0a5ca6da0836522d475c0d5581397ea9", "name": "0a5ca6da0836522d475c0d5581397ea9"}, {"lon": -77.021697, "is_disabled": 0, "lat": 38.901943333333335, "fusion_lat": 0.0, "is_reserved": 0, "rental_uris": {"ios": "https://dc.lft.to/lastmile_qr_scan", "android": "https://dc.lft.to/lastmile_qr_scan"}, "fusion_lon": 0.0, "type": "electric_scooter", "bike_id": "94503c444701943045dd5207789ca673", "name": "94503c444701943045dd5207789ca673"}, {"lon": -77.03316933333333, "is_disabled": 0, "lat": 38.92145716666667, "fusion_lat": 0.0, "is_reserved": 0, "rental_uris": {"ios": "https://dc.lft.to/lastmile_qr_scan", "android": "https://dc.lft.to/lastmile_qr_scan"}, "fusion_lon": 0.0, "type": "electric_scooter", "bike_id": "e4dbbec7df98e596a1cc4daa0dca0c38", "name": "e4dbbec7df98e596a1cc4daa0dca0c38"}, {"lon": -77.022776, "is_disabled": 0, "lat": 38.91413283333333, "fusion_lat": 0.0, "is_reserved": 0, "rental_uris": {"ios": "https://dc.lft.to/lastmile_qr_scan", "android": "https://dc.lft.to/lastmile_qr_scan"}, "fusion_lon": 0.0, "type": "electric_scooter", "bike_id": "53621c25b9b0a9b29ed572300cb21f58", "name": "53621c25b9b0a9b29ed572300cb21f58"}, {"lon": -77.02684766666667, "is_disabled": 0, "lat": 38.89731583333333, "fusion_lat": 0.0, "is_reserved": 0, "rental_uris": {"ios": "https://dc.lft.to/lastmile_qr_scan", "android": "https://dc.lft.to/lastmile_qr_scan"}, "fusion_lon": 0.0, "type": "electric_scooter", "bike_id": "c5f6244850f41e7918cf21015c88bc7b", "name": "c5f6244850f41e7918cf21015c88bc7b"}, {"lon": -77.028376, "is_disabled": 0, "lat": 38.887268666666664, "fusion_lat": 0.0, "is_reserved": 0, "rental_uris": {"ios": "https://dc.lft.to/lastmile_qr_scan", "android": "https://dc.lft.to/lastmile_qr_scan"}, "fusion_lon": 0.0, "type": "electric_scooter", "bike_id": "c735e9d96bb5e18bf8aa5c29b8ff91e3", "name": "c735e9d96bb5e18bf8aa5c29b8ff91e3"}, {"lon": -77.005367, "is_disabled": 0, "lat": 38.905539166666664, "fusion_lat": 0.0, "is_reserved": 0, "rental_uris": {"ios": "https://dc.lft.to/lastmile_qr_scan", "android": "https://dc.lft.to/lastmile_qr_scan"}, "fusion_lon": 0.0, "type": "electric_scooter", "bike_id": "3f7da32204826445d8ec94156730f699", "name": "3f7da32204826445d8ec94156730f699"}, {"lon": -77.05884783333333, "is_disabled": 0, "lat": 38.93634733333333, "fusion_lat": 0.0, "is_reserved": 0, "rental_uris": {"ios": "https://dc.lft.to/lastmile_qr_scan", "android": "https://dc.lft.to/lastmile_qr_scan"}, "fusion_lon": 0.0, "type": "electric_scooter", "bike_id": "e2ee36fa84ab2bdc93c1c92c992ef57d", "name": "e2ee36fa84ab2bdc93c1c92c992ef57d"}, {"lon": -77.03168716666667, "is_disabled": 0, "lat": 38.919089666666665, "fusion_lat": 0.0, "is_reserved": 0, "rental_uris": {"ios": "https://dc.lft.to/lastmile_qr_scan", "android": "https://dc.lft.to/lastmile_qr_scan"}, "fusion_lon": 0.0, "type": "electric_scooter", "bike_id": "545303ac50d84aa65cdba8e6ea5da28a", "name": "545303ac50d84aa65cdba8e6ea5da28a"}, {"lon": -77.00123133333334, "is_disabled": 0, "lat": 38.83578216666667, "fusion_lat": 0.0, "is_reserved": 0, "rental_uris": {"ios": "https://dc.lft.to/lastmile_qr_scan", "android": "https://dc.lft.to/lastmile_qr_scan"}, "fusion_lon": 0.0, "type": "electric_scooter", "bike_id": "eaf228984ef6859ffee7632827437968", "name": "eaf228984ef6859ffee7632827437968"}, {"lon": -77.03200566666666, "is_disabled": 0, "lat": 38.920077166666665, "fusion_lat": 0.0, "is_reserved": 0, "rental_uris": {"ios": "https://dc.lft.to/lastmile_qr_scan", "android": "https://dc.lft.to/lastmile_qr_scan"}, "fusion_lon": 0.0, "type": "electric_scooter", "bike_id": "bcb960616de820adbf0f0e0b341e01ff", "name": "bcb960616de820adbf0f0e0b341e01ff"}, {"lon": -77.022011, "is_disabled": 0, "lat": 38.91124466666667, "fusion_lat": 0.0, "is_reserved": 0, "rental_uris": {"ios": "https://dc.lft.to/lastmile_qr_scan", "android": "https://dc.lft.to/lastmile_qr_scan"}, "fusion_lon": 0.0, "type": "electric_scooter", "bike_id": "250299262df49355faf6c44ca2ecc2fd", "name": "250299262df49355faf6c44ca2ecc2fd"}, {"lon": -77.02623666666666, "is_disabled": 0, "lat": 38.8962785, "fusion_lat": 0.0, "is_reserved": 0, "rental_uris": {"ios": "https://dc.lft.to/lastmile_qr_scan", "android": "https://dc.lft.to/lastmile_qr_scan"}, "fusion_lon": 0.0, "type": "electric_scooter", "bike_id": "5840cab26d680b2f3766a8aaab4aff27", "name": "5840cab26d680b2f3766a8aaab4aff27"}, {"lon": -77.028245, "is_disabled": 0, "lat": 38.893395, "fusion_lat": 0.0, "is_reserved": 0, "rental_uris": {"ios": "https://dc.lft.to/lastmile_qr_scan", "android": "https://dc.lft.to/lastmile_qr_scan"}, "fusion_lon": 0.0, "type": "electric_scooter", "bike_id": "3661cf6385067b8cd01c52e290781fd5", "name": "3661cf6385067b8cd01c52e290781fd5"}, {"lon": -77.01948366666667, "is_disabled": 0, "lat": 38.924197166666666, "fusion_lat": 0.0, "is_reserved": 0, "rental_uris": {"ios": "https://dc.lft.to/lastmile_qr_scan", "android": "https://dc.lft.to/lastmile_qr_scan"}, "fusion_lon": 0.0, "type": "electric_scooter", "bike_id": "2da740f3f3d4ad649a44477532a6950f", "name": "2da740f3f3d4ad649a44477532a6950f"}, {"lon": -77.03622283333333, "is_disabled": 0, "lat": 38.9316175, "fusion_lat": 0.0, "is_reserved": 0, "rental_uris": {"ios": "https://dc.lft.to/lastmile_qr_scan", "android": "https://dc.lft.to/lastmile_qr_scan"}, "fusion_lon": 0.0, "type": "electric_scooter", "bike_id": "d67411c9d45c27a338767b994e6f2b58", "name": "d67411c9d45c27a338767b994e6f2b58"}, {"lon": -77.01385233333333, "is_disabled": 0, "lat": 38.919065833333335, "fusion_lat": 0.0, "is_reserved": 0, "rental_uris": {"ios": "https://dc.lft.to/lastmile_qr_scan", "android": "https://dc.lft.to/lastmile_qr_scan"}, "fusion_lon": 0.0, "type": "electric_scooter", "bike_id": "58966ac099c11854e8f8485102834294", "name": "58966ac099c11854e8f8485102834294"}, {"lon": -77.029984, "is_disabled": 0, "lat": 38.89736666666667, "fusion_lat": 0.0, "is_reserved": 0, "rental_uris": {"ios": "https://dc.lft.to/lastmile_qr_scan", "android": "https://dc.lft.to/lastmile_qr_scan"}, "fusion_lon": 0.0, "type": "electric_scooter", "bike_id": "f5ac6f4ab74339f817bb8edb6ebb5455", "name": "f5ac6f4ab74339f817bb8edb6ebb5455"}, {"lon": -76.94827616666667, "is_disabled": 0, "lat": 38.88411833333333, "fusion_lat": 0.0, "is_reserved": 0, "rental_uris": {"ios": "https://dc.lft.to/lastmile_qr_scan", "android": "https://dc.lft.to/lastmile_qr_scan"}, "fusion_lon": 0.0, "type": "electric_scooter", "bike_id": "7600526f3d21db649eab7b7820f52f22", "name": "7600526f3d21db649eab7b7820f52f22"}, {"lon": -77.0237615, "is_disabled": 0, "lat": 38.891935833333335, "fusion_lat": 0.0, "is_reserved": 0, "rental_uris": {"ios": "https://dc.lft.to/lastmile_qr_scan", "android": "https://dc.lft.to/lastmile_qr_scan"}, "fusion_lon": 0.0, "type": "electric_scooter", "bike_id": "df6bdec0ca235d8b6a5bc5ee2d5d94c4", "name": "df6bdec0ca235d8b6a5bc5ee2d5d94c4"}, {"lon": -77.03481683333334, "is_disabled": 0, "lat": 38.92340683333333, "fusion_lat": 0.0, "is_reserved": 0, "rental_uris": {"ios": "https://dc.lft.to/lastmile_qr_scan", "android": "https://dc.lft.to/lastmile_qr_scan"}, "fusion_lon": 0.0, "type": "electric_scooter", "bike_id": "2d2fb0c662f99cc3a310a7df028e6927", "name": "2d2fb0c662f99cc3a310a7df028e6927"}, {"lon": -77.04292433333333, "is_disabled": 0, "lat": 38.8309775, "fusion_lat": 0.0, "is_reserved": 0, "rental_uris": {"ios": "https://dc.lft.to/lastmile_qr_scan", "android": "https://dc.lft.to/lastmile_qr_scan"}, "fusion_lon": 0.0, "type": "electric_bike", "bike_id": "0016f7a479c93da5872e3364ec62c918", "name": "0016f7a479c93da5872e3364ec62c918"}, {"lon": -77.05740966666667, "is_disabled": 0, "lat": 38.933987, "fusion_lat": 0.0, "is_reserved": 0, "rental_uris": {"ios": "https://dc.lft.to/lastmile_qr_scan", "android": "https://dc.lft.to/lastmile_qr_scan"}, "fusion_lon": 0.0, "type": "electric_scooter", "bike_id": "c78f89937c9ab89a9bb0177ae743a10a", "name": "c78f89937c9ab89a9bb0177ae743a10a"}, {"lon": -76.96050983333333, "is_disabled": 0, "lat": 38.88397033333333, "fusion_lat": 0.0, "is_reserved": 0, "rental_uris": {"ios": "https://dc.lft.to/lastmile_qr_scan", "android": "https://dc.lft.to/lastmile_qr_scan"}, "fusion_lon": 0.0, "type": "electric_bike", "bike_id": "96fb9668c8758a2550597b45bb12a629", "name": "96fb9668c8758a2550597b45bb12a629"}, {"lon": -77.033343, "is_disabled": 0, "lat": 38.9287105, "fusion_lat": 0.0, "is_reserved": 0, "rental_uris": {"ios": "https://dc.lft.to/lastmile_qr_scan", "android": "https://dc.lft.to/lastmile_qr_scan"}, "fusion_lon": 0.0, "type": "electric_scooter", "bike_id": "fccd91aec1168d691045c06155e94c51", "name": "fccd91aec1168d691045c06155e94c51"}, {"lon": -77.03177333333333, "is_disabled": 0, "lat": 38.90936383333333, "fusion_lat": 0.0, "is_reserved": 0, "rental_uris": {"ios": "https://dc.lft.to/lastmile_qr_scan", "android": "https://dc.lft.to/lastmile_qr_scan"}, "fusion_lon": 0.0, "type": "electric_scooter", "bike_id": "8a8e57bb98f8acce424be0e7b5286c41", "name": "8a8e57bb98f8acce424be0e7b5286c41"}, {"lon": -77.03633616666667, "is_disabled": 0, "lat": 38.95638533333333, "fusion_lat": 0.0, "is_reserved": 0, "rental_uris": {"ios": "https://dc.lft.to/lastmile_qr_scan", "android": "https://dc.lft.to/lastmile_qr_scan"}, "fusion_lon": 0.0, "type": "electric_scooter", "bike_id": "4ca624e31a7fe5c883220e22f6a832d3", "name": "4ca624e31a7fe5c883220e22f6a832d3"}, {"lon": -77.03869283333333, "is_disabled": 0, "lat": 38.921517, "fusion_lat": 0.0, "is_reserved": 0, "rental_uris": {"ios": "https://dc.lft.to/lastmile_qr_scan", "android": "https://dc.lft.to/lastmile_qr_scan"}, "fusion_lon": 0.0, "type": "electric_scooter", "bike_id": "2ce9fd0a3447a0e1e6c0d17226d8788e", "name": "2ce9fd0a3447a0e1e6c0d17226d8788e"}, {"lon": -77.035154, "is_disabled": 0, "lat": 38.918277333333336, "fusion_lat": 0.0, "is_reserved": 0, "rental_uris": {"ios": "https://dc.lft.to/lastmile_qr_scan", "android": "https://dc.lft.to/lastmile_qr_scan"}, "fusion_lon": 0.0, "type": "electric_scooter", "bike_id": "f5b03e1b6babbfced0caab6834969f16", "name": "f5b03e1b6babbfced0caab6834969f16"}, {"lon": -77.02943783333333, "is_disabled": 0, "lat": 38.898025833333335, "fusion_lat": 0.0, "is_reserved": 0, "rental_uris": {"ios": "https://dc.lft.to/lastmile_qr_scan", "android": "https://dc.lft.to/lastmile_qr_scan"}, "fusion_lon": 0.0, "type": "electric_scooter", "bike_id": "62c7e95717d95ca8283186e8d236d054", "name": "62c7e95717d95ca8283186e8d236d054"}, {"lon": -77.00371966666667, "is_disabled": 0, "lat": 38.90558816666667, "fusion_lat": 0.0, "is_reserved": 0, "rental_uris": {"ios": "https://dc.lft.to/lastmile_qr_scan", "android": "https://dc.lft.to/lastmile_qr_scan"}, "fusion_lon": 0.0, "type": "electric_scooter", "bike_id": "4b52f70d2ba8651b888b171f209cec8d", "name": "4b52f70d2ba8651b888b171f209cec8d"}, {"lon": -77.117543, "is_disabled": 0, "lat": 39.051009, "fusion_lat": 0.0, "is_reserved": 0, "rental_uris": {"ios": "https://dc.lft.to/lastmile_qr_scan", "android": "https://dc.lft.to/lastmile_qr_scan"}, "fusion_lon": 0.0, "type": "electric_bike", "bike_id": "273ef4e753a00044897c30968bde1da8", "name": "273ef4e753a00044897c30968bde1da8"}, {"lon": -77.0020025, "is_disabled": 0, "lat": 38.89105166666667, "fusion_lat": 0.0, "is_reserved": 0, "rental_uris": {"ios": "https://dc.lft.to/lastmile_qr_scan", "android": "https://dc.lft.to/lastmile_qr_scan"}, "fusion_lon": 0.0, "type": "electric_scooter", "bike_id": "cab0c272aab9fc000b263549b12103ae", "name": "cab0c272aab9fc000b263549b12103ae"}, {"lon": -77.07116483333333, "is_disabled": 0, "lat": 38.89689966666667, "fusion_lat": 0.0, "is_reserved": 0, "rental_uris": {"ios": "https://dc.lft.to/lastmile_qr_scan", "android": "https://dc.lft.to/lastmile_qr_scan"}, "fusion_lon": 0.0, "type": "electric_scooter", "bike_id": "cb5af7af8ec9a5f5a98443185ee2221d", "name": "cb5af7af8ec9a5f5a98443185ee2221d"}, {"lon": -77.03918833333333, "is_disabled": 0, "lat": 38.928754833333336, "fusion_lat": 0.0, "is_reserved": 0, "rental_uris": {"ios": "https://dc.lft.to/lastmile_qr_scan", "android": "https://dc.lft.to/lastmile_qr_scan"}, "fusion_lon": 0.0, "type": "electric_scooter", "bike_id": "d3ae0ba6ed0d7e64db1eb18a6a0398ae", "name": "d3ae0ba6ed0d7e64db1eb18a6a0398ae"}, {"lon": -77.03285116666666, "is_disabled": 0, "lat": 38.919777833333335, "fusion_lat": 0.0, "is_reserved": 0, "rental_uris": {"ios": "https://dc.lft.to/lastmile_qr_scan", "android": "https://dc.lft.to/lastmile_qr_scan"}, "fusion_lon": 0.0, "type": "electric_scooter", "bike_id": "d8c2941aa25eca0ff8e4ac2c44f69bb2", "name": "d8c2941aa25eca0ff8e4ac2c44f69bb2"}, {"lon": -76.98716966666667, "is_disabled": 0, "lat": 38.866244333333334, "fusion_lat": 0.0, "is_reserved": 0, "rental_uris": {"ios": "https://dc.lft.to/lastmile_qr_scan", "android": "https://dc.lft.to/lastmile_qr_scan"}, "fusion_lon": 0.0, "type": "electric_scooter", "bike_id": "e8f3a8e0231107d80cbccc60e5b0e245", "name": "e8f3a8e0231107d80cbccc60e5b0e245"}, {"lon": -77.00576733333334, "is_disabled": 0, "lat": 38.905313666666665, "fusion_lat": 0.0, "is_reserved": 0, "rental_uris": {"ios": "https://dc.lft.to/lastmile_qr_scan", "android": "https://dc.lft.to/lastmile_qr_scan"}, "fusion_lon": 0.0, "type": "electric_scooter", "bike_id": "b2846973263e312bdeb75fe3933d2330", "name": "b2846973263e312bdeb75fe3933d2330"}, {"lon": -77.040461, "is_disabled": 0, "lat": 38.928788, "fusion_lat": 0.0, "is_reserved": 0, "rental_uris": {"ios": "https://dc.lft.to/lastmile_qr_scan", "android": "https://dc.lft.to/lastmile_qr_scan"}, "fusion_lon": 0.0, "type": "electric_scooter", "bike_id": "aadaa78bab92d8684c1b508345bd795b", "name": "aadaa78bab92d8684c1b508345bd795b"}, {"lon": -77.08936783333333, "is_disabled": 0, "lat": 38.8877905, "fusion_lat": 0.0, "is_reserved": 0, "rental_uris": {"ios": "https://dc.lft.to/lastmile_qr_scan", "android": "https://dc.lft.to/lastmile_qr_scan"}, "fusion_lon": 0.0, "type": "electric_bike", "bike_id": "daef2ad740b6ac6ab89bea19f498198a", "name": "daef2ad740b6ac6ab89bea19f498198a"}, {"lon": -77.052103, "is_disabled": 0, "lat": 38.9247425, "fusion_lat": 0.0, "is_reserved": 0, "rental_uris": {"ios": "https://dc.lft.to/lastmile_qr_scan", "android": "https://dc.lft.to/lastmile_qr_scan"}, "fusion_lon": 0.0, "type": "electric_scooter", "bike_id": "8d2320271594b53cac432e1e84353b4d", "name": "8d2320271594b53cac432e1e84353b4d"}, {"lon": -77.03832083333333, "is_disabled": 0, "lat": 38.90778983333333, "fusion_lat": 0.0, "is_reserved": 0, "rental_uris": {"ios": "https://dc.lft.to/lastmile_qr_scan", "android": "https://dc.lft.to/lastmile_qr_scan"}, "fusion_lon": 0.0, "type": "electric_scooter", "bike_id": "6cab7863124666f5b4c15f9a33fc14d3", "name": "6cab7863124666f5b4c15f9a33fc14d3"}, {"lon": -77.01109366666667, "is_disabled": 0, "lat": 38.907796, "fusion_lat": 0.0, "is_reserved": 0, "rental_uris": {"ios": "https://dc.lft.to/lastmile_qr_scan", "android": "https://dc.lft.to/lastmile_qr_scan"}, "fusion_lon": 0.0, "type": "electric_scooter", "bike_id": "d1fdc2ac13bf21bc637c2478d8c25b6a", "name": "d1fdc2ac13bf21bc637c2478d8c25b6a"}, {"lon": -77.00576983333333, "is_disabled": 0, "lat": 38.87568783333333, "fusion_lat": 0.0, "is_reserved": 0, "rental_uris": {"ios": "https://dc.lft.to/lastmile_qr_scan", "android": "https://dc.lft.to/lastmile_qr_scan"}, "fusion_lon": 0.0, "type": "electric_scooter", "bike_id": "f23ef393e3bac6b0a065379e03d9736e", "name": "f23ef393e3bac6b0a065379e03d9736e"}, {"lon": -76.9559045, "is_disabled": 0, "lat": 38.88764533333333, "fusion_lat": 0.0, "is_reserved": 0, "rental_uris": {"ios": "https://dc.lft.to/lastmile_qr_scan", "android": "https://dc.lft.to/lastmile_qr_scan"}, "fusion_lon": 0.0, "type": "electric_scooter", "bike_id": "a7956d176a212d30084b5ce8098edf5f", "name": "a7956d176a212d30084b5ce8098edf5f"}, {"lon": -77.02551, "is_disabled": 0, "lat": 38.997374666666666, "fusion_lat": 0.0, "is_reserved": 0, "rental_uris": {"ios": "https://dc.lft.to/lastmile_qr_scan", "android": "https://dc.lft.to/lastmile_qr_scan"}, "fusion_lon": 0.0, "type": "electric_bike", "bike_id": "72c0672b8513e4808bd25c5f2a6d4d83", "name": "72c0672b8513e4808bd25c5f2a6d4d83"}, {"lon": -77.02740333333334, "is_disabled": 0, "lat": 38.89713483333333, "fusion_lat": 0.0, "is_reserved": 0, "rental_uris": {"ios": "https://dc.lft.to/lastmile_qr_scan", "android": "https://dc.lft.to/lastmile_qr_scan"}, "fusion_lon": 0.0, "type": "electric_scooter", "bike_id": "beb52557802bec782e0e73e1ff870838", "name": "beb52557802bec782e0e73e1ff870838"}, {"lon": -77.03348683333333, "is_disabled": 0, "lat": 38.91556716666667, "fusion_lat": 0.0, "is_reserved": 0, "rental_uris": {"ios": "https://dc.lft.to/lastmile_qr_scan", "android": "https://dc.lft.to/lastmile_qr_scan"}, "fusion_lon": 0.0, "type": "electric_scooter", "bike_id": "b1602fb823e66b267a5e18aeb62ba34b", "name": "b1602fb823e66b267a5e18aeb62ba34b"}, {"lon": -76.9998095, "is_disabled": 0, "lat": 38.90782816666667, "fusion_lat": 0.0, "is_reserved": 0, "rental_uris": {"ios": "https://dc.lft.to/lastmile_qr_scan", "android": "https://dc.lft.to/lastmile_qr_scan"}, "fusion_lon": 0.0, "type": "electric_scooter", "bike_id": "07ac945ba6529d6b5a3e5edd8cfa1b95", "name": "07ac945ba6529d6b5a3e5edd8cfa1b95"}, {"lon": -77.031547, "is_disabled": 0, "lat": 38.897738833333335, "fusion_lat": 0.0, "is_reserved": 0, "rental_uris": {"ios": "https://dc.lft.to/lastmile_qr_scan", "android": "https://dc.lft.to/lastmile_qr_scan"}, "fusion_lon": 0.0, "type": "electric_scooter", "bike_id": "8f5bdc321c038076f1e00d5f9b622097", "name": "8f5bdc321c038076f1e00d5f9b622097"}, {"lon": -77.029438, "is_disabled": 0, "lat": 38.8997015, "fusion_lat": 0.0, "is_reserved": 0, "rental_uris": {"ios": "https://dc.lft.to/lastmile_qr_scan", "android": "https://dc.lft.to/lastmile_qr_scan"}, "fusion_lon": 0.0, "type": "electric_scooter", "bike_id": "fc1ec69a1cf5b0f071527bce69c20fa2", "name": "fc1ec69a1cf5b0f071527bce69c20fa2"}, {"lon": -77.028204, "is_disabled": 0, "lat": 38.8862015, "fusion_lat": 0.0, "is_reserved": 0, "rental_uris": {"ios": "https://dc.lft.to/lastmile_qr_scan", "android": "https://dc.lft.to/lastmile_qr_scan"}, "fusion_lon": 0.0, "type": "electric_scooter", "bike_id": "2edb36030880f389688c7aeaee36e04c", "name": "2edb36030880f389688c7aeaee36e04c"}, {"lon": -76.9996735, "is_disabled": 0, "lat": 38.908383, "fusion_lat": 0.0, "is_reserved": 0, "rental_uris": {"ios": "https://dc.lft.to/lastmile_qr_scan", "android": "https://dc.lft.to/lastmile_qr_scan"}, "fusion_lon": 0.0, "type": "electric_scooter", "bike_id": "3d4f3b79c562f822757b1067140806c1", "name": "3d4f3b79c562f822757b1067140806c1"}, {"lon": -77.0147235, "is_disabled": 0, "lat": 38.91870016666667, "fusion_lat": 0.0, "is_reserved": 0, "rental_uris": {"ios": "https://dc.lft.to/lastmile_qr_scan", "android": "https://dc.lft.to/lastmile_qr_scan"}, "fusion_lon": 0.0, "type": "electric_scooter", "bike_id": "6881516fa507380b573bbc598383659f", "name": "6881516fa507380b573bbc598383659f"}, {"lon": -77.0468805, "is_disabled": 0, "lat": 38.892244, "fusion_lat": 0.0, "is_reserved": 0, "rental_uris": {"ios": "https://dc.lft.to/lastmile_qr_scan", "android": "https://dc.lft.to/lastmile_qr_scan"}, "fusion_lon": 0.0, "type": "electric_scooter", "bike_id": "7e93496effdd2746add17e28fa9edc25", "name": "7e93496effdd2746add17e28fa9edc25"}, {"lon": -77.06392116666666, "is_disabled": 0, "lat": 38.9441925, "fusion_lat": 0.0, "is_reserved": 0, "rental_uris": {"ios": "https://dc.lft.to/lastmile_qr_scan", "android": "https://dc.lft.to/lastmile_qr_scan"}, "fusion_lon": 0.0, "type": "electric_scooter", "bike_id": "0443a32582eff443985f91e58eff074e", "name": "0443a32582eff443985f91e58eff074e"}, {"lon": -76.94739016666666, "is_disabled": 0, "lat": 38.897345666666666, "fusion_lat": 0.0, "is_reserved": 0, "rental_uris": {"ios": "https://dc.lft.to/lastmile_qr_scan", "android": "https://dc.lft.to/lastmile_qr_scan"}, "fusion_lon": 0.0, "type": "electric_scooter", "bike_id": "f2c3b9363d38211e4a74140158e53fa9", "name": "f2c3b9363d38211e4a74140158e53fa9"}, {"lon": -77.0257805, "is_disabled": 0, "lat": 38.930969833333336, "fusion_lat": 0.0, "is_reserved": 0, "rental_uris": {"ios": "https://dc.lft.to/lastmile_qr_scan", "android": "https://dc.lft.to/lastmile_qr_scan"}, "fusion_lon": 0.0, "type": "electric_scooter", "bike_id": "b6017322781d9588f1cc9766b8bf309b", "name": "b6017322781d9588f1cc9766b8bf309b"}, {"lon": -77.02309816666667, "is_disabled": 0, "lat": 38.9289135, "fusion_lat": 0.0, "is_reserved": 0, "rental_uris": {"ios": "https://dc.lft.to/lastmile_qr_scan", "android": "https://dc.lft.to/lastmile_qr_scan"}, "fusion_lon": 0.0, "type": "electric_scooter", "bike_id": "1770a0541a1a2c3b5594865d4c27c226", "name": "1770a0541a1a2c3b5594865d4c27c226"}, {"lon": -77.03585816666667, "is_disabled": 0, "lat": 38.94243516666667, "fusion_lat": 0.0, "is_reserved": 0, "rental_uris": {"ios": "https://dc.lft.to/lastmile_qr_scan", "android": "https://dc.lft.to/lastmile_qr_scan"}, "fusion_lon": 0.0, "type": "electric_scooter", "bike_id": "23745336a686e2b76081b0efa7b252ee", "name": "23745336a686e2b76081b0efa7b252ee"}, {"lon": -77.03433516666666, "is_disabled": 0, "lat": 38.90571966666667, "fusion_lat": 0.0, "is_reserved": 0, "rental_uris": {"ios": "https://dc.lft.to/lastmile_qr_scan", "android": "https://dc.lft.to/lastmile_qr_scan"}, "fusion_lon": 0.0, "type": "electric_scooter", "bike_id": "764c61013265e2b6e96f06d2242b1a27", "name": "764c61013265e2b6e96f06d2242b1a27"}, {"lon": -77.03903833333334, "is_disabled": 0, "lat": 38.92413033333333, "fusion_lat": 0.0, "is_reserved": 0, "rental_uris": {"ios": "https://dc.lft.to/lastmile_qr_scan", "android": "https://dc.lft.to/lastmile_qr_scan"}, "fusion_lon": 0.0, "type": "electric_scooter", "bike_id": "ff0e08a4d19fc6ccb20be88888bc0cea", "name": "ff0e08a4d19fc6ccb20be88888bc0cea"}, {"lon": -77.03781616666667, "is_disabled": 0, "lat": 38.906469333333334, "fusion_lat": 0.0, "is_reserved": 0, "rental_uris": {"ios": "https://dc.lft.to/lastmile_qr_scan", "android": "https://dc.lft.to/lastmile_qr_scan"}, "fusion_lon": 0.0, "type": "electric_scooter", "bike_id": "d60876eaf6b6b49eadc4f2bc5181d52c", "name": "d60876eaf6b6b49eadc4f2bc5181d52c"}, {"lon": -77.03329166666667, "is_disabled": 0, "lat": 38.92038216666667, "fusion_lat": 0.0, "is_reserved": 0, "rental_uris": {"ios": "https://dc.lft.to/lastmile_qr_scan", "android": "https://dc.lft.to/lastmile_qr_scan"}, "fusion_lon": 0.0, "type": "electric_scooter", "bike_id": "cf77d8b82513c3b7e5a4f605ae3bc43b", "name": "cf77d8b82513c3b7e5a4f605ae3bc43b"}, {"lon": -76.95757283333333, "is_disabled": 0, "lat": 38.88427983333333, "fusion_lat": 0.0, "is_reserved": 0, "rental_uris": {"ios": "https://dc.lft.to/lastmile_qr_scan", "android": "https://dc.lft.to/lastmile_qr_scan"}, "fusion_lon": 0.0, "type": "electric_scooter", "bike_id": "070e681f010f0751ea2a7b19618a4bc5", "name": "070e681f010f0751ea2a7b19618a4bc5"}, {"lon": -77.05745883333333, "is_disabled": 0, "lat": 38.93392033333333, "fusion_lat": 0.0, "is_reserved": 0, "rental_uris": {"ios": "https://dc.lft.to/lastmile_qr_scan", "android": "https://dc.lft.to/lastmile_qr_scan"}, "fusion_lon": 0.0, "type": "electric_scooter", "bike_id": "93eb4d2fb3ea1710ed8c48ab321ee660", "name": "93eb4d2fb3ea1710ed8c48ab321ee660"}, {"lon": -77.03866266666667, "is_disabled": 0, "lat": 38.92149833333333, "fusion_lat": 0.0, "is_reserved": 0, "rental_uris": {"ios": "https://dc.lft.to/lastmile_qr_scan", "android": "https://dc.lft.to/lastmile_qr_scan"}, "fusion_lon": 0.0, "type": "electric_scooter", "bike_id": "85d9c6581e9b7f47e53248a1e819afc3", "name": "85d9c6581e9b7f47e53248a1e819afc3"}, {"lon": -77.02312116666667, "is_disabled": 0, "lat": 38.9162895, "fusion_lat": 0.0, "is_reserved": 0, "rental_uris": {"ios": "https://dc.lft.to/lastmile_qr_scan", "android": "https://dc.lft.to/lastmile_qr_scan"}, "fusion_lon": 0.0, "type": "electric_scooter", "bike_id": "f6dd4f6c6d48e074cb3f173bd5ed7804", "name": "f6dd4f6c6d48e074cb3f173bd5ed7804"}, {"lon": -77.024657, "is_disabled": 0, "lat": 38.89722166666667, "fusion_lat": 0.0, "is_reserved": 0, "rental_uris": {"ios": "https://dc.lft.to/lastmile_qr_scan", "android": "https://dc.lft.to/lastmile_qr_scan"}, "fusion_lon": 0.0, "type": "electric_scooter", "bike_id": "4e1580b2ac21f25549c56762c8bfe7ac", "name": "4e1580b2ac21f25549c56762c8bfe7ac"}, {"lon": -77.041788, "is_disabled": 0, "lat": 38.9139345, "fusion_lat": 0.0, "is_reserved": 0, "rental_uris": {"ios": "https://dc.lft.to/lastmile_qr_scan", "android": "https://dc.lft.to/lastmile_qr_scan"}, "fusion_lon": 0.0, "type": "electric_scooter", "bike_id": "bf1efa6384c039d74bb74153d3d3f1cb", "name": "bf1efa6384c039d74bb74153d3d3f1cb"}, {"lon": -77.043453, "is_disabled": 0, "lat": 38.921883, "fusion_lat": 0.0, "is_reserved": 0, "rental_uris": {"ios": "https://dc.lft.to/lastmile_qr_scan", "android": "https://dc.lft.to/lastmile_qr_scan"}, "fusion_lon": 0.0, "type": "electric_scooter", "bike_id": "79fdfede1fa9fc0752327d0647dfbe65", "name": "79fdfede1fa9fc0752327d0647dfbe65"},