{"data": {"bikes": [{"lat": 38.902429, "fusion_lat": 0.0, "type": "electric_scooter", "bike_id": "dca24e4446e9c7f38bf16c5967b10f4d", "is_reserved": 0, "rental_uris": {"ios": "https://dc.lft.to/lastmile_qr_scan", "android": "https://dc.lft.to/lastmile_qr_scan"}, "is_disabled": 0, "lon": -77.00195333333333, "name": "dca24e4446e9c7f38bf16c5967b10f4d", "fusion_lon": 0.0}, {"lat": 38.91154783333333, "fusion_lat": 0.0, "type": "electric_scooter", "bike_id": "9ecaf5af9bfbf54ec17de6a7ad1c9035", "is_reserved": 0, "rental_uris": {"ios": "https://dc.lft.to/lastmile_qr_scan", "android": "https://dc.lft.to/lastmile_qr_scan"}, "is_disabled": 0, "lon": -77.03844416666666, "name": "9ecaf5af9bfbf54ec17de6a7ad1c9035", "fusion_lon": 0.0}, {"lat": 38.908572166666666, "fusion_lat": 0.0, "type": "electric_scooter", "bike_id": "2df2845267d5d0b8b481569447ed8991", "is_reserved": 0, "rental_uris": {"ios": "https://dc.lft.to/lastmile_qr_scan", "android": "https://dc.lft.to/lastmile_qr_scan"}, "is_disabled": 0, "lon": -77.02540766666667, "name": "2df2845267d5d0b8b481569447ed8991", "fusion_lon": 0.0}, {"lat": 38.83826533333333, "fusion_lat": 0.0, "type": "electric_bike", "bike_id": "cd92cbee2fff762be067f39d0014b61b", "is_reserved": 0, "rental_uris": {"ios": "https://dc.lft.to/lastmile_qr_scan", "android": "https://dc.lft.to/lastmile_qr_scan"}, "is_disabled": 0, "lon": -77.0026045, "name": "cd92cbee2fff762be067f39d0014b61b", "fusion_lon": 0.0}, {"lat": 38.92846433333333, "fusion_lat": 0.0, "type": "electric_scooter", "bike_id": "269d63520c8d5548b4c47cf0aced2bc6", "is_reserved": 0, "rental_uris": {"ios": "https://dc.lft.to/lastmile_qr_scan", "android": "https://dc.lft.to/lastmile_qr_scan"}, "is_disabled": 0, "lon": -77.03637166666667, "name": "269d63520c8d5548b4c47cf0aced2bc6", "fusion_lon": 0.0}, {"lat": 38.889113, "fusion_lat": 0.0, "type": "electric_scooter", "bike_id": "bf83656005e13f23edad2026241e85f7", "is_reserved": 0, "rental_uris": {"ios": "https://dc.lft.to/lastmile_qr_scan", "android": "https://dc.lft.to/lastmile_qr_scan"}, "is_disabled": 0, "lon": -76.99174583333334, "name": "bf83656005e13f23edad2026241e85f7", "fusion_lon": 0.0}, {"lat": 38.90978783333333, "fusion_lat": 0.0, "type": "electric_scooter", "bike_id": "0507395b7285dd2274229d2bbf7bb049", "is_reserved": 0, "rental_uris": {"ios": "https://dc.lft.to/lastmile_qr_scan", "android": "https://dc.lft.to/lastmile_qr_scan"}, "is_disabled": 0, "lon": -77.0344235, "name": "0507395b7285dd2274229d2bbf7bb049", "fusion_lon": 0.0}, {"lat": 38.9324265, "fusion_lat": 0.0, "type": "electric_scooter", "bike_id": "137a39c940d7558dabf2b8a6633613a3", "is_reserved": 0, "rental_uris": {"ios": "https://dc.lft.to/lastmile_qr_scan", "android": "https://dc.lft.to/lastmile_qr_scan"}, "is_disabled": 0, "lon": -77.03853716666667, "name": "137a39c940d7558dabf2b8a6633613a3", "fusion_lon": 0.0}, {"lat": 38.8354845, "fusion_lat": 0.0, "type": "electric_bike", "bike_id": "2b7c1c6b87ca2e5113c10e31db503e5b", "is_reserved": 0, "rental_uris": {"ios": "https://dc.lft.to/lastmile_qr_scan", "android": "https://dc.lft.to/lastmile_qr_scan"}, "is_disabled": 0, "lon": -76.98732233333334, "name": "2b7c1c6b87ca2e5113c10e31db503e5b", "fusion_lon": 0.0}, {"lat": 38.905873666666665, "fusion_lat": 0.0, "type": "electric_scooter", "bike_id": "43b7a0774c9a06f76f14a570c997ffdb", "is_reserved": 0, "rental_uris": {"ios": "https://dc.lft.to/lastmile_qr_scan", "android": "https://dc.lft.to/lastmile_qr_scan"}, "is_disabled": 0, "lon": -77.0413405, "name": "43b7a0774c9a06f76f14a570c997ffdb", "fusion_lon": 0.0}, {"lat": 38.8971195, "fusion_lat": 0.0, "type": "electric_scooter", "bike_id": "e9094d580037e3077e0d5b52ec8540ee", "is_reserved": 0, "rental_uris": {"ios": "https://dc.lft.to/lastmile_qr_scan", "android": "https://dc.lft.to/lastmile_qr_scan"}, "is_disabled": 0, "lon": -77.03180183333333, "name": "e9094d580037e3077e0d5b52ec8540ee", "fusion_lon": 0.0}, {"lat": 38.96219333333333, "fusion_lat": 0.0, "type": "electric_bike", "bike_id": "af025ddb3241c686db8f21e8428b377e", "is_reserved": 0, "rental_uris": {"ios": "https://dc.lft.to/lastmile_qr_scan", "android": "https://dc.lft.to/lastmile_qr_scan"}, "is_disabled": 0, "lon": -77.02625433333333, "name": "af025ddb3241c686db8f21e8428b377e", "fusion_lon": 0.0}, {"lat": 38.884593333333335, "fusion_lat": 0.0, "type": "electric_scooter", "bike_id": "ae7bc6ab7e78830ebcd1ef25ea4613be", "is_reserved": 0, "rental_uris": {"ios": "https://dc.lft.to/lastmile_qr_scan", "android": "https://dc.lft.to/lastmile_qr_scan"}, "is_disabled": 0, "lon": -76.92621733333333, "name": "ae7bc6ab7e78830ebcd1ef25ea4613be", "fusion_lon": 0.0}, {"lat": 38.90601766666666, "fusion_lat": 0.0, "type": "electric_scooter", "bike_id": "f5bf5e072a81b8f70a087df3636eb85c", "is_reserved": 0, "rental_uris": {"ios": "https://dc.lft.to/lastmile_qr_scan", "android": "https://dc.lft.to/lastmile_qr_scan"}, "is_disabled": 0, "lon": -77.02111816666667, "name": "f5bf5e072a81b8f70a087df3636eb85c", "fusion_lon": 0.0}, {"lat": 38.90999566666667, "fusion_lat": 0.0, "type": "electric_scooter", "bike_id": "22d9ee32ee8ef3dbbbc025b6535a2436", "is_reserved": 0, "rental_uris": {"ios": "https://dc.lft.to/lastmile_qr_scan", "android": "https://dc.lft.to/lastmile_qr_scan"}, "is_disabled": 0, "lon": -77.043642, "name": "22d9ee32ee8ef3dbbbc025b6535a2436", "fusion_lon": 0.0}, {"lat": 38.905005, "fusion_lat": 0.0, "type": "electric_scooter", "bike_id": "921c40ac9ae705e78155eb118257b6d1", "is_reserved": 0, "rental_uris": {"ios": "https://dc.lft.to/lastmile_qr_scan", "android": "https://dc.lft.to/lastmile_qr_scan"}, "is_disabled": 0, "lon": -77.06509583333333, "name": "921c40ac9ae705e78155eb118257b6d1", "fusion_lon": 0.0}, {"lat": 38.917108666666664, "fusion_lat": 0.0, "type": "electric_scooter", "bike_id": "9c152ea4bd1c2373c899eefacf136671", "is_reserved": 0, "rental_uris": {"ios": "https://dc.lft.to/lastmile_qr_scan", "android": "https://dc.lft.to/lastmile_qr_scan"}, "is_disabled": 0, "lon": -77.034426, "name": "9c152ea4bd1c2373c899eefacf136671", "fusion_lon": 0.0}, {"lat": 38.93643616666667, "fusion_lat": 0.0, "type": "electric_scooter", "bike_id": "c094fe93f03b54ebcf49bbae7d5f75aa", "is_reserved": 0, "rental_uris": {"ios": "https://dc.lft.to/lastmile_qr_scan", "android": "https://dc.lft.to/lastmile_qr_scan"}, "is_disabled": 0, "lon": -77.0588385, "name": "c094fe93f03b54ebcf49bbae7d5f75aa", "fusion_lon": 0.0}, {"lat": 38.91603333333333, "fusion_lat": 0.0, "type": "electric_scooter", "bike_id": "df841cc5399cc87e87f0cff96cbc1d3a", "is_reserved": 0, "rental_uris": {"ios": "https://dc.lft.to/lastmile_qr_scan", "android": "https://dc.lft.to/lastmile_qr_scan"}, "is_disabled": 0, "lon": -77.03225483333334, "name": "df841cc5399cc87e87f0cff96cbc1d3a", "fusion_lon": 0.0}, {"lat": 38.92319833333333, "fusion_lat": 0.0, "type": "electric_scooter", "bike_id": "dc53028c87f49ca9d6a8b5551c120482", "is_reserved": 0, "rental_uris": {"ios": "https://dc.lft.to/lastmile_qr_scan", "android": "https://dc.lft.to/lastmile_qr_scan"}, "is_disabled": 0, "lon": -77.03917866666667, "name": "dc53028c87f49ca9d6a8b5551c120482", "fusion_lon": 0.0}, {"lat": 38.9051615, "fusion_lat": 0.0, "type": "electric_scooter", "bike_id": "4033f0f22eb4dc2ea8be65c8367369f0", "is_reserved": 0, "rental_uris": {"ios": "https://dc.lft.to/lastmile_qr_scan", "android": "https://dc.lft.to/lastmile_qr_scan"}, "is_disabled": 0, "lon": -77.03843633333334, "name": "4033f0f22eb4dc2ea8be65c8367369f0", "fusion_lon": 0.0}, {"lat": 38.89353116666667, "fusion_lat": 0.0, "type": "electric_scooter", "bike_id": "f53da41eb543968d5e1ebffea462288d", "is_reserved": 0, "rental_uris": {"ios": "https://dc.lft.to/lastmile_qr_scan", "android": "https://dc.lft.to/lastmile_qr_scan"}, "is_disabled": 0, "lon": -77.02006766666666, "name": "f53da41eb543968d5e1ebffea462288d", "fusion_lon": 0.0}, {"lat": 38.920804333333336, "fusion_lat": 0.0, "type": "electric_scooter", "bike_id": "49988ee0af7a512ef6e666e54cbdd814", "is_reserved": 0, "rental_uris": {"ios": "https://dc.lft.to/lastmile_qr_scan", "android": "https://dc.lft.to/lastmile_qr_scan"}, "is_disabled": 0, "lon": -77.0242615, "name": "49988ee0af7a512ef6e666e54cbdd814", "fusion_lon": 0.0}, {"lat": 38.88243716666667, "fusion_lat": 0.0, "type": "electric_bike", "bike_id": "39ef5bbdca6329c6839b2b9c1e4f3b37", "is_reserved": 0, "rental_uris": {"ios": "https://dc.lft.to/lastmile_qr_scan", "android": "https://dc.lft.to/lastmile_qr_scan"}, "is_disabled": 0, "lon": -76.96254433333333, "name": "39ef5bbdca6329c6839b2b9c1e4f3b37", "fusion_lon": 0.0}, {"lat": 38.90592433333333, "fusion_lat": 0.0, "type": "electric_scooter", "bike_id": "06db689816ad8fdd40620d143af48767", "is_reserved": 0, "rental_uris": {"ios": "https://dc.lft.to/lastmile_qr_scan", "android": "https://dc.lft.to/lastmile_qr_scan"}, "is_disabled": 0, "lon": -77.021871, "name": "06db689816ad8fdd40620d143af48767", "fusion_lon": 0.0}, {"lat": 38.90829566666667, "fusion_lat": 0.0, "type": "electric_scooter", "bike_id": "2feeef9d5717ae4d25c301c9c5fa4a96", "is_reserved": 0, "rental_uris": {"ios": "https://dc.lft.to/lastmile_qr_scan", "android": "https://dc.lft.to/lastmile_qr_scan"}, "is_disabled": 0, "lon": -76.93447516666667, "name": "2feeef9d5717ae4d25c301c9c5fa4a96", "fusion_lon": 0.0}, {"lat": 38.9078915, "fusion_lat": 0.0, "type": "electric_scooter", "bike_id": "b5f40feb0c34920c008bb3a87ef6eb83", "is_reserved": 0, "rental_uris": {"ios": "https://dc.lft.to/lastmile_qr_scan", "android": "https://dc.lft.to/lastmile_qr_scan"}, "is_disabled": 0, "lon": -77.03202316666666, "name": "b5f40feb0c34920c008bb3a87ef6eb83", "fusion_lon": 0.0}, {"lat": 38.9207175, "fusion_lat": 0.0, "type": "electric_scooter", "bike_id": "e23266839ba85987cee18555bc1bcb3b", "is_reserved": 0, "rental_uris": {"ios": "https://dc.lft.to/lastmile_qr_scan", "android": "https://dc.lft.to/lastmile_qr_scan"}, "is_disabled": 0, "lon": -77.0420375, "name": "e23266839ba85987cee18555bc1bcb3b", "fusion_lon": 0.0}, {"lat": 38.90095516666667, "fusion_lat": 0.0, "type": "electric_scooter", "bike_id": "9c7a87eb632ec6b397b78b3aad474317", "is_reserved": 0, "rental_uris": {"ios": "https://dc.lft.to/lastmile_qr_scan", "android": "https://dc.lft.to/lastmile_qr_scan"}, "is_disabled": 0, "lon": -76.9764175, "name": "9c7a87eb632ec6b397b78b3aad474317", "fusion_lon": 0.0}, {"lat": 38.874159666666664, "fusion_lat": 0.0, "type": "electric_scooter", "bike_id": "4c2b05850ec9e5d2394b446a7d4f1bc6", "is_reserved": 0, "rental_uris": {"ios": "https://dc.lft.to/lastmile_qr_scan", "android": "https://dc.lft.to/lastmile_qr_scan"}, "is_disabled": 0, "lon": -76.97115766666667, "name": "4c2b05850ec9e5d2394b446a7d4f1bc6", "fusion_lon": 0.0}, {"lat": 38.879379166666666, "fusion_lat": 0.0, "type": "electric_scooter", "bike_id": "6fa300f1f4d1fa5ab670437255699295", "is_reserved": 0, "rental_uris": {"ios": "https://dc.lft.to/lastmile_qr_scan", "android": "https://dc.lft.to/lastmile_qr_scan"}, "is_disabled": 0, "lon": -77.0006145, "name": "6fa300f1f4d1fa5ab670437255699295", "fusion_lon": 0.0}, {"lat": 38.92825533333333, "fusion_lat": 0.0, "type": "electric_scooter", "bike_id": "45aeb772ffb83b2253150ce8a696359a", "is_reserved": 0, "rental_uris": {"ios": "https://dc.lft.to/lastmile_qr_scan", "android": "https://dc.lft.to/lastmile_qr_scan"}, "is_disabled": 0, "lon": -77.01411333333333, "name": "45aeb772ffb83b2253150ce8a696359a", "fusion_lon": 0.0}, {"lat": 38.89902083333333, "fusion_lat": 0.0, "type": "electric_scooter", "bike_id": "386deff3bc0bf187309d4526c2e686ce", "is_reserved": 0, "rental_uris": {"ios": "https://dc.lft.to/lastmile_qr_scan", "android": "https://dc.lft.to/lastmile_qr_scan"}, "is_disabled": 0, "lon": -77.03975316666667, "name": "386deff3bc0bf187309d4526c2e686ce", "fusion_lon": 0.0}, {"lat": 38.907390166666666, "fusion_lat": 0.0, "type": "electric_scooter", "bike_id": "01e020d2d2adab7004a2d5417fcac9b4", "is_reserved": 0, "rental_uris": {"ios": "https://dc.lft.to/lastmile_qr_scan", "android": "https://dc.lft.to/lastmile_qr_scan"}, "is_disabled": 0, "lon": -76.9796915, "name": "01e020d2d2adab7004a2d5417fcac9b4", "fusion_lon": 0.0}, {"lat": 38.863871833333334, "fusion_lat": 0.0, "type": "electric_scooter", "bike_id": "6ce163868998921a80e00fc967c5401c", "is_reserved": 0, "rental_uris": {"ios": "https://dc.lft.to/lastmile_qr_scan", "android": "https://dc.lft.to/lastmile_qr_scan"}, "is_disabled": 0, "lon": -76.990434, "name": "6ce163868998921a80e00fc967c5401c", "fusion_lon": 0.0}, {"lat": 38.90959566666667, "fusion_lat": 0.0, "type": "electric_scooter", "bike_id": "321aeba3b811e0b895e45e092f3636ef", "is_reserved": 0, "rental_uris": {"ios": "https://dc.lft.to/lastmile_qr_scan", "android": "https://dc.lft.to/lastmile_qr_scan"}, "is_disabled": 0, "lon": -77.02688783333333, "name": "321aeba3b811e0b895e45e092f3636ef", "fusion_lon": 0.0}, {"lat": 38.9004965, "fusion_lat": 0.0, "type": "electric_scooter", "bike_id": "b47b77f19fdafe5b92ab345e222119a0", "is_reserved": 0, "rental_uris": {"ios": "https://dc.lft.to/lastmile_qr_scan", "android": "https://dc.lft.to/lastmile_qr_scan"}, "is_disabled": 0, "lon": -76.91935983333333, "name": "b47b77f19fdafe5b92ab345e222119a0", "fusion_lon": 0.0}, {"lat": 38.928672, "fusion_lat": 0.0, "type": "electric_scooter", "bike_id": "0177a455b98f628d2370a511335aae99", "is_reserved": 0, "rental_uris": {"ios": "https://dc.lft.to/lastmile_qr_scan", "android": "https://dc.lft.to/lastmile_qr_scan"}, "is_disabled": 0, "lon": -77.0329595, "name": "0177a455b98f628d2370a511335aae99", "fusion_lon": 0.0}, {"lat": 38.927666333333335, "fusion_lat": 0.0, "type": "electric_bike", "bike_id": "8bf8bbaaf8478cc7f21d3a7122385fc8", "is_reserved": 0, "rental_uris": {"ios": "https://dc.lft.to/lastmile_qr_scan", "android": "https://dc.lft.to/lastmile_qr_scan"}, "is_disabled": 0, "lon": -77.070111, "name": "8bf8bbaaf8478cc7f21d3a7122385fc8", "fusion_lon": 0.0}, {"lat": 38.90572516666667, "fusion_lat": 0.0, "type": "electric_scooter", "bike_id": "6e045b3ddd0f3205e9cd82570f6efbe7", "is_reserved": 0, "rental_uris": {"ios": "https://dc.lft.to/lastmile_qr_scan", "android": "https://dc.lft.to/lastmile_qr_scan"}, "is_disabled": 0, "lon": -77.04166133333334, "name": "6e045b3ddd0f3205e9cd82570f6efbe7", "fusion_lon": 0.0}, {"lat": 38.8012615, "fusion_lat": 0.0, "type": "electric_bike", "bike_id": "e9cafd2a94333590d428a31f1dbe49cf", "is_reserved": 0, "rental_uris": {"ios": "https://dc.lft.to/lastmile_qr_scan", "android": "https://dc.lft.to/lastmile_qr_scan"}, "is_disabled": 0, "lon": -77.07049133333334, "name": "e9cafd2a94333590d428a31f1dbe49cf", "fusion_lon": 0.0}, {"lat": 38.936176, "fusion_lat": 0.0, "type": "electric_bike", "bike_id": "9732d9c7767aa8976e159ce7966f9f35", "is_reserved": 0, "rental_uris": {"ios": "https://dc.lft.to/lastmile_qr_scan", "android": "https://dc.lft.to/lastmile_qr_scan"}, "is_disabled": 0, "lon": -77.09026583333333, "name": "9732d9c7767aa8976e159ce7966f9f35", "fusion_lon": 0.0}, {"lat": 38.83145183333333, "fusion_lat": 0.0, "type": "electric_scooter", "bike_id": "618b9b7fcb3306640348d6ef82b30361", "is_reserved": 0, "rental_uris": {"ios": "https://dc.lft.to/lastmile_qr_scan", "android": "https://dc.lft.to/lastmile_qr_scan"}, "is_disabled": 0, "lon": -77.0510485, "name": "618b9b7fcb3306640348d6ef82b30361", "fusion_lon": 0.0}, {"lat": 38.8996085, "fusion_lat": 0.0, "type": "electric_bike", "bike_id": "11695555022dbab320e395852b4d0c21", "is_reserved": 0, "rental_uris": {"ios": "https://dc.lft.to/lastmile_qr_scan", "android": "https://dc.lft.to/lastmile_qr_scan"}, "is_disabled": 0, "lon": -76.9867175, "name": "11695555022dbab320e395852b4d0c21", "fusion_lon": 0.0}, {"lat": 38.8070915, "fusion_lat": 0.0, "type": "electric_bike", "bike_id": "921dc345e8ee43ecb92c57f6279a785a", "is_reserved": 0, "rental_uris": {"ios": "https://dc.lft.to/lastmile_qr_scan", "android": "https://dc.lft.to/lastmile_qr_scan"}, "is_disabled": 0, "lon": -77.061677, "name": "921dc345e8ee43ecb92c57f6279a785a", "fusion_lon": 0.0}, {"lat": 38.92440633333333, "fusion_lat": 0.0, "type": "electric_scooter", "bike_id": "fb5b208965897d64e5f4a27eedf02258", "is_reserved": 0, "rental_uris": {"ios": "https://dc.lft.to/lastmile_qr_scan", "android": "https://dc.lft.to/lastmile_qr_scan"}, "is_disabled": 0, "lon": -77.05207633333333, "name": "fb5b208965897d64e5f4a27eedf02258", "fusion_lon": 0.0}, {"lat": 38.887475333333335, "fusion_lat": 0.0, "type": "electric_scooter", "bike_id": "7cf14afa95378df17ea72fc03908d74e", "is_reserved": 0, "rental_uris": {"ios": "https://dc.lft.to/lastmile_qr_scan", "android": "https://dc.lft.to/lastmile_qr_scan"}, "is_disabled": 0, "lon": -77.027245, "name": "7cf14afa95378df17ea72fc03908d74e", "fusion_lon": 0.0}, {"lat": 38.90008183333333, "fusion_lat": 0.0, "type": "electric_scooter", "bike_id": "6a76aabf3508cf78615b1dc3ee44a734", "is_reserved": 0, "rental_uris": {"ios": "https://dc.lft.to/lastmile_qr_scan", "android": "https://dc.lft.to/lastmile_qr_scan"}, "is_disabled": 0, "lon": -77.04478316666666, "name": "6a76aabf3508cf78615b1dc3ee44a734", "fusion_lon": 0.0}, {"lat": 38.91731983333333, "fusion_lat": 0.0, "type": "electric_scooter", "bike_id": "a9c3bb1125083aede3b95b8c5af3b394", "is_reserved": 0, "rental_uris": {"ios": "https://dc.lft.to/lastmile_qr_scan", "android": "https://dc.lft.to/lastmile_qr_scan"}, "is_disabled": 0, "lon": -77.03659366666666, "name": "a9c3bb1125083aede3b95b8c5af3b394", "fusion_lon": 0.0}, {"lat": 38.9723445, "fusion_lat": 0.0, "type": "electric_bike", "bike_id": "e9a0583b3558f0ebbaa21480e109eea3", "is_reserved": 0, "rental_uris": {"ios": "https://dc.lft.to/lastmile_qr_scan", "android": "https://dc.lft.to/lastmile_qr_scan"}, "is_disabled": 0, "lon": -77.02701333333333, "name": "e9a0583b3558f0ebbaa21480e109eea3", "fusion_lon": 0.0}, {"lat": 38.911343333333335, "fusion_lat": 0.0, "type": "electric_scooter", "bike_id": "c64a1ad604b151a38d2c1dc0e38c756f", "is_reserved": 0, "rental_uris": {"ios": "https://dc.lft.to/lastmile_qr_scan", "android": "https://dc.lft.to/lastmile_qr_scan"}, "is_disabled": 0, "lon": -77.04415883333333, "name": "c64a1ad604b151a38d2c1dc0e38c756f", "fusion_lon": 0.0}, {"lat": 38.89854416666667, "fusion_lat": 0.0, "type": "electric_scooter", "bike_id": "3a50843b174ab5ee6d69759da46eb989", "is_reserved": 0, "rental_uris": {"ios": "https://dc.lft.to/lastmile_qr_scan", "android": "https://dc.lft.to/lastmile_qr_scan"}, "is_disabled": 0, "lon": -76.98171516666666, "name": "3a50843b174ab5ee6d69759da46eb989", "fusion_lon": 0.0}, {"lat": 38.80905383333333, "fusion_lat": 0.0, "type": "electric_bike", "bike_id": "00d8d07add3394b81368093c7f3d98f5", "is_reserved": 0, "rental_uris": {"ios": "https://dc.lft.to/lastmile_qr_scan", "android": "https://dc.lft.to/lastmile_qr_scan"}, "is_disabled": 0, "lon": -77.08657166666667, "name": "00d8d07add3394b81368093c7f3d98f5", "fusion_lon": 0.0}, {"lat": 38.923466166666664, "fusion_lat": 0.0, "type": "electric_scooter", "bike_id": "5cf30c858fb1fd0698333a638d711ea7", "is_reserved": 0, "rental_uris": {"ios": "https://dc.lft.to/lastmile_qr_scan", "android": "https://dc.lft.to/lastmile_qr_scan"}, "is_disabled": 0, "lon": -77.0507985, "name": "5cf30c858fb1fd0698333a638d711ea7", "fusion_lon": 0.0}, {"lat": 38.93481633333333, "fusion_lat": 0.0, "type": "electric_scooter", "bike_id": "70dde91e0fdb196360294f91fd404dd6", "is_reserved": 0, "rental_uris": {"ios": "https://dc.lft.to/lastmile_qr_scan", "android": "https://dc.lft.to/lastmile_qr_scan"}, "is_disabled": 0, "lon": -77.07270633333333, "name": "70dde91e0fdb196360294f91fd404dd6", "fusion_lon": 0.0}, {"lat": 38.863902833333334, "fusion_lat": 0.0, "type": "electric_scooter", "bike_id": "c21d154f1ac3f9c18cc8b3b12a0f0e80", "is_reserved": 0, "rental_uris": {"ios": "https://dc.lft.to/lastmile_qr_scan", "android": "https://dc.lft.to/lastmile_qr_scan"}, "is_disabled": 0, "lon": -76.99039766666667, "name": "c21d154f1ac3f9c18cc8b3b12a0f0e80", "fusion_lon": 0.0}, {"lat": 38.91196983333333, "fusion_lat": 0.0, "type": "electric_scooter", "bike_id": "e88e36a888c6f981b37f86fbd3495e5d", "is_reserved": 0, "rental_uris": {"ios": "https://dc.lft.to/lastmile_qr_scan", "android": "https://dc.lft.to/lastmile_qr_scan"}, "is_disabled": 0, "lon": -77.03851233333333, "name": "e88e36a888c6f981b37f86fbd3495e5d", "fusion_lon": 0.0}, {"lat": 38.865187166666665, "fusion_lat": 0.0, "type": "electric_scooter", "bike_id": "d9c22a8ea664bffef54e1523cb23a28b", "is_reserved": 0, "rental_uris": {"ios": "https://dc.lft.to/lastmile_qr_scan", "android": "https://dc.lft.to/lastmile_qr_scan"}, "is_disabled": 0, "lon": -76.99015483333334, "name": "d9c22a8ea664bffef54e1523cb23a28b", "fusion_lon": 0.0}, {"lat": 38.93426816666667, "fusion_lat": 0.0, "type": "electric_scooter", "bike_id": "dda00a7537ac07459268325c63cf44f8", "is_reserved": 0, "rental_uris": {"ios": "https://dc.lft.to/lastmile_qr_scan", "android": "https://dc.lft.to/lastmile_qr_scan"}, "is_disabled": 0, "lon": -77.03999616666667, "name": "dda00a7537ac07459268325c63cf44f8", "fusion_lon": 0.0}, {"lat": 38.88619333333333, "fusion_lat": 0.0, "type": "electric_scooter", "bike_id": "dc2630f8cbc3cf556769da5be4281f4e", "is_reserved": 0, "rental_uris": {"ios": "https://dc.lft.to/lastmile_qr_scan", "android": "https://dc.lft.to/lastmile_qr_scan"}, "is_disabled": 0, "lon": -76.95579383333333, "name": "dc2630f8cbc3cf556769da5be4281f4e", "fusion_lon": 0.0}, {"lat": 38.92217816666667, "fusion_lat": 0.0, "type": "electric_scooter", "bike_id": "84f5d12794cf834eed7e36aa0722e11e", "is_reserved": 0, "rental_uris": {"ios": "https://dc.lft.to/lastmile_qr_scan", "android": "https://dc.lft.to/lastmile_qr_scan"}, "is_disabled": 0, "lon": -77.0345795, "name": "84f5d12794cf834eed7e36aa0722e11e", "fusion_lon": 0.0}, {"lat": 38.90322533333333, "fusion_lat": 0.0, "type": "electric_scooter", "bike_id": "dd12b569d534e5dc7338e51a99e6adaa", "is_reserved": 0, "rental_uris": {"ios": "https://dc.lft.to/lastmile_qr_scan", "android": "https://dc.lft.to/lastmile_qr_scan"}, "is_disabled": 0, "lon": -76.97549116666667, "name": "dd12b569d534e5dc7338e51a99e6adaa", "fusion_lon": 0.0}, {"lat": 38.92845066666667, "fusion_lat": 0.0, "type": "electric_scooter", "bike_id": "569156cdb0a04f2cad363ef6de8390b3", "is_reserved": 0, "rental_uris": {"ios": "https://dc.lft.to/lastmile_qr_scan", "android": "https://dc.lft.to/lastmile_qr_scan"}, "is_disabled": 0, "lon": -77.01413383333333, "name": "569156cdb0a04f2cad363ef6de8390b3", "fusion_lon": 0.0}, {"lat": 38.88474016666667, "fusion_lat": 0.0, "type": "electric_scooter", "bike_id": "ebccbe7353aa6e6c09001f190bfe2a82", "is_reserved": 0, "rental_uris": {"ios": "https://dc.lft.to/lastmile_qr_scan", "android": "https://dc.lft.to/lastmile_qr_scan"}, "is_disabled": 0, "lon": -77.03194833333333, "name": "ebccbe7353aa6e6c09001f190bfe2a82", "fusion_lon": 0.0}, {"lat": 38.8938885, "fusion_lat": 0.0, "type": "electric_bike", "bike_id": "926f5d9f6c5d1e30749eca6e25a3d563", "is_reserved": 0, "rental_uris": {"ios": "https://dc.lft.to/lastmile_qr_scan", "android": "https://dc.lft.to/lastmile_qr_scan"}, "is_disabled": 0, "lon": -77.02834266666666, "name": "926f5d9f6c5d1e30749eca6e25a3d563", "fusion_lon": 0.0}, {"lat": 38.894608833333336, "fusion_lat": 0.0, "type": "electric_scooter", "bike_id": "545a8b3e4286fa8a6f67de3de3441ebf", "is_reserved": 0, "rental_uris": {"ios": "https://dc.lft.to/lastmile_qr_scan", "android": "https://dc.lft.to/lastmile_qr_scan"}, "is_disabled": 0, "lon": -77.02224316666667, "name": "545a8b3e4286fa8a6f67de3de3441ebf", "fusion_lon": 0.0}, {"lat": 38.92971, "fusion_lat": 0.0, "type": "electric_scooter", "bike_id": "930d24c4787e8ddf4ff7e439670c1609", "is_reserved": 0, "rental_uris": {"ios": "https://dc.lft.to/lastmile_qr_scan", "android": "https://dc.lft.to/lastmile_qr_scan"}, "is_disabled": 0, "lon": -77.02821066666667, "name": "930d24c4787e8ddf4ff7e439670c1609", "fusion_lon": 0.0}, {"lat": 38.906169, "fusion_lat": 0.0, "type": "electric_scooter", "bike_id": "5f1a8d7f3d0278f296e5368c8e35eaad", "is_reserved": 0, "rental_uris": {"ios": "https://dc.lft.to/lastmile_qr_scan", "android": "https://dc.lft.to/lastmile_qr_scan"}, "is_disabled": 0, "lon": -77.0465325, "name": "5f1a8d7f3d0278f296e5368c8e35eaad", "fusion_lon": 0.0}, {"lat": 38.900260833333334, "fusion_lat": 0.0, "type": "electric_scooter", "bike_id": "d54cab7fd881977a2a4c631673667f48", "is_reserved": 0, "rental_uris": {"ios": "https://dc.lft.to/lastmile_qr_scan", "android": "https://dc.lft.to/lastmile_qr_scan"}, "is_disabled": 0, "lon": -77.00190383333333, "name": "d54cab7fd881977a2a4c631673667f48", "fusion_lon": 0.0}, {"lat": 38.87207683333333, "fusion_lat": 0.0, "type": "electric_scooter", "bike_id": "253a3408b0cad15893ddadd5e8c716ac", "is_reserved": 0, "rental_uris": {"ios": "https://dc.lft.to/lastmile_qr_scan", "android": "https://dc.lft.to/lastmile_qr_scan"}, "is_disabled": 0, "lon": -77.00969816666667, "name": "253a3408b0cad15893ddadd5e8c716ac", "fusion_lon": 0.0}, {"lat": 38.89061433333333, "fusion_lat": 0.0, "type": "electric_bike", "bike_id": "0a4d7fe34bf6dc30d5d1274f91d97e18", "is_reserved": 0, "rental_uris": {"ios": "https://dc.lft.to/lastmile_qr_scan", "android": "https://dc.lft.to/lastmile_qr_scan"}, "is_disabled": 0, "lon": -77.02299866666667, "name": "0a4d7fe34bf6dc30d5d1274f91d97e18", "fusion_lon": 0.0}, {"lat": 38.93099133333333, "fusion_lat": 0.0, "type": "electric_scooter", "bike_id": "0a7c81a64eb4787b68da0eb3b9572580", "is_reserved": 0, "rental_uris": {"ios": "https://dc.lft.to/lastmile_qr_scan", "android": "https://dc.lft.to/lastmile_qr_scan"}, "is_disabled": 0, "lon": -77.02472016666667, "name": "0a7c81a64eb4787b68da0eb3b9572580", "fusion_lon": 0.0}, {"lat": 38.9426625, "fusion_lat": 0.0, "type": "electric_bike", "bike_id": "8f34127d16c05c380d20f2b22c978ccc", "is_reserved": 0, "rental_uris": {"ios": "https://dc.lft.to/lastmile_qr_scan", "android": "https://dc.lft.to/lastmile_qr_scan"}, "is_disabled": 0, "lon": -77.02838716666666, "name": "8f34127d16c05c380d20f2b22c978ccc", "fusion_lon": 0.0}, {"lat": 38.88485283333333, "fusion_lat": 0.0, "type": "electric_scooter", "bike_id": "95ea7357370df7b1ff0e525c45d60530", "is_reserved": 0, "rental_uris": {"ios": "https://dc.lft.to/lastmile_qr_scan", "android": "https://dc.lft.to/lastmile_qr_scan"}, "is_disabled": 0, "lon": -77.00913966666667, "name": "95ea7357370df7b1ff0e525c45d60530", "fusion_lon": 0.0}, {"lat": 38.89320683333333, "fusion_lat": 0.0, "type": "electric_scooter", "bike_id": "d781a670857ef8096bc7b669930b330c", "is_reserved": 0, "rental_uris": {"ios": "https://dc.lft.to/lastmile_qr_scan", "android": "https://dc.lft.to/lastmile_qr_scan"}, "is_disabled": 0, "lon": -77.017857, "name": "d781a670857ef8096bc7b669930b330c", "fusion_lon": 0.0}, {"lat": 38.9103305, "fusion_lat": 0.0, "type": "electric_scooter", "bike_id": "4fd96d49021921de582bcdbee77a9391", "is_reserved": 0, "rental_uris": {"ios": "https://dc.lft.to/lastmile_qr_scan", "android": "https://dc.lft.to/lastmile_qr_scan"}, "is_disabled": 0, "lon": -77.0075735, "name": "4fd96d49021921de582bcdbee77a9391", "fusion_lon": 0.0}, {"lat": 38.97677916666667, "fusion_lat": 0.0, "type": "electric_scooter", "bike_id": "7d6fc1d5ccf7ce90d19cb1ce4353f69e", "is_reserved": 0, "rental_uris": {"ios": "https://dc.lft.to/lastmile_qr_scan", "android": "https://dc.lft.to/lastmile_qr_scan"}, "is_disabled": 0, "lon": -77.01659083333334, "name": "7d6fc1d5ccf7ce90d19cb1ce4353f69e", "fusion_lon": 0.0}, {"lat": 38.8874535, "fusion_lat": 0.0, "type": "electric_scooter", "bike_id": "062e545b2f0bdf329aeab6934de11d06", "is_reserved": 0, "rental_uris": {"ios": "https://dc.lft.to/lastmile_qr_scan", "android": "https://dc.lft.to/lastmile_qr_scan"}, "is_disabled": 0, "lon": -77.02549866666666, "name": "062e545b2f0bdf329aeab6934de11d06", "fusion_lon": 0.0}, {"lat": 38.93218483333333, "fusion_lat": 0.0, "type": "electric_scooter", "bike_id": "b7cd50ae4cbb68590cfff06e0df92cf3", "is_reserved": 0, "rental_uris": {"ios": "https://dc.lft.to/lastmile_qr_scan", "android": "https://dc.lft.to/lastmile_qr_scan"}, "is_disabled": 0, "lon": -77.03880316666667, "name": "b7cd50ae4cbb68590cfff06e0df92cf3", "fusion_lon": 0.0}, {"lat": 38.796100833333334, "fusion_lat": 0.0, "type": "electric_bike", "bike_id": "09c16c1420866be2d3f9ac61f01c0ad4", "is_reserved": 0, "rental_uris": {"ios": "https://dc.lft.to/lastmile_qr_scan", "android": "https://dc.lft.to/lastmile_qr_scan"}, "is_disabled": 0, "lon": -76.99745966666667, "name": "09c16c1420866be2d3f9ac61f01c0ad4", "fusion_lon": 0.0}, {"lat": 38.92415716666667, "fusion_lat": 0.0, "type": "electric_scooter", "bike_id": "95356b526681f9201b098bca64d8c004", "is_reserved": 0, "rental_uris": {"ios": "https://dc.lft.to/lastmile_qr_scan", "android": "https://dc.lft.to/lastmile_qr_scan"}, "is_disabled": 0, "lon": -77.05059933333334, "name": "95356b526681f9201b098bca64d8c004", "fusion_lon": 0.0}, {"lat": 38.88068716666667, "fusion_lat": 0.0, "type": "electric_scooter", "bike_id": "f03aadcede5bc35a6de8c039ddf46625", "is_reserved": 0, "rental_uris": {"ios": "https://dc.lft.to/lastmile_qr_scan", "android": "https://dc.lft.to/lastmile_qr_scan"}, "is_disabled": 0, "lon": -76.9848955, "name": "f03aadcede5bc35a6de8c039ddf46625", "fusion_lon": 0.0}, {"lat": 38.88887366666667, "fusion_lat": 0.0, "type": "electric_scooter", "bike_id": "aa8b0f07590bd3bca105dd4dc62883e9", "is_reserved": 0, "rental_uris": {"ios": "https://dc.lft.to/lastmile_qr_scan", "android": "https://dc.lft.to/lastmile_qr_scan"}, "is_disabled": 0, "lon": -76.94777283333333, "name": "aa8b0f07590bd3bca105dd4dc62883e9", "fusion_lon": 0.0}, {"lat": 38.947869, "fusion_lat": 0.0, "type": "electric_bike", "bike_id": "02f3209082ae5717eab3ec2d37162fbf", "is_reserved": 0, "rental_uris": {"ios": "https://dc.lft.to/lastmile_qr_scan", "android": "https://dc.lft.to/lastmile_qr_scan"}, "is_disabled": 0, "lon": -76.9721155, "name": "02f3209082ae5717eab3ec2d37162fbf", "fusion_lon": 0.0}, {"lat": 38.90484466666667, "fusion_lat": 0.0, "type": "electric_scooter", "bike_id": "021b9506739bb95d98173c907fcde26e", "is_reserved": 0, "rental_uris": {"ios": "https://dc.lft.to/lastmile_qr_scan", "android": "https://dc.lft.to/lastmile_qr_scan"}, "is_disabled": 0, "lon": -77.05338266666666, "name": "021b9506739bb95d98173c907fcde26e", "fusion_lon": 0.0}, {"lat": 38.90572433333333, "fusion_lat": 0.0, "type": "electric_scooter", "bike_id": "6162199079db9265bb785f6fe18417bf", "is_reserved": 0, "rental_uris": {"ios": "https://dc.lft.to/lastmile_qr_scan", "android": "https://dc.lft.to/lastmile_qr_scan"}, "is_disabled": 0, "lon": -77.0448115, "name": "6162199079db9265bb785f6fe18417bf", "fusion_lon": 0.0}, {"lat": 38.90557666666667, "fusion_lat": 0.0, "type": "electric_scooter", "bike_id": "b9e7e768ead219450ca2e019bae4d4a6", "is_reserved": 0, "rental_uris": {"ios": "https://dc.lft.to/lastmile_qr_scan", "android": "https://dc.lft.to/lastmile_qr_scan"}, "is_disabled": 0, "lon": -77.046584, "name": "b9e7e768ead219450ca2e019bae4d4a6", "fusion_lon": 0.0}, {"lat": 39.02437583333333, "fusion_lat": 0.0, "type": "electric_bike", "bike_id": "c56e26e6047d25c121cde6f014355bc0", "is_reserved": 0, "rental_uris": {"ios": "https://dc.lft.to/lastmile_qr_scan", "android": "https://dc.lft.to/lastmile_qr_scan"}, "is_disabled": 0, "lon": -77.13098033333333, "name": "c56e26e6047d25c121cde6f014355bc0", "fusion_lon": 0.0}, {"lat": 38.91423366666667, "fusion_lat": 0.0, "type": "electric_scooter", "bike_id": "147c8d59f4c9df932d5c2ae06afcf70f", "is_reserved": 0, "rental_uris": {"ios": "https://dc.lft.to/lastmile_qr_scan", "android": "https://dc.lft.to/lastmile_qr_scan"}, "is_disabled": 0, "lon": -77.04493933333333, "name": "147c8d59f4c9df932d5c2ae06afcf70f", "fusion_lon": 0.0}, {"lat": 38.887673, "fusion_lat": 0.0, "type": "electric_scooter", "bike_id": "3d262a17c2c5989dfc50423d9136cb60", "is_reserved": 0, "rental_uris": {"ios": "https://dc.lft.to/lastmile_qr_scan", "android": "https://dc.lft.to/lastmile_qr_scan"}, "is_disabled": 0, "lon": -76.95601233333333, "name": "3d262a17c2c5989dfc50423d9136cb60", "fusion_lon": 0.0}, {"lat": 38.929065666666666, "fusion_lat": 0.0, "type": "electric_scooter", "bike_id": "eebd529a037563703487b9994ebc2822", "is_reserved": 0, "rental_uris": {"ios": "https://dc.lft.to/lastmile_qr_scan", "android": "https://dc.lft.to/lastmile_qr_scan"}, "is_disabled": 0, "lon": -77.03622066666667, "name": "eebd529a037563703487b9994ebc2822", "fusion_lon": 0.0}, {"lat": 38.91193416666667, "fusion_lat": 0.0, "type": "electric_scooter", "bike_id": "b238b33a526e3aee278bb3b8303c74bb", "is_reserved": 0, "rental_uris": {"ios": "https://dc.lft.to/lastmile_qr_scan", "android": "https://dc.lft.to/lastmile_qr_scan"}, "is_disabled": 0, "lon": -77.04521666666666, "name": "b238b33a526e3aee278bb3b8303c74bb", "fusion_lon": 0.0}, {"lat": 38.93101733333334, "fusion_lat": 0.0, "type": "electric_scooter", "bike_id": "0ae0fa3b3a35afbbb9fe6cf870c74f1e", "is_reserved": 0, "rental_uris": {"ios": "https://dc.lft.to/lastmile_qr_scan", "android": "https://dc.lft.to/lastmile_qr_scan"}, "is_disabled": 0, "lon": -77.02651183333333, "name": "0ae0fa3b3a35afbbb9fe6cf870c74f1e", "fusion_lon": 0.0}, {"lat": 38.917866333333336, "fusion_lat": 0.0, "type": "electric_scooter", "bike_id": "267eeb130b821231f077eac06198b15a", "is_reserved": 0, "rental_uris": {"ios": "https://dc.lft.to/lastmile_qr_scan", "android": "https://dc.lft.to/lastmile_qr_scan"}, "is_disabled": 0, "lon": -77.04185166666667, "name": "267eeb130b821231f077eac06198b15a", "fusion_lon": 0.0}, {"lat": 38.903163166666666, "fusion_lat": 0.0, "type": "electric_scooter", "bike_id": "0c983496dc19b4447f399c30ea954822", "is_reserved": 0, "rental_uris": {"ios": "https://dc.lft.to/lastmile_qr_scan", "android": "https://dc.lft.to/lastmile_qr_scan"}, "is_disabled": 0, "lon": -77.021341, "name": "0c983496dc19b4447f399c30ea954822", "fusion_lon": 0.0}, {"lat": 38.90371616666667, "fusion_lat": 0.0, "type": "electric_scooter", "bike_id": "7ca0b54ec9b383a59e8f5bde957ca9e0", "is_reserved": 0, "rental_uris": {"ios": "https://dc.lft.to/lastmile_qr_scan", "android": "https://dc.lft.to/lastmile_qr_scan"}, "is_disabled": 0, "lon": -77.03670333333334, "name": "7ca0b54ec9b383a59e8f5bde957ca9e0", "fusion_lon": 0.0}, {"lat": 38.92510466666667, "fusion_lat": 0.0, "type": "electric_scooter", "bike_id": "efd4867c129ab0c06946fe68f030e4a2", "is_reserved": 0, "rental_uris": {"ios": "https://dc.lft.to/lastmile_qr_scan", "android": "https://dc.lft.to/lastmile_qr_scan"}, "is_disabled": 0, "lon": -77.02271483333334, "name": "efd4867c129ab0c06946fe68f030e4a2", "fusion_lon": 0.0}, {"lat": 38.877959, "fusion_lat": 0.0, "type": "electric_scooter", "bike_id": "8fcdd783bf99c7353105bfa295a27167", "is_reserved": 0, "rental_uris": {"ios": "https://dc.lft.to/lastmile_qr_scan", "android": "https://dc.lft.to/lastmile_qr_scan"}, "is_disabled": 0, "lon": -76.93089633333334, "name": "8fcdd783bf99c7353105bfa295a27167", "fusion_lon": 0.0}, {"lat": 38.921298666666665, "fusion_lat": 0.0, "type": "electric_scooter", "bike_id": "1fd5acf9610bc71f1f48171ba39ed182", "is_reserved": 0, "rental_uris": {"ios": "https://dc.lft.to/lastmile_qr_scan", "android": "https://dc.lft.to/lastmile_qr_scan"}, "is_disabled": 0, "lon": -76.99246783333334, "name": "1fd5acf9610bc71f1f48171ba39ed182", "fusion_lon": 0.0}, {"lat": 38.92578833333334, "fusion_lat": 0.0, "type": "electric_scooter", "bike_id": "0a506f4d859cad40ca7a0bf2e6a564f2", "is_reserved": 0, "rental_uris": {"ios": "https://dc.lft.to/lastmile_qr_scan", "android": "https://dc.lft.to/lastmile_qr_scan"}, "is_disabled": 0, "lon": -77.04421216666667, "name": "0a506f4d859cad40ca7a0bf2e6a564f2", "fusion_lon": 0.0}, {"lat": 38.9209095, "fusion_lat": 0.0, "type": "electric_scooter", "bike_id": "9498a1487b860da109f1473a842c1ca5", "is_reserved": 0, "rental_uris": {"ios": "https://dc.lft.to/lastmile_qr_scan", "android": "https://dc.lft.to/lastmile_qr_scan"}, "is_disabled": 0, "lon": -77.0222205, "name": "9498a1487b860da109f1473a842c1ca5", "fusion_lon": 0.0}, {"lat": 38.92297966666667, "fusion_lat": 0.0, "type": "electric_bike", "bike_id": "aa0ca4ded5a1ffc2d91091d3d42be96f", "is_reserved": 0, "rental_uris": {"ios": "https://dc.lft.to/lastmile_qr_scan", "android": "https://dc.lft.to/lastmile_qr_scan"}, "is_disabled": 0, "lon": -77.024186, "name": "aa0ca4ded5a1ffc2d91091d3d42be96f", "fusion_lon": 0.0}, {"lat": 38.9444235, "fusion_lat": 0.0, "type": "electric_scooter", "bike_id": "314237db60ebba3b2cc1ad4a4d7be9ea", "is_reserved": 0, "rental_uris": {"ios": "https://dc.lft.to/lastmile_qr_scan", "android": "https://dc.lft.to/lastmile_qr_scan"}, "is_disabled": 0, "lon": -77.06351, "name": "314237db60ebba3b2cc1ad4a4d7be9ea", "fusion_lon": 0.0}, {"lat": 38.917889, "fusion_lat": 0.0, "type": "electric_scooter", "bike_id": "44620a4784d01eb1a68869b0611464d6", "is_reserved": 0, "rental_uris": {"ios": "https://dc.lft.to/lastmile_qr_scan", "android": "https://dc.lft.to/lastmile_qr_scan"}, "is_disabled": 0, "lon": -77.04213433333334, "name": "44620a4784d01eb1a68869b0611464d6", "fusion_lon": 0.0}, {"lat": 38.91936283333333, "fusion_lat": 0.0, "type": "electric_scooter", "bike_id": "e45855ec16c7b5419cf791b02675031d", "is_reserved": 0, "rental_uris": {"ios": "https://dc.lft.to/lastmile_qr_scan", "android": "https://dc.lft.to/lastmile_qr_scan"}, "is_disabled": 0, "lon": -77.0455885, "name": "e45855ec16c7b5419cf791b02675031d", "fusion_lon": 0.0}, {"lat": 38.9192385, "fusion_lat": 0.0, "type": "electric_scooter", "bike_id": "93b33d20cc7378321641ced9bc78ecaa", "is_reserved": 0, "rental_uris": {"ios": "https://dc.lft.to/lastmile_qr_scan", "android": "https://dc.lft.to/lastmile_qr_scan"}, "is_disabled": 0, "lon": -77.02577566666666, "name": "93b33d20cc7378321641ced9bc78ecaa", "fusion_lon": 0.0}, {"lat": 38.89219966666667, "fusion_lat": 0.0, "type": "electric_scooter", "bike_id": "0781ef380e550985a65fa67256e0aedf", "is_reserved": 0, "rental_uris": {"ios": "https://dc.lft.to/lastmile_qr_scan", "android": "https://dc.lft.to/lastmile_qr_scan"}, "is_disabled": 0, "lon": -77.04266016666666, "name": "0781ef380e550985a65fa67256e0aedf", "fusion_lon": 0.0}, {"lat": 38.89916383333333, "fusion_lat": 0.0, "type": "electric_scooter", "bike_id": "de292b6de894cfe4a116f1a37c61120d", "is_reserved": 0, "rental_uris": {"ios": "https://dc.lft.to/lastmile_qr_scan", "android": "https://dc.lft.to/lastmile_qr_scan"}, "is_disabled": 0, "lon": -77.0137585, "name": "de292b6de894cfe4a116f1a37c61120d", "fusion_lon": 0.0}, {"lat": 38.96503966666667, "fusion_lat": 0.0, "type": "electric_bike", "bike_id": "f08bc67169941a647b6dc408f20ee72f", "is_reserved": 0, "rental_uris": {"ios": "https://dc.lft.to/lastmile_qr_scan", "android": "https://dc.lft.to/lastmile_qr_scan"}, "is_disabled": 0, "lon": -77.01999416666666, "name": "f08bc67169941a647b6dc408f20ee72f", "fusion_lon": 0.0}, {"lat": 38.95176, "fusion_lat": 0.0, "type": "electric_bike", "bike_id": "5c147e663428356e89ae91e0cb4d5de2", "is_reserved": 0, "rental_uris": {"ios": "https://dc.lft.to/lastmile_qr_scan", "android": "https://dc.lft.to/lastmile_qr_scan"}, "is_disabled": 0, "lon": -76.97727016666667, "name": "5c147e663428356e89ae91e0cb4d5de2", "fusion_lon": 0.0}, {"lat": 38.91182466666667, "fusion_lat": 0.0, "type": "electric_scooter", "bike_id": "f3122852947b187e07e6d9896d859fd9", "is_reserved": 0, "rental_uris": {"ios": "https://dc.lft.to/lastmile_qr_scan", "android": "https://dc.lft.to/lastmile_qr_scan"}, "is_disabled": 0, "lon": -77.03799333333333, "name": "f3122852947b187e07e6d9896d859fd9", "fusion_lon": 0.0}, {"lat": 38.9283765, "fusion_lat": 0.0, "type": "electric_scooter", "bike_id": "74451b8ec7877a0e2dde1abedda8733a", "is_reserved": 0, "rental_uris": {"ios": "https://dc.lft.to/lastmile_qr_scan", "android": "https://dc.lft.to/lastmile_qr_scan"}, "is_disabled": 0, "lon": -77.01383, "name": "74451b8ec7877a0e2dde1abedda8733a", "fusion_lon": 0.0}, {"lat": 38.90493033333333, "fusion_lat": 0.0, "type": "electric_scooter", "bike_id": "afc80a1acb66bb4f420bb32bd7b7aeeb", "is_reserved": 0, "rental_uris": {"ios": "https://dc.lft.to/lastmile_qr_scan", "android": "https://dc.lft.to/lastmile_qr_scan"}, "is_disabled": 0, "lon": -76.94959166666666, "name": "afc80a1acb66bb4f420bb32bd7b7aeeb", "fusion_lon": 0.0}, {"lat": 38.9213635, "fusion_lat": 0.0, "type": "electric_scooter", "bike_id": "8f58f82d9cdfd0f3d2762ee2bd047ac0", "is_reserved": 0, "rental_uris": {"ios": "https://dc.lft.to/lastmile_qr_scan", "android": "https://dc.lft.to/lastmile_qr_scan"}, "is_disabled": 0, "lon": -77.01825683333334, "name": "8f58f82d9cdfd0f3d2762ee2bd047ac0", "fusion_lon": 0.0}, {"lat": 38.92874616666667, "fusion_lat": 0.0, "type": "electric_scooter", "bike_id": "fd1dcf264b10176ce0ac9beaaec6e003", "is_reserved": 0, "rental_uris": {"ios": "https://dc.lft.to/lastmile_qr_scan", "android": "https://dc.lft.to/lastmile_qr_scan"}, "is_disabled": 0, "lon": -77.037344, "name": "fd1dcf264b10176ce0ac9beaaec6e003", "fusion_lon": 0.0}, {"lat": 38.90085533333333, "fusion_lat": 0.0, "type": "electric_scooter", "bike_id": "5784bd63761c29ceea7f0de21def22e4", "is_reserved": 0, "rental_uris": {"ios": "https://dc.lft.to/lastmile_qr_scan", "android": "https://dc.lft.to/lastmile_qr_scan"}, "is_disabled": 0, "lon": -77.030768, "name": "5784bd63761c29ceea7f0de21def22e4", "fusion_lon": 0.0}, {"lat": 38.924413, "fusion_lat": 0.0, "type": "electric_bike", "bike_id": "0a8f6bd23bb7e78b2cad1a48784dd15e", "is_reserved": 0, "rental_uris": {"ios": "https://dc.lft.to/lastmile_qr_scan", "android": "https://dc.lft.to/lastmile_qr_scan"}, "is_disabled": 0, "lon": -77.22577616666666, "name": "0a8f6bd23bb7e78b2cad1a48784dd15e", "fusion_lon": 0.0}, {"lat": 38.88137433333333, "fusion_lat": 0.0, "type": "electric_scooter", "bike_id": "a19a60c39d2e4f8fd037fa6b5743e33f", "is_reserved": 0, "rental_uris": {"ios": "https://dc.lft.to/lastmile_qr_scan", "android": "https://dc.lft.to/lastmile_qr_scan"}, "is_disabled": 0, "lon": -77.01336283333333, "name": "a19a60c39d2e4f8fd037fa6b5743e33f", "fusion_lon": 0.0}, {"lat": 38.8759495, "fusion_lat": 0.0, "type": "electric_scooter", "bike_id": "a61b789fa3ffbe0bb42327986c64ee90", "is_reserved": 0, "rental_uris": {"ios": "https://dc.lft.to/lastmile_qr_scan", "android": "https://dc.lft.to/lastmile_qr_scan"}, "is_disabled": 0, "lon": -77.0008205, "name": "a61b789fa3ffbe0bb42327986c64ee90", "fusion_lon": 0.0}, {"lat": 38.90971783333333, "fusion_lat": 0.0, "type": "electric_scooter", "bike_id": "63dfe8f6c7c8b6964f3ef6493ae06081", "is_reserved": 0, "rental_uris": {"ios": "https://dc.lft.to/lastmile_qr_scan", "android": "https://dc.lft.to/lastmile_qr_scan"}, "is_disabled": 0, "lon": -77.0325085, "name": "63dfe8f6c7c8b6964f3ef6493ae06081", "fusion_lon": 0.0}, {"lat": 38.913206333333335, "fusion_lat": 0.0, "type": "electric_scooter", "bike_id": "a93156ad912205c8bd67ee52c421033a", "is_reserved": 0, "rental_uris": {"ios": "https://dc.lft.to/lastmile_qr_scan", "android": "https://dc.lft.to/lastmile_qr_scan"}, "is_disabled": 0, "lon": -76.98496466666667, "name": "a93156ad912205c8bd67ee52c421033a", "fusion_lon": 0.0}, {"lat": 38.918366666666664, "fusion_lat": 0.0, "type": "electric_scooter", "bike_id": "bc2716414e202ea6f0e98224ba324a12", "is_reserved": 0, "rental_uris": {"ios": "https://dc.lft.to/lastmile_qr_scan", "android": "https://dc.lft.to/lastmile_qr_scan"}, "is_disabled": 0, "lon": -77.0452, "name": "bc2716414e202ea6f0e98224ba324a12", "fusion_lon": 0.0}, {"lat": 38.887411166666666, "fusion_lat": 0.0, "type": "electric_scooter", "bike_id": "a0cb96620ba565d5cdf10fc8a136b33b", "is_reserved": 0, "rental_uris": {"ios": "https://dc.lft.to/lastmile_qr_scan", "android": "https://dc.lft.to/lastmile_qr_scan"}, "is_disabled": 0, "lon": -77.0153335, "name": "a0cb96620ba565d5cdf10fc8a136b33b", "fusion_lon": 0.0}, {"lat": 38.92179683333333, "fusion_lat": 0.0, "type": "electric_scooter", "bike_id": "3f0950da8e86fbb94d702feff0f5334d", "is_reserved": 0, "rental_uris": {"ios": "https://dc.lft.to/lastmile_qr_scan", "android": "https://dc.lft.to/lastmile_qr_scan"}, "is_disabled": 0, "lon": -77.01910266666667, "name": "3f0950da8e86fbb94d702feff0f5334d", "fusion_lon": 0.0}, {"lat": 38.904101, "fusion_lat": 0.0, "type": "electric_scooter", "bike_id": "4bc5d91c121ae509d2446ddb849343c4", "is_reserved": 0, "rental_uris": {"ios": "https://dc.lft.to/lastmile_qr_scan", "android": "https://dc.lft.to/lastmile_qr_scan"}, "is_disabled": 0, "lon": -76.97331983333333, "name": "4bc5d91c121ae509d2446ddb849343c4", "fusion_lon": 0.0}, {"lat": 38.95732366666667, "fusion_lat": 0.0, "type": "electric_scooter", "bike_id": "8421e80d19b2f0500172971ced761584", "is_reserved": 0, "rental_uris": {"ios": "https://dc.lft.to/lastmile_qr_scan", "android": "https://dc.lft.to/lastmile_qr_scan"}, "is_disabled": 0, "lon": -77.024012, "name": "8421e80d19b2f0500172971ced761584", "fusion_lon": 0.0}, {"lat": 38.917088, "fusion_lat": 0.0, "type": "electric_scooter", "bike_id": "e1e5061979e41e733481896531fc203f", "is_reserved": 0, "rental_uris": {"ios": "https://dc.lft.to/lastmile_qr_scan", "android": "https://dc.lft.to/lastmile_qr_scan"}, "is_disabled": 0, "lon": -77.09578316666666, "name": "e1e5061979e41e733481896531fc203f", "fusion_lon": 0.0}, {"lat": 38.951501, "fusion_lat": 0.0, "type": "electric_scooter", "bike_id": "95cffd9b8693dedd5f10adefb8f651d1", "is_reserved": 0, "rental_uris": {"ios": "https://dc.lft.to/lastmile_qr_scan", "android": "https://dc.lft.to/lastmile_qr_scan"}, "is_disabled": 0, "lon": -77.01870716666667, "name": "95cffd9b8693dedd5f10adefb8f651d1", "fusion_lon": 0.0}, {"lat": 38.9086225, "fusion_lat": 0.0, "type": "electric_scooter", "bike_id": "f6f5cd2df18e07fc42d6923a4816f1a9", "is_reserved": 0, "rental_uris": {"ios": "https://dc.lft.to/lastmile_qr_scan", "android": "https://dc.lft.to/lastmile_qr_scan"}, "is_disabled": 0, "lon": -77.02350516666667, "name": "f6f5cd2df18e07fc42d6923a4816f1a9", "fusion_lon": 0.0}, {"lat": 38.917848666666664, "fusion_lat": 0.0, "type": "electric_scooter", "bike_id": "0fd1553d200512f755643de86cb4c1e2", "is_reserved": 0, "rental_uris": {"ios": "https://dc.lft.to/lastmile_qr_scan", "android": "https://dc.lft.to/lastmile_qr_scan"}, "is_disabled": 0, "lon": -77.04212516666666, "name": "0fd1553d200512f755643de86cb4c1e2", "fusion_lon": 0.0}, {"lat": 38.89828383333333, "fusion_lat": 0.0, "type": "electric_scooter", "bike_id": "d3af3f74d71109dd426ecd6217dba96f", "is_reserved": 0, "rental_uris": {"ios": "https://dc.lft.to/lastmile_qr_scan", "android": "https://dc.lft.to/lastmile_qr_scan"}, "is_disabled": 0, "lon": -77.025779, "name": "d3af3f74d71109dd426ecd6217dba96f", "fusion_lon": 0.0}, {"lat": 38.9042285, "fusion_lat": 0.0, "type": "electric_scooter", "bike_id": "65c738a5f332e1b08375c4a6d7d55cd4", "is_reserved": 0, "rental_uris": {"ios": "https://dc.lft.to/lastmile_qr_scan", "android": "https://dc.lft.to/lastmile_qr_scan"}, "is_disabled": 0, "lon": -77.04985916666666, "name": "65c738a5f332e1b08375c4a6d7d55cd4", "fusion_lon": 0.0}, {"lat": 38.92322516666667, "fusion_lat": 0.0, "type": "electric_scooter", "bike_id": "7ae53b311c1d58dc6a57382307009be7", "is_reserved": 0, "rental_uris": {"ios": "https://dc.lft.to/lastmile_qr_scan", "android": "https://dc.lft.to/lastmile_qr_scan"}, "is_disabled": 0, "lon": -77.021314, "name": "7ae53b311c1d58dc6a57382307009be7", "fusion_lon": 0.0}, {"lat": 38.90084366666667, "fusion_lat": 0.0, "type": "electric_scooter", "bike_id": "eeeba698d47d5147895b4599193c5a9d", "is_reserved": 0, "rental_uris": {"ios": "https://dc.lft.to/lastmile_qr_scan", "android": "https://dc.lft.to/lastmile_qr_scan"}, "is_disabled": 0, "lon": -77.04986033333333, "name": "eeeba698d47d5147895b4599193c5a9d", "fusion_lon": 0.0}, {"lat": 38.91921033333333, "fusion_lat": 0.0, "type": "electric_scooter", "bike_id": "b8c7914c48488e25a942d4966e515f3e", "is_reserved": 0, "rental_uris": {"ios": "https://dc.lft.to/lastmile_qr_scan", "android": "https://dc.lft.to/lastmile_qr_scan"}, "is_disabled": 0, "lon": -77.03389566666667, "name": "b8c7914c48488e25a942d4966e515f3e", "fusion_lon": 0.0}, {"lat": 38.90665633333333, "fusion_lat": 0.0, "type": "electric_scooter", "bike_id": "c501e6de85f6fd1f80415f1f3f3e9653", "is_reserved": 0, "rental_uris": {"ios": "https://dc.lft.to/lastmile_qr_scan", "android": "https://dc.lft.to/lastmile_qr_scan"}, "is_disabled": 0, "lon": -77.03860183333333, "name": "c501e6de85f6fd1f80415f1f3f3e9653", "fusion_lon": 0.0}, {"lat": 38.913023833333334, "fusion_lat": 0.0, "type": "electric_scooter", "bike_id": "0949c9bf7bb5d15024f830ca05915834", "is_reserved": 0, "rental_uris": {"ios": "https://dc.lft.to/lastmile_qr_scan", "android": "https://dc.lft.to/lastmile_qr_scan"}, "is_disabled": 0, "lon": -77.06677166666667, "name": "0949c9bf7bb5d15024f830ca05915834", "fusion_lon": 0.0}, {"lat": 38.90038883333333, "fusion_lat": 0.0, "type": "electric_scooter", "bike_id": "5632f07b6f5e37a9b2bb33c7d7ac1a83", "is_reserved": 0, "rental_uris": {"ios": "https://dc.lft.to/lastmile_qr_scan", "android": "https://dc.lft.to/lastmile_qr_scan"}, "is_disabled": 0, "lon": -76.98740883333333, "name": "5632f07b6f5e37a9b2bb33c7d7ac1a83", "fusion_lon": 0.0}, {"lat": 38.89504216666667, "fusion_lat": 0.0, "type": "electric_scooter", "bike_id": "6a7061accf77688eb969225bb50977b8", "is_reserved": 0, "rental_uris": {"ios": "https://dc.lft.to/lastmile_qr_scan", "android": "https://dc.lft.to/lastmile_qr_scan"}, "is_disabled": 0, "lon": -76.93475066666667, "name": "6a7061accf77688eb969225bb50977b8", "fusion_lon": 0.0}, {"lat": 38.91107616666667, "fusion_lat": 0.0, "type": "electric_scooter", "bike_id": "ecbd25b5552cf167b196415bbf5be320", "is_reserved": 0, "rental_uris": {"ios": "https://dc.lft.to/lastmile_qr_scan", "android": "https://dc.lft.to/lastmile_qr_scan"}, "is_disabled": 0, "lon": -77.038236, "name": "ecbd25b5552cf167b196415bbf5be320", "fusion_lon": 0.0}, {"lat": 38.905600666666665, "fusion_lat": 0.0, "type": "electric_scooter", "bike_id": "f89bd5e614ee49c77ebaaadde53fcf60", "is_reserved": 0, "rental_uris": {"ios": "https://dc.lft.to/lastmile_qr_scan", "android": "https://dc.lft.to/lastmile_qr_scan"}, "is_disabled": 0, "lon": -77.03428166666667, "name": "f89bd5e614ee49c77ebaaadde53fcf60", "fusion_lon": 0.0}, {"lat": 38.9261695, "fusion_lat": 0.0, "type": "electric_scooter", "bike_id": "b765bd48efe3268e3657253525600008", "is_reserved": 0, "rental_uris": {"ios": "https://dc.lft.to/lastmile_qr_scan", "android": "https://dc.lft.to/lastmile_qr_scan"}, "is_disabled": 0, "lon": -77.04328966666667, "name": "b765bd48efe3268e3657253525600008", "fusion_lon": 0.0}, {"lat": 38.902616, "fusion_lat": 0.0, "type": "electric_scooter", "bike_id": "81debd94cb54cd21b67b6cdebc6b13d0", "is_reserved": 0, "rental_uris": {"ios": "https://dc.lft.to/lastmile_qr_scan", "android": "https://dc.lft.to/lastmile_qr_scan"}, "is_disabled": 0, "lon": -77.04342983333333, "name": "81debd94cb54cd21b67b6cdebc6b13d0", "fusion_lon": 0.0}, {"lat": 38.922373, "fusion_lat": 0.0, "type": "electric_scooter", "bike_id": "96bec49271dd7737ef43c94281b10880", "is_reserved": 0, "rental_uris": {"ios": "https://dc.lft.to/lastmile_qr_scan", "android": "https://dc.lft.to/lastmile_qr_scan"}, "is_disabled": 0, "lon": -77.0334795, "name": "96bec49271dd7737ef43c94281b10880", "fusion_lon": 0.0}, {"lat": 38.88199083333333, "fusion_lat": 0.0, "type": "electric_bike", "bike_id": "d7b4693562db72da7d94e34c246d920e", "is_reserved": 0, "rental_uris": {"ios": "https://dc.lft.to/lastmile_qr_scan", "android": "https://dc.lft.to/lastmile_qr_scan"}, "is_disabled": 0, "lon": -77.11753683333333, "name": "d7b4693562db72da7d94e34c246d920e", "fusion_lon": 0.0}, {"lat": 38.98860083333334, "fusion_lat": 0.0, "type": "electric_bike", "bike_id": "24ddb6f6a977b08e43c97d31dc3a59d9", "is_reserved": 0, "rental_uris": {"ios": "https://dc.lft.to/lastmile_qr_scan", "android": "https://dc.lft.to/lastmile_qr_scan"}, "is_disabled": 0, "lon": -77.095566, "name": "24ddb6f6a977b08e43c97d31dc3a59d9", "fusion_lon": 0.0}, {"lat": 38.866900333333334, "fusion_lat": 0.0, "type": "electric_scooter", "bike_id": "559e446906d8a40035a93a9f5e847177", "is_reserved": 0, "rental_uris": {"ios": "https://dc.lft.to/lastmile_qr_scan", "android": "https://dc.lft.to/lastmile_qr_scan"}, "is_disabled": 0, "lon": -76.98578383333333, "name": "559e446906d8a40035a93a9f5e847177", "fusion_lon": 0.0}, {"lat": 38.9343855, "fusion_lat": 0.0, "type": "electric_scooter", "bike_id": "f4b13a6a96f4baef5234cc5e34bed0c2", "is_reserved": 0, "rental_uris": {"ios": "https://dc.lft.to/lastmile_qr_scan", "android": "https://dc.lft.to/lastmile_qr_scan"}, "is_disabled": 0, "lon": -77.03280033333333, "name": "f4b13a6a96f4baef5234cc5e34bed0c2", "fusion_lon": 0.0}, {"lat": 38.91565533333333, "fusion_lat": 0.0, "type": "electric_scooter", "bike_id": "cb5856ad8386d1f0f69cf083a02453b4", "is_reserved": 0, "rental_uris": {"ios": "https://dc.lft.to/lastmile_qr_scan", "android": "https://dc.lft.to/lastmile_qr_scan"}, "is_disabled": 0, "lon": -77.03953183333333, "name": "cb5856ad8386d1f0f69cf083a02453b4", "fusion_lon": 0.0}, {"lat": 38.90936166666667, "fusion_lat": 0.0, "type": "electric_scooter", "bike_id": "0d30947532064239f414815ec3f20a35", "is_reserved": 0, "rental_uris": {"ios": "https://dc.lft.to/lastmile_qr_scan", "android": "https://dc.lft.to/lastmile_qr_scan"}, "is_disabled": 0, "lon": -77.0554305, "name": "0d30947532064239f414815ec3f20a35", "fusion_lon": 0.0}, {"lat": 38.883704333333334, "fusion_lat": 0.0, "type": "electric_scooter", "bike_id": "44dcd77c3d9b20bdad0f6c6d53e2ae97", "is_reserved": 0, "rental_uris": {"ios": "https://dc.lft.to/lastmile_qr_scan", "android": "https://dc.lft.to/lastmile_qr_scan"}, "is_disabled": 0, "lon": -76.99518233333333, "name": "44dcd77c3d9b20bdad0f6c6d53e2ae97", "fusion_lon": 0.0}, {"lat": 38.9222385, "fusion_lat": 0.0, "type": "electric_scooter", "bike_id": "6aa6042d75550b53e4cbe7295f99c115", "is_reserved": 0, "rental_uris": {"ios": "https://dc.lft.to/lastmile_qr_scan", "android": "https://dc.lft.to/lastmile_qr_scan"}, "is_disabled": 0, "lon": -77.042519, "name": "6aa6042d75550b53e4cbe7295f99c115", "fusion_lon": 0.0}, {"lat": 38.85064933333334, "fusion_lat": 0.0, "type": "electric_scooter", "bike_id": "cdeb2e9214c350d51517ce8105aecef2", "is_reserved": 0, "rental_uris": {"ios": "https://dc.lft.to/lastmile_qr_scan", "android": "https://dc.lft.to/lastmile_qr_scan"}, "is_disabled": 0, "lon": -76.97003933333333, "name": "cdeb2e9214c350d51517ce8105aecef2", "fusion_lon": 0.0}, {"lat": 38.9013325, "fusion_lat": 0.0, "type": "electric_scooter", "bike_id": "f55fff7dfca6f7ee3de5775871bc75fc", "is_reserved": 0, "rental_uris": {"ios": "https://dc.lft.to/lastmile_qr_scan", "android": "https://dc.lft.to/lastmile_qr_scan"}, "is_disabled": 0, "lon": -77.01309166666667, "name": "f55fff7dfca6f7ee3de5775871bc75fc", "fusion_lon": 0.0}, {"lat": 38.909888, "fusion_lat": 0.0, "type": "electric_scooter", "bike_id": "6852ee18bed33ad0116cc08b89fb88eb", "is_reserved": 0, "rental_uris": {"ios": "https://dc.lft.to/lastmile_qr_scan", "android": "https://dc.lft.to/lastmile_qr_scan"}, "is_disabled": 0, "lon": -77.03183466666667, "name": "6852ee18bed33ad0116cc08b89fb88eb", "fusion_lon": 0.0}, {"lat": 38.917025333333335, "fusion_lat": 0.0, "type": "electric_scooter", "bike_id": "ffca2a559001ae76eb4bb496e3ff9053", "is_reserved": 0, "rental_uris": {"ios": "https://dc.lft.to/lastmile_qr_scan", "android": "https://dc.lft.to/lastmile_qr_scan"}, "is_disabled": 0, "lon": -77.0105225, "name": "ffca2a559001ae76eb4bb496e3ff9053", "fusion_lon": 0.0}, {"lat": 38.893188, "fusion_lat": 0.0, "type": "electric_scooter", "bike_id": "453e32426062181ae576b0f416136837", "is_reserved": 0, "rental_uris": {"ios": "https://dc.lft.to/lastmile_qr_scan", "android": "https://dc.lft.to/lastmile_qr_scan"}, "is_disabled": 0, "lon": -76.93971716666667, "name": "453e32426062181ae576b0f416136837", "fusion_lon": 0.0}, {"lat": 38.899634666666664, "fusion_lat": 0.0, "type": "electric_scooter", "bike_id": "da72045e4e81c8c82514051de238b107", "is_reserved": 0, "rental_uris": {"ios": "https://dc.lft.to/lastmile_qr_scan", "android": "https://dc.lft.to/lastmile_qr_scan"}, "is_disabled": 0, "lon": -77.026119, "name": "da72045e4e81c8c82514051de238b107", "fusion_lon": 0.0}, {"lat": 38.90829016666667, "fusion_lat": 0.0, "type": "electric_scooter", "bike_id": "63a8f74b9ce51bdbfa89c4dc9cf32f01", "is_reserved": 0, "rental_uris": {"ios": "https://dc.lft.to/lastmile_qr_scan", "android": "https://dc.lft.to/lastmile_qr_scan"}, "is_disabled": 0, "lon": -77.03866466666666, "name": "63a8f74b9ce51bdbfa89c4dc9cf32f01", "fusion_lon": 0.0}, {"lat": 38.92936, "fusion_lat": 0.0, "type": "electric_scooter", "bike_id": "906a8722aff0309f9f81691690686464", "is_reserved": 0, "rental_uris": {"ios": "https://dc.lft.to/lastmile_qr_scan", "android": "https://dc.lft.to/lastmile_qr_scan"}, "is_disabled": 0, "lon": -77.03294, "name": "906a8722aff0309f9f81691690686464", "fusion_lon": 0.0}, {"lat": 38.9056545, "fusion_lat": 0.0, "type": "electric_scooter", "bike_id": "6cdddd36915778ac0fa868c3b7102f0b", "is_reserved": 0, "rental_uris": {"ios": "https://dc.lft.to/lastmile_qr_scan", "android": "https://dc.lft.to/lastmile_qr_scan"}, "is_disabled": 0, "lon": -77.028316, "name": "6cdddd36915778ac0fa868c3b7102f0b", "fusion_lon": 0.0}, {"lat": 38.895501833333334, "fusion_lat": 0.0, "type": "electric_scooter", "bike_id": "5aa66da9760b152db7bf514cd7323da6", "is_reserved": 0, "rental_uris": {"ios": "https://dc.lft.to/lastmile_qr_scan", "android": "https://dc.lft.to/lastmile_qr_scan"}, "is_disabled": 0, "lon": -76.949219, "name": "5aa66da9760b152db7bf514cd7323da6", "fusion_lon": 0.0}, {"lat": 38.905009, "fusion_lat": 0.0, "type": "electric_scooter", "bike_id": "47ab3ee859e9ef485dc66ecacf09fe30", "is_reserved": 0, "rental_uris": {"ios": "https://dc.lft.to/lastmile_qr_scan", "android": "https://dc.lft.to/lastmile_qr_scan"}, "is_disabled": 0, "lon": -77.0612815, "name": "47ab3ee859e9ef485dc66ecacf09fe30", "fusion_lon": 0.0}, {"lat": 38.97882333333333, "fusion_lat": 0.0, "type": "electric_bike", "bike_id": "9c7fce7ec17f578cffc69afc583aa81d", "is_reserved": 0, "rental_uris": {"ios": "https://dc.lft.to/lastmile_qr_scan", "android": "https://dc.lft.to/lastmile_qr_scan"}, "is_disabled": 0, "lon": -77.06029, "name": "9c7fce7ec17f578cffc69afc583aa81d", "fusion_lon": 0.0}, {"lat": 38.913301833333335, "fusion_lat": 0.0, "type": "electric_scooter", "bike_id": "1aaf598189164b30e01ea88d4dd6bb6b", "is_reserved": 0, "rental_uris": {"ios": "https://dc.lft.to/lastmile_qr_scan", "android": "https://dc.lft.to/lastmile_qr_scan"}, "is_disabled": 0, "lon": -77.0318595, "name": "1aaf598189164b30e01ea88d4dd6bb6b", "fusion_lon": 0.0}, {"lat": 38.9149575, "fusion_lat": 0.0, "type": "electric_scooter", "bike_id": "17b28913399fd367f54f2c82741e7c08", "is_reserved": 0, "rental_uris": {"ios": "https://dc.lft.to/lastmile_qr_scan", "android": "https://dc.lft.to/lastmile_qr_scan"}, "is_disabled": 0, "lon": -77.01860166666667, "name": "17b28913399fd367f54f2c82741e7c08", "fusion_lon": 0.0}, {"lat": 38.9125, "fusion_lat": 0.0, "type": "electric_scooter", "bike_id": "699d27ba480ba2419d74515d7fb3a8a6", "is_reserved": 0, "rental_uris": {"ios": "https://dc.lft.to/lastmile_qr_scan", "android": "https://dc.lft.to/lastmile_qr_scan"}, "is_disabled": 0, "lon": -77.03416783333333, "name": "699d27ba480ba2419d74515d7fb3a8a6", "fusion_lon": 0.0}, {"lat": 38.907006333333335, "fusion_lat": 0.0, "type": "electric_scooter", "bike_id": "e9b9a972878d457e1a66196de558f62e", "is_reserved": 0, "rental_uris": {"ios": "https://dc.lft.to/lastmile_qr_scan", "android": "https://dc.lft.to/lastmile_qr_scan"}, "is_disabled": 0, "lon": -77.02590716666667, "name": "e9b9a972878d457e1a66196de558f62e", "fusion_lon": 0.0}, {"lat": 38.909788666666664, "fusion_lat": 0.0, "type": "electric_scooter", "bike_id": "691dac0f9ab9e5b5a776f5f926ad0c0e", "is_reserved": 0, "rental_uris": {"ios": "https://dc.lft.to/lastmile_qr_scan", "android": "https://dc.lft.to/lastmile_qr_scan"}, "is_disabled": 0, "lon": -77.03441716666667, "name": "691dac0f9ab9e5b5a776f5f926ad0c0e", "fusion_lon": 0.0}, {"lat": 38.877642333333334, "fusion_lat": 0.0, "type": "electric_bike", "bike_id": "885d173553df2ae8cebc626c5435c4d7", "is_reserved": 0, "rental_uris": {"ios": "https://dc.lft.to/lastmile_qr_scan", "android": "https://dc.lft.to/lastmile_qr_scan"}, "is_disabled": 0, "lon": -77.010471, "name": "885d173553df2ae8cebc626c5435c4d7", "fusion_lon": 0.0}, {"lat": 38.9121915, "fusion_lat": 0.0, "type": "electric_scooter", "bike_id": "1ae17686a962e32a5e5c154ed4bf4c55", "is_reserved": 0, "rental_uris": {"ios": "https://dc.lft.to/lastmile_qr_scan", "android": "https://dc.lft.to/lastmile_qr_scan"}, "is_disabled": 0, "lon": -77.044964, "name": "1ae17686a962e32a5e5c154ed4bf4c55", "fusion_lon": 0.0}, {"lat": 38.89853766666667, "fusion_lat": 0.0, "type": "electric_scooter", "bike_id": "8fbd8fd6e0e95ed65aea9883c03072cd", "is_reserved": 0, "rental_uris": {"ios": "https://dc.lft.to/lastmile_qr_scan", "android": "https://dc.lft.to/lastmile_qr_scan"}, "is_disabled": 0, "lon": -77.0392705, "name": "8fbd8fd6e0e95ed65aea9883c03072cd", "fusion_lon": 0.0}, {"lat": 38.897312666666664, "fusion_lat": 0.0, "type": "electric_scooter", "bike_id": "9262a1c24f7acb1f28bbca85e6dceeed", "is_reserved": 0, "rental_uris": {"ios": "https://dc.lft.to/lastmile_qr_scan", "android": "https://dc.lft.to/lastmile_qr_scan"}, "is_disabled": 0, "lon": -77.0249075, "name": "9262a1c24f7acb1f28bbca85e6dceeed", "fusion_lon": 0.0}, {"lat": 38.910651, "fusion_lat": 0.0, "type": "electric_scooter", "bike_id": "58cf565f93612b70a5c95b8e590649b6", "is_reserved": 0, "rental_uris": {"ios": "https://dc.lft.to/lastmile_qr_scan", "android": "https://dc.lft.to/lastmile_qr_scan"}, "is_disabled": 0, "lon": -77.07407183333333, "name": "58cf565f93612b70a5c95b8e590649b6", "fusion_lon": 0.0}, {"lat": 38.84282183333333, "fusion_lat": 0.0, "type": "electric_bike", "bike_id": "a355234186d3d13b51e64024f280f10a", "is_reserved": 0, "rental_uris": {"ios": "https://dc.lft.to/lastmile_qr_scan", "android": "https://dc.lft.to/lastmile_qr_scan"}, "is_disabled": 0, "lon": -76.9883975, "name": "a355234186d3d13b51e64024f280f10a", "fusion_lon": 0.0}, {"lat": 38.89222316666667, "fusion_lat": 0.0, "type": "electric_scooter", "bike_id": "007a3f9c949cdc26961a9f6ab7d0e7d0", "is_reserved": 0, "rental_uris": {"ios": "https://dc.lft.to/lastmile_qr_scan", "android": "https://dc.lft.to/lastmile_qr_scan"}, "is_disabled": 0, "lon": -77.04800766666666, "name": "007a3f9c949cdc26961a9f6ab7d0e7d0", "fusion_lon": 0.0}, {"lat": 38.90844, "fusion_lat": 0.0, "type": "electric_scooter", "bike_id": "1bc4acbd4047595c70fa572d5de9a7db", "is_reserved": 0, "rental_uris": {"ios": "https://dc.lft.to/lastmile_qr_scan", "android": "https://dc.lft.to/lastmile_qr_scan"}, "is_disabled": 0, "lon": -77.02235516666667, "name": "1bc4acbd4047595c70fa572d5de9a7db", "fusion_lon": 0.0}, {"lat": 38.9232315, "fusion_lat": 0.0, "type": "electric_scooter", "bike_id": "9b6f7c0225326e5a798f6c0ec5c8e3f9", "is_reserved": 0, "rental_uris": {"ios": "https://dc.lft.to/lastmile_qr_scan", "android": "https://dc.lft.to/lastmile_qr_scan"}, "is_disabled": 0, "lon": -77.04175683333334, "name": "9b6f7c0225326e5a798f6c0ec5c8e3f9", "fusion_lon": 0.0}, {"lat": 38.904970666666664, "fusion_lat": 0.0, "type": "electric_scooter", "bike_id": "3429462a30abfdd856e35b73193316ab", "is_reserved": 0, "rental_uris": {"ios": "https://dc.lft.to/lastmile_qr_scan", "android": "https://dc.lft.to/lastmile_qr_scan"}, "is_disabled": 0, "lon": -77.02949116666667, "name": "3429462a30abfdd856e35b73193316ab", "fusion_lon": 0.0}, {"lat": 38.90504166666667, "fusion_lat": 0.0, "type": "electric_scooter", "bike_id": "fbfb68a9f5e883b7921546ef0a62b582", "is_reserved": 0, "rental_uris": {"ios": "https://dc.lft.to/lastmile_qr_scan", "android": "https://dc.lft.to/lastmile_qr_scan"}, "is_disabled": 0, "lon": -77.0294595, "name": "fbfb68a9f5e883b7921546ef0a62b582", "fusion_lon": 0.0}, {"lat": 38.90576166666666, "fusion_lat": 0.0, "type": "electric_scooter", "bike_id": "a82c4b6d548aab8989f1ef0eed8080e9", "is_reserved": 0, "rental_uris": {"ios": "https://dc.lft.to/lastmile_qr_scan", "android": "https://dc.lft.to/lastmile_qr_scan"}, "is_disabled": 0, "lon": -77.03852733333333, "name": "a82c4b6d548aab8989f1ef0eed8080e9", "fusion_lon": 0.0}, {"lat": 38.9183905, "fusion_lat": 0.0, "type": "electric_scooter", "bike_id": "52a9d37f6ec12261f95e1ce700db88f6", "is_reserved": 0, "rental_uris": {"ios": "https://dc.lft.to/lastmile_qr_scan", "android": "https://dc.lft.to/lastmile_qr_scan"}, "is_disabled": 0, "lon": -77.017457, "name": "52a9d37f6ec12261f95e1ce700db88f6", "fusion_lon": 0.0}, {"lat": 38.9008785, "fusion_lat": 0.0, "type": "electric_scooter", "bike_id": "971ef8cb2706002206ee4b1865ea1b98", "is_reserved": 0, "rental_uris": {"ios": "https://dc.lft.to/lastmile_qr_scan", "android": "https://dc.lft.to/lastmile_qr_scan"}, "is_disabled": 0, "lon": -77.04763083333333, "name": "971ef8cb2706002206ee4b1865ea1b98", "fusion_lon": 0.0}, {"lat": 38.942844, "fusion_lat": 0.0, "type": "electric_bike", "bike_id": "4376b6ff2437f569982324e20d2d382b", "is_reserved": 0, "rental_uris": {"ios": "https://dc.lft.to/lastmile_qr_scan", "android": "https://dc.lft.to/lastmile_qr_scan"}, "is_disabled": 0, "lon": -76.98789866666667, "name": "4376b6ff2437f569982324e20d2d382b", "fusion_lon": 0.0}, {"lat": 39.013716, "fusion_lat": 0.0, "type": "electric_bike", "bike_id": "e30184a287630553d062dd0503e751cf", "is_reserved": 0, "rental_uris": {"ios": "https://dc.lft.to/lastmile_qr_scan", "android": "https://dc.lft.to/lastmile_qr_scan"}, "is_disabled": 0, "lon": -76.92132383333333, "name": "e30184a287630553d062dd0503e751cf", "fusion_lon": 0.0}, {"lat": 38.92444833333333, "fusion_lat": 0.0, "type": "electric_scooter", "bike_id": "1007c908f82419ef5e4b01fd3701654d", "is_reserved": 0, "rental_uris": {"ios": "https://dc.lft.to/lastmile_qr_scan", "android": "https://dc.lft.to/lastmile_qr_scan"}, "is_disabled": 0, "lon": -77.04409683333333, "name": "1007c908f82419ef5e4b01fd3701654d", "fusion_lon": 0.0}, {"lat": 38.88874716666667, "fusion_lat": 0.0, "type": "electric_scooter", "bike_id": "82b80774130866d1c70bc5b7193a07ee", "is_reserved": 0, "rental_uris": {"ios": "https://dc.lft.to/lastmile_qr_scan", "android": "https://dc.lft.to/lastmile_qr_scan"}, "is_disabled": 0, "lon": -76.99029566666667, "name": "82b80774130866d1c70bc5b7193a07ee", "fusion_lon": 0.0}, {"lat": 38.9234455, "fusion_lat": 0.0, "type": "electric_scooter", "bike_id": "e69107a79e924ac5e29b0816b9f9cbfa", "is_reserved": 0, "rental_uris": {"ios": "https://dc.lft.to/lastmile_qr_scan", "android": "https://dc.lft.to/lastmile_qr_scan"}, "is_disabled": 0, "lon": -77.05081033333333, "name": "e69107a79e924ac5e29b0816b9f9cbfa", "fusion_lon": 0.0}, {"lat": 38.919673333333336, "fusion_lat": 0.0, "type": "electric_scooter", "bike_id": "58de419a40d796eda13510cf399a3e17", "is_reserved": 0, "rental_uris": {"ios": "https://dc.lft.to/lastmile_qr_scan", "android": "https://dc.lft.to/lastmile_qr_scan"}, "is_disabled": 0, "lon": -77.0385365, "name": "58de419a40d796eda13510cf399a3e17", "fusion_lon": 0.0}, {"lat": 38.91680783333334, "fusion_lat": 0.0, "type": "electric_scooter", "bike_id": "f83d8d7cee231629af38f3d5823475f6", "is_reserved": 0, "rental_uris": {"ios": "https://dc.lft.to/lastmile_qr_scan", "android": "https://dc.lft.to/lastmile_qr_scan"}, "is_disabled": 0, "lon": -77.02354133333333, "name": "f83d8d7cee231629af38f3d5823475f6", "fusion_lon": 0.0}, {"lat": 38.8729545, "fusion_lat": 0.0, "type": "electric_bike", "bike_id": "70947466377afb877d2f05949dd8dc85", "is_reserved": 0, "rental_uris": {"ios": "https://dc.lft.to/lastmile_qr_scan", "android": "https://dc.lft.to/lastmile_qr_scan"}, "is_disabled": 0, "lon": -76.96978883333334, "name": "70947466377afb877d2f05949dd8dc85", "fusion_lon": 0.0}, {"lat": 38.949897666666665, "fusion_lat": 0.0, "type": "electric_scooter", "bike_id": "f71d75abd93fb93d931deb68029ca86c", "is_reserved": 0, "rental_uris": {"ios": "https://dc.lft.to/lastmile_qr_scan", "android": "https://dc.lft.to/lastmile_qr_scan"}, "is_disabled": 0, "lon": -77.0270295, "name": "f71d75abd93fb93d931deb68029ca86c", "fusion_lon": 0.0}, {"lat": 38.88182033333333, "fusion_lat": 0.0, "type": "electric_scooter", "bike_id": "01b1cec105aa7aea0374c5953bc6147b", "is_reserved": 0, "rental_uris": {"ios": "https://dc.lft.to/lastmile_qr_scan", "android": "https://dc.lft.to/lastmile_qr_scan"}, "is_disabled": 0, "lon": -77.0356925, "name": "01b1cec105aa7aea0374c5953bc6147b", "fusion_lon": 0.0}, {"lat": 38.907683166666665, "fusion_lat": 0.0, "type": "electric_scooter", "bike_id": "48a7f69d33316ae49dfc32d3a2f9717c", "is_reserved": 0, "rental_uris": {"ios": "https://dc.lft.to/lastmile_qr_scan", "android": "https://dc.lft.to/lastmile_qr_scan"}, "is_disabled": 0, "lon": -77.00029033333334, "name": "48a7f69d33316ae49dfc32d3a2f9717c", "fusion_lon": 0.0}, {"lat": 38.915601333333335, "fusion_lat": 0.0, "type": "electric_scooter", "bike_id": "c33a9aeb0de68d9ec99442a72da8c749", "is_reserved": 0, "rental_uris": {"ios": "https://dc.lft.to/lastmile_qr_scan", "android": "https://dc.lft.to/lastmile_qr_scan"}, "is_disabled": 0, "lon": -77.03168833333334, "name": "c33a9aeb0de68d9ec99442a72da8c749", "fusion_lon": 0.0}, {"lat": 38.87819016666667, "fusion_lat": 0.0, "type": "electric_scooter", "bike_id": "f94d726e0971a231074ab7381b6c6034", "is_reserved": 0, "rental_uris": {"ios": "https://dc.lft.to/lastmile_qr_scan", "android": "https://dc.lft.to/lastmile_qr_scan"}, "is_disabled": 0, "lon": -76.93109116666666, "name": "f94d726e0971a231074ab7381b6c6034", "fusion_lon": 0.0}, {"lat": 38.90410933333333, "fusion_lat": 0.0, "type": "electric_scooter", "bike_id": "2ee9b311fa85bcdfaf0fbf2b21cb250f", "is_reserved": 0, "rental_uris": {"ios": "https://dc.lft.to/lastmile_qr_scan", "android": "https://dc.lft.to/lastmile_qr_scan"}, "is_disabled": 0, "lon": -76.97327133333333, "name": "2ee9b311fa85bcdfaf0fbf2b21cb250f", "fusion_lon": 0.0}, {"lat": 38.89220383333333, "fusion_lat": 0.0, "type": "electric_scooter", "bike_id": "de1fa5ed55f4283696e1f425010cdbbe", "is_reserved": 0, "rental_uris": {"ios": "https://dc.lft.to/lastmile_qr_scan", "android": "https://dc.lft.to/lastmile_qr_scan"}, "is_disabled": 0, "lon": -77.02227883333333, "name": "de1fa5ed55f4283696e1f425010cdbbe", "fusion_lon": 0.0}, {"lat": 38.94893616666667, "fusion_lat": 0.0, "type": "electric_bike", "bike_id": "af9514de9d9a74bb9f259e563511ed65", "is_reserved": 0, "rental_uris": {"ios": "https://dc.lft.to/lastmile_qr_scan", "android": "https://dc.lft.to/lastmile_qr_scan"}, "is_disabled": 0, "lon": -76.96374066666667, "name": "af9514de9d9a74bb9f259e563511ed65", "fusion_lon": 0.0}, {"lat": 38.8850275, "fusion_lat": 0.0, "type": "electric_scooter", "bike_id": "06269cdc51c3bdddc24c3bdeb9ac931e", "is_reserved": 0, "rental_uris": {"ios": "https://dc.lft.to/lastmile_qr_scan", "android": "https://dc.lft.to/lastmile_qr_scan"}, "is_disabled": 0, "lon": -76.97711683333333, "name": "06269cdc51c3bdddc24c3bdeb9ac931e", "fusion_lon": 0.0}, {"lat": 38.941164, "fusion_lat": 0.0, "type": "electric_scooter", "bike_id": "acb04cac9a43f21c6f45e16a5737bc36", "is_reserved": 0, "rental_uris": {"ios": "https://dc.lft.to/lastmile_qr_scan", "android": "https://dc.lft.to/lastmile_qr_scan"}, "is_disabled": 0, "lon": -77.01791533333333, "name": "acb04cac9a43f21c6f45e16a5737bc36", "fusion_lon": 0.0}, {"lat": 38.907268333333334, "fusion_lat": 0.0, "type": "electric_scooter", "bike_id": "58e80d9ba34567aa25f92b37596cf550", "is_reserved": 0, "rental_uris": {"ios": "https://dc.lft.to/lastmile_qr_scan", "android": "https://dc.lft.to/lastmile_qr_scan"}, "is_disabled": 0, "lon": -77.014807, "name": "58e80d9ba34567aa25f92b37596cf550", "fusion_lon": 0.0}, {"lat": 38.8922435, "fusion_lat": 0.0, "type": "electric_scooter", "bike_id": "6b2665197405c31cf245dd51f4401eaa", "is_reserved": 0, "rental_uris": {"ios": "https://dc.lft.to/lastmile_qr_scan", "android": "https://dc.lft.to/lastmile_qr_scan"}, "is_disabled": 0, "lon": -77.03337833333333, "name": "6b2665197405c31cf245dd51f4401eaa", "fusion_lon": 0.0}, {"lat": 38.9026475, "fusion_lat": 0.0, "type": "electric_scooter", "bike_id": "c666282788b1d039c3259df452063d3a", "is_reserved": 0, "rental_uris": {"ios": "https://dc.lft.to/lastmile_qr_scan", "android": "https://dc.lft.to/lastmile_qr_scan"}, "is_disabled": 0, "lon": -77.03630533333333, "name": "c666282788b1d039c3259df452063d3a", "fusion_lon": 0.0}, {"lat": 38.92110383333333, "fusion_lat": 0.0, "type": "electric_scooter", "bike_id": "737531b7ba2887083b9e02d7907daae8", "is_reserved": 0, "rental_uris": {"ios": "https://dc.lft.to/lastmile_qr_scan", "android": "https://dc.lft.to/lastmile_qr_scan"}, "is_disabled": 0, "lon": -77.03924016666667, "name": "737531b7ba2887083b9e02d7907daae8", "fusion_lon": 0.0}, {"lat": 38.910275666666664, "fusion_lat": 0.0, "type": "electric_scooter", "bike_id": "d7f49634608ca6131f8aaa2c16dbbc23", "is_reserved": 0, "rental_uris": {"ios": "https://dc.lft.to/lastmile_qr_scan", "android": "https://dc.lft.to/lastmile_qr_scan"}, "is_disabled": 0, "lon": -77.00759116666667, "name": "d7f49634608ca6131f8aaa2c16dbbc23", "fusion_lon": 0.0}, {"lat": 38.909748666666665, "fusion_lat": 0.0, "type": "electric_scooter", "bike_id": "9a22ba3f7469a4b09e115c5ce7ea4feb", "is_reserved": 0, "rental_uris": {"ios": "https://dc.lft.to/lastmile_qr_scan", "android": "https://dc.lft.to/lastmile_qr_scan"}, "is_disabled": 0, "lon": -77.03447516666667, "name": "9a22ba3f7469a4b09e115c5ce7ea4feb", "fusion_lon": 0.0}, {"lat": 38.89760033333334, "fusion_lat": 0.0, "type": "electric_scooter", "bike_id": "1ef1bfaa91afde25529544b2f0a146bc", "is_reserved": 0, "rental_uris": {"ios": "https://dc.lft.to/lastmile_qr_scan", "android": "https://dc.lft.to/lastmile_qr_scan"}, "is_disabled": 0, "lon": -77.0268425, "name": "1ef1bfaa91afde25529544b2f0a146bc", "fusion_lon": 0.0}, {"lat": 38.9141175, "fusion_lat": 0.0, "type": "electric_scooter", "bike_id": "4ed19e990206e64d9636146de8f4819d", "is_reserved": 0, "rental_uris": {"ios": "https://dc.lft.to/lastmile_qr_scan", "android": "https://dc.lft.to/lastmile_qr_scan"}, "is_disabled": 0, "lon": -77.0437135, "name": "4ed19e990206e64d9636146de8f4819d", "fusion_lon": 0.0}, {"lat": 38.904201, "fusion_lat": 0.0, "type": "electric_scooter", "bike_id": "a1bc3f120ad5bb1452633734bdffda99", "is_reserved": 0, "rental_uris": {"ios": "https://dc.lft.to/lastmile_qr_scan", "android": "https://dc.lft.to/lastmile_qr_scan"}, "is_disabled": 0, "lon": -77.03270833333333, "name": "a1bc3f120ad5bb1452633734bdffda99", "fusion_lon": 0.0}, {"lat": 38.862576, "fusion_lat": 0.0, "type": "electric_scooter", "bike_id": "2cf61e279844f4976fde66d4fc778e73", "is_reserved": 0, "rental_uris": {"ios": "https://dc.lft.to/lastmile_qr_scan", "android": "https://dc.lft.to/lastmile_qr_scan"}, "is_disabled": 0, "lon": -76.99266216666666, "name": "2cf61e279844f4976fde66d4fc778e73", "fusion_lon": 0.0}, {"lat": 38.917300166666664, "fusion_lat": 0.0, "type": "electric_scooter", "bike_id": "f8ec3837dcb12b67452899f449b62ba2", "is_reserved": 0, "rental_uris": {"ios": "https://dc.lft.to/lastmile_qr_scan", "android": "https://dc.lft.to/lastmile_qr_scan"}, "is_disabled": 0, "lon": -77.025095, "name": "f8ec3837dcb12b67452899f449b62ba2", "fusion_lon": 0.0}, {"lat": 38.884061833333334, "fusion_lat": 0.0, "type": "electric_bike", "bike_id": "206243054c4fc0d15b12349844c66d24", "is_reserved": 0, "rental_uris": {"ios": "https://dc.lft.to/lastmile_qr_scan", "android": "https://dc.lft.to/lastmile_qr_scan"}, "is_disabled": 0, "lon": -76.960575, "name": "206243054c4fc0d15b12349844c66d24", "fusion_lon": 0.0}, {"lat": 38.89561616666667, "fusion_lat": 0.0, "type": "electric_bike", "bike_id": "07ed00aebdf70eb6794c865b6da1e173", "is_reserved": 0, "rental_uris": {"ios": "https://dc.lft.to/lastmile_qr_scan", "android": "https://dc.lft.to/lastmile_qr_scan"}, "is_disabled": 0, "lon": -77.1273395, "name": "07ed00aebdf70eb6794c865b6da1e173", "fusion_lon": 0.0}, {"lat": 38.906922333333334, "fusion_lat": 0.0, "type": "electric_scooter", "bike_id": "cf474ff6d6bebe3020aaaec7fb36fb6d", "is_reserved": 0, "rental_uris": {"ios": "https://dc.lft.to/lastmile_qr_scan", "android": "https://dc.lft.to/lastmile_qr_scan"}, "is_disabled": 0, "lon": -77.04325616666667, "name": "cf474ff6d6bebe3020aaaec7fb36fb6d", "fusion_lon": 0.0}, {"lat": 38.90224966666667, "fusion_lat": 0.0, "type": "electric_scooter", "bike_id": "52718cefe009fd65ae6b65243597357c", "is_reserved": 0, "rental_uris": {"ios": "https://dc.lft.to/lastmile_qr_scan", "android": "https://dc.lft.to/lastmile_qr_scan"}, "is_disabled": 0, "lon": -77.023774, "name": "52718cefe009fd65ae6b65243597357c", "fusion_lon": 0.0}, {"lat": 38.90297833333333, "fusion_lat": 0.0, "type": "electric_scooter", "bike_id": "98132685c27851428e4e1ed6d2f39924", "is_reserved": 0, "rental_uris": {"ios": "https://dc.lft.to/lastmile_qr_scan", "android": "https://dc.lft.to/lastmile_qr_scan"}, "is_disabled": 0, "lon": -77.0338195, "name": "98132685c27851428e4e1ed6d2f39924", "fusion_lon": 0.0}, {"lat": 38.900701, "fusion_lat": 0.0, "type": "electric_scooter", "bike_id": "dd90f855869b6dc6aa199c2e7004ab10", "is_reserved": 0, "rental_uris": {"ios": "https://dc.lft.to/lastmile_qr_scan", "android": "https://dc.lft.to/lastmile_qr_scan"}, "is_disabled": 0, "lon": -77.04825633333333, "name": "dd90f855869b6dc6aa199c2e7004ab10", "fusion_lon": 0.0}, {"lat": 38.920368833333335, "fusion_lat": 0.0, "type": "electric_scooter", "bike_id": "74e7b31352cdad9e05bd3189404c167b", "is_reserved": 0, "rental_uris": {"ios": "https://dc.lft.to/lastmile_qr_scan", "android": "https://dc.lft.to/lastmile_qr_scan"}, "is_disabled": 0, "lon": -77.01758166666667, "name": "74e7b31352cdad9e05bd3189404c167b", "fusion_lon": 0.0}, {"lat": 38.920161666666665, "fusion_lat": 0.0, "type": "electric_scooter", "bike_id": "27eb0c2543a3d8be5a93421718f11e23", "is_reserved": 0, "rental_uris": {"ios": "https://dc.lft.to/lastmile_qr_scan", "android": "https://dc.lft.to/lastmile_qr_scan"}, "is_disabled": 0, "lon": -77.04180616666666, "name": "27eb0c2543a3d8be5a93421718f11e23", "fusion_lon": 0.0}, {"lat": 38.92397233333333, "fusion_lat": 0.0, "type": "electric_scooter", "bike_id": "72132d0b3455c61ff3bb666d90da1ed6", "is_reserved": 0, "rental_uris": {"ios": "https://dc.lft.to/lastmile_qr_scan", "android": "https://dc.lft.to/lastmile_qr_scan"}, "is_disabled": 0, "lon": -77.02421366666667, "name": "72132d0b3455c61ff3bb666d90da1ed6", "fusion_lon": 0.0}, {"lat": 38.9068345, "fusion_lat": 0.0, "type": "electric_scooter", "bike_id": "72269089a7b2d6f0297836648e7e4c41", "is_reserved": 0, "rental_uris": {"ios": "https://dc.lft.to/lastmile_qr_scan", "android": "https://dc.lft.to/lastmile_qr_scan"}, "is_disabled": 0, "lon": -77.05326833333334, "name": "72269089a7b2d6f0297836648e7e4c41", "fusion_lon": 0.0}, {"lat": 38.908306, "fusion_lat": 0.0, "type": "electric_bike", "bike_id": "8846f59bec55f658a39b1137e32ab379", "is_reserved": 0, "rental_uris": {"ios": "https://dc.lft.to/lastmile_qr_scan", "android": "https://dc.lft.to/lastmile_qr_scan"}, "is_disabled": 0, "lon": -76.9415685, "name": "8846f59bec55f658a39b1137e32ab379", "fusion_lon": 0.0}, {"lat": 38.85526816666667, "fusion_lat": 0.0, "type": "electric_bike", "bike_id": "d70ad8e8bf0213fe813cb5d5d6396252", "is_reserved": 0, "rental_uris": {"ios": "https://dc.lft.to/lastmile_qr_scan", "android": "https://dc.lft.to/lastmile_qr_scan"}, "is_disabled": 0, "lon": -77.12002366666667, "name": "d70ad8e8bf0213fe813cb5d5d6396252", "fusion_lon": 0.0}, {"lat": 38.88607833333333, "fusion_lat": 0.0, "type": "electric_scooter", "bike_id": "21d12962e6f06f67b4bdc931f403ebf7", "is_reserved": 0, "rental_uris": {"ios": "https://dc.lft.to/lastmile_qr_scan", "android": "https://dc.lft.to/lastmile_qr_scan"}, "is_disabled": 0, "lon": -76.99511433333333, "name": "21d12962e6f06f67b4bdc931f403ebf7", "fusion_lon": 0.0}, {"lat": 38.928657333333334, "fusion_lat": 0.0, "type": "electric_scooter", "bike_id": "6bde51d29665564ac4ad5ae90c647d7a", "is_reserved": 0, "rental_uris": {"ios": "https://dc.lft.to/lastmile_qr_scan", "android": "https://dc.lft.to/lastmile_qr_scan"}, "is_disabled": 0, "lon": -77.03283816666666, "name": "6bde51d29665564ac4ad5ae90c647d7a", "fusion_lon": 0.0}, {"lat": 38.91266383333333, "fusion_lat": 0.0, "type": "electric_scooter", "bike_id": "fdb7d96f4a7cb3a22db962e6148827e7", "is_reserved": 0, "rental_uris": {"ios": "https://dc.lft.to/lastmile_qr_scan", "android": "https://dc.lft.to/lastmile_qr_scan"}, "is_disabled": 0, "lon": -77.04551616666667, "name": "fdb7d96f4a7cb3a22db962e6148827e7", "fusion_lon": 0.0}, {"lat": 38.911947, "fusion_lat": 0.0, "type": "electric_scooter", "bike_id": "b24f3c25caf3c66581334cdeae5050b7", "is_reserved": 0, "rental_uris": {"ios": "https://dc.lft.to/lastmile_qr_scan", "android": "https://dc.lft.to/lastmile_qr_scan"}, "is_disabled": 0, "lon": -77.00713183333333, "name": "b24f3c25caf3c66581334cdeae5050b7", "fusion_lon": 0.0}, {"lat": 38.9932675, "fusion_lat": 0.0, "type": "electric_bike", "bike_id": "8f54a738fd39a11546f484ad438e88cc", "is_reserved": 0, "rental_uris": {"ios": "https://dc.lft.to/lastmile_qr_scan", "android": "https://dc.lft.to/lastmile_qr_scan"}, "is_disabled": 0, "lon": -76.9461475, "name": "8f54a738fd39a11546f484ad438e88cc", "fusion_lon": 0.0}, {"lat": 38.91673516666667, "fusion_lat": 0.0, "type": "electric_scooter", "bike_id": "01a9acb7d60177673642f0d5d6a4b43b", "is_reserved": 0, "rental_uris": {"ios": "https://dc.lft.to/lastmile_qr_scan", "android": "https://dc.lft.to/lastmile_qr_scan"}, "is_disabled": 0, "lon": -77.015798, "name": "01a9acb7d60177673642f0d5d6a4b43b", "fusion_lon": 0.0}, {"lat": 38.9105685, "fusion_lat": 0.0, "type": "electric_scooter", "bike_id": "7e22f7a3113bd4c456f263b57001a222", "is_reserved": 0, "rental_uris": {"ios": "https://dc.lft.to/lastmile_qr_scan", "android": "https://dc.lft.to/lastmile_qr_scan"}, "is_disabled": 0, "lon": -77.04348366666666, "name": "7e22f7a3113bd4c456f263b57001a222", "fusion_lon": 0.0}, {"lat": 38.92184866666667, "fusion_lat": 0.0, "type": "electric_scooter", "bike_id": "9594c93393547aa8bd00252299fdac69", "is_reserved": 0, "rental_uris": {"ios": "https://dc.lft.to/lastmile_qr_scan", "android": "https://dc.lft.to/lastmile_qr_scan"}, "is_disabled": 0, "lon": -77.04011383333334, "name": "9594c93393547aa8bd00252299fdac69", "fusion_lon": 0.0}, {"lat": 38.929724, "fusion_lat": 0.0, "type": "electric_scooter", "bike_id": "b26db47ae7c4653249b425ea3e868d23", "is_reserved": 0, "rental_uris": {"ios": "https://dc.lft.to/lastmile_qr_scan", "android": "https://dc.lft.to/lastmile_qr_scan"}, "is_disabled": 0, "lon": -77.02337116666666, "name": "b26db47ae7c4653249b425ea3e868d23", "fusion_lon": 0.0}, {"lat": 38.88248816666667, "fusion_lat": 0.0, "type": "electric_bike", "bike_id": "8ac3c361391af92c57f2e00e03c53c43", "is_reserved": 0, "rental_uris": {"ios": "https://dc.lft.to/lastmile_qr_scan", "android": "https://dc.lft.to/lastmile_qr_scan"}, "is_disabled": 0, "lon": -76.96254666666667, "name": "8ac3c361391af92c57f2e00e03c53c43", "fusion_lon": 0.0}, {"lat": 38.897239166666665, "fusion_lat": 0.0, "type": "electric_scooter", "bike_id": "ebaaa4811c36970a88dd3e71e60efac6", "is_reserved": 0, "rental_uris": {"ios": "https://dc.lft.to/lastmile_qr_scan", "android": "https://dc.lft.to/lastmile_qr_scan"}, "is_disabled": 0, "lon": -77.02382533333333, "name": "ebaaa4811c36970a88dd3e71e60efac6", "fusion_lon": 0.0}, {"lat": 38.92158416666667, "fusion_lat": 0.0, "type": "electric_scooter", "bike_id": "bd726f26c58876da79a3ba35ac2226fc", "is_reserved": 0, "rental_uris": {"ios": "https://dc.lft.to/lastmile_qr_scan", "android": "https://dc.lft.to/lastmile_qr_scan"}, "is_disabled": 0, "lon": -77.03222983333333, "name": "bd726f26c58876da79a3ba35ac2226fc", "fusion_lon": 0.0}, {"lat": 38.9154475, "fusion_lat": 0.0, "type": "electric_scooter", "bike_id": "cdc10fc53509b7ec7d2ad1d7d69126ad", "is_reserved": 0, "rental_uris": {"ios": "https://dc.lft.to/lastmile_qr_scan", "android": "https://dc.lft.to/lastmile_qr_scan"}, "is_disabled": 0, "lon": -76.97011266666667, "name": "cdc10fc53509b7ec7d2ad1d7d69126ad", "fusion_lon": 0.0}, {"lat": 38.893566, "fusion_lat": 0.0, "type": "electric_scooter", "bike_id": "2e56eae0a320255188b12423220eeb42", "is_reserved": 0, "rental_uris": {"ios": "https://dc.lft.to/lastmile_qr_scan", "android": "https://dc.lft.to/lastmile_qr_scan"}, "is_disabled": 0, "lon": -76.94932633333333, "name": "2e56eae0a320255188b12423220eeb42", "fusion_lon": 0.0}, {"lat": 38.906706666666665, "fusion_lat": 0.0, "type": "electric_scooter", "bike_id": "9643f7f1709cb646234b7f8d3ee49b9a", "is_reserved": 0, "rental_uris": {"ios": "https://dc.lft.to/lastmile_qr_scan", "android": "https://dc.lft.to/lastmile_qr_scan"}, "is_disabled": 0, "lon": -77.07122733333334, "name": "9643f7f1709cb646234b7f8d3ee49b9a", "fusion_lon": 0.0}, {"lat": 38.91711266666667, "fusion_lat": 0.0, "type": "electric_scooter", "bike_id": "f5929849dbb5bcb454608ab4cdd5e926", "is_reserved": 0, "rental_uris": {"ios": "https://dc.lft.to/lastmile_qr_scan", "android": "https://dc.lft.to/lastmile_qr_scan"}, "is_disabled": 0, "lon": -77.03338433333333, "name": "f5929849dbb5bcb454608ab4cdd5e926", "fusion_lon": 0.0}, {"lat": 38.900951, "fusion_lat": 0.0, "type": "electric_scooter", "bike_id": "99a4cd11e051a33d46599ba3267291de", "is_reserved": 0, "rental_uris": {"ios": "https://dc.lft.to/lastmile_qr_scan", "android": "https://dc.lft.to/lastmile_qr_scan"}, "is_disabled": 0, "lon": -77.02409533333334, "name": "99a4cd11e051a33d46599ba3267291de", "fusion_lon": 0.0}, {"lat": 39.0431675, "fusion_lat": 0.0, "type": "electric_bike", "bike_id": "bd304587260bd38b67f9640fc99f75b0", "is_reserved": 0, "rental_uris": {"ios": "https://dc.lft.to/lastmile_qr_scan", "android": "https://dc.lft.to/lastmile_qr_scan"}, "is_disabled": 0, "lon": -77.05159283333333, "name": "bd304587260bd38b67f9640fc99f75b0", "fusion_lon": 0.0}, {"lat": 38.90649, "fusion_lat": 0.0, "type": "electric_scooter", "bike_id": "2f5ead0ad9a17ebd198279142a748f8c", "is_reserved": 0, "rental_uris": {"ios": "https://dc.lft.to/lastmile_qr_scan", "android": "https://dc.lft.to/lastmile_qr_scan"}, "is_disabled": 0, "lon": -77.0416325, "name": "2f5ead0ad9a17ebd198279142a748f8c", "fusion_lon": 0.0}, {"lat": 38.90009466666667, "fusion_lat": 0.0, "type": "electric_scooter", "bike_id": "d4947ede9e2cd45efc07f9f38b2b4723", "is_reserved": 0, "rental_uris": {"ios": "https://dc.lft.to/lastmile_qr_scan", "android": "https://dc.lft.to/lastmile_qr_scan"}, "is_disabled": 0, "lon": -76.99619566666667, "name": "d4947ede9e2cd45efc07f9f38b2b4723", "fusion_lon": 0.0}, {"lat": 38.82380033333333, "fusion_lat": 0.0, "type": "electric_bike", "bike_id": "22b71f29efe22533272a8eb0cd5a762e", "is_reserved": 0, "rental_uris": {"ios": "https://dc.lft.to/lastmile_qr_scan", "android": "https://dc.lft.to/lastmile_qr_scan"}, "is_disabled": 0, "lon": -77.00225616666667, "name": "22b71f29efe22533272a8eb0cd5a762e", "fusion_lon": 0.0}, {"lat": 38.89726183333333, "fusion_lat": 0.0, "type": "electric_scooter", "bike_id": "1870a1fb467ceace9020d9ff700dc40e", "is_reserved": 0, "rental_uris": {"ios": "https://dc.lft.to/lastmile_qr_scan", "android": "https://dc.lft.to/lastmile_qr_scan"}, "is_disabled": 0, "lon": -77.00223633333333, "name": "1870a1fb467ceace9020d9ff700dc40e", "fusion_lon": 0.0}, {"lat": 38.820463, "fusion_lat": 0.0, "type": "electric_bike", "bike_id": "94d776d6ba7126ea1bd88a44683bcd89", "is_reserved": 0, "rental_uris": {"ios": "https://dc.lft.to/lastmile_qr_scan", "android": "https://dc.lft.to/lastmile_qr_scan"}, "is_disabled": 0, "lon": -77.0530915, "name": "94d776d6ba7126ea1bd88a44683bcd89", "fusion_lon": 0.0}, {"lat": 38.9240845, "fusion_lat": 0.0, "type": "electric_scooter", "bike_id": "6f96adc36f6effbe85511a36c5a4fe05", "is_reserved": 0, "rental_uris": {"ios": "https://dc.lft.to/lastmile_qr_scan", "android": "https://dc.lft.to/lastmile_qr_scan"}, "is_disabled": 0, "lon": -77.020919, "name": "6f96adc36f6effbe85511a36c5a4fe05", "fusion_lon": 0.0}, {"lat": 38.92248933333333, "fusion_lat": 0.0, "type": "electric_scooter", "bike_id": "dbcb54c94e7cff250ece24d045db0aeb", "is_reserved": 0, "rental_uris": {"ios": "https://dc.lft.to/lastmile_qr_scan", "android": "https://dc.lft.to/lastmile_qr_scan"}, "is_disabled": 0, "lon": -77.01969433333333, "name": "dbcb54c94e7cff250ece24d045db0aeb", "fusion_lon": 0.0}, {"lat": 38.8461435, "fusion_lat": 0.0, "type": "electric_scooter", "bike_id": "ba1ee1182dceb8af614216b5c7124631", "is_reserved": 0, "rental_uris": {"ios": "https://dc.lft.to/lastmile_qr_scan", "android": "https://dc.lft.to/lastmile_qr_scan"}, "is_disabled": 0, "lon": -76.98155566666667, "name": "ba1ee1182dceb8af614216b5c7124631", "fusion_lon": 0.0}, {"lat": 38.85687566666667, "fusion_lat": 0.0, "type": "electric_scooter", "bike_id": "98a12116bdd060e07c29a06e4538d45d", "is_reserved": 0, "rental_uris": {"ios": "https://dc.lft.to/lastmile_qr_scan", "android": "https://dc.lft.to/lastmile_qr_scan"}, "is_disabled": 0, "lon": -76.98981283333333, "name": "98a12116bdd060e07c29a06e4538d45d", "fusion_lon": 0.0}, {"lat": 39.057922166666664, "fusion_lat": 0.0, "type": "electric_bike", "bike_id": "6360d1ae3fad83d4ee773ece60d0a4de", "is_reserved": 0, "rental_uris": {"ios": "https://dc.lft.to/lastmile_qr_scan", "android": "https://dc.lft.to/lastmile_qr_scan"}, "is_disabled": 0, "lon": -77.15029716666666, "name": "6360d1ae3fad83d4ee773ece60d0a4de", "fusion_lon": 0.0}, {"lat": 38.930110166666665, "fusion_lat": 0.0, "type": "electric_scooter", "bike_id": "ef4aba67c1c392870f4014a8bd2d8ee9", "is_reserved": 0, "rental_uris": {"ios": "https://dc.lft.to/lastmile_qr_scan", "android": "https://dc.lft.to/lastmile_qr_scan"}, "is_disabled": 0, "lon": -77.01428683333333, "name": "ef4aba67c1c392870f4014a8bd2d8ee9", "fusion_lon": 0.0}, {"lat": 38.900602, "fusion_lat": 0.0, "type": "electric_scooter", "bike_id": "9ced173165ced5c21cc164d349953b45", "is_reserved": 0, "rental_uris": {"ios": "https://dc.lft.to/lastmile_qr_scan", "android": "https://dc.lft.to/lastmile_qr_scan"}, "is_disabled": 0, "lon": -76.9347415, "name": "9ced173165ced5c21cc164d349953b45", "fusion_lon": 0.0}, {"lat": 38.90583983333333, "fusion_lat": 0.0, "type": "electric_scooter", "bike_id": "704ffccbbae7cf74a05388b2abe190cf", "is_reserved": 0, "rental_uris": {"ios": "https://dc.lft.to/lastmile_qr_scan", "android": "https://dc.lft.to/lastmile_qr_scan"}, "is_disabled": 0, "lon": -77.07020116666666, "name": "704ffccbbae7cf74a05388b2abe190cf", "fusion_lon": 0.0}, {"lat": 38.96322966666666, "fusion_lat": 0.0, "type": "electric_bike", "bike_id": "5c2fbc1ec467e11e67b264c61d1fb92a", "is_reserved": 0, "rental_uris": {"ios": "https://dc.lft.to/lastmile_qr_scan", "android": "https://dc.lft.to/lastmile_qr_scan"}, "is_disabled": 0, "lon": -76.97355233333333, "name": "5c2fbc1ec467e11e67b264c61d1fb92a", "fusion_lon": 0.0}, {"lat": 38.904822333333335, "fusion_lat": 0.0, "type": "electric_scooter", "bike_id": "0e4e42f39378b4e45721a64895e68b59", "is_reserved": 0, "rental_uris": {"ios": "https://dc.lft.to/lastmile_qr_scan", "android": "https://dc.lft.to/lastmile_qr_scan"}, "is_disabled": 0, "lon": -77.04183666666667, "name": "0e4e42f39378b4e45721a64895e68b59", "fusion_lon": 0.0}, {"lat": 38.96308783333333, "fusion_lat": 0.0, "type": "electric_bike", "bike_id": "dc66f03a68a7b6a5a57bcbf3c34668f0", "is_reserved": 0, "rental_uris": {"ios": "https://dc.lft.to/lastmile_qr_scan", "android": "https://dc.lft.to/lastmile_qr_scan"}, "is_disabled": 0, "lon": -77.011037, "name": "dc66f03a68a7b6a5a57bcbf3c34668f0", "fusion_lon": 0.0}, {"lat": 38.91911533333333, "fusion_lat": 0.0, "type": "electric_scooter", "bike_id": "96be77a016e3c4ffac4a8553242ede1b", "is_reserved": 0, "rental_uris": {"ios": "https://dc.lft.to/lastmile_qr_scan", "android": "https://dc.lft.to/lastmile_qr_scan"}, "is_disabled": 0, "lon": -77.01538766666667, "name": "96be77a016e3c4ffac4a8553242ede1b", "fusion_lon": 0.0}, {"lat": 38.905102, "fusion_lat": 0.0, "type": "electric_scooter", "bike_id": "ba169a7554c3c0f703ac64818bae0a4d", "is_reserved": 0, "rental_uris": {"ios": "https://dc.lft.to/lastmile_qr_scan", "android": "https://dc.lft.to/lastmile_qr_scan"}, "is_disabled": 0, "lon": -77.07015066666666, "name": "ba169a7554c3c0f703ac64818bae0a4d", "fusion_lon": 0.0}, {"lat": 38.916830166666664, "fusion_lat": 0.0, "type": "electric_scooter", "bike_id": "212711abd441e41607b5c5f82fe6bc36", "is_reserved": 0, "rental_uris": {"ios": "https://dc.lft.to/lastmile_qr_scan", "android": "https://dc.lft.to/lastmile_qr_scan"}, "is_disabled": 0, "lon": -77.01578583333334, "name": "212711abd441e41607b5c5f82fe6bc36", "fusion_lon": 0.0}, {"lat": 38.9171515, "fusion_lat": 0.0, "type": "electric_scooter", "bike_id": "7082d1c467b2bf63070e9f5306ec3fd6", "is_reserved": 0, "rental_uris": {"ios": "https://dc.lft.to/lastmile_qr_scan", "android": "https://dc.lft.to/lastmile_qr_scan"}, "is_disabled": 0, "lon": -77.01223833333333, "name": "7082d1c467b2bf63070e9f5306ec3fd6", "fusion_lon": 0.0}, {"lat": 38.95531616666667, "fusion_lat": 0.0, "type": "electric_bike", "bike_id": "e34cd4e0df4200344356fb22586cfbcc", "is_reserved": 0, "rental_uris": {"ios": "https://dc.lft.to/lastmile_qr_scan", "android": "https://dc.lft.to/lastmile_qr_scan"}, "is_disabled": 0, "lon": -76.96826566666667, "name": "e34cd4e0df4200344356fb22586cfbcc", "fusion_lon": 0.0}, {"lat": 38.887313666666664, "fusion_lat": 0.0, "type": "electric_scooter", "bike_id": "d2611f24de21e65fcf93318e27659c83", "is_reserved": 0, "rental_uris": {"ios": "https://dc.lft.to/lastmile_qr_scan", "android": "https://dc.lft.to/lastmile_qr_scan"}, "is_disabled": 0, "lon": -77.0319275, "name": "d2611f24de21e65fcf93318e27659c83", "fusion_lon": 0.0}, {"lat": 38.90530033333334, "fusion_lat": 0.0, "type": "electric_scooter", "bike_id": "690fbf2430f0fa052251e103c82da03a", "is_reserved": 0, "rental_uris": {"ios": "https://dc.lft.to/lastmile_qr_scan", "android": "https://dc.lft.to/lastmile_qr_scan"}, "is_disabled": 0, "lon": -77.06135583333334, "name": "690fbf2430f0fa052251e103c82da03a", "fusion_lon": 0.0}, {"lat": 38.936251, "fusion_lat": 0.0, "type": "electric_scooter", "bike_id": "6e7ea088cafa13f083517c56b5134a3e", "is_reserved": 0, "rental_uris": {"ios": "https://dc.lft.to/lastmile_qr_scan", "android": "https://dc.lft.to/lastmile_qr_scan"}, "is_disabled": 0, "lon": -77.03673933333333, "name": "6e7ea088cafa13f083517c56b5134a3e", "fusion_lon": 0.0}, {"lat": 38.896045, "fusion_lat": 0.0, "type": "electric_scooter", "bike_id": "f20bf626521abbe1c415589b9da54a11", "is_reserved": 0, "rental_uris": {"ios": "https://dc.lft.to/lastmile_qr_scan", "android": "https://dc.lft.to/lastmile_qr_scan"}, "is_disabled": 0, "lon": -77.02207933333334, "name": "f20bf626521abbe1c415589b9da54a11", "fusion_lon": 0.0}, {"lat": 38.918152, "fusion_lat": 0.0, "type": "electric_scooter", "bike_id": "c9693660711db827544b7fe223b06790", "is_reserved": 0, "rental_uris": {"ios": "https://dc.lft.to/lastmile_qr_scan", "android": "https://dc.lft.to/lastmile_qr_scan"}, "is_disabled": 0, "lon": -77.08962283333334, "name": "c9693660711db827544b7fe223b06790", "fusion_lon": 0.0}, {"lat": 38.8747335, "fusion_lat": 0.0, "type": "electric_scooter", "bike_id": "f2783ecf910faa2b12933e9bd2ff1b69", "is_reserved": 0, "rental_uris": {"ios": "https://dc.lft.to/lastmile_qr_scan", "android": "https://dc.lft.to/lastmile_qr_scan"}, "is_disabled": 0, "lon": -77.00560583333333, "name": "f2783ecf910faa2b12933e9bd2ff1b69", "fusion_lon": 0.0}, {"lat": 38.92973966666667, "fusion_lat": 0.0, "type": "electric_scooter", "bike_id": "a2e4f37bf897c8c73df3282aee7eed66", "is_reserved": 0, "rental_uris": {"ios": "https://dc.lft.to/lastmile_qr_scan", "android": "https://dc.lft.to/lastmile_qr_scan"}, "is_disabled": 0, "lon": -77.02952766666667, "name": "a2e4f37bf897c8c73df3282aee7eed66", "fusion_lon": 0.0}, {"lat": 38.83809883333333, "fusion_lat": 0.0, "type": "electric_bike", "bike_id": "a561fbcfd1982105dfc205e736a58625", "is_reserved": 0, "rental_uris": {"ios": "https://dc.lft.to/lastmile_qr_scan", "android": "https://dc.lft.to/lastmile_qr_scan"}, "is_disabled": 0, "lon": -77.09522166666666, "name": "a561fbcfd1982105dfc205e736a58625", "fusion_lon": 0.0}, {"lat": 38.90993616666667, "fusion_lat": 0.0, "type": "electric_scooter", "bike_id": "67a4e500a73abf394b16c741fefd75e8", "is_reserved": 0, "rental_uris": {"ios": "https://dc.lft.to/lastmile_qr_scan", "android": "https://dc.lft.to/lastmile_qr_scan"}, "is_disabled": 0, "lon": -77.04425366666666, "name": "67a4e500a73abf394b16c741fefd75e8", "fusion_lon": 0.0}, {"lat": 38.88768916666667, "fusion_lat": 0.0, "type": "electric_scooter", "bike_id": "6533a413a99e8ea318ee1e919088e627", "is_reserved": 0, "rental_uris": {"ios": "https://dc.lft.to/lastmile_qr_scan", "android": "https://dc.lft.to/lastmile_qr_scan"}, "is_disabled": 0, "lon": -76.99600883333333, "name": "6533a413a99e8ea318ee1e919088e627", "fusion_lon": 0.0}, {"lat": 38.89351833333333, "fusion_lat": 0.0, "type": "electric_scooter", "bike_id": "f9d5a98502feac0607b08e6c8c33f110", "is_reserved": 0, "rental_uris": {"ios": "https://dc.lft.to/lastmile_qr_scan", "android": "https://dc.lft.to/lastmile_qr_scan"}, "is_disabled": 0, "lon": -77.01720816666666, "name": "f9d5a98502feac0607b08e6c8c33f110", "fusion_lon": 0.0}, {"lat": 38.90793866666667, "fusion_lat": 0.0, "type": "electric_scooter", "bike_id": "6db2d6b1539dd00db46b6cabb552db41", "is_reserved": 0, "rental_uris": {"ios": "https://dc.lft.to/lastmile_qr_scan", "android": "https://dc.lft.to/lastmile_qr_scan"}, "is_disabled": 0, "lon": -77.03681233333333, "name": "6db2d6b1539dd00db46b6cabb552db41", "fusion_lon": 0.0}, {"lat": 38.857676833333336, "fusion_lat": 0.0, "type": "electric_bike", "bike_id": "9e78ad416db2723a19d5c259b5b46238", "is_reserved": 0, "rental_uris": {"ios": "https://dc.lft.to/lastmile_qr_scan", "android": "https://dc.lft.to/lastmile_qr_scan"}, "is_disabled": 0, "lon": -76.987525, "name": "9e78ad416db2723a19d5c259b5b46238", "fusion_lon": 0.0}, {"lat": 38.955316333333336, "fusion_lat": 0.0, "type": "electric_scooter", "bike_id": "3844b9b9e1e7f9dc21f089e47b490e69", "is_reserved": 0, "rental_uris": {"ios": "https://dc.lft.to/lastmile_qr_scan", "android": "https://dc.lft.to/lastmile_qr_scan"}, "is_disabled": 0, "lon": -77.02775683333333, "name": "3844b9b9e1e7f9dc21f089e47b490e69", "fusion_lon": 0.0}, {"lat": 38.89893983333333, "fusion_lat": 0.0, "type": "electric_scooter", "bike_id": "bbb4cd55104a5320031459dd97d56173", "is_reserved": 0, "rental_uris": {"ios": "https://dc.lft.to/lastmile_qr_scan", "android": "https://dc.lft.to/lastmile_qr_scan"}, "is_disabled": 0, "lon": -76.97708066666667, "name": "bbb4cd55104a5320031459dd97d56173", "fusion_lon": 0.0}, {"lat": 38.91268266666667, "fusion_lat": 0.0, "type": "electric_scooter", "bike_id": "6a4e2a10381d541d33064a273b56d771", "is_reserved": 0, "rental_uris": {"ios": "https://dc.lft.to/lastmile_qr_scan", "android": "https://dc.lft.to/lastmile_qr_scan"}, "is_disabled": 0, "lon": -77.03827366666667, "name": "6a4e2a10381d541d33064a273b56d771", "fusion_lon": 0.0}, {"lat": 38.92090783333333, "fusion_lat": 0.0, "type": "electric_scooter", "bike_id": "9895034905a34103b46e69834b8f7e1d", "is_reserved": 0, "rental_uris": {"ios": "https://dc.lft.to/lastmile_qr_scan", "android": "https://dc.lft.to/lastmile_qr_scan"}, "is_disabled": 0, "lon": -77.01694316666666, "name": "9895034905a34103b46e69834b8f7e1d", "fusion_lon": 0.0}, {"lat": 38.92099616666667, "fusion_lat": 0.0, "type": "electric_scooter", "bike_id": "96ed54b2242370489942b2c5ed1d3c2f", "is_reserved": 0, "rental_uris": {"ios": "https://dc.lft.to/lastmile_qr_scan", "android": "https://dc.lft.to/lastmile_qr_scan"}, "is_disabled": 0, "lon": -77.0174685, "name": "96ed54b2242370489942b2c5ed1d3c2f", "fusion_lon": 0.0}, {"lat": 38.917016333333336, "fusion_lat": 0.0, "type": "electric_scooter", "bike_id": "a64f4f9715370fbfb6290161e4c0c9c5", "is_reserved": 0, "rental_uris": {"ios": "https://dc.lft.to/lastmile_qr_scan", "android": "https://dc.lft.to/lastmile_qr_scan"}, "is_disabled": 0, "lon": -77.02453766666666, "name": "a64f4f9715370fbfb6290161e4c0c9c5", "fusion_lon": 0.0},