{"data": {"bikes": [{"bike_id": "a22421e8561ab392e3e1ded2f746189b", "type": "electric_scooter", "is_disabled": 0, "lat": 38.915745, "rental_uris": {"ios": "https://dc.lft.to/lastmile_qr_scan", "android": "https://dc.lft.to/lastmile_qr_scan"}, "is_reserved": 0, "fusion_lon": 0.0, "fusion_lat": 0.0, "lon": -77.034672, "name": "a22421e8561ab392e3e1ded2f746189b"}, {"bike_id": "6a97a96e73a1f0f051b69f8f70edc7e7", "type": "electric_scooter", "is_disabled": 0, "lat": 38.901129, "rental_uris": {"ios": "https://dc.lft.to/lastmile_qr_scan", "android": "https://dc.lft.to/lastmile_qr_scan"}, "is_reserved": 0, "fusion_lon": 0.0, "fusion_lat": 0.0, "lon": -77.0497385, "name": "6a97a96e73a1f0f051b69f8f70edc7e7"}, {"bike_id": "19757cae6dc4d7dee816fcee1fa2ee23", "type": "electric_scooter", "is_disabled": 0, "lat": 38.91818116666666, "rental_uris": {"ios": "https://dc.lft.to/lastmile_qr_scan", "android": "https://dc.lft.to/lastmile_qr_scan"}, "is_reserved": 0, "fusion_lon": 0.0, "fusion_lat": 0.0, "lon": -77.01019266666667, "name": "19757cae6dc4d7dee816fcee1fa2ee23"}, {"bike_id": "53a5cc4b943fc43fb703945d61401dab", "type": "electric_scooter", "is_disabled": 0, "lat": 38.862387166666664, "rental_uris": {"ios": "https://dc.lft.to/lastmile_qr_scan", "android": "https://dc.lft.to/lastmile_qr_scan"}, "is_reserved": 0, "fusion_lon": 0.0, "fusion_lat": 0.0, "lon": -76.9951915, "name": "53a5cc4b943fc43fb703945d61401dab"}, {"bike_id": "65551e1662d23507a9ff9f0fd98f7355", "type": "electric_scooter", "is_disabled": 0, "lat": 38.90748516666667, "rental_uris": {"ios": "https://dc.lft.to/lastmile_qr_scan", "android": "https://dc.lft.to/lastmile_qr_scan"}, "is_reserved": 0, "fusion_lon": 0.0, "fusion_lat": 0.0, "lon": -77.03187766666667, "name": "65551e1662d23507a9ff9f0fd98f7355"}, {"bike_id": "d2b14f5d5031f243255559bbaae436f9", "type": "electric_scooter", "is_disabled": 0, "lat": 38.927571, "rental_uris": {"ios": "https://dc.lft.to/lastmile_qr_scan", "android": "https://dc.lft.to/lastmile_qr_scan"}, "is_reserved": 0, "fusion_lon": 0.0, "fusion_lat": 0.0, "lon": -77.03270916666666, "name": "d2b14f5d5031f243255559bbaae436f9"}, {"bike_id": "9c53f8ec0d77b93edce8f3fa6c596e31", "type": "electric_scooter", "is_disabled": 0, "lat": 38.8803025, "rental_uris": {"ios": "https://dc.lft.to/lastmile_qr_scan", "android": "https://dc.lft.to/lastmile_qr_scan"}, "is_reserved": 0, "fusion_lon": 0.0, "fusion_lat": 0.0, "lon": -77.0251015, "name": "9c53f8ec0d77b93edce8f3fa6c596e31"}, {"bike_id": "86be43e6615bf851559e390fc20ccb5c", "type": "electric_scooter", "is_disabled": 0, "lat": 38.8932245, "rental_uris": {"ios": "https://dc.lft.to/lastmile_qr_scan", "android": "https://dc.lft.to/lastmile_qr_scan"}, "is_reserved": 0, "fusion_lon": 0.0, "fusion_lat": 0.0, "lon": -77.048762, "name": "86be43e6615bf851559e390fc20ccb5c"}, {"bike_id": "24897d3bf7092285fd972aa7b6bc297a", "type": "electric_scooter", "is_disabled": 0, "lat": 38.904686, "rental_uris": {"ios": "https://dc.lft.to/lastmile_qr_scan", "android": "https://dc.lft.to/lastmile_qr_scan"}, "is_reserved": 0, "fusion_lon": 0.0, "fusion_lat": 0.0, "lon": -77.03566783333333, "name": "24897d3bf7092285fd972aa7b6bc297a"}, {"bike_id": "66cdd0ed6d99bfe3ad14797a34dd2e2d", "type": "electric_bike", "is_disabled": 0, "lat": 38.799846333333335, "rental_uris": {"ios": "https://dc.lft.to/lastmile_qr_scan", "android": "https://dc.lft.to/lastmile_qr_scan"}, "is_reserved": 0, "fusion_lon": 0.0, "fusion_lat": 0.0, "lon": -77.129778, "name": "66cdd0ed6d99bfe3ad14797a34dd2e2d"}, {"bike_id": "3b5853ed64eb5a960b8422d6dee5a5e8", "type": "electric_bike", "is_disabled": 0, "lat": 38.813074666666665, "rental_uris": {"ios": "https://dc.lft.to/lastmile_qr_scan", "android": "https://dc.lft.to/lastmile_qr_scan"}, "is_reserved": 0, "fusion_lon": 0.0, "fusion_lat": 0.0, "lon": -77.10969766666666, "name": "3b5853ed64eb5a960b8422d6dee5a5e8"}, {"bike_id": "abeedd8cf2c7a02bde6a2f5b73e87cc3", "type": "electric_scooter", "is_disabled": 0, "lat": 38.900807666666665, "rental_uris": {"ios": "https://dc.lft.to/lastmile_qr_scan", "android": "https://dc.lft.to/lastmile_qr_scan"}, "is_reserved": 0, "fusion_lon": 0.0, "fusion_lat": 0.0, "lon": -77.01912933333334, "name": "abeedd8cf2c7a02bde6a2f5b73e87cc3"}, {"bike_id": "db7622374c8d4292c612f18c71d73d5f", "type": "electric_scooter", "is_disabled": 0, "lat": 38.9563555, "rental_uris": {"ios": "https://dc.lft.to/lastmile_qr_scan", "android": "https://dc.lft.to/lastmile_qr_scan"}, "is_reserved": 0, "fusion_lon": 0.0, "fusion_lat": 0.0, "lon": -77.01163333333334, "name": "db7622374c8d4292c612f18c71d73d5f"}, {"bike_id": "75db9649f91c6867ad17e092429a36c4", "type": "electric_scooter", "is_disabled": 0, "lat": 38.89731733333333, "rental_uris": {"ios": "https://dc.lft.to/lastmile_qr_scan", "android": "https://dc.lft.to/lastmile_qr_scan"}, "is_reserved": 0, "fusion_lon": 0.0, "fusion_lat": 0.0, "lon": -76.997554, "name": "75db9649f91c6867ad17e092429a36c4"}, {"bike_id": "9c50c386e0d8eb63a54fd80d2089bfa0", "type": "electric_scooter", "is_disabled": 0, "lat": 38.887065166666666, "rental_uris": {"ios": "https://dc.lft.to/lastmile_qr_scan", "android": "https://dc.lft.to/lastmile_qr_scan"}, "is_reserved": 0, "fusion_lon": 0.0, "fusion_lat": 0.0, "lon": -77.02207683333333, "name": "9c50c386e0d8eb63a54fd80d2089bfa0"}, {"bike_id": "c2231b8165ce5922c467fe7a39025b13", "type": "electric_scooter", "is_disabled": 0, "lat": 38.92416016666667, "rental_uris": {"ios": "https://dc.lft.to/lastmile_qr_scan", "android": "https://dc.lft.to/lastmile_qr_scan"}, "is_reserved": 0, "fusion_lon": 0.0, "fusion_lat": 0.0, "lon": -77.05064733333333, "name": "c2231b8165ce5922c467fe7a39025b13"}, {"bike_id": "361f650a0283956fcb7b3af863cb911e", "type": "electric_scooter", "is_disabled": 0, "lat": 38.9073655, "rental_uris": {"ios": "https://dc.lft.to/lastmile_qr_scan", "android": "https://dc.lft.to/lastmile_qr_scan"}, "is_reserved": 0, "fusion_lon": 0.0, "fusion_lat": 0.0, "lon": -77.02809333333333, "name": "361f650a0283956fcb7b3af863cb911e"}, {"bike_id": "5cc12c38214dbf438e44f96346486341", "type": "electric_scooter", "is_disabled": 0, "lat": 38.90404616666667, "rental_uris": {"ios": "https://dc.lft.to/lastmile_qr_scan", "android": "https://dc.lft.to/lastmile_qr_scan"}, "is_reserved": 0, "fusion_lon": 0.0, "fusion_lat": 0.0, "lon": -77.00580866666667, "name": "5cc12c38214dbf438e44f96346486341"}, {"bike_id": "a184a3ec0633e67c2709ee1a2fe19a30", "type": "electric_scooter", "is_disabled": 0, "lat": 38.902288166666665, "rental_uris": {"ios": "https://dc.lft.to/lastmile_qr_scan", "android": "https://dc.lft.to/lastmile_qr_scan"}, "is_reserved": 0, "fusion_lon": 0.0, "fusion_lat": 0.0, "lon": -77.02108816666667, "name": "a184a3ec0633e67c2709ee1a2fe19a30"}, {"bike_id": "7f10daa3f2c1d761681c58d6e6c28f50", "type": "electric_scooter", "is_disabled": 0, "lat": 38.897302, "rental_uris": {"ios": "https://dc.lft.to/lastmile_qr_scan", "android": "https://dc.lft.to/lastmile_qr_scan"}, "is_reserved": 0, "fusion_lon": 0.0, "fusion_lat": 0.0, "lon": -77.04854033333334, "name": "7f10daa3f2c1d761681c58d6e6c28f50"}, {"bike_id": "6310eb138cecd33dd64c2d93e82922b8", "type": "electric_scooter", "is_disabled": 0, "lat": 38.90039133333333, "rental_uris": {"ios": "https://dc.lft.to/lastmile_qr_scan", "android": "https://dc.lft.to/lastmile_qr_scan"}, "is_reserved": 0, "fusion_lon": 0.0, "fusion_lat": 0.0, "lon": -77.00203933333333, "name": "6310eb138cecd33dd64c2d93e82922b8"}, {"bike_id": "a678a9503fbb28501ec18961dbe87083", "type": "electric_scooter", "is_disabled": 0, "lat": 38.9319415, "rental_uris": {"ios": "https://dc.lft.to/lastmile_qr_scan", "android": "https://dc.lft.to/lastmile_qr_scan"}, "is_reserved": 0, "fusion_lon": 0.0, "fusion_lat": 0.0, "lon": -77.04532316666666, "name": "a678a9503fbb28501ec18961dbe87083"}, {"bike_id": "c683b918cdfc07d66afa1565d15ec113", "type": "electric_bike", "is_disabled": 0, "lat": 38.87477166666667, "rental_uris": {"ios": "https://dc.lft.to/lastmile_qr_scan", "android": "https://dc.lft.to/lastmile_qr_scan"}, "is_reserved": 0, "fusion_lon": 0.0, "fusion_lat": 0.0, "lon": -76.965294, "name": "c683b918cdfc07d66afa1565d15ec113"}, {"bike_id": "485f714dbbc2587c140bf7b6ac24f030", "type": "electric_scooter", "is_disabled": 0, "lat": 38.90169783333333, "rental_uris": {"ios": "https://dc.lft.to/lastmile_qr_scan", "android": "https://dc.lft.to/lastmile_qr_scan"}, "is_reserved": 0, "fusion_lon": 0.0, "fusion_lat": 0.0, "lon": -76.93028316666667, "name": "485f714dbbc2587c140bf7b6ac24f030"}, {"bike_id": "612cfba3bc8a35379106cb053ea58d85", "type": "electric_scooter", "is_disabled": 0, "lat": 38.876338, "rental_uris": {"ios": "https://dc.lft.to/lastmile_qr_scan", "android": "https://dc.lft.to/lastmile_qr_scan"}, "is_reserved": 0, "fusion_lon": 0.0, "fusion_lat": 0.0, "lon": -77.0169145, "name": "612cfba3bc8a35379106cb053ea58d85"}, {"bike_id": "3e1cf8daff6599f141689093e9ea5155", "type": "electric_scooter", "is_disabled": 0, "lat": 38.92262566666667, "rental_uris": {"ios": "https://dc.lft.to/lastmile_qr_scan", "android": "https://dc.lft.to/lastmile_qr_scan"}, "is_reserved": 0, "fusion_lon": 0.0, "fusion_lat": 0.0, "lon": -77.0366575, "name": "3e1cf8daff6599f141689093e9ea5155"}, {"bike_id": "aee5a19fff737bae72013dff498d7fcd", "type": "electric_scooter", "is_disabled": 0, "lat": 38.912788666666664, "rental_uris": {"ios": "https://dc.lft.to/lastmile_qr_scan", "android": "https://dc.lft.to/lastmile_qr_scan"}, "is_reserved": 0, "fusion_lon": 0.0, "fusion_lat": 0.0, "lon": -77.03669566666666, "name": "aee5a19fff737bae72013dff498d7fcd"}, {"bike_id": "310fb0ab0178ae91379950e8b6d6aca2", "type": "electric_scooter", "is_disabled": 0, "lat": 38.8871285, "rental_uris": {"ios": "https://dc.lft.to/lastmile_qr_scan", "android": "https://dc.lft.to/lastmile_qr_scan"}, "is_reserved": 0, "fusion_lon": 0.0, "fusion_lat": 0.0, "lon": -77.02206116666666, "name": "310fb0ab0178ae91379950e8b6d6aca2"}, {"bike_id": "663648cf73e55761a9a87d3ede65934e", "type": "electric_scooter", "is_disabled": 0, "lat": 38.9171645, "rental_uris": {"ios": "https://dc.lft.to/lastmile_qr_scan", "android": "https://dc.lft.to/lastmile_qr_scan"}, "is_reserved": 0, "fusion_lon": 0.0, "fusion_lat": 0.0, "lon": -77.03660983333333, "name": "663648cf73e55761a9a87d3ede65934e"}, {"bike_id": "4297d3aaf9cbb19948481185d032c464", "type": "electric_scooter", "is_disabled": 0, "lat": 38.9039255, "rental_uris": {"ios": "https://dc.lft.to/lastmile_qr_scan", "android": "https://dc.lft.to/lastmile_qr_scan"}, "is_reserved": 0, "fusion_lon": 0.0, "fusion_lat": 0.0, "lon": -77.06516816666667, "name": "4297d3aaf9cbb19948481185d032c464"}, {"bike_id": "a79662e94d6bd07ad69d7abca4ad5d0a", "type": "electric_scooter", "is_disabled": 0, "lat": 38.89345633333333, "rental_uris": {"ios": "https://dc.lft.to/lastmile_qr_scan", "android": "https://dc.lft.to/lastmile_qr_scan"}, "is_reserved": 0, "fusion_lon": 0.0, "fusion_lat": 0.0, "lon": -76.98087133333334, "name": "a79662e94d6bd07ad69d7abca4ad5d0a"}, {"bike_id": "8c6b96401438ffc7dbe601d0834894d3", "type": "electric_scooter", "is_disabled": 0, "lat": 38.9429355, "rental_uris": {"ios": "https://dc.lft.to/lastmile_qr_scan", "android": "https://dc.lft.to/lastmile_qr_scan"}, "is_reserved": 0, "fusion_lon": 0.0, "fusion_lat": 0.0, "lon": -77.00492783333333, "name": "8c6b96401438ffc7dbe601d0834894d3"}, {"bike_id": "8da331fb8100ba98831fb629857df01b", "type": "electric_bike", "is_disabled": 0, "lat": 38.8132985, "rental_uris": {"ios": "https://dc.lft.to/lastmile_qr_scan", "android": "https://dc.lft.to/lastmile_qr_scan"}, "is_reserved": 0, "fusion_lon": 0.0, "fusion_lat": 0.0, "lon": -77.05092383333333, "name": "8da331fb8100ba98831fb629857df01b"}, {"bike_id": "f49cd5d8443ae1b8734d484c27bc7c05", "type": "electric_bike", "is_disabled": 0, "lat": 38.87480016666667, "rental_uris": {"ios": "https://dc.lft.to/lastmile_qr_scan", "android": "https://dc.lft.to/lastmile_qr_scan"}, "is_reserved": 0, "fusion_lon": 0.0, "fusion_lat": 0.0, "lon": -76.96526216666666, "name": "f49cd5d8443ae1b8734d484c27bc7c05"}, {"bike_id": "9e1fd14038f656f001dfe4f68098845e", "type": "electric_scooter", "is_disabled": 0, "lat": 38.91015933333333, "rental_uris": {"ios": "https://dc.lft.to/lastmile_qr_scan", "android": "https://dc.lft.to/lastmile_qr_scan"}, "is_reserved": 0, "fusion_lon": 0.0, "fusion_lat": 0.0, "lon": -77.05283866666667, "name": "9e1fd14038f656f001dfe4f68098845e"}, {"bike_id": "a36c73ec82d7586576c51c579c3b0a07", "type": "electric_scooter", "is_disabled": 0, "lat": 38.916059, "rental_uris": {"ios": "https://dc.lft.to/lastmile_qr_scan", "android": "https://dc.lft.to/lastmile_qr_scan"}, "is_reserved": 0, "fusion_lon": 0.0, "fusion_lat": 0.0, "lon": -77.0154585, "name": "a36c73ec82d7586576c51c579c3b0a07"}, {"bike_id": "b26c3ae52dd6eafd5ad42ea93b272f4d", "type": "electric_scooter", "is_disabled": 0, "lat": 38.905322166666664, "rental_uris": {"ios": "https://dc.lft.to/lastmile_qr_scan", "android": "https://dc.lft.to/lastmile_qr_scan"}, "is_reserved": 0, "fusion_lon": 0.0, "fusion_lat": 0.0, "lon": -77.02606316666666, "name": "b26c3ae52dd6eafd5ad42ea93b272f4d"}, {"bike_id": "7e254bf77db6c8e01d3e0f5af0a0be7f", "type": "electric_scooter", "is_disabled": 0, "lat": 38.931861, "rental_uris": {"ios": "https://dc.lft.to/lastmile_qr_scan", "android": "https://dc.lft.to/lastmile_qr_scan"}, "is_reserved": 0, "fusion_lon": 0.0, "fusion_lat": 0.0, "lon": -77.02026933333333, "name": "7e254bf77db6c8e01d3e0f5af0a0be7f"}, {"bike_id": "b58dd003df9493f2c8d9fa08e0d8ebd0", "type": "electric_scooter", "is_disabled": 0, "lat": 38.90832416666667, "rental_uris": {"ios": "https://dc.lft.to/lastmile_qr_scan", "android": "https://dc.lft.to/lastmile_qr_scan"}, "is_reserved": 0, "fusion_lon": 0.0, "fusion_lat": 0.0, "lon": -77.001088, "name": "b58dd003df9493f2c8d9fa08e0d8ebd0"}, {"bike_id": "6253f923c2ae19d59e2e442eaa3b9e6f", "type": "electric_scooter", "is_disabled": 0, "lat": 38.8932215, "rental_uris": {"ios": "https://dc.lft.to/lastmile_qr_scan", "android": "https://dc.lft.to/lastmile_qr_scan"}, "is_reserved": 0, "fusion_lon": 0.0, "fusion_lat": 0.0, "lon": -77.04876233333333, "name": "6253f923c2ae19d59e2e442eaa3b9e6f"}, {"bike_id": "86fdb407907b16ecb7b093c18761de52", "type": "electric_scooter", "is_disabled": 0, "lat": 38.87344233333334, "rental_uris": {"ios": "https://dc.lft.to/lastmile_qr_scan", "android": "https://dc.lft.to/lastmile_qr_scan"}, "is_reserved": 0, "fusion_lon": 0.0, "fusion_lat": 0.0, "lon": -77.00047833333333, "name": "86fdb407907b16ecb7b093c18761de52"}, {"bike_id": "39909b01d7b83cd570fb451cf9054b02", "type": "electric_scooter", "is_disabled": 0, "lat": 38.90594733333333, "rental_uris": {"ios": "https://dc.lft.to/lastmile_qr_scan", "android": "https://dc.lft.to/lastmile_qr_scan"}, "is_reserved": 0, "fusion_lon": 0.0, "fusion_lat": 0.0, "lon": -77.05124516666666, "name": "39909b01d7b83cd570fb451cf9054b02"}, {"bike_id": "222649ca91df35f9380a279e17c53616", "type": "electric_bike", "is_disabled": 0, "lat": 38.87672883333333, "rental_uris": {"ios": "https://dc.lft.to/lastmile_qr_scan", "android": "https://dc.lft.to/lastmile_qr_scan"}, "is_reserved": 0, "fusion_lon": 0.0, "fusion_lat": 0.0, "lon": -77.01442833333333, "name": "222649ca91df35f9380a279e17c53616"}, {"bike_id": "2aed34da7d66bf2b86879b85527f8100", "type": "electric_scooter", "is_disabled": 0, "lat": 38.92385216666667, "rental_uris": {"ios": "https://dc.lft.to/lastmile_qr_scan", "android": "https://dc.lft.to/lastmile_qr_scan"}, "is_reserved": 0, "fusion_lon": 0.0, "fusion_lat": 0.0, "lon": -77.01936883333333, "name": "2aed34da7d66bf2b86879b85527f8100"}, {"bike_id": "65df164671904caaf119c4eb03422c49", "type": "electric_scooter", "is_disabled": 0, "lat": 38.90380916666667, "rental_uris": {"ios": "https://dc.lft.to/lastmile_qr_scan", "android": "https://dc.lft.to/lastmile_qr_scan"}, "is_reserved": 0, "fusion_lon": 0.0, "fusion_lat": 0.0, "lon": -77.024011, "name": "65df164671904caaf119c4eb03422c49"}, {"bike_id": "199211575844e088a721b3eb222989af", "type": "electric_scooter", "is_disabled": 0, "lat": 38.91664683333333, "rental_uris": {"ios": "https://dc.lft.to/lastmile_qr_scan", "android": "https://dc.lft.to/lastmile_qr_scan"}, "is_reserved": 0, "fusion_lon": 0.0, "fusion_lat": 0.0, "lon": -77.03199516666666, "name": "199211575844e088a721b3eb222989af"}, {"bike_id": "0d0c2d80721609f9c6977132334c3cae", "type": "electric_scooter", "is_disabled": 0, "lat": 38.926591333333334, "rental_uris": {"ios": "https://dc.lft.to/lastmile_qr_scan", "android": "https://dc.lft.to/lastmile_qr_scan"}, "is_reserved": 0, "fusion_lon": 0.0, "fusion_lat": 0.0, "lon": -77.03732483333333, "name": "0d0c2d80721609f9c6977132334c3cae"}, {"bike_id": "16faa9ea98f97693c1207a672fd4a39e", "type": "electric_scooter", "is_disabled": 0, "lat": 38.89015333333333, "rental_uris": {"ios": "https://dc.lft.to/lastmile_qr_scan", "android": "https://dc.lft.to/lastmile_qr_scan"}, "is_reserved": 0, "fusion_lon": 0.0, "fusion_lat": 0.0, "lon": -77.0332845, "name": "16faa9ea98f97693c1207a672fd4a39e"}, {"bike_id": "b1f4c76165971475950f33b6e3025f6a", "type": "electric_scooter", "is_disabled": 0, "lat": 38.915737, "rental_uris": {"ios": "https://dc.lft.to/lastmile_qr_scan", "android": "https://dc.lft.to/lastmile_qr_scan"}, "is_reserved": 0, "fusion_lon": 0.0, "fusion_lat": 0.0, "lon": -77.04495116666666, "name": "b1f4c76165971475950f33b6e3025f6a"}, {"bike_id": "887b96cf2fb1266beee64fd96c82e83b", "type": "electric_scooter", "is_disabled": 0, "lat": 38.93361183333333, "rental_uris": {"ios": "https://dc.lft.to/lastmile_qr_scan", "android": "https://dc.lft.to/lastmile_qr_scan"}, "is_reserved": 0, "fusion_lon": 0.0, "fusion_lat": 0.0, "lon": -77.0885735, "name": "887b96cf2fb1266beee64fd96c82e83b"}, {"bike_id": "71ee77b206b40c4aa49c4c84acd378a8", "type": "electric_scooter", "is_disabled": 0, "lat": 38.916208833333336, "rental_uris": {"ios": "https://dc.lft.to/lastmile_qr_scan", "android": "https://dc.lft.to/lastmile_qr_scan"}, "is_reserved": 0, "fusion_lon": 0.0, "fusion_lat": 0.0, "lon": -77.04520233333334, "name": "71ee77b206b40c4aa49c4c84acd378a8"}, {"bike_id": "e12722ece7114d263d5335e51e507b9d", "type": "electric_scooter", "is_disabled": 0, "lat": 38.94491216666667, "rental_uris": {"ios": "https://dc.lft.to/lastmile_qr_scan", "android": "https://dc.lft.to/lastmile_qr_scan"}, "is_reserved": 0, "fusion_lon": 0.0, "fusion_lat": 0.0, "lon": -77.02621766666667, "name": "e12722ece7114d263d5335e51e507b9d"}, {"bike_id": "2869bab2cd0338e8e4b4abd81b65fcdb", "type": "electric_scooter", "is_disabled": 0, "lat": 38.916312, "rental_uris": {"ios": "https://dc.lft.to/lastmile_qr_scan", "android": "https://dc.lft.to/lastmile_qr_scan"}, "is_reserved": 0, "fusion_lon": 0.0, "fusion_lat": 0.0, "lon": -77.03732366666667, "name": "2869bab2cd0338e8e4b4abd81b65fcdb"}, {"bike_id": "4cfce8b154ee9c836cd265ad078faa25", "type": "electric_scooter", "is_disabled": 0, "lat": 38.90501033333334, "rental_uris": {"ios": "https://dc.lft.to/lastmile_qr_scan", "android": "https://dc.lft.to/lastmile_qr_scan"}, "is_reserved": 0, "fusion_lon": 0.0, "fusion_lat": 0.0, "lon": -77.06110983333333, "name": "4cfce8b154ee9c836cd265ad078faa25"}, {"bike_id": "4a36288c45e6db87d1f3be79fea65cef", "type": "electric_scooter", "is_disabled": 0, "lat": 38.915627, "rental_uris": {"ios": "https://dc.lft.to/lastmile_qr_scan", "android": "https://dc.lft.to/lastmile_qr_scan"}, "is_reserved": 0, "fusion_lon": 0.0, "fusion_lat": 0.0, "lon": -77.03870383333333, "name": "4a36288c45e6db87d1f3be79fea65cef"}, {"bike_id": "7574671b429cf966bbdb7167695dee57", "type": "electric_scooter", "is_disabled": 0, "lat": 38.902596333333335, "rental_uris": {"ios": "https://dc.lft.to/lastmile_qr_scan", "android": "https://dc.lft.to/lastmile_qr_scan"}, "is_reserved": 0, "fusion_lon": 0.0, "fusion_lat": 0.0, "lon": -77.0034195, "name": "7574671b429cf966bbdb7167695dee57"}, {"bike_id": "f98dc03a966444f501610e261e30eb51", "type": "electric_scooter", "is_disabled": 0, "lat": 38.924836166666665, "rental_uris": {"ios": "https://dc.lft.to/lastmile_qr_scan", "android": "https://dc.lft.to/lastmile_qr_scan"}, "is_reserved": 0, "fusion_lon": 0.0, "fusion_lat": 0.0, "lon": -77.02197866666667, "name": "f98dc03a966444f501610e261e30eb51"}, {"bike_id": "c8bc890c0f667abcbe750f4571ec3e4f", "type": "electric_scooter", "is_disabled": 0, "lat": 38.923853, "rental_uris": {"ios": "https://dc.lft.to/lastmile_qr_scan", "android": "https://dc.lft.to/lastmile_qr_scan"}, "is_reserved": 0, "fusion_lon": 0.0, "fusion_lat": 0.0, "lon": -77.0269135, "name": "c8bc890c0f667abcbe750f4571ec3e4f"}, {"bike_id": "6d8107f31e08e67781eecd6ade5f763c", "type": "electric_scooter", "is_disabled": 0, "lat": 38.93538483333333, "rental_uris": {"ios": "https://dc.lft.to/lastmile_qr_scan", "android": "https://dc.lft.to/lastmile_qr_scan"}, "is_reserved": 0, "fusion_lon": 0.0, "fusion_lat": 0.0, "lon": -77.02359333333334, "name": "6d8107f31e08e67781eecd6ade5f763c"}, {"bike_id": "fb5961f968f1da38628848c9f3b260ea", "type": "electric_scooter", "is_disabled": 0, "lat": 38.914721666666665, "rental_uris": {"ios": "https://dc.lft.to/lastmile_qr_scan", "android": "https://dc.lft.to/lastmile_qr_scan"}, "is_reserved": 0, "fusion_lon": 0.0, "fusion_lat": 0.0, "lon": -77.0091775, "name": "fb5961f968f1da38628848c9f3b260ea"}, {"bike_id": "ec8697e40d3bb36cf71df8d970ff9ac6", "type": "electric_bike", "is_disabled": 0, "lat": 38.9787935, "rental_uris": {"ios": "https://dc.lft.to/lastmile_qr_scan", "android": "https://dc.lft.to/lastmile_qr_scan"}, "is_reserved": 0, "fusion_lon": 0.0, "fusion_lat": 0.0, "lon": -77.06033733333334, "name": "ec8697e40d3bb36cf71df8d970ff9ac6"}, {"bike_id": "1c81a175e7245e272d5a54b98beb6d1d", "type": "electric_scooter", "is_disabled": 0, "lat": 38.922289166666665, "rental_uris": {"ios": "https://dc.lft.to/lastmile_qr_scan", "android": "https://dc.lft.to/lastmile_qr_scan"}, "is_reserved": 0, "fusion_lon": 0.0, "fusion_lat": 0.0, "lon": -77.04716283333333, "name": "1c81a175e7245e272d5a54b98beb6d1d"}, {"bike_id": "710fc14f3d23bedf3c122bf1b405bacf", "type": "electric_scooter", "is_disabled": 0, "lat": 38.92080833333333, "rental_uris": {"ios": "https://dc.lft.to/lastmile_qr_scan", "android": "https://dc.lft.to/lastmile_qr_scan"}, "is_reserved": 0, "fusion_lon": 0.0, "fusion_lat": 0.0, "lon": -77.00459783333334, "name": "710fc14f3d23bedf3c122bf1b405bacf"}, {"bike_id": "0bf809510065c439f7b8027d681d5dab", "type": "electric_scooter", "is_disabled": 0, "lat": 38.90589683333334, "rental_uris": {"ios": "https://dc.lft.to/lastmile_qr_scan", "android": "https://dc.lft.to/lastmile_qr_scan"}, "is_reserved": 0, "fusion_lon": 0.0, "fusion_lat": 0.0, "lon": -77.06802183333333, "name": "0bf809510065c439f7b8027d681d5dab"}, {"bike_id": "04295350f2047aa0d1a42cda1472edb9", "type": "electric_scooter", "is_disabled": 0, "lat": 38.91917816666667, "rental_uris": {"ios": "https://dc.lft.to/lastmile_qr_scan", "android": "https://dc.lft.to/lastmile_qr_scan"}, "is_reserved": 0, "fusion_lon": 0.0, "fusion_lat": 0.0, "lon": -77.0334305, "name": "04295350f2047aa0d1a42cda1472edb9"}, {"bike_id": "db81d3c01c918de5513dd4010a5c6982", "type": "electric_scooter", "is_disabled": 0, "lat": 38.892364666666666, "rental_uris": {"ios": "https://dc.lft.to/lastmile_qr_scan", "android": "https://dc.lft.to/lastmile_qr_scan"}, "is_reserved": 0, "fusion_lon": 0.0, "fusion_lat": 0.0, "lon": -77.02385083333333, "name": "db81d3c01c918de5513dd4010a5c6982"}, {"bike_id": "14e82d7343c8fd37e029d895926fd3ac", "type": "electric_bike", "is_disabled": 0, "lat": 38.83609933333334, "rental_uris": {"ios": "https://dc.lft.to/lastmile_qr_scan", "android": "https://dc.lft.to/lastmile_qr_scan"}, "is_reserved": 0, "fusion_lon": 0.0, "fusion_lat": 0.0, "lon": -77.00381, "name": "14e82d7343c8fd37e029d895926fd3ac"}, {"bike_id": "fbdbf271aef465088a3a117f973bfe67", "type": "electric_bike", "is_disabled": 0, "lat": 38.859374, "rental_uris": {"ios": "https://dc.lft.to/lastmile_qr_scan", "android": "https://dc.lft.to/lastmile_qr_scan"}, "is_reserved": 0, "fusion_lon": 0.0, "fusion_lat": 0.0, "lon": -77.11829033333333, "name": "fbdbf271aef465088a3a117f973bfe67"}, {"bike_id": "50449b49c811fa875e00c0b28b2d9431", "type": "electric_bike", "is_disabled": 0, "lat": 38.8236785, "rental_uris": {"ios": "https://dc.lft.to/lastmile_qr_scan", "android": "https://dc.lft.to/lastmile_qr_scan"}, "is_reserved": 0, "fusion_lon": 0.0, "fusion_lat": 0.0, "lon": -77.00216383333333, "name": "50449b49c811fa875e00c0b28b2d9431"}, {"bike_id": "195d3a472973a8f1a85e32430ccd957e", "type": "electric_bike", "is_disabled": 0, "lat": 38.89800666666667, "rental_uris": {"ios": "https://dc.lft.to/lastmile_qr_scan", "android": "https://dc.lft.to/lastmile_qr_scan"}, "is_reserved": 0, "fusion_lon": 0.0, "fusion_lat": 0.0, "lon": -76.99061016666667, "name": "195d3a472973a8f1a85e32430ccd957e"}, {"bike_id": "3568a5be3843394409d6b60920ece134", "type": "electric_scooter", "is_disabled": 0, "lat": 38.90266233333333, "rental_uris": {"ios": "https://dc.lft.to/lastmile_qr_scan", "android": "https://dc.lft.to/lastmile_qr_scan"}, "is_reserved": 0, "fusion_lon": 0.0, "fusion_lat": 0.0, "lon": -77.00328916666666, "name": "3568a5be3843394409d6b60920ece134"}, {"bike_id": "0c7915f6858ec727449cb14c0a06d7e2", "type": "electric_scooter", "is_disabled": 0, "lat": 38.90292516666667, "rental_uris": {"ios": "https://dc.lft.to/lastmile_qr_scan", "android": "https://dc.lft.to/lastmile_qr_scan"}, "is_reserved": 0, "fusion_lon": 0.0, "fusion_lat": 0.0, "lon": -77.0243635, "name": "0c7915f6858ec727449cb14c0a06d7e2"}, {"bike_id": "c8b2cb15a83ad5c067b3875f5bb309e0", "type": "electric_scooter", "is_disabled": 0, "lat": 38.9089655, "rental_uris": {"ios": "https://dc.lft.to/lastmile_qr_scan", "android": "https://dc.lft.to/lastmile_qr_scan"}, "is_reserved": 0, "fusion_lon": 0.0, "fusion_lat": 0.0, "lon": -76.998577, "name": "c8b2cb15a83ad5c067b3875f5bb309e0"}, {"bike_id": "f98e698b9da32de0e96db0bbb551944c", "type": "electric_scooter", "is_disabled": 0, "lat": 38.90827683333333, "rental_uris": {"ios": "https://dc.lft.to/lastmile_qr_scan", "android": "https://dc.lft.to/lastmile_qr_scan"}, "is_reserved": 0, "fusion_lon": 0.0, "fusion_lat": 0.0, "lon": -77.03841, "name": "f98e698b9da32de0e96db0bbb551944c"}, {"bike_id": "3639952cfbfc4a00ed0f71a34412a2ae", "type": "electric_scooter", "is_disabled": 0, "lat": 38.920743333333334, "rental_uris": {"ios": "https://dc.lft.to/lastmile_qr_scan", "android": "https://dc.lft.to/lastmile_qr_scan"}, "is_reserved": 0, "fusion_lon": 0.0, "fusion_lat": 0.0, "lon": -77.01459033333333, "name": "3639952cfbfc4a00ed0f71a34412a2ae"}, {"bike_id": "6ce3253a49e7c4c63e1f3bd908987f65", "type": "electric_scooter", "is_disabled": 0, "lat": 38.90567183333334, "rental_uris": {"ios": "https://dc.lft.to/lastmile_qr_scan", "android": "https://dc.lft.to/lastmile_qr_scan"}, "is_reserved": 0, "fusion_lon": 0.0, "fusion_lat": 0.0, "lon": -77.0285915, "name": "6ce3253a49e7c4c63e1f3bd908987f65"}, {"bike_id": "62fd0e8e4d3ea7572a600878bea0bb70", "type": "electric_scooter", "is_disabled": 0, "lat": 38.93702, "rental_uris": {"ios": "https://dc.lft.to/lastmile_qr_scan", "android": "https://dc.lft.to/lastmile_qr_scan"}, "is_reserved": 0, "fusion_lon": 0.0, "fusion_lat": 0.0, "lon": -77.032858, "name": "62fd0e8e4d3ea7572a600878bea0bb70"}, {"bike_id": "a1d0dc73b584b7d9ebbe3e76813206ed", "type": "electric_scooter", "is_disabled": 0, "lat": 38.866813666666665, "rental_uris": {"ios": "https://dc.lft.to/lastmile_qr_scan", "android": "https://dc.lft.to/lastmile_qr_scan"}, "is_reserved": 0, "fusion_lon": 0.0, "fusion_lat": 0.0, "lon": -76.985779, "name": "a1d0dc73b584b7d9ebbe3e76813206ed"}, {"bike_id": "195d8c46d6643967f8c651c64458bfa0", "type": "electric_scooter", "is_disabled": 0, "lat": 38.88476033333333, "rental_uris": {"ios": "https://dc.lft.to/lastmile_qr_scan", "android": "https://dc.lft.to/lastmile_qr_scan"}, "is_reserved": 0, "fusion_lon": 0.0, "fusion_lat": 0.0, "lon": -77.02375, "name": "195d8c46d6643967f8c651c64458bfa0"}, {"bike_id": "af7d93ce2fcc490a4adaefadb3be00ce", "type": "electric_scooter", "is_disabled": 0, "lat": 38.91779233333333, "rental_uris": {"ios": "https://dc.lft.to/lastmile_qr_scan", "android": "https://dc.lft.to/lastmile_qr_scan"}, "is_reserved": 0, "fusion_lon": 0.0, "fusion_lat": 0.0, "lon": -77.023122, "name": "af7d93ce2fcc490a4adaefadb3be00ce"}, {"bike_id": "9d4e274c6348ed2030f377d852eb4360", "type": "electric_scooter", "is_disabled": 0, "lat": 38.89921566666666, "rental_uris": {"ios": "https://dc.lft.to/lastmile_qr_scan", "android": "https://dc.lft.to/lastmile_qr_scan"}, "is_reserved": 0, "fusion_lon": 0.0, "fusion_lat": 0.0, "lon": -77.05366783333334, "name": "9d4e274c6348ed2030f377d852eb4360"}, {"bike_id": "db613c0a484de3e9811db10ab337d3ca", "type": "electric_bike", "is_disabled": 0, "lat": 38.9630825, "rental_uris": {"ios": "https://dc.lft.to/lastmile_qr_scan", "android": "https://dc.lft.to/lastmile_qr_scan"}, "is_reserved": 0, "fusion_lon": 0.0, "fusion_lat": 0.0, "lon": -77.0110355, "name": "db613c0a484de3e9811db10ab337d3ca"}, {"bike_id": "219520ada1885319e4e32c33d60d875f", "type": "electric_scooter", "is_disabled": 0, "lat": 38.90529383333333, "rental_uris": {"ios": "https://dc.lft.to/lastmile_qr_scan", "android": "https://dc.lft.to/lastmile_qr_scan"}, "is_reserved": 0, "fusion_lon": 0.0, "fusion_lat": 0.0, "lon": -77.06135833333333, "name": "219520ada1885319e4e32c33d60d875f"}, {"bike_id": "f3ac81787324bd0be216515af4b75853", "type": "electric_scooter", "is_disabled": 0, "lat": 38.901067, "rental_uris": {"ios": "https://dc.lft.to/lastmile_qr_scan", "android": "https://dc.lft.to/lastmile_qr_scan"}, "is_reserved": 0, "fusion_lon": 0.0, "fusion_lat": 0.0, "lon": -77.01825333333333, "name": "f3ac81787324bd0be216515af4b75853"}, {"bike_id": "cd6a715a8c7b84cd11b0130cda93b6ea", "type": "electric_bike", "is_disabled": 0, "lat": 38.96322933333333, "rental_uris": {"ios": "https://dc.lft.to/lastmile_qr_scan", "android": "https://dc.lft.to/lastmile_qr_scan"}, "is_reserved": 0, "fusion_lon": 0.0, "fusion_lat": 0.0, "lon": -76.97357933333333, "name": "cd6a715a8c7b84cd11b0130cda93b6ea"}, {"bike_id": "695fd41cf41c7daf08dc9b0b0acc96e7", "type": "electric_scooter", "is_disabled": 0, "lat": 38.90503483333333, "rental_uris": {"ios": "https://dc.lft.to/lastmile_qr_scan", "android": "https://dc.lft.to/lastmile_qr_scan"}, "is_reserved": 0, "fusion_lon": 0.0, "fusion_lat": 0.0, "lon": -77.0601185, "name": "695fd41cf41c7daf08dc9b0b0acc96e7"}, {"bike_id": "c808adfbe97805626670301ea905ba11", "type": "electric_scooter", "is_disabled": 0, "lat": 38.920811666666665, "rental_uris": {"ios": "https://dc.lft.to/lastmile_qr_scan", "android": "https://dc.lft.to/lastmile_qr_scan"}, "is_reserved": 0, "fusion_lon": 0.0, "fusion_lat": 0.0, "lon": -77.02515483333333, "name": "c808adfbe97805626670301ea905ba11"}, {"bike_id": "8725e64573b2f1848a22e9f112de69bc", "type": "electric_scooter", "is_disabled": 0, "lat": 38.86677816666667, "rental_uris": {"ios": "https://dc.lft.to/lastmile_qr_scan", "android": "https://dc.lft.to/lastmile_qr_scan"}, "is_reserved": 0, "fusion_lon": 0.0, "fusion_lat": 0.0, "lon": -76.985373, "name": "8725e64573b2f1848a22e9f112de69bc"}, {"bike_id": "9f7527460322816df85d117494c657b8", "type": "electric_scooter", "is_disabled": 0, "lat": 38.90204966666667, "rental_uris": {"ios": "https://dc.lft.to/lastmile_qr_scan", "android": "https://dc.lft.to/lastmile_qr_scan"}, "is_reserved": 0, "fusion_lon": 0.0, "fusion_lat": 0.0, "lon": -77.02368233333333, "name": "9f7527460322816df85d117494c657b8"}, {"bike_id": "0beceb1893bc3717cc66cc09017a9b31", "type": "electric_scooter", "is_disabled": 0, "lat": 38.89709883333333, "rental_uris": {"ios": "https://dc.lft.to/lastmile_qr_scan", "android": "https://dc.lft.to/lastmile_qr_scan"}, "is_reserved": 0, "fusion_lon": 0.0, "fusion_lat": 0.0, "lon": -77.00851833333333, "name": "0beceb1893bc3717cc66cc09017a9b31"}, {"bike_id": "34877d7bc31c356839ad99f482a51dcd", "type": "electric_scooter", "is_disabled": 0, "lat": 38.92339483333333, "rental_uris": {"ios": "https://dc.lft.to/lastmile_qr_scan", "android": "https://dc.lft.to/lastmile_qr_scan"}, "is_reserved": 0, "fusion_lon": 0.0, "fusion_lat": 0.0, "lon": -77.04172833333334, "name": "34877d7bc31c356839ad99f482a51dcd"}, {"bike_id": "f26b6c3668e287eb5b1eb9c90161fc49", "type": "electric_scooter", "is_disabled": 0, "lat": 38.87789733333334, "rental_uris": {"ios": "https://dc.lft.to/lastmile_qr_scan", "android": "https://dc.lft.to/lastmile_qr_scan"}, "is_reserved": 0, "fusion_lon": 0.0, "fusion_lat": 0.0, "lon": -76.93087116666666, "name": "f26b6c3668e287eb5b1eb9c90161fc49"}, {"bike_id": "41dbde227a22d9585eeea8af8f165177", "type": "electric_scooter", "is_disabled": 0, "lat": 38.92534033333333, "rental_uris": {"ios": "https://dc.lft.to/lastmile_qr_scan", "android": "https://dc.lft.to/lastmile_qr_scan"}, "is_reserved": 0, "fusion_lon": 0.0, "fusion_lat": 0.0, "lon": -77.04265133333334, "name": "41dbde227a22d9585eeea8af8f165177"}, {"bike_id": "40a2a0910f8438179ec4fbbcf9408ce1", "type": "electric_scooter", "is_disabled": 0, "lat": 38.9140295, "rental_uris": {"ios": "https://dc.lft.to/lastmile_qr_scan", "android": "https://dc.lft.to/lastmile_qr_scan"}, "is_reserved": 0, "fusion_lon": 0.0, "fusion_lat": 0.0, "lon": -77.02221633333333, "name": "40a2a0910f8438179ec4fbbcf9408ce1"}, {"bike_id": "a90170fdd209a79a1b1ed241af472642", "type": "electric_scooter", "is_disabled": 0, "lat": 38.907294666666665, "rental_uris": {"ios": "https://dc.lft.to/lastmile_qr_scan", "android": "https://dc.lft.to/lastmile_qr_scan"}, "is_reserved": 0, "fusion_lon": 0.0, "fusion_lat": 0.0, "lon": -77.01134816666666, "name": "a90170fdd209a79a1b1ed241af472642"}, {"bike_id": "9274c0612e3200ebaa8f5de1b5053c1b", "type": "electric_scooter", "is_disabled": 0, "lat": 38.91338283333333, "rental_uris": {"ios": "https://dc.lft.to/lastmile_qr_scan", "android": "https://dc.lft.to/lastmile_qr_scan"}, "is_reserved": 0, "fusion_lon": 0.0, "fusion_lat": 0.0, "lon": -77.03180183333333, "name": "9274c0612e3200ebaa8f5de1b5053c1b"}, {"bike_id": "ca93a4d7bf5b89c98996666bff74e37b", "type": "electric_scooter", "is_disabled": 0, "lat": 38.921260333333336, "rental_uris": {"ios": "https://dc.lft.to/lastmile_qr_scan", "android": "https://dc.lft.to/lastmile_qr_scan"}, "is_reserved": 0, "fusion_lon": 0.0, "fusion_lat": 0.0, "lon": -76.992465, "name": "ca93a4d7bf5b89c98996666bff74e37b"}, {"bike_id": "500b8268c5bc2da622cd8ecaf71102a7", "type": "electric_scooter", "is_disabled": 0, "lat": 38.9723545, "rental_uris": {"ios": "https://dc.lft.to/lastmile_qr_scan", "android": "https://dc.lft.to/lastmile_qr_scan"}, "is_reserved": 0, "fusion_lon": 0.0, "fusion_lat": 0.0, "lon": -77.0271565, "name": "500b8268c5bc2da622cd8ecaf71102a7"}, {"bike_id": "a719b6eaae4b0e33366c66d5c847a98f", "type": "electric_scooter", "is_disabled": 0, "lat": 38.90607516666667, "rental_uris": {"ios": "https://dc.lft.to/lastmile_qr_scan", "android": "https://dc.lft.to/lastmile_qr_scan"}, "is_reserved": 0, "fusion_lon": 0.0, "fusion_lat": 0.0, "lon": -77.00372316666666, "name": "a719b6eaae4b0e33366c66d5c847a98f"}, {"bike_id": "ebc244d22edd7433e5c5b7ce3f3c2c50", "type": "electric_scooter", "is_disabled": 0, "lat": 38.924632333333335, "rental_uris": {"ios": "https://dc.lft.to/lastmile_qr_scan", "android": "https://dc.lft.to/lastmile_qr_scan"}, "is_reserved": 0, "fusion_lon": 0.0, "fusion_lat": 0.0, "lon": -77.0523335, "name": "ebc244d22edd7433e5c5b7ce3f3c2c50"}, {"bike_id": "c0ae1e3f0f07f2d2d12d7c81208ce6a3", "type": "electric_bike", "is_disabled": 0, "lat": 38.8755405, "rental_uris": {"ios": "https://dc.lft.to/lastmile_qr_scan", "android": "https://dc.lft.to/lastmile_qr_scan"}, "is_reserved": 0, "fusion_lon": 0.0, "fusion_lat": 0.0, "lon": -76.96502333333333, "name": "c0ae1e3f0f07f2d2d12d7c81208ce6a3"}, {"bike_id": "708ba5a396b7fefb8e96c2b428bfe6d4", "type": "electric_scooter", "is_disabled": 0, "lat": 38.9176885, "rental_uris": {"ios": "https://dc.lft.to/lastmile_qr_scan", "android": "https://dc.lft.to/lastmile_qr_scan"}, "is_reserved": 0, "fusion_lon": 0.0, "fusion_lat": 0.0, "lon": -77.0343845, "name": "708ba5a396b7fefb8e96c2b428bfe6d4"}, {"bike_id": "290d162fc0ceda4159efb5b6de99f672", "type": "electric_scooter", "is_disabled": 0, "lat": 38.89726066666667, "rental_uris": {"ios": "https://dc.lft.to/lastmile_qr_scan", "android": "https://dc.lft.to/lastmile_qr_scan"}, "is_reserved": 0, "fusion_lon": 0.0, "fusion_lat": 0.0, "lon": -77.02103783333334, "name": "290d162fc0ceda4159efb5b6de99f672"}, {"bike_id": "ba6c2b80a0f31e7efcbec7423c1c0fc6", "type": "electric_scooter", "is_disabled": 0, "lat": 38.9194025, "rental_uris": {"ios": "https://dc.lft.to/lastmile_qr_scan", "android": "https://dc.lft.to/lastmile_qr_scan"}, "is_reserved": 0, "fusion_lon": 0.0, "fusion_lat": 0.0, "lon": -77.04560716666667, "name": "ba6c2b80a0f31e7efcbec7423c1c0fc6"}, {"bike_id": "b28ad34ce29535ba9b2f38221b24e9f4", "type": "electric_scooter", "is_disabled": 0, "lat": 38.8795275, "rental_uris": {"ios": "https://dc.lft.to/lastmile_qr_scan", "android": "https://dc.lft.to/lastmile_qr_scan"}, "is_reserved": 0, "fusion_lon": 0.0, "fusion_lat": 0.0, "lon": -77.00424266666667, "name": "b28ad34ce29535ba9b2f38221b24e9f4"}, {"bike_id": "25aaab0248ba0201a66dd560a064eed6", "type": "electric_scooter", "is_disabled": 0, "lat": 38.90644833333333, "rental_uris": {"ios": "https://dc.lft.to/lastmile_qr_scan", "android": "https://dc.lft.to/lastmile_qr_scan"}, "is_reserved": 0, "fusion_lon": 0.0, "fusion_lat": 0.0, "lon": -77.053383, "name": "25aaab0248ba0201a66dd560a064eed6"}, {"bike_id": "3c366bab1b5d59f4b23e915618e5064c", "type": "electric_scooter", "is_disabled": 0, "lat": 38.92526466666666, "rental_uris": {"ios": "https://dc.lft.to/lastmile_qr_scan", "android": "https://dc.lft.to/lastmile_qr_scan"}, "is_reserved": 0, "fusion_lon": 0.0, "fusion_lat": 0.0, "lon": -77.02256616666666, "name": "3c366bab1b5d59f4b23e915618e5064c"}, {"bike_id": "f0d7dcb2c9d9ade8825ef8ab846b0a6b", "type": "electric_scooter", "is_disabled": 0, "lat": 38.9110605, "rental_uris": {"ios": "https://dc.lft.to/lastmile_qr_scan", "android": "https://dc.lft.to/lastmile_qr_scan"}, "is_reserved": 0, "fusion_lon": 0.0, "fusion_lat": 0.0, "lon": -77.03837483333334, "name": "f0d7dcb2c9d9ade8825ef8ab846b0a6b"}, {"bike_id": "b5d5241d04425281b49cf5af3a9d285e", "type": "electric_scooter", "is_disabled": 0, "lat": 38.93212616666667, "rental_uris": {"ios": "https://dc.lft.to/lastmile_qr_scan", "android": "https://dc.lft.to/lastmile_qr_scan"}, "is_reserved": 0, "fusion_lon": 0.0, "fusion_lat": 0.0, "lon": -77.03357783333334, "name": "b5d5241d04425281b49cf5af3a9d285e"}, {"bike_id": "e427d4d404a3b5e316d3998ef5bed9b7", "type": "electric_scooter", "is_disabled": 0, "lat": 38.9023555, "rental_uris": {"ios": "https://dc.lft.to/lastmile_qr_scan", "android": "https://dc.lft.to/lastmile_qr_scan"}, "is_reserved": 0, "fusion_lon": 0.0, "fusion_lat": 0.0, "lon": -77.00200916666667, "name": "e427d4d404a3b5e316d3998ef5bed9b7"}, {"bike_id": "102fbc06ff0498530d4a05820e41849d", "type": "electric_bike", "is_disabled": 0, "lat": 39.03988666666667, "rental_uris": {"ios": "https://dc.lft.to/lastmile_qr_scan", "android": "https://dc.lft.to/lastmile_qr_scan"}, "is_reserved": 0, "fusion_lon": 0.0, "fusion_lat": 0.0, "lon": -76.99923333333334, "name": "102fbc06ff0498530d4a05820e41849d"}, {"bike_id": "7e24a58cb2349e8006485ea1afff2371", "type": "electric_scooter", "is_disabled": 0, "lat": 38.90379566666667, "rental_uris": {"ios": "https://dc.lft.to/lastmile_qr_scan", "android": "https://dc.lft.to/lastmile_qr_scan"}, "is_reserved": 0, "fusion_lon": 0.0, "fusion_lat": 0.0, "lon": -77.04825633333333, "name": "7e24a58cb2349e8006485ea1afff2371"}, {"bike_id": "e865b6c1b53d02e73f921a0ccaf2bae5", "type": "electric_scooter", "is_disabled": 0, "lat": 38.90989366666667, "rental_uris": {"ios": "https://dc.lft.to/lastmile_qr_scan", "android": "https://dc.lft.to/lastmile_qr_scan"}, "is_reserved": 0, "fusion_lon": 0.0, "fusion_lat": 0.0, "lon": -77.03848283333333, "name": "e865b6c1b53d02e73f921a0ccaf2bae5"}, {"bike_id": "0028d189395128ddf33aa149995bba76", "type": "electric_scooter", "is_disabled": 0, "lat": 38.897339833333334, "rental_uris": {"ios": "https://dc.lft.to/lastmile_qr_scan", "android": "https://dc.lft.to/lastmile_qr_scan"}, "is_reserved": 0, "fusion_lon": 0.0, "fusion_lat": 0.0, "lon": -77.054761, "name": "0028d189395128ddf33aa149995bba76"}, {"bike_id": "04414901e230b7d2352bb964b595d930", "type": "electric_scooter", "is_disabled": 0, "lat": 38.906446333333335, "rental_uris": {"ios": "https://dc.lft.to/lastmile_qr_scan", "android": "https://dc.lft.to/lastmile_qr_scan"}, "is_reserved": 0, "fusion_lon": 0.0, "fusion_lat": 0.0, "lon": -76.98589466666667, "name": "04414901e230b7d2352bb964b595d930"}, {"bike_id": "b16a523cea9e40cf245ba21bba58aa0b", "type": "electric_scooter", "is_disabled": 0, "lat": 38.90255616666666, "rental_uris": {"ios": "https://dc.lft.to/lastmile_qr_scan", "android": "https://dc.lft.to/lastmile_qr_scan"}, "is_reserved": 0, "fusion_lon": 0.0, "fusion_lat": 0.0, "lon": -76.97545683333334, "name": "b16a523cea9e40cf245ba21bba58aa0b"}, {"bike_id": "9f676cceaa44526b196fcdbbb9772c0e", "type": "electric_scooter", "is_disabled": 0, "lat": 38.92215733333333, "rental_uris": {"ios": "https://dc.lft.to/lastmile_qr_scan", "android": "https://dc.lft.to/lastmile_qr_scan"}, "is_reserved": 0, "fusion_lon": 0.0, "fusion_lat": 0.0, "lon": -77.03457, "name": "9f676cceaa44526b196fcdbbb9772c0e"}, {"bike_id": "5704d0d326eea6e8cb0e1562822c7603", "type": "electric_scooter", "is_disabled": 0, "lat": 38.907607666666664, "rental_uris": {"ios": "https://dc.lft.to/lastmile_qr_scan", "android": "https://dc.lft.to/lastmile_qr_scan"}, "is_reserved": 0, "fusion_lon": 0.0, "fusion_lat": 0.0, "lon": -77.0383935, "name": "5704d0d326eea6e8cb0e1562822c7603"}, {"bike_id": "f9f1521c6625a5ca15ea751ae97073d6", "type": "electric_scooter", "is_disabled": 0, "lat": 38.885255, "rental_uris": {"ios": "https://dc.lft.to/lastmile_qr_scan", "android": "https://dc.lft.to/lastmile_qr_scan"}, "is_reserved": 0, "fusion_lon": 0.0, "fusion_lat": 0.0, "lon": -77.01136866666667, "name": "f9f1521c6625a5ca15ea751ae97073d6"}, {"bike_id": "2796272420fdf319d7b58d1843660ff9", "type": "electric_scooter", "is_disabled": 0, "lat": 38.96141183333334, "rental_uris": {"ios": "https://dc.lft.to/lastmile_qr_scan", "android": "https://dc.lft.to/lastmile_qr_scan"}, "is_reserved": 0, "fusion_lon": 0.0, "fusion_lat": 0.0, "lon": -77.02993083333334, "name": "2796272420fdf319d7b58d1843660ff9"}, {"bike_id": "423b3d836db9c98764efaddff556f41f", "type": "electric_scooter", "is_disabled": 0, "lat": 38.865062, "rental_uris": {"ios": "https://dc.lft.to/lastmile_qr_scan", "android": "https://dc.lft.to/lastmile_qr_scan"}, "is_reserved": 0, "fusion_lon": 0.0, "fusion_lat": 0.0, "lon": -76.974366, "name": "423b3d836db9c98764efaddff556f41f"}, {"bike_id": "427cef0c24275ffc587b91982b30eccf", "type": "electric_scooter", "is_disabled": 0, "lat": 38.900121, "rental_uris": {"ios": "https://dc.lft.to/lastmile_qr_scan", "android": "https://dc.lft.to/lastmile_qr_scan"}, "is_reserved": 0, "fusion_lon": 0.0, "fusion_lat": 0.0, "lon": -77.006781, "name": "427cef0c24275ffc587b91982b30eccf"}, {"bike_id": "f9c47402448c0b71aef4f8f83bc42f5d", "type": "electric_scooter", "is_disabled": 0, "lat": 38.921263833333335, "rental_uris": {"ios": "https://dc.lft.to/lastmile_qr_scan", "android": "https://dc.lft.to/lastmile_qr_scan"}, "is_reserved": 0, "fusion_lon": 0.0, "fusion_lat": 0.0, "lon": -77.0443745, "name": "f9c47402448c0b71aef4f8f83bc42f5d"}, {"bike_id": "6dfa3d2efcb0c73afddaab4a37f3cdd6", "type": "electric_scooter", "is_disabled": 0, "lat": 38.8709695, "rental_uris": {"ios": "https://dc.lft.to/lastmile_qr_scan", "android": "https://dc.lft.to/lastmile_qr_scan"}, "is_reserved": 0, "fusion_lon": 0.0, "fusion_lat": 0.0, "lon": -77.0080695, "name": "6dfa3d2efcb0c73afddaab4a37f3cdd6"}, {"bike_id": "78dca72b96fa0eceec0c4f01155617b2", "type": "electric_bike", "is_disabled": 0, "lat": 38.95624983333333, "rental_uris": {"ios": "https://dc.lft.to/lastmile_qr_scan", "android": "https://dc.lft.to/lastmile_qr_scan"}, "is_reserved": 0, "fusion_lon": 0.0, "fusion_lat": 0.0, "lon": -77.025873, "name": "78dca72b96fa0eceec0c4f01155617b2"}, {"bike_id": "d61f539d4aa3c6021bf5589fce11edec", "type": "electric_scooter", "is_disabled": 0, "lat": 38.913696333333334, "rental_uris": {"ios": "https://dc.lft.to/lastmile_qr_scan", "android": "https://dc.lft.to/lastmile_qr_scan"}, "is_reserved": 0, "fusion_lon": 0.0, "fusion_lat": 0.0, "lon": -77.030163, "name": "d61f539d4aa3c6021bf5589fce11edec"}, {"bike_id": "bc6258cc4c220172188446c05464310b", "type": "electric_scooter", "is_disabled": 0, "lat": 38.88515783333333, "rental_uris": {"ios": "https://dc.lft.to/lastmile_qr_scan", "android": "https://dc.lft.to/lastmile_qr_scan"}, "is_reserved": 0, "fusion_lon": 0.0, "fusion_lat": 0.0, "lon": -77.02822783333333, "name": "bc6258cc4c220172188446c05464310b"}, {"bike_id": "a0861b9a8ec8c5c5d869b065c49097db", "type": "electric_scooter", "is_disabled": 0, "lat": 38.91456083333333, "rental_uris": {"ios": "https://dc.lft.to/lastmile_qr_scan", "android": "https://dc.lft.to/lastmile_qr_scan"}, "is_reserved": 0, "fusion_lon": 0.0, "fusion_lat": 0.0, "lon": -77.07270816666667, "name": "a0861b9a8ec8c5c5d869b065c49097db"}, {"bike_id": "50b1d6c39886ce8b57b5e7685860a908", "type": "electric_scooter", "is_disabled": 0, "lat": 38.923436833333334, "rental_uris": {"ios": "https://dc.lft.to/lastmile_qr_scan", "android": "https://dc.lft.to/lastmile_qr_scan"}, "is_reserved": 0, "fusion_lon": 0.0, "fusion_lat": 0.0, "lon": -77.05050416666667, "name": "50b1d6c39886ce8b57b5e7685860a908"}, {"bike_id": "be122c93962954106bcb5b915cee829c", "type": "electric_scooter", "is_disabled": 0, "lat": 38.92248166666667, "rental_uris": {"ios": "https://dc.lft.to/lastmile_qr_scan", "android": "https://dc.lft.to/lastmile_qr_scan"}, "is_reserved": 0, "fusion_lon": 0.0, "fusion_lat": 0.0, "lon": -77.03897666666667, "name": "be122c93962954106bcb5b915cee829c"}, {"bike_id": "023659042721660997923063de448e3b", "type": "electric_scooter", "is_disabled": 0, "lat": 38.955287166666665, "rental_uris": {"ios": "https://dc.lft.to/lastmile_qr_scan", "android": "https://dc.lft.to/lastmile_qr_scan"}, "is_reserved": 0, "fusion_lon": 0.0, "fusion_lat": 0.0, "lon": -77.02783333333333, "name": "023659042721660997923063de448e3b"}, {"bike_id": "205edac20bfc385f9866943ec92e16ed", "type": "electric_scooter", "is_disabled": 0, "lat": 38.877847, "rental_uris": {"ios": "https://dc.lft.to/lastmile_qr_scan", "android": "https://dc.lft.to/lastmile_qr_scan"}, "is_reserved": 0, "fusion_lon": 0.0, "fusion_lat": 0.0, "lon": -77.00760383333333, "name": "205edac20bfc385f9866943ec92e16ed"}, {"bike_id": "8de29f8bf406cff036ea8ec30e45fa4f", "type": "electric_scooter", "is_disabled": 0, "lat": 38.868889333333335, "rental_uris": {"ios": "https://dc.lft.to/lastmile_qr_scan", "android": "https://dc.lft.to/lastmile_qr_scan"}, "is_reserved": 0, "fusion_lon": 0.0, "fusion_lat": 0.0, "lon": -76.98449316666667, "name": "8de29f8bf406cff036ea8ec30e45fa4f"}, {"bike_id": "a65fcb8da673ca7bfa33df52114db37e", "type": "electric_scooter", "is_disabled": 0, "lat": 38.912672666666666, "rental_uris": {"ios": "https://dc.lft.to/lastmile_qr_scan", "android": "https://dc.lft.to/lastmile_qr_scan"}, "is_reserved": 0, "fusion_lon": 0.0, "fusion_lat": 0.0, "lon": -77.0150595, "name": "a65fcb8da673ca7bfa33df52114db37e"}, {"bike_id": "f86c4b5ee8612ea2f756ff11a4dc882f", "type": "electric_bike", "is_disabled": 0, "lat": 38.838086, "rental_uris": {"ios": "https://dc.lft.to/lastmile_qr_scan", "android": "https://dc.lft.to/lastmile_qr_scan"}, "is_reserved": 0, "fusion_lon": 0.0, "fusion_lat": 0.0, "lon": -77.09522233333334, "name": "f86c4b5ee8612ea2f756ff11a4dc882f"}, {"bike_id": "e404b3d6f5904ee033715f954a1e60e2", "type": "electric_scooter", "is_disabled": 0, "lat": 38.90860583333333, "rental_uris": {"ios": "https://dc.lft.to/lastmile_qr_scan", "android": "https://dc.lft.to/lastmile_qr_scan"}, "is_reserved": 0, "fusion_lon": 0.0, "fusion_lat": 0.0, "lon": -77.03503816666667, "name": "e404b3d6f5904ee033715f954a1e60e2"}, {"bike_id": "8528d159bd08e8c0af8ab82d65d62dbc", "type": "electric_scooter", "is_disabled": 0, "lat": 38.906854333333335, "rental_uris": {"ios": "https://dc.lft.to/lastmile_qr_scan", "android": "https://dc.lft.to/lastmile_qr_scan"}, "is_reserved": 0, "fusion_lon": 0.0, "fusion_lat": 0.0, "lon": -77.06529783333333, "name": "8528d159bd08e8c0af8ab82d65d62dbc"}, {"bike_id": "2b11ec2c432bf9902e2daf5e4de3af06", "type": "electric_scooter", "is_disabled": 0, "lat": 38.964044666666666, "rental_uris": {"ios": "https://dc.lft.to/lastmile_qr_scan", "android": "https://dc.lft.to/lastmile_qr_scan"}, "is_reserved": 0, "fusion_lon": 0.0, "fusion_lat": 0.0, "lon": -77.02772233333333, "name": "2b11ec2c432bf9902e2daf5e4de3af06"}, {"bike_id": "b8e926bd8c86df7153df2f8e354eeb3e", "type": "electric_scooter", "is_disabled": 0, "lat": 38.930057166666664, "rental_uris": {"ios": "https://dc.lft.to/lastmile_qr_scan", "android": "https://dc.lft.to/lastmile_qr_scan"}, "is_reserved": 0, "fusion_lon": 0.0, "fusion_lat": 0.0, "lon": -77.01431816666667, "name": "b8e926bd8c86df7153df2f8e354eeb3e"}, {"bike_id": "5d94c6044b89de5dd89997318403977f", "type": "electric_scooter", "is_disabled": 0, "lat": 38.935332, "rental_uris": {"ios": "https://dc.lft.to/lastmile_qr_scan", "android": "https://dc.lft.to/lastmile_qr_scan"}, "is_reserved": 0, "fusion_lon": 0.0, "fusion_lat": 0.0, "lon": -77.0234785, "name": "5d94c6044b89de5dd89997318403977f"}, {"bike_id": "08d631c42c934ea635c93447a3b1c0d5", "type": "electric_bike", "is_disabled": 0, "lat": 38.8531785, "rental_uris": {"ios": "https://dc.lft.to/lastmile_qr_scan", "android": "https://dc.lft.to/lastmile_qr_scan"}, "is_reserved": 0, "fusion_lon": 0.0, "fusion_lat": 0.0, "lon": -76.98007166666666, "name": "08d631c42c934ea635c93447a3b1c0d5"}, {"bike_id": "c1d1705b6a64ddb1e13423f238be0a79", "type": "electric_scooter", "is_disabled": 0, "lat": 38.85206066666667, "rental_uris": {"ios": "https://dc.lft.to/lastmile_qr_scan", "android": "https://dc.lft.to/lastmile_qr_scan"}, "is_reserved": 0, "fusion_lon": 0.0, "fusion_lat": 0.0, "lon": -76.98563116666666, "name": "c1d1705b6a64ddb1e13423f238be0a79"}, {"bike_id": "9c7c4024d9b5cbfedb3cb58a14b66ab9", "type": "electric_scooter", "is_disabled": 0, "lat": 38.903656166666664, "rental_uris": {"ios": "https://dc.lft.to/lastmile_qr_scan", "android": "https://dc.lft.to/lastmile_qr_scan"}, "is_reserved": 0, "fusion_lon": 0.0, "fusion_lat": 0.0, "lon": -76.99385683333334, "name": "9c7c4024d9b5cbfedb3cb58a14b66ab9"}, {"bike_id": "ddecf62d19c9290897ae0ebd8196afd6", "type": "electric_bike", "is_disabled": 0, "lat": 39.0578485, "rental_uris": {"ios": "https://dc.lft.to/lastmile_qr_scan", "android": "https://dc.lft.to/lastmile_qr_scan"}, "is_reserved": 0, "fusion_lon": 0.0, "fusion_lat": 0.0, "lon": -77.15024383333333, "name": "ddecf62d19c9290897ae0ebd8196afd6"}, {"bike_id": "68fa6b6604aaea0219a01cd90d9c4a58", "type": "electric_scooter", "is_disabled": 0, "lat": 38.9344555, "rental_uris": {"ios": "https://dc.lft.to/lastmile_qr_scan", "android": "https://dc.lft.to/lastmile_qr_scan"}, "is_reserved": 0, "fusion_lon": 0.0, "fusion_lat": 0.0, "lon": -77.0298215, "name": "68fa6b6604aaea0219a01cd90d9c4a58"}, {"bike_id": "ca7c7cfb6f0c3c3ce6f9e97358599bbb", "type": "electric_bike", "is_disabled": 0, "lat": 38.897377666666664, "rental_uris": {"ios": "https://dc.lft.to/lastmile_qr_scan", "android": "https://dc.lft.to/lastmile_qr_scan"}, "is_reserved": 0, "fusion_lon": 0.0, "fusion_lat": 0.0, "lon": -76.94245316666667, "name": "ca7c7cfb6f0c3c3ce6f9e97358599bbb"}, {"bike_id": "5727226ff438af6b901907355ce4c017", "type": "electric_scooter", "is_disabled": 0, "lat": 38.921911, "rental_uris": {"ios": "https://dc.lft.to/lastmile_qr_scan", "android": "https://dc.lft.to/lastmile_qr_scan"}, "is_reserved": 0, "fusion_lon": 0.0, "fusion_lat": 0.0, "lon": -76.99365583333334, "name": "5727226ff438af6b901907355ce4c017"}, {"bike_id": "98508a2a47669e3a3052e050adcb69b2", "type": "electric_scooter", "is_disabled": 0, "lat": 38.91276366666666, "rental_uris": {"ios": "https://dc.lft.to/lastmile_qr_scan", "android": "https://dc.lft.to/lastmile_qr_scan"}, "is_reserved": 0, "fusion_lon": 0.0, "fusion_lat": 0.0, "lon": -77.04737766666666, "name": "98508a2a47669e3a3052e050adcb69b2"}, {"bike_id": "6a6abc6c7dca621081ad2c8ea5a91039", "type": "electric_scooter", "is_disabled": 0, "lat": 38.85699116666667, "rental_uris": {"ios": "https://dc.lft.to/lastmile_qr_scan", "android": "https://dc.lft.to/lastmile_qr_scan"}, "is_reserved": 0, "fusion_lon": 0.0, "fusion_lat": 0.0, "lon": -76.98971433333334, "name": "6a6abc6c7dca621081ad2c8ea5a91039"}, {"bike_id": "91702cf7e9912ef3cbee8b2b167af1c9", "type": "electric_scooter", "is_disabled": 0, "lat": 38.90060666666667, "rental_uris": {"ios": "https://dc.lft.to/lastmile_qr_scan", "android": "https://dc.lft.to/lastmile_qr_scan"}, "is_reserved": 0, "fusion_lon": 0.0, "fusion_lat": 0.0, "lon": -76.93478016666667, "name": "91702cf7e9912ef3cbee8b2b167af1c9"}, {"bike_id": "28c9ac67e50f7eb1de7e20e25c5b0331", "type": "electric_scooter", "is_disabled": 0, "lat": 38.884856, "rental_uris": {"ios": "https://dc.lft.to/lastmile_qr_scan", "android": "https://dc.lft.to/lastmile_qr_scan"}, "is_reserved": 0, "fusion_lon": 0.0, "fusion_lat": 0.0, "lon": -77.01507566666666, "name": "28c9ac67e50f7eb1de7e20e25c5b0331"}, {"bike_id": "11947be0549a81d35dea3474d83b284a", "type": "electric_scooter", "is_disabled": 0, "lat": 38.911041833333336, "rental_uris": {"ios": "https://dc.lft.to/lastmile_qr_scan", "android": "https://dc.lft.to/lastmile_qr_scan"}, "is_reserved": 0, "fusion_lon": 0.0, "fusion_lat": 0.0, "lon": -77.04476033333333, "name": "11947be0549a81d35dea3474d83b284a"}, {"bike_id": "80a077e0c5cb36e7ae243dd68fd21e49", "type": "electric_scooter", "is_disabled": 0, "lat": 38.927895166666666, "rental_uris": {"ios": "https://dc.lft.to/lastmile_qr_scan", "android": "https://dc.lft.to/lastmile_qr_scan"}, "is_reserved": 0, "fusion_lon": 0.0, "fusion_lat": 0.0, "lon": -77.02137083333334, "name": "80a077e0c5cb36e7ae243dd68fd21e49"}, {"bike_id": "ba0a0a91de3f9d011cf13e87ee2cb8d3", "type": "electric_scooter", "is_disabled": 0, "lat": 38.93121, "rental_uris": {"ios": "https://dc.lft.to/lastmile_qr_scan", "android": "https://dc.lft.to/lastmile_qr_scan"}, "is_reserved": 0, "fusion_lon": 0.0, "fusion_lat": 0.0, "lon": -77.02071933333333, "name": "ba0a0a91de3f9d011cf13e87ee2cb8d3"}, {"bike_id": "cf5fe534fd9a17df484e61b2c0cb5541", "type": "electric_scooter", "is_disabled": 0, "lat": 38.905908833333335, "rental_uris": {"ios": "https://dc.lft.to/lastmile_qr_scan", "android": "https://dc.lft.to/lastmile_qr_scan"}, "is_reserved": 0, "fusion_lon": 0.0, "fusion_lat": 0.0, "lon": -77.02183333333333, "name": "cf5fe534fd9a17df484e61b2c0cb5541"}, {"bike_id": "67b15731e7799d5892983b1520c17aaa", "type": "electric_scooter", "is_disabled": 0, "lat": 38.86215033333333, "rental_uris": {"ios": "https://dc.lft.to/lastmile_qr_scan", "android": "https://dc.lft.to/lastmile_qr_scan"}, "is_reserved": 0, "fusion_lon": 0.0, "fusion_lat": 0.0, "lon": -76.99487783333333, "name": "67b15731e7799d5892983b1520c17aaa"}, {"bike_id": "8822a93c5485fb8af8a23707e09b42ab", "type": "electric_scooter", "is_disabled": 0, "lat": 38.902676166666666, "rental_uris": {"ios": "https://dc.lft.to/lastmile_qr_scan", "android": "https://dc.lft.to/lastmile_qr_scan"}, "is_reserved": 0, "fusion_lon": 0.0, "fusion_lat": 0.0, "lon": -77.01966233333333, "name": "8822a93c5485fb8af8a23707e09b42ab"}, {"bike_id": "03ae0b03e639197cfc8c7d075c8ce64f", "type": "electric_scooter", "is_disabled": 0, "lat": 38.91711566666667, "rental_uris": {"ios": "https://dc.lft.to/lastmile_qr_scan", "android": "https://dc.lft.to/lastmile_qr_scan"}, "is_reserved": 0, "fusion_lon": 0.0, "fusion_lat": 0.0, "lon": -77.03860216666666, "name": "03ae0b03e639197cfc8c7d075c8ce64f"}, {"bike_id": "9159099e7b88836e0a4ef079818c4ba1", "type": "electric_scooter", "is_disabled": 0, "lat": 38.916849166666665, "rental_uris": {"ios": "https://dc.lft.to/lastmile_qr_scan", "android": "https://dc.lft.to/lastmile_qr_scan"}, "is_reserved": 0, "fusion_lon": 0.0, "fusion_lat": 0.0, "lon": -77.02948766666667, "name": "9159099e7b88836e0a4ef079818c4ba1"}, {"bike_id": "b08db75ab9bea95c7bc8d4674daf09b3", "type": "electric_scooter", "is_disabled": 0, "lat": 38.92061, "rental_uris": {"ios": "https://dc.lft.to/lastmile_qr_scan", "android": "https://dc.lft.to/lastmile_qr_scan"}, "is_reserved": 0, "fusion_lon": 0.0, "fusion_lat": 0.0, "lon": -77.03476383333333, "name": "b08db75ab9bea95c7bc8d4674daf09b3"}, {"bike_id": "03397d2b983593a9b1910fad3b6f87e9", "type": "electric_scooter", "is_disabled": 0, "lat": 38.956835, "rental_uris": {"ios": "https://dc.lft.to/lastmile_qr_scan", "android": "https://dc.lft.to/lastmile_qr_scan"}, "is_reserved": 0, "fusion_lon": 0.0, "fusion_lat": 0.0, "lon": -77.02400483333334, "name": "03397d2b983593a9b1910fad3b6f87e9"}, {"bike_id": "c5e091e07aa0ad6cf45ced6d9f1e859b", "type": "electric_scooter", "is_disabled": 0, "lat": 38.90728766666667, "rental_uris": {"ios": "https://dc.lft.to/lastmile_qr_scan", "android": "https://dc.lft.to/lastmile_qr_scan"}, "is_reserved": 0, "fusion_lon": 0.0, "fusion_lat": 0.0, "lon": -77.053308, "name": "c5e091e07aa0ad6cf45ced6d9f1e859b"}, {"bike_id": "d4d13e46655adf2a1436b5033960f3c0", "type": "electric_scooter", "is_disabled": 0, "lat": 38.941828666666666, "rental_uris": {"ios": "https://dc.lft.to/lastmile_qr_scan", "android": "https://dc.lft.to/lastmile_qr_scan"}, "is_reserved": 0, "fusion_lon": 0.0, "fusion_lat": 0.0, "lon": -77.02493516666667, "name": "d4d13e46655adf2a1436b5033960f3c0"}, {"bike_id": "4a3716109340534e354e53c59edbd6c3", "type": "electric_scooter", "is_disabled": 0, "lat": 38.9398005, "rental_uris": {"ios": "https://dc.lft.to/lastmile_qr_scan", "android": "https://dc.lft.to/lastmile_qr_scan"}, "is_reserved": 0, "fusion_lon": 0.0, "fusion_lat": 0.0, "lon": -77.0314405, "name": "4a3716109340534e354e53c59edbd6c3"}, {"bike_id": "f5c9eed985d48f624034f6fbddcd7e26", "type": "electric_scooter", "is_disabled": 0, "lat": 38.917722499999996, "rental_uris": {"ios": "https://dc.lft.to/lastmile_qr_scan", "android": "https://dc.lft.to/lastmile_qr_scan"}, "is_reserved": 0, "fusion_lon": 0.0, "fusion_lat": 0.0, "lon": -77.03457783333333, "name": "f5c9eed985d48f624034f6fbddcd7e26"}, {"bike_id": "0c5258b61b3473efcf3b1bf36f8f6b99", "type": "electric_scooter", "is_disabled": 0, "lat": 38.9346015, "rental_uris": {"ios": "https://dc.lft.to/lastmile_qr_scan", "android": "https://dc.lft.to/lastmile_qr_scan"}, "is_reserved": 0, "fusion_lon": 0.0, "fusion_lat": 0.0, "lon": -76.9643925, "name": "0c5258b61b3473efcf3b1bf36f8f6b99"}, {"bike_id": "cdb4c3988138a583d3577a2b622bafee", "type": "electric_scooter", "is_disabled": 0, "lat": 38.909481, "rental_uris": {"ios": "https://dc.lft.to/lastmile_qr_scan", "android": "https://dc.lft.to/lastmile_qr_scan"}, "is_reserved": 0, "fusion_lon": 0.0, "fusion_lat": 0.0, "lon": -77.0344475, "name": "cdb4c3988138a583d3577a2b622bafee"}, {"bike_id": "c768f9a1e915b74f73791d0867c7fd5e", "type": "electric_bike", "is_disabled": 0, "lat": 39.02435783333333, "rental_uris": {"ios": "https://dc.lft.to/lastmile_qr_scan", "android": "https://dc.lft.to/lastmile_qr_scan"}, "is_reserved": 0, "fusion_lon": 0.0, "fusion_lat": 0.0, "lon": -77.13098283333333, "name": "c768f9a1e915b74f73791d0867c7fd5e"}, {"bike_id": "3c14a087fc9c9859d96b9d97ae5c8ad4", "type": "electric_scooter", "is_disabled": 0, "lat": 38.929087, "rental_uris": {"ios": "https://dc.lft.to/lastmile_qr_scan", "android": "https://dc.lft.to/lastmile_qr_scan"}, "is_reserved": 0, "fusion_lon": 0.0, "fusion_lat": 0.0, "lon": -77.03617166666666, "name": "3c14a087fc9c9859d96b9d97ae5c8ad4"}, {"bike_id": "347094ae51c7ad80d56a587476c0c700", "type": "electric_scooter", "is_disabled": 0, "lat": 38.90396766666667, "rental_uris": {"ios": "https://dc.lft.to/lastmile_qr_scan", "android": "https://dc.lft.to/lastmile_qr_scan"}, "is_reserved": 0, "fusion_lon": 0.0, "fusion_lat": 0.0, "lon": -77.01788616666667, "name": "347094ae51c7ad80d56a587476c0c700"}, {"bike_id": "039429a2f55e3a05fd235c948ea01dc2", "type": "electric_bike", "is_disabled": 0, "lat": 38.947842333333334, "rental_uris": {"ios": "https://dc.lft.to/lastmile_qr_scan", "android": "https://dc.lft.to/lastmile_qr_scan"}, "is_reserved": 0, "fusion_lon": 0.0, "fusion_lat": 0.0, "lon": -76.97212883333333, "name": "039429a2f55e3a05fd235c948ea01dc2"}, {"bike_id": "0eb4068474effb1f6dbbcd5d6d1aa7c6", "type": "electric_bike", "is_disabled": 0, "lat": 38.95709383333333, "rental_uris": {"ios": "https://dc.lft.to/lastmile_qr_scan", "android": "https://dc.lft.to/lastmile_qr_scan"}, "is_reserved": 0, "fusion_lon": 0.0, "fusion_lat": 0.0, "lon": -77.02401583333334, "name": "0eb4068474effb1f6dbbcd5d6d1aa7c6"}, {"bike_id": "ccd1e6bd03fa4a49596bac9ea9088cb3", "type": "electric_scooter", "is_disabled": 0, "lat": 38.9156235, "rental_uris": {"ios": "https://dc.lft.to/lastmile_qr_scan", "android": "https://dc.lft.to/lastmile_qr_scan"}, "is_reserved": 0, "fusion_lon": 0.0, "fusion_lat": 0.0, "lon": -77.0386855, "name": "ccd1e6bd03fa4a49596bac9ea9088cb3"}, {"bike_id": "854e69f2129cdb876c68eb089e6764f1", "type": "electric_scooter", "is_disabled": 0, "lat": 38.907831, "rental_uris": {"ios": "https://dc.lft.to/lastmile_qr_scan", "android": "https://dc.lft.to/lastmile_qr_scan"}, "is_reserved": 0, "fusion_lon": 0.0, "fusion_lat": 0.0, "lon": -77.00960816666667, "name": "854e69f2129cdb876c68eb089e6764f1"}, {"bike_id": "8f983d98ff9dfed82c7dc14ce6c4dedf", "type": "electric_scooter", "is_disabled": 0, "lat": 38.905655, "rental_uris": {"ios": "https://dc.lft.to/lastmile_qr_scan", "android": "https://dc.lft.to/lastmile_qr_scan"}, "is_reserved": 0, "fusion_lon": 0.0, "fusion_lat": 0.0, "lon": -77.00574333333333, "name": "8f983d98ff9dfed82c7dc14ce6c4dedf"}, {"bike_id": "498166b18c1338d345dd0e7e1d220765", "type": "electric_scooter", "is_disabled": 0, "lat": 38.903127, "rental_uris": {"ios": "https://dc.lft.to/lastmile_qr_scan", "android": "https://dc.lft.to/lastmile_qr_scan"}, "is_reserved": 0, "fusion_lon": 0.0, "fusion_lat": 0.0, "lon": -76.98357383333334, "name": "498166b18c1338d345dd0e7e1d220765"}, {"bike_id": "e4fb307dd8c851e5f4225fbb31c2574b", "type": "electric_scooter", "is_disabled": 0, "lat": 38.92581833333333, "rental_uris": {"ios": "https://dc.lft.to/lastmile_qr_scan", "android": "https://dc.lft.to/lastmile_qr_scan"}, "is_reserved": 0, "fusion_lon": 0.0, "fusion_lat": 0.0, "lon": -77.03921283333334, "name": "e4fb307dd8c851e5f4225fbb31c2574b"}, {"bike_id": "f8e7aead2ef627ac4b956acc9b129e69", "type": "electric_scooter", "is_disabled": 0, "lat": 38.91810666666667, "rental_uris": {"ios": "https://dc.lft.to/lastmile_qr_scan", "android": "https://dc.lft.to/lastmile_qr_scan"}, "is_reserved": 0, "fusion_lon": 0.0, "fusion_lat": 0.0, "lon": -77.0047315, "name": "f8e7aead2ef627ac4b956acc9b129e69"}, {"bike_id": "506780643028ff51e1ad8b994bf85077", "type": "electric_scooter", "is_disabled": 0, "lat": 38.916927, "rental_uris": {"ios": "https://dc.lft.to/lastmile_qr_scan", "android": "https://dc.lft.to/lastmile_qr_scan"}, "is_reserved": 0, "fusion_lon": 0.0, "fusion_lat": 0.0, "lon": -77.03217733333334, "name": "506780643028ff51e1ad8b994bf85077"}, {"bike_id": "5c85ee2a19222f6a300a2df4892a76b3", "type": "electric_scooter", "is_disabled": 0, "lat": 38.9076855, "rental_uris": {"ios": "https://dc.lft.to/lastmile_qr_scan", "android": "https://dc.lft.to/lastmile_qr_scan"}, "is_reserved": 0, "fusion_lon": 0.0, "fusion_lat": 0.0, "lon": -77.0121305, "name": "5c85ee2a19222f6a300a2df4892a76b3"}, {"bike_id": "f7ca4585a5d3b831297b2d5ba6dac836", "type": "electric_bike", "is_disabled": 0, "lat": 38.872968, "rental_uris": {"ios": "https://dc.lft.to/lastmile_qr_scan", "android": "https://dc.lft.to/lastmile_qr_scan"}, "is_reserved": 0, "fusion_lon": 0.0, "fusion_lat": 0.0, "lon": -77.13926183333334, "name": "f7ca4585a5d3b831297b2d5ba6dac836"}, {"bike_id": "dd15c7b5fa5e8a02218700f8f6039ce5", "type": "electric_scooter", "is_disabled": 0, "lat": 38.95202116666667, "rental_uris": {"ios": "https://dc.lft.to/lastmile_qr_scan", "android": "https://dc.lft.to/lastmile_qr_scan"}, "is_reserved": 0, "fusion_lon": 0.0, "fusion_lat": 0.0, "lon": -77.06793716666667, "name": "dd15c7b5fa5e8a02218700f8f6039ce5"}, {"bike_id": "556f06aee6ca5da746cb7176e1b6fb4c", "type": "electric_bike", "is_disabled": 0, "lat": 38.9117255, "rental_uris": {"ios": "https://dc.lft.to/lastmile_qr_scan", "android": "https://dc.lft.to/lastmile_qr_scan"}, "is_reserved": 0, "fusion_lon": 0.0, "fusion_lat": 0.0, "lon": -77.00285966666667, "name": "556f06aee6ca5da746cb7176e1b6fb4c"}, {"bike_id": "f82004a4047698396375bdd9063b2a5d", "type": "electric_scooter", "is_disabled": 0, "lat": 38.936075333333335, "rental_uris": {"ios": "https://dc.lft.to/lastmile_qr_scan", "android": "https://dc.lft.to/lastmile_qr_scan"}, "is_reserved": 0, "fusion_lon": 0.0, "fusion_lat": 0.0, "lon": -77.0379685, "name": "f82004a4047698396375bdd9063b2a5d"}, {"bike_id": "e6f7d0073dd134f38e2bd809bd184684", "type": "electric_scooter", "is_disabled": 0, "lat": 38.941979, "rental_uris": {"ios": "https://dc.lft.to/lastmile_qr_scan", "android": "https://dc.lft.to/lastmile_qr_scan"}, "is_reserved": 0, "fusion_lon": 0.0, "fusion_lat": 0.0, "lon": -77.02350716666666, "name": "e6f7d0073dd134f38e2bd809bd184684"}, {"bike_id": "92826bc4774d2da0885b2a0c91bd0526", "type": "electric_scooter", "is_disabled": 0, "lat": 38.90968433333333, "rental_uris": {"ios": "https://dc.lft.to/lastmile_qr_scan", "android": "https://dc.lft.to/lastmile_qr_scan"}, "is_reserved": 0, "fusion_lon": 0.0, "fusion_lat": 0.0, "lon": -77.03386433333333, "name": "92826bc4774d2da0885b2a0c91bd0526"}, {"bike_id": "dcb5539553fc0a3e8d8d56b4a46a8180", "type": "electric_scooter", "is_disabled": 0, "lat": 38.93617316666667, "rental_uris": {"ios": "https://dc.lft.to/lastmile_qr_scan", "android": "https://dc.lft.to/lastmile_qr_scan"}, "is_reserved": 0, "fusion_lon": 0.0, "fusion_lat": 0.0, "lon": -77.06759583333333, "name": "dcb5539553fc0a3e8d8d56b4a46a8180"}, {"bike_id": "caf6fe467b9dd40add713e53ceb5ea41", "type": "electric_bike", "is_disabled": 0, "lat": 39.036973333333336, "rental_uris": {"ios": "https://dc.lft.to/lastmile_qr_scan", "android": "https://dc.lft.to/lastmile_qr_scan"}, "is_reserved": 0, "fusion_lon": 0.0, "fusion_lat": 0.0, "lon": -77.02852816666666, "name": "caf6fe467b9dd40add713e53ceb5ea41"}, {"bike_id": "4f179175ca51de90de35219552e9f24f", "type": "electric_scooter", "is_disabled": 0, "lat": 38.901291, "rental_uris": {"ios": "https://dc.lft.to/lastmile_qr_scan", "android": "https://dc.lft.to/lastmile_qr_scan"}, "is_reserved": 0, "fusion_lon": 0.0, "fusion_lat": 0.0, "lon": -77.01629883333334, "name": "4f179175ca51de90de35219552e9f24f"}, {"bike_id": "97d006fbe9a129131e0d3d08305634e4", "type": "electric_scooter", "is_disabled": 0, "lat": 38.91973566666667, "rental_uris": {"ios": "https://dc.lft.to/lastmile_qr_scan", "android": "https://dc.lft.to/lastmile_qr_scan"}, "is_reserved": 0, "fusion_lon": 0.0, "fusion_lat": 0.0, "lon": -77.0238665, "name": "97d006fbe9a129131e0d3d08305634e4"}, {"bike_id": "ea0c24e4b5b1575907b9c571b40c8ff8", "type": "electric_scooter", "is_disabled": 0, "lat": 38.936994166666665, "rental_uris": {"ios": "https://dc.lft.to/lastmile_qr_scan", "android": "https://dc.lft.to/lastmile_qr_scan"}, "is_reserved": 0, "fusion_lon": 0.0, "fusion_lat": 0.0, "lon": -77.03284233333333, "name": "ea0c24e4b5b1575907b9c571b40c8ff8"}, {"bike_id": "6e39908d8830f318736a5eb3ae74cfca", "type": "electric_bike", "is_disabled": 0, "lat": 38.95500666666667, "rental_uris": {"ios": "https://dc.lft.to/lastmile_qr_scan", "android": "https://dc.lft.to/lastmile_qr_scan"}, "is_reserved": 0, "fusion_lon": 0.0, "fusion_lat": 0.0, "lon": -76.99355333333334, "name": "6e39908d8830f318736a5eb3ae74cfca"}, {"bike_id": "27a628f606dbed7bdf29d592ca3b451c", "type": "electric_scooter", "is_disabled": 0, "lat": 38.903418, "rental_uris": {"ios": "https://dc.lft.to/lastmile_qr_scan", "android": "https://dc.lft.to/lastmile_qr_scan"}, "is_reserved": 0, "fusion_lon": 0.0, "fusion_lat": 0.0, "lon": -76.9851045, "name": "27a628f606dbed7bdf29d592ca3b451c"}, {"bike_id": "5d1d8add2f49f496a44cb212bac29c60", "type": "electric_scooter", "is_disabled": 0, "lat": 38.95932666666667, "rental_uris": {"ios": "https://dc.lft.to/lastmile_qr_scan", "android": "https://dc.lft.to/lastmile_qr_scan"}, "is_reserved": 0, "fusion_lon": 0.0, "fusion_lat": 0.0, "lon": -77.03120783333334, "name": "5d1d8add2f49f496a44cb212bac29c60"}, {"bike_id": "5dd9ad0dd3251b081bae98b0482225cf", "type": "electric_scooter", "is_disabled": 0, "lat": 38.94197333333334, "rental_uris": {"ios": "https://dc.lft.to/lastmile_qr_scan", "android": "https://dc.lft.to/lastmile_qr_scan"}, "is_reserved": 0, "fusion_lon": 0.0, "fusion_lat": 0.0, "lon": -77.02349033333333, "name": "5dd9ad0dd3251b081bae98b0482225cf"}, {"bike_id": "280a9ac67cf1caa9bfbb0a106428932d", "type": "electric_scooter", "is_disabled": 0, "lat": 38.914472, "rental_uris": {"ios": "https://dc.lft.to/lastmile_qr_scan", "android": "https://dc.lft.to/lastmile_qr_scan"}, "is_reserved": 0, "fusion_lon": 0.0, "fusion_lat": 0.0, "lon": -77.02180466666667, "name": "280a9ac67cf1caa9bfbb0a106428932d"}, {"bike_id": "54f5efcfd3cf2778755339b9ed76087d", "type": "electric_scooter", "is_disabled": 0, "lat": 38.95834333333333, "rental_uris": {"ios": "https://dc.lft.to/lastmile_qr_scan", "android": "https://dc.lft.to/lastmile_qr_scan"}, "is_reserved": 0, "fusion_lon": 0.0, "fusion_lat": 0.0, "lon": -77.01510333333333, "name": "54f5efcfd3cf2778755339b9ed76087d"}, {"bike_id": "c0f4ce50f05167b70549f92a437ae5b0", "type": "electric_scooter", "is_disabled": 0, "lat": 38.883417333333334, "rental_uris": {"ios": "https://dc.lft.to/lastmile_qr_scan", "android": "https://dc.lft.to/lastmile_qr_scan"}, "is_reserved": 0, "fusion_lon": 0.0, "fusion_lat": 0.0, "lon": -76.99506083333333, "name": "c0f4ce50f05167b70549f92a437ae5b0"}, {"bike_id": "cfe84deb0ec3277384228fe35bfcaec3", "type": "electric_scooter", "is_disabled": 0, "lat": 38.917152, "rental_uris": {"ios": "https://dc.lft.to/lastmile_qr_scan", "android": "https://dc.lft.to/lastmile_qr_scan"}, "is_reserved": 0, "fusion_lon": 0.0, "fusion_lat": 0.0, "lon": -77.03661116666666, "name": "cfe84deb0ec3277384228fe35bfcaec3"}, {"bike_id": "0d94ed4d38dc9986a05db580252fff09", "type": "electric_scooter", "is_disabled": 0, "lat": 38.876505333333334, "rental_uris": {"ios": "https://dc.lft.to/lastmile_qr_scan", "android": "https://dc.lft.to/lastmile_qr_scan"}, "is_reserved": 0, "fusion_lon": 0.0, "fusion_lat": 0.0, "lon": -76.96510433333333, "name": "0d94ed4d38dc9986a05db580252fff09"}, {"bike_id": "81106487cbae4317fd864bda1353c10e", "type": "electric_scooter", "is_disabled": 0, "lat": 38.92362033333333, "rental_uris": {"ios": "https://dc.lft.to/lastmile_qr_scan", "android": "https://dc.lft.to/lastmile_qr_scan"}, "is_reserved": 0, "fusion_lon": 0.0, "fusion_lat": 0.0, "lon": -77.0513235, "name": "81106487cbae4317fd864bda1353c10e"}, {"bike_id": "383ddb6c14d8780fe5cb0fe9428aaa11", "type": "electric_scooter", "is_disabled": 0, "lat": 38.932468666666665, "rental_uris": {"ios": "https://dc.lft.to/lastmile_qr_scan", "android": "https://dc.lft.to/lastmile_qr_scan"}, "is_reserved": 0, "fusion_lon": 0.0, "fusion_lat": 0.0, "lon": -77.036405, "name": "383ddb6c14d8780fe5cb0fe9428aaa11"}, {"bike_id": "ef1504bb04eb243d93974292197ecedd", "type": "electric_scooter", "is_disabled": 0, "lat": 38.88763333333333, "rental_uris": {"ios": "https://dc.lft.to/lastmile_qr_scan", "android": "https://dc.lft.to/lastmile_qr_scan"}, "is_reserved": 0, "fusion_lon": 0.0, "fusion_lat": 0.0, "lon": -76.95601766666667, "name": "ef1504bb04eb243d93974292197ecedd"}, {"bike_id": "cea0990b204570f0b6e9e277d619324b", "type": "electric_scooter", "is_disabled": 0, "lat": 38.90577016666667, "rental_uris": {"ios": "https://dc.lft.to/lastmile_qr_scan", "android": "https://dc.lft.to/lastmile_qr_scan"}, "is_reserved": 0, "fusion_lon": 0.0, "fusion_lat": 0.0, "lon": -77.005729, "name": "cea0990b204570f0b6e9e277d619324b"}, {"bike_id": "c3d58e74f8d3fa62644b613a815ea070", "type": "electric_scooter", "is_disabled": 0, "lat": 38.912796666666665, "rental_uris": {"ios": "https://dc.lft.to/lastmile_qr_scan", "android": "https://dc.lft.to/lastmile_qr_scan"}, "is_reserved": 0, "fusion_lon": 0.0, "fusion_lat": 0.0, "lon": -77.02713266666666, "name": "c3d58e74f8d3fa62644b613a815ea070"}, {"bike_id": "efa4319ac71c48d35a1d44bc4db02119", "type": "electric_scooter", "is_disabled": 0, "lat": 38.91151583333333, "rental_uris": {"ios": "https://dc.lft.to/lastmile_qr_scan", "android": "https://dc.lft.to/lastmile_qr_scan"}, "is_reserved": 0, "fusion_lon": 0.0, "fusion_lat": 0.0, "lon": -77.04426216666667, "name": "efa4319ac71c48d35a1d44bc4db02119"}, {"bike_id": "0bf9d81a94e5cf928c3e6da240c31b25", "type": "electric_scooter", "is_disabled": 0, "lat": 38.93210766666667, "rental_uris": {"ios": "https://dc.lft.to/lastmile_qr_scan", "android": "https://dc.lft.to/lastmile_qr_scan"}, "is_reserved": 0, "fusion_lon": 0.0, "fusion_lat": 0.0, "lon": -77.035179, "name": "0bf9d81a94e5cf928c3e6da240c31b25"}, {"bike_id": "852a24652a01e1c4333ec507057af2af", "type": "electric_scooter", "is_disabled": 0, "lat": 38.923185333333336, "rental_uris": {"ios": "https://dc.lft.to/lastmile_qr_scan", "android": "https://dc.lft.to/lastmile_qr_scan"}, "is_reserved": 0, "fusion_lon": 0.0, "fusion_lat": 0.0, "lon": -77.02137333333333, "name": "852a24652a01e1c4333ec507057af2af"}, {"bike_id": "09e155591d71be23a8fef2a0267c9c3d", "type": "electric_scooter", "is_disabled": 0, "lat": 38.900772333333336, "rental_uris": {"ios": "https://dc.lft.to/lastmile_qr_scan", "android": "https://dc.lft.to/lastmile_qr_scan"}, "is_reserved": 0, "fusion_lon": 0.0, "fusion_lat": 0.0, "lon": -77.04691533333333, "name": "09e155591d71be23a8fef2a0267c9c3d"}, {"bike_id": "d2348788845cd431b8f6128d7748bf6e", "type": "electric_scooter", "is_disabled": 0, "lat": 38.949964666666666, "rental_uris": {"ios": "https://dc.lft.to/lastmile_qr_scan", "android": "https://dc.lft.to/lastmile_qr_scan"}, "is_reserved": 0, "fusion_lon": 0.0, "fusion_lat": 0.0, "lon": -77.00875233333333, "name": "d2348788845cd431b8f6128d7748bf6e"}, {"bike_id": "357ef227f1dca34e12f917040b67424b", "type": "electric_bike", "is_disabled": 0, "lat": 38.84529, "rental_uris": {"ios": "https://dc.lft.to/lastmile_qr_scan", "android": "https://dc.lft.to/lastmile_qr_scan"}, "is_reserved": 0, "fusion_lon": 0.0, "fusion_lat": 0.0, "lon": -76.97396416666666, "name": "357ef227f1dca34e12f917040b67424b"}, {"bike_id": "8f4361d3bebb100312b68b54045e5727", "type": "electric_scooter", "is_disabled": 0, "lat": 38.905636, "rental_uris": {"ios": "https://dc.lft.to/lastmile_qr_scan", "android": "https://dc.lft.to/lastmile_qr_scan"}, "is_reserved": 0, "fusion_lon": 0.0, "fusion_lat": 0.0, "lon": -76.9813995, "name": "8f4361d3bebb100312b68b54045e5727"}, {"bike_id": "73d764a0275a79cd68fd91505ea97905", "type": "electric_scooter", "is_disabled": 0, "lat": 38.884096, "rental_uris": {"ios": "https://dc.lft.to/lastmile_qr_scan", "android": "https://dc.lft.to/lastmile_qr_scan"}, "is_reserved": 0, "fusion_lon": 0.0, "fusion_lat": 0.0, "lon": -77.031799, "name": "73d764a0275a79cd68fd91505ea97905"}, {"bike_id": "3ff6e68dbeb7050d93944994391d09ed", "type": "electric_scooter", "is_disabled": 0, "lat": 38.926771333333335, "rental_uris": {"ios": "https://dc.lft.to/lastmile_qr_scan", "android": "https://dc.lft.to/lastmile_qr_scan"}, "is_reserved": 0, "fusion_lon": 0.0, "fusion_lat": 0.0, "lon": -77.04358383333333, "name": "3ff6e68dbeb7050d93944994391d09ed"}, {"bike_id": "deafc12ccde88708893c214d64ad42ec", "type": "electric_scooter", "is_disabled": 0, "lat": 38.911353, "rental_uris": {"ios": "https://dc.lft.to/lastmile_qr_scan", "android": "https://dc.lft.to/lastmile_qr_scan"}, "is_reserved": 0, "fusion_lon": 0.0, "fusion_lat": 0.0, "lon": -77.06534916666666, "name": "deafc12ccde88708893c214d64ad42ec"}, {"bike_id": "5415f3a6e9e9373217c17060c00720a7", "type": "electric_scooter", "is_disabled": 0, "lat": 38.93512533333333, "rental_uris": {"ios": "https://dc.lft.to/lastmile_qr_scan", "android": "https://dc.lft.to/lastmile_qr_scan"}, "is_reserved": 0, "fusion_lon": 0.0, "fusion_lat": 0.0, "lon": -77.032933, "name": "5415f3a6e9e9373217c17060c00720a7"}, {"bike_id": "37f8efae6d8b7029acf5985ddaf6fcd3", "type": "electric_scooter", "is_disabled": 0, "lat": 38.9329185, "rental_uris": {"ios": "https://dc.lft.to/lastmile_qr_scan", "android": "https://dc.lft.to/lastmile_qr_scan"}, "is_reserved": 0, "fusion_lon": 0.0, "fusion_lat": 0.0, "lon": -77.04122366666667, "name": "37f8efae6d8b7029acf5985ddaf6fcd3"}, {"bike_id": "9eab7de27f800654f334983572d0fdc6", "type": "electric_bike", "is_disabled": 0, "lat": 38.8578885, "rental_uris": {"ios": "https://dc.lft.to/lastmile_qr_scan", "android": "https://dc.lft.to/lastmile_qr_scan"}, "is_reserved": 0, "fusion_lon": 0.0, "fusion_lat": 0.0, "lon": -77.12016933333334, "name": "9eab7de27f800654f334983572d0fdc6"}, {"bike_id": "0e952df91cbef0ad975ff01c9883e4c9", "type": "electric_scooter", "is_disabled": 0, "lat": 38.90200866666667, "rental_uris": {"ios": "https://dc.lft.to/lastmile_qr_scan", "android": "https://dc.lft.to/lastmile_qr_scan"}, "is_reserved": 0, "fusion_lon": 0.0, "fusion_lat": 0.0, "lon": -77.02377783333333, "name": "0e952df91cbef0ad975ff01c9883e4c9"}, {"bike_id": "ba0c170dd6ac5ed06f53689efcea8f06", "type": "electric_scooter", "is_disabled": 0, "lat": 38.89545483333333, "rental_uris": {"ios": "https://dc.lft.to/lastmile_qr_scan", "android": "https://dc.lft.to/lastmile_qr_scan"}, "is_reserved": 0, "fusion_lon": 0.0, "fusion_lat": 0.0, "lon": -76.9295255, "name": "ba0c170dd6ac5ed06f53689efcea8f06"}, {"bike_id": "29f98aa23184f8a85d6ffea41f0655bf", "type": "electric_scooter", "is_disabled": 0, "lat": 38.926117166666664, "rental_uris": {"ios": "https://dc.lft.to/lastmile_qr_scan", "android": "https://dc.lft.to/lastmile_qr_scan"}, "is_reserved": 0, "fusion_lon": 0.0, "fusion_lat": 0.0, "lon": -77.02164866666666, "name": "29f98aa23184f8a85d6ffea41f0655bf"}, {"bike_id": "43041ee9bb42ac620fa24d42dc53898d", "type": "electric_bike", "is_disabled": 0, "lat": 38.929667333333335, "rental_uris": {"ios": "https://dc.lft.to/lastmile_qr_scan", "android": "https://dc.lft.to/lastmile_qr_scan"}, "is_reserved": 0, "fusion_lon": 0.0, "fusion_lat": 0.0, "lon": -77.185662, "name": "43041ee9bb42ac620fa24d42dc53898d"}, {"bike_id": "3a45e392a85e53234cf14f43224d7377", "type": "electric_scooter", "is_disabled": 0, "lat": 38.8936815, "rental_uris": {"ios": "https://dc.lft.to/lastmile_qr_scan", "android": "https://dc.lft.to/lastmile_qr_scan"}, "is_reserved": 0, "fusion_lon": 0.0, "fusion_lat": 0.0, "lon": -76.9856105, "name": "3a45e392a85e53234cf14f43224d7377"}, {"bike_id": "fe9a58f8235e6c6afa3d31708411a6fb", "type": "electric_scooter", "is_disabled": 0, "lat": 38.902616, "rental_uris": {"ios": "https://dc.lft.to/lastmile_qr_scan", "android": "https://dc.lft.to/lastmile_qr_scan"}, "is_reserved": 0, "fusion_lon": 0.0, "fusion_lat": 0.0, "lon": -77.033787, "name": "fe9a58f8235e6c6afa3d31708411a6fb"}, {"bike_id": "73129c341d90a85c1de0115f49b0d328", "type": "electric_scooter", "is_disabled": 0, "lat": 38.90284316666666, "rental_uris": {"ios": "https://dc.lft.to/lastmile_qr_scan", "android": "https://dc.lft.to/lastmile_qr_scan"}, "is_reserved": 0, "fusion_lon": 0.0, "fusion_lat": 0.0, "lon": -77.05809833333333, "name": "73129c341d90a85c1de0115f49b0d328"}, {"bike_id": "4ad64bb65ec6a7b64abb68b23b5b050c", "type": "electric_scooter", "is_disabled": 0, "lat": 38.87068133333333, "rental_uris": {"ios": "https://dc.lft.to/lastmile_qr_scan", "android": "https://dc.lft.to/lastmile_qr_scan"}, "is_reserved": 0, "fusion_lon": 0.0, "fusion_lat": 0.0, "lon": -76.98129783333333, "name": "4ad64bb65ec6a7b64abb68b23b5b050c"}, {"bike_id": "523b0d452f0259cc812d37af4fffed80", "type": "electric_scooter", "is_disabled": 0, "lat": 38.91209766666667, "rental_uris": {"ios": "https://dc.lft.to/lastmile_qr_scan", "android": "https://dc.lft.to/lastmile_qr_scan"}, "is_reserved": 0, "fusion_lon": 0.0, "fusion_lat": 0.0, "lon": -77.03853666666667, "name": "523b0d452f0259cc812d37af4fffed80"}, {"bike_id": "c674bd27a910884dc93ae180e415cf34", "type": "electric_scooter", "is_disabled": 0, "lat": 38.92152216666667, "rental_uris": {"ios": "https://dc.lft.to/lastmile_qr_scan", "android": "https://dc.lft.to/lastmile_qr_scan"}, "is_reserved": 0, "fusion_lon": 0.0, "fusion_lat": 0.0, "lon": -77.0387615, "name": "c674bd27a910884dc93ae180e415cf34"}, {"bike_id": "177e7cd2b4080c91d98c99957b9eb997", "type": "electric_bike", "is_disabled": 0, "lat": 38.90207433333333, "rental_uris": {"ios": "https://dc.lft.to/lastmile_qr_scan", "android": "https://dc.lft.to/lastmile_qr_scan"}, "is_reserved": 0, "fusion_lon": 0.0, "fusion_lat": 0.0, "lon": -76.97410083333334, "name": "177e7cd2b4080c91d98c99957b9eb997"}, {"bike_id": "0bdc493be9eef67b1e831c6fa39e860e", "type": "electric_scooter", "is_disabled": 0, "lat": 38.9331625, "rental_uris": {"ios": "https://dc.lft.to/lastmile_qr_scan", "android": "https://dc.lft.to/lastmile_qr_scan"}, "is_reserved": 0, "fusion_lon": 0.0, "fusion_lat": 0.0, "lon": -77.07238216666667, "name": "0bdc493be9eef67b1e831c6fa39e860e"}, {"bike_id": "fbb370e71c1e85e62a63f14bfbbd7430", "type": "electric_scooter", "is_disabled": 0, "lat": 38.927145833333334, "rental_uris": {"ios": "https://dc.lft.to/lastmile_qr_scan", "android": "https://dc.lft.to/lastmile_qr_scan"}, "is_reserved": 0, "fusion_lon": 0.0, "fusion_lat": 0.0, "lon": -77.027195, "name": "fbb370e71c1e85e62a63f14bfbbd7430"}, {"bike_id": "6df4977c25b83e0c7966046a177dfcb2", "type": "electric_bike", "is_disabled": 0, "lat": 39.055019, "rental_uris": {"ios": "https://dc.lft.to/lastmile_qr_scan", "android": "https://dc.lft.to/lastmile_qr_scan"}, "is_reserved": 0, "fusion_lon": 0.0, "fusion_lat": 0.0, "lon": -77.04655533333333, "name": "6df4977c25b83e0c7966046a177dfcb2"}, {"bike_id": "cfdec5ec0e49bb445909268991be091d", "type": "electric_scooter", "is_disabled": 0, "lat": 38.933986166666664, "rental_uris": {"ios": "https://dc.lft.to/lastmile_qr_scan", "android": "https://dc.lft.to/lastmile_qr_scan"}, "is_reserved": 0, "fusion_lon": 0.0, "fusion_lat": 0.0, "lon": -77.03992866666667, "name": "cfdec5ec0e49bb445909268991be091d"}, {"bike_id": "d55327fe2142981d465fb8f1a96189f5", "type": "electric_scooter", "is_disabled": 0, "lat": 38.939505, "rental_uris": {"ios": "https://dc.lft.to/lastmile_qr_scan", "android": "https://dc.lft.to/lastmile_qr_scan"}, "is_reserved": 0, "fusion_lon": 0.0, "fusion_lat": 0.0, "lon": -77.03658433333334, "name": "d55327fe2142981d465fb8f1a96189f5"}, {"bike_id": "433312e7a50de946c77cb5eb6a9feb36", "type": "electric_scooter", "is_disabled": 0, "lat": 38.90950183333333, "rental_uris": {"ios": "https://dc.lft.to/lastmile_qr_scan", "android": "https://dc.lft.to/lastmile_qr_scan"}, "is_reserved": 0, "fusion_lon": 0.0, "fusion_lat": 0.0, "lon": -77.02692916666666, "name": "433312e7a50de946c77cb5eb6a9feb36"}, {"bike_id": "9276fbd5e4a13513aeac3d7846d45d6c", "type": "electric_scooter", "is_disabled": 0, "lat": 38.916147, "rental_uris": {"ios": "https://dc.lft.to/lastmile_qr_scan", "android": "https://dc.lft.to/lastmile_qr_scan"}, "is_reserved": 0, "fusion_lon": 0.0, "fusion_lat": 0.0, "lon": -77.0364695, "name": "9276fbd5e4a13513aeac3d7846d45d6c"}, {"bike_id": "5b54ffaff822a4764342c8380c9ecf31", "type": "electric_scooter", "is_disabled": 0, "lat": 38.925455, "rental_uris": {"ios": "https://dc.lft.to/lastmile_qr_scan", "android": "https://dc.lft.to/lastmile_qr_scan"}, "is_reserved": 0, "fusion_lon": 0.0, "fusion_lat": 0.0, "lon": -77.02281983333333, "name": "5b54ffaff822a4764342c8380c9ecf31"}, {"bike_id": "2bff0e91a60cd5d0a09e335ad8aeabe9", "type": "electric_scooter", "is_disabled": 0, "lat": 38.909001, "rental_uris": {"ios": "https://dc.lft.to/lastmile_qr_scan", "android": "https://dc.lft.to/lastmile_qr_scan"}, "is_reserved": 0, "fusion_lon": 0.0, "fusion_lat": 0.0, "lon": -77.0861565, "name": "2bff0e91a60cd5d0a09e335ad8aeabe9"}, {"bike_id": "cd189bb9df95846cf1151a20d73f9a83", "type": "electric_scooter", "is_disabled": 0, "lat": 38.958968, "rental_uris": {"ios": "https://dc.lft.to/lastmile_qr_scan", "android": "https://dc.lft.to/lastmile_qr_scan"}, "is_reserved": 0, "fusion_lon": 0.0, "fusion_lat": 0.0, "lon": -77.08607433333333, "name": "cd189bb9df95846cf1151a20d73f9a83"}, {"bike_id": "22f2238ce4af3ab1a250432877a13813", "type": "electric_scooter", "is_disabled": 0, "lat": 38.87066683333333, "rental_uris": {"ios": "https://dc.lft.to/lastmile_qr_scan", "android": "https://dc.lft.to/lastmile_qr_scan"}, "is_reserved": 0, "fusion_lon": 0.0, "fusion_lat": 0.0, "lon": -77.01189683333334, "name": "22f2238ce4af3ab1a250432877a13813"}, {"bike_id": "549ca2cac949c13cafa7bd10ed75c425", "type": "electric_scooter", "is_disabled": 0, "lat": 38.87111216666667, "rental_uris": {"ios": "https://dc.lft.to/lastmile_qr_scan", "android": "https://dc.lft.to/lastmile_qr_scan"}, "is_reserved": 0, "fusion_lon": 0.0, "fusion_lat": 0.0, "lon": -77.00751916666667, "name": "549ca2cac949c13cafa7bd10ed75c425"}, {"bike_id": "3a825a34e184fcdd4741a0962af89536", "type": "electric_scooter", "is_disabled": 0, "lat": 38.931961, "rental_uris": {"ios": "https://dc.lft.to/lastmile_qr_scan", "android": "https://dc.lft.to/lastmile_qr_scan"}, "is_reserved": 0, "fusion_lon": 0.0, "fusion_lat": 0.0, "lon": -77.01960966666667, "name": "3a825a34e184fcdd4741a0962af89536"}, {"bike_id": "83a01424478538e78a24d19810becd17", "type": "electric_scooter", "is_disabled": 0, "lat": 38.9163645, "rental_uris": {"ios": "https://dc.lft.to/lastmile_qr_scan", "android": "https://dc.lft.to/lastmile_qr_scan"}, "is_reserved": 0, "fusion_lon": 0.0, "fusion_lat": 0.0, "lon": -77.00057866666667, "name": "83a01424478538e78a24d19810becd17"}, {"bike_id": "665a4501347898ca7dafc5a2dbc19f5a", "type": "electric_scooter", "is_disabled": 0, "lat": 38.9208445, "rental_uris": {"ios": "https://dc.lft.to/lastmile_qr_scan", "android": "https://dc.lft.to/lastmile_qr_scan"}, "is_reserved": 0, "fusion_lon": 0.0, "fusion_lat": 0.0, "lon": -77.02407083333334, "name": "665a4501347898ca7dafc5a2dbc19f5a"}, {"bike_id": "b33316b85f4bd9d694b50327c460e9c7", "type": "electric_scooter", "is_disabled": 0, "lat": 38.914851166666665, "rental_uris": {"ios": "https://dc.lft.to/lastmile_qr_scan", "android": "https://dc.lft.to/lastmile_qr_scan"}, "is_reserved": 0, "fusion_lon": 0.0, "fusion_lat": 0.0, "lon": -77.02188733333334, "name": "b33316b85f4bd9d694b50327c460e9c7"}, {"bike_id": "1a3720cdc16f7aff48e08f551633ff42", "type": "electric_scooter", "is_disabled": 0, "lat": 38.939613666666666, "rental_uris": {"ios": "https://dc.lft.to/lastmile_qr_scan", "android": "https://dc.lft.to/lastmile_qr_scan"}, "is_reserved": 0, "fusion_lon": 0.0, "fusion_lat": 0.0, "lon": -77.02474916666667, "name": "1a3720cdc16f7aff48e08f551633ff42"}, {"bike_id": "3cc68f61459267ba303d4c8c8ccd0b64", "type": "electric_scooter", "is_disabled": 0, "lat": 38.923355666666666, "rental_uris": {"ios": "https://dc.lft.to/lastmile_qr_scan", "android": "https://dc.lft.to/lastmile_qr_scan"}, "is_reserved": 0, "fusion_lon": 0.0, "fusion_lat": 0.0, "lon": -77.05048466666666, "name": "3cc68f61459267ba303d4c8c8ccd0b64"}, {"bike_id": "fa06e360df273ab9687c6888820c857e", "type": "electric_scooter", "is_disabled": 0, "lat": 38.916327833333334, "rental_uris": {"ios": "https://dc.lft.to/lastmile_qr_scan", "android": "https://dc.lft.to/lastmile_qr_scan"}, "is_reserved": 0, "fusion_lon": 0.0, "fusion_lat": 0.0, "lon": -77.02297433333334, "name": "fa06e360df273ab9687c6888820c857e"}, {"bike_id": "da0372b23af756711007fc3aff14b555", "type": "electric_scooter", "is_disabled": 0, "lat": 38.880182, "rental_uris": {"ios": "https://dc.lft.to/lastmile_qr_scan", "android": "https://dc.lft.to/lastmile_qr_scan"}, "is_reserved": 0, "fusion_lon": 0.0, "fusion_lat": 0.0, "lon": -77.02477716666667, "name": "da0372b23af756711007fc3aff14b555"}, {"bike_id": "7dc3a862007dd6263a416bdcf78c5f6b", "type": "electric_scooter", "is_disabled": 0, "lat": 38.9237885, "rental_uris": {"ios": "https://dc.lft.to/lastmile_qr_scan", "android": "https://dc.lft.to/lastmile_qr_scan"}, "is_reserved": 0, "fusion_lon": 0.0, "fusion_lat": 0.0, "lon": -77.03079383333333, "name": "7dc3a862007dd6263a416bdcf78c5f6b"}, {"bike_id": "fe2f4b615e0bb4c5a6eae67ca974d0fc", "type": "electric_scooter", "is_disabled": 0, "lat": 38.89798066666667, "rental_uris": {"ios": "https://dc.lft.to/lastmile_qr_scan", "android": "https://dc.lft.to/lastmile_qr_scan"}, "is_reserved": 0, "fusion_lon": 0.0, "fusion_lat": 0.0, "lon": -77.011807, "name": "fe2f4b615e0bb4c5a6eae67ca974d0fc"}, {"bike_id": "996d01b68326449e738061a0f128c641", "type": "electric_scooter", "is_disabled": 0, "lat": 38.926595666666664, "rental_uris": {"ios": "https://dc.lft.to/lastmile_qr_scan", "android": "https://dc.lft.to/lastmile_qr_scan"}, "is_reserved": 0, "fusion_lon": 0.0, "fusion_lat": 0.0, "lon": -77.037287, "name": "996d01b68326449e738061a0f128c641"}, {"bike_id": "73b6509c70c401eec46c6ba795c88446", "type": "electric_scooter", "is_disabled": 0, "lat": 38.91049183333333, "rental_uris": {"ios": "https://dc.lft.to/lastmile_qr_scan", "android": "https://dc.lft.to/lastmile_qr_scan"}, "is_reserved": 0, "fusion_lon": 0.0, "fusion_lat": 0.0, "lon": -77.058734, "name": "73b6509c70c401eec46c6ba795c88446"}, {"bike_id": "926af72754715075a874b4a5a84f69a6", "type": "electric_scooter", "is_disabled": 0, "lat": 38.9002695, "rental_uris": {"ios": "https://dc.lft.to/lastmile_qr_scan", "android": "https://dc.lft.to/lastmile_qr_scan"}, "is_reserved": 0, "fusion_lon": 0.0, "fusion_lat": 0.0, "lon": -77.04693033333334, "name": "926af72754715075a874b4a5a84f69a6"}, {"bike_id": "5d367673742be76fa7b32dd8992fca94", "type": "electric_bike", "is_disabled": 0, "lat": 39.05055766666667, "rental_uris": {"ios": "https://dc.lft.to/lastmile_qr_scan", "android": "https://dc.lft.to/lastmile_qr_scan"}, "is_reserved": 0, "fusion_lon": 0.0, "fusion_lat": 0.0, "lon": -77.05153533333333, "name": "5d367673742be76fa7b32dd8992fca94"}, {"bike_id": "75ccce9438bc5aeffcad03723951f61b", "type": "electric_scooter", "is_disabled": 0, "lat": 38.923639666666666, "rental_uris": {"ios": "https://dc.lft.to/lastmile_qr_scan", "android": "https://dc.lft.to/lastmile_qr_scan"}, "is_reserved": 0, "fusion_lon": 0.0, "fusion_lat": 0.0, "lon": -77.0513125, "name": "75ccce9438bc5aeffcad03723951f61b"}, {"bike_id": "23cce5480953aa19dc1103171bac0c4e", "type": "electric_scooter", "is_disabled": 0, "lat": 38.9111955, "rental_uris": {"ios": "https://dc.lft.to/lastmile_qr_scan", "android": "https://dc.lft.to/lastmile_qr_scan"}, "is_reserved": 0, "fusion_lon": 0.0, "fusion_lat": 0.0, "lon": -77.042363, "name": "23cce5480953aa19dc1103171bac0c4e"}, {"bike_id": "dac4321692ce42eb0397e9ba4407a657", "type": "electric_scooter", "is_disabled": 0, "lat": 38.90664183333333, "rental_uris": {"ios": "https://dc.lft.to/lastmile_qr_scan", "android": "https://dc.lft.to/lastmile_qr_scan"}, "is_reserved": 0, "fusion_lon": 0.0, "fusion_lat": 0.0, "lon": -77.02712266666667, "name": "dac4321692ce42eb0397e9ba4407a657"}, {"bike_id": "382f9dd0062da73e6711964d39f941eb", "type": "electric_scooter", "is_disabled": 0, "lat": 38.904106, "rental_uris": {"ios": "https://dc.lft.to/lastmile_qr_scan", "android": "https://dc.lft.to/lastmile_qr_scan"}, "is_reserved": 0, "fusion_lon": 0.0, "fusion_lat": 0.0, "lon": -76.97333233333333, "name": "382f9dd0062da73e6711964d39f941eb"}, {"bike_id": "38944c4c51883991928bd84dbb21d196", "type": "electric_scooter", "is_disabled": 0, "lat": 38.9141305, "rental_uris": {"ios": "https://dc.lft.to/lastmile_qr_scan", "android": "https://dc.lft.to/lastmile_qr_scan"}, "is_reserved": 0, "fusion_lon": 0.0, "fusion_lat": 0.0, "lon": -77.0298795, "name": "38944c4c51883991928bd84dbb21d196"}, {"bike_id": "3bdd10afd3f4d3d81517e9dddcf5dd38", "type": "electric_scooter", "is_disabled": 0, "lat": 38.921210333333335, "rental_uris": {"ios": "https://dc.lft.to/lastmile_qr_scan", "android": "https://dc.lft.to/lastmile_qr_scan"}, "is_reserved": 0, "fusion_lon": 0.0, "fusion_lat": 0.0, "lon": -77.03665016666666, "name": "3bdd10afd3f4d3d81517e9dddcf5dd38"}, {"bike_id": "ebaf8bac08dacd6f6ff725752b6d6327", "type": "electric_scooter", "is_disabled": 0, "lat": 38.900178833333335, "rental_uris": {"ios": "https://dc.lft.to/lastmile_qr_scan", "android": "https://dc.lft.to/lastmile_qr_scan"}, "is_reserved": 0, "fusion_lon": 0.0, "fusion_lat": 0.0, "lon": -77.04467916666667, "name": "ebaf8bac08dacd6f6ff725752b6d6327"}, {"bike_id": "ec64d442a539e00b019f2c8f557cf4b4", "type": "electric_scooter", "is_disabled": 0, "lat": 38.93240383333333, "rental_uris": {"ios": "https://dc.lft.to/lastmile_qr_scan", "android": "https://dc.lft.to/lastmile_qr_scan"}, "is_reserved": 0, "fusion_lon": 0.0, "fusion_lat": 0.0, "lon": -77.038574, "name": "ec64d442a539e00b019f2c8f557cf4b4"}, {"bike_id": "4615fecf626cc899f64a713156f0da98", "type": "electric_scooter", "is_disabled": 0, "lat": 38.89369833333333, "rental_uris": {"ios": "https://dc.lft.to/lastmile_qr_scan", "android": "https://dc.lft.to/lastmile_qr_scan"}, "is_reserved": 0, "fusion_lon": 0.0, "fusion_lat": 0.0, "lon": -77.02860183333334, "name": "4615fecf626cc899f64a713156f0da98"}, {"bike_id": "d5d84684d1703f579ae98000274fe358", "type": "electric_bike", "is_disabled": 0, "lat": 38.83237716666667, "rental_uris": {"ios": "https://dc.lft.to/lastmile_qr_scan", "android": "https://dc.lft.to/lastmile_qr_scan"}, "is_reserved": 0, "fusion_lon": 0.0, "fusion_lat": 0.0, "lon": -76.9462375, "name": "d5d84684d1703f579ae98000274fe358"}, {"bike_id": "b036d5cec2acd1bed62502f522627e2a", "type": "electric_scooter", "is_disabled": 0, "lat": 38.921521, "rental_uris": {"ios": "https://dc.lft.to/lastmile_qr_scan", "android": "https://dc.lft.to/lastmile_qr_scan"}, "is_reserved": 0, "fusion_lon": 0.0, "fusion_lat": 0.0, "lon": -77.03535383333333, "name": "b036d5cec2acd1bed62502f522627e2a"}, {"bike_id": "a0a6681576ed7ce8c916d94e2280df78", "type": "electric_scooter", "is_disabled": 0, "lat": 38.905467333333334, "rental_uris": {"ios": "https://dc.lft.to/lastmile_qr_scan", "android": "https://dc.lft.to/lastmile_qr_scan"}, "is_reserved": 0, "fusion_lon": 0.0, "fusion_lat": 0.0, "lon": -77.03433333333334, "name": "a0a6681576ed7ce8c916d94e2280df78"}, {"bike_id": "125ce14051f171af6c88a9e05c46df9c", "type": "electric_scooter", "is_disabled": 0, "lat": 38.906654333333336, "rental_uris": {"ios": "https://dc.lft.to/lastmile_qr_scan", "android": "https://dc.lft.to/lastmile_qr_scan"}, "is_reserved": 0, "fusion_lon": 0.0, "fusion_lat": 0.0, "lon": -77.02955033333333, "name": "125ce14051f171af6c88a9e05c46df9c"}, {"bike_id": "6fd2c5339e2433fc068ddb17d51c7d5e", "type": "electric_scooter", "is_disabled": 0, "lat": 38.9238535, "rental_uris": {"ios": "https://dc.lft.to/lastmile_qr_scan", "android": "https://dc.lft.to/lastmile_qr_scan"}, "is_reserved": 0, "fusion_lon": 0.0, "fusion_lat": 0.0, "lon": -77.03661466666667, "name": "6fd2c5339e2433fc068ddb17d51c7d5e"}, {"bike_id": "3ec030318bf7e3bbb5e75b7a5bbae25f", "type": "electric_scooter", "is_disabled": 0, "lat": 38.90665933333333, "rental_uris": {"ios": "https://dc.lft.to/lastmile_qr_scan", "android": "https://dc.lft.to/lastmile_qr_scan"}, "is_reserved": 0, "fusion_lon": 0.0, "fusion_lat": 0.0, "lon": -77.02712066666666, "name": "3ec030318bf7e3bbb5e75b7a5bbae25f"}, {"bike_id": "90e95b2c26d9285c50edf4b86958414e", "type": "electric_scooter", "is_disabled": 0, "lat": 38.917166, "rental_uris": {"ios": "https://dc.lft.to/lastmile_qr_scan", "android": "https://dc.lft.to/lastmile_qr_scan"}, "is_reserved": 0, "fusion_lon": 0.0, "fusion_lat": 0.0, "lon": -77.02980033333333, "name": "90e95b2c26d9285c50edf4b86958414e"}, {"bike_id": "1ba3650ac87eed7fe47b1e30fc570170", "type": "electric_scooter", "is_disabled": 0, "lat": 38.942882, "rental_uris": {"ios": "https://dc.lft.to/lastmile_qr_scan", "android": "https://dc.lft.to/lastmile_qr_scan"}, "is_reserved": 0, "fusion_lon": 0.0, "fusion_lat": 0.0, "lon": -77.02172933333334, "name": "1ba3650ac87eed7fe47b1e30fc570170"}, {"bike_id": "32c6060d2d8d2210a2aca5451f6b37be", "type": "electric_scooter", "is_disabled": 0, "lat": 38.8784575, "rental_uris": {"ios": "https://dc.lft.to/lastmile_qr_scan", "android": "https://dc.lft.to/lastmile_qr_scan"}, "is_reserved": 0, "fusion_lon": 0.0, "fusion_lat": 0.0, "lon": -77.01967083333334, "name": "32c6060d2d8d2210a2aca5451f6b37be"}, {"bike_id": "581ff4b2ebd2b7caef07519d82b50624", "type": "electric_scooter", "is_disabled": 0, "lat": 38.9274785, "rental_uris": {"ios": "https://dc.lft.to/lastmile_qr_scan", "android": "https://dc.lft.to/lastmile_qr_scan"}, "is_reserved": 0, "fusion_lon": 0.0, "fusion_lat": 0.0, "lon": -77.02533533333333, "name": "581ff4b2ebd2b7caef07519d82b50624"}, {"bike_id": "0afac2ff713ec60404aca8b36cb8361d", "type": "electric_bike", "is_disabled": 0, "lat": 38.85351583333333, "rental_uris": {"ios": "https://dc.lft.to/lastmile_qr_scan", "android": "https://dc.lft.to/lastmile_qr_scan"}, "is_reserved": 0, "fusion_lon": 0.0, "fusion_lat": 0.0, "lon": -77.134654, "name": "0afac2ff713ec60404aca8b36cb8361d"}, {"bike_id": "247c0169c93e42bcc121a764a5ec4c80", "type": "electric_scooter", "is_disabled": 0, "lat": 38.9226505, "rental_uris": {"ios": "https://dc.lft.to/lastmile_qr_scan", "android": "https://dc.lft.to/lastmile_qr_scan"}, "is_reserved": 0, "fusion_lon": 0.0, "fusion_lat": 0.0, "lon": -76.99461533333333, "name": "247c0169c93e42bcc121a764a5ec4c80"}, {"bike_id": "811db26bd36c351edd20e1137cf0c93a", "type": "electric_scooter", "is_disabled": 0, "lat": 38.95404816666667, "rental_uris": {"ios": "https://dc.lft.to/lastmile_qr_scan", "android": "https://dc.lft.to/lastmile_qr_scan"}, "is_reserved": 0, "fusion_lon": 0.0, "fusion_lat": 0.0, "lon": -76.99852316666667, "name": "811db26bd36c351edd20e1137cf0c93a"}, {"bike_id": "8beed92c132803c30a80bb1743da0f77", "type": "electric_scooter", "is_disabled": 0, "lat": 38.92657633333334, "rental_uris": {"ios": "https://dc.lft.to/lastmile_qr_scan", "android": "https://dc.lft.to/lastmile_qr_scan"}, "is_reserved": 0, "fusion_lon": 0.0, "fusion_lat": 0.0, "lon": -77.0373055, "name": "8beed92c132803c30a80bb1743da0f77"}, {"bike_id": "289b68ff0bafe6181c799fc061408afa", "type": "electric_scooter", "is_disabled": 0, "lat": 38.93336466666667, "rental_uris": {"ios": "https://dc.lft.to/lastmile_qr_scan", "android": "https://dc.lft.to/lastmile_qr_scan"}, "is_reserved": 0, "fusion_lon": 0.0, "fusion_lat": 0.0, "lon": -77.03880816666667, "name": "289b68ff0bafe6181c799fc061408afa"}, {"bike_id": "a8bc6622b65a9c52457763244ae4af87", "type": "electric_scooter", "is_disabled": 0, "lat": 38.915648, "rental_uris": {"ios": "https://dc.lft.to/lastmile_qr_scan", "android": "https://dc.lft.to/lastmile_qr_scan"}, "is_reserved": 0, "fusion_lon": 0.0, "fusion_lat": 0.0, "lon": -77.0314065, "name": "a8bc6622b65a9c52457763244ae4af87"}, {"bike_id": "73b86f4cc5626b3b901b2fa8dd9cc6a9", "type": "electric_scooter", "is_disabled": 0, "lat": 38.928483666666665, "rental_uris": {"ios": "https://dc.lft.to/lastmile_qr_scan", "android": "https://dc.lft.to/lastmile_qr_scan"}, "is_reserved": 0, "fusion_lon": 0.0, "fusion_lat": 0.0, "lon": -77.0274515, "name": "73b86f4cc5626b3b901b2fa8dd9cc6a9"}, {"bike_id": "d645fd6dd26fb1af417409426f4b198b", "type": "electric_scooter", "is_disabled": 0, "lat": 38.9336695, "rental_uris": {"ios": "https://dc.lft.to/lastmile_qr_scan", "android": "https://dc.lft.to/lastmile_qr_scan"}, "is_reserved": 0, "fusion_lon": 0.0, "fusion_lat": 0.0, "lon": -77.03983533333333, "name": "d645fd6dd26fb1af417409426f4b198b"},