{"data": {"bikes": [{"lon": -77.06083783333334, "name": "b0af5cfe2f68901116f7f71849530bb8", "is_disabled": 0, "type": "electric_scooter", "is_reserved": 0, "fusion_lon": 0.0, "lat": 38.91190983333333, "rental_uris": {"ios": "https://dc.lft.to/lastmile_qr_scan", "android": "https://dc.lft.to/lastmile_qr_scan"}, "bike_id": "b0af5cfe2f68901116f7f71849530bb8", "fusion_lat": 0.0}, {"lon": -77.01886, "name": "40b825f2ffa92078e97097f30a41966d", "is_disabled": 0, "type": "electric_scooter", "is_reserved": 0, "fusion_lon": 0.0, "lat": 38.909124, "rental_uris": {"ios": "https://dc.lft.to/lastmile_qr_scan", "android": "https://dc.lft.to/lastmile_qr_scan"}, "bike_id": "40b825f2ffa92078e97097f30a41966d", "fusion_lat": 0.0}, {"lon": -77.02066266666667, "name": "db061ea1c318a2bdb882cf7ad0c408d8", "is_disabled": 0, "type": "electric_scooter", "is_reserved": 0, "fusion_lon": 0.0, "lat": 38.92254966666667, "rental_uris": {"ios": "https://dc.lft.to/lastmile_qr_scan", "android": "https://dc.lft.to/lastmile_qr_scan"}, "bike_id": "db061ea1c318a2bdb882cf7ad0c408d8", "fusion_lat": 0.0}, {"lon": -77.02364483333334, "name": "34a4ec28726e15943ef7c2aa4593999f", "is_disabled": 0, "type": "electric_scooter", "is_reserved": 0, "fusion_lon": 0.0, "lat": 38.920512, "rental_uris": {"ios": "https://dc.lft.to/lastmile_qr_scan", "android": "https://dc.lft.to/lastmile_qr_scan"}, "bike_id": "34a4ec28726e15943ef7c2aa4593999f", "fusion_lat": 0.0}, {"lon": -77.13333183333333, "name": "bff02c4eeaac17f3cc3e702042884fe7", "is_disabled": 0, "type": "electric_bike", "is_reserved": 0, "fusion_lon": 0.0, "lat": 39.06038433333333, "rental_uris": {"ios": "https://dc.lft.to/lastmile_qr_scan", "android": "https://dc.lft.to/lastmile_qr_scan"}, "bike_id": "bff02c4eeaac17f3cc3e702042884fe7", "fusion_lat": 0.0}, {"lon": -77.01576133333333, "name": "72cccede2bdc630c1bf1c672c8a16da7", "is_disabled": 0, "type": "electric_scooter", "is_reserved": 0, "fusion_lon": 0.0, "lat": 38.92687033333333, "rental_uris": {"ios": "https://dc.lft.to/lastmile_qr_scan", "android": "https://dc.lft.to/lastmile_qr_scan"}, "bike_id": "72cccede2bdc630c1bf1c672c8a16da7", "fusion_lat": 0.0}, {"lon": -77.0447915, "name": "41cb222b2e212656be6c9277cd90da93", "is_disabled": 0, "type": "electric_scooter", "is_reserved": 0, "fusion_lon": 0.0, "lat": 38.8936135, "rental_uris": {"ios": "https://dc.lft.to/lastmile_qr_scan", "android": "https://dc.lft.to/lastmile_qr_scan"}, "bike_id": "41cb222b2e212656be6c9277cd90da93", "fusion_lat": 0.0}, {"lon": -77.050449, "name": "b8d4e1e83c62f82ca97e914eff621b72", "is_disabled": 0, "type": "electric_scooter", "is_reserved": 0, "fusion_lon": 0.0, "lat": 38.892838, "rental_uris": {"ios": "https://dc.lft.to/lastmile_qr_scan", "android": "https://dc.lft.to/lastmile_qr_scan"}, "bike_id": "b8d4e1e83c62f82ca97e914eff621b72", "fusion_lat": 0.0}, {"lon": -77.0099035, "name": "03f77b22003bfdecd7b77ff8eb01bb0a", "is_disabled": 0, "type": "electric_scooter", "is_reserved": 0, "fusion_lon": 0.0, "lat": 38.903825, "rental_uris": {"ios": "https://dc.lft.to/lastmile_qr_scan", "android": "https://dc.lft.to/lastmile_qr_scan"}, "bike_id": "03f77b22003bfdecd7b77ff8eb01bb0a", "fusion_lat": 0.0}, {"lon": -77.0040035, "name": "224ead9347fcbe5f047ff210dcff07a4", "is_disabled": 0, "type": "electric_bike", "is_reserved": 0, "fusion_lon": 0.0, "lat": 38.985555, "rental_uris": {"ios": "https://dc.lft.to/lastmile_qr_scan", "android": "https://dc.lft.to/lastmile_qr_scan"}, "bike_id": "224ead9347fcbe5f047ff210dcff07a4", "fusion_lat": 0.0}, {"lon": -77.01666833333333, "name": "d69fb5a04746c78966d217e678660167", "is_disabled": 0, "type": "electric_scooter", "is_reserved": 0, "fusion_lon": 0.0, "lat": 38.92054816666667, "rental_uris": {"ios": "https://dc.lft.to/lastmile_qr_scan", "android": "https://dc.lft.to/lastmile_qr_scan"}, "bike_id": "d69fb5a04746c78966d217e678660167", "fusion_lat": 0.0}, {"lon": -77.22992866666667, "name": "522c50162174cb50e32e9e5e30572d4b", "is_disabled": 0, "type": "electric_bike", "is_reserved": 0, "fusion_lon": 0.0, "lat": 38.87154733333333, "rental_uris": {"ios": "https://dc.lft.to/lastmile_qr_scan", "android": "https://dc.lft.to/lastmile_qr_scan"}, "bike_id": "522c50162174cb50e32e9e5e30572d4b", "fusion_lat": 0.0}, {"lon": -76.97270266666666, "name": "eb6c270021f6b318c7b18642c4520aeb", "is_disabled": 0, "type": "electric_bike", "is_reserved": 0, "fusion_lon": 0.0, "lat": 38.855962166666664, "rental_uris": {"ios": "https://dc.lft.to/lastmile_qr_scan", "android": "https://dc.lft.to/lastmile_qr_scan"}, "bike_id": "eb6c270021f6b318c7b18642c4520aeb", "fusion_lat": 0.0}, {"lon": -77.01835266666667, "name": "5a93680113a4ac4280353192b8cc73a7", "is_disabled": 0, "type": "electric_scooter", "is_reserved": 0, "fusion_lon": 0.0, "lat": 38.907361, "rental_uris": {"ios": "https://dc.lft.to/lastmile_qr_scan", "android": "https://dc.lft.to/lastmile_qr_scan"}, "bike_id": "5a93680113a4ac4280353192b8cc73a7", "fusion_lat": 0.0}, {"lon": -77.0187555, "name": "528b63b6b3f0cb931586c5da8b6a6a77", "is_disabled": 0, "type": "electric_scooter", "is_reserved": 0, "fusion_lon": 0.0, "lat": 38.88127033333333, "rental_uris": {"ios": "https://dc.lft.to/lastmile_qr_scan", "android": "https://dc.lft.to/lastmile_qr_scan"}, "bike_id": "528b63b6b3f0cb931586c5da8b6a6a77", "fusion_lat": 0.0}, {"lon": -77.01960833333334, "name": "bc42e71dd6b5b457f13cb0f7b95dd695", "is_disabled": 0, "type": "electric_scooter", "is_reserved": 0, "fusion_lon": 0.0, "lat": 38.885795333333334, "rental_uris": {"ios": "https://dc.lft.to/lastmile_qr_scan", "android": "https://dc.lft.to/lastmile_qr_scan"}, "bike_id": "bc42e71dd6b5b457f13cb0f7b95dd695", "fusion_lat": 0.0}, {"lon": -76.98039033333333, "name": "679ab08118e8e406e2661ddfcdb2e343", "is_disabled": 0, "type": "electric_scooter", "is_reserved": 0, "fusion_lon": 0.0, "lat": 38.8897105, "rental_uris": {"ios": "https://dc.lft.to/lastmile_qr_scan", "android": "https://dc.lft.to/lastmile_qr_scan"}, "bike_id": "679ab08118e8e406e2661ddfcdb2e343", "fusion_lat": 0.0}, {"lon": -76.94464683333334, "name": "9210944fcdb9f07289a2bb0c9bfe6c70", "is_disabled": 0, "type": "electric_scooter", "is_reserved": 0, "fusion_lon": 0.0, "lat": 38.890251, "rental_uris": {"ios": "https://dc.lft.to/lastmile_qr_scan", "android": "https://dc.lft.to/lastmile_qr_scan"}, "bike_id": "9210944fcdb9f07289a2bb0c9bfe6c70", "fusion_lat": 0.0}, {"lon": -77.026187, "name": "466c4bac4b46e95567d7f54356ec1349", "is_disabled": 0, "type": "electric_scooter", "is_reserved": 0, "fusion_lon": 0.0, "lat": 38.89751433333333, "rental_uris": {"ios": "https://dc.lft.to/lastmile_qr_scan", "android": "https://dc.lft.to/lastmile_qr_scan"}, "bike_id": "466c4bac4b46e95567d7f54356ec1349", "fusion_lat": 0.0}, {"lon": -77.00338583333334, "name": "db752b5b68469a1c3c78f19ac050d5bb", "is_disabled": 0, "type": "electric_scooter", "is_reserved": 0, "fusion_lon": 0.0, "lat": 38.922638166666665, "rental_uris": {"ios": "https://dc.lft.to/lastmile_qr_scan", "android": "https://dc.lft.to/lastmile_qr_scan"}, "bike_id": "db752b5b68469a1c3c78f19ac050d5bb", "fusion_lat": 0.0}, {"lon": -77.03410616666666, "name": "738d11385e575de8a6e00101e37707ac", "is_disabled": 0, "type": "electric_scooter", "is_reserved": 0, "fusion_lon": 0.0, "lat": 38.923910666666664, "rental_uris": {"ios": "https://dc.lft.to/lastmile_qr_scan", "android": "https://dc.lft.to/lastmile_qr_scan"}, "bike_id": "738d11385e575de8a6e00101e37707ac", "fusion_lat": 0.0}, {"lon": -77.02507583333333, "name": "540ffde85c86147c2e70a94ca0831632", "is_disabled": 0, "type": "electric_scooter", "is_reserved": 0, "fusion_lon": 0.0, "lat": 38.92078566666667, "rental_uris": {"ios": "https://dc.lft.to/lastmile_qr_scan", "android": "https://dc.lft.to/lastmile_qr_scan"}, "bike_id": "540ffde85c86147c2e70a94ca0831632", "fusion_lat": 0.0}, {"lon": -77.04810416666666, "name": "24b546062a5a04e534d1fb7a4148d06e", "is_disabled": 0, "type": "electric_scooter", "is_reserved": 0, "fusion_lon": 0.0, "lat": 38.90194483333333, "rental_uris": {"ios": "https://dc.lft.to/lastmile_qr_scan", "android": "https://dc.lft.to/lastmile_qr_scan"}, "bike_id": "24b546062a5a04e534d1fb7a4148d06e", "fusion_lat": 0.0}, {"lon": -77.01874366666667, "name": "787b7e53ef3e442f247502fc4a7c7277", "is_disabled": 0, "type": "electric_scooter", "is_reserved": 0, "fusion_lon": 0.0, "lat": 38.931996, "rental_uris": {"ios": "https://dc.lft.to/lastmile_qr_scan", "android": "https://dc.lft.to/lastmile_qr_scan"}, "bike_id": "787b7e53ef3e442f247502fc4a7c7277", "fusion_lat": 0.0}, {"lon": -77.01560483333333, "name": "055970d1a9c80429ca78a3eba8905915", "is_disabled": 0, "type": "electric_scooter", "is_reserved": 0, "fusion_lon": 0.0, "lat": 38.892224666666664, "rental_uris": {"ios": "https://dc.lft.to/lastmile_qr_scan", "android": "https://dc.lft.to/lastmile_qr_scan"}, "bike_id": "055970d1a9c80429ca78a3eba8905915", "fusion_lat": 0.0}, {"lon": -76.98027733333333, "name": "dc8e52a89260732024e8543bcf2c2854", "is_disabled": 0, "type": "electric_bike", "is_reserved": 0, "fusion_lon": 0.0, "lat": 38.86824166666667, "rental_uris": {"ios": "https://dc.lft.to/lastmile_qr_scan", "android": "https://dc.lft.to/lastmile_qr_scan"}, "bike_id": "dc8e52a89260732024e8543bcf2c2854", "fusion_lat": 0.0}, {"lon": -77.02475416666667, "name": "7e2bbb27f948ae2b0259917dc22fed67", "is_disabled": 0, "type": "electric_scooter", "is_reserved": 0, "fusion_lon": 0.0, "lat": 38.9362155, "rental_uris": {"ios": "https://dc.lft.to/lastmile_qr_scan", "android": "https://dc.lft.to/lastmile_qr_scan"}, "bike_id": "7e2bbb27f948ae2b0259917dc22fed67", "fusion_lat": 0.0}, {"lon": -77.02705933333333, "name": "b076cd3d3d88ab8695d5c3e0ed42d5d0", "is_disabled": 0, "type": "electric_scooter", "is_reserved": 0, "fusion_lon": 0.0, "lat": 38.928835166666666, "rental_uris": {"ios": "https://dc.lft.to/lastmile_qr_scan", "android": "https://dc.lft.to/lastmile_qr_scan"}, "bike_id": "b076cd3d3d88ab8695d5c3e0ed42d5d0", "fusion_lat": 0.0}, {"lon": -77.02511566666666, "name": "98f396cb544d8edbfc19e5b02f2efd7a", "is_disabled": 0, "type": "electric_scooter", "is_reserved": 0, "fusion_lon": 0.0, "lat": 38.90724866666667, "rental_uris": {"ios": "https://dc.lft.to/lastmile_qr_scan", "android": "https://dc.lft.to/lastmile_qr_scan"}, "bike_id": "98f396cb544d8edbfc19e5b02f2efd7a", "fusion_lat": 0.0}, {"lon": -77.01410416666667, "name": "a94618a6e1600a34288c6ff3272fc929", "is_disabled": 0, "type": "electric_scooter", "is_reserved": 0, "fusion_lon": 0.0, "lat": 38.911064333333336, "rental_uris": {"ios": "https://dc.lft.to/lastmile_qr_scan", "android": "https://dc.lft.to/lastmile_qr_scan"}, "bike_id": "a94618a6e1600a34288c6ff3272fc929", "fusion_lat": 0.0}, {"lon": -77.09877483333334, "name": "8c6378ed6e05355d4a90afe096179440", "is_disabled": 0, "type": "electric_bike", "is_reserved": 0, "fusion_lon": 0.0, "lat": 38.947177333333336, "rental_uris": {"ios": "https://dc.lft.to/lastmile_qr_scan", "android": "https://dc.lft.to/lastmile_qr_scan"}, "bike_id": "8c6378ed6e05355d4a90afe096179440", "fusion_lat": 0.0}, {"lon": -76.98762833333333, "name": "6c89703b76efd3394e6ab46364919e43", "is_disabled": 0, "type": "electric_bike", "is_reserved": 0, "fusion_lon": 0.0, "lat": 38.85785766666667, "rental_uris": {"ios": "https://dc.lft.to/lastmile_qr_scan", "android": "https://dc.lft.to/lastmile_qr_scan"}, "bike_id": "6c89703b76efd3394e6ab46364919e43", "fusion_lat": 0.0}, {"lon": -77.001912, "name": "2388dc9125364f9afdad57f65e40179d", "is_disabled": 0, "type": "electric_scooter", "is_reserved": 0, "fusion_lon": 0.0, "lat": 38.894860333333334, "rental_uris": {"ios": "https://dc.lft.to/lastmile_qr_scan", "android": "https://dc.lft.to/lastmile_qr_scan"}, "bike_id": "2388dc9125364f9afdad57f65e40179d", "fusion_lat": 0.0}, {"lon": -76.97559683333333, "name": "ac4bf61111c6f3f328691096976de55d", "is_disabled": 0, "type": "electric_bike", "is_reserved": 0, "fusion_lon": 0.0, "lat": 38.9245565, "rental_uris": {"ios": "https://dc.lft.to/lastmile_qr_scan", "android": "https://dc.lft.to/lastmile_qr_scan"}, "bike_id": "ac4bf61111c6f3f328691096976de55d", "fusion_lat": 0.0}, {"lon": -77.06407133333333, "name": "a5d9dd014af98c10b93040c0c3e55e1b", "is_disabled": 0, "type": "electric_bike", "is_reserved": 0, "fusion_lon": 0.0, "lat": 38.980131166666666, "rental_uris": {"ios": "https://dc.lft.to/lastmile_qr_scan", "android": "https://dc.lft.to/lastmile_qr_scan"}, "bike_id": "a5d9dd014af98c10b93040c0c3e55e1b", "fusion_lat": 0.0}, {"lon": -77.04508283333334, "name": "2572e7615569f02e5f5494fd363f904f", "is_disabled": 0, "type": "electric_scooter", "is_reserved": 0, "fusion_lon": 0.0, "lat": 38.91274533333333, "rental_uris": {"ios": "https://dc.lft.to/lastmile_qr_scan", "android": "https://dc.lft.to/lastmile_qr_scan"}, "bike_id": "2572e7615569f02e5f5494fd363f904f", "fusion_lat": 0.0}, {"lon": -77.1147735, "name": "ec7d1456054ea74fa8b29a4e4ebbf48e", "is_disabled": 0, "type": "electric_bike", "is_reserved": 0, "fusion_lon": 0.0, "lat": 38.8583415, "rental_uris": {"ios": "https://dc.lft.to/lastmile_qr_scan", "android": "https://dc.lft.to/lastmile_qr_scan"}, "bike_id": "ec7d1456054ea74fa8b29a4e4ebbf48e", "fusion_lat": 0.0}, {"lon": -77.02820233333334, "name": "33cac3a14e7d115a9ad67b65e25c35ae", "is_disabled": 0, "type": "electric_scooter", "is_reserved": 0, "fusion_lon": 0.0, "lat": 38.90710283333333, "rental_uris": {"ios": "https://dc.lft.to/lastmile_qr_scan", "android": "https://dc.lft.to/lastmile_qr_scan"}, "bike_id": "33cac3a14e7d115a9ad67b65e25c35ae", "fusion_lat": 0.0}, {"lon": -77.02050383333334, "name": "d26508f7d60c1ce5a173b047003d001b", "is_disabled": 0, "type": "electric_scooter", "is_reserved": 0, "fusion_lon": 0.0, "lat": 38.92770483333334, "rental_uris": {"ios": "https://dc.lft.to/lastmile_qr_scan", "android": "https://dc.lft.to/lastmile_qr_scan"}, "bike_id": "d26508f7d60c1ce5a173b047003d001b", "fusion_lat": 0.0}, {"lon": -77.01610083333334, "name": "39cbb7b3591d23c24a35550fb8011cd1", "is_disabled": 0, "type": "electric_bike", "is_reserved": 0, "fusion_lon": 0.0, "lat": 38.9494835, "rental_uris": {"ios": "https://dc.lft.to/lastmile_qr_scan", "android": "https://dc.lft.to/lastmile_qr_scan"}, "bike_id": "39cbb7b3591d23c24a35550fb8011cd1", "fusion_lat": 0.0}, {"lon": -77.019199, "name": "3fad09dea1711e3a5048b2684bd39f95", "is_disabled": 0, "type": "electric_scooter", "is_reserved": 0, "fusion_lon": 0.0, "lat": 38.92373, "rental_uris": {"ios": "https://dc.lft.to/lastmile_qr_scan", "android": "https://dc.lft.to/lastmile_qr_scan"}, "bike_id": "3fad09dea1711e3a5048b2684bd39f95", "fusion_lat": 0.0}, {"lon": -77.062833, "name": "893ee8e5e6021462912493fd204d178f", "is_disabled": 0, "type": "electric_scooter", "is_reserved": 0, "fusion_lon": 0.0, "lat": 38.90591466666667, "rental_uris": {"ios": "https://dc.lft.to/lastmile_qr_scan", "android": "https://dc.lft.to/lastmile_qr_scan"}, "bike_id": "893ee8e5e6021462912493fd204d178f", "fusion_lat": 0.0}, {"lon": -77.03917016666666, "name": "9aab8992d338203e613aa5f9b452816f", "is_disabled": 0, "type": "electric_scooter", "is_reserved": 0, "fusion_lon": 0.0, "lat": 38.9248, "rental_uris": {"ios": "https://dc.lft.to/lastmile_qr_scan", "android": "https://dc.lft.to/lastmile_qr_scan"}, "bike_id": "9aab8992d338203e613aa5f9b452816f", "fusion_lat": 0.0}, {"lon": -77.04764216666666, "name": "cbb87b53847f636781e85f5145e08efe", "is_disabled": 0, "type": "electric_scooter", "is_reserved": 0, "fusion_lon": 0.0, "lat": 38.911266166666664, "rental_uris": {"ios": "https://dc.lft.to/lastmile_qr_scan", "android": "https://dc.lft.to/lastmile_qr_scan"}, "bike_id": "cbb87b53847f636781e85f5145e08efe", "fusion_lat": 0.0}, {"lon": -77.0346375, "name": "1c74be45bf9f205562b7b89c2b23a741", "is_disabled": 0, "type": "electric_scooter", "is_reserved": 0, "fusion_lon": 0.0, "lat": 38.9064165, "rental_uris": {"ios": "https://dc.lft.to/lastmile_qr_scan", "android": "https://dc.lft.to/lastmile_qr_scan"}, "bike_id": "1c74be45bf9f205562b7b89c2b23a741", "fusion_lat": 0.0}, {"lon": -77.028114, "name": "bdc97af4f8ea1b08f73faab980ceea91", "is_disabled": 0, "type": "electric_scooter", "is_reserved": 0, "fusion_lon": 0.0, "lat": 38.907037333333335, "rental_uris": {"ios": "https://dc.lft.to/lastmile_qr_scan", "android": "https://dc.lft.to/lastmile_qr_scan"}, "bike_id": "bdc97af4f8ea1b08f73faab980ceea91", "fusion_lat": 0.0}, {"lon": -77.03522333333333, "name": "8c71e0a48ba689608af6cfc0e1df3c57", "is_disabled": 0, "type": "electric_scooter", "is_reserved": 0, "fusion_lon": 0.0, "lat": 38.908866, "rental_uris": {"ios": "https://dc.lft.to/lastmile_qr_scan", "android": "https://dc.lft.to/lastmile_qr_scan"}, "bike_id": "8c71e0a48ba689608af6cfc0e1df3c57", "fusion_lat": 0.0}, {"lon": -76.93718533333333, "name": "40f9a63e3642fd7d3d17aef0aca57918", "is_disabled": 0, "type": "electric_scooter", "is_reserved": 0, "fusion_lon": 0.0, "lat": 38.886571833333335, "rental_uris": {"ios": "https://dc.lft.to/lastmile_qr_scan", "android": "https://dc.lft.to/lastmile_qr_scan"}, "bike_id": "40f9a63e3642fd7d3d17aef0aca57918", "fusion_lat": 0.0}, {"lon": -77.031886, "name": "ef956d8a3452ec92b8e9fd88c848034e", "is_disabled": 0, "type": "electric_scooter", "is_reserved": 0, "fusion_lon": 0.0, "lat": 38.9180005, "rental_uris": {"ios": "https://dc.lft.to/lastmile_qr_scan", "android": "https://dc.lft.to/lastmile_qr_scan"}, "bike_id": "ef956d8a3452ec92b8e9fd88c848034e", "fusion_lat": 0.0}, {"lon": -77.02692533333334, "name": "8b859302fb7919821dd39cc9289993a2", "is_disabled": 0, "type": "electric_scooter", "is_reserved": 0, "fusion_lon": 0.0, "lat": 38.90740516666666, "rental_uris": {"ios": "https://dc.lft.to/lastmile_qr_scan", "android": "https://dc.lft.to/lastmile_qr_scan"}, "bike_id": "8b859302fb7919821dd39cc9289993a2", "fusion_lat": 0.0}, {"lon": -77.02416533333333, "name": "add46c6365a7326bb278a17162878111", "is_disabled": 0, "type": "electric_scooter", "is_reserved": 0, "fusion_lon": 0.0, "lat": 38.92093416666667, "rental_uris": {"ios": "https://dc.lft.to/lastmile_qr_scan", "android": "https://dc.lft.to/lastmile_qr_scan"}, "bike_id": "add46c6365a7326bb278a17162878111", "fusion_lat": 0.0}, {"lon": -77.0122845, "name": "83042a2b756c364c513fbcd1908f325c", "is_disabled": 0, "type": "electric_bike", "is_reserved": 0, "fusion_lon": 0.0, "lat": 38.950849166666664, "rental_uris": {"ios": "https://dc.lft.to/lastmile_qr_scan", "android": "https://dc.lft.to/lastmile_qr_scan"}, "bike_id": "83042a2b756c364c513fbcd1908f325c", "fusion_lat": 0.0}, {"lon": -77.03274766666667, "name": "54322486cefb611834fc282d752ecaed", "is_disabled": 0, "type": "electric_bike", "is_reserved": 0, "fusion_lon": 0.0, "lat": 38.961289, "rental_uris": {"ios": "https://dc.lft.to/lastmile_qr_scan", "android": "https://dc.lft.to/lastmile_qr_scan"}, "bike_id": "54322486cefb611834fc282d752ecaed", "fusion_lat": 0.0}, {"lon": -77.04680833333333, "name": "26acdd1c1468c2b2ac329f7edf4c001d", "is_disabled": 0, "type": "electric_scooter", "is_reserved": 0, "fusion_lon": 0.0, "lat": 38.89223066666667, "rental_uris": {"ios": "https://dc.lft.to/lastmile_qr_scan", "android": "https://dc.lft.to/lastmile_qr_scan"}, "bike_id": "26acdd1c1468c2b2ac329f7edf4c001d", "fusion_lat": 0.0}, {"lon": -76.9811715, "name": "c924852c7dac33af3bb12307ce4c1e64", "is_disabled": 0, "type": "electric_bike", "is_reserved": 0, "fusion_lon": 0.0, "lat": 38.945708833333335, "rental_uris": {"ios": "https://dc.lft.to/lastmile_qr_scan", "android": "https://dc.lft.to/lastmile_qr_scan"}, "bike_id": "c924852c7dac33af3bb12307ce4c1e64", "fusion_lat": 0.0}, {"lon": -77.0725725, "name": "6536feb308e25899f1b7050e300540b3", "is_disabled": 0, "type": "electric_scooter", "is_reserved": 0, "fusion_lon": 0.0, "lat": 38.9394665, "rental_uris": {"ios": "https://dc.lft.to/lastmile_qr_scan", "android": "https://dc.lft.to/lastmile_qr_scan"}, "bike_id": "6536feb308e25899f1b7050e300540b3", "fusion_lat": 0.0}, {"lon": -77.00916, "name": "9470fddae1e24559de5cd6036aad660b", "is_disabled": 0, "type": "electric_scooter", "is_reserved": 0, "fusion_lon": 0.0, "lat": 38.89554433333333, "rental_uris": {"ios": "https://dc.lft.to/lastmile_qr_scan", "android": "https://dc.lft.to/lastmile_qr_scan"}, "bike_id": "9470fddae1e24559de5cd6036aad660b", "fusion_lat": 0.0}, {"lon": -77.0389225, "name": "00711f84d8542e6209efae1b6f693cdd", "is_disabled": 0, "type": "electric_scooter", "is_reserved": 0, "fusion_lon": 0.0, "lat": 38.92043683333333, "rental_uris": {"ios": "https://dc.lft.to/lastmile_qr_scan", "android": "https://dc.lft.to/lastmile_qr_scan"}, "bike_id": "00711f84d8542e6209efae1b6f693cdd", "fusion_lat": 0.0}, {"lon": -77.02438516666666, "name": "671b5f4a3d0ffb3aea3a77f70d07e7a3", "is_disabled": 0, "type": "electric_scooter", "is_reserved": 0, "fusion_lon": 0.0, "lat": 38.967919, "rental_uris": {"ios": "https://dc.lft.to/lastmile_qr_scan", "android": "https://dc.lft.to/lastmile_qr_scan"}, "bike_id": "671b5f4a3d0ffb3aea3a77f70d07e7a3", "fusion_lat": 0.0}, {"lon": -77.0320375, "name": "4884ac355a0277b4be49f8cbe15700f5", "is_disabled": 0, "type": "electric_scooter", "is_reserved": 0, "fusion_lon": 0.0, "lat": 38.916121, "rental_uris": {"ios": "https://dc.lft.to/lastmile_qr_scan", "android": "https://dc.lft.to/lastmile_qr_scan"}, "bike_id": "4884ac355a0277b4be49f8cbe15700f5", "fusion_lat": 0.0}, {"lon": -77.0196495, "name": "8e3f17e3d7614d5de9794261e26e90a3", "is_disabled": 0, "type": "electric_scooter", "is_reserved": 0, "fusion_lon": 0.0, "lat": 38.922624166666665, "rental_uris": {"ios": "https://dc.lft.to/lastmile_qr_scan", "android": "https://dc.lft.to/lastmile_qr_scan"}, "bike_id": "8e3f17e3d7614d5de9794261e26e90a3", "fusion_lat": 0.0}, {"lon": -77.01987, "name": "0490b7c08a9dee1ef7a53f317e02989e", "is_disabled": 0, "type": "electric_scooter", "is_reserved": 0, "fusion_lon": 0.0, "lat": 38.915653, "rental_uris": {"ios": "https://dc.lft.to/lastmile_qr_scan", "android": "https://dc.lft.to/lastmile_qr_scan"}, "bike_id": "0490b7c08a9dee1ef7a53f317e02989e", "fusion_lat": 0.0}, {"lon": -77.04490083333333, "name": "3ddc9cca93eac47f0c85616879651f0f", "is_disabled": 0, "type": "electric_scooter", "is_reserved": 0, "fusion_lon": 0.0, "lat": 38.9187615, "rental_uris": {"ios": "https://dc.lft.to/lastmile_qr_scan", "android": "https://dc.lft.to/lastmile_qr_scan"}, "bike_id": "3ddc9cca93eac47f0c85616879651f0f", "fusion_lat": 0.0}, {"lon": -77.0285005, "name": "59ee1e7e7f2a5e772dfe9efa62126f31", "is_disabled": 0, "type": "electric_scooter", "is_reserved": 0, "fusion_lon": 0.0, "lat": 38.945010833333335, "rental_uris": {"ios": "https://dc.lft.to/lastmile_qr_scan", "android": "https://dc.lft.to/lastmile_qr_scan"}, "bike_id": "59ee1e7e7f2a5e772dfe9efa62126f31", "fusion_lat": 0.0}, {"lon": -77.022599, "name": "4f0fd75391624afbfbf42460b098d1f1", "is_disabled": 0, "type": "electric_scooter", "is_reserved": 0, "fusion_lon": 0.0, "lat": 38.928283, "rental_uris": {"ios": "https://dc.lft.to/lastmile_qr_scan", "android": "https://dc.lft.to/lastmile_qr_scan"}, "bike_id": "4f0fd75391624afbfbf42460b098d1f1", "fusion_lat": 0.0}, {"lon": -77.019527, "name": "6ab8e782f5c8e20504d649dc5d024f88", "is_disabled": 0, "type": "electric_scooter", "is_reserved": 0, "fusion_lon": 0.0, "lat": 38.922627, "rental_uris": {"ios": "https://dc.lft.to/lastmile_qr_scan", "android": "https://dc.lft.to/lastmile_qr_scan"}, "bike_id": "6ab8e782f5c8e20504d649dc5d024f88", "fusion_lat": 0.0}, {"lon": -77.03664766666667, "name": "2922b916505c5e12222f1e5d0a3e3539", "is_disabled": 0, "type": "electric_scooter", "is_reserved": 0, "fusion_lon": 0.0, "lat": 38.92388366666667, "rental_uris": {"ios": "https://dc.lft.to/lastmile_qr_scan", "android": "https://dc.lft.to/lastmile_qr_scan"}, "bike_id": "2922b916505c5e12222f1e5d0a3e3539", "fusion_lat": 0.0}, {"lon": -77.0430245, "name": "5f7efc9d934e75a7b40f106993181a3e", "is_disabled": 0, "type": "electric_scooter", "is_reserved": 0, "fusion_lon": 0.0, "lat": 38.9226445, "rental_uris": {"ios": "https://dc.lft.to/lastmile_qr_scan", "android": "https://dc.lft.to/lastmile_qr_scan"}, "bike_id": "5f7efc9d934e75a7b40f106993181a3e", "fusion_lat": 0.0}, {"lon": -77.03661516666666, "name": "661e93704a6f84cc5af6635440206292", "is_disabled": 0, "type": "electric_scooter", "is_reserved": 0, "fusion_lon": 0.0, "lat": 38.9229055, "rental_uris": {"ios": "https://dc.lft.to/lastmile_qr_scan", "android": "https://dc.lft.to/lastmile_qr_scan"}, "bike_id": "661e93704a6f84cc5af6635440206292", "fusion_lat": 0.0}, {"lon": -76.95159133333334, "name": "893f469f44405a933bc623a3aea4cd78", "is_disabled": 0, "type": "electric_bike", "is_reserved": 0, "fusion_lon": 0.0, "lat": 39.0843735, "rental_uris": {"ios": "https://dc.lft.to/lastmile_qr_scan", "android": "https://dc.lft.to/lastmile_qr_scan"}, "bike_id": "893f469f44405a933bc623a3aea4cd78", "fusion_lat": 0.0}, {"lon": -77.0480785, "name": "b8952294cae649aba6f973a884d57797", "is_disabled": 0, "type": "electric_scooter", "is_reserved": 0, "fusion_lon": 0.0, "lat": 38.89734883333333, "rental_uris": {"ios": "https://dc.lft.to/lastmile_qr_scan", "android": "https://dc.lft.to/lastmile_qr_scan"}, "bike_id": "b8952294cae649aba6f973a884d57797", "fusion_lat": 0.0}, {"lon": -77.01291533333334, "name": "26f8f6d29a0374585cb29c37784b6c0a", "is_disabled": 0, "type": "electric_bike", "is_reserved": 0, "fusion_lon": 0.0, "lat": 38.88151116666667, "rental_uris": {"ios": "https://dc.lft.to/lastmile_qr_scan", "android": "https://dc.lft.to/lastmile_qr_scan"}, "bike_id": "26f8f6d29a0374585cb29c37784b6c0a", "fusion_lat": 0.0}, {"lon": -76.93592216666667, "name": "6bedf16bba0c5fda58af58e7ec5f5d6b", "is_disabled": 0, "type": "electric_scooter", "is_reserved": 0, "fusion_lon": 0.0, "lat": 38.909496833333336, "rental_uris": {"ios": "https://dc.lft.to/lastmile_qr_scan", "android": "https://dc.lft.to/lastmile_qr_scan"}, "bike_id": "6bedf16bba0c5fda58af58e7ec5f5d6b", "fusion_lat": 0.0}, {"lon": -76.93743266666667, "name": "fb6cef6d65230d1672b02e20e5e93141", "is_disabled": 0, "type": "electric_scooter", "is_reserved": 0, "fusion_lon": 0.0, "lat": 38.89018816666667, "rental_uris": {"ios": "https://dc.lft.to/lastmile_qr_scan", "android": "https://dc.lft.to/lastmile_qr_scan"}, "bike_id": "fb6cef6d65230d1672b02e20e5e93141", "fusion_lat": 0.0}, {"lon": -77.021775, "name": "d543bb734b08b4be8b4fa50bc90e003c", "is_disabled": 0, "type": "electric_scooter", "is_reserved": 0, "fusion_lon": 0.0, "lat": 38.8997305, "rental_uris": {"ios": "https://dc.lft.to/lastmile_qr_scan", "android": "https://dc.lft.to/lastmile_qr_scan"}, "bike_id": "d543bb734b08b4be8b4fa50bc90e003c", "fusion_lat": 0.0}, {"lon": -76.98376216666666, "name": "c7e05677b0297037314b7bcc1a3ac9fb", "is_disabled": 0, "type": "electric_scooter", "is_reserved": 0, "fusion_lon": 0.0, "lat": 38.860853, "rental_uris": {"ios": "https://dc.lft.to/lastmile_qr_scan", "android": "https://dc.lft.to/lastmile_qr_scan"}, "bike_id": "c7e05677b0297037314b7bcc1a3ac9fb", "fusion_lat": 0.0}, {"lon": -77.023458, "name": "865fa5e07abb7ba9ae16e0fc7797d4e2", "is_disabled": 0, "type": "electric_scooter", "is_reserved": 0, "fusion_lon": 0.0, "lat": 38.917805, "rental_uris": {"ios": "https://dc.lft.to/lastmile_qr_scan", "android": "https://dc.lft.to/lastmile_qr_scan"}, "bike_id": "865fa5e07abb7ba9ae16e0fc7797d4e2", "fusion_lat": 0.0}, {"lon": -77.0344125, "name": "53fdd578fb9076687846ec6324a4e8b2", "is_disabled": 0, "type": "electric_scooter", "is_reserved": 0, "fusion_lon": 0.0, "lat": 38.90265933333333, "rental_uris": {"ios": "https://dc.lft.to/lastmile_qr_scan", "android": "https://dc.lft.to/lastmile_qr_scan"}, "bike_id": "53fdd578fb9076687846ec6324a4e8b2", "fusion_lat": 0.0}, {"lon": -77.04243483333333, "name": "6198c349a9742b5668d1b953ddf8f3f2", "is_disabled": 0, "type": "electric_scooter", "is_reserved": 0, "fusion_lon": 0.0, "lat": 38.920683833333335, "rental_uris": {"ios": "https://dc.lft.to/lastmile_qr_scan", "android": "https://dc.lft.to/lastmile_qr_scan"}, "bike_id": "6198c349a9742b5668d1b953ddf8f3f2", "fusion_lat": 0.0}, {"lon": -77.02205333333333, "name": "0320ecfb550f9eb5e28ed7035896d3ac", "is_disabled": 0, "type": "electric_scooter", "is_reserved": 0, "fusion_lon": 0.0, "lat": 38.90567716666666, "rental_uris": {"ios": "https://dc.lft.to/lastmile_qr_scan", "android": "https://dc.lft.to/lastmile_qr_scan"}, "bike_id": "0320ecfb550f9eb5e28ed7035896d3ac", "fusion_lat": 0.0}, {"lon": -77.01787133333333, "name": "25aa9b6117128d6f3e514253815b6ba0", "is_disabled": 0, "type": "electric_scooter", "is_reserved": 0, "fusion_lon": 0.0, "lat": 38.91998816666667, "rental_uris": {"ios": "https://dc.lft.to/lastmile_qr_scan", "android": "https://dc.lft.to/lastmile_qr_scan"}, "bike_id": "25aa9b6117128d6f3e514253815b6ba0", "fusion_lat": 0.0}, {"lon": -77.053178, "name": "44ed4eb7ab8a584785fca308aa1e603c", "is_disabled": 0, "type": "electric_scooter", "is_reserved": 0, "fusion_lon": 0.0, "lat": 38.904227, "rental_uris": {"ios": "https://dc.lft.to/lastmile_qr_scan", "android": "https://dc.lft.to/lastmile_qr_scan"}, "bike_id": "44ed4eb7ab8a584785fca308aa1e603c", "fusion_lat": 0.0}, {"lon": -77.01446416666667, "name": "630bd64b8289e4367d466bb6dd5cc8d9", "is_disabled": 0, "type": "electric_scooter", "is_reserved": 0, "fusion_lon": 0.0, "lat": 38.919569, "rental_uris": {"ios": "https://dc.lft.to/lastmile_qr_scan", "android": "https://dc.lft.to/lastmile_qr_scan"}, "bike_id": "630bd64b8289e4367d466bb6dd5cc8d9", "fusion_lat": 0.0}, {"lon": -76.95831633333333, "name": "28832809cbee5091bf8a998de63b1c72", "is_disabled": 0, "type": "electric_bike", "is_reserved": 0, "fusion_lon": 0.0, "lat": 38.850646166666664, "rental_uris": {"ios": "https://dc.lft.to/lastmile_qr_scan", "android": "https://dc.lft.to/lastmile_qr_scan"}, "bike_id": "28832809cbee5091bf8a998de63b1c72", "fusion_lat": 0.0}, {"lon": -77.003216, "name": "db200ddb8c49bc358c0f470b10780e83", "is_disabled": 0, "type": "electric_scooter", "is_reserved": 0, "fusion_lon": 0.0, "lat": 38.90124816666667, "rental_uris": {"ios": "https://dc.lft.to/lastmile_qr_scan", "android": "https://dc.lft.to/lastmile_qr_scan"}, "bike_id": "db200ddb8c49bc358c0f470b10780e83", "fusion_lat": 0.0}, {"lon": -77.0360375, "name": "0ffce3b8d293aa5efe3fe57f726048f5", "is_disabled": 0, "type": "electric_scooter", "is_reserved": 0, "fusion_lon": 0.0, "lat": 38.9025615, "rental_uris": {"ios": "https://dc.lft.to/lastmile_qr_scan", "android": "https://dc.lft.to/lastmile_qr_scan"}, "bike_id": "0ffce3b8d293aa5efe3fe57f726048f5", "fusion_lat": 0.0}, {"lon": -77.03660083333334, "name": "a48f6a7d20155bfb196d49331979f1fd", "is_disabled": 0, "type": "electric_scooter", "is_reserved": 0, "fusion_lon": 0.0, "lat": 38.93354633333333, "rental_uris": {"ios": "https://dc.lft.to/lastmile_qr_scan", "android": "https://dc.lft.to/lastmile_qr_scan"}, "bike_id": "a48f6a7d20155bfb196d49331979f1fd", "fusion_lat": 0.0}, {"lon": -77.039275, "name": "aacaa9a162ef7ebfa66a3fd906da6113", "is_disabled": 0, "type": "electric_scooter", "is_reserved": 0, "fusion_lon": 0.0, "lat": 38.91634216666667, "rental_uris": {"ios": "https://dc.lft.to/lastmile_qr_scan", "android": "https://dc.lft.to/lastmile_qr_scan"}, "bike_id": "aacaa9a162ef7ebfa66a3fd906da6113", "fusion_lat": 0.0}, {"lon": -77.07723883333334, "name": "9f64576cf914f6a851163f88982807f3", "is_disabled": 0, "type": "electric_scooter", "is_reserved": 0, "fusion_lon": 0.0, "lat": 38.9225835, "rental_uris": {"ios": "https://dc.lft.to/lastmile_qr_scan", "android": "https://dc.lft.to/lastmile_qr_scan"}, "bike_id": "9f64576cf914f6a851163f88982807f3", "fusion_lat": 0.0}, {"lon": -77.02297783333333, "name": "47661c66d67374c60a524c15851e1b86", "is_disabled": 0, "type": "electric_scooter", "is_reserved": 0, "fusion_lon": 0.0, "lat": 38.932080666666664, "rental_uris": {"ios": "https://dc.lft.to/lastmile_qr_scan", "android": "https://dc.lft.to/lastmile_qr_scan"}, "bike_id": "47661c66d67374c60a524c15851e1b86", "fusion_lat": 0.0}, {"lon": -77.03326983333334, "name": "472f6f76b6102e7172f0a6ce11ee85cc", "is_disabled": 0, "type": "electric_scooter", "is_reserved": 0, "fusion_lon": 0.0, "lat": 38.900276833333336, "rental_uris": {"ios": "https://dc.lft.to/lastmile_qr_scan", "android": "https://dc.lft.to/lastmile_qr_scan"}, "bike_id": "472f6f76b6102e7172f0a6ce11ee85cc", "fusion_lat": 0.0}, {"lon": -77.01775983333333, "name": "76bd8590bc429bdd4f03399558c80336", "is_disabled": 0, "type": "electric_scooter", "is_reserved": 0, "fusion_lon": 0.0, "lat": 38.90281516666667, "rental_uris": {"ios": "https://dc.lft.to/lastmile_qr_scan", "android": "https://dc.lft.to/lastmile_qr_scan"}, "bike_id": "76bd8590bc429bdd4f03399558c80336", "fusion_lat": 0.0}, {"lon": -77.03635466666667, "name": "4ceb46492078ddb38c57555c29c2d2a3", "is_disabled": 0, "type": "electric_scooter", "is_reserved": 0, "fusion_lon": 0.0, "lat": 38.927468, "rental_uris": {"ios": "https://dc.lft.to/lastmile_qr_scan", "android": "https://dc.lft.to/lastmile_qr_scan"}, "bike_id": "4ceb46492078ddb38c57555c29c2d2a3", "fusion_lat": 0.0}, {"lon": -77.03251983333334, "name": "ddafadebb5932858fd5237c2e7436669", "is_disabled": 0, "type": "electric_scooter", "is_reserved": 0, "fusion_lon": 0.0, "lat": 38.93253633333333, "rental_uris": {"ios": "https://dc.lft.to/lastmile_qr_scan", "android": "https://dc.lft.to/lastmile_qr_scan"}, "bike_id": "ddafadebb5932858fd5237c2e7436669", "fusion_lat": 0.0}, {"lon": -77.03214866666667, "name": "307f4112de592afb505a0b0ff3caae9d", "is_disabled": 0, "type": "electric_scooter", "is_reserved": 0, "fusion_lon": 0.0, "lat": 38.91610633333333, "rental_uris": {"ios": "https://dc.lft.to/lastmile_qr_scan", "android": "https://dc.lft.to/lastmile_qr_scan"}, "bike_id": "307f4112de592afb505a0b0ff3caae9d", "fusion_lat": 0.0}, {"lon": -76.9990525, "name": "ab00c046453b37eccec0f0184495b3e1", "is_disabled": 0, "type": "electric_scooter", "is_reserved": 0, "fusion_lon": 0.0, "lat": 38.896088666666664, "rental_uris": {"ios": "https://dc.lft.to/lastmile_qr_scan", "android": "https://dc.lft.to/lastmile_qr_scan"}, "bike_id": "ab00c046453b37eccec0f0184495b3e1", "fusion_lat": 0.0}, {"lon": -77.03686833333333, "name": "49e1933bdc19e4dbe0395c6dd4518c6d", "is_disabled": 0, "type": "electric_scooter", "is_reserved": 0, "fusion_lon": 0.0, "lat": 38.926374333333335, "rental_uris": {"ios": "https://dc.lft.to/lastmile_qr_scan", "android": "https://dc.lft.to/lastmile_qr_scan"}, "bike_id": "49e1933bdc19e4dbe0395c6dd4518c6d", "fusion_lat": 0.0}, {"lon": -77.08404016666667, "name": "105850c00ca7dfa983ea922411af31b1", "is_disabled": 0, "type": "electric_bike", "is_reserved": 0, "fusion_lon": 0.0, "lat": 38.832957666666665, "rental_uris": {"ios": "https://dc.lft.to/lastmile_qr_scan", "android": "https://dc.lft.to/lastmile_qr_scan"}, "bike_id": "105850c00ca7dfa983ea922411af31b1", "fusion_lat": 0.0}, {"lon": -77.02785316666667, "name": "5cd95e73ab8dd53932ca4a5d0843d8ab", "is_disabled": 0, "type": "electric_scooter", "is_reserved": 0, "fusion_lon": 0.0, "lat": 38.931942666666664, "rental_uris": {"ios": "https://dc.lft.to/lastmile_qr_scan", "android": "https://dc.lft.to/lastmile_qr_scan"}, "bike_id": "5cd95e73ab8dd53932ca4a5d0843d8ab", "fusion_lat": 0.0}, {"lon": -77.02293733333333, "name": "26e994a95d3b3fd3a4a4256a801de3a8", "is_disabled": 0, "type": "electric_scooter", "is_reserved": 0, "fusion_lon": 0.0, "lat": 38.917824333333336, "rental_uris": {"ios": "https://dc.lft.to/lastmile_qr_scan", "android": "https://dc.lft.to/lastmile_qr_scan"}, "bike_id": "26e994a95d3b3fd3a4a4256a801de3a8", "fusion_lat": 0.0}, {"lon": -77.02198066666666, "name": "18ce67750b91b130d3a197bd5ea59703", "is_disabled": 0, "type": "electric_scooter", "is_reserved": 0, "fusion_lon": 0.0, "lat": 38.924601, "rental_uris": {"ios": "https://dc.lft.to/lastmile_qr_scan", "android": "https://dc.lft.to/lastmile_qr_scan"}, "bike_id": "18ce67750b91b130d3a197bd5ea59703", "fusion_lat": 0.0}, {"lon": -76.9856955, "name": "ab5e6d3af373eb64bda135a7c9e0ef93", "is_disabled": 0, "type": "electric_scooter", "is_reserved": 0, "fusion_lon": 0.0, "lat": 38.912698166666665, "rental_uris": {"ios": "https://dc.lft.to/lastmile_qr_scan", "android": "https://dc.lft.to/lastmile_qr_scan"}, "bike_id": "ab5e6d3af373eb64bda135a7c9e0ef93", "fusion_lat": 0.0}, {"lon": -76.98552066666667, "name": "e3d46144e113493659bbaebd7b2016c9", "is_disabled": 0, "type": "electric_scooter", "is_reserved": 0, "fusion_lon": 0.0, "lat": 38.8976445, "rental_uris": {"ios": "https://dc.lft.to/lastmile_qr_scan", "android": "https://dc.lft.to/lastmile_qr_scan"}, "bike_id": "e3d46144e113493659bbaebd7b2016c9", "fusion_lat": 0.0}, {"lon": -77.00755966666667, "name": "aa8fc8ac2b6aa4c52cbcb6220798474f", "is_disabled": 0, "type": "electric_scooter", "is_reserved": 0, "fusion_lon": 0.0, "lat": 38.903745, "rental_uris": {"ios": "https://dc.lft.to/lastmile_qr_scan", "android": "https://dc.lft.to/lastmile_qr_scan"}, "bike_id": "aa8fc8ac2b6aa4c52cbcb6220798474f", "fusion_lat": 0.0}, {"lon": -77.03357283333334, "name": "eb01e3b163b5f13e93dbeeb427347a73", "is_disabled": 0, "type": "electric_scooter", "is_reserved": 0, "fusion_lon": 0.0, "lat": 38.92875883333333, "rental_uris": {"ios": "https://dc.lft.to/lastmile_qr_scan", "android": "https://dc.lft.to/lastmile_qr_scan"}, "bike_id": "eb01e3b163b5f13e93dbeeb427347a73", "fusion_lat": 0.0}, {"lon": -77.020381, "name": "7e8944f85ec1a5f9071458176dc5f037", "is_disabled": 0, "type": "electric_scooter", "is_reserved": 0, "fusion_lon": 0.0, "lat": 38.92420166666667, "rental_uris": {"ios": "https://dc.lft.to/lastmile_qr_scan", "android": "https://dc.lft.to/lastmile_qr_scan"}, "bike_id": "7e8944f85ec1a5f9071458176dc5f037", "fusion_lat": 0.0}, {"lon": -77.02447766666667, "name": "fdcf4076694fb17f16f0ba6dbb65a3cc", "is_disabled": 0, "type": "electric_scooter", "is_reserved": 0, "fusion_lon": 0.0, "lat": 38.94976316666666, "rental_uris": {"ios": "https://dc.lft.to/lastmile_qr_scan", "android": "https://dc.lft.to/lastmile_qr_scan"}, "bike_id": "fdcf4076694fb17f16f0ba6dbb65a3cc", "fusion_lat": 0.0}, {"lon": -77.02381066666666, "name": "a141da336a8e5520ffac03d98faedf7b", "is_disabled": 0, "type": "electric_scooter", "is_reserved": 0, "fusion_lon": 0.0, "lat": 38.95273383333333, "rental_uris": {"ios": "https://dc.lft.to/lastmile_qr_scan", "android": "https://dc.lft.to/lastmile_qr_scan"}, "bike_id": "a141da336a8e5520ffac03d98faedf7b", "fusion_lat": 0.0}, {"lon": -76.98557766666667, "name": "230e44650ef5d33a62312bf4e7fef130", "is_disabled": 0, "type": "electric_scooter", "is_reserved": 0, "fusion_lon": 0.0, "lat": 38.907038166666666, "rental_uris": {"ios": "https://dc.lft.to/lastmile_qr_scan", "android": "https://dc.lft.to/lastmile_qr_scan"}, "bike_id": "230e44650ef5d33a62312bf4e7fef130", "fusion_lat": 0.0}, {"lon": -77.03857116666667, "name": "c78bd1c937ba1c3713697069eac6021a", "is_disabled": 0, "type": "electric_scooter", "is_reserved": 0, "fusion_lon": 0.0, "lat": 38.91711766666667, "rental_uris": {"ios": "https://dc.lft.to/lastmile_qr_scan", "android": "https://dc.lft.to/lastmile_qr_scan"}, "bike_id": "c78bd1c937ba1c3713697069eac6021a", "fusion_lat": 0.0}, {"lon": -77.0007155, "name": "6311385c489563f9a42d31abf2f2793a", "is_disabled": 0, "type": "electric_scooter", "is_reserved": 0, "fusion_lon": 0.0, "lat": 38.87546566666666, "rental_uris": {"ios": "https://dc.lft.to/lastmile_qr_scan", "android": "https://dc.lft.to/lastmile_qr_scan"}, "bike_id": "6311385c489563f9a42d31abf2f2793a", "fusion_lat": 0.0}, {"lon": -77.03383816666667, "name": "d1fdc4caf506b00d001614cdd6c43654", "is_disabled": 0, "type": "electric_scooter", "is_reserved": 0, "fusion_lon": 0.0, "lat": 38.921578, "rental_uris": {"ios": "https://dc.lft.to/lastmile_qr_scan", "android": "https://dc.lft.to/lastmile_qr_scan"}, "bike_id": "d1fdc4caf506b00d001614cdd6c43654", "fusion_lat": 0.0}, {"lon": -77.05419633333334, "name": "6b90d167ffcaea0b653aed0d7766507a", "is_disabled": 0, "type": "electric_scooter", "is_reserved": 0, "fusion_lon": 0.0, "lat": 38.985224, "rental_uris": {"ios": "https://dc.lft.to/lastmile_qr_scan", "android": "https://dc.lft.to/lastmile_qr_scan"}, "bike_id": "6b90d167ffcaea0b653aed0d7766507a", "fusion_lat": 0.0}, {"lon": -76.98625016666666, "name": "d6eed12c1f4c54e52969399e61c89c3a", "is_disabled": 0, "type": "electric_scooter", "is_reserved": 0, "fusion_lon": 0.0, "lat": 38.9058905, "rental_uris": {"ios": "https://dc.lft.to/lastmile_qr_scan", "android": "https://dc.lft.to/lastmile_qr_scan"}, "bike_id": "d6eed12c1f4c54e52969399e61c89c3a", "fusion_lat": 0.0}, {"lon": -76.99029866666666, "name": "a9e6c0bc4ef263b801edb34fb6ba91f4", "is_disabled": 0, "type": "electric_scooter", "is_reserved": 0, "fusion_lon": 0.0, "lat": 38.865219, "rental_uris": {"ios": "https://dc.lft.to/lastmile_qr_scan", "android": "https://dc.lft.to/lastmile_qr_scan"}, "bike_id": "a9e6c0bc4ef263b801edb34fb6ba91f4", "fusion_lat": 0.0}, {"lon": -76.95370583333333, "name": "fffd4612a67dee754baae3263bab5683", "is_disabled": 0, "type": "electric_scooter", "is_reserved": 0, "fusion_lon": 0.0, "lat": 38.88960083333333, "rental_uris": {"ios": "https://dc.lft.to/lastmile_qr_scan", "android": "https://dc.lft.to/lastmile_qr_scan"}, "bike_id": "fffd4612a67dee754baae3263bab5683", "fusion_lat": 0.0}, {"lon": -77.029487, "name": "693e8f70ca0ab155c00bd956a27c4e63", "is_disabled": 0, "type": "electric_scooter", "is_reserved": 0, "fusion_lon": 0.0, "lat": 38.8994035, "rental_uris": {"ios": "https://dc.lft.to/lastmile_qr_scan", "android": "https://dc.lft.to/lastmile_qr_scan"}, "bike_id": "693e8f70ca0ab155c00bd956a27c4e63", "fusion_lat": 0.0}, {"lon": -76.93145366666667, "name": "7a80c2d7ee2b974d5de4ad6cfc7c8407", "is_disabled": 0, "type": "electric_scooter", "is_reserved": 0, "fusion_lon": 0.0, "lat": 38.88342566666667, "rental_uris": {"ios": "https://dc.lft.to/lastmile_qr_scan", "android": "https://dc.lft.to/lastmile_qr_scan"}, "bike_id": "7a80c2d7ee2b974d5de4ad6cfc7c8407", "fusion_lat": 0.0}, {"lon": -77.05930616666667, "name": "ecc6ed804851455e6a5fe0725b42d811", "is_disabled": 0, "type": "electric_scooter", "is_reserved": 0, "fusion_lon": 0.0, "lat": 38.94294766666667, "rental_uris": {"ios": "https://dc.lft.to/lastmile_qr_scan", "android": "https://dc.lft.to/lastmile_qr_scan"}, "bike_id": "ecc6ed804851455e6a5fe0725b42d811", "fusion_lat": 0.0}, {"lon": -76.9320525, "name": "fffa338a324c0b3776e30f24695929f2", "is_disabled": 0, "type": "electric_scooter", "is_reserved": 0, "fusion_lon": 0.0, "lat": 38.89852483333333, "rental_uris": {"ios": "https://dc.lft.to/lastmile_qr_scan", "android": "https://dc.lft.to/lastmile_qr_scan"}, "bike_id": "fffa338a324c0b3776e30f24695929f2", "fusion_lat": 0.0}, {"lon": -77.03662833333334, "name": "4a3c8ea2001b345c5495430fc2569d0c", "is_disabled": 0, "type": "electric_scooter", "is_reserved": 0, "fusion_lon": 0.0, "lat": 38.92333883333333, "rental_uris": {"ios": "https://dc.lft.to/lastmile_qr_scan", "android": "https://dc.lft.to/lastmile_qr_scan"}, "bike_id": "4a3c8ea2001b345c5495430fc2569d0c", "fusion_lat": 0.0}, {"lon": -77.03204866666667, "name": "709fe8c9e098bfa43f282ea1b8ebe6e8", "is_disabled": 0, "type": "electric_scooter", "is_reserved": 0, "fusion_lon": 0.0, "lat": 38.91731933333333, "rental_uris": {"ios": "https://dc.lft.to/lastmile_qr_scan", "android": "https://dc.lft.to/lastmile_qr_scan"}, "bike_id": "709fe8c9e098bfa43f282ea1b8ebe6e8", "fusion_lat": 0.0}, {"lon": -77.01211483333333, "name": "220b0290a6040e0272494c87a7775502", "is_disabled": 0, "type": "electric_scooter", "is_reserved": 0, "fusion_lon": 0.0, "lat": 38.91822766666667, "rental_uris": {"ios": "https://dc.lft.to/lastmile_qr_scan", "android": "https://dc.lft.to/lastmile_qr_scan"}, "bike_id": "220b0290a6040e0272494c87a7775502", "fusion_lat": 0.0}, {"lon": -76.9982805, "name": "cd66d7646e140429b79235cd072589f9", "is_disabled": 0, "type": "electric_scooter", "is_reserved": 0, "fusion_lon": 0.0, "lat": 38.90709916666667, "rental_uris": {"ios": "https://dc.lft.to/lastmile_qr_scan", "android": "https://dc.lft.to/lastmile_qr_scan"}, "bike_id": "cd66d7646e140429b79235cd072589f9", "fusion_lat": 0.0}, {"lon": -77.07434316666667, "name": "e37aa96fbc31b8c066e738ed7dddc875", "is_disabled": 0, "type": "electric_scooter", "is_reserved": 0, "fusion_lon": 0.0, "lat": 38.935849166666664, "rental_uris": {"ios": "https://dc.lft.to/lastmile_qr_scan", "android": "https://dc.lft.to/lastmile_qr_scan"}, "bike_id": "e37aa96fbc31b8c066e738ed7dddc875", "fusion_lat": 0.0}, {"lon": -77.04120833333333, "name": "2961f26e4c4a8b96bb07a681e2570732", "is_disabled": 0, "type": "electric_scooter", "is_reserved": 0, "fusion_lon": 0.0, "lat": 38.9322205, "rental_uris": {"ios": "https://dc.lft.to/lastmile_qr_scan", "android": "https://dc.lft.to/lastmile_qr_scan"}, "bike_id": "2961f26e4c4a8b96bb07a681e2570732", "fusion_lat": 0.0}, {"lon": -77.03194666666667, "name": "f1066dd74ab7831b344ffcc276157606", "is_disabled": 0, "type": "electric_scooter", "is_reserved": 0, "fusion_lon": 0.0, "lat": 38.906204, "rental_uris": {"ios": "https://dc.lft.to/lastmile_qr_scan", "android": "https://dc.lft.to/lastmile_qr_scan"}, "bike_id": "f1066dd74ab7831b344ffcc276157606", "fusion_lat": 0.0}, {"lon": -77.02601716666666, "name": "41bce4c332ec3ec39a1eaca158d160a0", "is_disabled": 0, "type": "electric_scooter", "is_reserved": 0, "fusion_lon": 0.0, "lat": 38.900404333333334, "rental_uris": {"ios": "https://dc.lft.to/lastmile_qr_scan", "android": "https://dc.lft.to/lastmile_qr_scan"}, "bike_id": "41bce4c332ec3ec39a1eaca158d160a0", "fusion_lat": 0.0}, {"lon": -77.02067866666667, "name": "aef66cee88c2932a163053289fc38ed7", "is_disabled": 0, "type": "electric_bike", "is_reserved": 0, "fusion_lon": 0.0, "lat": 38.91259183333333, "rental_uris": {"ios": "https://dc.lft.to/lastmile_qr_scan", "android": "https://dc.lft.to/lastmile_qr_scan"}, "bike_id": "aef66cee88c2932a163053289fc38ed7", "fusion_lat": 0.0}, {"lon": -77.06433133333333, "name": "6c61933ab1fda6e3cf0ff862f3097cd1", "is_disabled": 0, "type": "electric_scooter", "is_reserved": 0, "fusion_lon": 0.0, "lat": 38.9052695, "rental_uris": {"ios": "https://dc.lft.to/lastmile_qr_scan", "android": "https://dc.lft.to/lastmile_qr_scan"}, "bike_id": "6c61933ab1fda6e3cf0ff862f3097cd1", "fusion_lat": 0.0}, {"lon": -77.021282, "name": "d047f5a53fe62fc5746657ac948bcf46", "is_disabled": 0, "type": "electric_scooter", "is_reserved": 0, "fusion_lon": 0.0, "lat": 38.92414733333333, "rental_uris": {"ios": "https://dc.lft.to/lastmile_qr_scan", "android": "https://dc.lft.to/lastmile_qr_scan"}, "bike_id": "d047f5a53fe62fc5746657ac948bcf46", "fusion_lat": 0.0}, {"lon": -76.998388, "name": "7b0f429422bd4fd11402718c5a151aa0", "is_disabled": 0, "type": "electric_scooter", "is_reserved": 0, "fusion_lon": 0.0, "lat": 38.92551366666667, "rental_uris": {"ios": "https://dc.lft.to/lastmile_qr_scan", "android": "https://dc.lft.to/lastmile_qr_scan"}, "bike_id": "7b0f429422bd4fd11402718c5a151aa0", "fusion_lat": 0.0}, {"lon": -77.0456605, "name": "d1d590cc077728c68f288d7786ce402a", "is_disabled": 0, "type": "electric_scooter", "is_reserved": 0, "fusion_lon": 0.0, "lat": 38.91059933333333, "rental_uris": {"ios": "https://dc.lft.to/lastmile_qr_scan", "android": "https://dc.lft.to/lastmile_qr_scan"}, "bike_id": "d1d590cc077728c68f288d7786ce402a", "fusion_lat": 0.0}, {"lon": -77.02721966666667, "name": "342690b9bb87076e65f0412380ee800e", "is_disabled": 0, "type": "electric_scooter", "is_reserved": 0, "fusion_lon": 0.0, "lat": 38.8956205, "rental_uris": {"ios": "https://dc.lft.to/lastmile_qr_scan", "android": "https://dc.lft.to/lastmile_qr_scan"}, "bike_id": "342690b9bb87076e65f0412380ee800e", "fusion_lat": 0.0}, {"lon": -77.03934833333334, "name": "dcf91f18919ab0d58a14a3228e58a558", "is_disabled": 0, "type": "electric_scooter", "is_reserved": 0, "fusion_lon": 0.0, "lat": 38.92497933333333, "rental_uris": {"ios": "https://dc.lft.to/lastmile_qr_scan", "android": "https://dc.lft.to/lastmile_qr_scan"}, "bike_id": "dcf91f18919ab0d58a14a3228e58a558", "fusion_lat": 0.0}, {"lon": -77.03214633333333, "name": "911b0adfd031f12eb229e72b51f1c68d", "is_disabled": 0, "type": "electric_scooter", "is_reserved": 0, "fusion_lon": 0.0, "lat": 38.89366716666667, "rental_uris": {"ios": "https://dc.lft.to/lastmile_qr_scan", "android": "https://dc.lft.to/lastmile_qr_scan"}, "bike_id": "911b0adfd031f12eb229e72b51f1c68d", "fusion_lat": 0.0}, {"lon": -77.012269, "name": "e9f08bcce0db5bc6e21bce76964098f7", "is_disabled": 0, "type": "electric_scooter", "is_reserved": 0, "fusion_lon": 0.0, "lat": 38.91598033333333, "rental_uris": {"ios": "https://dc.lft.to/lastmile_qr_scan", "android": "https://dc.lft.to/lastmile_qr_scan"}, "bike_id": "e9f08bcce0db5bc6e21bce76964098f7", "fusion_lat": 0.0}, {"lon": -77.04223866666666, "name": "d4d0faf61751ed495568fa7975a7c8a0", "is_disabled": 0, "type": "electric_scooter", "is_reserved": 0, "fusion_lon": 0.0, "lat": 38.922798, "rental_uris": {"ios": "https://dc.lft.to/lastmile_qr_scan", "android": "https://dc.lft.to/lastmile_qr_scan"}, "bike_id": "d4d0faf61751ed495568fa7975a7c8a0", "fusion_lat": 0.0}, {"lon": -77.04382616666666, "name": "a8adf57ca1a635b5f81ca8f979865ba3", "is_disabled": 0, "type": "electric_scooter", "is_reserved": 0, "fusion_lon": 0.0, "lat": 38.92072316666667, "rental_uris": {"ios": "https://dc.lft.to/lastmile_qr_scan", "android": "https://dc.lft.to/lastmile_qr_scan"}, "bike_id": "a8adf57ca1a635b5f81ca8f979865ba3", "fusion_lat": 0.0}, {"lon": -77.0400215, "name": "a04d5ada56c7f5dbf1cd864cc10888be", "is_disabled": 0, "type": "electric_scooter", "is_reserved": 0, "fusion_lon": 0.0, "lat": 38.93427716666667, "rental_uris": {"ios": "https://dc.lft.to/lastmile_qr_scan", "android": "https://dc.lft.to/lastmile_qr_scan"}, "bike_id": "a04d5ada56c7f5dbf1cd864cc10888be", "fusion_lat": 0.0}, {"lon": -76.99702766666667, "name": "831ee6914026a24c35796dcada093985", "is_disabled": 0, "type": "electric_scooter", "is_reserved": 0, "fusion_lon": 0.0, "lat": 38.90829683333333, "rental_uris": {"ios": "https://dc.lft.to/lastmile_qr_scan", "android": "https://dc.lft.to/lastmile_qr_scan"}, "bike_id": "831ee6914026a24c35796dcada093985", "fusion_lat": 0.0}, {"lon": -77.021304, "name": "bdefd694e5bdc81532a9c56c88f8033e", "is_disabled": 0, "type": "electric_scooter", "is_reserved": 0, "fusion_lon": 0.0, "lat": 38.9279965, "rental_uris": {"ios": "https://dc.lft.to/lastmile_qr_scan", "android": "https://dc.lft.to/lastmile_qr_scan"}, "bike_id": "bdefd694e5bdc81532a9c56c88f8033e", "fusion_lat": 0.0}, {"lon": -77.0045045, "name": "f98bbbbf8b5f21050f1450434e01ac2c", "is_disabled": 0, "type": "electric_scooter", "is_reserved": 0, "fusion_lon": 0.0, "lat": 38.877413, "rental_uris": {"ios": "https://dc.lft.to/lastmile_qr_scan", "android": "https://dc.lft.to/lastmile_qr_scan"}, "bike_id": "f98bbbbf8b5f21050f1450434e01ac2c", "fusion_lat": 0.0}, {"lon": -77.0021585, "name": "fca2924cd1e8cdf01ce985ee242f579a", "is_disabled": 0, "type": "electric_scooter", "is_reserved": 0, "fusion_lon": 0.0, "lat": 38.900394666666664, "rental_uris": {"ios": "https://dc.lft.to/lastmile_qr_scan", "android": "https://dc.lft.to/lastmile_qr_scan"}, "bike_id": "fca2924cd1e8cdf01ce985ee242f579a", "fusion_lat": 0.0}, {"lon": -77.0334515, "name": "88c7e7d78c089c8890a142b0b4c1e550", "is_disabled": 0, "type": "electric_scooter", "is_reserved": 0, "fusion_lon": 0.0, "lat": 38.89244883333333, "rental_uris": {"ios": "https://dc.lft.to/lastmile_qr_scan", "android": "https://dc.lft.to/lastmile_qr_scan"}, "bike_id": "88c7e7d78c089c8890a142b0b4c1e550", "fusion_lat": 0.0}, {"lon": -77.03803683333334, "name": "4b7ef7bfa8412976abeab924d1a4188a", "is_disabled": 0, "type": "electric_scooter", "is_reserved": 0, "fusion_lon": 0.0, "lat": 38.92315283333333, "rental_uris": {"ios": "https://dc.lft.to/lastmile_qr_scan", "android": "https://dc.lft.to/lastmile_qr_scan"}, "bike_id": "4b7ef7bfa8412976abeab924d1a4188a", "fusion_lat": 0.0}, {"lon": -77.0251005, "name": "b7ac0f8d68221d91a2de06dd216de430", "is_disabled": 0, "type": "electric_scooter", "is_reserved": 0, "fusion_lon": 0.0, "lat": 38.885084666666664, "rental_uris": {"ios": "https://dc.lft.to/lastmile_qr_scan", "android": "https://dc.lft.to/lastmile_qr_scan"}, "bike_id": "b7ac0f8d68221d91a2de06dd216de430", "fusion_lat": 0.0}, {"lon": -77.03427216666667, "name": "aeb2c20fbe0f816c20af8fe5d0e38d18", "is_disabled": 0, "type": "electric_scooter", "is_reserved": 0, "fusion_lon": 0.0, "lat": 38.93538816666667, "rental_uris": {"ios": "https://dc.lft.to/lastmile_qr_scan", "android": "https://dc.lft.to/lastmile_qr_scan"}, "bike_id": "aeb2c20fbe0f816c20af8fe5d0e38d18", "fusion_lat": 0.0}, {"lon": -77.04026766666667, "name": "15b16a314b7703b48856c7eadbab7d46", "is_disabled": 0, "type": "electric_scooter", "is_reserved": 0, "fusion_lon": 0.0, "lat": 38.902850666666666, "rental_uris": {"ios": "https://dc.lft.to/lastmile_qr_scan", "android": "https://dc.lft.to/lastmile_qr_scan"}, "bike_id": "15b16a314b7703b48856c7eadbab7d46", "fusion_lat": 0.0}, {"lon": -77.03440683333334, "name": "f27afc95bcfa09f4544af701239a656d", "is_disabled": 0, "type": "electric_scooter", "is_reserved": 0, "fusion_lon": 0.0, "lat": 38.917858833333334, "rental_uris": {"ios": "https://dc.lft.to/lastmile_qr_scan", "android": "https://dc.lft.to/lastmile_qr_scan"}, "bike_id": "f27afc95bcfa09f4544af701239a656d", "fusion_lat": 0.0}, {"lon": -77.03473583333333, "name": "488e1b301fc13df8bc34f18a96c99352", "is_disabled": 0, "type": "electric_scooter", "is_reserved": 0, "fusion_lon": 0.0, "lat": 38.91672033333333, "rental_uris": {"ios": "https://dc.lft.to/lastmile_qr_scan", "android": "https://dc.lft.to/lastmile_qr_scan"}, "bike_id": "488e1b301fc13df8bc34f18a96c99352", "fusion_lat": 0.0}, {"lon": -77.0538555, "name": "cb2d8ca54942970b9451f8b51cd10886", "is_disabled": 0, "type": "electric_scooter", "is_reserved": 0, "fusion_lon": 0.0, "lat": 38.928099, "rental_uris": {"ios": "https://dc.lft.to/lastmile_qr_scan", "android": "https://dc.lft.to/lastmile_qr_scan"}, "bike_id": "cb2d8ca54942970b9451f8b51cd10886", "fusion_lat": 0.0}, {"lon": -77.057563, "name": "58c9cd899efd64c278c3a1ce96fd178a", "is_disabled": 0, "type": "electric_scooter", "is_reserved": 0, "fusion_lon": 0.0, "lat": 38.93375433333333, "rental_uris": {"ios": "https://dc.lft.to/lastmile_qr_scan", "android": "https://dc.lft.to/lastmile_qr_scan"}, "bike_id": "58c9cd899efd64c278c3a1ce96fd178a", "fusion_lat": 0.0}, {"lon": -77.0302455, "name": "8187c4150069697436891f8a2819e681", "is_disabled": 0, "type": "electric_scooter", "is_reserved": 0, "fusion_lon": 0.0, "lat": 38.92245366666667, "rental_uris": {"ios": "https://dc.lft.to/lastmile_qr_scan", "android": "https://dc.lft.to/lastmile_qr_scan"}, "bike_id": "8187c4150069697436891f8a2819e681", "fusion_lat": 0.0}, {"lon": -77.03388983333333, "name": "4b5ec2e1b1fce7196ea112c8b926c6ce", "is_disabled": 0, "type": "electric_scooter", "is_reserved": 0, "fusion_lon": 0.0, "lat": 38.9214855, "rental_uris": {"ios": "https://dc.lft.to/lastmile_qr_scan", "android": "https://dc.lft.to/lastmile_qr_scan"}, "bike_id": "4b5ec2e1b1fce7196ea112c8b926c6ce", "fusion_lat": 0.0}, {"lon": -77.01231383333334, "name": "a00d1a6b45e205bc92e27f7709b6879b", "is_disabled": 0, "type": "electric_scooter", "is_reserved": 0, "fusion_lon": 0.0, "lat": 38.90014683333333, "rental_uris": {"ios": "https://dc.lft.to/lastmile_qr_scan", "android": "https://dc.lft.to/lastmile_qr_scan"}, "bike_id": "a00d1a6b45e205bc92e27f7709b6879b", "fusion_lat": 0.0}, {"lon": -77.00962916666667, "name": "41d1fb51beb228cde13b4d0703c39eab", "is_disabled": 0, "type": "electric_scooter", "is_reserved": 0, "fusion_lon": 0.0, "lat": 38.876344333333336, "rental_uris": {"ios": "https://dc.lft.to/lastmile_qr_scan", "android": "https://dc.lft.to/lastmile_qr_scan"}, "bike_id": "41d1fb51beb228cde13b4d0703c39eab", "fusion_lat": 0.0}, {"lon": -77.05130033333333, "name": "9e78a34fa82698a9159cd43bfe110f8e", "is_disabled": 0, "type": "electric_scooter", "is_reserved": 0, "fusion_lon": 0.0, "lat": 38.896594, "rental_uris": {"ios": "https://dc.lft.to/lastmile_qr_scan", "android": "https://dc.lft.to/lastmile_qr_scan"}, "bike_id": "9e78a34fa82698a9159cd43bfe110f8e", "fusion_lat": 0.0}, {"lon": -77.028271, "name": "46b26f06905a7be4ceab01a22436a0c3", "is_disabled": 0, "type": "electric_scooter", "is_reserved": 0, "fusion_lon": 0.0, "lat": 38.922311666666666, "rental_uris": {"ios": "https://dc.lft.to/lastmile_qr_scan", "android": "https://dc.lft.to/lastmile_qr_scan"}, "bike_id": "46b26f06905a7be4ceab01a22436a0c3", "fusion_lat": 0.0}, {"lon": -77.02170866666667, "name": "1ee8cccc507f527f9b72deee67ac860f", "is_disabled": 0, "type": "electric_bike", "is_reserved": 0, "fusion_lon": 0.0, "lat": 38.95738433333333, "rental_uris": {"ios": "https://dc.lft.to/lastmile_qr_scan", "android": "https://dc.lft.to/lastmile_qr_scan"}, "bike_id": "1ee8cccc507f527f9b72deee67ac860f", "fusion_lat": 0.0}, {"lon": -77.03288266666667, "name": "0b545bc9c9ab1ba312268e72aa4e3884", "is_disabled": 0, "type": "electric_scooter", "is_reserved": 0, "fusion_lon": 0.0, "lat": 38.9354185, "rental_uris": {"ios": "https://dc.lft.to/lastmile_qr_scan", "android": "https://dc.lft.to/lastmile_qr_scan"}, "bike_id": "0b545bc9c9ab1ba312268e72aa4e3884", "fusion_lat": 0.0}, {"lon": -77.02114516666667, "name": "b05ff62a955c795891d7c6f0e912df7b", "is_disabled": 0, "type": "electric_scooter", "is_reserved": 0, "fusion_lon": 0.0, "lat": 38.91735383333334, "rental_uris": {"ios": "https://dc.lft.to/lastmile_qr_scan", "android": "https://dc.lft.to/lastmile_qr_scan"}, "bike_id": "b05ff62a955c795891d7c6f0e912df7b", "fusion_lat": 0.0}, {"lon": -77.00299466666667, "name": "118f56d06dfbd5e8f7526b217f7a8347", "is_disabled": 0, "type": "electric_scooter", "is_reserved": 0, "fusion_lon": 0.0, "lat": 38.87664616666667, "rental_uris": {"ios": "https://dc.lft.to/lastmile_qr_scan", "android": "https://dc.lft.to/lastmile_qr_scan"}, "bike_id": "118f56d06dfbd5e8f7526b217f7a8347", "fusion_lat": 0.0}, {"lon": -77.030782, "name": "a4ed75881140c51e4850bd187ea8c60f", "is_disabled": 0, "type": "electric_scooter", "is_reserved": 0, "fusion_lon": 0.0, "lat": 38.932762333333336, "rental_uris": {"ios": "https://dc.lft.to/lastmile_qr_scan", "android": "https://dc.lft.to/lastmile_qr_scan"}, "bike_id": "a4ed75881140c51e4850bd187ea8c60f", "fusion_lat": 0.0}, {"lon": -77.02022166666667, "name": "75fea9a3e84f0fef1b72bf3b60c8760b", "is_disabled": 0, "type": "electric_scooter", "is_reserved": 0, "fusion_lon": 0.0, "lat": 38.921282, "rental_uris": {"ios": "https://dc.lft.to/lastmile_qr_scan", "android": "https://dc.lft.to/lastmile_qr_scan"}, "bike_id": "75fea9a3e84f0fef1b72bf3b60c8760b", "fusion_lat": 0.0}, {"lon": -77.00369966666666, "name": "e64ec72f96239ba499272f297cb7853f", "is_disabled": 0, "type": "electric_bike", "is_reserved": 0, "fusion_lon": 0.0, "lat": 38.8763815, "rental_uris": {"ios": "https://dc.lft.to/lastmile_qr_scan", "android": "https://dc.lft.to/lastmile_qr_scan"}, "bike_id": "e64ec72f96239ba499272f297cb7853f", "fusion_lat": 0.0}, {"lon": -77.045044, "name": "0c98dbf57e86a21befcc70794cf7a579", "is_disabled": 0, "type": "electric_scooter", "is_reserved": 0, "fusion_lon": 0.0, "lat": 38.912745666666666, "rental_uris": {"ios": "https://dc.lft.to/lastmile_qr_scan", "android": "https://dc.lft.to/lastmile_qr_scan"}, "bike_id": "0c98dbf57e86a21befcc70794cf7a579", "fusion_lat": 0.0}, {"lon": -76.925859, "name": "f6ef9f4639159c0f9a4898affa4e0cd3", "is_disabled": 0, "type": "electric_scooter", "is_reserved": 0, "fusion_lon": 0.0, "lat": 38.89722483333333, "rental_uris": {"ios": "https://dc.lft.to/lastmile_qr_scan", "android": "https://dc.lft.to/lastmile_qr_scan"}, "bike_id": "f6ef9f4639159c0f9a4898affa4e0cd3", "fusion_lat": 0.0}, {"lon": -76.93746366666667, "name": "2da1a5a666787869e260280400de5282", "is_disabled": 0, "type": "electric_scooter", "is_reserved": 0, "fusion_lon": 0.0, "lat": 38.890335666666665, "rental_uris": {"ios": "https://dc.lft.to/lastmile_qr_scan", "android": "https://dc.lft.to/lastmile_qr_scan"}, "bike_id": "2da1a5a666787869e260280400de5282", "fusion_lat": 0.0}, {"lon": -77.0271505, "name": "d6de5048daef603257702bec38c8c070", "is_disabled": 0, "type": "electric_scooter", "is_reserved": 0, "fusion_lon": 0.0, "lat": 38.92772433333333, "rental_uris": {"ios": "https://dc.lft.to/lastmile_qr_scan", "android": "https://dc.lft.to/lastmile_qr_scan"}, "bike_id": "d6de5048daef603257702bec38c8c070", "fusion_lat": 0.0}, {"lon": -77.02724816666667, "name": "815037c1d57eebf298bef3d66238229f", "is_disabled": 0, "type": "electric_bike", "is_reserved": 0, "fusion_lon": 0.0, "lat": 38.97158566666667, "rental_uris": {"ios": "https://dc.lft.to/lastmile_qr_scan", "android": "https://dc.lft.to/lastmile_qr_scan"}, "bike_id": "815037c1d57eebf298bef3d66238229f", "fusion_lat": 0.0}, {"lon": -77.04135116666667, "name": "ad3e5187692d4f7fa51fec157a427fd0", "is_disabled": 0, "type": "electric_scooter", "is_reserved": 0, "fusion_lon": 0.0, "lat": 38.90033533333333, "rental_uris": {"ios": "https://dc.lft.to/lastmile_qr_scan", "android": "https://dc.lft.to/lastmile_qr_scan"}, "bike_id": "ad3e5187692d4f7fa51fec157a427fd0", "fusion_lat": 0.0}, {"lon": -77.02685133333334, "name": "051a9940d8fada5ef70154d7b683a6e4", "is_disabled": 0, "type": "electric_scooter", "is_reserved": 0, "fusion_lon": 0.0, "lat": 38.89747833333333, "rental_uris": {"ios": "https://dc.lft.to/lastmile_qr_scan", "android": "https://dc.lft.to/lastmile_qr_scan"}, "bike_id": "051a9940d8fada5ef70154d7b683a6e4", "fusion_lat": 0.0}, {"lon": -77.010982, "name": "b45125f7e2e016385de504fa4d19ff61", "is_disabled": 0, "type": "electric_scooter", "is_reserved": 0, "fusion_lon": 0.0, "lat": 38.903433, "rental_uris": {"ios": "https://dc.lft.to/lastmile_qr_scan", "android": "https://dc.lft.to/lastmile_qr_scan"}, "bike_id": "b45125f7e2e016385de504fa4d19ff61", "fusion_lat": 0.0}, {"lon": -77.028535, "name": "620fdbfd946b8704755c392ed7964602", "is_disabled": 0, "type": "electric_scooter", "is_reserved": 0, "fusion_lon": 0.0, "lat": 38.92769216666667, "rental_uris": {"ios": "https://dc.lft.to/lastmile_qr_scan", "android": "https://dc.lft.to/lastmile_qr_scan"}, "bike_id": "620fdbfd946b8704755c392ed7964602", "fusion_lat": 0.0}, {"lon": -77.03209933333333, "name": "daf73f4cb318c8b3079de63129be3f19", "is_disabled": 0, "type": "electric_scooter", "is_reserved": 0, "fusion_lon": 0.0, "lat": 38.917318333333334, "rental_uris": {"ios": "https://dc.lft.to/lastmile_qr_scan", "android": "https://dc.lft.to/lastmile_qr_scan"}, "bike_id": "daf73f4cb318c8b3079de63129be3f19", "fusion_lat": 0.0}, {"lon": -77.0400195, "name": "e0193ccdc528e097c86191965c2971db", "is_disabled": 0, "type": "electric_scooter", "is_reserved": 0, "fusion_lon": 0.0, "lat": 38.91412416666667, "rental_uris": {"ios": "https://dc.lft.to/lastmile_qr_scan", "android": "https://dc.lft.to/lastmile_qr_scan"}, "bike_id": "e0193ccdc528e097c86191965c2971db", "fusion_lat": 0.0}, {"lon": -77.02665916666666, "name": "082175f89a55e617d95eef34f49672f9", "is_disabled": 0, "type": "electric_scooter", "is_reserved": 0, "fusion_lon": 0.0, "lat": 38.93101816666667, "rental_uris": {"ios": "https://dc.lft.to/lastmile_qr_scan", "android": "https://dc.lft.to/lastmile_qr_scan"}, "bike_id": "082175f89a55e617d95eef34f49672f9", "fusion_lat": 0.0}, {"lon": -77.03345, "name": "3bd29210a21fb82afe8d3b92c576a3e6", "is_disabled": 0, "type": "electric_scooter", "is_reserved": 0, "fusion_lon": 0.0, "lat": 38.91933733333333, "rental_uris": {"ios": "https://dc.lft.to/lastmile_qr_scan", "android": "https://dc.lft.to/lastmile_qr_scan"}, "bike_id": "3bd29210a21fb82afe8d3b92c576a3e6", "fusion_lat": 0.0}, {"lon": -76.99518216666667, "name": "93fbaf8cfbeba7c1a60b0b86f2548a1e", "is_disabled": 0, "type": "electric_scooter", "is_reserved": 0, "fusion_lon": 0.0, "lat": 38.902628666666665, "rental_uris": {"ios": "https://dc.lft.to/lastmile_qr_scan", "android": "https://dc.lft.to/lastmile_qr_scan"}, "bike_id": "93fbaf8cfbeba7c1a60b0b86f2548a1e", "fusion_lat": 0.0}, {"lon": -77.040949, "name": "3f4f9f4eb192b51a19dafec8af9d831d", "is_disabled": 0, "type": "electric_scooter", "is_reserved": 0, "fusion_lon": 0.0, "lat": 38.90556566666667, "rental_uris": {"ios": "https://dc.lft.to/lastmile_qr_scan", "android": "https://dc.lft.to/lastmile_qr_scan"}, "bike_id": "3f4f9f4eb192b51a19dafec8af9d831d", "fusion_lat": 0.0}, {"lon": -77.02298616666667, "name": "829b2c1ad4f54fc29d53fd01e176b875", "is_disabled": 0, "type": "electric_scooter", "is_reserved": 0, "fusion_lon": 0.0, "lat": 38.89061616666667, "rental_uris": {"ios": "https://dc.lft.to/lastmile_qr_scan", "android": "https://dc.lft.to/lastmile_qr_scan"}, "bike_id": "829b2c1ad4f54fc29d53fd01e176b875", "fusion_lat": 0.0}, {"lon": -77.01858666666666, "name": "cc214d70e74ed7ca476bba8d8f007216", "is_disabled": 0, "type": "electric_scooter", "is_reserved": 0, "fusion_lon": 0.0, "lat": 38.949181333333335, "rental_uris": {"ios": "https://dc.lft.to/lastmile_qr_scan", "android": "https://dc.lft.to/lastmile_qr_scan"}, "bike_id": "cc214d70e74ed7ca476bba8d8f007216", "fusion_lat": 0.0}, {"lon": -77.02599283333333, "name": "f38a09a3fb51b9e748fc7b318067d060", "is_disabled": 0, "type": "electric_scooter", "is_reserved": 0, "fusion_lon": 0.0, "lat": 38.91889066666667, "rental_uris": {"ios": "https://dc.lft.to/lastmile_qr_scan", "android": "https://dc.lft.to/lastmile_qr_scan"}, "bike_id": "f38a09a3fb51b9e748fc7b318067d060", "fusion_lat": 0.0}, {"lon": -77.04322133333334, "name": "e46910a42d88ea83c61116fb8994f015", "is_disabled": 0, "type": "electric_scooter", "is_reserved": 0, "fusion_lon": 0.0, "lat": 38.926231333333334, "rental_uris": {"ios": "https://dc.lft.to/lastmile_qr_scan", "android": "https://dc.lft.to/lastmile_qr_scan"}, "bike_id": "e46910a42d88ea83c61116fb8994f015", "fusion_lat": 0.0}, {"lon": -76.9857415, "name": "65f67706470eb281483729063ce3b063", "is_disabled": 0, "type": "electric_scooter", "is_reserved": 0, "fusion_lon": 0.0, "lat": 38.8962715, "rental_uris": {"ios": "https://dc.lft.to/lastmile_qr_scan", "android": "https://dc.lft.to/lastmile_qr_scan"}, "bike_id": "65f67706470eb281483729063ce3b063", "fusion_lat": 0.0}, {"lon": -77.00062233333334, "name": "5812ca18b4a4107e7cc8b71be8c2ff2e", "is_disabled": 0, "type": "electric_scooter", "is_reserved": 0, "fusion_lon": 0.0, "lat": 38.87500816666667, "rental_uris": {"ios": "https://dc.lft.to/lastmile_qr_scan", "android": "https://dc.lft.to/lastmile_qr_scan"}, "bike_id": "5812ca18b4a4107e7cc8b71be8c2ff2e", "fusion_lat": 0.0}, {"lon": -76.98362133333333, "name": "8c9586547d7f71811bf1272a61bbcb3e", "is_disabled": 0, "type": "electric_scooter", "is_reserved": 0, "fusion_lon": 0.0, "lat": 38.89159633333333, "rental_uris": {"ios": "https://dc.lft.to/lastmile_qr_scan", "android": "https://dc.lft.to/lastmile_qr_scan"}, "bike_id": "8c9586547d7f71811bf1272a61bbcb3e", "fusion_lat": 0.0}, {"lon": -77.0270935, "name": "89aeefa0cfce2b3007068c81bfa8aab0", "is_disabled": 0, "type": "electric_scooter", "is_reserved": 0, "fusion_lon": 0.0, "lat": 38.927721166666664, "rental_uris": {"ios": "https://dc.lft.to/lastmile_qr_scan", "android": "https://dc.lft.to/lastmile_qr_scan"}, "bike_id": "89aeefa0cfce2b3007068c81bfa8aab0", "fusion_lat": 0.0}, {"lon": -77.02317866666667, "name": "6a55936bfee78f1a133f8bf22e798e29", "is_disabled": 0, "type": "electric_scooter", "is_reserved": 0, "fusion_lon": 0.0, "lat": 38.920786166666666, "rental_uris": {"ios": "https://dc.lft.to/lastmile_qr_scan", "android": "https://dc.lft.to/lastmile_qr_scan"}, "bike_id": "6a55936bfee78f1a133f8bf22e798e29", "fusion_lat": 0.0}, {"lon": -77.0413795, "name": "be5611edd8c9e14d71252469fae044e6", "is_disabled": 0, "type": "electric_scooter", "is_reserved": 0, "fusion_lon": 0.0, "lat": 38.9347, "rental_uris": {"ios": "https://dc.lft.to/lastmile_qr_scan", "android": "https://dc.lft.to/lastmile_qr_scan"}, "bike_id": "be5611edd8c9e14d71252469fae044e6", "fusion_lat": 0.0}, {"lon": -77.02794933333334, "name": "4e35a3d2423d81cda432efcf56227f6f", "is_disabled": 0, "type": "electric_scooter", "is_reserved": 0, "fusion_lon": 0.0, "lat": 38.924749166666665, "rental_uris": {"ios": "https://dc.lft.to/lastmile_qr_scan", "android": "https://dc.lft.to/lastmile_qr_scan"}, "bike_id": "4e35a3d2423d81cda432efcf56227f6f", "fusion_lat": 0.0}, {"lon": -77.0230875, "name": "1349b77f4717bfcce6942227bdfc1202", "is_disabled": 0, "type": "electric_bike", "is_reserved": 0, "fusion_lon": 0.0, "lat": 38.96674133333333, "rental_uris": {"ios": "https://dc.lft.to/lastmile_qr_scan", "android": "https://dc.lft.to/lastmile_qr_scan"}, "bike_id": "1349b77f4717bfcce6942227bdfc1202", "fusion_lat": 0.0}, {"lon": -77.0408175, "name": "0f6761994e690dd07b07d79da7ecb63b", "is_disabled": 0, "type": "electric_bike", "is_reserved": 0, "fusion_lon": 0.0, "lat": 38.830679, "rental_uris": {"ios": "https://dc.lft.to/lastmile_qr_scan", "android": "https://dc.lft.to/lastmile_qr_scan"}, "bike_id": "0f6761994e690dd07b07d79da7ecb63b", "fusion_lat": 0.0}, {"lon": -76.98552616666667, "name": "b0c68d91586875823343624d6c753df4", "is_disabled": 0, "type": "electric_scooter", "is_reserved": 0, "fusion_lon": 0.0, "lat": 38.886223666666666, "rental_uris": {"ios": "https://dc.lft.to/lastmile_qr_scan", "android": "https://dc.lft.to/lastmile_qr_scan"}, "bike_id": "b0c68d91586875823343624d6c753df4", "fusion_lat": 0.0}, {"lon": -77.01211233333333, "name": "3ed055ee5a74cc7ce876781807a03f79", "is_disabled": 0, "type": "electric_scooter", "is_reserved": 0, "fusion_lon": 0.0, "lat": 38.9212095, "rental_uris": {"ios": "https://dc.lft.to/lastmile_qr_scan", "android": "https://dc.lft.to/lastmile_qr_scan"}, "bike_id": "3ed055ee5a74cc7ce876781807a03f79", "fusion_lat": 0.0}, {"lon": -76.98535833333334, "name": "49af0a202622379af3dabf822f1fa2dc", "is_disabled": 0, "type": "electric_scooter", "is_reserved": 0, "fusion_lon": 0.0, "lat": 38.883464000000004, "rental_uris": {"ios": "https://dc.lft.to/lastmile_qr_scan", "android": "https://dc.lft.to/lastmile_qr_scan"}, "bike_id": "49af0a202622379af3dabf822f1fa2dc", "fusion_lat": 0.0}, {"lon": -76.9720685, "name": "219c4cec21286a6221f57da390821cb6", "is_disabled": 0, "type": "electric_scooter", "is_reserved": 0, "fusion_lon": 0.0, "lat": 38.92547716666667, "rental_uris": {"ios": "https://dc.lft.to/lastmile_qr_scan", "android": "https://dc.lft.to/lastmile_qr_scan"}, "bike_id": "219c4cec21286a6221f57da390821cb6", "fusion_lat": 0.0}, {"lon": -77.02160533333333, "name": "118d510b03fc8909f5fe10d700610164", "is_disabled": 0, "type": "electric_scooter", "is_reserved": 0, "fusion_lon": 0.0, "lat": 38.893816666666666, "rental_uris": {"ios": "https://dc.lft.to/lastmile_qr_scan", "android": "https://dc.lft.to/lastmile_qr_scan"}, "bike_id": "118d510b03fc8909f5fe10d700610164", "fusion_lat": 0.0}, {"lon": -77.03206216666666, "name": "33f7c961c838096ceea2e2f077ac092a", "is_disabled": 0, "type": "electric_scooter", "is_reserved": 0, "fusion_lon": 0.0, "lat": 38.930515166666666, "rental_uris": {"ios": "https://dc.lft.to/lastmile_qr_scan", "android": "https://dc.lft.to/lastmile_qr_scan"}, "bike_id": "33f7c961c838096ceea2e2f077ac092a", "fusion_lat": 0.0}, {"lon": -77.0272315, "name": "d70aca8238b017cd594bae61e7fa03d0", "is_disabled": 0, "type": "electric_scooter", "is_reserved": 0, "fusion_lon": 0.0, "lat": 38.924849, "rental_uris": {"ios": "https://dc.lft.to/lastmile_qr_scan", "android": "https://dc.lft.to/lastmile_qr_scan"}, "bike_id": "d70aca8238b017cd594bae61e7fa03d0", "fusion_lat": 0.0}, {"lon": -77.002166, "name": "12c63a4296af62057bd4429fcb5de61c", "is_disabled": 0, "type": "electric_scooter", "is_reserved": 0, "fusion_lon": 0.0, "lat": 38.9004145, "rental_uris": {"ios": "https://dc.lft.to/lastmile_qr_scan", "android": "https://dc.lft.to/lastmile_qr_scan"}, "bike_id": "12c63a4296af62057bd4429fcb5de61c", "fusion_lat": 0.0}, {"lon": -77.12736533333333, "name": "8e149f564cc79abd2c5149f8ff55fb9d", "is_disabled": 0, "type": "electric_bike", "is_reserved": 0, "fusion_lon": 0.0, "lat": 38.895645333333334, "rental_uris": {"ios": "https://dc.lft.to/lastmile_qr_scan", "android": "https://dc.lft.to/lastmile_qr_scan"}, "bike_id": "8e149f564cc79abd2c5149f8ff55fb9d", "fusion_lat": 0.0}, {"lon": -77.03358933333334, "name": "c51bd90d69c2aa9d89ec96e24a96232c", "is_disabled": 0, "type": "electric_scooter", "is_reserved": 0, "fusion_lon": 0.0, "lat": 38.90112516666667, "rental_uris": {"ios": "https://dc.lft.to/lastmile_qr_scan", "android": "https://dc.lft.to/lastmile_qr_scan"}, "bike_id": "c51bd90d69c2aa9d89ec96e24a96232c", "fusion_lat": 0.0}, {"lon": -77.0387935, "name": "5a8f2af040e3f5181fb10d3e5b0ed38e", "is_disabled": 0, "type": "electric_bike", "is_reserved": 0, "fusion_lon": 0.0, "lat": 39.026225, "rental_uris": {"ios": "https://dc.lft.to/lastmile_qr_scan", "android": "https://dc.lft.to/lastmile_qr_scan"}, "bike_id": "5a8f2af040e3f5181fb10d3e5b0ed38e", "fusion_lat": 0.0}, {"lon": -76.94579233333333, "name": "7b0bcb14dc9231f71aa178204a632a38", "is_disabled": 0, "type": "electric_scooter", "is_reserved": 0, "fusion_lon": 0.0, "lat": 38.899303333333336, "rental_uris": {"ios": "https://dc.lft.to/lastmile_qr_scan", "android": "https://dc.lft.to/lastmile_qr_scan"}, "bike_id": "7b0bcb14dc9231f71aa178204a632a38", "fusion_lat": 0.0}, {"lon": -77.04468316666667, "name": "121a32ab409da2098cb1097345e293e4", "is_disabled": 0, "type": "electric_scooter", "is_reserved": 0, "fusion_lon": 0.0, "lat": 38.915346166666666, "rental_uris": {"ios": "https://dc.lft.to/lastmile_qr_scan", "android": "https://dc.lft.to/lastmile_qr_scan"}, "bike_id": "121a32ab409da2098cb1097345e293e4", "fusion_lat": 0.0}, {"lon": -77.03456433333334, "name": "eece17199fb256f8f9a2083a6e10fa48", "is_disabled": 0, "type": "electric_scooter", "is_reserved": 0, "fusion_lon": 0.0, "lat": 38.9375105, "rental_uris": {"ios": "https://dc.lft.to/lastmile_qr_scan", "android": "https://dc.lft.to/lastmile_qr_scan"}, "bike_id": "eece17199fb256f8f9a2083a6e10fa48", "fusion_lat": 0.0}, {"lon": -77.05087483333334, "name": "82f77f34228833a496b001fdae4300f3", "is_disabled": 0, "type": "electric_bike", "is_reserved": 0, "fusion_lon": 0.0, "lat": 38.81329433333333, "rental_uris": {"ios": "https://dc.lft.to/lastmile_qr_scan", "android": "https://dc.lft.to/lastmile_qr_scan"}, "bike_id": "82f77f34228833a496b001fdae4300f3", "fusion_lat": 0.0}, {"lon": -77.03080066666666, "name": "d4c1ef0259f8b1c48e72b7a10e48feba", "is_disabled": 0, "type": "electric_scooter", "is_reserved": 0, "fusion_lon": 0.0, "lat": 38.90572483333333, "rental_uris": {"ios": "https://dc.lft.to/lastmile_qr_scan", "android": "https://dc.lft.to/lastmile_qr_scan"}, "bike_id": "d4c1ef0259f8b1c48e72b7a10e48feba", "fusion_lat": 0.0}, {"lon": -77.0131785, "name": "97003e700e6167437a14fd331b556210", "is_disabled": 0, "type": "electric_scooter", "is_reserved": 0, "fusion_lon": 0.0, "lat": 38.90100566666667, "rental_uris": {"ios": "https://dc.lft.to/lastmile_qr_scan", "android": "https://dc.lft.to/lastmile_qr_scan"}, "bike_id": "97003e700e6167437a14fd331b556210", "fusion_lat": 0.0}, {"lon": -77.053759, "name": "be30c8cac389722d2d2521c343cc3bff", "is_disabled": 0, "type": "electric_scooter", "is_reserved": 0, "fusion_lon": 0.0, "lat": 38.902617166666666, "rental_uris": {"ios": "https://dc.lft.to/lastmile_qr_scan", "android": "https://dc.lft.to/lastmile_qr_scan"}, "bike_id": "be30c8cac389722d2d2521c343cc3bff", "fusion_lat": 0.0}, {"lon": -76.93061016666667, "name": "7eb01a4a4e1a6db032d3362afb526919", "is_disabled": 0, "type": "electric_scooter", "is_reserved": 0, "fusion_lon": 0.0, "lat": 38.895626, "rental_uris": {"ios": "https://dc.lft.to/lastmile_qr_scan", "android": "https://dc.lft.to/lastmile_qr_scan"}, "bike_id": "7eb01a4a4e1a6db032d3362afb526919", "fusion_lat": 0.0}, {"lon": -77.01557766666667, "name": "a4bc7e0c6142813c848690349f289656", "is_disabled": 0, "type": "electric_scooter", "is_reserved": 0, "fusion_lon": 0.0, "lat": 38.902695, "rental_uris": {"ios": "https://dc.lft.to/lastmile_qr_scan", "android": "https://dc.lft.to/lastmile_qr_scan"}, "bike_id": "a4bc7e0c6142813c848690349f289656", "fusion_lat": 0.0}, {"lon": -77.00659683333333, "name": "ffcbcfde914f9f33d4483ea9d4078dd0", "is_disabled": 0, "type": "electric_scooter", "is_reserved": 0, "fusion_lon": 0.0, "lat": 38.899902833333336, "rental_uris": {"ios": "https://dc.lft.to/lastmile_qr_scan", "android": "https://dc.lft.to/lastmile_qr_scan"}, "bike_id": "ffcbcfde914f9f33d4483ea9d4078dd0", "fusion_lat": 0.0}, {"lon": -77.04044166666667, "name": "a05f1096d03dae455e47a4f3057ecd9d", "is_disabled": 0, "type": "electric_scooter", "is_reserved": 0, "fusion_lon": 0.0, "lat": 38.917092333333336, "rental_uris": {"ios": "https://dc.lft.to/lastmile_qr_scan", "android": "https://dc.lft.to/lastmile_qr_scan"}, "bike_id": "a05f1096d03dae455e47a4f3057ecd9d", "fusion_lat": 0.0}, {"lon": -77.03966933333334, "name": "680c71f235be92bf2f8deab8c08e27a5", "is_disabled": 0, "type": "electric_scooter", "is_reserved": 0, "fusion_lon": 0.0, "lat": 38.91982, "rental_uris": {"ios": "https://dc.lft.to/lastmile_qr_scan", "android": "https://dc.lft.to/lastmile_qr_scan"}, "bike_id": "680c71f235be92bf2f8deab8c08e27a5", "fusion_lat": 0.0}, {"lon": -77.04635466666667, "name": "6ecb9139f4000a4103936bb21802e316", "is_disabled": 0, "type": "electric_scooter", "is_reserved": 0, "fusion_lon": 0.0, "lat": 38.9096685, "rental_uris": {"ios": "https://dc.lft.to/lastmile_qr_scan", "android": "https://dc.lft.to/lastmile_qr_scan"}, "bike_id": "6ecb9139f4000a4103936bb21802e316", "fusion_lat": 0.0}, {"lon": -76.982746, "name": "82cd7fb0a9c80edf5bce1a118d0d23aa", "is_disabled": 0, "type": "electric_scooter", "is_reserved": 0, "fusion_lon": 0.0, "lat": 38.90348866666667, "rental_uris": {"ios": "https://dc.lft.to/lastmile_qr_scan", "android": "https://dc.lft.to/lastmile_qr_scan"}, "bike_id": "82cd7fb0a9c80edf5bce1a118d0d23aa", "fusion_lat": 0.0}, {"lon": -77.00373016666667, "name": "476adabf5f4bf0b07f9edfecdba1b20e", "is_disabled": 0, "type": "electric_scooter", "is_reserved": 0, "fusion_lon": 0.0, "lat": 38.8975155, "rental_uris": {"ios": "https://dc.lft.to/lastmile_qr_scan", "android": "https://dc.lft.to/lastmile_qr_scan"}, "bike_id": "476adabf5f4bf0b07f9edfecdba1b20e", "fusion_lat": 0.0}, {"lon": -77.0320645, "name": "065d826aab168aefe1743a2ab2c1e034", "is_disabled": 0, "type": "electric_scooter", "is_reserved": 0, "fusion_lon": 0.0, "lat": 38.92892033333333, "rental_uris": {"ios": "https://dc.lft.to/lastmile_qr_scan", "android": "https://dc.lft.to/lastmile_qr_scan"}, "bike_id": "065d826aab168aefe1743a2ab2c1e034", "fusion_lat": 0.0}, {"lon": -76.99068733333333, "name": "c0be33f1a28523c5cc6e261e33f5e73f", "is_disabled": 0, "type": "electric_bike", "is_reserved": 0, "fusion_lon": 0.0, "lat": 38.89815266666667, "rental_uris": {"ios": "https://dc.lft.to/lastmile_qr_scan", "android": "https://dc.lft.to/lastmile_qr_scan"}, "bike_id": "c0be33f1a28523c5cc6e261e33f5e73f", "fusion_lat": 0.0}, {"lon": -77.05000483333333, "name": "206dba29ca1e807fad74a09b1d0f3dda", "is_disabled": 0, "type": "electric_scooter", "is_reserved": 0, "fusion_lon": 0.0, "lat": 38.89229383333333, "rental_uris": {"ios": "https://dc.lft.to/lastmile_qr_scan", "android": "https://dc.lft.to/lastmile_qr_scan"}, "bike_id": "206dba29ca1e807fad74a09b1d0f3dda", "fusion_lat": 0.0}, {"lon": -77.0446935, "name": "e6d35ab6eedd1c440f0197cc719f4358", "is_disabled": 0, "type": "electric_scooter", "is_reserved": 0, "fusion_lon": 0.0, "lat": 38.91531166666667, "rental_uris": {"ios": "https://dc.lft.to/lastmile_qr_scan", "android": "https://dc.lft.to/lastmile_qr_scan"}, "bike_id": "e6d35ab6eedd1c440f0197cc719f4358", "fusion_lat": 0.0}, {"lon": -77.05761616666666, "name": "2394eda5d19aab34f9ed01e447208baf", "is_disabled": 0, "type": "electric_scooter", "is_reserved": 0, "fusion_lon": 0.0, "lat": 38.924908, "rental_uris": {"ios": "https://dc.lft.to/lastmile_qr_scan", "android": "https://dc.lft.to/lastmile_qr_scan"}, "bike_id": "2394eda5d19aab34f9ed01e447208baf", "fusion_lat": 0.0}, {"lon": -77.01643516666667, "name": "65b5f900170d8287b94f8452718e9251", "is_disabled": 0, "type": "electric_scooter", "is_reserved": 0, "fusion_lon": 0.0, "lat": 38.903889166666666, "rental_uris": {"ios": "https://dc.lft.to/lastmile_qr_scan", "android": "https://dc.lft.to/lastmile_qr_scan"}, "bike_id": "65b5f900170d8287b94f8452718e9251", "fusion_lat": 0.0}, {"lon": -77.05706666666667, "name": "9b427b9cc58a559a5506d6fcee2ae075", "is_disabled": 0, "type": "electric_scooter", "is_reserved": 0, "fusion_lon": 0.0, "lat": 38.9261385, "rental_uris": {"ios": "https://dc.lft.to/lastmile_qr_scan", "android": "https://dc.lft.to/lastmile_qr_scan"}, "bike_id": "9b427b9cc58a559a5506d6fcee2ae075", "fusion_lat": 0.0}, {"lon": -77.031564, "name": "bbe2f16558596e202f5364fea1eef0b3", "is_disabled": 0, "type": "electric_scooter", "is_reserved": 0, "fusion_lon": 0.0, "lat": 38.959354833333336, "rental_uris": {"ios": "https://dc.lft.to/lastmile_qr_scan", "android": "https://dc.lft.to/lastmile_qr_scan"}, "bike_id": "bbe2f16558596e202f5364fea1eef0b3", "fusion_lat": 0.0}, {"lon": -77.02400283333333, "name": "34dabfc9fe252d99e8f8d00c553265d3", "is_disabled": 0, "type": "electric_scooter", "is_reserved": 0, "fusion_lon": 0.0, "lat": 38.916248333333336, "rental_uris": {"ios": "https://dc.lft.to/lastmile_qr_scan", "android": "https://dc.lft.to/lastmile_qr_scan"}, "bike_id": "34dabfc9fe252d99e8f8d00c553265d3", "fusion_lat": 0.0}, {"lon": -77.04179716666667, "name": "52336eb537562a13006791fec64c72c4", "is_disabled": 0, "type": "electric_scooter", "is_reserved": 0, "fusion_lon": 0.0, "lat": 38.90742216666666, "rental_uris": {"ios": "https://dc.lft.to/lastmile_qr_scan", "android": "https://dc.lft.to/lastmile_qr_scan"}, "bike_id": "52336eb537562a13006791fec64c72c4", "fusion_lat": 0.0}, {"lon": -77.03575383333333, "name": "090051408936456f253dc535d2182a01", "is_disabled": 0, "type": "electric_scooter", "is_reserved": 0, "fusion_lon": 0.0, "lat": 38.926899, "rental_uris": {"ios": "https://dc.lft.to/lastmile_qr_scan", "android": "https://dc.lft.to/lastmile_qr_scan"}, "bike_id": "090051408936456f253dc535d2182a01", "fusion_lat": 0.0}, {"lon": -77.00210583333333, "name": "abd295451e80183c1b5703cefbe06670", "is_disabled": 0, "type": "electric_scooter", "is_reserved": 0, "fusion_lon": 0.0, "lat": 38.914639666666666, "rental_uris": {"ios": "https://dc.lft.to/lastmile_qr_scan", "android": "https://dc.lft.to/lastmile_qr_scan"}, "bike_id": "abd295451e80183c1b5703cefbe06670", "fusion_lat": 0.0}, {"lon": -77.01943333333334, "name": "f3c0e7423dfab75b13161dbdd062b574", "is_disabled": 0, "type": "electric_scooter", "is_reserved": 0, "fusion_lon": 0.0, "lat": 38.92425183333334, "rental_uris": {"ios": "https://dc.lft.to/lastmile_qr_scan", "android": "https://dc.lft.to/lastmile_qr_scan"}, "bike_id": "f3c0e7423dfab75b13161dbdd062b574", "fusion_lat": 0.0}, {"lon": -77.02152283333334, "name": "1cea0054c75e4f5147d379f1bb7d6ad1", "is_disabled": 0, "type": "electric_scooter", "is_reserved": 0, "fusion_lon": 0.0, "lat": 38.92605233333333, "rental_uris": {"ios": "https://dc.lft.to/lastmile_qr_scan", "android": "https://dc.lft.to/lastmile_qr_scan"}, "bike_id": "1cea0054c75e4f5147d379f1bb7d6ad1", "fusion_lat": 0.0}, {"lon": -77.00336483333334, "name": "fc786237b8b6af58c489b282c1f75095", "is_disabled": 0, "type": "electric_bike", "is_reserved": 0, "fusion_lon": 0.0, "lat": 38.920244, "rental_uris": {"ios": "https://dc.lft.to/lastmile_qr_scan", "android": "https://dc.lft.to/lastmile_qr_scan"}, "bike_id": "fc786237b8b6af58c489b282c1f75095", "fusion_lat": 0.0}, {"lon": -77.01219883333333, "name": "00808b084c8660f22f67ef77f5048423", "is_disabled": 0, "type": "electric_scooter", "is_reserved": 0, "fusion_lon": 0.0, "lat": 38.9144905, "rental_uris": {"ios": "https://dc.lft.to/lastmile_qr_scan", "android": "https://dc.lft.to/lastmile_qr_scan"}, "bike_id": "00808b084c8660f22f67ef77f5048423", "fusion_lat": 0.0}, {"lon": -77.00204983333333, "name": "b8a9a0e0be1378ded9cc2d672dc0e51d", "is_disabled": 0, "type": "electric_scooter", "is_reserved": 0, "fusion_lon": 0.0, "lat": 38.87661816666667, "rental_uris": {"ios": "https://dc.lft.to/lastmile_qr_scan", "android": "https://dc.lft.to/lastmile_qr_scan"}, "bike_id": "b8a9a0e0be1378ded9cc2d672dc0e51d", "fusion_lat": 0.0}, {"lon": -77.01756116666667, "name": "a61ab8edbee07d29526d9abe15bd0eea", "is_disabled": 0, "type": "electric_scooter", "is_reserved": 0, "fusion_lon": 0.0, "lat": 38.884335166666666, "rental_uris": {"ios": "https://dc.lft.to/lastmile_qr_scan", "android": "https://dc.lft.to/lastmile_qr_scan"}, "bike_id": "a61ab8edbee07d29526d9abe15bd0eea", "fusion_lat": 0.0}, {"lon": -77.009283, "name": "1a462fdf17a68df12636a91d646ef61e", "is_disabled": 0, "type": "electric_scooter", "is_reserved": 0, "fusion_lon": 0.0, "lat": 38.91344733333333, "rental_uris": {"ios": "https://dc.lft.to/lastmile_qr_scan", "android": "https://dc.lft.to/lastmile_qr_scan"}, "bike_id": "1a462fdf17a68df12636a91d646ef61e", "fusion_lat": 0.0}, {"lon": -77.02242033333333, "name": "76342fd0ca4ee816ec605f2dd579166f", "is_disabled": 0, "type": "electric_scooter", "is_reserved": 0, "fusion_lon": 0.0, "lat": 38.924526166666666, "rental_uris": {"ios": "https://dc.lft.to/lastmile_qr_scan", "android": "https://dc.lft.to/lastmile_qr_scan"}, "bike_id": "76342fd0ca4ee816ec605f2dd579166f", "fusion_lat": 0.0}, {"lon": -76.98060166666667, "name": "1cfd01cf408b11fed8ef3a05af9d6f1d", "is_disabled": 0, "type": "electric_scooter", "is_reserved": 0, "fusion_lon": 0.0, "lat": 38.885395, "rental_uris": {"ios": "https://dc.lft.to/lastmile_qr_scan", "android": "https://dc.lft.to/lastmile_qr_scan"}, "bike_id": "1cfd01cf408b11fed8ef3a05af9d6f1d", "fusion_lat": 0.0}, {"lon": -77.007464, "name": "b2874740d6f48d4f7acd96297739a816", "is_disabled": 0, "type": "electric_scooter", "is_reserved": 0, "fusion_lon": 0.0, "lat": 38.87116183333333, "rental_uris": {"ios": "https://dc.lft.to/lastmile_qr_scan", "android": "https://dc.lft.to/lastmile_qr_scan"}, "bike_id": "b2874740d6f48d4f7acd96297739a816", "fusion_lat": 0.0}, {"lon": -76.9339325, "name": "0cb3147f732f01214d20b6a6dd11ab4c", "is_disabled": 0, "type": "electric_scooter", "is_reserved": 0, "fusion_lon": 0.0, "lat": 38.89912316666667, "rental_uris": {"ios": "https://dc.lft.to/lastmile_qr_scan", "android": "https://dc.lft.to/lastmile_qr_scan"}, "bike_id": "0cb3147f732f01214d20b6a6dd11ab4c", "fusion_lat": 0.0}, {"lon": -77.02538016666666, "name": "b857e536ef88d2f5c77b01a30fb36858", "is_disabled": 0, "type": "electric_scooter", "is_reserved": 0, "fusion_lon": 0.0, "lat": 38.920787833333335, "rental_uris": {"ios": "https://dc.lft.to/lastmile_qr_scan", "android": "https://dc.lft.to/lastmile_qr_scan"}, "bike_id": "b857e536ef88d2f5c77b01a30fb36858", "fusion_lat": 0.0}, {"lon": -76.901862, "name": "5c760fe3702c53378aeaaa331423e284", "is_disabled": 0, "type": "electric_bike", "is_reserved": 0, "fusion_lon": 0.0, "lat": 39.001925166666666, "rental_uris": {"ios": "https://dc.lft.to/lastmile_qr_scan", "android": "https://dc.lft.to/lastmile_qr_scan"}, "bike_id": "5c760fe3702c53378aeaaa331423e284", "fusion_lat": 0.0}, {"lon": -77.04250383333333, "name": "e706f8ee4e1967a67db8a4e58f723900", "is_disabled": 0, "type": "electric_scooter", "is_reserved": 0, "fusion_lon": 0.0, "lat": 38.924299166666664, "rental_uris": {"ios": "https://dc.lft.to/lastmile_qr_scan", "android": "https://dc.lft.to/lastmile_qr_scan"}, "bike_id": "e706f8ee4e1967a67db8a4e58f723900", "fusion_lat": 0.0}, {"lon": -77.05384783333334, "name": "b1256cef792347d6726f3e27648c0700", "is_disabled": 0, "type": "electric_scooter", "is_reserved": 0, "fusion_lon": 0.0, "lat": 38.91069316666667, "rental_uris": {"ios": "https://dc.lft.to/lastmile_qr_scan", "android": "https://dc.lft.to/lastmile_qr_scan"}, "bike_id": "b1256cef792347d6726f3e27648c0700", "fusion_lat": 0.0}, {"lon": -76.9774775, "name": "8bab3b0cfc1139fb765e8293021f5a9d", "is_disabled": 0, "type": "electric_scooter", "is_reserved": 0, "fusion_lon": 0.0, "lat": 38.871436, "rental_uris": {"ios": "https://dc.lft.to/lastmile_qr_scan", "android": "https://dc.lft.to/lastmile_qr_scan"}, "bike_id": "8bab3b0cfc1139fb765e8293021f5a9d", "fusion_lat": 0.0}, {"lon": -77.00196283333334, "name": "bab93ddb095fb295b3dc4a0c26c60750", "is_disabled": 0, "type": "electric_scooter", "is_reserved": 0, "fusion_lon": 0.0, "lat": 38.90623216666667, "rental_uris": {"ios": "https://dc.lft.to/lastmile_qr_scan", "android": "https://dc.lft.to/lastmile_qr_scan"}, "bike_id": "bab93ddb095fb295b3dc4a0c26c60750", "fusion_lat": 0.0}, {"lon": -77.036389, "name": "441e31a62981c3402e52c21b87bc441e", "is_disabled": 0, "type": "electric_scooter", "is_reserved": 0, "fusion_lon": 0.0, "lat": 38.90317966666667, "rental_uris": {"ios": "https://dc.lft.to/lastmile_qr_scan", "android": "https://dc.lft.to/lastmile_qr_scan"}, "bike_id": "441e31a62981c3402e52c21b87bc441e", "fusion_lat": 0.0}, {"lon": -77.04751166666667, "name": "6328eb8cde6b3848dc35f20e13094588", "is_disabled": 0, "type": "electric_scooter", "is_reserved": 0, "fusion_lon": 0.0, "lat": 38.9200625, "rental_uris": {"ios": "https://dc.lft.to/lastmile_qr_scan", "android": "https://dc.lft.to/lastmile_qr_scan"}, "bike_id": "6328eb8cde6b3848dc35f20e13094588", "fusion_lat": 0.0}, {"lon": -77.05811483333333, "name": "f43bb07aee9005d8d24392ee0f3ac579", "is_disabled": 0, "type": "electric_scooter", "is_reserved": 0, "fusion_lon": 0.0, "lat": 38.93463166666667, "rental_uris": {"ios": "https://dc.lft.to/lastmile_qr_scan", "android": "https://dc.lft.to/lastmile_qr_scan"}, "bike_id": "f43bb07aee9005d8d24392ee0f3ac579", "fusion_lat": 0.0}, {"lon": -77.01707316666666, "name": "624b7f4d0a3ff8a4ab017e610872c75d", "is_disabled": 0, "type": "electric_scooter", "is_reserved": 0, "fusion_lon": 0.0, "lat": 38.88748016666667, "rental_uris": {"ios": "https://dc.lft.to/lastmile_qr_scan", "android": "https://dc.lft.to/lastmile_qr_scan"}, "bike_id": "624b7f4d0a3ff8a4ab017e610872c75d", "fusion_lat": 0.0}, {"lon": -77.1034675, "name": "775e41aad6a6ee57fe485a5d6d4f1646", "is_disabled": 0, "type": "electric_bike", "is_reserved": 0, "fusion_lon": 0.0, "lat": 38.83696583333333, "rental_uris": {"ios": "https://dc.lft.to/lastmile_qr_scan", "android": "https://dc.lft.to/lastmile_qr_scan"}, "bike_id": "775e41aad6a6ee57fe485a5d6d4f1646", "fusion_lat": 0.0}, {"lon": -77.02220883333334, "name": "3385892ba6ecea3b4ede9d4d16acf5e2", "is_disabled": 0, "type": "electric_scooter", "is_reserved": 0, "fusion_lon": 0.0, "lat": 38.924779666666666, "rental_uris": {"ios": "https://dc.lft.to/lastmile_qr_scan", "android": "https://dc.lft.to/lastmile_qr_scan"}, "bike_id": "3385892ba6ecea3b4ede9d4d16acf5e2", "fusion_lat": 0.0}, {"lon": -76.984878, "name": "738b36ca8dadc24747d27708b3c2fe84", "is_disabled": 0, "type": "electric_scooter", "is_reserved": 0, "fusion_lon": 0.0, "lat": 38.90363816666667, "rental_uris": {"ios": "https://dc.lft.to/lastmile_qr_scan", "android": "https://dc.lft.to/lastmile_qr_scan"}, "bike_id": "738b36ca8dadc24747d27708b3c2fe84", "fusion_lat": 0.0}, {"lon": -77.020073, "name": "b255b5869c838d1f765a6dea8ae86073", "is_disabled": 0, "type": "electric_scooter", "is_reserved": 0, "fusion_lon": 0.0, "lat": 38.9118595, "rental_uris": {"ios": "https://dc.lft.to/lastmile_qr_scan", "android": "https://dc.lft.to/lastmile_qr_scan"}, "bike_id": "b255b5869c838d1f765a6dea8ae86073", "fusion_lat": 0.0}, {"lon": -77.00321366666667, "name": "3cdba756b062908772b8b01fdb717f85", "is_disabled": 0, "type": "electric_scooter", "is_reserved": 0, "fusion_lon": 0.0, "lat": 38.86124233333334, "rental_uris": {"ios": "https://dc.lft.to/lastmile_qr_scan", "android": "https://dc.lft.to/lastmile_qr_scan"}, "bike_id": "3cdba756b062908772b8b01fdb717f85", "fusion_lat": 0.0}, {"lon": -76.99764633333334, "name": "5656889f19a2a6fcc9de0aea9997a31c", "is_disabled": 0, "type": "electric_scooter", "is_reserved": 0, "fusion_lon": 0.0, "lat": 38.9007665, "rental_uris": {"ios": "https://dc.lft.to/lastmile_qr_scan", "android": "https://dc.lft.to/lastmile_qr_scan"}, "bike_id": "5656889f19a2a6fcc9de0aea9997a31c", "fusion_lat": 0.0}, {"lon": -76.985423, "name": "3106e75fef3373fcabcb8afb15270fe5", "is_disabled": 0, "type": "electric_scooter", "is_reserved": 0, "fusion_lon": 0.0, "lat": 38.886147, "rental_uris": {"ios": "https://dc.lft.to/lastmile_qr_scan", "android": "https://dc.lft.to/lastmile_qr_scan"}, "bike_id": "3106e75fef3373fcabcb8afb15270fe5", "fusion_lat": 0.0}, {"lon": -77.0723825, "name": "6b47a4e2cdf88b1c60adfab1bbc018b5", "is_disabled": 0, "type": "electric_scooter", "is_reserved": 0, "fusion_lon": 0.0, "lat": 38.921505, "rental_uris": {"ios": "https://dc.lft.to/lastmile_qr_scan", "android": "https://dc.lft.to/lastmile_qr_scan"}, "bike_id": "6b47a4e2cdf88b1c60adfab1bbc018b5", "fusion_lat": 0.0}, {"lon": -77.03187616666666, "name": "1464c070cf4af767b8e849cd529c3e9f", "is_disabled": 0, "type": "electric_scooter", "is_reserved": 0, "fusion_lon": 0.0, "lat": 38.91617433333333, "rental_uris": {"ios": "https://dc.lft.to/lastmile_qr_scan", "android": "https://dc.lft.to/lastmile_qr_scan"}, "bike_id": "1464c070cf4af767b8e849cd529c3e9f", "fusion_lat": 0.0}, {"lon": -77.0424695, "name": "47b0eb4580bac8c82d43902e7244dee0", "is_disabled": 0, "type": "electric_scooter", "is_reserved": 0, "fusion_lon": 0.0, "lat": 38.921676, "rental_uris": {"ios": "https://dc.lft.to/lastmile_qr_scan", "android": "https://dc.lft.to/lastmile_qr_scan"}, "bike_id": "47b0eb4580bac8c82d43902e7244dee0", "fusion_lat": 0.0}, {"lon": -77.0093435, "name": "99166371900cd48ef3c371d5aa186f55", "is_disabled": 0, "type": "electric_scooter", "is_reserved": 0, "fusion_lon": 0.0, "lat": 38.896345833333335, "rental_uris": {"ios": "https://dc.lft.to/lastmile_qr_scan", "android": "https://dc.lft.to/lastmile_qr_scan"}, "bike_id": "99166371900cd48ef3c371d5aa186f55", "fusion_lat": 0.0}, {"lon": -76.98858783333333, "name": "cd9ff78712567f33c52297a7d57e38b6", "is_disabled": 0, "type": "electric_scooter", "is_reserved": 0, "fusion_lon": 0.0, "lat": 38.9003025, "rental_uris": {"ios": "https://dc.lft.to/lastmile_qr_scan", "android": "https://dc.lft.to/lastmile_qr_scan"}, "bike_id": "cd9ff78712567f33c52297a7d57e38b6", "fusion_lat": 0.0}, {"lon": -77.01879033333333, "name": "ef9a5d5ae65f9199dfb450db40cde86b", "is_disabled": 0, "type": "electric_scooter", "is_reserved": 0, "fusion_lon": 0.0, "lat": 38.91939383333333, "rental_uris": {"ios": "https://dc.lft.to/lastmile_qr_scan", "android": "https://dc.lft.to/lastmile_qr_scan"}, "bike_id": "ef9a5d5ae65f9199dfb450db40cde86b", "fusion_lat": 0.0}, {"lon": -77.04592016666666, "name": "d98a4c28e25a84533524515a2300b158", "is_disabled": 0, "type": "electric_scooter", "is_reserved": 0, "fusion_lon": 0.0, "lat": 38.90064566666667, "rental_uris": {"ios": "https://dc.lft.to/lastmile_qr_scan", "android": "https://dc.lft.to/lastmile_qr_scan"}, "bike_id": "d98a4c28e25a84533524515a2300b158", "fusion_lat": 0.0}, {"lon": -77.018724, "name": "3788c5cc7efdd865cd53a6c8797c9df8", "is_disabled": 0, "type": "electric_scooter", "is_reserved": 0, "fusion_lon": 0.0, "lat": 38.93053033333333, "rental_uris": {"ios": "https://dc.lft.to/lastmile_qr_scan", "android": "https://dc.lft.to/lastmile_qr_scan"}, "bike_id": "3788c5cc7efdd865cd53a6c8797c9df8", "fusion_lat": 0.0}, {"lon": -77.04538416666666, "name": "00db6ef9f9162273de1065ebc970c9c4", "is_disabled": 0, "type": "electric_scooter", "is_reserved": 0, "fusion_lon": 0.0, "lat": 38.91190183333333, "rental_uris": {"ios": "https://dc.lft.to/lastmile_qr_scan", "android": "https://dc.lft.to/lastmile_qr_scan"}, "bike_id": "00db6ef9f9162273de1065ebc970c9c4", "fusion_lat": 0.0}, {"lon": -77.02446266666666, "name": "8b144163fbb94ba050fdc72499c11635", "is_disabled": 0, "type": "electric_scooter", "is_reserved": 0, "fusion_lon": 0.0, "lat": 38.92506216666666, "rental_uris": {"ios": "https://dc.lft.to/lastmile_qr_scan", "android": "https://dc.lft.to/lastmile_qr_scan"}, "bike_id": "8b144163fbb94ba050fdc72499c11635", "fusion_lat": 0.0}, {"lon": -76.99107033333334, "name": "c7c7bfc19ce58604397295953562db4d", "is_disabled": 0, "type": "electric_scooter", "is_reserved": 0, "fusion_lon": 0.0, "lat": 38.863311833333334, "rental_uris": {"ios": "https://dc.lft.to/lastmile_qr_scan", "android": "https://dc.lft.to/lastmile_qr_scan"}, "bike_id": "c7c7bfc19ce58604397295953562db4d", "fusion_lat": 0.0}, {"lon": -77.01276066666667, "name": "91a5290bdf49d6f2732d073e70e5c7ca", "is_disabled": 0, "type": "electric_scooter", "is_reserved": 0, "fusion_lon": 0.0, "lat": 38.909494333333335, "rental_uris": {"ios": "https://dc.lft.to/lastmile_qr_scan", "android": "https://dc.lft.to/lastmile_qr_scan"}, "bike_id": "91a5290bdf49d6f2732d073e70e5c7ca", "fusion_lat": 0.0}, {"lon": -76.99627033333333, "name": "5314c280e5cc628d771b0f44edb91e32", "is_disabled": 0, "type": "electric_scooter", "is_reserved": 0, "fusion_lon": 0.0, "lat": 38.92187933333334, "rental_uris": {"ios": "https://dc.lft.to/lastmile_qr_scan", "android": "https://dc.lft.to/lastmile_qr_scan"}, "bike_id": "5314c280e5cc628d771b0f44edb91e32", "fusion_lat": 0.0}, {"lon": -77.00382616666667, "name": "f189d3f5da79e7cfa9f6dcccbf1bb345", "is_disabled": 0, "type": "electric_scooter", "is_reserved": 0, "fusion_lon": 0.0, "lat": 38.87636883333333, "rental_uris": {"ios": "https://dc.lft.to/lastmile_qr_scan", "android": "https://dc.lft.to/lastmile_qr_scan"}, "bike_id": "f189d3f5da79e7cfa9f6dcccbf1bb345", "fusion_lat": 0.0}, {"lon": -77.06904933333334, "name": "dffd01b3a746567cb05be8d2595f107e", "is_disabled": 0, "type": "electric_scooter", "is_reserved": 0, "fusion_lon": 0.0, "lat": 38.91745183333333, "rental_uris": {"ios": "https://dc.lft.to/lastmile_qr_scan", "android": "https://dc.lft.to/lastmile_qr_scan"}, "bike_id": "dffd01b3a746567cb05be8d2595f107e", "fusion_lat": 0.0}, {"lon": -77.04720233333333, "name": "71a5fb345cb14bb6c583638492e14c35", "is_disabled": 0, "type": "electric_scooter", "is_reserved": 0, "fusion_lon": 0.0, "lat": 38.899669833333334, "rental_uris": {"ios": "https://dc.lft.to/lastmile_qr_scan", "android": "https://dc.lft.to/lastmile_qr_scan"}, "bike_id": "71a5fb345cb14bb6c583638492e14c35", "fusion_lat": 0.0}, {"lon": -77.0194575, "name": "a6dadcd9de74219a5c7c9b619487865a", "is_disabled": 0, "type": "electric_scooter", "is_reserved": 0, "fusion_lon": 0.0, "lat": 38.923720833333334, "rental_uris": {"ios": "https://dc.lft.to/lastmile_qr_scan", "android": "https://dc.lft.to/lastmile_qr_scan"}, "bike_id": "a6dadcd9de74219a5c7c9b619487865a", "fusion_lat": 0.0}, {"lon": -77.02161716666667, "name": "d8d13ac3e6837b601bf9f165b52f8aa7", "is_disabled": 0, "type": "electric_scooter", "is_reserved": 0, "fusion_lon": 0.0, "lat": 38.926375166666666, "rental_uris": {"ios": "https://dc.lft.to/lastmile_qr_scan", "android": "https://dc.lft.to/lastmile_qr_scan"}, "bike_id": "d8d13ac3e6837b601bf9f165b52f8aa7", "fusion_lat": 0.0}, {"lon": -77.021907, "name": "5513757dbf2bae616f8b68682461392d", "is_disabled": 0, "type": "electric_scooter", "is_reserved": 0, "fusion_lon": 0.0, "lat": 38.910529, "rental_uris": {"ios": "https://dc.lft.to/lastmile_qr_scan", "android": "https://dc.lft.to/lastmile_qr_scan"}, "bike_id": "5513757dbf2bae616f8b68682461392d", "fusion_lat": 0.0}, {"lon": -76.90296483333333, "name": "afe9a7c2ba452651ec39c391fa13bddd", "is_disabled": 0, "type": "electric_bike", "is_reserved": 0, "fusion_lon": 0.0, "lat": 39.00303983333333, "rental_uris": {"ios": "https://dc.lft.to/lastmile_qr_scan", "android": "https://dc.lft.to/lastmile_qr_scan"}, "bike_id": "afe9a7c2ba452651ec39c391fa13bddd", "fusion_lat": 0.0}, {"lon": -77.04657433333334, "name": "54673d63040eaaf72e2fadfe440cb9e7", "is_disabled": 0, "type": "electric_scooter", "is_reserved": 0, "fusion_lon": 0.0, "lat": 38.8925495, "rental_uris": {"ios": "https://dc.lft.to/lastmile_qr_scan", "android": "https://dc.lft.to/lastmile_qr_scan"}, "bike_id": "54673d63040eaaf72e2fadfe440cb9e7", "fusion_lat": 0.0}, {"lon": -76.99554566666667, "name": "0020ec990e53a11cf45c10fe97588e1a", "is_disabled": 0, "type": "electric_bike", "is_reserved": 0, "fusion_lon": 0.0, "lat": 38.939816666666665, "rental_uris": {"ios": "https://dc.lft.to/lastmile_qr_scan", "android": "https://dc.lft.to/lastmile_qr_scan"}, "bike_id": "0020ec990e53a11cf45c10fe97588e1a", "fusion_lat": 0.0},