{"data": {"bikes": [{"is_disabled": 0, "rental_uris": {"android": "https://dc.lft.to/lastmile_qr_scan", "ios": "https://dc.lft.to/lastmile_qr_scan"}, "is_reserved": 0, "name": "f4799ef3ff7bf060fb7475b0633dda20", "lon": -77.022042, "type": "electric_scooter", "bike_id": "f4799ef3ff7bf060fb7475b0633dda20", "fusion_lon": 0.0, "lat": 38.909809833333334, "fusion_lat": 0.0}, {"is_disabled": 0, "rental_uris": {"android": "https://dc.lft.to/lastmile_qr_scan", "ios": "https://dc.lft.to/lastmile_qr_scan"}, "is_reserved": 0, "name": "7e0d47d6dab63edc0c8a1bca90961a13", "lon": -77.03851866666666, "type": "electric_scooter", "bike_id": "7e0d47d6dab63edc0c8a1bca90961a13", "fusion_lon": 0.0, "lat": 38.9038795, "fusion_lat": 0.0}, {"is_disabled": 0, "rental_uris": {"android": "https://dc.lft.to/lastmile_qr_scan", "ios": "https://dc.lft.to/lastmile_qr_scan"}, "is_reserved": 0, "name": "ec8d562ac9e5ac6233e06abbe7bea3fd", "lon": -76.97730516666667, "type": "electric_scooter", "bike_id": "ec8d562ac9e5ac6233e06abbe7bea3fd", "fusion_lon": 0.0, "lat": 38.8948675, "fusion_lat": 0.0}, {"is_disabled": 0, "rental_uris": {"android": "https://dc.lft.to/lastmile_qr_scan", "ios": "https://dc.lft.to/lastmile_qr_scan"}, "is_reserved": 0, "name": "b558a3c4ee607eb95ea0e699b297a6c5", "lon": -76.97996766666667, "type": "electric_scooter", "bike_id": "b558a3c4ee607eb95ea0e699b297a6c5", "fusion_lon": 0.0, "lat": 38.8887335, "fusion_lat": 0.0}, {"is_disabled": 0, "rental_uris": {"android": "https://dc.lft.to/lastmile_qr_scan", "ios": "https://dc.lft.to/lastmile_qr_scan"}, "is_reserved": 0, "name": "736383fbd5542f089293a5c961a3cefe", "lon": -77.03223666666666, "type": "electric_scooter", "bike_id": "736383fbd5542f089293a5c961a3cefe", "fusion_lon": 0.0, "lat": 38.90983633333333, "fusion_lat": 0.0}, {"is_disabled": 0, "rental_uris": {"android": "https://dc.lft.to/lastmile_qr_scan", "ios": "https://dc.lft.to/lastmile_qr_scan"}, "is_reserved": 0, "name": "9e367b12681cbb8eb7dc02ebee4e5527", "lon": -77.021748, "type": "electric_scooter", "bike_id": "9e367b12681cbb8eb7dc02ebee4e5527", "fusion_lon": 0.0, "lat": 38.9015735, "fusion_lat": 0.0}, {"is_disabled": 0, "rental_uris": {"android": "https://dc.lft.to/lastmile_qr_scan", "ios": "https://dc.lft.to/lastmile_qr_scan"}, "is_reserved": 0, "name": "1a7e07e4d21b4f01a3da6e44d3d4a05b", "lon": -77.05938933333333, "type": "electric_scooter", "bike_id": "1a7e07e4d21b4f01a3da6e44d3d4a05b", "fusion_lon": 0.0, "lat": 38.862365833333335, "fusion_lat": 0.0}, {"is_disabled": 0, "rental_uris": {"android": "https://dc.lft.to/lastmile_qr_scan", "ios": "https://dc.lft.to/lastmile_qr_scan"}, "is_reserved": 0, "name": "2e0396aca031cc8f4fb47aafaf5ff268", "lon": -77.0387045, "type": "electric_scooter", "bike_id": "2e0396aca031cc8f4fb47aafaf5ff268", "fusion_lon": 0.0, "lat": 38.912656166666665, "fusion_lat": 0.0}, {"is_disabled": 0, "rental_uris": {"android": "https://dc.lft.to/lastmile_qr_scan", "ios": "https://dc.lft.to/lastmile_qr_scan"}, "is_reserved": 0, "name": "a6125c0a240f45611b60c1718812c869", "lon": -76.98473283333334, "type": "electric_scooter", "bike_id": "a6125c0a240f45611b60c1718812c869", "fusion_lon": 0.0, "lat": 38.893528, "fusion_lat": 0.0}, {"is_disabled": 0, "rental_uris": {"android": "https://dc.lft.to/lastmile_qr_scan", "ios": "https://dc.lft.to/lastmile_qr_scan"}, "is_reserved": 0, "name": "07ae6b1c5eeb88798bd5515837f22db8", "lon": -77.029557, "type": "electric_scooter", "bike_id": "07ae6b1c5eeb88798bd5515837f22db8", "fusion_lon": 0.0, "lat": 38.9119965, "fusion_lat": 0.0}, {"is_disabled": 0, "rental_uris": {"android": "https://dc.lft.to/lastmile_qr_scan", "ios": "https://dc.lft.to/lastmile_qr_scan"}, "is_reserved": 0, "name": "405dff2ea89fc6edb3910a10528dd63b", "lon": -77.1151645, "type": "electric_bike", "bike_id": "405dff2ea89fc6edb3910a10528dd63b", "fusion_lon": 0.0, "lat": 38.882192333333336, "fusion_lat": 0.0}, {"is_disabled": 0, "rental_uris": {"android": "https://dc.lft.to/lastmile_qr_scan", "ios": "https://dc.lft.to/lastmile_qr_scan"}, "is_reserved": 0, "name": "d773db68155d13a7302c13b81176f440", "lon": -77.03078033333334, "type": "electric_scooter", "bike_id": "d773db68155d13a7302c13b81176f440", "fusion_lon": 0.0, "lat": 38.92233433333333, "fusion_lat": 0.0}, {"is_disabled": 0, "rental_uris": {"android": "https://dc.lft.to/lastmile_qr_scan", "ios": "https://dc.lft.to/lastmile_qr_scan"}, "is_reserved": 0, "name": "9f2babf15029d65657a2cb12656d50d4", "lon": -77.06531, "type": "electric_scooter", "bike_id": "9f2babf15029d65657a2cb12656d50d4", "fusion_lon": 0.0, "lat": 38.905267, "fusion_lat": 0.0}, {"is_disabled": 0, "rental_uris": {"android": "https://dc.lft.to/lastmile_qr_scan", "ios": "https://dc.lft.to/lastmile_qr_scan"}, "is_reserved": 0, "name": "6a6adde13601282d1a2a212f91a7f553", "lon": -77.03513766666667, "type": "electric_scooter", "bike_id": "6a6adde13601282d1a2a212f91a7f553", "fusion_lon": 0.0, "lat": 38.92239166666667, "fusion_lat": 0.0}, {"is_disabled": 0, "rental_uris": {"android": "https://dc.lft.to/lastmile_qr_scan", "ios": "https://dc.lft.to/lastmile_qr_scan"}, "is_reserved": 0, "name": "04689c7fbc6435ee1da5d11af44254dd", "lon": -77.05402266666667, "type": "electric_scooter", "bike_id": "04689c7fbc6435ee1da5d11af44254dd", "fusion_lon": 0.0, "lat": 38.927745, "fusion_lat": 0.0}, {"is_disabled": 0, "rental_uris": {"android": "https://dc.lft.to/lastmile_qr_scan", "ios": "https://dc.lft.to/lastmile_qr_scan"}, "is_reserved": 0, "name": "eada4237c29a345fd7b3bb4f460eaa2c", "lon": -77.02786433333333, "type": "electric_scooter", "bike_id": "eada4237c29a345fd7b3bb4f460eaa2c", "fusion_lon": 0.0, "lat": 38.8841805, "fusion_lat": 0.0}, {"is_disabled": 0, "rental_uris": {"android": "https://dc.lft.to/lastmile_qr_scan", "ios": "https://dc.lft.to/lastmile_qr_scan"}, "is_reserved": 0, "name": "34b9c1bbf2a45d439841691247c41aa0", "lon": -77.04194933333333, "type": "electric_scooter", "bike_id": "34b9c1bbf2a45d439841691247c41aa0", "fusion_lon": 0.0, "lat": 38.916741, "fusion_lat": 0.0}, {"is_disabled": 0, "rental_uris": {"android": "https://dc.lft.to/lastmile_qr_scan", "ios": "https://dc.lft.to/lastmile_qr_scan"}, "is_reserved": 0, "name": "11342f347a85c672c36eb3dd5bb51d75", "lon": -77.0018665, "type": "electric_scooter", "bike_id": "11342f347a85c672c36eb3dd5bb51d75", "fusion_lon": 0.0, "lat": 38.900390333333334, "fusion_lat": 0.0}, {"is_disabled": 0, "rental_uris": {"android": "https://dc.lft.to/lastmile_qr_scan", "ios": "https://dc.lft.to/lastmile_qr_scan"}, "is_reserved": 0, "name": "f3df1686dd06de9c142e027f2e2ceaca", "lon": -76.99952883333333, "type": "electric_scooter", "bike_id": "f3df1686dd06de9c142e027f2e2ceaca", "fusion_lon": 0.0, "lat": 38.842885833333334, "fusion_lat": 0.0}, {"is_disabled": 0, "rental_uris": {"android": "https://dc.lft.to/lastmile_qr_scan", "ios": "https://dc.lft.to/lastmile_qr_scan"}, "is_reserved": 0, "name": "867a29ae4df4288e8c78e47a4c0edecf", "lon": -77.02393916666666, "type": "electric_scooter", "bike_id": "867a29ae4df4288e8c78e47a4c0edecf", "fusion_lon": 0.0, "lat": 38.92071166666667, "fusion_lat": 0.0}, {"is_disabled": 0, "rental_uris": {"android": "https://dc.lft.to/lastmile_qr_scan", "ios": "https://dc.lft.to/lastmile_qr_scan"}, "is_reserved": 0, "name": "110b0e5e98c4638fc067f7d8b90deb06", "lon": -77.05934866666666, "type": "electric_scooter", "bike_id": "110b0e5e98c4638fc067f7d8b90deb06", "fusion_lon": 0.0, "lat": 38.936753833333334, "fusion_lat": 0.0}, {"is_disabled": 0, "rental_uris": {"android": "https://dc.lft.to/lastmile_qr_scan", "ios": "https://dc.lft.to/lastmile_qr_scan"}, "is_reserved": 0, "name": "738c49edfc3275bbbde9baf8c892263b", "lon": -77.02491416666666, "type": "electric_scooter", "bike_id": "738c49edfc3275bbbde9baf8c892263b", "fusion_lon": 0.0, "lat": 38.9057325, "fusion_lat": 0.0}, {"is_disabled": 0, "rental_uris": {"android": "https://dc.lft.to/lastmile_qr_scan", "ios": "https://dc.lft.to/lastmile_qr_scan"}, "is_reserved": 0, "name": "20ba2c746054294ccba36bc929dc2ff3", "lon": -76.94786466666666, "type": "electric_scooter", "bike_id": "20ba2c746054294ccba36bc929dc2ff3", "fusion_lon": 0.0, "lat": 38.8846185, "fusion_lat": 0.0}, {"is_disabled": 0, "rental_uris": {"android": "https://dc.lft.to/lastmile_qr_scan", "ios": "https://dc.lft.to/lastmile_qr_scan"}, "is_reserved": 0, "name": "bc1ae995e616b4718def66ccb4c0ed6e", "lon": -76.9823425, "type": "electric_scooter", "bike_id": "bc1ae995e616b4718def66ccb4c0ed6e", "fusion_lon": 0.0, "lat": 38.86468933333333, "fusion_lat": 0.0}, {"is_disabled": 0, "rental_uris": {"android": "https://dc.lft.to/lastmile_qr_scan", "ios": "https://dc.lft.to/lastmile_qr_scan"}, "is_reserved": 0, "name": "e12127c8c8a611da2a009e3f8ff1950d", "lon": -77.00652116666667, "type": "electric_scooter", "bike_id": "e12127c8c8a611da2a009e3f8ff1950d", "fusion_lon": 0.0, "lat": 38.89991916666666, "fusion_lat": 0.0}, {"is_disabled": 0, "rental_uris": {"android": "https://dc.lft.to/lastmile_qr_scan", "ios": "https://dc.lft.to/lastmile_qr_scan"}, "is_reserved": 0, "name": "81ff347652fc24cf52c942f79ae84342", "lon": -77.02293766666666, "type": "electric_scooter", "bike_id": "81ff347652fc24cf52c942f79ae84342", "fusion_lon": 0.0, "lat": 38.91788966666667, "fusion_lat": 0.0}, {"is_disabled": 0, "rental_uris": {"android": "https://dc.lft.to/lastmile_qr_scan", "ios": "https://dc.lft.to/lastmile_qr_scan"}, "is_reserved": 0, "name": "a883c911d2a645215b20cc3e38512fe1", "lon": -76.94895733333334, "type": "electric_scooter", "bike_id": "a883c911d2a645215b20cc3e38512fe1", "fusion_lon": 0.0, "lat": 38.895278166666664, "fusion_lat": 0.0}, {"is_disabled": 0, "rental_uris": {"android": "https://dc.lft.to/lastmile_qr_scan", "ios": "https://dc.lft.to/lastmile_qr_scan"}, "is_reserved": 0, "name": "7b346b433179e6ef880bedce81629ae7", "lon": -77.043982, "type": "electric_scooter", "bike_id": "7b346b433179e6ef880bedce81629ae7", "fusion_lon": 0.0, "lat": 38.9058565, "fusion_lat": 0.0}, {"is_disabled": 0, "rental_uris": {"android": "https://dc.lft.to/lastmile_qr_scan", "ios": "https://dc.lft.to/lastmile_qr_scan"}, "is_reserved": 0, "name": "d2b3656e5e660b5d7d5cb6b6297d37b5", "lon": -77.07051116666666, "type": "electric_bike", "bike_id": "d2b3656e5e660b5d7d5cb6b6297d37b5", "fusion_lon": 0.0, "lat": 38.8244195, "fusion_lat": 0.0}, {"is_disabled": 0, "rental_uris": {"android": "https://dc.lft.to/lastmile_qr_scan", "ios": "https://dc.lft.to/lastmile_qr_scan"}, "is_reserved": 0, "name": "bca94f8f94d000c71c27266bbca33a06", "lon": -77.02842666666666, "type": "electric_scooter", "bike_id": "bca94f8f94d000c71c27266bbca33a06", "fusion_lon": 0.0, "lat": 38.904330333333334, "fusion_lat": 0.0}, {"is_disabled": 0, "rental_uris": {"android": "https://dc.lft.to/lastmile_qr_scan", "ios": "https://dc.lft.to/lastmile_qr_scan"}, "is_reserved": 0, "name": "4cfab6998c8435e731b3813bd2aadc55", "lon": -77.025848, "type": "electric_scooter", "bike_id": "4cfab6998c8435e731b3813bd2aadc55", "fusion_lon": 0.0, "lat": 38.88420466666667, "fusion_lat": 0.0}, {"is_disabled": 0, "rental_uris": {"android": "https://dc.lft.to/lastmile_qr_scan", "ios": "https://dc.lft.to/lastmile_qr_scan"}, "is_reserved": 0, "name": "d34b7a60afa5cef0afa9b53b709f93b5", "lon": -77.12823483333334, "type": "electric_bike", "bike_id": "d34b7a60afa5cef0afa9b53b709f93b5", "fusion_lon": 0.0, "lat": 38.8652755, "fusion_lat": 0.0}, {"is_disabled": 0, "rental_uris": {"android": "https://dc.lft.to/lastmile_qr_scan", "ios": "https://dc.lft.to/lastmile_qr_scan"}, "is_reserved": 0, "name": "99fdabbfcafd0ecb0285372fa5919d4b", "lon": -77.04513666666666, "type": "electric_scooter", "bike_id": "99fdabbfcafd0ecb0285372fa5919d4b", "fusion_lon": 0.0, "lat": 38.88606633333333, "fusion_lat": 0.0}, {"is_disabled": 0, "rental_uris": {"android": "https://dc.lft.to/lastmile_qr_scan", "ios": "https://dc.lft.to/lastmile_qr_scan"}, "is_reserved": 0, "name": "af631f1b2e5d9e18cd430f3b1ba569c6", "lon": -77.00567766666667, "type": "electric_scooter", "bike_id": "af631f1b2e5d9e18cd430f3b1ba569c6", "fusion_lon": 0.0, "lat": 38.905681, "fusion_lat": 0.0}, {"is_disabled": 0, "rental_uris": {"android": "https://dc.lft.to/lastmile_qr_scan", "ios": "https://dc.lft.to/lastmile_qr_scan"}, "is_reserved": 0, "name": "11e966915b2416a75dd7b29b2b99351c", "lon": -77.04156583333334, "type": "electric_scooter", "bike_id": "11e966915b2416a75dd7b29b2b99351c", "fusion_lon": 0.0, "lat": 38.91572516666667, "fusion_lat": 0.0}, {"is_disabled": 0, "rental_uris": {"android": "https://dc.lft.to/lastmile_qr_scan", "ios": "https://dc.lft.to/lastmile_qr_scan"}, "is_reserved": 0, "name": "618134659d74d514494471b75710c8b6", "lon": -77.01758483333333, "type": "electric_scooter", "bike_id": "618134659d74d514494471b75710c8b6", "fusion_lon": 0.0, "lat": 38.88336916666667, "fusion_lat": 0.0}, {"is_disabled": 0, "rental_uris": {"android": "https://dc.lft.to/lastmile_qr_scan", "ios": "https://dc.lft.to/lastmile_qr_scan"}, "is_reserved": 0, "name": "ae2d446943a35468f0b0b5453020660e", "lon": -77.03060583333334, "type": "electric_scooter", "bike_id": "ae2d446943a35468f0b0b5453020660e", "fusion_lon": 0.0, "lat": 38.92581633333333, "fusion_lat": 0.0}, {"is_disabled": 0, "rental_uris": {"android": "https://dc.lft.to/lastmile_qr_scan", "ios": "https://dc.lft.to/lastmile_qr_scan"}, "is_reserved": 0, "name": "a55b4e3c4bc08a22ab6d093d9b09e439", "lon": -76.98703333333333, "type": "electric_scooter", "bike_id": "a55b4e3c4bc08a22ab6d093d9b09e439", "fusion_lon": 0.0, "lat": 38.865368833333335, "fusion_lat": 0.0}, {"is_disabled": 0, "rental_uris": {"android": "https://dc.lft.to/lastmile_qr_scan", "ios": "https://dc.lft.to/lastmile_qr_scan"}, "is_reserved": 0, "name": "ecb8cf899d73748e2a138ced92d97210", "lon": -77.03581666666666, "type": "electric_scooter", "bike_id": "ecb8cf899d73748e2a138ced92d97210", "fusion_lon": 0.0, "lat": 38.907556666666665, "fusion_lat": 0.0}, {"is_disabled": 0, "rental_uris": {"android": "https://dc.lft.to/lastmile_qr_scan", "ios": "https://dc.lft.to/lastmile_qr_scan"}, "is_reserved": 0, "name": "2c908ba6adde2f088b512672865f163e", "lon": -76.98708766666667, "type": "electric_scooter", "bike_id": "2c908ba6adde2f088b512672865f163e", "fusion_lon": 0.0, "lat": 38.86699733333333, "fusion_lat": 0.0}, {"is_disabled": 0, "rental_uris": {"android": "https://dc.lft.to/lastmile_qr_scan", "ios": "https://dc.lft.to/lastmile_qr_scan"}, "is_reserved": 0, "name": "a194f66fa5e91ff3f5185a9b8a405501", "lon": -77.02958416666667, "type": "electric_scooter", "bike_id": "a194f66fa5e91ff3f5185a9b8a405501", "fusion_lon": 0.0, "lat": 38.89834183333333, "fusion_lat": 0.0}, {"is_disabled": 0, "rental_uris": {"android": "https://dc.lft.to/lastmile_qr_scan", "ios": "https://dc.lft.to/lastmile_qr_scan"}, "is_reserved": 0, "name": "7bf1d536e630a88ff238cea583906b3b", "lon": -76.931463, "type": "electric_scooter", "bike_id": "7bf1d536e630a88ff238cea583906b3b", "fusion_lon": 0.0, "lat": 38.8985165, "fusion_lat": 0.0}, {"is_disabled": 0, "rental_uris": {"android": "https://dc.lft.to/lastmile_qr_scan", "ios": "https://dc.lft.to/lastmile_qr_scan"}, "is_reserved": 0, "name": "0ea7b7c6119a9a610ba867a3d05b214e", "lon": -77.02211183333333, "type": "electric_scooter", "bike_id": "0ea7b7c6119a9a610ba867a3d05b214e", "fusion_lon": 0.0, "lat": 38.88740283333333, "fusion_lat": 0.0}, {"is_disabled": 0, "rental_uris": {"android": "https://dc.lft.to/lastmile_qr_scan", "ios": "https://dc.lft.to/lastmile_qr_scan"}, "is_reserved": 0, "name": "bb15de20c4e8879919424e3ae61b4465", "lon": -77.0250205, "type": "electric_scooter", "bike_id": "bb15de20c4e8879919424e3ae61b4465", "fusion_lon": 0.0, "lat": 38.93893333333333, "fusion_lat": 0.0}, {"is_disabled": 0, "rental_uris": {"android": "https://dc.lft.to/lastmile_qr_scan", "ios": "https://dc.lft.to/lastmile_qr_scan"}, "is_reserved": 0, "name": "74d8c0d40b0b53cf457726ff769e4394", "lon": -77.02223333333333, "type": "electric_scooter", "bike_id": "74d8c0d40b0b53cf457726ff769e4394", "fusion_lon": 0.0, "lat": 38.916444, "fusion_lat": 0.0}, {"is_disabled": 0, "rental_uris": {"android": "https://dc.lft.to/lastmile_qr_scan", "ios": "https://dc.lft.to/lastmile_qr_scan"}, "is_reserved": 0, "name": "b0855a10f45d7876144fb1929274f2a0", "lon": -77.04118183333334, "type": "electric_scooter", "bike_id": "b0855a10f45d7876144fb1929274f2a0", "fusion_lon": 0.0, "lat": 38.9224475, "fusion_lat": 0.0}, {"is_disabled": 0, "rental_uris": {"android": "https://dc.lft.to/lastmile_qr_scan", "ios": "https://dc.lft.to/lastmile_qr_scan"}, "is_reserved": 0, "name": "f005055d7120578fcb6998ba6f0233ac", "lon": -76.98722883333333, "type": "electric_scooter", "bike_id": "f005055d7120578fcb6998ba6f0233ac", "fusion_lon": 0.0, "lat": 38.8670925, "fusion_lat": 0.0}, {"is_disabled": 0, "rental_uris": {"android": "https://dc.lft.to/lastmile_qr_scan", "ios": "https://dc.lft.to/lastmile_qr_scan"}, "is_reserved": 0, "name": "198e32acaca842226229af35f7929dff", "lon": -76.98354016666667, "type": "electric_scooter", "bike_id": "198e32acaca842226229af35f7929dff", "fusion_lon": 0.0, "lat": 38.891712166666665, "fusion_lat": 0.0}, {"is_disabled": 0, "rental_uris": {"android": "https://dc.lft.to/lastmile_qr_scan", "ios": "https://dc.lft.to/lastmile_qr_scan"}, "is_reserved": 0, "name": "c3a1781fe50a728278ede6a3951b5e22", "lon": -77.031628, "type": "electric_scooter", "bike_id": "c3a1781fe50a728278ede6a3951b5e22", "fusion_lon": 0.0, "lat": 38.903136, "fusion_lat": 0.0}, {"is_disabled": 0, "rental_uris": {"android": "https://dc.lft.to/lastmile_qr_scan", "ios": "https://dc.lft.to/lastmile_qr_scan"}, "is_reserved": 0, "name": "6f1d15a9c0a83b8ff0fd3e84fd84e923", "lon": -77.03996666666667, "type": "electric_scooter", "bike_id": "6f1d15a9c0a83b8ff0fd3e84fd84e923", "fusion_lon": 0.0, "lat": 38.91811916666666, "fusion_lat": 0.0}, {"is_disabled": 0, "rental_uris": {"android": "https://dc.lft.to/lastmile_qr_scan", "ios": "https://dc.lft.to/lastmile_qr_scan"}, "is_reserved": 0, "name": "60b1c2b765d22295328cc005cebd454f", "lon": -77.066493, "type": "electric_scooter", "bike_id": "60b1c2b765d22295328cc005cebd454f", "fusion_lon": 0.0, "lat": 38.949713, "fusion_lat": 0.0}, {"is_disabled": 0, "rental_uris": {"android": "https://dc.lft.to/lastmile_qr_scan", "ios": "https://dc.lft.to/lastmile_qr_scan"}, "is_reserved": 0, "name": "8746f845e10469c90af15de66393e778", "lon": -77.0365775, "type": "electric_scooter", "bike_id": "8746f845e10469c90af15de66393e778", "fusion_lon": 0.0, "lat": 38.935848666666665, "fusion_lat": 0.0}, {"is_disabled": 0, "rental_uris": {"android": "https://dc.lft.to/lastmile_qr_scan", "ios": "https://dc.lft.to/lastmile_qr_scan"}, "is_reserved": 0, "name": "7ee151df1b4a807eccde1c0950674a88", "lon": -77.040444, "type": "electric_scooter", "bike_id": "7ee151df1b4a807eccde1c0950674a88", "fusion_lon": 0.0, "lat": 38.90967216666667, "fusion_lat": 0.0}, {"is_disabled": 0, "rental_uris": {"android": "https://dc.lft.to/lastmile_qr_scan", "ios": "https://dc.lft.to/lastmile_qr_scan"}, "is_reserved": 0, "name": "62d0f0681a37f546975dffc7987bee62", "lon": -77.04173616666667, "type": "electric_scooter", "bike_id": "62d0f0681a37f546975dffc7987bee62", "fusion_lon": 0.0, "lat": 38.916265333333335, "fusion_lat": 0.0}, {"is_disabled": 0, "rental_uris": {"android": "https://dc.lft.to/lastmile_qr_scan", "ios": "https://dc.lft.to/lastmile_qr_scan"}, "is_reserved": 0, "name": "e7c699a37b809ee7124cccf966db92df", "lon": -76.99034216666666, "type": "electric_scooter", "bike_id": "e7c699a37b809ee7124cccf966db92df", "fusion_lon": 0.0, "lat": 38.89879233333333, "fusion_lat": 0.0}, {"is_disabled": 0, "rental_uris": {"android": "https://dc.lft.to/lastmile_qr_scan", "ios": "https://dc.lft.to/lastmile_qr_scan"}, "is_reserved": 0, "name": "7febf0c3be957a7fde3062d3172eba96", "lon": -77.03851933333333, "type": "electric_scooter", "bike_id": "7febf0c3be957a7fde3062d3172eba96", "fusion_lon": 0.0, "lat": 38.92649316666667, "fusion_lat": 0.0}, {"is_disabled": 0, "rental_uris": {"android": "https://dc.lft.to/lastmile_qr_scan", "ios": "https://dc.lft.to/lastmile_qr_scan"}, "is_reserved": 0, "name": "6eb0dc647bcba3f4a162d421dc0ef1e1", "lon": -77.08437933333333, "type": "electric_bike", "bike_id": "6eb0dc647bcba3f4a162d421dc0ef1e1", "fusion_lon": 0.0, "lat": 38.81028283333333, "fusion_lat": 0.0}, {"is_disabled": 0, "rental_uris": {"android": "https://dc.lft.to/lastmile_qr_scan", "ios": "https://dc.lft.to/lastmile_qr_scan"}, "is_reserved": 0, "name": "5822550ae7292820efc6ea35cb5cd46e", "lon": -77.05510633333333, "type": "electric_scooter", "bike_id": "5822550ae7292820efc6ea35cb5cd46e", "fusion_lon": 0.0, "lat": 38.89994983333333, "fusion_lat": 0.0}, {"is_disabled": 0, "rental_uris": {"android": "https://dc.lft.to/lastmile_qr_scan", "ios": "https://dc.lft.to/lastmile_qr_scan"}, "is_reserved": 0, "name": "82104426462f7f5248f74a72d1174384", "lon": -77.003303, "type": "electric_scooter", "bike_id": "82104426462f7f5248f74a72d1174384", "fusion_lon": 0.0, "lat": 38.88985183333333, "fusion_lat": 0.0}, {"is_disabled": 0, "rental_uris": {"android": "https://dc.lft.to/lastmile_qr_scan", "ios": "https://dc.lft.to/lastmile_qr_scan"}, "is_reserved": 0, "name": "0a63da083156e2747e30662ad3871d68", "lon": -76.9750155, "type": "electric_bike", "bike_id": "0a63da083156e2747e30662ad3871d68", "fusion_lon": 0.0, "lat": 38.91938116666667, "fusion_lat": 0.0}, {"is_disabled": 0, "rental_uris": {"android": "https://dc.lft.to/lastmile_qr_scan", "ios": "https://dc.lft.to/lastmile_qr_scan"}, "is_reserved": 0, "name": "4057aaf0284cd898ba6acf3ecbc8afdc", "lon": -77.00944466666667, "type": "electric_scooter", "bike_id": "4057aaf0284cd898ba6acf3ecbc8afdc", "fusion_lon": 0.0, "lat": 38.89497466666667, "fusion_lat": 0.0}, {"is_disabled": 0, "rental_uris": {"android": "https://dc.lft.to/lastmile_qr_scan", "ios": "https://dc.lft.to/lastmile_qr_scan"}, "is_reserved": 0, "name": "9c4d94f2d0ed5b2bd3aaff0cb52a55a8", "lon": -77.04278066666667, "type": "electric_scooter", "bike_id": "9c4d94f2d0ed5b2bd3aaff0cb52a55a8", "fusion_lon": 0.0, "lat": 38.91714533333333, "fusion_lat": 0.0}, {"is_disabled": 0, "rental_uris": {"android": "https://dc.lft.to/lastmile_qr_scan", "ios": "https://dc.lft.to/lastmile_qr_scan"}, "is_reserved": 0, "name": "56d32ff0eb67980d557eb8203a3031f5", "lon": -76.94827683333334, "type": "electric_scooter", "bike_id": "56d32ff0eb67980d557eb8203a3031f5", "fusion_lon": 0.0, "lat": 38.885181, "fusion_lat": 0.0}, {"is_disabled": 0, "rental_uris": {"android": "https://dc.lft.to/lastmile_qr_scan", "ios": "https://dc.lft.to/lastmile_qr_scan"}, "is_reserved": 0, "name": "d89981d3f5120e33ab3f1ea7cf8270fc", "lon": -76.97906116666667, "type": "electric_scooter", "bike_id": "d89981d3f5120e33ab3f1ea7cf8270fc", "fusion_lon": 0.0, "lat": 38.90426083333333, "fusion_lat": 0.0}, {"is_disabled": 0, "rental_uris": {"android": "https://dc.lft.to/lastmile_qr_scan", "ios": "https://dc.lft.to/lastmile_qr_scan"}, "is_reserved": 0, "name": "e3d91fff12eaa34adc7babee88c7bc70", "lon": -77.02761866666667, "type": "electric_scooter", "bike_id": "e3d91fff12eaa34adc7babee88c7bc70", "fusion_lon": 0.0, "lat": 38.94305816666667, "fusion_lat": 0.0}, {"is_disabled": 0, "rental_uris": {"android": "https://dc.lft.to/lastmile_qr_scan", "ios": "https://dc.lft.to/lastmile_qr_scan"}, "is_reserved": 0, "name": "d49eaa3c400b72f4c6329095dba2693c", "lon": -77.02335333333333, "type": "electric_scooter", "bike_id": "d49eaa3c400b72f4c6329095dba2693c", "fusion_lon": 0.0, "lat": 38.9223285, "fusion_lat": 0.0}, {"is_disabled": 0, "rental_uris": {"android": "https://dc.lft.to/lastmile_qr_scan", "ios": "https://dc.lft.to/lastmile_qr_scan"}, "is_reserved": 0, "name": "cc196a290a2a8587f61742be8b849c2e", "lon": -77.0375055, "type": "electric_scooter", "bike_id": "cc196a290a2a8587f61742be8b849c2e", "fusion_lon": 0.0, "lat": 38.906881, "fusion_lat": 0.0}, {"is_disabled": 0, "rental_uris": {"android": "https://dc.lft.to/lastmile_qr_scan", "ios": "https://dc.lft.to/lastmile_qr_scan"}, "is_reserved": 0, "name": "af72477469a2a01cb65f083032fb4bad", "lon": -77.00223583333333, "type": "electric_scooter", "bike_id": "af72477469a2a01cb65f083032fb4bad", "fusion_lon": 0.0, "lat": 38.91339883333333, "fusion_lat": 0.0}, {"is_disabled": 0, "rental_uris": {"android": "https://dc.lft.to/lastmile_qr_scan", "ios": "https://dc.lft.to/lastmile_qr_scan"}, "is_reserved": 0, "name": "1869d745a0fbf1bca078b23dbd570866", "lon": -77.01782066666667, "type": "electric_scooter", "bike_id": "1869d745a0fbf1bca078b23dbd570866", "fusion_lon": 0.0, "lat": 38.921216333333334, "fusion_lat": 0.0}, {"is_disabled": 0, "rental_uris": {"android": "https://dc.lft.to/lastmile_qr_scan", "ios": "https://dc.lft.to/lastmile_qr_scan"}, "is_reserved": 0, "name": "7f7cc5398e6b701d40afa7a56885ae4b", "lon": -77.02685633333333, "type": "electric_scooter", "bike_id": "7f7cc5398e6b701d40afa7a56885ae4b", "fusion_lon": 0.0, "lat": 38.908736, "fusion_lat": 0.0}, {"is_disabled": 0, "rental_uris": {"android": "https://dc.lft.to/lastmile_qr_scan", "ios": "https://dc.lft.to/lastmile_qr_scan"}, "is_reserved": 0, "name": "9c06e2774424f85b0592ed137e779174", "lon": -77.04159, "type": "electric_scooter", "bike_id": "9c06e2774424f85b0592ed137e779174", "fusion_lon": 0.0, "lat": 38.913082333333335, "fusion_lat": 0.0}, {"is_disabled": 0, "rental_uris": {"android": "https://dc.lft.to/lastmile_qr_scan", "ios": "https://dc.lft.to/lastmile_qr_scan"}, "is_reserved": 0, "name": "096f7f247b39308869f689729114a981", "lon": -76.97453, "type": "electric_scooter", "bike_id": "096f7f247b39308869f689729114a981", "fusion_lon": 0.0, "lat": 38.864998, "fusion_lat": 0.0}, {"is_disabled": 0, "rental_uris": {"android": "https://dc.lft.to/lastmile_qr_scan", "ios": "https://dc.lft.to/lastmile_qr_scan"}, "is_reserved": 0, "name": "2963c9aaf6c0209113e0de8c56527b9f", "lon": -77.028745, "type": "electric_bike", "bike_id": "2963c9aaf6c0209113e0de8c56527b9f", "fusion_lon": 0.0, "lat": 38.999051333333334, "fusion_lat": 0.0}, {"is_disabled": 0, "rental_uris": {"android": "https://dc.lft.to/lastmile_qr_scan", "ios": "https://dc.lft.to/lastmile_qr_scan"}, "is_reserved": 0, "name": "b598264aa7676b84b69fe96a435a4861", "lon": -77.06755783333334, "type": "electric_scooter", "bike_id": "b598264aa7676b84b69fe96a435a4861", "fusion_lon": 0.0, "lat": 38.949818666666665, "fusion_lat": 0.0}, {"is_disabled": 0, "rental_uris": {"android": "https://dc.lft.to/lastmile_qr_scan", "ios": "https://dc.lft.to/lastmile_qr_scan"}, "is_reserved": 0, "name": "eb0effc315abf2182a1b4dc6e7e043ee", "lon": -77.082002, "type": "electric_bike", "bike_id": "eb0effc315abf2182a1b4dc6e7e043ee", "fusion_lon": 0.0, "lat": 38.92199883333333, "fusion_lat": 0.0}, {"is_disabled": 0, "rental_uris": {"android": "https://dc.lft.to/lastmile_qr_scan", "ios": "https://dc.lft.to/lastmile_qr_scan"}, "is_reserved": 0, "name": "3b325e58d55fef6ff7f71004a300dfee", "lon": -76.97218383333333, "type": "electric_bike", "bike_id": "3b325e58d55fef6ff7f71004a300dfee", "fusion_lon": 0.0, "lat": 38.8448195, "fusion_lat": 0.0}, {"is_disabled": 0, "rental_uris": {"android": "https://dc.lft.to/lastmile_qr_scan", "ios": "https://dc.lft.to/lastmile_qr_scan"}, "is_reserved": 0, "name": "eb4a36a6d4ac0c518c0e0e16ce452ce0", "lon": -77.0473015, "type": "electric_scooter", "bike_id": "eb4a36a6d4ac0c518c0e0e16ce452ce0", "fusion_lon": 0.0, "lat": 38.8983945, "fusion_lat": 0.0}, {"is_disabled": 0, "rental_uris": {"android": "https://dc.lft.to/lastmile_qr_scan", "ios": "https://dc.lft.to/lastmile_qr_scan"}, "is_reserved": 0, "name": "1e3c0b81e8d81bd0ecebd7f0d21ecaae", "lon": -77.02225216666666, "type": "electric_scooter", "bike_id": "1e3c0b81e8d81bd0ecebd7f0d21ecaae", "fusion_lon": 0.0, "lat": 38.915689, "fusion_lat": 0.0}, {"is_disabled": 0, "rental_uris": {"android": "https://dc.lft.to/lastmile_qr_scan", "ios": "https://dc.lft.to/lastmile_qr_scan"}, "is_reserved": 0, "name": "757c0bcab8078c16e899867eac03f519", "lon": -77.0475415, "type": "electric_scooter", "bike_id": "757c0bcab8078c16e899867eac03f519", "fusion_lon": 0.0, "lat": 38.90867266666667, "fusion_lat": 0.0}, {"is_disabled": 0, "rental_uris": {"android": "https://dc.lft.to/lastmile_qr_scan", "ios": "https://dc.lft.to/lastmile_qr_scan"}, "is_reserved": 0, "name": "08483d767868b00770e24bd1ba7da893", "lon": -77.02432466666667, "type": "electric_scooter", "bike_id": "08483d767868b00770e24bd1ba7da893", "fusion_lon": 0.0, "lat": 38.92148, "fusion_lat": 0.0}, {"is_disabled": 0, "rental_uris": {"android": "https://dc.lft.to/lastmile_qr_scan", "ios": "https://dc.lft.to/lastmile_qr_scan"}, "is_reserved": 0, "name": "8a872dc1cb98bfc25558ac5cab0a5ea3", "lon": -77.014054, "type": "electric_scooter", "bike_id": "8a872dc1cb98bfc25558ac5cab0a5ea3", "fusion_lon": 0.0, "lat": 38.876572, "fusion_lat": 0.0}, {"is_disabled": 0, "rental_uris": {"android": "https://dc.lft.to/lastmile_qr_scan", "ios": "https://dc.lft.to/lastmile_qr_scan"}, "is_reserved": 0, "name": "d2440312dda3a09d1f644712fef50822", "lon": -76.99873916666667, "type": "electric_scooter", "bike_id": "d2440312dda3a09d1f644712fef50822", "fusion_lon": 0.0, "lat": 38.889743333333335, "fusion_lat": 0.0}, {"is_disabled": 0, "rental_uris": {"android": "https://dc.lft.to/lastmile_qr_scan", "ios": "https://dc.lft.to/lastmile_qr_scan"}, "is_reserved": 0, "name": "af8ed57688a5be323689de3286a9af9a", "lon": -76.9837925, "type": "electric_scooter", "bike_id": "af8ed57688a5be323689de3286a9af9a", "fusion_lon": 0.0, "lat": 38.906512, "fusion_lat": 0.0}, {"is_disabled": 0, "rental_uris": {"android": "https://dc.lft.to/lastmile_qr_scan", "ios": "https://dc.lft.to/lastmile_qr_scan"}, "is_reserved": 0, "name": "d87a770f8a4d1f0c4acb1ff101424f3e", "lon": -77.04267116666666, "type": "electric_scooter", "bike_id": "d87a770f8a4d1f0c4acb1ff101424f3e", "fusion_lon": 0.0, "lat": 38.934132, "fusion_lat": 0.0}, {"is_disabled": 0, "rental_uris": {"android": "https://dc.lft.to/lastmile_qr_scan", "ios": "https://dc.lft.to/lastmile_qr_scan"}, "is_reserved": 0, "name": "a7fff71a467790ea84bd87685359d403", "lon": -76.95022933333334, "type": "electric_scooter", "bike_id": "a7fff71a467790ea84bd87685359d403", "fusion_lon": 0.0, "lat": 38.883899666666665, "fusion_lat": 0.0}, {"is_disabled": 0, "rental_uris": {"android": "https://dc.lft.to/lastmile_qr_scan", "ios": "https://dc.lft.to/lastmile_qr_scan"}, "is_reserved": 0, "name": "8731bf7c16e7df03e0e55783edfdbd2a", "lon": -76.95199283333334, "type": "electric_bike", "bike_id": "8731bf7c16e7df03e0e55783edfdbd2a", "fusion_lon": 0.0, "lat": 38.906910333333336, "fusion_lat": 0.0}, {"is_disabled": 0, "rental_uris": {"android": "https://dc.lft.to/lastmile_qr_scan", "ios": "https://dc.lft.to/lastmile_qr_scan"}, "is_reserved": 0, "name": "692619726bc7acc1a722adbada2687e1", "lon": -77.02443383333333, "type": "electric_scooter", "bike_id": "692619726bc7acc1a722adbada2687e1", "fusion_lon": 0.0, "lat": 38.937125, "fusion_lat": 0.0}, {"is_disabled": 0, "rental_uris": {"android": "https://dc.lft.to/lastmile_qr_scan", "ios": "https://dc.lft.to/lastmile_qr_scan"}, "is_reserved": 0, "name": "989b5f7675de3fd5e824152345479cb1", "lon": -77.0020035, "type": "electric_scooter", "bike_id": "989b5f7675de3fd5e824152345479cb1", "fusion_lon": 0.0, "lat": 38.90235283333333, "fusion_lat": 0.0}, {"is_disabled": 0, "rental_uris": {"android": "https://dc.lft.to/lastmile_qr_scan", "ios": "https://dc.lft.to/lastmile_qr_scan"}, "is_reserved": 0, "name": "0e19a8331efd05779fbb725123e844e5", "lon": -77.0122345, "type": "electric_scooter", "bike_id": "0e19a8331efd05779fbb725123e844e5", "fusion_lon": 0.0, "lat": 38.915004, "fusion_lat": 0.0}, {"is_disabled": 0, "rental_uris": {"android": "https://dc.lft.to/lastmile_qr_scan", "ios": "https://dc.lft.to/lastmile_qr_scan"}, "is_reserved": 0, "name": "8d9d61af5b48f190a327e07ef8378eb3", "lon": -77.04178366666666, "type": "electric_scooter", "bike_id": "8d9d61af5b48f190a327e07ef8378eb3", "fusion_lon": 0.0, "lat": 38.91553416666667, "fusion_lat": 0.0}, {"is_disabled": 0, "rental_uris": {"android": "https://dc.lft.to/lastmile_qr_scan", "ios": "https://dc.lft.to/lastmile_qr_scan"}, "is_reserved": 0, "name": "fa91944c91b3b71632569901f5ba81b8", "lon": -77.0676735, "type": "electric_scooter", "bike_id": "fa91944c91b3b71632569901f5ba81b8", "fusion_lon": 0.0, "lat": 38.905045666666666, "fusion_lat": 0.0}, {"is_disabled": 0, "rental_uris": {"android": "https://dc.lft.to/lastmile_qr_scan", "ios": "https://dc.lft.to/lastmile_qr_scan"}, "is_reserved": 0, "name": "a444a48c822ce7d1dfdbacfecef45075", "lon": -77.03294716666667, "type": "electric_scooter", "bike_id": "a444a48c822ce7d1dfdbacfecef45075", "fusion_lon": 0.0, "lat": 38.9084915, "fusion_lat": 0.0}, {"is_disabled": 0, "rental_uris": {"android": "https://dc.lft.to/lastmile_qr_scan", "ios": "https://dc.lft.to/lastmile_qr_scan"}, "is_reserved": 0, "name": "020065d616506ebd2ecebaba0f75ec68", "lon": -77.03262033333333, "type": "electric_scooter", "bike_id": "020065d616506ebd2ecebaba0f75ec68", "fusion_lon": 0.0, "lat": 38.93262266666667, "fusion_lat": 0.0}, {"is_disabled": 0, "rental_uris": {"android": "https://dc.lft.to/lastmile_qr_scan", "ios": "https://dc.lft.to/lastmile_qr_scan"}, "is_reserved": 0, "name": "9c9c41fef4439734b9fd5619e0f6d034", "lon": -77.0362265, "type": "electric_scooter", "bike_id": "9c9c41fef4439734b9fd5619e0f6d034", "fusion_lon": 0.0, "lat": 38.91694116666667, "fusion_lat": 0.0}, {"is_disabled": 0, "rental_uris": {"android": "https://dc.lft.to/lastmile_qr_scan", "ios": "https://dc.lft.to/lastmile_qr_scan"}, "is_reserved": 0, "name": "5acabeab7f8db8ae477c241600b209f7", "lon": -77.0278705, "type": "electric_scooter", "bike_id": "5acabeab7f8db8ae477c241600b209f7", "fusion_lon": 0.0, "lat": 38.961316333333336, "fusion_lat": 0.0}, {"is_disabled": 0, "rental_uris": {"android": "https://dc.lft.to/lastmile_qr_scan", "ios": "https://dc.lft.to/lastmile_qr_scan"}, "is_reserved": 0, "name": "2c7ef328a849a90ee74054552a3c17ca", "lon": -77.0287995, "type": "electric_scooter", "bike_id": "2c7ef328a849a90ee74054552a3c17ca", "fusion_lon": 0.0, "lat": 38.90240983333333, "fusion_lat": 0.0}, {"is_disabled": 0, "rental_uris": {"android": "https://dc.lft.to/lastmile_qr_scan", "ios": "https://dc.lft.to/lastmile_qr_scan"}, "is_reserved": 0, "name": "d59377427b05fd40b008ddf869ce59b7", "lon": -77.02225066666666, "type": "electric_scooter", "bike_id": "d59377427b05fd40b008ddf869ce59b7", "fusion_lon": 0.0, "lat": 38.91414833333333, "fusion_lat": 0.0}, {"is_disabled": 0, "rental_uris": {"android": "https://dc.lft.to/lastmile_qr_scan", "ios": "https://dc.lft.to/lastmile_qr_scan"}, "is_reserved": 0, "name": "c3b8bc59c4a1997c833585d9f240afbe", "lon": -77.0318785, "type": "electric_scooter", "bike_id": "c3b8bc59c4a1997c833585d9f240afbe", "fusion_lon": 0.0, "lat": 38.93067216666667, "fusion_lat": 0.0}, {"is_disabled": 0, "rental_uris": {"android": "https://dc.lft.to/lastmile_qr_scan", "ios": "https://dc.lft.to/lastmile_qr_scan"}, "is_reserved": 0, "name": "ad8fb1715553272b21d4c2fe1a98f174", "lon": -77.00719533333333, "type": "electric_scooter", "bike_id": "ad8fb1715553272b21d4c2fe1a98f174", "fusion_lon": 0.0, "lat": 38.905803166666665, "fusion_lat": 0.0}, {"is_disabled": 0, "rental_uris": {"android": "https://dc.lft.to/lastmile_qr_scan", "ios": "https://dc.lft.to/lastmile_qr_scan"}, "is_reserved": 0, "name": "065d21d2a08f74e8741639ba1327f116", "lon": -77.04462483333333, "type": "electric_scooter", "bike_id": "065d21d2a08f74e8741639ba1327f116", "fusion_lon": 0.0, "lat": 38.914166333333334, "fusion_lat": 0.0}, {"is_disabled": 0, "rental_uris": {"android": "https://dc.lft.to/lastmile_qr_scan", "ios": "https://dc.lft.to/lastmile_qr_scan"}, "is_reserved": 0, "name": "977e0a8e797b5ebaa069cd6132de831a", "lon": -76.999087, "type": "electric_scooter", "bike_id": "977e0a8e797b5ebaa069cd6132de831a", "fusion_lon": 0.0, "lat": 38.9245945, "fusion_lat": 0.0}, {"is_disabled": 0, "rental_uris": {"android": "https://dc.lft.to/lastmile_qr_scan", "ios": "https://dc.lft.to/lastmile_qr_scan"}, "is_reserved": 0, "name": "a2de60253ee55c6731e82b3d91a1c2ae", "lon": -77.01985266666667, "type": "electric_scooter", "bike_id": "a2de60253ee55c6731e82b3d91a1c2ae", "fusion_lon": 0.0, "lat": 38.895077, "fusion_lat": 0.0}, {"is_disabled": 0, "rental_uris": {"android": "https://dc.lft.to/lastmile_qr_scan", "ios": "https://dc.lft.to/lastmile_qr_scan"}, "is_reserved": 0, "name": "cb85c7b21322bd3237187e2d43a42285", "lon": -77.038153, "type": "electric_scooter", "bike_id": "cb85c7b21322bd3237187e2d43a42285", "fusion_lon": 0.0, "lat": 38.9098095, "fusion_lat": 0.0}, {"is_disabled": 0, "rental_uris": {"android": "https://dc.lft.to/lastmile_qr_scan", "ios": "https://dc.lft.to/lastmile_qr_scan"}, "is_reserved": 0, "name": "746f9e62df006725cbbf8b15f7db5a84", "lon": -76.94883283333333, "type": "electric_scooter", "bike_id": "746f9e62df006725cbbf8b15f7db5a84", "fusion_lon": 0.0, "lat": 38.895086666666664, "fusion_lat": 0.0}, {"is_disabled": 0, "rental_uris": {"android": "https://dc.lft.to/lastmile_qr_scan", "ios": "https://dc.lft.to/lastmile_qr_scan"}, "is_reserved": 0, "name": "36f58c1a5a5a60b1877377967b5320ad", "lon": -76.98615283333334, "type": "electric_scooter", "bike_id": "36f58c1a5a5a60b1877377967b5320ad", "fusion_lon": 0.0, "lat": 38.882931666666664, "fusion_lat": 0.0}, {"is_disabled": 0, "rental_uris": {"android": "https://dc.lft.to/lastmile_qr_scan", "ios": "https://dc.lft.to/lastmile_qr_scan"}, "is_reserved": 0, "name": "a0824de82931b59d63d3787dd79d8cb0", "lon": -77.03467733333333, "type": "electric_scooter", "bike_id": "a0824de82931b59d63d3787dd79d8cb0", "fusion_lon": 0.0, "lat": 38.92153916666667, "fusion_lat": 0.0}, {"is_disabled": 0, "rental_uris": {"android": "https://dc.lft.to/lastmile_qr_scan", "ios": "https://dc.lft.to/lastmile_qr_scan"}, "is_reserved": 0, "name": "37ee4b4ebf3633feba057aaf41456a4c", "lon": -77.03272183333333, "type": "electric_scooter", "bike_id": "37ee4b4ebf3633feba057aaf41456a4c", "fusion_lon": 0.0, "lat": 38.9071765, "fusion_lat": 0.0}, {"is_disabled": 0, "rental_uris": {"android": "https://dc.lft.to/lastmile_qr_scan", "ios": "https://dc.lft.to/lastmile_qr_scan"}, "is_reserved": 0, "name": "e1a8dbf27f2bcbb740f22f34d3923e9c", "lon": -77.002022, "type": "electric_scooter", "bike_id": "e1a8dbf27f2bcbb740f22f34d3923e9c", "fusion_lon": 0.0, "lat": 38.90240983333333, "fusion_lat": 0.0}, {"is_disabled": 0, "rental_uris": {"android": "https://dc.lft.to/lastmile_qr_scan", "ios": "https://dc.lft.to/lastmile_qr_scan"}, "is_reserved": 0, "name": "22b39b3af58e87486db46d2ac479d17d", "lon": -77.021617, "type": "electric_scooter", "bike_id": "22b39b3af58e87486db46d2ac479d17d", "fusion_lon": 0.0, "lat": 38.92613383333333, "fusion_lat": 0.0}, {"is_disabled": 0, "rental_uris": {"android": "https://dc.lft.to/lastmile_qr_scan", "ios": "https://dc.lft.to/lastmile_qr_scan"}, "is_reserved": 0, "name": "bffd175d6ef25033c8bc7319a7a65142", "lon": -77.04997683333333, "type": "electric_scooter", "bike_id": "bffd175d6ef25033c8bc7319a7a65142", "fusion_lon": 0.0, "lat": 38.89231183333333, "fusion_lat": 0.0}, {"is_disabled": 0, "rental_uris": {"android": "https://dc.lft.to/lastmile_qr_scan", "ios": "https://dc.lft.to/lastmile_qr_scan"}, "is_reserved": 0, "name": "aaa12ea17e74f154e1cb3bb50ef1c65e", "lon": -77.12743533333334, "type": "electric_bike", "bike_id": "aaa12ea17e74f154e1cb3bb50ef1c65e", "fusion_lon": 0.0, "lat": 38.8882605, "fusion_lat": 0.0}, {"is_disabled": 0, "rental_uris": {"android": "https://dc.lft.to/lastmile_qr_scan", "ios": "https://dc.lft.to/lastmile_qr_scan"}, "is_reserved": 0, "name": "a047a4484b1ce5b766c75f93277ae99f", "lon": -77.06887533333334, "type": "electric_scooter", "bike_id": "a047a4484b1ce5b766c75f93277ae99f", "fusion_lon": 0.0, "lat": 38.907858, "fusion_lat": 0.0}, {"is_disabled": 0, "rental_uris": {"android": "https://dc.lft.to/lastmile_qr_scan", "ios": "https://dc.lft.to/lastmile_qr_scan"}, "is_reserved": 0, "name": "0a4d4815333324d150d28500462d6924", "lon": -76.986129, "type": "electric_scooter", "bike_id": "0a4d4815333324d150d28500462d6924", "fusion_lon": 0.0, "lat": 38.90347916666666, "fusion_lat": 0.0}, {"is_disabled": 0, "rental_uris": {"android": "https://dc.lft.to/lastmile_qr_scan", "ios": "https://dc.lft.to/lastmile_qr_scan"}, "is_reserved": 0, "name": "b61772a7b20518f3f119861975e0fe99", "lon": -77.03716933333334, "type": "electric_scooter", "bike_id": "b61772a7b20518f3f119861975e0fe99", "fusion_lon": 0.0, "lat": 38.911246166666665, "fusion_lat": 0.0}, {"is_disabled": 0, "rental_uris": {"android": "https://dc.lft.to/lastmile_qr_scan", "ios": "https://dc.lft.to/lastmile_qr_scan"}, "is_reserved": 0, "name": "b2be735f5e75bc0436ed3df2be5ed494", "lon": -77.0218845, "type": "electric_scooter", "bike_id": "b2be735f5e75bc0436ed3df2be5ed494", "fusion_lon": 0.0, "lat": 38.89514066666667, "fusion_lat": 0.0}, {"is_disabled": 0, "rental_uris": {"android": "https://dc.lft.to/lastmile_qr_scan", "ios": "https://dc.lft.to/lastmile_qr_scan"}, "is_reserved": 0, "name": "d00299ba4c8012eda52814f174dd1d80", "lon": -77.04333233333334, "type": "electric_scooter", "bike_id": "d00299ba4c8012eda52814f174dd1d80", "fusion_lon": 0.0, "lat": 38.921656166666665, "fusion_lat": 0.0}, {"is_disabled": 0, "rental_uris": {"android": "https://dc.lft.to/lastmile_qr_scan", "ios": "https://dc.lft.to/lastmile_qr_scan"}, "is_reserved": 0, "name": "d1aca0b193eda92495be531a26a5cd7e", "lon": -76.99487783333333, "type": "electric_scooter", "bike_id": "d1aca0b193eda92495be531a26a5cd7e", "fusion_lon": 0.0, "lat": 38.862361, "fusion_lat": 0.0}, {"is_disabled": 0, "rental_uris": {"android": "https://dc.lft.to/lastmile_qr_scan", "ios": "https://dc.lft.to/lastmile_qr_scan"}, "is_reserved": 0, "name": "aac4c0d927c852a75951812be6954bc1", "lon": -77.03174083333333, "type": "electric_scooter", "bike_id": "aac4c0d927c852a75951812be6954bc1", "fusion_lon": 0.0, "lat": 38.89189433333333, "fusion_lat": 0.0}, {"is_disabled": 0, "rental_uris": {"android": "https://dc.lft.to/lastmile_qr_scan", "ios": "https://dc.lft.to/lastmile_qr_scan"}, "is_reserved": 0, "name": "65ef63d87db632eb4977953320655605", "lon": -77.027808, "type": "electric_scooter", "bike_id": "65ef63d87db632eb4977953320655605", "fusion_lon": 0.0, "lat": 38.91022483333333, "fusion_lat": 0.0}, {"is_disabled": 0, "rental_uris": {"android": "https://dc.lft.to/lastmile_qr_scan", "ios": "https://dc.lft.to/lastmile_qr_scan"}, "is_reserved": 0, "name": "a2db5ad748445e32eed96006c7b7bfc5", "lon": -77.03662616666666, "type": "electric_scooter", "bike_id": "a2db5ad748445e32eed96006c7b7bfc5", "fusion_lon": 0.0, "lat": 38.92259516666667, "fusion_lat": 0.0}, {"is_disabled": 0, "rental_uris": {"android": "https://dc.lft.to/lastmile_qr_scan", "ios": "https://dc.lft.to/lastmile_qr_scan"}, "is_reserved": 0, "name": "891c19bd12a08012aeb2315d36322c95", "lon": -77.07898766666666, "type": "electric_bike", "bike_id": "891c19bd12a08012aeb2315d36322c95", "fusion_lon": 0.0, "lat": 38.83937066666667, "fusion_lat": 0.0}, {"is_disabled": 0, "rental_uris": {"android": "https://dc.lft.to/lastmile_qr_scan", "ios": "https://dc.lft.to/lastmile_qr_scan"}, "is_reserved": 0, "name": "ef0bd4e2ce88711ea4567621a2ce547b", "lon": -77.03476883333333, "type": "electric_scooter", "bike_id": "ef0bd4e2ce88711ea4567621a2ce547b", "fusion_lon": 0.0, "lat": 38.921572, "fusion_lat": 0.0}, {"is_disabled": 0, "rental_uris": {"android": "https://dc.lft.to/lastmile_qr_scan", "ios": "https://dc.lft.to/lastmile_qr_scan"}, "is_reserved": 0, "name": "2e9573b8f5d8884fce59b458276d893a", "lon": -76.952105, "type": "electric_scooter", "bike_id": "2e9573b8f5d8884fce59b458276d893a", "fusion_lon": 0.0, "lat": 38.89251333333333, "fusion_lat": 0.0}, {"is_disabled": 0, "rental_uris": {"android": "https://dc.lft.to/lastmile_qr_scan", "ios": "https://dc.lft.to/lastmile_qr_scan"}, "is_reserved": 0, "name": "dae1112ee19d30bb1beaf5b53f788118", "lon": -77.0512845, "type": "electric_scooter", "bike_id": "dae1112ee19d30bb1beaf5b53f788118", "fusion_lon": 0.0, "lat": 38.905950833333335, "fusion_lat": 0.0}, {"is_disabled": 0, "rental_uris": {"android": "https://dc.lft.to/lastmile_qr_scan", "ios": "https://dc.lft.to/lastmile_qr_scan"}, "is_reserved": 0, "name": "d9c6b4ff99252e83b40c64b1ed8daa83", "lon": -77.04638983333334, "type": "electric_scooter", "bike_id": "d9c6b4ff99252e83b40c64b1ed8daa83", "fusion_lon": 0.0, "lat": 38.90498516666667, "fusion_lat": 0.0}, {"is_disabled": 0, "rental_uris": {"android": "https://dc.lft.to/lastmile_qr_scan", "ios": "https://dc.lft.to/lastmile_qr_scan"}, "is_reserved": 0, "name": "c2bb3a150605f0a9c28ff51f936d82dc", "lon": -77.0435585, "type": "electric_scooter", "bike_id": "c2bb3a150605f0a9c28ff51f936d82dc", "fusion_lon": 0.0, "lat": 38.89856016666667, "fusion_lat": 0.0}, {"is_disabled": 0, "rental_uris": {"android": "https://dc.lft.to/lastmile_qr_scan", "ios": "https://dc.lft.to/lastmile_qr_scan"}, "is_reserved": 0, "name": "3c2610cea519c89f53184fca22fbb4bc", "lon": -77.04456433333333, "type": "electric_scooter", "bike_id": "3c2610cea519c89f53184fca22fbb4bc", "fusion_lon": 0.0, "lat": 38.91863133333333, "fusion_lat": 0.0}, {"is_disabled": 0, "rental_uris": {"android": "https://dc.lft.to/lastmile_qr_scan", "ios": "https://dc.lft.to/lastmile_qr_scan"}, "is_reserved": 0, "name": "abd37a4ac53f6dc2d62db6a0e59a0b04", "lon": -76.99904566666666, "type": "electric_scooter", "bike_id": "abd37a4ac53f6dc2d62db6a0e59a0b04", "fusion_lon": 0.0, "lat": 38.90035783333333, "fusion_lat": 0.0}, {"is_disabled": 0, "rental_uris": {"android": "https://dc.lft.to/lastmile_qr_scan", "ios": "https://dc.lft.to/lastmile_qr_scan"}, "is_reserved": 0, "name": "151d8b62bf6b157bdc33793612a80dfb", "lon": -77.04017783333333, "type": "electric_scooter", "bike_id": "151d8b62bf6b157bdc33793612a80dfb", "fusion_lon": 0.0, "lat": 38.920878333333334, "fusion_lat": 0.0}, {"is_disabled": 0, "rental_uris": {"android": "https://dc.lft.to/lastmile_qr_scan", "ios": "https://dc.lft.to/lastmile_qr_scan"}, "is_reserved": 0, "name": "b4a879fc1a3b6ffc945a1b6a0339047c", "lon": -77.00347916666666, "type": "electric_scooter", "bike_id": "b4a879fc1a3b6ffc945a1b6a0339047c", "fusion_lon": 0.0, "lat": 38.904589666666666, "fusion_lat": 0.0}, {"is_disabled": 0, "rental_uris": {"android": "https://dc.lft.to/lastmile_qr_scan", "ios": "https://dc.lft.to/lastmile_qr_scan"}, "is_reserved": 0, "name": "366ef464258aa87ecdbf4b2d580e4ba3", "lon": -77.07265816666667, "type": "electric_scooter", "bike_id": "366ef464258aa87ecdbf4b2d580e4ba3", "fusion_lon": 0.0, "lat": 38.9132875, "fusion_lat": 0.0}, {"is_disabled": 0, "rental_uris": {"android": "https://dc.lft.to/lastmile_qr_scan", "ios": "https://dc.lft.to/lastmile_qr_scan"}, "is_reserved": 0, "name": "369768f36a9357be886277d00be0bb03", "lon": -77.02112783333334, "type": "electric_scooter", "bike_id": "369768f36a9357be886277d00be0bb03", "fusion_lon": 0.0, "lat": 38.9409895, "fusion_lat": 0.0}, {"is_disabled": 0, "rental_uris": {"android": "https://dc.lft.to/lastmile_qr_scan", "ios": "https://dc.lft.to/lastmile_qr_scan"}, "is_reserved": 0, "name": "fd644ecb3c2f5af4a327e01dfe50a365", "lon": -76.99050166666666, "type": "electric_scooter", "bike_id": "fd644ecb3c2f5af4a327e01dfe50a365", "fusion_lon": 0.0, "lat": 38.863565, "fusion_lat": 0.0}, {"is_disabled": 0, "rental_uris": {"android": "https://dc.lft.to/lastmile_qr_scan", "ios": "https://dc.lft.to/lastmile_qr_scan"}, "is_reserved": 0, "name": "a322d4dc9d046a6639d54d3abf491f99", "lon": -77.0124365, "type": "electric_scooter", "bike_id": "a322d4dc9d046a6639d54d3abf491f99", "fusion_lon": 0.0, "lat": 38.931112, "fusion_lat": 0.0}, {"is_disabled": 0, "rental_uris": {"android": "https://dc.lft.to/lastmile_qr_scan", "ios": "https://dc.lft.to/lastmile_qr_scan"}, "is_reserved": 0, "name": "954486f1728c3966057d543df77ee4ea", "lon": -77.02487916666666, "type": "electric_scooter", "bike_id": "954486f1728c3966057d543df77ee4ea", "fusion_lon": 0.0, "lat": 38.937643, "fusion_lat": 0.0}, {"is_disabled": 0, "rental_uris": {"android": "https://dc.lft.to/lastmile_qr_scan", "ios": "https://dc.lft.to/lastmile_qr_scan"}, "is_reserved": 0, "name": "f8bbe6e7232e6152a85aa61b56e82570", "lon": -77.03864516666667, "type": "electric_scooter", "bike_id": "f8bbe6e7232e6152a85aa61b56e82570", "fusion_lon": 0.0, "lat": 38.92151033333333, "fusion_lat": 0.0}, {"is_disabled": 0, "rental_uris": {"android": "https://dc.lft.to/lastmile_qr_scan", "ios": "https://dc.lft.to/lastmile_qr_scan"}, "is_reserved": 0, "name": "c9b37d91b5d8c0cd05792ed98fd470d0", "lon": -77.04408533333333, "type": "electric_scooter", "bike_id": "c9b37d91b5d8c0cd05792ed98fd470d0", "fusion_lon": 0.0, "lat": 38.929485166666666, "fusion_lat": 0.0}, {"is_disabled": 0, "rental_uris": {"android": "https://dc.lft.to/lastmile_qr_scan", "ios": "https://dc.lft.to/lastmile_qr_scan"}, "is_reserved": 0, "name": "5c92adeb2e06bade695f463011749aad", "lon": -77.115238, "type": "electric_bike", "bike_id": "5c92adeb2e06bade695f463011749aad", "fusion_lon": 0.0, "lat": 38.854912666666664, "fusion_lat": 0.0}, {"is_disabled": 0, "rental_uris": {"android": "https://dc.lft.to/lastmile_qr_scan", "ios": "https://dc.lft.to/lastmile_qr_scan"}, "is_reserved": 0, "name": "554d79cc756d944d3a3144e8c88c0879", "lon": -77.02048783333333, "type": "electric_scooter", "bike_id": "554d79cc756d944d3a3144e8c88c0879", "fusion_lon": 0.0, "lat": 38.95869416666667, "fusion_lat": 0.0}, {"is_disabled": 0, "rental_uris": {"android": "https://dc.lft.to/lastmile_qr_scan", "ios": "https://dc.lft.to/lastmile_qr_scan"}, "is_reserved": 0, "name": "d2618dacc1d58ed26bf46ee8df3466f5", "lon": -77.05386466666667, "type": "electric_scooter", "bike_id": "d2618dacc1d58ed26bf46ee8df3466f5", "fusion_lon": 0.0, "lat": 38.91066266666667, "fusion_lat": 0.0}, {"is_disabled": 0, "rental_uris": {"android": "https://dc.lft.to/lastmile_qr_scan", "ios": "https://dc.lft.to/lastmile_qr_scan"}, "is_reserved": 0, "name": "559c73789139727674f8863285326131", "lon": -77.0278155, "type": "electric_scooter", "bike_id": "559c73789139727674f8863285326131", "fusion_lon": 0.0, "lat": 38.951209, "fusion_lat": 0.0}, {"is_disabled": 0, "rental_uris": {"android": "https://dc.lft.to/lastmile_qr_scan", "ios": "https://dc.lft.to/lastmile_qr_scan"}, "is_reserved": 0, "name": "da5df2fcb767b2b394c621eb7090e4c5", "lon": -77.04127, "type": "electric_scooter", "bike_id": "da5df2fcb767b2b394c621eb7090e4c5", "fusion_lon": 0.0, "lat": 38.92134133333333, "fusion_lat": 0.0}, {"is_disabled": 0, "rental_uris": {"android": "https://dc.lft.to/lastmile_qr_scan", "ios": "https://dc.lft.to/lastmile_qr_scan"}, "is_reserved": 0, "name": "e3f2f09e41f54adc6f904d7508d2641c", "lon": -77.03872983333333, "type": "electric_scooter", "bike_id": "e3f2f09e41f54adc6f904d7508d2641c", "fusion_lon": 0.0, "lat": 38.915692666666665, "fusion_lat": 0.0}, {"is_disabled": 0, "rental_uris": {"android": "https://dc.lft.to/lastmile_qr_scan", "ios": "https://dc.lft.to/lastmile_qr_scan"}, "is_reserved": 0, "name": "283a1f3947b449cd9cfa2c8e548a2893", "lon": -77.03201366666667, "type": "electric_scooter", "bike_id": "283a1f3947b449cd9cfa2c8e548a2893", "fusion_lon": 0.0, "lat": 38.903721833333336, "fusion_lat": 0.0}, {"is_disabled": 0, "rental_uris": {"android": "https://dc.lft.to/lastmile_qr_scan", "ios": "https://dc.lft.to/lastmile_qr_scan"}, "is_reserved": 0, "name": "88718e8a94afebdb43086388ce35dfe2", "lon": -76.99642083333333, "type": "electric_bike", "bike_id": "88718e8a94afebdb43086388ce35dfe2", "fusion_lon": 0.0, "lat": 38.988277, "fusion_lat": 0.0}, {"is_disabled": 0, "rental_uris": {"android": "https://dc.lft.to/lastmile_qr_scan", "ios": "https://dc.lft.to/lastmile_qr_scan"}, "is_reserved": 0, "name": "4fd9734db7ff8eadb83d6b5c6fb9d6be", "lon": -77.00887133333333, "type": "electric_scooter", "bike_id": "4fd9734db7ff8eadb83d6b5c6fb9d6be", "fusion_lon": 0.0, "lat": 38.90583816666667, "fusion_lat": 0.0}, {"is_disabled": 0, "rental_uris": {"android": "https://dc.lft.to/lastmile_qr_scan", "ios": "https://dc.lft.to/lastmile_qr_scan"}, "is_reserved": 0, "name": "0a031e95249e030973d51ccf4a27adc8", "lon": -77.033778, "type": "electric_scooter", "bike_id": "0a031e95249e030973d51ccf4a27adc8", "fusion_lon": 0.0, "lat": 38.91700633333333, "fusion_lat": 0.0}, {"is_disabled": 0, "rental_uris": {"android": "https://dc.lft.to/lastmile_qr_scan", "ios": "https://dc.lft.to/lastmile_qr_scan"}, "is_reserved": 0, "name": "4fcf5d5c5310c986bc45c60fbbc76e2c", "lon": -77.01510516666667, "type": "electric_scooter", "bike_id": "4fcf5d5c5310c986bc45c60fbbc76e2c", "fusion_lon": 0.0, "lat": 38.910045, "fusion_lat": 0.0}, {"is_disabled": 0, "rental_uris": {"android": "https://dc.lft.to/lastmile_qr_scan", "ios": "https://dc.lft.to/lastmile_qr_scan"}, "is_reserved": 0, "name": "a5a33f46988c1d717be8c98e7f61d49e", "lon": -77.038449, "type": "electric_scooter", "bike_id": "a5a33f46988c1d717be8c98e7f61d49e", "fusion_lon": 0.0, "lat": 38.914705, "fusion_lat": 0.0}, {"is_disabled": 0, "rental_uris": {"android": "https://dc.lft.to/lastmile_qr_scan", "ios": "https://dc.lft.to/lastmile_qr_scan"}, "is_reserved": 0, "name": "854ad2443d57bd2935b2f80656ef8f63", "lon": -77.0457725, "type": "electric_scooter", "bike_id": "854ad2443d57bd2935b2f80656ef8f63", "fusion_lon": 0.0, "lat": 38.9242025, "fusion_lat": 0.0}, {"is_disabled": 0, "rental_uris": {"android": "https://dc.lft.to/lastmile_qr_scan", "ios": "https://dc.lft.to/lastmile_qr_scan"}, "is_reserved": 0, "name": "0678c4ca4f3aa426574490fae29fc5aa", "lon": -77.04130733333334, "type": "electric_bike", "bike_id": "0678c4ca4f3aa426574490fae29fc5aa", "fusion_lon": 0.0, "lat": 38.94400916666667, "fusion_lat": 0.0}, {"is_disabled": 0, "rental_uris": {"android": "https://dc.lft.to/lastmile_qr_scan", "ios": "https://dc.lft.to/lastmile_qr_scan"}, "is_reserved": 0, "name": "d47eb10e4b43dfab8cf3b7b4c3c43e7c", "lon": -77.02389716666667, "type": "electric_scooter", "bike_id": "d47eb10e4b43dfab8cf3b7b4c3c43e7c", "fusion_lon": 0.0, "lat": 38.928044, "fusion_lat": 0.0}, {"is_disabled": 0, "rental_uris": {"android": "https://dc.lft.to/lastmile_qr_scan", "ios": "https://dc.lft.to/lastmile_qr_scan"}, "is_reserved": 0, "name": "67d1c7496c6c55e3c75f28871837e62a", "lon": -77.0368435, "type": "electric_scooter", "bike_id": "67d1c7496c6c55e3c75f28871837e62a", "fusion_lon": 0.0, "lat": 38.91813166666667, "fusion_lat": 0.0}, {"is_disabled": 0, "rental_uris": {"android": "https://dc.lft.to/lastmile_qr_scan", "ios": "https://dc.lft.to/lastmile_qr_scan"}, "is_reserved": 0, "name": "9e5b82ae661eaa5ffb7c4136cf003c35", "lon": -77.0338, "type": "electric_scooter", "bike_id": "9e5b82ae661eaa5ffb7c4136cf003c35", "fusion_lon": 0.0, "lat": 38.921718, "fusion_lat": 0.0}, {"is_disabled": 0, "rental_uris": {"android": "https://dc.lft.to/lastmile_qr_scan", "ios": "https://dc.lft.to/lastmile_qr_scan"}, "is_reserved": 0, "name": "eea437ce6e84baabf09e98817f062d9a", "lon": -77.03178633333333, "type": "electric_scooter", "bike_id": "eea437ce6e84baabf09e98817f062d9a", "fusion_lon": 0.0, "lat": 38.9191685, "fusion_lat": 0.0}, {"is_disabled": 0, "rental_uris": {"android": "https://dc.lft.to/lastmile_qr_scan", "ios": "https://dc.lft.to/lastmile_qr_scan"}, "is_reserved": 0, "name": "35f9741850740fa0fa8506d614a21cd0", "lon": -77.0284125, "type": "electric_scooter", "bike_id": "35f9741850740fa0fa8506d614a21cd0", "fusion_lon": 0.0, "lat": 38.92569316666667, "fusion_lat": 0.0}, {"is_disabled": 0, "rental_uris": {"android": "https://dc.lft.to/lastmile_qr_scan", "ios": "https://dc.lft.to/lastmile_qr_scan"}, "is_reserved": 0, "name": "7d281f4ceb408f205088922d72bc6423", "lon": -76.93741766666666, "type": "electric_scooter", "bike_id": "7d281f4ceb408f205088922d72bc6423", "fusion_lon": 0.0, "lat": 38.89013633333333, "fusion_lat": 0.0}, {"is_disabled": 0, "rental_uris": {"android": "https://dc.lft.to/lastmile_qr_scan", "ios": "https://dc.lft.to/lastmile_qr_scan"}, "is_reserved": 0, "name": "b6c06fc6a0230428a5258110bf3f2db8", "lon": -77.00597983333333, "type": "electric_bike", "bike_id": "b6c06fc6a0230428a5258110bf3f2db8", "fusion_lon": 0.0, "lat": 38.8981485, "fusion_lat": 0.0}, {"is_disabled": 0, "rental_uris": {"android": "https://dc.lft.to/lastmile_qr_scan", "ios": "https://dc.lft.to/lastmile_qr_scan"}, "is_reserved": 0, "name": "b5380381f146b9fc2ef06c614ea736fe", "lon": -76.9732295, "type": "electric_bike", "bike_id": "b5380381f146b9fc2ef06c614ea736fe", "fusion_lon": 0.0, "lat": 38.86562883333333, "fusion_lat": 0.0}, {"is_disabled": 0, "rental_uris": {"android": "https://dc.lft.to/lastmile_qr_scan", "ios": "https://dc.lft.to/lastmile_qr_scan"}, "is_reserved": 0, "name": "4b978aca4e9fecdec95a403ec41117a0", "lon": -77.04202233333334, "type": "electric_scooter", "bike_id": "4b978aca4e9fecdec95a403ec41117a0", "fusion_lon": 0.0, "lat": 38.91123416666667, "fusion_lat": 0.0}, {"is_disabled": 0, "rental_uris": {"android": "https://dc.lft.to/lastmile_qr_scan", "ios": "https://dc.lft.to/lastmile_qr_scan"}, "is_reserved": 0, "name": "606fb13dcdcf3b3cae5a6a5e3d63f5cd", "lon": -77.017496, "type": "electric_scooter", "bike_id": "606fb13dcdcf3b3cae5a6a5e3d63f5cd", "fusion_lon": 0.0, "lat": 38.88382166666667, "fusion_lat": 0.0}, {"is_disabled": 0, "rental_uris": {"android": "https://dc.lft.to/lastmile_qr_scan", "ios": "https://dc.lft.to/lastmile_qr_scan"}, "is_reserved": 0, "name": "0bee50e93df347fbc9a246e1a172a48f", "lon": -77.0320065, "type": "electric_scooter", "bike_id": "0bee50e93df347fbc9a246e1a172a48f", "fusion_lon": 0.0, "lat": 38.90733983333333, "fusion_lat": 0.0}, {"is_disabled": 0, "rental_uris": {"android": "https://dc.lft.to/lastmile_qr_scan", "ios": "https://dc.lft.to/lastmile_qr_scan"}, "is_reserved": 0, "name": "3739d3c19d14095c909ec969d48d4864", "lon": -77.042048, "type": "electric_scooter", "bike_id": "3739d3c19d14095c909ec969d48d4864", "fusion_lon": 0.0, "lat": 38.903986833333335, "fusion_lat": 0.0}, {"is_disabled": 0, "rental_uris": {"android": "https://dc.lft.to/lastmile_qr_scan", "ios": "https://dc.lft.to/lastmile_qr_scan"}, "is_reserved": 0, "name": "4fc0612b2c1f9c63778a3fdd90a68c5b", "lon": -77.054173, "type": "electric_scooter", "bike_id": "4fc0612b2c1f9c63778a3fdd90a68c5b", "fusion_lon": 0.0, "lat": 38.92831133333333, "fusion_lat": 0.0}, {"is_disabled": 0, "rental_uris": {"android": "https://dc.lft.to/lastmile_qr_scan", "ios": "https://dc.lft.to/lastmile_qr_scan"}, "is_reserved": 0, "name": "ea314b11dcd817136e162fd4ba25979a", "lon": -77.04558483333334, "type": "electric_bike", "bike_id": "ea314b11dcd817136e162fd4ba25979a", "fusion_lon": 0.0, "lat": 38.91936416666667, "fusion_lat": 0.0}, {"is_disabled": 0, "rental_uris": {"android": "https://dc.lft.to/lastmile_qr_scan", "ios": "https://dc.lft.to/lastmile_qr_scan"}, "is_reserved": 0, "name": "d93fe6f8c868c0452f1eef73aad41857", "lon": -76.99400116666666, "type": "electric_scooter", "bike_id": "d93fe6f8c868c0452f1eef73aad41857", "fusion_lon": 0.0, "lat": 38.92163083333333, "fusion_lat": 0.0}, {"is_disabled": 0, "rental_uris": {"android": "https://dc.lft.to/lastmile_qr_scan", "ios": "https://dc.lft.to/lastmile_qr_scan"}, "is_reserved": 0, "name": "a4638929a3afc91c5814b9c9c195f124", "lon": -77.02743333333333, "type": "electric_scooter", "bike_id": "a4638929a3afc91c5814b9c9c195f124", "fusion_lon": 0.0, "lat": 38.93584116666667, "fusion_lat": 0.0}, {"is_disabled": 0, "rental_uris": {"android": "https://dc.lft.to/lastmile_qr_scan", "ios": "https://dc.lft.to/lastmile_qr_scan"}, "is_reserved": 0, "name": "6c0c6b787cca949a60dfaa370811dc1f", "lon": -77.052817, "type": "electric_scooter", "bike_id": "6c0c6b787cca949a60dfaa370811dc1f", "fusion_lon": 0.0, "lat": 38.922593666666664, "fusion_lat": 0.0}, {"is_disabled": 0, "rental_uris": {"android": "https://dc.lft.to/lastmile_qr_scan", "ios": "https://dc.lft.to/lastmile_qr_scan"}, "is_reserved": 0, "name": "9e3e4338120f51eeef0b846753ee9f5e", "lon": -77.03445066666667, "type": "electric_scooter", "bike_id": "9e3e4338120f51eeef0b846753ee9f5e", "fusion_lon": 0.0, "lat": 38.933654, "fusion_lat": 0.0}, {"is_disabled": 0, "rental_uris": {"android": "https://dc.lft.to/lastmile_qr_scan", "ios": "https://dc.lft.to/lastmile_qr_scan"}, "is_reserved": 0, "name": "976278d0d50cd8ebcb50cfaa206043f0", "lon": -77.0412815, "type": "electric_scooter", "bike_id": "976278d0d50cd8ebcb50cfaa206043f0", "fusion_lon": 0.0, "lat": 38.8986965, "fusion_lat": 0.0}, {"is_disabled": 0, "rental_uris": {"android": "https://dc.lft.to/lastmile_qr_scan", "ios": "https://dc.lft.to/lastmile_qr_scan"}, "is_reserved": 0, "name": "9525d572b2a2f79e55cc49526832d5b4", "lon": -77.03665966666667, "type": "electric_scooter", "bike_id": "9525d572b2a2f79e55cc49526832d5b4", "fusion_lon": 0.0, "lat": 38.92287916666667, "fusion_lat": 0.0}, {"is_disabled": 0, "rental_uris": {"android": "https://dc.lft.to/lastmile_qr_scan", "ios": "https://dc.lft.to/lastmile_qr_scan"}, "is_reserved": 0, "name": "c8e8e3d337bfbc4a2d17ccd6582919cd", "lon": -76.98729966666667, "type": "electric_scooter", "bike_id": "c8e8e3d337bfbc4a2d17ccd6582919cd", "fusion_lon": 0.0, "lat": 38.867102833333334, "fusion_lat": 0.0}, {"is_disabled": 0, "rental_uris": {"android": "https://dc.lft.to/lastmile_qr_scan", "ios": "https://dc.lft.to/lastmile_qr_scan"}, "is_reserved": 0, "name": "ad73ef5d9224c6360b7187beb33e6deb", "lon": -77.0386755, "type": "electric_scooter", "bike_id": "ad73ef5d9224c6360b7187beb33e6deb", "fusion_lon": 0.0, "lat": 38.9156605, "fusion_lat": 0.0}, {"is_disabled": 0, "rental_uris": {"android": "https://dc.lft.to/lastmile_qr_scan", "ios": "https://dc.lft.to/lastmile_qr_scan"}, "is_reserved": 0, "name": "de87710b805bb3937196a808f05656c3", "lon": -77.05524666666666, "type": "electric_bike", "bike_id": "de87710b805bb3937196a808f05656c3", "fusion_lon": 0.0, "lat": 38.9106075, "fusion_lat": 0.0}, {"is_disabled": 0, "rental_uris": {"android": "https://dc.lft.to/lastmile_qr_scan", "ios": "https://dc.lft.to/lastmile_qr_scan"}, "is_reserved": 0, "name": "40c201cdde4451dfd6101a0edb59afc6", "lon": -77.0117905, "type": "electric_scooter", "bike_id": "40c201cdde4451dfd6101a0edb59afc6", "fusion_lon": 0.0, "lat": 38.86809483333333, "fusion_lat": 0.0}, {"is_disabled": 0, "rental_uris": {"android": "https://dc.lft.to/lastmile_qr_scan", "ios": "https://dc.lft.to/lastmile_qr_scan"}, "is_reserved": 0, "name": "c461edb3b241638d5fc94b8d37397300", "lon": -77.03466283333333, "type": "electric_scooter", "bike_id": "c461edb3b241638d5fc94b8d37397300", "fusion_lon": 0.0, "lat": 38.916692166666664, "fusion_lat": 0.0}, {"is_disabled": 0, "rental_uris": {"android": "https://dc.lft.to/lastmile_qr_scan", "ios": "https://dc.lft.to/lastmile_qr_scan"}, "is_reserved": 0, "name": "6e20cfe892a5db6b027155a5492f991f", "lon": -77.34413316666667, "type": "electric_bike", "bike_id": "6e20cfe892a5db6b027155a5492f991f", "fusion_lon": 0.0, "lat": 38.945916, "fusion_lat": 0.0}, {"is_disabled": 0, "rental_uris": {"android": "https://dc.lft.to/lastmile_qr_scan", "ios": "https://dc.lft.to/lastmile_qr_scan"}, "is_reserved": 0, "name": "fd5f0f2a66f32304718eca923cdb93af", "lon": -77.14321766666667, "type": "electric_bike", "bike_id": "fd5f0f2a66f32304718eca923cdb93af", "fusion_lon": 0.0, "lat": 39.05457616666666, "fusion_lat": 0.0}, {"is_disabled": 0, "rental_uris": {"android": "https://dc.lft.to/lastmile_qr_scan", "ios": "https://dc.lft.to/lastmile_qr_scan"}, "is_reserved": 0, "name": "b81be32704aae8f5b4620e93a4b3420b", "lon": -77.03295466666667, "type": "electric_scooter", "bike_id": "b81be32704aae8f5b4620e93a4b3420b", "fusion_lon": 0.0, "lat": 38.927421, "fusion_lat": 0.0}, {"is_disabled": 0, "rental_uris": {"android": "https://dc.lft.to/lastmile_qr_scan", "ios": "https://dc.lft.to/lastmile_qr_scan"}, "is_reserved": 0, "name": "a0c4eddf377a6514c75b9358721e481d", "lon": -76.94889583333334, "type": "electric_scooter", "bike_id": "a0c4eddf377a6514c75b9358721e481d", "fusion_lon": 0.0, "lat": 38.895284833333335, "fusion_lat": 0.0}, {"is_disabled": 0, "rental_uris": {"android": "https://dc.lft.to/lastmile_qr_scan", "ios": "https://dc.lft.to/lastmile_qr_scan"}, "is_reserved": 0, "name": "a0d472db02d6f9503d7855e806a0b6dd", "lon": -77.0618585, "type": "electric_scooter", "bike_id": "a0d472db02d6f9503d7855e806a0b6dd", "fusion_lon": 0.0, "lat": 38.93014466666666, "fusion_lat": 0.0}, {"is_disabled": 0, "rental_uris": {"android": "https://dc.lft.to/lastmile_qr_scan", "ios": "https://dc.lft.to/lastmile_qr_scan"}, "is_reserved": 0, "name": "1a8dd2a495abd99bf2f88d9c61ea5424", "lon": -77.03829266666666, "type": "electric_scooter", "bike_id": "1a8dd2a495abd99bf2f88d9c61ea5424", "fusion_lon": 0.0, "lat": 38.911116166666666, "fusion_lat": 0.0}, {"is_disabled": 0, "rental_uris": {"android": "https://dc.lft.to/lastmile_qr_scan", "ios": "https://dc.lft.to/lastmile_qr_scan"}, "is_reserved": 0, "name": "579ed05c31d35ff416dfedc00e206d73", "lon": -77.03174283333334, "type": "electric_scooter", "bike_id": "579ed05c31d35ff416dfedc00e206d73", "fusion_lon": 0.0, "lat": 38.91894633333333, "fusion_lat": 0.0}, {"is_disabled": 0, "rental_uris": {"android": "https://dc.lft.to/lastmile_qr_scan", "ios": "https://dc.lft.to/lastmile_qr_scan"}, "is_reserved": 0, "name": "8065dbe6561c354f655d5fe9ba860361", "lon": -77.01219166666667, "type": "electric_scooter", "bike_id": "8065dbe6561c354f655d5fe9ba860361", "fusion_lon": 0.0, "lat": 38.914969666666664, "fusion_lat": 0.0}, {"is_disabled": 0, "rental_uris": {"android": "https://dc.lft.to/lastmile_qr_scan", "ios": "https://dc.lft.to/lastmile_qr_scan"}, "is_reserved": 0, "name": "e706df3506b181dc13e28620b0c06e9b", "lon": -76.98885016666667, "type": "electric_scooter", "bike_id": "e706df3506b181dc13e28620b0c06e9b", "fusion_lon": 0.0, "lat": 38.866705833333334, "fusion_lat": 0.0}, {"is_disabled": 0, "rental_uris": {"android": "https://dc.lft.to/lastmile_qr_scan", "ios": "https://dc.lft.to/lastmile_qr_scan"}, "is_reserved": 0, "name": "f3a1fe19f4bac0ac113528dc9dcd4cdc", "lon": -77.05898733333333, "type": "electric_scooter", "bike_id": "f3a1fe19f4bac0ac113528dc9dcd4cdc", "fusion_lon": 0.0, "lat": 38.901426666666666, "fusion_lat": 0.0}, {"is_disabled": 0, "rental_uris": {"android": "https://dc.lft.to/lastmile_qr_scan", "ios": "https://dc.lft.to/lastmile_qr_scan"}, "is_reserved": 0, "name": "f038cb3a61057f8d077254479fac1823", "lon": -77.000887, "type": "electric_scooter", "bike_id": "f038cb3a61057f8d077254479fac1823", "fusion_lon": 0.0, "lat": 38.89404433333333, "fusion_lat": 0.0}, {"is_disabled": 0, "rental_uris": {"android": "https://dc.lft.to/lastmile_qr_scan", "ios": "https://dc.lft.to/lastmile_qr_scan"}, "is_reserved": 0, "name": "1397184522ca4ca1486eb34c5563ba94", "lon": -77.01386266666667, "type": "electric_scooter", "bike_id": "1397184522ca4ca1486eb34c5563ba94", "fusion_lon": 0.0, "lat": 38.910121, "fusion_lat": 0.0}, {"is_disabled": 0, "rental_uris": {"android": "https://dc.lft.to/lastmile_qr_scan", "ios": "https://dc.lft.to/lastmile_qr_scan"}, "is_reserved": 0, "name": "343091bfc52bc9353c25af9dff5246a7", "lon": -77.03383533333333, "type": "electric_scooter", "bike_id": "343091bfc52bc9353c25af9dff5246a7", "fusion_lon": 0.0, "lat": 38.91719533333333, "fusion_lat": 0.0}, {"is_disabled": 0, "rental_uris": {"android": "https://dc.lft.to/lastmile_qr_scan", "ios": "https://dc.lft.to/lastmile_qr_scan"}, "is_reserved": 0, "name": "7392fcba1d01e8b1d6a227a556569061", "lon": -77.03448816666666, "type": "electric_scooter", "bike_id": "7392fcba1d01e8b1d6a227a556569061", "fusion_lon": 0.0, "lat": 38.90573966666667, "fusion_lat": 0.0}, {"is_disabled": 0, "rental_uris": {"android": "https://dc.lft.to/lastmile_qr_scan", "ios": "https://dc.lft.to/lastmile_qr_scan"}, "is_reserved": 0, "name": "6b7b744447d1ea27cfb5149d54903612", "lon": -77.01433583333333, "type": "electric_scooter", "bike_id": "6b7b744447d1ea27cfb5149d54903612", "fusion_lon": 0.0, "lat": 38.8777625, "fusion_lat": 0.0}, {"is_disabled": 0, "rental_uris": {"android": "https://dc.lft.to/lastmile_qr_scan", "ios": "https://dc.lft.to/lastmile_qr_scan"}, "is_reserved": 0, "name": "8033fa6c07e55322e8cdea63f21190da", "lon": -77.04982983333333, "type": "electric_scooter", "bike_id": "8033fa6c07e55322e8cdea63f21190da", "fusion_lon": 0.0, "lat": 38.9011965, "fusion_lat": 0.0}, {"is_disabled": 0, "rental_uris": {"android": "https://dc.lft.to/lastmile_qr_scan", "ios": "https://dc.lft.to/lastmile_qr_scan"}, "is_reserved": 0, "name": "1527035c16ba88f53c3d20ea10017b50", "lon": -77.03645933333334, "type": "electric_scooter", "bike_id": "1527035c16ba88f53c3d20ea10017b50", "fusion_lon": 0.0, "lat": 38.91724816666667, "fusion_lat": 0.0}, {"is_disabled": 0, "rental_uris": {"android": "https://dc.lft.to/lastmile_qr_scan", "ios": "https://dc.lft.to/lastmile_qr_scan"}, "is_reserved": 0, "name": "bc4f1c499c12feb93e1f267d56b855b9", "lon": -77.0215495, "type": "electric_scooter", "bike_id": "bc4f1c499c12feb93e1f267d56b855b9", "fusion_lon": 0.0, "lat": 38.9260435, "fusion_lat": 0.0}, {"is_disabled": 0, "rental_uris": {"android": "https://dc.lft.to/lastmile_qr_scan", "ios": "https://dc.lft.to/lastmile_qr_scan"}, "is_reserved": 0, "name": "ea622de9399d7d6927b4fcbebb0e3b1c", "lon": -77.00515583333333, "type": "electric_scooter", "bike_id": "ea622de9399d7d6927b4fcbebb0e3b1c", "fusion_lon": 0.0, "lat": 38.8487675, "fusion_lat": 0.0}, {"is_disabled": 0, "rental_uris": {"android": "https://dc.lft.to/lastmile_qr_scan", "ios": "https://dc.lft.to/lastmile_qr_scan"}, "is_reserved": 0, "name": "483e997e6beca93bf4b0453949b0434c", "lon": -76.98794016666666, "type": "electric_bike", "bike_id": "483e997e6beca93bf4b0453949b0434c", "fusion_lon": 0.0, "lat": 38.92209866666666, "fusion_lat": 0.0}, {"is_disabled": 0, "rental_uris": {"android": "https://dc.lft.to/lastmile_qr_scan", "ios": "https://dc.lft.to/lastmile_qr_scan"}, "is_reserved": 0, "name": "aec9ba61b9647d0ef54982bdc60ef581", "lon": -77.00052133333334, "type": "electric_scooter", "bike_id": "aec9ba61b9647d0ef54982bdc60ef581", "fusion_lon": 0.0, "lat": 38.92088966666667, "fusion_lat": 0.0}, {"is_disabled": 0, "rental_uris": {"android": "https://dc.lft.to/lastmile_qr_scan", "ios": "https://dc.lft.to/lastmile_qr_scan"}, "is_reserved": 0, "name": "debc2a36e41c80ad4b28411c79cab943", "lon": -77.05126566666667, "type": "electric_scooter", "bike_id": "debc2a36e41c80ad4b28411c79cab943", "fusion_lon": 0.0, "lat": 38.923516166666666, "fusion_lat": 0.0}, {"is_disabled": 0, "rental_uris": {"android": "https://dc.lft.to/lastmile_qr_scan", "ios": "https://dc.lft.to/lastmile_qr_scan"}, "is_reserved": 0, "name": "cc60f62f22c280c6aedd9846b861a9a0", "lon": -77.0319925, "type": "electric_bike", "bike_id": "cc60f62f22c280c6aedd9846b861a9a0", "fusion_lon": 0.0, "lat": 38.9236215, "fusion_lat": 0.0}, {"is_disabled": 0, "rental_uris": {"android": "https://dc.lft.to/lastmile_qr_scan", "ios": "https://dc.lft.to/lastmile_qr_scan"}, "is_reserved": 0, "name": "161a9134281306d17ba88a12bcaaa1a1", "lon": -77.13232766666667, "type": "electric_bike", "bike_id": "161a9134281306d17ba88a12bcaaa1a1", "fusion_lon": 0.0, "lat": 38.8697595, "fusion_lat": 0.0}, {"is_disabled": 0, "rental_uris": {"android": "https://dc.lft.to/lastmile_qr_scan", "ios": "https://dc.lft.to/lastmile_qr_scan"}, "is_reserved": 0, "name": "5376ab810bebddfd2a9beab67e49cc2e", "lon": -77.00387266666667, "type": "electric_scooter", "bike_id": "5376ab810bebddfd2a9beab67e49cc2e", "fusion_lon": 0.0, "lat": 38.87773766666667, "fusion_lat": 0.0}, {"is_disabled": 0, "rental_uris": {"android": "https://dc.lft.to/lastmile_qr_scan", "ios": "https://dc.lft.to/lastmile_qr_scan"}, "is_reserved": 0, "name": "6c16d66718ae253d3690b17ea2f26f5d", "lon": -76.9960905, "type": "electric_scooter", "bike_id": "6c16d66718ae253d3690b17ea2f26f5d", "fusion_lon": 0.0, "lat": 38.90030616666667, "fusion_lat": 0.0}, {"is_disabled": 0, "rental_uris": {"android": "https://dc.lft.to/lastmile_qr_scan", "ios": "https://dc.lft.to/lastmile_qr_scan"}, "is_reserved": 0, "name": "5d44d5d7fec879de6568f1de887ce53f", "lon": -77.00552333333333, "type": "electric_scooter", "bike_id": "5d44d5d7fec879de6568f1de887ce53f", "fusion_lon": 0.0, "lat": 38.878884166666666, "fusion_lat": 0.0}, {"is_disabled": 0, "rental_uris": {"android": "https://dc.lft.to/lastmile_qr_scan", "ios": "https://dc.lft.to/lastmile_qr_scan"}, "is_reserved": 0, "name": "b4967bacb275e46968de4453ddf227cb", "lon": -77.022989, "type": "electric_scooter", "bike_id": "b4967bacb275e46968de4453ddf227cb", "fusion_lon": 0.0, "lat": 38.91788283333333, "fusion_lat": 0.0}, {"is_disabled": 0, "rental_uris": {"android": "https://dc.lft.to/lastmile_qr_scan", "ios": "https://dc.lft.to/lastmile_qr_scan"}, "is_reserved": 0, "name": "e85bbcea1a2601af89a336edd558bce3", "lon": -77.02171666666666, "type": "electric_scooter", "bike_id": "e85bbcea1a2601af89a336edd558bce3", "fusion_lon": 0.0, "lat": 38.94294466666667, "fusion_lat": 0.0}, {"is_disabled": 0, "rental_uris": {"android": "https://dc.lft.to/lastmile_qr_scan", "ios": "https://dc.lft.to/lastmile_qr_scan"}, "is_reserved": 0, "name": "f3ab363b9dbd202a032f61bb4f083f25", "lon": -77.02497616666666, "type": "electric_scooter", "bike_id": "f3ab363b9dbd202a032f61bb4f083f25", "fusion_lon": 0.0, "lat": 38.88503766666667, "fusion_lat": 0.0}, {"is_disabled": 0, "rental_uris": {"android": "https://dc.lft.to/lastmile_qr_scan", "ios": "https://dc.lft.to/lastmile_qr_scan"}, "is_reserved": 0, "name": "eb527858d6d2ed831f050e219e7be274", "lon": -77.03309033333333, "type": "electric_scooter", "bike_id": "eb527858d6d2ed831f050e219e7be274", "fusion_lon": 0.0, "lat": 38.916336333333334, "fusion_lat": 0.0}, {"is_disabled": 0, "rental_uris": {"android": "https://dc.lft.to/lastmile_qr_scan", "ios": "https://dc.lft.to/lastmile_qr_scan"}, "is_reserved": 0, "name": "f7cdbed03f4ddcb9ab5cf50d38302e40", "lon": -77.06602533333333, "type": "electric_scooter", "bike_id": "f7cdbed03f4ddcb9ab5cf50d38302e40", "fusion_lon": 0.0, "lat": 38.9074165, "fusion_lat": 0.0}, {"is_disabled": 0, "rental_uris": {"android": "https://dc.lft.to/lastmile_qr_scan", "ios": "https://dc.lft.to/lastmile_qr_scan"}, "is_reserved": 0, "name": "04e9747bae5956a4286f90037efb2f01", "lon": -77.01740633333333, "type": "electric_scooter", "bike_id": "04e9747bae5956a4286f90037efb2f01", "fusion_lon": 0.0, "lat": 38.914457, "fusion_lat": 0.0}, {"is_disabled": 0, "rental_uris": {"android": "https://dc.lft.to/lastmile_qr_scan", "ios": "https://dc.lft.to/lastmile_qr_scan"}, "is_reserved": 0, "name": "11a95ddc27e6182ec40d038d638f8688", "lon": -76.94532583333333, "type": "electric_bike", "bike_id": "11a95ddc27e6182ec40d038d638f8688", "fusion_lon": 0.0, "lat": 38.86753233333334, "fusion_lat": 0.0}, {"is_disabled": 0, "rental_uris": {"android": "https://dc.lft.to/lastmile_qr_scan", "ios": "https://dc.lft.to/lastmile_qr_scan"}, "is_reserved": 0, "name": "eeb461b250345657cb7f180545ba139f", "lon": -77.07294716666667, "type": "electric_scooter", "bike_id": "eeb461b250345657cb7f180545ba139f", "fusion_lon": 0.0, "lat": 38.922800333333335, "fusion_lat": 0.0}, {"is_disabled": 0, "rental_uris": {"android": "https://dc.lft.to/lastmile_qr_scan", "ios": "https://dc.lft.to/lastmile_qr_scan"}, "is_reserved": 0, "name": "a763b1c90d5fa6be670a23d7f89ec405", "lon": -77.032935, "type": "electric_scooter", "bike_id": "a763b1c90d5fa6be670a23d7f89ec405", "fusion_lon": 0.0, "lat": 38.933883333333334, "fusion_lat": 0.0}, {"is_disabled": 0, "rental_uris": {"android": "https://dc.lft.to/lastmile_qr_scan", "ios": "https://dc.lft.to/lastmile_qr_scan"}, "is_reserved": 0, "name": "359915ec970a04182e017b0d24331d27", "lon": -77.03439233333333, "type": "electric_scooter", "bike_id": "359915ec970a04182e017b0d24331d27", "fusion_lon": 0.0, "lat": 38.910164, "fusion_lat": 0.0}, {"is_disabled": 0, "rental_uris": {"android": "https://dc.lft.to/lastmile_qr_scan", "ios": "https://dc.lft.to/lastmile_qr_scan"}, "is_reserved": 0, "name": "8107d4675e05665b6988c9f1019abea7", "lon": -76.99066, "type": "electric_scooter", "bike_id": "8107d4675e05665b6988c9f1019abea7", "fusion_lon": 0.0, "lat": 38.86361466666666, "fusion_lat": 0.0}, {"is_disabled": 0, "rental_uris": {"android": "https://dc.lft.to/lastmile_qr_scan", "ios": "https://dc.lft.to/lastmile_qr_scan"}, "is_reserved": 0, "name": "07a5a1962bd233706b0d9c8fd280965d", "lon": -77.01135816666667, "type": "electric_scooter", "bike_id": "07a5a1962bd233706b0d9c8fd280965d", "fusion_lon": 0.0, "lat": 38.920323833333335, "fusion_lat": 0.0}, {"is_disabled": 0, "rental_uris": {"android": "https://dc.lft.to/lastmile_qr_scan", "ios": "https://dc.lft.to/lastmile_qr_scan"}, "is_reserved": 0, "name": "6c3762d50229c7a6829dbbeab110249e", "lon": -77.0305215, "type": "electric_scooter", "bike_id": "6c3762d50229c7a6829dbbeab110249e", "fusion_lon": 0.0, "lat": 38.8997815, "fusion_lat": 0.0}, {"is_disabled": 0, "rental_uris": {"android": "https://dc.lft.to/lastmile_qr_scan", "ios": "https://dc.lft.to/lastmile_qr_scan"}, "is_reserved": 0, "name": "d8385a9fcc5374b1417b501f693b2ed6", "lon": -76.995541, "type": "electric_scooter", "bike_id": "d8385a9fcc5374b1417b501f693b2ed6", "fusion_lon": 0.0, "lat": 38.883863166666664, "fusion_lat": 0.0}, {"is_disabled": 0, "rental_uris": {"android": "https://dc.lft.to/lastmile_qr_scan", "ios": "https://dc.lft.to/lastmile_qr_scan"}, "is_reserved": 0, "name": "91d4635b3f900d1d62aeaadbad10da9e", "lon": -76.98078133333334, "type": "electric_scooter", "bike_id": "91d4635b3f900d1d62aeaadbad10da9e", "fusion_lon": 0.0, "lat": 38.93651333333333, "fusion_lat": 0.0}, {"is_disabled": 0, "rental_uris": {"android": "https://dc.lft.to/lastmile_qr_scan", "ios": "https://dc.lft.to/lastmile_qr_scan"}, "is_reserved": 0, "name": "622497c629c9f0d1b902477828b3fd17", "lon": -77.02710333333333, "type": "electric_scooter", "bike_id": "622497c629c9f0d1b902477828b3fd17", "fusion_lon": 0.0, "lat": 38.9096335, "fusion_lat": 0.0}, {"is_disabled": 0, "rental_uris": {"android": "https://dc.lft.to/lastmile_qr_scan", "ios": "https://dc.lft.to/lastmile_qr_scan"}, "is_reserved": 0, "name": "899d90606712473f69d280efc7e04c7d", "lon": -77.01999783333333, "type": "electric_scooter", "bike_id": "899d90606712473f69d280efc7e04c7d", "fusion_lon": 0.0, "lat": 38.898824, "fusion_lat": 0.0}, {"is_disabled": 0, "rental_uris": {"android": "https://dc.lft.to/lastmile_qr_scan", "ios": "https://dc.lft.to/lastmile_qr_scan"}, "is_reserved": 0, "name": "7c2f9b3916e29d328fa4135aaac2e543", "lon": -77.01455966666667, "type": "electric_scooter", "bike_id": "7c2f9b3916e29d328fa4135aaac2e543", "fusion_lon": 0.0, "lat": 38.929902166666665, "fusion_lat": 0.0}, {"is_disabled": 0, "rental_uris": {"android": "https://dc.lft.to/lastmile_qr_scan", "ios": "https://dc.lft.to/lastmile_qr_scan"}, "is_reserved": 0, "name": "1665f42543859920ea7ad3b7a4c9c12a", "lon": -77.0366605, "type": "electric_scooter", "bike_id": "1665f42543859920ea7ad3b7a4c9c12a", "fusion_lon": 0.0, "lat": 38.915985, "fusion_lat": 0.0}, {"is_disabled": 0, "rental_uris": {"android": "https://dc.lft.to/lastmile_qr_scan", "ios": "https://dc.lft.to/lastmile_qr_scan"}, "is_reserved": 0, "name": "210e08c11b4ead2b20f422a406699b40", "lon": -76.9941095, "type": "electric_scooter", "bike_id": "210e08c11b4ead2b20f422a406699b40", "fusion_lon": 0.0, "lat": 38.877858, "fusion_lat": 0.0}, {"is_disabled": 0, "rental_uris": {"android": "https://dc.lft.to/lastmile_qr_scan", "ios": "https://dc.lft.to/lastmile_qr_scan"}, "is_reserved": 0, "name": "6fb39ac94793873e548fe32a90894051", "lon": -77.031551, "type": "electric_scooter", "bike_id": "6fb39ac94793873e548fe32a90894051", "fusion_lon": 0.0, "lat": 38.887548333333335, "fusion_lat": 0.0}, {"is_disabled": 0, "rental_uris": {"android": "https://dc.lft.to/lastmile_qr_scan", "ios": "https://dc.lft.to/lastmile_qr_scan"}, "is_reserved": 0, "name": "e845ba734ad4a0e3d7cc390db774ea06", "lon": -77.08525166666666, "type": "electric_bike", "bike_id": "e845ba734ad4a0e3d7cc390db774ea06", "fusion_lon": 0.0, "lat": 38.85652983333333, "fusion_lat": 0.0}, {"is_disabled": 0, "rental_uris": {"android": "https://dc.lft.to/lastmile_qr_scan", "ios": "https://dc.lft.to/lastmile_qr_scan"}, "is_reserved": 0, "name": "7b22fc77077b1b1b9c14ce016d0ce31f", "lon": -77.00597166666667, "type": "electric_scooter", "bike_id": "7b22fc77077b1b1b9c14ce016d0ce31f", "fusion_lon": 0.0, "lat": 38.90578166666667, "fusion_lat": 0.0}, {"is_disabled": 0, "rental_uris": {"android": "https://dc.lft.to/lastmile_qr_scan", "ios": "https://dc.lft.to/lastmile_qr_scan"}, "is_reserved": 0, "name": "24f6bccf44050afc8b27a853c92c8a3d", "lon": -77.02724683333334, "type": "electric_scooter", "bike_id": "24f6bccf44050afc8b27a853c92c8a3d", "fusion_lon": 0.0, "lat": 38.908560333333334, "fusion_lat": 0.0}, {"is_disabled": 0, "rental_uris": {"android": "https://dc.lft.to/lastmile_qr_scan", "ios": "https://dc.lft.to/lastmile_qr_scan"}, "is_reserved": 0, "name": "7e7be8cbf749962548d92d1c568ec6fb", "lon": -77.04169133333333, "type": "electric_scooter", "bike_id": "7e7be8cbf749962548d92d1c568ec6fb", "fusion_lon": 0.0, "lat": 38.91501016666667, "fusion_lat": 0.0}, {"is_disabled": 0, "rental_uris": {"android": "https://dc.lft.to/lastmile_qr_scan", "ios": "https://dc.lft.to/lastmile_qr_scan"}, "is_reserved": 0, "name": "b377c8fa8351f6cd51eff219c961c527", "lon": -76.96526516666667, "type": "electric_scooter", "bike_id": "b377c8fa8351f6cd51eff219c961c527", "fusion_lon": 0.0, "lat": 38.876306666666665, "fusion_lat": 0.0}, {"is_disabled": 0, "rental_uris": {"android": "https://dc.lft.to/lastmile_qr_scan", "ios": "https://dc.lft.to/lastmile_qr_scan"}, "is_reserved": 0, "name": "c3be3258d1f2e00235700a9b9bd0adcd", "lon": -76.933522, "type": "electric_scooter", "bike_id": "c3be3258d1f2e00235700a9b9bd0adcd", "fusion_lon": 0.0, "lat": 38.899043, "fusion_lat": 0.0}, {"is_disabled": 0, "rental_uris": {"android": "https://dc.lft.to/lastmile_qr_scan", "ios": "https://dc.lft.to/lastmile_qr_scan"}, "is_reserved": 0, "name": "af6aae68c33049b6989d62d7acf15806", "lon": -77.02265983333334, "type": "electric_scooter", "bike_id": "af6aae68c33049b6989d62d7acf15806", "fusion_lon": 0.0, "lat": 38.91271033333334, "fusion_lat": 0.0}, {"is_disabled": 0, "rental_uris": {"android": "https://dc.lft.to/lastmile_qr_scan", "ios": "https://dc.lft.to/lastmile_qr_scan"}, "is_reserved": 0, "name": "27f809f47c8c5ae91fc1e54d834f5e98", "lon": -77.01111883333333, "type": "electric_scooter", "bike_id": "27f809f47c8c5ae91fc1e54d834f5e98", "fusion_lon": 0.0, "lat": 38.90357016666667, "fusion_lat": 0.0}, {"is_disabled": 0, "rental_uris": {"android": "https://dc.lft.to/lastmile_qr_scan", "ios": "https://dc.lft.to/lastmile_qr_scan"}, "is_reserved": 0, "name": "8faa0606281213e3908e3a8d39be9883", "lon": -77.02428983333333, "type": "electric_scooter", "bike_id": "8faa0606281213e3908e3a8d39be9883", "fusion_lon": 0.0, "lat": 38.912575833333335, "fusion_lat": 0.0}, {"is_disabled": 0, "rental_uris": {"android": "https://dc.lft.to/lastmile_qr_scan", "ios": "https://dc.lft.to/lastmile_qr_scan"}, "is_reserved": 0, "name": "5aa89111af30218edd00ca2abce2aebc", "lon": -77.00109283333333, "type": "electric_scooter", "bike_id": "5aa89111af30218edd00ca2abce2aebc", "fusion_lon": 0.0, "lat": 38.912515166666665, "fusion_lat": 0.0}, {"is_disabled": 0, "rental_uris": {"android": "https://dc.lft.to/lastmile_qr_scan", "ios": "https://dc.lft.to/lastmile_qr_scan"}, "is_reserved": 0, "name": "84fb9636413dea62bd1e030a1d3de804", "lon": -77.01620783333334, "type": "electric_scooter", "bike_id": "84fb9636413dea62bd1e030a1d3de804", "fusion_lon": 0.0, "lat": 38.89860683333333, "fusion_lat": 0.0}, {"is_disabled": 0, "rental_uris": {"android": "https://dc.lft.to/lastmile_qr_scan", "ios": "https://dc.lft.to/lastmile_qr_scan"}, "is_reserved": 0, "name": "38cb0bbb3ef6a12e1147b6b7660fec38", "lon": -77.02794116666666, "type": "electric_scooter", "bike_id": "38cb0bbb3ef6a12e1147b6b7660fec38", "fusion_lon": 0.0, "lat": 38.9175275, "fusion_lat": 0.0}, {"is_disabled": 0, "rental_uris": {"android": "https://dc.lft.to/lastmile_qr_scan", "ios": "https://dc.lft.to/lastmile_qr_scan"}, "is_reserved": 0, "name": "f36d26b930bfc7011557798fc86eb9eb", "lon": -77.01010316666667, "type": "electric_scooter", "bike_id": "f36d26b930bfc7011557798fc86eb9eb", "fusion_lon": 0.0, "lat": 38.879656833333335, "fusion_lat": 0.0}, {"is_disabled": 0, "rental_uris": {"android": "https://dc.lft.to/lastmile_qr_scan", "ios": "https://dc.lft.to/lastmile_qr_scan"}, "is_reserved": 0, "name": "6d81dc3537dcaa60f671444f9f85b56c", "lon": -76.9948505, "type": "electric_scooter", "bike_id": "6d81dc3537dcaa60f671444f9f85b56c", "fusion_lon": 0.0, "lat": 38.932284, "fusion_lat": 0.0}, {"is_disabled": 0, "rental_uris": {"android": "https://dc.lft.to/lastmile_qr_scan", "ios": "https://dc.lft.to/lastmile_qr_scan"}, "is_reserved": 0, "name": "49c9b01c591d081e867a123760ac2ddb", "lon": -77.00898933333333, "type": "electric_scooter", "bike_id": "49c9b01c591d081e867a123760ac2ddb", "fusion_lon": 0.0, "lat": 38.895413166666664, "fusion_lat": 0.0}, {"is_disabled": 0, "rental_uris": {"android": "https://dc.lft.to/lastmile_qr_scan", "ios": "https://dc.lft.to/lastmile_qr_scan"}, "is_reserved": 0, "name": "8b00b50a1111195009ab19751f6b9f17", "lon": -77.03400916666666, "type": "electric_scooter", "bike_id": "8b00b50a1111195009ab19751f6b9f17", "fusion_lon": 0.0, "lat": 38.9196895, "fusion_lat": 0.0}, {"is_disabled": 0, "rental_uris": {"android": "https://dc.lft.to/lastmile_qr_scan", "ios": "https://dc.lft.to/lastmile_qr_scan"}, "is_reserved": 0, "name": "69547b233564d50efe281512a3dd5ec4", "lon": -77.046705, "type": "electric_scooter", "bike_id": "69547b233564d50efe281512a3dd5ec4", "fusion_lon": 0.0, "lat": 38.90740616666667, "fusion_lat": 0.0}, {"is_disabled": 0, "rental_uris": {"android": "https://dc.lft.to/lastmile_qr_scan", "ios": "https://dc.lft.to/lastmile_qr_scan"}, "is_reserved": 0, "name": "f89a45e577d24e6822bbd3c2d1c06cbd", "lon": -77.0610945, "type": "electric_scooter", "bike_id": "f89a45e577d24e6822bbd3c2d1c06cbd", "fusion_lon": 0.0, "lat": 38.943651333333335, "fusion_lat": 0.0}, {"is_disabled": 0, "rental_uris": {"android": "https://dc.lft.to/lastmile_qr_scan", "ios": "https://dc.lft.to/lastmile_qr_scan"}, "is_reserved": 0, "name": "060e74bda585571ecbce45c962db963f", "lon": -76.991653, "type": "electric_bike", "bike_id": "060e74bda585571ecbce45c962db963f", "fusion_lon": 0.0, "lat": 38.97258983333333, "fusion_lat": 0.0}, {"is_disabled": 0, "rental_uris": {"android": "https://dc.lft.to/lastmile_qr_scan", "ios": "https://dc.lft.to/lastmile_qr_scan"}, "is_reserved": 0, "name": "691b45b78d7a5faee42bcb0091466845", "lon": -77.0617215, "type": "electric_bike", "bike_id": "691b45b78d7a5faee42bcb0091466845", "fusion_lon": 0.0, "lat": 38.81273816666667, "fusion_lat": 0.0}, {"is_disabled": 0, "rental_uris": {"android": "https://dc.lft.to/lastmile_qr_scan", "ios": "https://dc.lft.to/lastmile_qr_scan"}, "is_reserved": 0, "name": "5911a345c86dbc948a831245742a118d", "lon": -77.02407283333334, "type": "electric_scooter", "bike_id": "5911a345c86dbc948a831245742a118d", "fusion_lon": 0.0, "lat": 38.91682983333333, "fusion_lat": 0.0}, {"is_disabled": 0, "rental_uris": {"android": "https://dc.lft.to/lastmile_qr_scan", "ios": "https://dc.lft.to/lastmile_qr_scan"}, "is_reserved": 0, "name": "717eb9819a04c7b2e67011b5ca3cfa4a", "lon": -77.079031, "type": "electric_bike", "bike_id": "717eb9819a04c7b2e67011b5ca3cfa4a", "fusion_lon": 0.0, "lat": 38.83935016666667, "fusion_lat": 0.0}, {"is_disabled": 0, "rental_uris": {"android": "https://dc.lft.to/lastmile_qr_scan", "ios": "https://dc.lft.to/lastmile_qr_scan"}, "is_reserved": 0, "name": "bf71c1068198a97df93f02294e1a2264", "lon": -77.02493766666667, "type": "electric_scooter", "bike_id": "bf71c1068198a97df93f02294e1a2264", "fusion_lon": 0.0, "lat": 38.94184116666667, "fusion_lat": 0.0}, {"is_disabled": 0, "rental_uris": {"android": "https://dc.lft.to/lastmile_qr_scan", "ios": "https://dc.lft.to/lastmile_qr_scan"}, "is_reserved": 0, "name": "56f8e0430772965d459dcd147dd63f2e", "lon": -77.04163483333333, "type": "electric_scooter", "bike_id": "56f8e0430772965d459dcd147dd63f2e", "fusion_lon": 0.0, "lat": 38.916193666666665, "fusion_lat": 0.0}, {"is_disabled": 0, "rental_uris": {"android": "https://dc.lft.to/lastmile_qr_scan", "ios": "https://dc.lft.to/lastmile_qr_scan"}, "is_reserved": 0, "name": "5d57abe93ed3efb473817a07a7a2ee2a", "lon": -77.0295575, "type": "electric_scooter", "bike_id": "5d57abe93ed3efb473817a07a7a2ee2a", "fusion_lon": 0.0, "lat": 38.921417166666664, "fusion_lat": 0.0}, {"is_disabled": 0, "rental_uris": {"android": "https://dc.lft.to/lastmile_qr_scan", "ios": "https://dc.lft.to/lastmile_qr_scan"}, "is_reserved": 0, "name": "fe9fddc9fda14aea1a60b633060beb35", "lon": -77.01768016666666, "type": "electric_scooter", "bike_id": "fe9fddc9fda14aea1a60b633060beb35", "fusion_lon": 0.0, "lat": 38.90276166666666, "fusion_lat": 0.0}, {"is_disabled": 0, "rental_uris": {"android": "https://dc.lft.to/lastmile_qr_scan", "ios": "https://dc.lft.to/lastmile_qr_scan"}, "is_reserved": 0, "name": "215f56e1faeea5ff0fffd5d7b62db314", "lon": -77.02803566666667, "type": "electric_scooter", "bike_id": "215f56e1faeea5ff0fffd5d7b62db314", "fusion_lon": 0.0, "lat": 38.896181, "fusion_lat": 0.0}, {"is_disabled": 0, "rental_uris": {"android": "https://dc.lft.to/lastmile_qr_scan", "ios": "https://dc.lft.to/lastmile_qr_scan"}, "is_reserved": 0, "name": "941f3ca3a88c52eccd68384d0037e6bd", "lon": -77.00065633333334, "type": "electric_scooter", "bike_id": "941f3ca3a88c52eccd68384d0037e6bd", "fusion_lon": 0.0, "lat": 38.923866833333335, "fusion_lat": 0.0}, {"is_disabled": 0, "rental_uris": {"android": "https://dc.lft.to/lastmile_qr_scan", "ios": "https://dc.lft.to/lastmile_qr_scan"}, "is_reserved": 0, "name": "6c086a9d14309c46019080532efac71a", "lon": -77.05251883333334, "type": "electric_scooter", "bike_id": "6c086a9d14309c46019080532efac71a", "fusion_lon": 0.0, "lat": 38.92381966666667, "fusion_lat": 0.0}, {"is_disabled": 0, "rental_uris": {"android": "https://dc.lft.to/lastmile_qr_scan", "ios": "https://dc.lft.to/lastmile_qr_scan"}, "is_reserved": 0, "name": "fb8fd957ac861db1aa79bd4cde3c4642", "lon": -77.02409783333333, "type": "electric_scooter", "bike_id": "fb8fd957ac861db1aa79bd4cde3c4642", "fusion_lon": 0.0, "lat": 38.91569583333333, "fusion_lat": 0.0}, {"is_disabled": 0, "rental_uris": {"android": "https://dc.lft.to/lastmile_qr_scan", "ios": "https://dc.lft.to/lastmile_qr_scan"}, "is_reserved": 0, "name": "d883ff9dc4dd95523ddfbe40a2da9b9c", "lon": -77.035265, "type": "electric_scooter", "bike_id": "d883ff9dc4dd95523ddfbe40a2da9b9c", "fusion_lon": 0.0, "lat": 38.9097455, "fusion_lat": 0.0}, {"is_disabled": 0, "rental_uris": {"android": "https://dc.lft.to/lastmile_qr_scan", "ios": "https://dc.lft.to/lastmile_qr_scan"}, "is_reserved": 0, "name": "f3f4ae4dcade8634e474ec5691324bb4", "lon": -77.02990933333334, "type": "electric_scooter", "bike_id": "f3f4ae4dcade8634e474ec5691324bb4", "fusion_lon": 0.0, "lat": 38.92470483333334, "fusion_lat": 0.0}, {"is_disabled": 0, "rental_uris": {"android": "https://dc.lft.to/lastmile_qr_scan", "ios": "https://dc.lft.to/lastmile_qr_scan"}, "is_reserved": 0, "name": "a30e1fe51249574ba890ffd4e699db1f", "lon": -77.0110795, "type": "electric_scooter", "bike_id": "a30e1fe51249574ba890ffd4e699db1f", "fusion_lon": 0.0, "lat": 38.9079125, "fusion_lat": 0.0}, {"is_disabled": 0, "rental_uris": {"android": "https://dc.lft.to/lastmile_qr_scan", "ios": "https://dc.lft.to/lastmile_qr_scan"}, "is_reserved": 0, "name": "62b146401b954ac24599c926e02064d7", "lon": -77.026667, "type": "electric_scooter", "bike_id": "62b146401b954ac24599c926e02064d7", "fusion_lon": 0.0, "lat": 38.923878333333334, "fusion_lat": 0.0}, {"is_disabled": 0, "rental_uris": {"android": "https://dc.lft.to/lastmile_qr_scan", "ios": "https://dc.lft.to/lastmile_qr_scan"}, "is_reserved": 0, "name": "00f659f45d3dbaa9d7f508c83ccd5d52", "lon": -77.01763883333334, "type": "electric_scooter", "bike_id": "00f659f45d3dbaa9d7f508c83ccd5d52", "fusion_lon": 0.0, "lat": 38.87721666666667, "fusion_lat": 0.0}, {"is_disabled": 0, "rental_uris": {"android": "https://dc.lft.to/lastmile_qr_scan", "ios": "https://dc.lft.to/lastmile_qr_scan"}, "is_reserved": 0, "name": "e9d0b082993a5adbcbf01bbc8b75d551", "lon": -77.07795483333334, "type": "electric_bike", "bike_id": "e9d0b082993a5adbcbf01bbc8b75d551", "fusion_lon": 0.0, "lat": 38.84515483333333, "fusion_lat": 0.0}, {"is_disabled": 0, "rental_uris": {"android": "https://dc.lft.to/lastmile_qr_scan", "ios": "https://dc.lft.to/lastmile_qr_scan"}, "is_reserved": 0, "name": "a069410b2b98316a1226a76f7e3e1ae7", "lon": -77.029819, "type": "electric_scooter", "bike_id": "a069410b2b98316a1226a76f7e3e1ae7", "fusion_lon": 0.0, "lat": 38.92473016666667, "fusion_lat": 0.0}, {"is_disabled": 0, "rental_uris": {"android": "https://dc.lft.to/lastmile_qr_scan", "ios": "https://dc.lft.to/lastmile_qr_scan"}, "is_reserved": 0, "name": "dc84897f21548e4b642ae2a15dc8fd86", "lon": -77.0603835, "type": "electric_scooter", "bike_id": "dc84897f21548e4b642ae2a15dc8fd86", "fusion_lon": 0.0, "lat": 38.939044, "fusion_lat": 0.0}, {"is_disabled": 0, "rental_uris": {"android": "https://dc.lft.to/lastmile_qr_scan", "ios": "https://dc.lft.to/lastmile_qr_scan"}, "is_reserved": 0, "name": "92af37c32fc73f2ba8e568a9213126da", "lon": -76.980186, "type": "electric_scooter", "bike_id": "92af37c32fc73f2ba8e568a9213126da", "fusion_lon": 0.0, "lat": 38.864029333333335, "fusion_lat": 0.0}, {"is_disabled": 0, "rental_uris": {"android": "https://dc.lft.to/lastmile_qr_scan", "ios": "https://dc.lft.to/lastmile_qr_scan"}, "is_reserved": 0, "name": "bdc5208cbeb9ad85902f6199d7fe4a56", "lon": -77.03925233333334, "type": "electric_scooter", "bike_id": "bdc5208cbeb9ad85902f6199d7fe4a56", "fusion_lon": 0.0, "lat": 38.9027075, "fusion_lat": 0.0}, {"is_disabled": 0, "rental_uris": {"android": "https://dc.lft.to/lastmile_qr_scan", "ios": "https://dc.lft.to/lastmile_qr_scan"}, "is_reserved": 0, "name": "0a053b4faf4f0d4c8e3d157306f2bc86", "lon": -76.95753, "type": "electric_scooter", "bike_id": "0a053b4faf4f0d4c8e3d157306f2bc86", "fusion_lon": 0.0, "lat": 38.8842775, "fusion_lat": 0.0}, {"is_disabled": 0, "rental_uris": {"android": "https://dc.lft.to/lastmile_qr_scan", "ios": "https://dc.lft.to/lastmile_qr_scan"}, "is_reserved": 0, "name": "ef399eb8dda3271652d1bde08a8d4ad8", "lon": -77.02229, "type": "electric_scooter", "bike_id": "ef399eb8dda3271652d1bde08a8d4ad8", "fusion_lon": 0.0, "lat": 38.8874645, "fusion_lat": 0.0}, {"is_disabled": 0, "rental_uris": {"android": "https://dc.lft.to/lastmile_qr_scan", "ios": "https://dc.lft.to/lastmile_qr_scan"}, "is_reserved": 0, "name": "a41dc4502eed7a58c669925e910a8664", "lon": -77.05025583333334, "type": "electric_scooter", "bike_id": "a41dc4502eed7a58c669925e910a8664", "fusion_lon": 0.0, "lat": 38.8957245, "fusion_lat": 0.0}, {"is_disabled": 0, "rental_uris": {"android": "https://dc.lft.to/lastmile_qr_scan", "ios": "https://dc.lft.to/lastmile_qr_scan"}, "is_reserved": 0, "name": "8db25fca6ab8990c461a2d8f8e321026", "lon": -77.03463983333333, "type": "electric_scooter", "bike_id": "8db25fca6ab8990c461a2d8f8e321026", "fusion_lon": 0.0, "lat": 38.909832333333334, "fusion_lat": 0.0}, {"is_disabled": 0, "rental_uris": {"android": "https://dc.lft.to/lastmile_qr_scan", "ios": "https://dc.lft.to/lastmile_qr_scan"}, "is_reserved": 0, "name": "7b3b4ec9743ca026bcb45efe74069ff6", "lon": -76.94999183333333, "type": "electric_scooter", "bike_id": "7b3b4ec9743ca026bcb45efe74069ff6", "fusion_lon": 0.0, "lat": 38.89392133333333, "fusion_lat": 0.0}, {"is_disabled": 0, "rental_uris": {"android": "https://dc.lft.to/lastmile_qr_scan", "ios": "https://dc.lft.to/lastmile_qr_scan"}, "is_reserved": 0, "name": "5a4f93c6cd383a5fea04793cac5292f2", "lon": -76.98833116666667, "type": "electric_scooter", "bike_id": "5a4f93c6cd383a5fea04793cac5292f2", "fusion_lon": 0.0, "lat": 38.89988433333333, "fusion_lat": 0.0}, {"is_disabled": 0, "rental_uris": {"android": "https://dc.lft.to/lastmile_qr_scan", "ios": "https://dc.lft.to/lastmile_qr_scan"}, "is_reserved": 0, "name": "bf62d43b977396b611f691e0c246327e", "lon": -77.046561, "type": "electric_scooter", "bike_id": "bf62d43b977396b611f691e0c246327e", "fusion_lon": 0.0, "lat": 38.893441, "fusion_lat": 0.0}, {"is_disabled": 0, "rental_uris": {"android": "https://dc.lft.to/lastmile_qr_scan", "ios": "https://dc.lft.to/lastmile_qr_scan"}, "is_reserved": 0, "name": "86abfaeb171b1674123b750ec393f12d", "lon": -77.01996233333334, "type": "electric_scooter", "bike_id": "86abfaeb171b1674123b750ec393f12d", "fusion_lon": 0.0, "lat": 38.875776, "fusion_lat": 0.0}, {"is_disabled": 0, "rental_uris": {"android": "https://dc.lft.to/lastmile_qr_scan", "ios": "https://dc.lft.to/lastmile_qr_scan"}, "is_reserved": 0, "name": "5e77d1c71e1d16d94a72f4bd22e10b40", "lon": -77.06527966666667, "type": "electric_scooter", "bike_id": "5e77d1c71e1d16d94a72f4bd22e10b40", "fusion_lon": 0.0, "lat": 38.9052205, "fusion_lat": 0.0}, {"is_disabled": 0, "rental_uris": {"android": "https://dc.lft.to/lastmile_qr_scan", "ios": "https://dc.lft.to/lastmile_qr_scan"}, "is_reserved": 0, "name": "5709f8d22469020ff6ce213386dce57b", "lon": -76.96681683333334, "type": "electric_bike", "bike_id": "5709f8d22469020ff6ce213386dce57b", "fusion_lon": 0.0, "lat": 38.958922333333334, "fusion_lat": 0.0}, {"is_disabled": 0, "rental_uris": {"android": "https://dc.lft.to/lastmile_qr_scan", "ios": "https://dc.lft.to/lastmile_qr_scan"}, "is_reserved": 0, "name": "a10d52d8eff6b92b28d16ab5558b61a0", "lon": -77.05189266666666, "type": "electric_scooter", "bike_id": "a10d52d8eff6b92b28d16ab5558b61a0", "fusion_lon": 0.0, "lat": 38.9254805, "fusion_lat": 0.0}, {"is_disabled": 0, "rental_uris": {"android": "https://dc.lft.to/lastmile_qr_scan", "ios": "https://dc.lft.to/lastmile_qr_scan"}, "is_reserved": 0, "name": "b41479950fc147a535adaa01159063ad", "lon": -77.026936, "type": "electric_scooter", "bike_id": "b41479950fc147a535adaa01159063ad", "fusion_lon": 0.0, "lat": 38.907362666666664, "fusion_lat": 0.0}, {"is_disabled": 0, "rental_uris": {"android": "https://dc.lft.to/lastmile_qr_scan", "ios": "https://dc.lft.to/lastmile_qr_scan"}, "is_reserved": 0, "name": "5d6f3ee84f059621c80b3fba0376683e", "lon": -77.0804565, "type": "electric_bike", "bike_id": "5d6f3ee84f059621c80b3fba0376683e", "fusion_lon": 0.0, "lat": 38.848447166666666, "fusion_lat": 0.0}, {"is_disabled": 0, "rental_uris": {"android": "https://dc.lft.to/lastmile_qr_scan", "ios": "https://dc.lft.to/lastmile_qr_scan"}, "is_reserved": 0, "name": "ad13defdaca167b7f987991912fe507a", "lon": -77.04156666666667, "type": "electric_scooter", "bike_id": "ad13defdaca167b7f987991912fe507a", "fusion_lon": 0.0, "lat": 38.914174, "fusion_lat": 0.0}, {"is_disabled": 0, "rental_uris": {"android": "https://dc.lft.to/lastmile_qr_scan", "ios": "https://dc.lft.to/lastmile_qr_scan"}, "is_reserved": 0, "name": "e64a3b2d3371003a91ce079670c677de", "lon": -77.02046083333333, "type": "electric_scooter", "bike_id": "e64a3b2d3371003a91ce079670c677de", "fusion_lon": 0.0, "lat": 38.915555833333336, "fusion_lat": 0.0}, {"is_disabled": 0, "rental_uris": {"android": "https://dc.lft.to/lastmile_qr_scan", "ios": "https://dc.lft.to/lastmile_qr_scan"}, "is_reserved": 0, "name": "63b8832d923e9dfc0ab6720beb8bd481", "lon": -77.02415516666667, "type": "electric_scooter", "bike_id": "63b8832d923e9dfc0ab6720beb8bd481", "fusion_lon": 0.0, "lat": 38.909608666666664, "fusion_lat": 0.0}, {"is_disabled": 0, "rental_uris": {"android": "https://dc.lft.to/lastmile_qr_scan", "ios": "https://dc.lft.to/lastmile_qr_scan"}, "is_reserved": 0, "name": "c4fadf11833cb2b964393a3758e670c1", "lon": -77.05424066666667, "type": "electric_scooter", "bike_id": "c4fadf11833cb2b964393a3758e670c1", "fusion_lon": 0.0, "lat": 38.92828133333333, "fusion_lat": 0.0}, {"is_disabled": 0, "rental_uris": {"android": "https://dc.lft.to/lastmile_qr_scan", "ios": "https://dc.lft.to/lastmile_qr_scan"}, "is_reserved": 0, "name": "f8a34864521a09ad450d75d6d94d885e", "lon": -77.01220766666667, "type": "electric_scooter", "bike_id": "f8a34864521a09ad450d75d6d94d885e", "fusion_lon": 0.0, "lat": 38.91689916666667, "fusion_lat": 0.0}, {"is_disabled": 0, "rental_uris": {"android": "https://dc.lft.to/lastmile_qr_scan", "ios": "https://dc.lft.to/lastmile_qr_scan"},