{"data": {"bikes": [{"lat": 38.907276833333334, "is_disabled": 0, "type": "electric_scooter", "lon": -77.0478035, "bike_id": "4d877f276c6091befec1cf64cdef7d5b", "fusion_lat": 0.0, "name": "4d877f276c6091befec1cf64cdef7d5b", "is_reserved": 0, "rental_uris": {"android": "https://dc.lft.to/lastmile_qr_scan", "ios": "https://dc.lft.to/lastmile_qr_scan"}, "fusion_lon": 0.0}, {"lat": 38.9111965, "is_disabled": 0, "type": "electric_scooter", "lon": -77.042213, "bike_id": "f6bbd1999d84c045080e4cbf75947663", "fusion_lat": 0.0, "name": "f6bbd1999d84c045080e4cbf75947663", "is_reserved": 0, "rental_uris": {"android": "https://dc.lft.to/lastmile_qr_scan", "ios": "https://dc.lft.to/lastmile_qr_scan"}, "fusion_lon": 0.0}, {"lat": 38.92247783333333, "is_disabled": 0, "type": "electric_scooter", "lon": -77.03084833333334, "bike_id": "51b85230cf0e08ab6f04b87a0c902058", "fusion_lat": 0.0, "name": "51b85230cf0e08ab6f04b87a0c902058", "is_reserved": 0, "rental_uris": {"android": "https://dc.lft.to/lastmile_qr_scan", "ios": "https://dc.lft.to/lastmile_qr_scan"}, "fusion_lon": 0.0}, {"lat": 38.94173633333333, "is_disabled": 0, "type": "electric_scooter", "lon": -77.03284916666667, "bike_id": "f4afdec433cfc9f1a9b157658f731969", "fusion_lat": 0.0, "name": "f4afdec433cfc9f1a9b157658f731969", "is_reserved": 0, "rental_uris": {"android": "https://dc.lft.to/lastmile_qr_scan", "ios": "https://dc.lft.to/lastmile_qr_scan"}, "fusion_lon": 0.0}, {"lat": 38.9195135, "is_disabled": 0, "type": "electric_scooter", "lon": -77.04883383333333, "bike_id": "e1c2f0df8d20d306ef8e6edbf8ca6dbe", "fusion_lat": 0.0, "name": "e1c2f0df8d20d306ef8e6edbf8ca6dbe", "is_reserved": 0, "rental_uris": {"android": "https://dc.lft.to/lastmile_qr_scan", "ios": "https://dc.lft.to/lastmile_qr_scan"}, "fusion_lon": 0.0}, {"lat": 38.873409333333335, "is_disabled": 0, "type": "electric_scooter", "lon": -76.99164433333334, "bike_id": "45d5eb894b695ffd5220f3ccd95c5603", "fusion_lat": 0.0, "name": "45d5eb894b695ffd5220f3ccd95c5603", "is_reserved": 0, "rental_uris": {"android": "https://dc.lft.to/lastmile_qr_scan", "ios": "https://dc.lft.to/lastmile_qr_scan"}, "fusion_lon": 0.0}, {"lat": 38.90148283333333, "is_disabled": 0, "type": "electric_scooter", "lon": -77.03321516666666, "bike_id": "2ef30b1ca79b8c1d650d0604ae4dd0d2", "fusion_lat": 0.0, "name": "2ef30b1ca79b8c1d650d0604ae4dd0d2", "is_reserved": 0, "rental_uris": {"android": "https://dc.lft.to/lastmile_qr_scan", "ios": "https://dc.lft.to/lastmile_qr_scan"}, "fusion_lon": 0.0}, {"lat": 38.902371, "is_disabled": 0, "type": "electric_scooter", "lon": -77.02596783333334, "bike_id": "3332209d89f4aa1fd02e695b1dcdc07e", "fusion_lat": 0.0, "name": "3332209d89f4aa1fd02e695b1dcdc07e", "is_reserved": 0, "rental_uris": {"android": "https://dc.lft.to/lastmile_qr_scan", "ios": "https://dc.lft.to/lastmile_qr_scan"}, "fusion_lon": 0.0}, {"lat": 38.900747, "is_disabled": 0, "type": "electric_scooter", "lon": -77.04400783333334, "bike_id": "19e4b6b9079ad3a8b0bec02b9f2f23d9", "fusion_lat": 0.0, "name": "19e4b6b9079ad3a8b0bec02b9f2f23d9", "is_reserved": 0, "rental_uris": {"android": "https://dc.lft.to/lastmile_qr_scan", "ios": "https://dc.lft.to/lastmile_qr_scan"}, "fusion_lon": 0.0}, {"lat": 38.876282, "is_disabled": 0, "type": "electric_scooter", "lon": -76.9652585, "bike_id": "670e83560e15b80ffdfa917126acad71", "fusion_lat": 0.0, "name": "670e83560e15b80ffdfa917126acad71", "is_reserved": 0, "rental_uris": {"android": "https://dc.lft.to/lastmile_qr_scan", "ios": "https://dc.lft.to/lastmile_qr_scan"}, "fusion_lon": 0.0}, {"lat": 38.964353333333335, "is_disabled": 0, "type": "electric_bike", "lon": -77.02154316666666, "bike_id": "2ecf65cda2ac2680050afa710edb5a55", "fusion_lat": 0.0, "name": "2ecf65cda2ac2680050afa710edb5a55", "is_reserved": 0, "rental_uris": {"android": "https://dc.lft.to/lastmile_qr_scan", "ios": "https://dc.lft.to/lastmile_qr_scan"}, "fusion_lon": 0.0}, {"lat": 38.90732933333334, "is_disabled": 0, "type": "electric_scooter", "lon": -77.03991016666667, "bike_id": "c5f1dc14c9728476db595a6ba050b5b2", "fusion_lat": 0.0, "name": "c5f1dc14c9728476db595a6ba050b5b2", "is_reserved": 0, "rental_uris": {"android": "https://dc.lft.to/lastmile_qr_scan", "ios": "https://dc.lft.to/lastmile_qr_scan"}, "fusion_lon": 0.0}, {"lat": 38.8925215, "is_disabled": 0, "type": "electric_scooter", "lon": -77.033497, "bike_id": "205fabddb5f6bdbdea16fa61d5bf960f", "fusion_lat": 0.0, "name": "205fabddb5f6bdbdea16fa61d5bf960f", "is_reserved": 0, "rental_uris": {"android": "https://dc.lft.to/lastmile_qr_scan", "ios": "https://dc.lft.to/lastmile_qr_scan"}, "fusion_lon": 0.0}, {"lat": 38.85190133333333, "is_disabled": 0, "type": "electric_scooter", "lon": -76.97622216666667, "bike_id": "e28a9a807f55f6aac05cc2ef61525b4d", "fusion_lat": 0.0, "name": "e28a9a807f55f6aac05cc2ef61525b4d", "is_reserved": 0, "rental_uris": {"android": "https://dc.lft.to/lastmile_qr_scan", "ios": "https://dc.lft.to/lastmile_qr_scan"}, "fusion_lon": 0.0}, {"lat": 38.862567, "is_disabled": 0, "type": "electric_scooter", "lon": -76.99516783333334, "bike_id": "5055fc67656957339f67674080da9650", "fusion_lat": 0.0, "name": "5055fc67656957339f67674080da9650", "is_reserved": 0, "rental_uris": {"android": "https://dc.lft.to/lastmile_qr_scan", "ios": "https://dc.lft.to/lastmile_qr_scan"}, "fusion_lon": 0.0}, {"lat": 38.9373915, "is_disabled": 0, "type": "electric_scooter", "lon": -77.0362135, "bike_id": "41ba68dbd9e8324cafdea32ca6411636", "fusion_lat": 0.0, "name": "41ba68dbd9e8324cafdea32ca6411636", "is_reserved": 0, "rental_uris": {"android": "https://dc.lft.to/lastmile_qr_scan", "ios": "https://dc.lft.to/lastmile_qr_scan"}, "fusion_lon": 0.0}, {"lat": 38.92588683333334, "is_disabled": 0, "type": "electric_scooter", "lon": -77.04399183333334, "bike_id": "fe7e3d703481caeb2177e09722ee4d69", "fusion_lat": 0.0, "name": "fe7e3d703481caeb2177e09722ee4d69", "is_reserved": 0, "rental_uris": {"android": "https://dc.lft.to/lastmile_qr_scan", "ios": "https://dc.lft.to/lastmile_qr_scan"}, "fusion_lon": 0.0}, {"lat": 38.903699, "is_disabled": 0, "type": "electric_scooter", "lon": -77.03850916666667, "bike_id": "836e6deb5eaf9ded6dfeb7e1d69b6d94", "fusion_lat": 0.0, "name": "836e6deb5eaf9ded6dfeb7e1d69b6d94", "is_reserved": 0, "rental_uris": {"android": "https://dc.lft.to/lastmile_qr_scan", "ios": "https://dc.lft.to/lastmile_qr_scan"}, "fusion_lon": 0.0}, {"lat": 38.898525666666664, "is_disabled": 0, "type": "electric_scooter", "lon": -76.99033883333334, "bike_id": "be150fb823f4d82958ab4c66a43f3a2f", "fusion_lat": 0.0, "name": "be150fb823f4d82958ab4c66a43f3a2f", "is_reserved": 0, "rental_uris": {"android": "https://dc.lft.to/lastmile_qr_scan", "ios": "https://dc.lft.to/lastmile_qr_scan"}, "fusion_lon": 0.0}, {"lat": 38.897360666666664, "is_disabled": 0, "type": "electric_scooter", "lon": -77.04999216666667, "bike_id": "3f2a5fe1b7691186f9afa8ae6fa0b4ab", "fusion_lat": 0.0, "name": "3f2a5fe1b7691186f9afa8ae6fa0b4ab", "is_reserved": 0, "rental_uris": {"android": "https://dc.lft.to/lastmile_qr_scan", "ios": "https://dc.lft.to/lastmile_qr_scan"}, "fusion_lon": 0.0}, {"lat": 38.902505833333336, "is_disabled": 0, "type": "electric_scooter", "lon": -77.01749266666667, "bike_id": "914c8231fa50a3176038232de0f833ad", "fusion_lat": 0.0, "name": "914c8231fa50a3176038232de0f833ad", "is_reserved": 0, "rental_uris": {"android": "https://dc.lft.to/lastmile_qr_scan", "ios": "https://dc.lft.to/lastmile_qr_scan"}, "fusion_lon": 0.0}, {"lat": 38.90971616666667, "is_disabled": 0, "type": "electric_scooter", "lon": -77.04795083333333, "bike_id": "01c6ed840e06914c40b39ed769604a04", "fusion_lat": 0.0, "name": "01c6ed840e06914c40b39ed769604a04", "is_reserved": 0, "rental_uris": {"android": "https://dc.lft.to/lastmile_qr_scan", "ios": "https://dc.lft.to/lastmile_qr_scan"}, "fusion_lon": 0.0}, {"lat": 38.936568666666666, "is_disabled": 0, "type": "electric_bike", "lon": -76.95220383333333, "bike_id": "ff581db19b949d6db8ef953af02b9234", "fusion_lat": 0.0, "name": "ff581db19b949d6db8ef953af02b9234", "is_reserved": 0, "rental_uris": {"android": "https://dc.lft.to/lastmile_qr_scan", "ios": "https://dc.lft.to/lastmile_qr_scan"}, "fusion_lon": 0.0}, {"lat": 39.03425166666667, "is_disabled": 0, "type": "electric_bike", "lon": -77.04308266666666, "bike_id": "b4c62c9d397dc28fb3ec9eb47ec20bc7", "fusion_lat": 0.0, "name": "b4c62c9d397dc28fb3ec9eb47ec20bc7", "is_reserved": 0, "rental_uris": {"android": "https://dc.lft.to/lastmile_qr_scan", "ios": "https://dc.lft.to/lastmile_qr_scan"}, "fusion_lon": 0.0}, {"lat": 38.94550183333333, "is_disabled": 0, "type": "electric_bike", "lon": -76.8953505, "bike_id": "b5213cc55063339edb40af8346c55c73", "fusion_lat": 0.0, "name": "b5213cc55063339edb40af8346c55c73", "is_reserved": 0, "rental_uris": {"android": "https://dc.lft.to/lastmile_qr_scan", "ios": "https://dc.lft.to/lastmile_qr_scan"}, "fusion_lon": 0.0}, {"lat": 38.9925915, "is_disabled": 0, "type": "electric_scooter", "lon": -77.0365655, "bike_id": "32a9a9b90722cb02150f6dcc9768f02f", "fusion_lat": 0.0, "name": "32a9a9b90722cb02150f6dcc9768f02f", "is_reserved": 0, "rental_uris": {"android": "https://dc.lft.to/lastmile_qr_scan", "ios": "https://dc.lft.to/lastmile_qr_scan"}, "fusion_lon": 0.0}, {"lat": 38.905658833333334, "is_disabled": 0, "type": "electric_scooter", "lon": -77.00579116666667, "bike_id": "d984f8144ed8c963312b41f1bf24b512", "fusion_lat": 0.0, "name": "d984f8144ed8c963312b41f1bf24b512", "is_reserved": 0, "rental_uris": {"android": "https://dc.lft.to/lastmile_qr_scan", "ios": "https://dc.lft.to/lastmile_qr_scan"}, "fusion_lon": 0.0}, {"lat": 38.919408, "is_disabled": 0, "type": "electric_scooter", "lon": -77.07059983333333, "bike_id": "72e71e0e3339ff272f08caf70efdb229", "fusion_lat": 0.0, "name": "72e71e0e3339ff272f08caf70efdb229", "is_reserved": 0, "rental_uris": {"android": "https://dc.lft.to/lastmile_qr_scan", "ios": "https://dc.lft.to/lastmile_qr_scan"}, "fusion_lon": 0.0}, {"lat": 38.844302, "is_disabled": 0, "type": "electric_scooter", "lon": -76.99664116666666, "bike_id": "691feedae7ed06324fc422e4c62d5619", "fusion_lat": 0.0, "name": "691feedae7ed06324fc422e4c62d5619", "is_reserved": 0, "rental_uris": {"android": "https://dc.lft.to/lastmile_qr_scan", "ios": "https://dc.lft.to/lastmile_qr_scan"}, "fusion_lon": 0.0}, {"lat": 38.93478283333334, "is_disabled": 0, "type": "electric_scooter", "lon": -77.0358115, "bike_id": "b4273e27b5e77461b28d47d9a1fab836", "fusion_lat": 0.0, "name": "b4273e27b5e77461b28d47d9a1fab836", "is_reserved": 0, "rental_uris": {"android": "https://dc.lft.to/lastmile_qr_scan", "ios": "https://dc.lft.to/lastmile_qr_scan"}, "fusion_lon": 0.0}, {"lat": 38.84293566666667, "is_disabled": 0, "type": "electric_scooter", "lon": -76.99934166666667, "bike_id": "330df419f19d5cf27010c2c658d13f4b", "fusion_lat": 0.0, "name": "330df419f19d5cf27010c2c658d13f4b", "is_reserved": 0, "rental_uris": {"android": "https://dc.lft.to/lastmile_qr_scan", "ios": "https://dc.lft.to/lastmile_qr_scan"}, "fusion_lon": 0.0}, {"lat": 38.842688333333335, "is_disabled": 0, "type": "electric_bike", "lon": -76.98835233333334, "bike_id": "faeeb033db99cbfe674c3ff66c17e780", "fusion_lat": 0.0, "name": "faeeb033db99cbfe674c3ff66c17e780", "is_reserved": 0, "rental_uris": {"android": "https://dc.lft.to/lastmile_qr_scan", "ios": "https://dc.lft.to/lastmile_qr_scan"}, "fusion_lon": 0.0}, {"lat": 38.932304333333335, "is_disabled": 0, "type": "electric_scooter", "lon": -76.99602316666666, "bike_id": "dba1e0aff255e179e2ca0027ac9917e5", "fusion_lat": 0.0, "name": "dba1e0aff255e179e2ca0027ac9917e5", "is_reserved": 0, "rental_uris": {"android": "https://dc.lft.to/lastmile_qr_scan", "ios": "https://dc.lft.to/lastmile_qr_scan"}, "fusion_lon": 0.0}, {"lat": 38.942873666666664, "is_disabled": 0, "type": "electric_scooter", "lon": -77.02174883333333, "bike_id": "44b274fddec8c1c3e2b5698956d19ae8", "fusion_lat": 0.0, "name": "44b274fddec8c1c3e2b5698956d19ae8", "is_reserved": 0, "rental_uris": {"android": "https://dc.lft.to/lastmile_qr_scan", "ios": "https://dc.lft.to/lastmile_qr_scan"}, "fusion_lon": 0.0}, {"lat": 38.8757495, "is_disabled": 0, "type": "electric_bike", "lon": -77.105614, "bike_id": "5cd0eee9708a90c41ecde832b0de62f2", "fusion_lat": 0.0, "name": "5cd0eee9708a90c41ecde832b0de62f2", "is_reserved": 0, "rental_uris": {"android": "https://dc.lft.to/lastmile_qr_scan", "ios": "https://dc.lft.to/lastmile_qr_scan"}, "fusion_lon": 0.0}, {"lat": 38.914168333333336, "is_disabled": 0, "type": "electric_scooter", "lon": -77.0399995, "bike_id": "a7df1f4aa91780b4ab313d851c4be32c", "fusion_lat": 0.0, "name": "a7df1f4aa91780b4ab313d851c4be32c", "is_reserved": 0, "rental_uris": {"android": "https://dc.lft.to/lastmile_qr_scan", "ios": "https://dc.lft.to/lastmile_qr_scan"}, "fusion_lon": 0.0}, {"lat": 38.911989, "is_disabled": 0, "type": "electric_scooter", "lon": -77.001896, "bike_id": "c3f106006e0d126571412bb3e18aa327", "fusion_lat": 0.0, "name": "c3f106006e0d126571412bb3e18aa327", "is_reserved": 0, "rental_uris": {"android": "https://dc.lft.to/lastmile_qr_scan", "ios": "https://dc.lft.to/lastmile_qr_scan"}, "fusion_lon": 0.0}, {"lat": 38.887669833333334, "is_disabled": 0, "type": "electric_scooter", "lon": -76.9560175, "bike_id": "25cbbf6454edc1b95e1a818020e69532", "fusion_lat": 0.0, "name": "25cbbf6454edc1b95e1a818020e69532", "is_reserved": 0, "rental_uris": {"android": "https://dc.lft.to/lastmile_qr_scan", "ios": "https://dc.lft.to/lastmile_qr_scan"}, "fusion_lon": 0.0}, {"lat": 38.8662535, "is_disabled": 0, "type": "electric_scooter", "lon": -76.98700716666667, "bike_id": "63e7ab11d58d1ddb8a96f064efb88d1e", "fusion_lat": 0.0, "name": "63e7ab11d58d1ddb8a96f064efb88d1e", "is_reserved": 0, "rental_uris": {"android": "https://dc.lft.to/lastmile_qr_scan", "ios": "https://dc.lft.to/lastmile_qr_scan"}, "fusion_lon": 0.0}, {"lat": 38.8849155, "is_disabled": 0, "type": "electric_scooter", "lon": -77.00712, "bike_id": "405f810a9753dbbca5875a2f860de75e", "fusion_lat": 0.0, "name": "405f810a9753dbbca5875a2f860de75e", "is_reserved": 0, "rental_uris": {"android": "https://dc.lft.to/lastmile_qr_scan", "ios": "https://dc.lft.to/lastmile_qr_scan"}, "fusion_lon": 0.0}, {"lat": 38.90246833333333, "is_disabled": 0, "type": "electric_scooter", "lon": -77.04603183333333, "bike_id": "5445b876520d4e8e0de1c9c23cb5fcee", "fusion_lat": 0.0, "name": "5445b876520d4e8e0de1c9c23cb5fcee", "is_reserved": 0, "rental_uris": {"android": "https://dc.lft.to/lastmile_qr_scan", "ios": "https://dc.lft.to/lastmile_qr_scan"}, "fusion_lon": 0.0}, {"lat": 38.924959, "is_disabled": 0, "type": "electric_scooter", "lon": -77.02150633333333, "bike_id": "316e14651e860bde57675b3d70fda385", "fusion_lat": 0.0, "name": "316e14651e860bde57675b3d70fda385", "is_reserved": 0, "rental_uris": {"android": "https://dc.lft.to/lastmile_qr_scan", "ios": "https://dc.lft.to/lastmile_qr_scan"}, "fusion_lon": 0.0}, {"lat": 38.88928633333333, "is_disabled": 0, "type": "electric_scooter", "lon": -76.97374916666666, "bike_id": "3dcac08481aa80404dee1f0f079ba669", "fusion_lat": 0.0, "name": "3dcac08481aa80404dee1f0f079ba669", "is_reserved": 0, "rental_uris": {"android": "https://dc.lft.to/lastmile_qr_scan", "ios": "https://dc.lft.to/lastmile_qr_scan"}, "fusion_lon": 0.0}, {"lat": 38.87983033333333, "is_disabled": 0, "type": "electric_bike", "lon": -76.91597266666666, "bike_id": "a0ba5e4efab142561d57c5d673f52e86", "fusion_lat": 0.0, "name": "a0ba5e4efab142561d57c5d673f52e86", "is_reserved": 0, "rental_uris": {"android": "https://dc.lft.to/lastmile_qr_scan", "ios": "https://dc.lft.to/lastmile_qr_scan"}, "fusion_lon": 0.0}, {"lat": 38.909364333333336, "is_disabled": 0, "type": "electric_scooter", "lon": -77.03854, "bike_id": "078c9c37cd63327d9005a3cad526254d", "fusion_lat": 0.0, "name": "078c9c37cd63327d9005a3cad526254d", "is_reserved": 0, "rental_uris": {"android": "https://dc.lft.to/lastmile_qr_scan", "ios": "https://dc.lft.to/lastmile_qr_scan"}, "fusion_lon": 0.0}, {"lat": 38.90854516666667, "is_disabled": 0, "type": "electric_scooter", "lon": -77.047725, "bike_id": "aa19c365d81e2b4fec883f8948bb7403", "fusion_lat": 0.0, "name": "aa19c365d81e2b4fec883f8948bb7403", "is_reserved": 0, "rental_uris": {"android": "https://dc.lft.to/lastmile_qr_scan", "ios": "https://dc.lft.to/lastmile_qr_scan"}, "fusion_lon": 0.0}, {"lat": 38.86257166666667, "is_disabled": 0, "type": "electric_scooter", "lon": -76.99512466666667, "bike_id": "ac5bce7f9fba2001e2607266d68ac5a4", "fusion_lat": 0.0, "name": "ac5bce7f9fba2001e2607266d68ac5a4", "is_reserved": 0, "rental_uris": {"android": "https://dc.lft.to/lastmile_qr_scan", "ios": "https://dc.lft.to/lastmile_qr_scan"}, "fusion_lon": 0.0}, {"lat": 38.94088466666667, "is_disabled": 0, "type": "electric_scooter", "lon": -77.023093, "bike_id": "01142eb5d4832ce81763b2c31c77ad91", "fusion_lat": 0.0, "name": "01142eb5d4832ce81763b2c31c77ad91", "is_reserved": 0, "rental_uris": {"android": "https://dc.lft.to/lastmile_qr_scan", "ios": "https://dc.lft.to/lastmile_qr_scan"}, "fusion_lon": 0.0}, {"lat": 38.90075933333333, "is_disabled": 0, "type": "electric_scooter", "lon": -77.0270655, "bike_id": "2882f4b0cb22e9c27d846ff5f0f175bc", "fusion_lat": 0.0, "name": "2882f4b0cb22e9c27d846ff5f0f175bc", "is_reserved": 0, "rental_uris": {"android": "https://dc.lft.to/lastmile_qr_scan", "ios": "https://dc.lft.to/lastmile_qr_scan"}, "fusion_lon": 0.0}, {"lat": 38.8616135, "is_disabled": 0, "type": "electric_bike", "lon": -77.130935, "bike_id": "1c9047a49facb92c1bc43e3908083231", "fusion_lat": 0.0, "name": "1c9047a49facb92c1bc43e3908083231", "is_reserved": 0, "rental_uris": {"android": "https://dc.lft.to/lastmile_qr_scan", "ios": "https://dc.lft.to/lastmile_qr_scan"}, "fusion_lon": 0.0}, {"lat": 38.93737016666667, "is_disabled": 0, "type": "electric_scooter", "lon": -77.03472783333333, "bike_id": "bde80615d1c2826a880b5268ddf7dd71", "fusion_lat": 0.0, "name": "bde80615d1c2826a880b5268ddf7dd71", "is_reserved": 0, "rental_uris": {"android": "https://dc.lft.to/lastmile_qr_scan", "ios": "https://dc.lft.to/lastmile_qr_scan"}, "fusion_lon": 0.0}, {"lat": 38.921841, "is_disabled": 0, "type": "electric_scooter", "lon": -77.047076, "bike_id": "c60312771beefc424e074c4d446a5ab5", "fusion_lat": 0.0, "name": "c60312771beefc424e074c4d446a5ab5", "is_reserved": 0, "rental_uris": {"android": "https://dc.lft.to/lastmile_qr_scan", "ios": "https://dc.lft.to/lastmile_qr_scan"}, "fusion_lon": 0.0}, {"lat": 38.9540375, "is_disabled": 0, "type": "electric_scooter", "lon": -77.027449, "bike_id": "0fb5e731886418236335ef3185581711", "fusion_lat": 0.0, "name": "0fb5e731886418236335ef3185581711", "is_reserved": 0, "rental_uris": {"android": "https://dc.lft.to/lastmile_qr_scan", "ios": "https://dc.lft.to/lastmile_qr_scan"}, "fusion_lon": 0.0}, {"lat": 38.88577466666667, "is_disabled": 0, "type": "electric_scooter", "lon": -76.91912733333334, "bike_id": "a7cf105cfddea1ea2b2c27c7f64e0177", "fusion_lat": 0.0, "name": "a7cf105cfddea1ea2b2c27c7f64e0177", "is_reserved": 0, "rental_uris": {"android": "https://dc.lft.to/lastmile_qr_scan", "ios": "https://dc.lft.to/lastmile_qr_scan"}, "fusion_lon": 0.0}, {"lat": 38.92248466666667, "is_disabled": 0, "type": "electric_scooter", "lon": -77.03083866666667, "bike_id": "93ce6c3bf260f910ab52156db15898ad", "fusion_lat": 0.0, "name": "93ce6c3bf260f910ab52156db15898ad", "is_reserved": 0, "rental_uris": {"android": "https://dc.lft.to/lastmile_qr_scan", "ios": "https://dc.lft.to/lastmile_qr_scan"}, "fusion_lon": 0.0}, {"lat": 38.92739816666667, "is_disabled": 0, "type": "electric_scooter", "lon": -77.02589116666667, "bike_id": "d8db89b887e029eca093391ca50edf6e", "fusion_lat": 0.0, "name": "d8db89b887e029eca093391ca50edf6e", "is_reserved": 0, "rental_uris": {"android": "https://dc.lft.to/lastmile_qr_scan", "ios": "https://dc.lft.to/lastmile_qr_scan"}, "fusion_lon": 0.0}, {"lat": 38.920890666666665, "is_disabled": 0, "type": "electric_scooter", "lon": -77.04197533333334, "bike_id": "b5daeca5f0d5b8448249cee8ace084aa", "fusion_lat": 0.0, "name": "b5daeca5f0d5b8448249cee8ace084aa", "is_reserved": 0, "rental_uris": {"android": "https://dc.lft.to/lastmile_qr_scan", "ios": "https://dc.lft.to/lastmile_qr_scan"}, "fusion_lon": 0.0}, {"lat": 38.91401333333334, "is_disabled": 0, "type": "electric_scooter", "lon": -77.02607, "bike_id": "0951da57cbc79ba4c192379ff624c233", "fusion_lat": 0.0, "name": "0951da57cbc79ba4c192379ff624c233", "is_reserved": 0, "rental_uris": {"android": "https://dc.lft.to/lastmile_qr_scan", "ios": "https://dc.lft.to/lastmile_qr_scan"}, "fusion_lon": 0.0}, {"lat": 38.89853, "is_disabled": 0, "type": "electric_scooter", "lon": -76.98177333333334, "bike_id": "c8630311810048f0044fe88bd5ade6d4", "fusion_lat": 0.0, "name": "c8630311810048f0044fe88bd5ade6d4", "is_reserved": 0, "rental_uris": {"android": "https://dc.lft.to/lastmile_qr_scan", "ios": "https://dc.lft.to/lastmile_qr_scan"}, "fusion_lon": 0.0}, {"lat": 38.926055166666664, "is_disabled": 0, "type": "electric_scooter", "lon": -77.05695333333334, "bike_id": "6f8b9ce746a712490b0fa8b25fb85645", "fusion_lat": 0.0, "name": "6f8b9ce746a712490b0fa8b25fb85645", "is_reserved": 0, "rental_uris": {"android": "https://dc.lft.to/lastmile_qr_scan", "ios": "https://dc.lft.to/lastmile_qr_scan"}, "fusion_lon": 0.0}, {"lat": 38.91424116666666, "is_disabled": 0, "type": "electric_scooter", "lon": -77.03206833333333, "bike_id": "d6b101c9b8dd4ed4f2a7029da59daf49", "fusion_lat": 0.0, "name": "d6b101c9b8dd4ed4f2a7029da59daf49", "is_reserved": 0, "rental_uris": {"android": "https://dc.lft.to/lastmile_qr_scan", "ios": "https://dc.lft.to/lastmile_qr_scan"}, "fusion_lon": 0.0}, {"lat": 38.900948666666665, "is_disabled": 0, "type": "electric_scooter", "lon": -77.05600783333334, "bike_id": "8de4bc7141191171714b98d998ab0e7a", "fusion_lat": 0.0, "name": "8de4bc7141191171714b98d998ab0e7a", "is_reserved": 0, "rental_uris": {"android": "https://dc.lft.to/lastmile_qr_scan", "ios": "https://dc.lft.to/lastmile_qr_scan"}, "fusion_lon": 0.0}, {"lat": 38.927629333333336, "is_disabled": 0, "type": "electric_bike", "lon": -77.06883616666667, "bike_id": "9fd500b10b146d777150055fa3c2dd86", "fusion_lat": 0.0, "name": "9fd500b10b146d777150055fa3c2dd86", "is_reserved": 0, "rental_uris": {"android": "https://dc.lft.to/lastmile_qr_scan", "ios": "https://dc.lft.to/lastmile_qr_scan"}, "fusion_lon": 0.0}, {"lat": 38.900279833333336, "is_disabled": 0, "type": "electric_scooter", "lon": -77.03318466666667, "bike_id": "4606486272e65bc0b643fbd0b8cdf663", "fusion_lat": 0.0, "name": "4606486272e65bc0b643fbd0b8cdf663", "is_reserved": 0, "rental_uris": {"android": "https://dc.lft.to/lastmile_qr_scan", "ios": "https://dc.lft.to/lastmile_qr_scan"}, "fusion_lon": 0.0}, {"lat": 38.88975333333333, "is_disabled": 0, "type": "electric_scooter", "lon": -76.93742016666667, "bike_id": "92afb218996783447e49ca8f682a7042", "fusion_lat": 0.0, "name": "92afb218996783447e49ca8f682a7042", "is_reserved": 0, "rental_uris": {"android": "https://dc.lft.to/lastmile_qr_scan", "ios": "https://dc.lft.to/lastmile_qr_scan"}, "fusion_lon": 0.0}, {"lat": 38.899770333333336, "is_disabled": 0, "type": "electric_scooter", "lon": -77.01902533333333, "bike_id": "6328e3c058d96f976e0ea60e8520c22d", "fusion_lat": 0.0, "name": "6328e3c058d96f976e0ea60e8520c22d", "is_reserved": 0, "rental_uris": {"android": "https://dc.lft.to/lastmile_qr_scan", "ios": "https://dc.lft.to/lastmile_qr_scan"}, "fusion_lon": 0.0}, {"lat": 38.91707533333334, "is_disabled": 0, "type": "electric_scooter", "lon": -77.03217716666667, "bike_id": "7b13b3a4eb18e4a05d6fcdf4598ff415", "fusion_lat": 0.0, "name": "7b13b3a4eb18e4a05d6fcdf4598ff415", "is_reserved": 0, "rental_uris": {"android": "https://dc.lft.to/lastmile_qr_scan", "ios": "https://dc.lft.to/lastmile_qr_scan"}, "fusion_lon": 0.0}, {"lat": 38.9451275, "is_disabled": 0, "type": "electric_scooter", "lon": -77.0217405, "bike_id": "b2cc3c995816c652d64a733dcb34e28d", "fusion_lat": 0.0, "name": "b2cc3c995816c652d64a733dcb34e28d", "is_reserved": 0, "rental_uris": {"android": "https://dc.lft.to/lastmile_qr_scan", "ios": "https://dc.lft.to/lastmile_qr_scan"}, "fusion_lon": 0.0}, {"lat": 38.892235666666664, "is_disabled": 0, "type": "electric_scooter", "lon": -76.9329615, "bike_id": "56d670036510542d24fd4b18f7959f2e", "fusion_lat": 0.0, "name": "56d670036510542d24fd4b18f7959f2e", "is_reserved": 0, "rental_uris": {"android": "https://dc.lft.to/lastmile_qr_scan", "ios": "https://dc.lft.to/lastmile_qr_scan"}, "fusion_lon": 0.0}, {"lat": 38.904113, "is_disabled": 0, "type": "electric_scooter", "lon": -77.0250425, "bike_id": "42bf65b6fd542ff39597a594724957a9", "fusion_lat": 0.0, "name": "42bf65b6fd542ff39597a594724957a9", "is_reserved": 0, "rental_uris": {"android": "https://dc.lft.to/lastmile_qr_scan", "ios": "https://dc.lft.to/lastmile_qr_scan"}, "fusion_lon": 0.0}, {"lat": 38.932250833333335, "is_disabled": 0, "type": "electric_scooter", "lon": -77.02732816666666, "bike_id": "8201a67c00d6a526561689a5b95ac8a4", "fusion_lat": 0.0, "name": "8201a67c00d6a526561689a5b95ac8a4", "is_reserved": 0, "rental_uris": {"android": "https://dc.lft.to/lastmile_qr_scan", "ios": "https://dc.lft.to/lastmile_qr_scan"}, "fusion_lon": 0.0}, {"lat": 38.8963785, "is_disabled": 0, "type": "electric_scooter", "lon": -77.04496483333334, "bike_id": "1446f3ce32a996013465faa6067051d9", "fusion_lat": 0.0, "name": "1446f3ce32a996013465faa6067051d9", "is_reserved": 0, "rental_uris": {"android": "https://dc.lft.to/lastmile_qr_scan", "ios": "https://dc.lft.to/lastmile_qr_scan"}, "fusion_lon": 0.0}, {"lat": 38.92878233333333, "is_disabled": 0, "type": "electric_scooter", "lon": -77.0341575, "bike_id": "7ddcf525cbe9f802d29ec80814738f73", "fusion_lat": 0.0, "name": "7ddcf525cbe9f802d29ec80814738f73", "is_reserved": 0, "rental_uris": {"android": "https://dc.lft.to/lastmile_qr_scan", "ios": "https://dc.lft.to/lastmile_qr_scan"}, "fusion_lon": 0.0}, {"lat": 38.908571, "is_disabled": 0, "type": "electric_scooter", "lon": -77.029309, "bike_id": "c3839a2bf535482065ae1a1a87ea7e22", "fusion_lat": 0.0, "name": "c3839a2bf535482065ae1a1a87ea7e22", "is_reserved": 0, "rental_uris": {"android": "https://dc.lft.to/lastmile_qr_scan", "ios": "https://dc.lft.to/lastmile_qr_scan"}, "fusion_lon": 0.0}, {"lat": 38.8650795, "is_disabled": 0, "type": "electric_scooter", "lon": -76.99009033333333, "bike_id": "20290e06e5912d1879106b9df5062f85", "fusion_lat": 0.0, "name": "20290e06e5912d1879106b9df5062f85", "is_reserved": 0, "rental_uris": {"android": "https://dc.lft.to/lastmile_qr_scan", "ios": "https://dc.lft.to/lastmile_qr_scan"}, "fusion_lon": 0.0}, {"lat": 38.90014716666667, "is_disabled": 0, "type": "electric_scooter", "lon": -77.01199583333333, "bike_id": "647bec2ca452257489eaf7a3660c8816", "fusion_lat": 0.0, "name": "647bec2ca452257489eaf7a3660c8816", "is_reserved": 0, "rental_uris": {"android": "https://dc.lft.to/lastmile_qr_scan", "ios": "https://dc.lft.to/lastmile_qr_scan"}, "fusion_lon": 0.0}, {"lat": 38.90059683333333, "is_disabled": 0, "type": "electric_scooter", "lon": -77.05076516666666, "bike_id": "233c82ebd7561d6933ee405a9d2d7160", "fusion_lat": 0.0, "name": "233c82ebd7561d6933ee405a9d2d7160", "is_reserved": 0, "rental_uris": {"android": "https://dc.lft.to/lastmile_qr_scan", "ios": "https://dc.lft.to/lastmile_qr_scan"}, "fusion_lon": 0.0}, {"lat": 38.8848725, "is_disabled": 0, "type": "electric_scooter", "lon": -77.0240955, "bike_id": "9e676c9d98c27f77c4d0b537987ce162", "fusion_lat": 0.0, "name": "9e676c9d98c27f77c4d0b537987ce162", "is_reserved": 0, "rental_uris": {"android": "https://dc.lft.to/lastmile_qr_scan", "ios": "https://dc.lft.to/lastmile_qr_scan"}, "fusion_lon": 0.0}, {"lat": 38.949212, "is_disabled": 0, "type": "electric_bike", "lon": -77.00800866666667, "bike_id": "43f2b3bdc7ca50126b525f3828019b02", "fusion_lat": 0.0, "name": "43f2b3bdc7ca50126b525f3828019b02", "is_reserved": 0, "rental_uris": {"android": "https://dc.lft.to/lastmile_qr_scan", "ios": "https://dc.lft.to/lastmile_qr_scan"}, "fusion_lon": 0.0}, {"lat": 38.86507066666667, "is_disabled": 0, "type": "electric_scooter", "lon": -76.990067, "bike_id": "02271d52f0902e1c35567d248e564b0d", "fusion_lat": 0.0, "name": "02271d52f0902e1c35567d248e564b0d", "is_reserved": 0, "rental_uris": {"android": "https://dc.lft.to/lastmile_qr_scan", "ios": "https://dc.lft.to/lastmile_qr_scan"}, "fusion_lon": 0.0}, {"lat": 38.881274166666664, "is_disabled": 0, "type": "electric_scooter", "lon": -77.015997, "bike_id": "79af6a1207c0fc69f42fb8cddb97d1ef", "fusion_lat": 0.0, "name": "79af6a1207c0fc69f42fb8cddb97d1ef", "is_reserved": 0, "rental_uris": {"android": "https://dc.lft.to/lastmile_qr_scan", "ios": "https://dc.lft.to/lastmile_qr_scan"}, "fusion_lon": 0.0}, {"lat": 38.8671355, "is_disabled": 0, "type": "electric_scooter", "lon": -76.98725616666667, "bike_id": "285790347132c17be03f67d656c49ae3", "fusion_lat": 0.0, "name": "285790347132c17be03f67d656c49ae3", "is_reserved": 0, "rental_uris": {"android": "https://dc.lft.to/lastmile_qr_scan", "ios": "https://dc.lft.to/lastmile_qr_scan"}, "fusion_lon": 0.0}, {"lat": 38.92506516666667, "is_disabled": 0, "type": "electric_scooter", "lon": -76.98228266666666, "bike_id": "258c2d7e9fc1b516ce8685a55605b1df", "fusion_lat": 0.0, "name": "258c2d7e9fc1b516ce8685a55605b1df", "is_reserved": 0, "rental_uris": {"android": "https://dc.lft.to/lastmile_qr_scan", "ios": "https://dc.lft.to/lastmile_qr_scan"}, "fusion_lon": 0.0}, {"lat": 38.90536516666667, "is_disabled": 0, "type": "electric_scooter", "lon": -77.04889116666666, "bike_id": "a7e8d8f90d5596ccc3fd45c86829151c", "fusion_lat": 0.0, "name": "a7e8d8f90d5596ccc3fd45c86829151c", "is_reserved": 0, "rental_uris": {"android": "https://dc.lft.to/lastmile_qr_scan", "ios": "https://dc.lft.to/lastmile_qr_scan"}, "fusion_lon": 0.0}, {"lat": 38.91773633333333, "is_disabled": 0, "type": "electric_scooter", "lon": -77.02311283333333, "bike_id": "7a7398eb9604f5b3ce7d805fcfa5fef5", "fusion_lat": 0.0, "name": "7a7398eb9604f5b3ce7d805fcfa5fef5", "is_reserved": 0, "rental_uris": {"android": "https://dc.lft.to/lastmile_qr_scan", "ios": "https://dc.lft.to/lastmile_qr_scan"}, "fusion_lon": 0.0}, {"lat": 38.928541333333335, "is_disabled": 0, "type": "electric_bike", "lon": -76.98941716666667, "bike_id": "0ee879c92855ab3b78e3d97547ef909a", "fusion_lat": 0.0, "name": "0ee879c92855ab3b78e3d97547ef909a", "is_reserved": 0, "rental_uris": {"android": "https://dc.lft.to/lastmile_qr_scan", "ios": "https://dc.lft.to/lastmile_qr_scan"}, "fusion_lon": 0.0}, {"lat": 38.900877, "is_disabled": 0, "type": "electric_scooter", "lon": -77.00353883333334, "bike_id": "9559c39fce7b5174782ed59bc81fd874", "fusion_lat": 0.0, "name": "9559c39fce7b5174782ed59bc81fd874", "is_reserved": 0, "rental_uris": {"android": "https://dc.lft.to/lastmile_qr_scan", "ios": "https://dc.lft.to/lastmile_qr_scan"}, "fusion_lon": 0.0}, {"lat": 38.907259333333336, "is_disabled": 0, "type": "electric_scooter", "lon": -76.998195, "bike_id": "088cd6641384fde28d06c09e760c3535", "fusion_lat": 0.0, "name": "088cd6641384fde28d06c09e760c3535", "is_reserved": 0, "rental_uris": {"android": "https://dc.lft.to/lastmile_qr_scan", "ios": "https://dc.lft.to/lastmile_qr_scan"}, "fusion_lon": 0.0}, {"lat": 38.921489, "is_disabled": 0, "type": "electric_scooter", "lon": -77.0338325, "bike_id": "859767cfc56911ab2e167f15dba6d83a", "fusion_lat": 0.0, "name": "859767cfc56911ab2e167f15dba6d83a", "is_reserved": 0, "rental_uris": {"android": "https://dc.lft.to/lastmile_qr_scan", "ios": "https://dc.lft.to/lastmile_qr_scan"}, "fusion_lon": 0.0}, {"lat": 38.86701266666667, "is_disabled": 0, "type": "electric_scooter", "lon": -76.98710966666667, "bike_id": "536ccfded631ff54774534b3eb40e750", "fusion_lat": 0.0, "name": "536ccfded631ff54774534b3eb40e750", "is_reserved": 0, "rental_uris": {"android": "https://dc.lft.to/lastmile_qr_scan", "ios": "https://dc.lft.to/lastmile_qr_scan"}, "fusion_lon": 0.0}, {"lat": 38.9170645, "is_disabled": 0, "type": "electric_scooter", "lon": -77.03216033333334, "bike_id": "f9906820d090391bf1258fb88ba41e9d", "fusion_lat": 0.0, "name": "f9906820d090391bf1258fb88ba41e9d", "is_reserved": 0, "rental_uris": {"android": "https://dc.lft.to/lastmile_qr_scan", "ios": "https://dc.lft.to/lastmile_qr_scan"}, "fusion_lon": 0.0}, {"lat": 38.917925, "is_disabled": 0, "type": "electric_bike", "lon": -76.97183483333333, "bike_id": "04422ac5c4fe3a48a4ced5f01409dfed", "fusion_lat": 0.0, "name": "04422ac5c4fe3a48a4ced5f01409dfed", "is_reserved": 0, "rental_uris": {"android": "https://dc.lft.to/lastmile_qr_scan", "ios": "https://dc.lft.to/lastmile_qr_scan"}, "fusion_lon": 0.0}, {"lat": 38.92415866666666, "is_disabled": 0, "type": "electric_bike", "lon": -77.050539, "bike_id": "a5c83906c38e6c4a391d3ad59fa8ca22", "fusion_lat": 0.0, "name": "a5c83906c38e6c4a391d3ad59fa8ca22", "is_reserved": 0, "rental_uris": {"android": "https://dc.lft.to/lastmile_qr_scan", "ios": "https://dc.lft.to/lastmile_qr_scan"}, "fusion_lon": 0.0}, {"lat": 38.9057495, "is_disabled": 0, "type": "electric_scooter", "lon": -77.04850733333333, "bike_id": "b51e314e1c0f981afaa369f5b06f4c83", "fusion_lat": 0.0, "name": "b51e314e1c0f981afaa369f5b06f4c83", "is_reserved": 0, "rental_uris": {"android": "https://dc.lft.to/lastmile_qr_scan", "ios": "https://dc.lft.to/lastmile_qr_scan"}, "fusion_lon": 0.0}, {"lat": 38.86171266666667, "is_disabled": 0, "type": "electric_bike", "lon": -77.131454, "bike_id": "4b14c3e8273516985e03f69410a25546", "fusion_lat": 0.0, "name": "4b14c3e8273516985e03f69410a25546", "is_reserved": 0, "rental_uris": {"android": "https://dc.lft.to/lastmile_qr_scan", "ios": "https://dc.lft.to/lastmile_qr_scan"}, "fusion_lon": 0.0}, {"lat": 38.909836166666665, "is_disabled": 0, "type": "electric_scooter", "lon": -77.0320635, "bike_id": "c24d7b9dbe70540b490e80b2670801d8", "fusion_lat": 0.0, "name": "c24d7b9dbe70540b490e80b2670801d8", "is_reserved": 0, "rental_uris": {"android": "https://dc.lft.to/lastmile_qr_scan", "ios": "https://dc.lft.to/lastmile_qr_scan"}, "fusion_lon": 0.0}, {"lat": 38.90298166666667, "is_disabled": 0, "type": "electric_scooter", "lon": -77.00211233333333, "bike_id": "fb2aefb2801d6fb38824958c4395f955", "fusion_lat": 0.0, "name": "fb2aefb2801d6fb38824958c4395f955", "is_reserved": 0, "rental_uris": {"android": "https://dc.lft.to/lastmile_qr_scan", "ios": "https://dc.lft.to/lastmile_qr_scan"}, "fusion_lon": 0.0}, {"lat": 38.90785266666666, "is_disabled": 0, "type": "electric_scooter", "lon": -77.038503, "bike_id": "9ffe518af2c37db205f5116b616991f2", "fusion_lat": 0.0, "name": "9ffe518af2c37db205f5116b616991f2", "is_reserved": 0, "rental_uris": {"android": "https://dc.lft.to/lastmile_qr_scan", "ios": "https://dc.lft.to/lastmile_qr_scan"}, "fusion_lon": 0.0}, {"lat": 38.868893166666666, "is_disabled": 0, "type": "electric_scooter", "lon": -76.983153, "bike_id": "a00bf37995e83b912048806885ee09ee", "fusion_lat": 0.0, "name": "a00bf37995e83b912048806885ee09ee", "is_reserved": 0, "rental_uris": {"android": "https://dc.lft.to/lastmile_qr_scan", "ios": "https://dc.lft.to/lastmile_qr_scan"}, "fusion_lon": 0.0}, {"lat": 38.882662, "is_disabled": 0, "type": "electric_scooter", "lon": -77.00433766666667, "bike_id": "266319501c8d7e13e9cfbfa0b3b286f6", "fusion_lat": 0.0, "name": "266319501c8d7e13e9cfbfa0b3b286f6", "is_reserved": 0, "rental_uris": {"android": "https://dc.lft.to/lastmile_qr_scan", "ios": "https://dc.lft.to/lastmile_qr_scan"}, "fusion_lon": 0.0}, {"lat": 38.900047666666666, "is_disabled": 0, "type": "electric_scooter", "lon": -77.04049133333334, "bike_id": "70f4c503781a0addbd51570aba179548", "fusion_lat": 0.0, "name": "70f4c503781a0addbd51570aba179548", "is_reserved": 0, "rental_uris": {"android": "https://dc.lft.to/lastmile_qr_scan", "ios": "https://dc.lft.to/lastmile_qr_scan"}, "fusion_lon": 0.0}, {"lat": 38.9056485, "is_disabled": 0, "type": "electric_scooter", "lon": -77.0085185, "bike_id": "9713707b9e27d9554f891a0e5d1e2980", "fusion_lat": 0.0, "name": "9713707b9e27d9554f891a0e5d1e2980", "is_reserved": 0, "rental_uris": {"android": "https://dc.lft.to/lastmile_qr_scan", "ios": "https://dc.lft.to/lastmile_qr_scan"}, "fusion_lon": 0.0}, {"lat": 38.898980333333334, "is_disabled": 0, "type": "electric_scooter", "lon": -76.997355, "bike_id": "7e3ccc160dc99dd1e9b53007cb53523f", "fusion_lat": 0.0, "name": "7e3ccc160dc99dd1e9b53007cb53523f", "is_reserved": 0, "rental_uris": {"android": "https://dc.lft.to/lastmile_qr_scan", "ios": "https://dc.lft.to/lastmile_qr_scan"}, "fusion_lon": 0.0}, {"lat": 38.90368183333333, "is_disabled": 0, "type": "electric_scooter", "lon": -77.01638233333334, "bike_id": "a9c222687590136bb372c5392f90a5ca", "fusion_lat": 0.0, "name": "a9c222687590136bb372c5392f90a5ca", "is_reserved": 0, "rental_uris": {"android": "https://dc.lft.to/lastmile_qr_scan", "ios": "https://dc.lft.to/lastmile_qr_scan"}, "fusion_lon": 0.0}, {"lat": 38.90045816666667, "is_disabled": 0, "type": "electric_scooter", "lon": -77.01294266666666, "bike_id": "08395cc7f4a5899464c77bd4380731c9", "fusion_lat": 0.0, "name": "08395cc7f4a5899464c77bd4380731c9", "is_reserved": 0, "rental_uris": {"android": "https://dc.lft.to/lastmile_qr_scan", "ios": "https://dc.lft.to/lastmile_qr_scan"}, "fusion_lon": 0.0}, {"lat": 38.9118455, "is_disabled": 0, "type": "electric_scooter", "lon": -77.00255966666667, "bike_id": "8bbf6ee1455bf853bcda47f16a57a511", "fusion_lat": 0.0, "name": "8bbf6ee1455bf853bcda47f16a57a511", "is_reserved": 0, "rental_uris": {"android": "https://dc.lft.to/lastmile_qr_scan", "ios": "https://dc.lft.to/lastmile_qr_scan"}, "fusion_lon": 0.0}, {"lat": 39.07503666666667, "is_disabled": 0, "type": "electric_bike", "lon": -77.11909616666667, "bike_id": "d7fbeee3acdd57e0b405fdc7f798f1a4", "fusion_lat": 0.0, "name": "d7fbeee3acdd57e0b405fdc7f798f1a4", "is_reserved": 0, "rental_uris": {"android": "https://dc.lft.to/lastmile_qr_scan", "ios": "https://dc.lft.to/lastmile_qr_scan"}, "fusion_lon": 0.0}, {"lat": 38.92812816666667, "is_disabled": 0, "type": "electric_scooter", "lon": -77.0541595, "bike_id": "e2d6ec351b0ba280511d3fcc54c512ea", "fusion_lat": 0.0, "name": "e2d6ec351b0ba280511d3fcc54c512ea", "is_reserved": 0, "rental_uris": {"android": "https://dc.lft.to/lastmile_qr_scan", "ios": "https://dc.lft.to/lastmile_qr_scan"}, "fusion_lon": 0.0}, {"lat": 38.92591383333333, "is_disabled": 0, "type": "electric_scooter", "lon": -77.0528445, "bike_id": "ec771c4e497300403a3ad5bfce44ebe6", "fusion_lat": 0.0, "name": "ec771c4e497300403a3ad5bfce44ebe6", "is_reserved": 0, "rental_uris": {"android": "https://dc.lft.to/lastmile_qr_scan", "ios": "https://dc.lft.to/lastmile_qr_scan"}, "fusion_lon": 0.0}, {"lat": 38.921169, "is_disabled": 0, "type": "electric_scooter", "lon": -77.04569283333333, "bike_id": "ab8c692da8d145ed46ee721044a796ff", "fusion_lat": 0.0, "name": "ab8c692da8d145ed46ee721044a796ff", "is_reserved": 0, "rental_uris": {"android": "https://dc.lft.to/lastmile_qr_scan", "ios": "https://dc.lft.to/lastmile_qr_scan"}, "fusion_lon": 0.0}, {"lat": 38.8984215, "is_disabled": 0, "type": "electric_scooter", "lon": -76.9446635, "bike_id": "8a07c41783e48d8bf9df4dbe9236a760", "fusion_lat": 0.0, "name": "8a07c41783e48d8bf9df4dbe9236a760", "is_reserved": 0, "rental_uris": {"android": "https://dc.lft.to/lastmile_qr_scan", "ios": "https://dc.lft.to/lastmile_qr_scan"}, "fusion_lon": 0.0}, {"lat": 38.91458216666667, "is_disabled": 0, "type": "electric_scooter", "lon": -77.00213066666667, "bike_id": "2cd128d038813d8291bc89b41be68939", "fusion_lat": 0.0, "name": "2cd128d038813d8291bc89b41be68939", "is_reserved": 0, "rental_uris": {"android": "https://dc.lft.to/lastmile_qr_scan", "ios": "https://dc.lft.to/lastmile_qr_scan"}, "fusion_lon": 0.0}, {"lat": 38.86287983333333, "is_disabled": 0, "type": "electric_scooter", "lon": -76.99234116666666, "bike_id": "6882d1712c90f03fbbba9d655aa95952", "fusion_lat": 0.0, "name": "6882d1712c90f03fbbba9d655aa95952", "is_reserved": 0, "rental_uris": {"android": "https://dc.lft.to/lastmile_qr_scan", "ios": "https://dc.lft.to/lastmile_qr_scan"}, "fusion_lon": 0.0}, {"lat": 38.86697566666667, "is_disabled": 0, "type": "electric_scooter", "lon": -76.98713133333334, "bike_id": "574cd3f46b893e62daedd31d03716893", "fusion_lat": 0.0, "name": "574cd3f46b893e62daedd31d03716893", "is_reserved": 0, "rental_uris": {"android": "https://dc.lft.to/lastmile_qr_scan", "ios": "https://dc.lft.to/lastmile_qr_scan"}, "fusion_lon": 0.0}, {"lat": 38.894292166666666, "is_disabled": 0, "type": "electric_scooter", "lon": -77.03170166666666, "bike_id": "a5f1f4f397b62c5362b596cfda6449d3", "fusion_lat": 0.0, "name": "a5f1f4f397b62c5362b596cfda6449d3", "is_reserved": 0, "rental_uris": {"android": "https://dc.lft.to/lastmile_qr_scan", "ios": "https://dc.lft.to/lastmile_qr_scan"}, "fusion_lon": 0.0}, {"lat": 38.91681966666667, "is_disabled": 0, "type": "electric_scooter", "lon": -77.02971716666667, "bike_id": "962679ba5fccf139717986adce255aba", "fusion_lat": 0.0, "name": "962679ba5fccf139717986adce255aba", "is_reserved": 0, "rental_uris": {"android": "https://dc.lft.to/lastmile_qr_scan", "ios": "https://dc.lft.to/lastmile_qr_scan"}, "fusion_lon": 0.0}, {"lat": 38.91005033333333, "is_disabled": 0, "type": "electric_scooter", "lon": -76.98620566666666, "bike_id": "06ec24b8534f5406e06152bb86a35c2c", "fusion_lat": 0.0, "name": "06ec24b8534f5406e06152bb86a35c2c", "is_reserved": 0, "rental_uris": {"android": "https://dc.lft.to/lastmile_qr_scan", "ios": "https://dc.lft.to/lastmile_qr_scan"}, "fusion_lon": 0.0}, {"lat": 38.92423216666667, "is_disabled": 0, "type": "electric_scooter", "lon": -77.0298415, "bike_id": "eaf9822aba6f7c040bdcb34cf7ad9b7d", "fusion_lat": 0.0, "name": "eaf9822aba6f7c040bdcb34cf7ad9b7d", "is_reserved": 0, "rental_uris": {"android": "https://dc.lft.to/lastmile_qr_scan", "ios": "https://dc.lft.to/lastmile_qr_scan"}, "fusion_lon": 0.0}, {"lat": 38.89962233333333, "is_disabled": 0, "type": "electric_scooter", "lon": -77.0337765, "bike_id": "cc1b125730cb9d7299d8e9988c3967d4", "fusion_lat": 0.0, "name": "cc1b125730cb9d7299d8e9988c3967d4", "is_reserved": 0, "rental_uris": {"android": "https://dc.lft.to/lastmile_qr_scan", "ios": "https://dc.lft.to/lastmile_qr_scan"}, "fusion_lon": 0.0}, {"lat": 38.901194333333336, "is_disabled": 0, "type": "electric_scooter", "lon": -77.01581733333333, "bike_id": "2b3994642287a56a66c3ebd6fee98455", "fusion_lat": 0.0, "name": "2b3994642287a56a66c3ebd6fee98455", "is_reserved": 0, "rental_uris": {"android": "https://dc.lft.to/lastmile_qr_scan", "ios": "https://dc.lft.to/lastmile_qr_scan"}, "fusion_lon": 0.0}, {"lat": 38.95257816666667, "is_disabled": 0, "type": "electric_bike", "lon": -77.023965, "bike_id": "2eb02d93294a008c51abc5afe0fadeb4", "fusion_lat": 0.0, "name": "2eb02d93294a008c51abc5afe0fadeb4", "is_reserved": 0, "rental_uris": {"android": "https://dc.lft.to/lastmile_qr_scan", "ios": "https://dc.lft.to/lastmile_qr_scan"}, "fusion_lon": 0.0}, {"lat": 38.93089533333333, "is_disabled": 0, "type": "electric_scooter", "lon": -77.0774765, "bike_id": "772e3eaae52aa3fcf55486ff861ba8ea", "fusion_lat": 0.0, "name": "772e3eaae52aa3fcf55486ff861ba8ea", "is_reserved": 0, "rental_uris": {"android": "https://dc.lft.to/lastmile_qr_scan", "ios": "https://dc.lft.to/lastmile_qr_scan"}, "fusion_lon": 0.0}, {"lat": 38.962295, "is_disabled": 0, "type": "electric_bike", "lon": -77.02627316666667, "bike_id": "abe5e9aeefd885747136236e66977719", "fusion_lat": 0.0, "name": "abe5e9aeefd885747136236e66977719", "is_reserved": 0, "rental_uris": {"android": "https://dc.lft.to/lastmile_qr_scan", "ios": "https://dc.lft.to/lastmile_qr_scan"}, "fusion_lon": 0.0}, {"lat": 38.92097166666667, "is_disabled": 0, "type": "electric_scooter", "lon": -77.0252125, "bike_id": "150eabdcd9f72e8a7cd07e109ffe619c", "fusion_lat": 0.0, "name": "150eabdcd9f72e8a7cd07e109ffe619c", "is_reserved": 0, "rental_uris": {"android": "https://dc.lft.to/lastmile_qr_scan", "ios": "https://dc.lft.to/lastmile_qr_scan"}, "fusion_lon": 0.0}, {"lat": 38.870853, "is_disabled": 0, "type": "electric_scooter", "lon": -77.011158, "bike_id": "ef4d174f1f8a61da0850ce7023642a90", "fusion_lat": 0.0, "name": "ef4d174f1f8a61da0850ce7023642a90", "is_reserved": 0, "rental_uris": {"android": "https://dc.lft.to/lastmile_qr_scan", "ios": "https://dc.lft.to/lastmile_qr_scan"}, "fusion_lon": 0.0}, {"lat": 38.879168, "is_disabled": 0, "type": "electric_scooter", "lon": -76.99505683333334, "bike_id": "8924af1465fc420a77f1c0aed8bf4846", "fusion_lat": 0.0, "name": "8924af1465fc420a77f1c0aed8bf4846", "is_reserved": 0, "rental_uris": {"android": "https://dc.lft.to/lastmile_qr_scan", "ios": "https://dc.lft.to/lastmile_qr_scan"}, "fusion_lon": 0.0}, {"lat": 38.948248666666665, "is_disabled": 0, "type": "electric_scooter", "lon": -76.9990275, "bike_id": "c79ed88ff36ad011b59b107f720705e0", "fusion_lat": 0.0, "name": "c79ed88ff36ad011b59b107f720705e0", "is_reserved": 0, "rental_uris": {"android": "https://dc.lft.to/lastmile_qr_scan", "ios": "https://dc.lft.to/lastmile_qr_scan"}, "fusion_lon": 0.0}, {"lat": 38.932349333333335, "is_disabled": 0, "type": "electric_bike", "lon": -76.9742595, "bike_id": "df2e2fa23083738eab6f0138a9862334", "fusion_lat": 0.0, "name": "df2e2fa23083738eab6f0138a9862334", "is_reserved": 0, "rental_uris": {"android": "https://dc.lft.to/lastmile_qr_scan", "ios": "https://dc.lft.to/lastmile_qr_scan"}, "fusion_lon": 0.0}, {"lat": 38.911959833333334, "is_disabled": 0, "type": "electric_scooter", "lon": -77.00440033333334, "bike_id": "e5b9750654b6621c441c4191a1561673", "fusion_lat": 0.0, "name": "e5b9750654b6621c441c4191a1561673", "is_reserved": 0, "rental_uris": {"android": "https://dc.lft.to/lastmile_qr_scan", "ios": "https://dc.lft.to/lastmile_qr_scan"}, "fusion_lon": 0.0}, {"lat": 38.878591, "is_disabled": 0, "type": "electric_bike", "lon": -77.017646, "bike_id": "fc047a0ccccd9a85bdb76b04faa5b869", "fusion_lat": 0.0, "name": "fc047a0ccccd9a85bdb76b04faa5b869", "is_reserved": 0, "rental_uris": {"android": "https://dc.lft.to/lastmile_qr_scan", "ios": "https://dc.lft.to/lastmile_qr_scan"}, "fusion_lon": 0.0}, {"lat": 38.916557833333336, "is_disabled": 0, "type": "electric_scooter", "lon": -77.032213, "bike_id": "e4b2491bab19856ac349750f11c3d7c5", "fusion_lat": 0.0, "name": "e4b2491bab19856ac349750f11c3d7c5", "is_reserved": 0, "rental_uris": {"android": "https://dc.lft.to/lastmile_qr_scan", "ios": "https://dc.lft.to/lastmile_qr_scan"}, "fusion_lon": 0.0}, {"lat": 38.8763655, "is_disabled": 0, "type": "electric_scooter", "lon": -77.0056115, "bike_id": "606ff711684caa2927fc2d6d678152b1", "fusion_lat": 0.0, "name": "606ff711684caa2927fc2d6d678152b1", "is_reserved": 0, "rental_uris": {"android": "https://dc.lft.to/lastmile_qr_scan", "ios": "https://dc.lft.to/lastmile_qr_scan"}, "fusion_lon": 0.0}, {"lat": 38.89677116666667, "is_disabled": 0, "type": "electric_scooter", "lon": -77.005169, "bike_id": "e5625aafd0552f45138a451bf1b198ad", "fusion_lat": 0.0, "name": "e5625aafd0552f45138a451bf1b198ad", "is_reserved": 0, "rental_uris": {"android": "https://dc.lft.to/lastmile_qr_scan", "ios": "https://dc.lft.to/lastmile_qr_scan"}, "fusion_lon": 0.0}, {"lat": 38.91614966666667, "is_disabled": 0, "type": "electric_scooter", "lon": -77.03736383333333, "bike_id": "6250f91f38a6f6b9624966622201e631", "fusion_lat": 0.0, "name": "6250f91f38a6f6b9624966622201e631", "is_reserved": 0, "rental_uris": {"android": "https://dc.lft.to/lastmile_qr_scan", "ios": "https://dc.lft.to/lastmile_qr_scan"}, "fusion_lon": 0.0}, {"lat": 38.92309566666667, "is_disabled": 0, "type": "electric_bike", "lon": -77.035192, "bike_id": "f856304e9560e72d8b0572ba920fd0ed", "fusion_lat": 0.0, "name": "f856304e9560e72d8b0572ba920fd0ed", "is_reserved": 0, "rental_uris": {"android": "https://dc.lft.to/lastmile_qr_scan", "ios": "https://dc.lft.to/lastmile_qr_scan"}, "fusion_lon": 0.0}, {"lat": 38.8976965, "is_disabled": 0, "type": "electric_scooter", "lon": -77.00919116666667, "bike_id": "37923721404bb57edf8bd2bf39aa2432", "fusion_lat": 0.0, "name": "37923721404bb57edf8bd2bf39aa2432", "is_reserved": 0, "rental_uris": {"android": "https://dc.lft.to/lastmile_qr_scan", "ios": "https://dc.lft.to/lastmile_qr_scan"}, "fusion_lon": 0.0}, {"lat": 38.9192885, "is_disabled": 0, "type": "electric_scooter", "lon": -77.02477433333334, "bike_id": "fb36f9b3532039aa063420ae95cbbc62", "fusion_lat": 0.0, "name": "fb36f9b3532039aa063420ae95cbbc62", "is_reserved": 0, "rental_uris": {"android": "https://dc.lft.to/lastmile_qr_scan", "ios": "https://dc.lft.to/lastmile_qr_scan"}, "fusion_lon": 0.0}, {"lat": 38.88762033333333, "is_disabled": 0, "type": "electric_scooter", "lon": -76.955962, "bike_id": "64757fefd86398150ad2570e38b6fef0", "fusion_lat": 0.0, "name": "64757fefd86398150ad2570e38b6fef0", "is_reserved": 0, "rental_uris": {"android": "https://dc.lft.to/lastmile_qr_scan", "ios": "https://dc.lft.to/lastmile_qr_scan"}, "fusion_lon": 0.0}, {"lat": 38.936533, "is_disabled": 0, "type": "electric_scooter", "lon": -77.0368095, "bike_id": "7b20b96946a0beffea3e5849328663ec", "fusion_lat": 0.0, "name": "7b20b96946a0beffea3e5849328663ec", "is_reserved": 0, "rental_uris": {"android": "https://dc.lft.to/lastmile_qr_scan", "ios": "https://dc.lft.to/lastmile_qr_scan"}, "fusion_lon": 0.0}, {"lat": 38.95296716666667, "is_disabled": 0, "type": "electric_scooter", "lon": -77.08151566666666, "bike_id": "539fffbebc6486a4b5c8daaaed0c25d9", "fusion_lat": 0.0, "name": "539fffbebc6486a4b5c8daaaed0c25d9", "is_reserved": 0, "rental_uris": {"android": "https://dc.lft.to/lastmile_qr_scan", "ios": "https://dc.lft.to/lastmile_qr_scan"}, "fusion_lon": 0.0}, {"lat": 38.866538, "is_disabled": 0, "type": "electric_scooter", "lon": -76.9888135, "bike_id": "3627b5502a9695f683a8cc672708627f", "fusion_lat": 0.0, "name": "3627b5502a9695f683a8cc672708627f", "is_reserved": 0, "rental_uris": {"android": "https://dc.lft.to/lastmile_qr_scan", "ios": "https://dc.lft.to/lastmile_qr_scan"}, "fusion_lon": 0.0}, {"lat": 38.92062816666667, "is_disabled": 0, "type": "electric_scooter", "lon": -77.0437445, "bike_id": "a1d8cbc7e53b21d4e448bffb291496b1", "fusion_lat": 0.0, "name": "a1d8cbc7e53b21d4e448bffb291496b1", "is_reserved": 0, "rental_uris": {"android": "https://dc.lft.to/lastmile_qr_scan", "ios": "https://dc.lft.to/lastmile_qr_scan"}, "fusion_lon": 0.0}, {"lat": 38.899655833333334, "is_disabled": 0, "type": "electric_bike", "lon": -77.020966, "bike_id": "62387f32256b5bdfb7d591d885f1d0b1", "fusion_lat": 0.0, "name": "62387f32256b5bdfb7d591d885f1d0b1", "is_reserved": 0, "rental_uris": {"android": "https://dc.lft.to/lastmile_qr_scan", "ios": "https://dc.lft.to/lastmile_qr_scan"}, "fusion_lon": 0.0}, {"lat": 38.938720333333336, "is_disabled": 0, "type": "electric_scooter", "lon": -77.0312555, "bike_id": "215b5475f1b17a237b3ced6c5ab367e2", "fusion_lat": 0.0, "name": "215b5475f1b17a237b3ced6c5ab367e2", "is_reserved": 0, "rental_uris": {"android": "https://dc.lft.to/lastmile_qr_scan", "ios": "https://dc.lft.to/lastmile_qr_scan"}, "fusion_lon": 0.0}, {"lat": 38.91707533333334, "is_disabled": 0, "type": "electric_scooter", "lon": -77.03860633333333, "bike_id": "aa32f3397a6463d9ca3b21f458ed9cfd", "fusion_lat": 0.0, "name": "aa32f3397a6463d9ca3b21f458ed9cfd", "is_reserved": 0, "rental_uris": {"android": "https://dc.lft.to/lastmile_qr_scan", "ios": "https://dc.lft.to/lastmile_qr_scan"}, "fusion_lon": 0.0}, {"lat": 38.9098985, "is_disabled": 0, "type": "electric_scooter", "lon": -76.99738133333334, "bike_id": "b7a174076b8067ad36c2dffe05da1f90", "fusion_lat": 0.0, "name": "b7a174076b8067ad36c2dffe05da1f90", "is_reserved": 0, "rental_uris": {"android": "https://dc.lft.to/lastmile_qr_scan", "ios": "https://dc.lft.to/lastmile_qr_scan"}, "fusion_lon": 0.0}, {"lat": 38.928724333333335, "is_disabled": 0, "type": "electric_scooter", "lon": -77.01947783333334, "bike_id": "8e58117bc209b11ad70127972461ad91", "fusion_lat": 0.0, "name": "8e58117bc209b11ad70127972461ad91", "is_reserved": 0, "rental_uris": {"android": "https://dc.lft.to/lastmile_qr_scan", "ios": "https://dc.lft.to/lastmile_qr_scan"}, "fusion_lon": 0.0}, {"lat": 38.917766666666665, "is_disabled": 0, "type": "electric_scooter", "lon": -77.03660333333333, "bike_id": "8a08146c4c5b4800037dc8d7efd3d242", "fusion_lat": 0.0, "name": "8a08146c4c5b4800037dc8d7efd3d242", "is_reserved": 0, "rental_uris": {"android": "https://dc.lft.to/lastmile_qr_scan", "ios": "https://dc.lft.to/lastmile_qr_scan"}, "fusion_lon": 0.0}, {"lat": 38.9232155, "is_disabled": 0, "type": "electric_scooter", "lon": -77.02797633333333, "bike_id": "d8e9652559010829ad9e1677e4522ef0", "fusion_lat": 0.0, "name": "d8e9652559010829ad9e1677e4522ef0", "is_reserved": 0, "rental_uris": {"android": "https://dc.lft.to/lastmile_qr_scan", "ios": "https://dc.lft.to/lastmile_qr_scan"}, "fusion_lon": 0.0}, {"lat": 38.8287505, "is_disabled": 0, "type": "electric_bike", "lon": -77.112179, "bike_id": "47ead3137a506e3d5f31f9e76e9f82d1", "fusion_lat": 0.0, "name": "47ead3137a506e3d5f31f9e76e9f82d1", "is_reserved": 0, "rental_uris": {"android": "https://dc.lft.to/lastmile_qr_scan", "ios": "https://dc.lft.to/lastmile_qr_scan"}, "fusion_lon": 0.0}, {"lat": 38.8939945, "is_disabled": 0, "type": "electric_scooter", "lon": -77.05002366666666, "bike_id": "096e18b0197b8af7b5ec93c6f87c2eda", "fusion_lat": 0.0, "name": "096e18b0197b8af7b5ec93c6f87c2eda", "is_reserved": 0, "rental_uris": {"android": "https://dc.lft.to/lastmile_qr_scan", "ios": "https://dc.lft.to/lastmile_qr_scan"}, "fusion_lon": 0.0}, {"lat": 38.91841516666667, "is_disabled": 0, "type": "electric_scooter", "lon": -77.02376816666667, "bike_id": "bf02864461b67e0b7c136b8ead5ba0b7", "fusion_lat": 0.0, "name": "bf02864461b67e0b7c136b8ead5ba0b7", "is_reserved": 0, "rental_uris": {"android": "https://dc.lft.to/lastmile_qr_scan", "ios": "https://dc.lft.to/lastmile_qr_scan"}, "fusion_lon": 0.0}, {"lat": 38.927653166666666, "is_disabled": 0, "type": "electric_scooter", "lon": -77.0326215, "bike_id": "cdbf6a3f768b7101808fc9225d3ca948", "fusion_lat": 0.0, "name": "cdbf6a3f768b7101808fc9225d3ca948", "is_reserved": 0, "rental_uris": {"android": "https://dc.lft.to/lastmile_qr_scan", "ios": "https://dc.lft.to/lastmile_qr_scan"}, "fusion_lon": 0.0}, {"lat": 38.9324965, "is_disabled": 0, "type": "electric_scooter", "lon": -77.02954316666667, "bike_id": "1173daa75a002ea872bd8fb40dc5f6e2", "fusion_lat": 0.0, "name": "1173daa75a002ea872bd8fb40dc5f6e2", "is_reserved": 0, "rental_uris": {"android": "https://dc.lft.to/lastmile_qr_scan", "ios": "https://dc.lft.to/lastmile_qr_scan"}, "fusion_lon": 0.0}, {"lat": 38.882949333333336, "is_disabled": 0, "type": "electric_scooter", "lon": -77.01756466666667, "bike_id": "b1a0b35aeb44b9e9f9bdade797d0b1f6", "fusion_lat": 0.0, "name": "b1a0b35aeb44b9e9f9bdade797d0b1f6", "is_reserved": 0, "rental_uris": {"android": "https://dc.lft.to/lastmile_qr_scan", "ios": "https://dc.lft.to/lastmile_qr_scan"}, "fusion_lon": 0.0}, {"lat": 38.900751166666666, "is_disabled": 0, "type": "electric_scooter", "lon": -77.00216466666667, "bike_id": "2db5a3783dd5c16c508ef975e952af1c", "fusion_lat": 0.0, "name": "2db5a3783dd5c16c508ef975e952af1c", "is_reserved": 0, "rental_uris": {"android": "https://dc.lft.to/lastmile_qr_scan", "ios": "https://dc.lft.to/lastmile_qr_scan"}, "fusion_lon": 0.0}, {"lat": 39.004758833333334, "is_disabled": 0, "type": "electric_bike", "lon": -76.90137516666667, "bike_id": "66be6611ebad4de1abe8919aee5b384f", "fusion_lat": 0.0, "name": "66be6611ebad4de1abe8919aee5b384f", "is_reserved": 0, "rental_uris": {"android": "https://dc.lft.to/lastmile_qr_scan", "ios": "https://dc.lft.to/lastmile_qr_scan"}, "fusion_lon": 0.0}, {"lat": 38.905606166666665, "is_disabled": 0, "type": "electric_scooter", "lon": -77.007148, "bike_id": "020245da57afe93c48987b9deea38c68", "fusion_lat": 0.0, "name": "020245da57afe93c48987b9deea38c68", "is_reserved": 0, "rental_uris": {"android": "https://dc.lft.to/lastmile_qr_scan", "ios": "https://dc.lft.to/lastmile_qr_scan"}, "fusion_lon": 0.0}, {"lat": 38.92796333333333, "is_disabled": 0, "type": "electric_scooter", "lon": -77.03812316666667, "bike_id": "9ef2e48f3316aad8a66a8b23d81610d3", "fusion_lat": 0.0, "name": "9ef2e48f3316aad8a66a8b23d81610d3", "is_reserved": 0, "rental_uris": {"android": "https://dc.lft.to/lastmile_qr_scan", "ios": "https://dc.lft.to/lastmile_qr_scan"}, "fusion_lon": 0.0}, {"lat": 38.93199033333333, "is_disabled": 0, "type": "electric_scooter", "lon": -77.04427983333333, "bike_id": "c11711786d6c47488889bf56bbbb1d41", "fusion_lat": 0.0, "name": "c11711786d6c47488889bf56bbbb1d41", "is_reserved": 0, "rental_uris": {"android": "https://dc.lft.to/lastmile_qr_scan", "ios": "https://dc.lft.to/lastmile_qr_scan"}, "fusion_lon": 0.0}, {"lat": 38.9021925, "is_disabled": 0, "type": "electric_scooter", "lon": -77.05331183333334, "bike_id": "6b1402e8f4761239afb8b44f5f8815c1", "fusion_lat": 0.0, "name": "6b1402e8f4761239afb8b44f5f8815c1", "is_reserved": 0, "rental_uris": {"android": "https://dc.lft.to/lastmile_qr_scan", "ios": "https://dc.lft.to/lastmile_qr_scan"}, "fusion_lon": 0.0}, {"lat": 38.876290166666664, "is_disabled": 0, "type": "electric_scooter", "lon": -76.96524766666667, "bike_id": "06d1b10f9cac197901670a53d4a9993d", "fusion_lat": 0.0, "name": "06d1b10f9cac197901670a53d4a9993d", "is_reserved": 0, "rental_uris": {"android": "https://dc.lft.to/lastmile_qr_scan", "ios": "https://dc.lft.to/lastmile_qr_scan"}, "fusion_lon": 0.0}, {"lat": 38.90533466666667, "is_disabled": 0, "type": "electric_scooter", "lon": -77.005553, "bike_id": "2a1a5542525a6195a9e77b6802687364", "fusion_lat": 0.0, "name": "2a1a5542525a6195a9e77b6802687364", "is_reserved": 0, "rental_uris": {"android": "https://dc.lft.to/lastmile_qr_scan", "ios": "https://dc.lft.to/lastmile_qr_scan"}, "fusion_lon": 0.0}, {"lat": 38.904353666666665, "is_disabled": 0, "type": "electric_scooter", "lon": -77.049561, "bike_id": "6e863ee845ca28e895569363a3083a74", "fusion_lat": 0.0, "name": "6e863ee845ca28e895569363a3083a74", "is_reserved": 0, "rental_uris": {"android": "https://dc.lft.to/lastmile_qr_scan", "ios": "https://dc.lft.to/lastmile_qr_scan"}, "fusion_lon": 0.0}, {"lat": 38.93258, "is_disabled": 0, "type": "electric_scooter", "lon": -77.03285133333333, "bike_id": "22755eb6d4971f130c91c41f81dc8656", "fusion_lat": 0.0, "name": "22755eb6d4971f130c91c41f81dc8656", "is_reserved": 0, "rental_uris": {"android": "https://dc.lft.to/lastmile_qr_scan", "ios": "https://dc.lft.to/lastmile_qr_scan"}, "fusion_lon": 0.0}, {"lat": 38.9407115, "is_disabled": 0, "type": "electric_scooter", "lon": -77.06136316666667, "bike_id": "d8d28eb6e833f666734c802c9f661e5c", "fusion_lat": 0.0, "name": "d8d28eb6e833f666734c802c9f661e5c", "is_reserved": 0, "rental_uris": {"android": "https://dc.lft.to/lastmile_qr_scan", "ios": "https://dc.lft.to/lastmile_qr_scan"}, "fusion_lon": 0.0}, {"lat": 38.93655, "is_disabled": 0, "type": "electric_scooter", "lon": -77.03654283333333, "bike_id": "5247371d712ebbec1934ddd4f8c1f264", "fusion_lat": 0.0, "name": "5247371d712ebbec1934ddd4f8c1f264", "is_reserved": 0, "rental_uris": {"android": "https://dc.lft.to/lastmile_qr_scan", "ios": "https://dc.lft.to/lastmile_qr_scan"}, "fusion_lon": 0.0}, {"lat": 38.93291933333333, "is_disabled": 0, "type": "electric_scooter", "lon": -77.02830533333334, "bike_id": "44d86ff8041f86a37308c9ac782a1094", "fusion_lat": 0.0, "name": "44d86ff8041f86a37308c9ac782a1094", "is_reserved": 0, "rental_uris": {"android": "https://dc.lft.to/lastmile_qr_scan", "ios": "https://dc.lft.to/lastmile_qr_scan"}, "fusion_lon": 0.0}, {"lat": 38.93112433333334, "is_disabled": 0, "type": "electric_scooter", "lon": -77.0351005, "bike_id": "706dea0a92cf3f2d23fa345b3ea8912b", "fusion_lat": 0.0, "name": "706dea0a92cf3f2d23fa345b3ea8912b", "is_reserved": 0, "rental_uris": {"android": "https://dc.lft.to/lastmile_qr_scan", "ios": "https://dc.lft.to/lastmile_qr_scan"}, "fusion_lon": 0.0}, {"lat": 38.91482083333333, "is_disabled": 0, "type": "electric_scooter", "lon": -76.98365133333333, "bike_id": "1a738e5afd89f1a2efab7d34657e885e", "fusion_lat": 0.0, "name": "1a738e5afd89f1a2efab7d34657e885e", "is_reserved": 0, "rental_uris": {"android": "https://dc.lft.to/lastmile_qr_scan", "ios": "https://dc.lft.to/lastmile_qr_scan"}, "fusion_lon": 0.0}, {"lat": 38.88405383333333, "is_disabled": 0, "type": "electric_bike", "lon": -76.96057066666667, "bike_id": "4db08fb13d32863db16fc437ee8d701f", "fusion_lat": 0.0, "name": "4db08fb13d32863db16fc437ee8d701f", "is_reserved": 0, "rental_uris": {"android": "https://dc.lft.to/lastmile_qr_scan", "ios": "https://dc.lft.to/lastmile_qr_scan"}, "fusion_lon": 0.0}, {"lat": 38.91262, "is_disabled": 0, "type": "electric_scooter", "lon": -77.0386415, "bike_id": "040192dda6135a26cce06e878c95e7b5", "fusion_lat": 0.0, "name": "040192dda6135a26cce06e878c95e7b5", "is_reserved": 0, "rental_uris": {"android": "https://dc.lft.to/lastmile_qr_scan", "ios": "https://dc.lft.to/lastmile_qr_scan"}, "fusion_lon": 0.0}, {"lat": 38.904124, "is_disabled": 0, "type": "electric_scooter", "lon": -77.02512033333333, "bike_id": "2a8d59cc143633ea166db5c1947c6be9", "fusion_lat": 0.0, "name": "2a8d59cc143633ea166db5c1947c6be9", "is_reserved": 0, "rental_uris": {"android": "https://dc.lft.to/lastmile_qr_scan", "ios": "https://dc.lft.to/lastmile_qr_scan"}, "fusion_lon": 0.0}, {"lat": 38.900469666666666, "is_disabled": 0, "type": "electric_scooter", "lon": -76.995055, "bike_id": "c0bea8b2dd809b50f09504b73cccdcb9", "fusion_lat": 0.0, "name": "c0bea8b2dd809b50f09504b73cccdcb9", "is_reserved": 0, "rental_uris": {"android": "https://dc.lft.to/lastmile_qr_scan", "ios": "https://dc.lft.to/lastmile_qr_scan"}, "fusion_lon": 0.0}, {"lat": 38.90988483333334, "is_disabled": 0, "type": "electric_scooter", "lon": -76.9846605, "bike_id": "38160a2ac518743b23a6ec54d64800e6", "fusion_lat": 0.0, "name": "38160a2ac518743b23a6ec54d64800e6", "is_reserved": 0, "rental_uris": {"android": "https://dc.lft.to/lastmile_qr_scan", "ios": "https://dc.lft.to/lastmile_qr_scan"}, "fusion_lon": 0.0}, {"lat": 38.929148833333336, "is_disabled": 0, "type": "electric_scooter", "lon": -77.03633233333333, "bike_id": "78af457bd29f72c1aacc644679cf3c63", "fusion_lat": 0.0, "name": "78af457bd29f72c1aacc644679cf3c63", "is_reserved": 0, "rental_uris": {"android": "https://dc.lft.to/lastmile_qr_scan", "ios": "https://dc.lft.to/lastmile_qr_scan"}, "fusion_lon": 0.0}, {"lat": 38.924016333333334, "is_disabled": 0, "type": "electric_scooter", "lon": -77.02548816666666, "bike_id": "93ae8b802eb27f0f7764b171c1412931", "fusion_lat": 0.0, "name": "93ae8b802eb27f0f7764b171c1412931", "is_reserved": 0, "rental_uris": {"android": "https://dc.lft.to/lastmile_qr_scan", "ios": "https://dc.lft.to/lastmile_qr_scan"}, "fusion_lon": 0.0}, {"lat": 38.90822716666667, "is_disabled": 0, "type": "electric_scooter", "lon": -76.9414525, "bike_id": "f6f1b78d8444f2d2562b71d254fc59ca", "fusion_lat": 0.0, "name": "f6f1b78d8444f2d2562b71d254fc59ca", "is_reserved": 0, "rental_uris": {"android": "https://dc.lft.to/lastmile_qr_scan", "ios": "https://dc.lft.to/lastmile_qr_scan"}, "fusion_lon": 0.0}, {"lat": 38.83980733333333, "is_disabled": 0, "type": "electric_bike", "lon": -77.00573933333334, "bike_id": "e27c4ec8e8337507f06b60264da179d0", "fusion_lat": 0.0, "name": "e27c4ec8e8337507f06b60264da179d0", "is_reserved": 0, "rental_uris": {"android": "https://dc.lft.to/lastmile_qr_scan", "ios": "https://dc.lft.to/lastmile_qr_scan"}, "fusion_lon": 0.0}, {"lat": 38.936313166666665, "is_disabled": 0, "type": "electric_scooter", "lon": -77.03661333333334, "bike_id": "26331b72dbb2d11637ba3cf15b15e806", "fusion_lat": 0.0, "name": "26331b72dbb2d11637ba3cf15b15e806", "is_reserved": 0, "rental_uris": {"android": "https://dc.lft.to/lastmile_qr_scan", "ios": "https://dc.lft.to/lastmile_qr_scan"}, "fusion_lon": 0.0}, {"lat": 38.88111683333333, "is_disabled": 0, "type": "electric_scooter", "lon": -77.01641266666667, "bike_id": "3627c392dbf2a065813094940e235a46", "fusion_lat": 0.0, "name": "3627c392dbf2a065813094940e235a46", "is_reserved": 0, "rental_uris": {"android": "https://dc.lft.to/lastmile_qr_scan", "ios": "https://dc.lft.to/lastmile_qr_scan"}, "fusion_lon": 0.0}, {"lat": 38.92958933333333, "is_disabled": 0, "type": "electric_scooter", "lon": -77.0315865, "bike_id": "df9bc037435688a66cf2781252248cef", "fusion_lat": 0.0, "name": "df9bc037435688a66cf2781252248cef", "is_reserved": 0, "rental_uris": {"android": "https://dc.lft.to/lastmile_qr_scan", "ios": "https://dc.lft.to/lastmile_qr_scan"}, "fusion_lon": 0.0}, {"lat": 38.924067666666666, "is_disabled": 0, "type": "electric_scooter", "lon": -77.05247333333334, "bike_id": "56015ac7a217de8d87d4c9d9323926ba", "fusion_lat": 0.0, "name": "56015ac7a217de8d87d4c9d9323926ba", "is_reserved": 0, "rental_uris": {"android": "https://dc.lft.to/lastmile_qr_scan", "ios": "https://dc.lft.to/lastmile_qr_scan"}, "fusion_lon": 0.0}, {"lat": 38.871439, "is_disabled": 0, "type": "electric_bike", "lon": -76.9370805, "bike_id": "0fbb1b1634e854e70629878836984e26", "fusion_lat": 0.0, "name": "0fbb1b1634e854e70629878836984e26", "is_reserved": 0, "rental_uris": {"android": "https://dc.lft.to/lastmile_qr_scan", "ios": "https://dc.lft.to/lastmile_qr_scan"}, "fusion_lon": 0.0}, {"lat": 38.927094333333336, "is_disabled": 0, "type": "electric_scooter", "lon": -77.0208145, "bike_id": "624537fca415a3d9de48987b163857df", "fusion_lat": 0.0, "name": "624537fca415a3d9de48987b163857df", "is_reserved": 0, "rental_uris": {"android": "https://dc.lft.to/lastmile_qr_scan", "ios": "https://dc.lft.to/lastmile_qr_scan"}, "fusion_lon": 0.0}, {"lat": 38.84567633333333, "is_disabled": 0, "type": "electric_bike", "lon": -77.09621733333333, "bike_id": "48e7fa3b64098daad66b96de1aa2f2f1", "fusion_lat": 0.0, "name": "48e7fa3b64098daad66b96de1aa2f2f1", "is_reserved": 0, "rental_uris": {"android": "https://dc.lft.to/lastmile_qr_scan", "ios": "https://dc.lft.to/lastmile_qr_scan"}, "fusion_lon": 0.0}, {"lat": 38.900731666666665, "is_disabled": 0, "type": "electric_scooter", "lon": -77.05069483333334, "bike_id": "f2d43ed4201ebee10d4dcec8ecdc0e18", "fusion_lat": 0.0, "name": "f2d43ed4201ebee10d4dcec8ecdc0e18", "is_reserved": 0, "rental_uris": {"android": "https://dc.lft.to/lastmile_qr_scan", "ios": "https://dc.lft.to/lastmile_qr_scan"}, "fusion_lon": 0.0}, {"lat": 38.91609066666667, "is_disabled": 0, "type": "electric_scooter", "lon": -77.0329665, "bike_id": "1cb559b69f588818bb7667654dcd6caf", "fusion_lat": 0.0, "name": "1cb559b69f588818bb7667654dcd6caf", "is_reserved": 0, "rental_uris": {"android": "https://dc.lft.to/lastmile_qr_scan", "ios": "https://dc.lft.to/lastmile_qr_scan"}, "fusion_lon": 0.0}, {"lat": 38.8811205, "is_disabled": 0, "type": "electric_scooter", "lon": -76.98339666666666, "bike_id": "09424232e7c775256597582d38cc42b7", "fusion_lat": 0.0, "name": "09424232e7c775256597582d38cc42b7", "is_reserved": 0, "rental_uris": {"android": "https://dc.lft.to/lastmile_qr_scan", "ios": "https://dc.lft.to/lastmile_qr_scan"}, "fusion_lon": 0.0}, {"lat": 38.836939666666666, "is_disabled": 0, "type": "electric_scooter", "lon": -77.103062, "bike_id": "01588174e52c6183860a350cbdd1b0df", "fusion_lat": 0.0, "name": "01588174e52c6183860a350cbdd1b0df", "is_reserved": 0, "rental_uris": {"android": "https://dc.lft.to/lastmile_qr_scan", "ios": "https://dc.lft.to/lastmile_qr_scan"}, "fusion_lon": 0.0}, {"lat": 38.936621, "is_disabled": 0, "type": "electric_scooter", "lon": -77.05936133333333, "bike_id": "4273bf2a3568b16200b188982d59630c", "fusion_lat": 0.0, "name": "4273bf2a3568b16200b188982d59630c", "is_reserved": 0, "rental_uris": {"android": "https://dc.lft.to/lastmile_qr_scan", "ios": "https://dc.lft.to/lastmile_qr_scan"}, "fusion_lon": 0.0}, {"lat": 38.867126999999996, "is_disabled": 0, "type": "electric_scooter", "lon": -76.98723566666666, "bike_id": "f926422a10c34933bf4ccdfbf06a0f07", "fusion_lat": 0.0, "name": "f926422a10c34933bf4ccdfbf06a0f07", "is_reserved": 0, "rental_uris": {"android": "https://dc.lft.to/lastmile_qr_scan", "ios": "https://dc.lft.to/lastmile_qr_scan"}, "fusion_lon": 0.0}, {"lat": 38.934621666666665, "is_disabled": 0, "type": "electric_scooter", "lon": -77.02836783333333, "bike_id": "231f313beeb4810100577f5d1a63519b", "fusion_lat": 0.0, "name": "231f313beeb4810100577f5d1a63519b", "is_reserved": 0, "rental_uris": {"android": "https://dc.lft.to/lastmile_qr_scan", "ios": "https://dc.lft.to/lastmile_qr_scan"}, "fusion_lon": 0.0}, {"lat": 38.954068166666666, "is_disabled": 0, "type": "electric_scooter", "lon": -77.02747516666666, "bike_id": "785ae0916018a2805f7ae1ebc204f8bb", "fusion_lat": 0.0, "name": "785ae0916018a2805f7ae1ebc204f8bb", "is_reserved": 0, "rental_uris": {"android": "https://dc.lft.to/lastmile_qr_scan", "ios": "https://dc.lft.to/lastmile_qr_scan"}, "fusion_lon": 0.0}, {"lat": 38.933579, "is_disabled": 0, "type": "electric_scooter", "lon": -77.024957, "bike_id": "f3b84dee63f78c82277a1c4d2761ffc9", "fusion_lat": 0.0, "name": "f3b84dee63f78c82277a1c4d2761ffc9", "is_reserved": 0, "rental_uris": {"android": "https://dc.lft.to/lastmile_qr_scan", "ios": "https://dc.lft.to/lastmile_qr_scan"}, "fusion_lon": 0.0}, {"lat": 38.8924115, "is_disabled": 0, "type": "electric_scooter", "lon": -77.05033016666667, "bike_id": "d83e9fcc5ed14a7fc8c1fb2fa5f1f687", "fusion_lat": 0.0, "name": "d83e9fcc5ed14a7fc8c1fb2fa5f1f687", "is_reserved": 0, "rental_uris": {"android": "https://dc.lft.to/lastmile_qr_scan", "ios": "https://dc.lft.to/lastmile_qr_scan"}, "fusion_lon": 0.0}, {"lat": 38.802686666666666, "is_disabled": 0, "type": "electric_bike", "lon": -77.0811255, "bike_id": "2d9bc131d4d78b76c564cef4b7b18dd8", "fusion_lat": 0.0, "name": "2d9bc131d4d78b76c564cef4b7b18dd8", "is_reserved": 0, "rental_uris": {"android": "https://dc.lft.to/lastmile_qr_scan", "ios": "https://dc.lft.to/lastmile_qr_scan"}, "fusion_lon": 0.0}, {"lat": 38.920444, "is_disabled": 0, "type": "electric_scooter", "lon": -77.02365383333333, "bike_id": "065e16779c08a1d6766a6209d886aa63", "fusion_lat": 0.0, "name": "065e16779c08a1d6766a6209d886aa63", "is_reserved": 0, "rental_uris": {"android": "https://dc.lft.to/lastmile_qr_scan", "ios": "https://dc.lft.to/lastmile_qr_scan"}, "fusion_lon": 0.0}, {"lat": 38.8625645, "is_disabled": 0, "type": "electric_scooter", "lon": -76.99515483333333, "bike_id": "41ee4df4800047d51be9d2e9e775c007", "fusion_lat": 0.0, "name": "41ee4df4800047d51be9d2e9e775c007", "is_reserved": 0, "rental_uris": {"android": "https://dc.lft.to/lastmile_qr_scan", "ios": "https://dc.lft.to/lastmile_qr_scan"}, "fusion_lon": 0.0}, {"lat": 38.9386235, "is_disabled": 0, "type": "electric_scooter", "lon": -77.02325716666667, "bike_id": "e2ebbccba5e86a979b7b36de193ed300", "fusion_lat": 0.0, "name": "e2ebbccba5e86a979b7b36de193ed300", "is_reserved": 0, "rental_uris": {"android": "https://dc.lft.to/lastmile_qr_scan", "ios": "https://dc.lft.to/lastmile_qr_scan"}, "fusion_lon": 0.0}, {"lat": 38.921386, "is_disabled": 0, "type": "electric_scooter", "lon": -77.04360916666667, "bike_id": "840a2c0b0f678d4cd6dd279843d63b9a", "fusion_lat": 0.0, "name": "840a2c0b0f678d4cd6dd279843d63b9a", "is_reserved": 0, "rental_uris": {"android": "https://dc.lft.to/lastmile_qr_scan", "ios": "https://dc.lft.to/lastmile_qr_scan"}, "fusion_lon": 0.0}, {"lat": 38.9033465, "is_disabled": 0, "type": "electric_scooter", "lon": -76.9759315, "bike_id": "4851cf526fb0d8fee4deb1fe716255c3", "fusion_lat": 0.0, "name": "4851cf526fb0d8fee4deb1fe716255c3", "is_reserved": 0, "rental_uris": {"android": "https://dc.lft.to/lastmile_qr_scan", "ios": "https://dc.lft.to/lastmile_qr_scan"}, "fusion_lon": 0.0}, {"lat": 38.903603, "is_disabled": 0, "type": "electric_scooter", "lon": -77.02517883333333, "bike_id": "05e4e860a4c67fc008b67e7b442cd9dd", "fusion_lat": 0.0, "name": "05e4e860a4c67fc008b67e7b442cd9dd", "is_reserved": 0, "rental_uris": {"android": "https://dc.lft.to/lastmile_qr_scan", "ios": "https://dc.lft.to/lastmile_qr_scan"}, "fusion_lon": 0.0}, {"lat": 38.89264933333333, "is_disabled": 0, "type": "electric_scooter", "lon": -76.9415745, "bike_id": "66c71e29a853f07661518f0b85b3d90d", "fusion_lat": 0.0, "name": "66c71e29a853f07661518f0b85b3d90d", "is_reserved": 0, "rental_uris": {"android": "https://dc.lft.to/lastmile_qr_scan", "ios": "https://dc.lft.to/lastmile_qr_scan"}, "fusion_lon": 0.0}, {"lat": 38.931959, "is_disabled": 0, "type": "electric_scooter", "lon": -77.03748983333334, "bike_id": "5eef35b8f771e71b9b2cf5ba649cf212", "fusion_lat": 0.0, "name": "5eef35b8f771e71b9b2cf5ba649cf212", "is_reserved": 0, "rental_uris": {"android": "https://dc.lft.to/lastmile_qr_scan", "ios": "https://dc.lft.to/lastmile_qr_scan"}, "fusion_lon": 0.0}, {"lat": 38.9399455, "is_disabled": 0, "type": "electric_scooter", "lon": -77.07178316666666, "bike_id": "7f032186ac1738ecf21023f35ccc60f8", "fusion_lat": 0.0, "name": "7f032186ac1738ecf21023f35ccc60f8", "is_reserved": 0, "rental_uris": {"android": "https://dc.lft.to/lastmile_qr_scan", "ios": "https://dc.lft.to/lastmile_qr_scan"}, "fusion_lon": 0.0}, {"lat": 38.80683633333334, "is_disabled": 0, "type": "electric_bike", "lon": -77.08118966666666, "bike_id": "96faa53e210b6c58cee9aa3c8f63e2f1", "fusion_lat": 0.0, "name": "96faa53e210b6c58cee9aa3c8f63e2f1", "is_reserved": 0, "rental_uris": {"android": "https://dc.lft.to/lastmile_qr_scan", "ios": "https://dc.lft.to/lastmile_qr_scan"}, "fusion_lon": 0.0}, {"lat": 38.87411433333333, "is_disabled": 0, "type": "electric_scooter", "lon": -76.9730555, "bike_id": "32e6e47d7f02ca785a195b52165436b2", "fusion_lat": 0.0, "name": "32e6e47d7f02ca785a195b52165436b2", "is_reserved": 0, "rental_uris": {"android": "https://dc.lft.to/lastmile_qr_scan", "ios": "https://dc.lft.to/lastmile_qr_scan"}, "fusion_lon": 0.0}, {"lat": 38.91132266666666, "is_disabled": 0, "type": "electric_scooter", "lon": -77.04416533333334, "bike_id": "ca72342984be126afe197cb331d6699c", "fusion_lat": 0.0, "name": "ca72342984be126afe197cb331d6699c", "is_reserved": 0, "rental_uris": {"android": "https://dc.lft.to/lastmile_qr_scan", "ios": "https://dc.lft.to/lastmile_qr_scan"}, "fusion_lon": 0.0}, {"lat": 38.912723, "is_disabled": 0, "type": "electric_bike", "lon": -77.01224483333333, "bike_id": "c078f5f247b187addf0e2b2e08104c6d", "fusion_lat": 0.0, "name": "c078f5f247b187addf0e2b2e08104c6d", "is_reserved": 0, "rental_uris": {"android": "https://dc.lft.to/lastmile_qr_scan", "ios": "https://dc.lft.to/lastmile_qr_scan"}, "fusion_lon": 0.0}, {"lat": 38.897436166666665, "is_disabled": 0, "type": "electric_scooter", "lon": -77.04535566666667, "bike_id": "3fc34af0095d5de8459b9e29d9349694", "fusion_lat": 0.0, "name": "3fc34af0095d5de8459b9e29d9349694", "is_reserved": 0, "rental_uris": {"android": "https://dc.lft.to/lastmile_qr_scan", "ios": "https://dc.lft.to/lastmile_qr_scan"}, "fusion_lon": 0.0}, {"lat": 38.899077, "is_disabled": 0, "type": "electric_scooter", "lon": -76.9335075, "bike_id": "b4b271c33b997f40e45a9840a5c10814", "fusion_lat": 0.0, "name": "b4b271c33b997f40e45a9840a5c10814", "is_reserved": 0, "rental_uris": {"android": "https://dc.lft.to/lastmile_qr_scan", "ios": "https://dc.lft.to/lastmile_qr_scan"}, "fusion_lon": 0.0}, {"lat": 38.866594166666665, "is_disabled": 0, "type": "electric_scooter", "lon": -76.988834, "bike_id": "33222a5819bffa6c54496a10c028cb67", "fusion_lat": 0.0, "name": "33222a5819bffa6c54496a10c028cb67", "is_reserved": 0, "rental_uris": {"android": "https://dc.lft.to/lastmile_qr_scan", "ios": "https://dc.lft.to/lastmile_qr_scan"}, "fusion_lon": 0.0}, {"lat": 38.9178105, "is_disabled": 0, "type": "electric_scooter", "lon": -77.04339716666667, "bike_id": "bd528eb7c8951ad1ec02a159a8c3fe8d", "fusion_lat": 0.0, "name": "bd528eb7c8951ad1ec02a159a8c3fe8d", "is_reserved": 0, "rental_uris": {"android": "https://dc.lft.to/lastmile_qr_scan", "ios": "https://dc.lft.to/lastmile_qr_scan"}, "fusion_lon": 0.0}, {"lat": 38.92572083333334, "is_disabled": 0, "type": "electric_scooter", "lon": -77.05750383333333, "bike_id": "ab5810f3137e1bd77d5992ebb51b30a2", "fusion_lat": 0.0, "name": "ab5810f3137e1bd77d5992ebb51b30a2", "is_reserved": 0, "rental_uris": {"android": "https://dc.lft.to/lastmile_qr_scan", "ios": "https://dc.lft.to/lastmile_qr_scan"}, "fusion_lon": 0.0}, {"lat": 38.943919333333334, "is_disabled": 0, "type": "electric_scooter", "lon": -77.019876, "bike_id": "02317aa469017c59803231c5dcad81b4", "fusion_lat": 0.0, "name": "02317aa469017c59803231c5dcad81b4", "is_reserved": 0, "rental_uris": {"android": "https://dc.lft.to/lastmile_qr_scan", "ios": "https://dc.lft.to/lastmile_qr_scan"}, "fusion_lon": 0.0}, {"lat": 38.928502, "is_disabled": 0, "type": "electric_scooter", "lon": -77.0139625, "bike_id": "094f2b0cac5cfdc93a84d91bda534418", "fusion_lat": 0.0, "name": "094f2b0cac5cfdc93a84d91bda534418", "is_reserved": 0, "rental_uris": {"android": "https://dc.lft.to/lastmile_qr_scan", "ios": "https://dc.lft.to/lastmile_qr_scan"}, "fusion_lon": 0.0}, {"lat": 38.990033, "is_disabled": 0, "type": "electric_bike", "lon": -77.00438916666667, "bike_id": "f5c03f3c37c7d26023eab4c700210820", "fusion_lat": 0.0, "name": "f5c03f3c37c7d26023eab4c700210820", "is_reserved": 0, "rental_uris": {"android": "https://dc.lft.to/lastmile_qr_scan", "ios": "https://dc.lft.to/lastmile_qr_scan"}, "fusion_lon": 0.0}, {"lat": 38.855143166666664, "is_disabled": 0, "type": "electric_bike", "lon": -77.12025166666666, "bike_id": "1cedfe0708cecce93d86b5e30203c67e", "fusion_lat": 0.0, "name": "1cedfe0708cecce93d86b5e30203c67e", "is_reserved": 0, "rental_uris": {"android": "https://dc.lft.to/lastmile_qr_scan", "ios": "https://dc.lft.to/lastmile_qr_scan"}, "fusion_lon": 0.0}, {"lat": 38.91892716666667, "is_disabled": 0, "type": "electric_scooter", "lon": -77.03495766666667, "bike_id": "a1113e36b14ad03677536a6b538044ca", "fusion_lat": 0.0, "name": "a1113e36b14ad03677536a6b538044ca", "is_reserved": 0, "rental_uris": {"android": "https://dc.lft.to/lastmile_qr_scan", "ios": "https://dc.lft.to/lastmile_qr_scan"}, "fusion_lon": 0.0}, {"lat": 38.9234625, "is_disabled": 0, "type": "electric_scooter", "lon": -77.03394333333334, "bike_id": "8235ea405dd061262414854d7958a678", "fusion_lat": 0.0, "name": "8235ea405dd061262414854d7958a678", "is_reserved": 0, "rental_uris": {"android": "https://dc.lft.to/lastmile_qr_scan", "ios": "https://dc.lft.to/lastmile_qr_scan"}, "fusion_lon": 0.0}, {"lat": 38.94439233333333, "is_disabled": 0, "type": "electric_scooter", "lon": -77.01506283333333, "bike_id": "2f608db793bb7a8ebc91a993be12ed16", "fusion_lat": 0.0, "name": "2f608db793bb7a8ebc91a993be12ed16", "is_reserved": 0, "rental_uris": {"android": "https://dc.lft.to/lastmile_qr_scan", "ios": "https://dc.lft.to/lastmile_qr_scan"}, "fusion_lon": 0.0}, {"lat": 38.85191183333333, "is_disabled": 0, "type": "electric_bike", "lon": -76.96108316666667, "bike_id": "3e7edbff2ee9d7c6e745838bc3819061", "fusion_lat": 0.0, "name": "3e7edbff2ee9d7c6e745838bc3819061", "is_reserved": 0, "rental_uris": {"android": "https://dc.lft.to/lastmile_qr_scan", "ios": "https://dc.lft.to/lastmile_qr_scan"}, "fusion_lon": 0.0}, {"lat": 38.911119166666666, "is_disabled": 0, "type": "electric_scooter", "lon": -77.03831516666666, "bike_id": "38ed240628e98436b5a1a43aeca875e3", "fusion_lat": 0.0, "name": "38ed240628e98436b5a1a43aeca875e3", "is_reserved": 0, "rental_uris": {"android": "https://dc.lft.to/lastmile_qr_scan", "ios": "https://dc.lft.to/lastmile_qr_scan"}, "fusion_lon": 0.0}, {"lat": 38.90116483333333, "is_disabled": 0, "type": "electric_scooter", "lon": -77.02519666666667, "bike_id": "4b5ab55e236d49785b0c1e195340f15a", "fusion_lat": 0.0, "name": "4b5ab55e236d49785b0c1e195340f15a", "is_reserved": 0, "rental_uris": {"android": "https://dc.lft.to/lastmile_qr_scan", "ios": "https://dc.lft.to/lastmile_qr_scan"}, "fusion_lon": 0.0}, {"lat": 38.921526666666665, "is_disabled": 0, "type": "electric_scooter", "lon": -77.03871233333334, "bike_id": "0420a45b2925eb00f2da865160f5dce1", "fusion_lat": 0.0, "name": "0420a45b2925eb00f2da865160f5dce1", "is_reserved": 0, "rental_uris": {"android": "https://dc.lft.to/lastmile_qr_scan", "ios": "https://dc.lft.to/lastmile_qr_scan"}, "fusion_lon": 0.0}, {"lat": 38.927772833333336, "is_disabled": 0, "type": "electric_scooter", "lon": -77.05255466666667, "bike_id": "aa4d68a0ae8d745ff50412f63798a5bf", "fusion_lat": 0.0, "name": "aa4d68a0ae8d745ff50412f63798a5bf", "is_reserved": 0, "rental_uris": {"android": "https://dc.lft.to/lastmile_qr_scan", "ios": "https://dc.lft.to/lastmile_qr_scan"}, "fusion_lon": 0.0}, {"lat": 38.896075833333335, "is_disabled": 0, "type": "electric_scooter", "lon": -77.009259, "bike_id": "ed15b95eececd524c5ca000166cfa375", "fusion_lat": 0.0, "name": "ed15b95eececd524c5ca000166cfa375", "is_reserved": 0, "rental_uris": {"android": "https://dc.lft.to/lastmile_qr_scan", "ios": "https://dc.lft.to/lastmile_qr_scan"}, "fusion_lon": 0.0}, {"lat": 38.937037, "is_disabled": 0, "type": "electric_scooter", "lon": -77.06101466666667, "bike_id": "a27d416fcbd25353cb9f1df71dd15d22", "fusion_lat": 0.0, "name": "a27d416fcbd25353cb9f1df71dd15d22", "is_reserved": 0, "rental_uris": {"android": "https://dc.lft.to/lastmile_qr_scan", "ios": "https://dc.lft.to/lastmile_qr_scan"}, "fusion_lon": 0.0}, {"lat": 38.89852, "is_disabled": 0, "type": "electric_bike", "lon": -76.93188733333334, "bike_id": "cbf62cd1847d21179522f263da013385", "fusion_lat": 0.0, "name": "cbf62cd1847d21179522f263da013385", "is_reserved": 0, "rental_uris": {"android": "https://dc.lft.to/lastmile_qr_scan", "ios": "https://dc.lft.to/lastmile_qr_scan"}, "fusion_lon": 0.0}, {"lat": 38.9151915, "is_disabled": 0, "type": "electric_scooter", "lon": -77.03847783333333, "bike_id": "a91929537c161f4670c64686e6035b4c", "fusion_lat": 0.0, "name": "a91929537c161f4670c64686e6035b4c", "is_reserved": 0, "rental_uris": {"android": "https://dc.lft.to/lastmile_qr_scan", "ios": "https://dc.lft.to/lastmile_qr_scan"}, "fusion_lon": 0.0}, {"lat": 38.933835, "is_disabled": 0, "type": "electric_scooter", "lon": -76.99512116666666, "bike_id": "0f67f351975da27c2872ca455e44712c", "fusion_lat": 0.0, "name": "0f67f351975da27c2872ca455e44712c", "is_reserved": 0, "rental_uris": {"android": "https://dc.lft.to/lastmile_qr_scan", "ios": "https://dc.lft.to/lastmile_qr_scan"}, "fusion_lon": 0.0}, {"lat": 38.93567683333333, "is_disabled": 0, "type": "electric_scooter", "lon": -77.0327065, "bike_id": "21e8412ab6ab2ae437f8e3edce9c5ab6", "fusion_lat": 0.0, "name": "21e8412ab6ab2ae437f8e3edce9c5ab6", "is_reserved": 0, "rental_uris": {"android": "https://dc.lft.to/lastmile_qr_scan", "ios": "https://dc.lft.to/lastmile_qr_scan"}, "fusion_lon": 0.0}, {"lat": 38.910552333333335, "is_disabled": 0, "type": "electric_scooter", "lon": -77.0435075, "bike_id": "e7c9a656db37b311414e4b3f24e2f84a", "fusion_lat": 0.0, "name": "e7c9a656db37b311414e4b3f24e2f84a", "is_reserved": 0, "rental_uris": {"android": "https://dc.lft.to/lastmile_qr_scan", "ios": "https://dc.lft.to/lastmile_qr_scan"}, "fusion_lon": 0.0}, {"lat": 38.90566666666667, "is_disabled": 0, "type": "electric_scooter", "lon": -77.03623416666667, "bike_id": "9e651919543bc7ad51f5198947817bc9", "fusion_lat": 0.0, "name": "9e651919543bc7ad51f5198947817bc9", "is_reserved": 0, "rental_uris": {"android": "https://dc.lft.to/lastmile_qr_scan", "ios": "https://dc.lft.to/lastmile_qr_scan"}, "fusion_lon": 0.0}, {"lat": 38.92810566666667, "is_disabled": 0, "type": "electric_scooter", "lon": -77.02622066666666, "bike_id": "675ec67711350db34eab8e7a3537d679", "fusion_lat": 0.0, "name": "675ec67711350db34eab8e7a3537d679", "is_reserved": 0, "rental_uris": {"android": "https://dc.lft.to/lastmile_qr_scan", "ios": "https://dc.lft.to/lastmile_qr_scan"}, "fusion_lon": 0.0}, {"lat": 38.915359333333335, "is_disabled": 0, "type": "electric_scooter", "lon": -77.03201766666666, "bike_id": "833aa8b8275fe412324cc184cd49c4f4", "fusion_lat": 0.0, "name": "833aa8b8275fe412324cc184cd49c4f4", "is_reserved": 0, "rental_uris": {"android": "https://dc.lft.to/lastmile_qr_scan", "ios": "https://dc.lft.to/lastmile_qr_scan"}, "fusion_lon": 0.0}, {"lat": 38.897071333333336, "is_disabled": 0, "type": "electric_scooter", "lon": -77.00838283333333, "bike_id": "38872dc7bef23b01b3c3594259538cfb", "fusion_lat": 0.0, "name": "38872dc7bef23b01b3c3594259538cfb", "is_reserved": 0, "rental_uris": {"android": "https://dc.lft.to/lastmile_qr_scan", "ios": "https://dc.lft.to/lastmile_qr_scan"}, "fusion_lon": 0.0}, {"lat": 38.9086085, "is_disabled": 0, "type": "electric_scooter", "lon": -76.9916735, "bike_id": "5eb445593ff61a5b3bb4622c058bd3b8", "fusion_lat": 0.0, "name": "5eb445593ff61a5b3bb4622c058bd3b8", "is_reserved": 0, "rental_uris": {"android": "https://dc.lft.to/lastmile_qr_scan", "ios": "https://dc.lft.to/lastmile_qr_scan"}, "fusion_lon": 0.0}, {"lat": 38.9004295, "is_disabled": 0, "type": "electric_scooter", "lon": -76.99383983333334, "bike_id": "7335da3cde35a46cb3c66c48748112b4", "fusion_lat": 0.0, "name": "7335da3cde35a46cb3c66c48748112b4", "is_reserved": 0, "rental_uris": {"android": "https://dc.lft.to/lastmile_qr_scan", "ios": "https://dc.lft.to/lastmile_qr_scan"}, "fusion_lon": 0.0}, {"lat": 38.906195, "is_disabled": 0, "type": "electric_scooter", "lon": -76.98982666666667, "bike_id": "ef7e9bda94089fdc2cba2afc0c50aa52", "fusion_lat": 0.0, "name": "ef7e9bda94089fdc2cba2afc0c50aa52", "is_reserved": 0, "rental_uris": {"android": "https://dc.lft.to/lastmile_qr_scan", "ios": "https://dc.lft.to/lastmile_qr_scan"}, "fusion_lon": 0.0}, {"lat": 38.927461, "is_disabled": 0, "type": "electric_scooter", "lon": -77.02534, "bike_id": "096fc66c3b10ddec1f52e41d6f6e8067", "fusion_lat": 0.0, "name": "096fc66c3b10ddec1f52e41d6f6e8067", "is_reserved": 0, "rental_uris": {"android": "https://dc.lft.to/lastmile_qr_scan", "ios": "https://dc.lft.to/lastmile_qr_scan"}, "fusion_lon": 0.0}, {"lat": 38.89134033333333, "is_disabled": 0, "type": "electric_scooter", "lon": -76.94386833333333, "bike_id": "1f95d8ebea640e974471b3f975794468", "fusion_lat": 0.0, "name": "1f95d8ebea640e974471b3f975794468", "is_reserved": 0, "rental_uris": {"android": "https://dc.lft.to/lastmile_qr_scan", "ios": "https://dc.lft.to/lastmile_qr_scan"}, "fusion_lon": 0.0}, {"lat": 38.859106, "is_disabled": 0, "type": "electric_scooter", "lon": -76.99151083333334, "bike_id": "c3336075fda38fb53c65daf707a4e58b", "fusion_lat": 0.0, "name": "c3336075fda38fb53c65daf707a4e58b", "is_reserved": 0, "rental_uris": {"android": "https://dc.lft.to/lastmile_qr_scan", "ios": "https://dc.lft.to/lastmile_qr_scan"}, "fusion_lon": 0.0}, {"lat": 38.89518966666667, "is_disabled": 0, "type": "electric_scooter", "lon": -77.028329, "bike_id": "6040cc0237cd8794877b58f6e7b10ee5", "fusion_lat": 0.0, "name": "6040cc0237cd8794877b58f6e7b10ee5", "is_reserved": 0, "rental_uris": {"android": "https://dc.lft.to/lastmile_qr_scan", "ios": "https://dc.lft.to/lastmile_qr_scan"}, "fusion_lon": 0.0}, {"lat": 38.91102633333333, "is_disabled": 0, "type": "electric_scooter", "lon": -77.04225666666666, "bike_id": "af4088f23812998e562b3c1092d127bd", "fusion_lat": 0.0, "name": "af4088f23812998e562b3c1092d127bd", "is_reserved": 0, "rental_uris": {"android": "https://dc.lft.to/lastmile_qr_scan", "ios": "https://dc.lft.to/lastmile_qr_scan"}, "fusion_lon": 0.0}, {"lat": 38.94741166666667, "is_disabled": 0, "type": "electric_scooter", "lon": -77.065312, "bike_id": "4165bb246943a0fa984ec57e1c0561f7", "fusion_lat": 0.0, "name": "4165bb246943a0fa984ec57e1c0561f7", "is_reserved": 0, "rental_uris": {"android": "https://dc.lft.to/lastmile_qr_scan", "ios": "https://dc.lft.to/lastmile_qr_scan"}, "fusion_lon": 0.0}, {"lat": 38.866505333333336, "is_disabled": 0, "type": "electric_scooter", "lon": -76.98882033333334, "bike_id": "6861039a58c9809444033a3ba84f8e60", "fusion_lat": 0.0, "name": "6861039a58c9809444033a3ba84f8e60", "is_reserved": 0, "rental_uris": {"android": "https://dc.lft.to/lastmile_qr_scan", "ios": "https://dc.lft.to/lastmile_qr_scan"}, "fusion_lon": 0.0}, {"lat": 38.9003145, "is_disabled": 0, "type": "electric_scooter", "lon": -76.99724266666666, "bike_id": "cbe6d8d5745e6148b271f34fb9df4af4", "fusion_lat": 0.0, "name": "cbe6d8d5745e6148b271f34fb9df4af4", "is_reserved": 0, "rental_uris": {"android": "https://dc.lft.to/lastmile_qr_scan", "ios": "https://dc.lft.to/lastmile_qr_scan"}, "fusion_lon": 0.0}, {"lat": 38.899064333333335, "is_disabled": 0, "type": "electric_scooter", "lon": -76.93358983333333, "bike_id": "2cc79be50c005d411c4601d49d9c1c7d", "fusion_lat": 0.0, "name": "2cc79be50c005d411c4601d49d9c1c7d", "is_reserved": 0, "rental_uris": {"android": "https://dc.lft.to/lastmile_qr_scan", "ios": "https://dc.lft.to/lastmile_qr_scan"}, "fusion_lon": 0.0}, {"lat": 38.901178333333334, "is_disabled": 0, "type": "electric_scooter", "lon": -77.04978616666666, "bike_id": "d0140a5b05b49caf94984003cbbf569e", "fusion_lat": 0.0, "name": "d0140a5b05b49caf94984003cbbf569e", "is_reserved": 0, "rental_uris": {"android": "https://dc.lft.to/lastmile_qr_scan", "ios": "https://dc.lft.to/lastmile_qr_scan"}, "fusion_lon": 0.0}, {"lat": 38.930589166666664, "is_disabled": 0, "type": "electric_scooter", "lon": -77.04191316666666, "bike_id": "72b473e721eab31b2bb011ac141500d9", "fusion_lat": 0.0, "name": "72b473e721eab31b2bb011ac141500d9", "is_reserved": 0, "rental_uris": {"android": "https://dc.lft.to/lastmile_qr_scan", "ios": "https://dc.lft.to/lastmile_qr_scan"}, "fusion_lon": 0.0}, {"lat": 38.900695999999996, "is_disabled": 0, "type": "electric_scooter", "lon": -77.00193883333333, "bike_id": "99c9c32b5e49b31abd8c87a7fd12a38d", "fusion_lat": 0.0, "name": "99c9c32b5e49b31abd8c87a7fd12a38d", "is_reserved": 0, "rental_uris": {"android": "https://dc.lft.to/lastmile_qr_scan", "ios": "https://dc.lft.to/lastmile_qr_scan"}, "fusion_lon": 0.0}, {"lat": 39.052019666666666, "is_disabled": 0, "type": "electric_bike", "lon": -77.10916866666666, "bike_id": "f6e6c0c998215119c15d1782d6a5e0d1", "fusion_lat": 0.0, "name": "f6e6c0c998215119c15d1782d6a5e0d1", "is_reserved": 0, "rental_uris": {"android": "https://dc.lft.to/lastmile_qr_scan", "ios": "https://dc.lft.to/lastmile_qr_scan"}, "fusion_lon": 0.0}, {"lat": 38.89231066666667, "is_disabled": 0, "type": "electric_scooter", "lon": -77.050013, "bike_id": "ffb3b408662f1bcdbfa461ced05e1891", "fusion_lat": 0.0, "name": "ffb3b408662f1bcdbfa461ced05e1891", "is_reserved": 0, "rental_uris": {"android": "https://dc.lft.to/lastmile_qr_scan", "ios": "https://dc.lft.to/lastmile_qr_scan"}, "fusion_lon": 0.0}, {"lat": 38.91710783333333, "is_disabled": 0, "type": "electric_scooter", "lon": -77.038641, "bike_id": "e51734676922ff627aa242f2a367e09d", "fusion_lat": 0.0, "name": "e51734676922ff627aa242f2a367e09d", "is_reserved": 0, "rental_uris": {"android": "https://dc.lft.to/lastmile_qr_scan", "ios": "https://dc.lft.to/lastmile_qr_scan"}, "fusion_lon": 0.0}, {"lat": 38.923278, "is_disabled": 0, "type": "electric_scooter", "lon": -77.027029, "bike_id": "90a9ec15005ce30ed6f6e59f7cf26b53", "fusion_lat": 0.0, "name": "90a9ec15005ce30ed6f6e59f7cf26b53", "is_reserved": 0, "rental_uris": {"android": "https://dc.lft.to/lastmile_qr_scan", "ios": "https://dc.lft.to/lastmile_qr_scan"}, "fusion_lon": 0.0}, {"lat": 38.90200216666667, "is_disabled": 0, "type": "electric_scooter", "lon": -77.02373783333333, "bike_id": "5a03356132bcea71954be0b853fa7512", "fusion_lat": 0.0, "name": "5a03356132bcea71954be0b853fa7512", "is_reserved": 0, "rental_uris": {"android": "https://dc.lft.to/lastmile_qr_scan", "ios": "https://dc.lft.to/lastmile_qr_scan"}, "fusion_lon": 0.0}, {"lat": 38.923228333333334, "is_disabled": 0, "type": "electric_scooter", "lon": -77.038662, "bike_id": "74d2bfb5304b9b4cfc7170e5d0e53340", "fusion_lat": 0.0, "name": "74d2bfb5304b9b4cfc7170e5d0e53340", "is_reserved": 0, "rental_uris": {"android": "https://dc.lft.to/lastmile_qr_scan", "ios": "https://dc.lft.to/lastmile_qr_scan"}, "fusion_lon": 0.0}, {"lat": 38.89967883333333, "is_disabled": 0, "type": "electric_scooter", "lon": -76.92657966666667, "bike_id": "92c8b08f49d7c2a688af1f27c35821ed", "fusion_lat": 0.0, "name": "92c8b08f49d7c2a688af1f27c35821ed", "is_reserved": 0, "rental_uris": {"android": "https://dc.lft.to/lastmile_qr_scan", "ios": "https://dc.lft.to/lastmile_qr_scan"}, "fusion_lon": 0.0}, {"lat": 38.9050355, "is_disabled": 0, "type": "electric_scooter", "lon": -77.02955116666666, "bike_id": "cf2844fc679000abf2898becf91adb5e", "fusion_lat": 0.0, "name": "cf2844fc679000abf2898becf91adb5e", "is_reserved": 0, "rental_uris": {"android": "https://dc.lft.to/lastmile_qr_scan", "ios": "https://dc.lft.to/lastmile_qr_scan"}, "fusion_lon": 0.0}, {"lat": 38.90723066666666, "is_disabled": 0, "type": "electric_scooter", "lon": -77.04825433333333, "bike_id": "705a72c3e61c815f0dfe45fd72fddfff", "fusion_lat": 0.0, "name": "705a72c3e61c815f0dfe45fd72fddfff", "is_reserved": 0, "rental_uris": {"android": "https://dc.lft.to/lastmile_qr_scan", "ios": "https://dc.lft.to/lastmile_qr_scan"}, "fusion_lon": 0.0}, {"lat": 38.89088366666667, "is_disabled": 0, "type": "electric_scooter", "lon": -76.95272033333333, "bike_id": "f2bbb7cb3053f22851718c40e40a45c6", "fusion_lat": 0.0, "name": "f2bbb7cb3053f22851718c40e40a45c6", "is_reserved": 0, "rental_uris": {"android": "https://dc.lft.to/lastmile_qr_scan", "ios": "https://dc.lft.to/lastmile_qr_scan"}, "fusion_lon": 0.0}, {"lat": 38.90527983333333, "is_disabled": 0, "type": "electric_scooter", "lon": -77.00578516666667, "bike_id": "fa49323a8fde868b72e5f185dddd6d38", "fusion_lat": 0.0, "name": "fa49323a8fde868b72e5f185dddd6d38", "is_reserved": 0, "rental_uris": {"android": "https://dc.lft.to/lastmile_qr_scan", "ios": "https://dc.lft.to/lastmile_qr_scan"}, "fusion_lon": 0.0}, {"lat": 38.90720783333333, "is_disabled": 0, "type": "electric_scooter", "lon": -77.029389, "bike_id": "013107bcdcd96947804b0addc98cdc71", "fusion_lat": 0.0, "name": "013107bcdcd96947804b0addc98cdc71", "is_reserved": 0, "rental_uris": {"android": "https://dc.lft.to/lastmile_qr_scan", "ios": "https://dc.lft.to/lastmile_qr_scan"}, "fusion_lon": 0.0}, {"lat": 38.918388, "is_disabled": 0, "type": "electric_scooter", "lon": -77.0353125, "bike_id": "5dafa27cc3c604f9a78efc65d05d48fd", "fusion_lat": 0.0, "name": "5dafa27cc3c604f9a78efc65d05d48fd", "is_reserved": 0, "rental_uris": {"android": "https://dc.lft.to/lastmile_qr_scan", "ios": "https://dc.lft.to/lastmile_qr_scan"}, "fusion_lon": 0.0}, {"lat": 38.9521755, "is_disabled": 0, "type": "electric_scooter", "lon": -77.086041, "bike_id": "869c4b0180918ed59868241d6fd93234", "fusion_lat": 0.0, "name": "869c4b0180918ed59868241d6fd93234", "is_reserved": 0, "rental_uris": {"android": "https://dc.lft.to/lastmile_qr_scan", "ios": "https://dc.lft.to/lastmile_qr_scan"}, "fusion_lon": 0.0}, {"lat": 38.91930983333334, "is_disabled": 0, "type": "electric_scooter", "lon": -77.03182616666666, "bike_id": "1310707140d511682bbd808089a4817a", "fusion_lat": 0.0, "name": "1310707140d511682bbd808089a4817a", "is_reserved": 0, "rental_uris": {"android": "https://dc.lft.to/lastmile_qr_scan", "ios": "https://dc.lft.to/lastmile_qr_scan"}, "fusion_lon": 0.0}, {"lat": 38.9050265, "is_disabled": 0, "type": "electric_scooter", "lon": -77.0295125, "bike_id": "160f47a37c210cfacfba0ac58bb55b41", "fusion_lat": 0.0, "name": "160f47a37c210cfacfba0ac58bb55b41", "is_reserved": 0, "rental_uris": {"android": "https://dc.lft.to/lastmile_qr_scan", "ios": "https://dc.lft.to/lastmile_qr_scan"}, "fusion_lon": 0.0}, {"lat": 38.99995216666667, "is_disabled": 0, "type": "electric_bike", "lon": -76.92501683333333, "bike_id": "82300aad066012ee49492e8a0748a038", "fusion_lat": 0.0, "name": "82300aad066012ee49492e8a0748a038", "is_reserved": 0, "rental_uris": {"android": "https://dc.lft.to/lastmile_qr_scan", "ios": "https://dc.lft.to/lastmile_qr_scan"}, "fusion_lon": 0.0}, {"lat": 38.95954533333333, "is_disabled": 0, "type": "electric_bike", "lon": -77.100907, "bike_id": "4ecbf46537124768ac68fd5a975dfa1a", "fusion_lat": 0.0, "name": "4ecbf46537124768ac68fd5a975dfa1a", "is_reserved": 0, "rental_uris": {"android": "https://dc.lft.to/lastmile_qr_scan", "ios": "https://dc.lft.to/lastmile_qr_scan"}, "fusion_lon": 0.0}, {"lat": 38.89680933333333, "is_disabled": 0, "type": "electric_scooter", "lon": -76.93537733333334, "bike_id": "06a03c8f1cdc807eabd42a73f4cdd040", "fusion_lat": 0.0, "name": "06a03c8f1cdc807eabd42a73f4cdd040", "is_reserved": 0, "rental_uris": {"android": "https://dc.lft.to/lastmile_qr_scan", "ios": "https://dc.lft.to/lastmile_qr_scan"}, "fusion_lon": 0.0}, {"lat": 38.87230233333333, "is_disabled": 0, "type": "electric_bike", "lon": -77.0116595, "bike_id": "15a7b81a57e46eeceea41fbd40ffe6d7", "fusion_lat": 0.0, "name": "15a7b81a57e46eeceea41fbd40ffe6d7", "is_reserved": 0, "rental_uris": {"android": "https://dc.lft.to/lastmile_qr_scan", "ios": "https://dc.lft.to/lastmile_qr_scan"}, "fusion_lon": 0.0}, {"lat": 38.91487016666667, "is_disabled": 0, "type": "electric_scooter", "lon": -77.03262416666666, "bike_id": "edbdce92d0249b900150d00e72262d67", "fusion_lat": 0.0, "name": "edbdce92d0249b900150d00e72262d67", "is_reserved": 0, "rental_uris": {"android": "https://dc.lft.to/lastmile_qr_scan", "ios": "https://dc.lft.to/lastmile_qr_scan"}, "fusion_lon": 0.0}, {"lat": 38.9006555, "is_disabled": 0, "type": "electric_scooter", "lon": -77.00197133333333, "bike_id": "4b4c56ea6cc34de425b0e9d1300ea5da", "fusion_lat": 0.0, "name": "4b4c56ea6cc34de425b0e9d1300ea5da", "is_reserved": 0, "rental_uris": {"android": "https://dc.lft.to/lastmile_qr_scan", "ios": "https://dc.lft.to/lastmile_qr_scan"}, "fusion_lon": 0.0}, {"lat": 38.892239000000004, "is_disabled": 0, "type": "electric_scooter", "lon": -77.04876983333334, "bike_id": "631bbf39d3501c4b12c6782d6d9c9eb0", "fusion_lat": 0.0, "name": "631bbf39d3501c4b12c6782d6d9c9eb0", "is_reserved": 0, "rental_uris": {"android": "https://dc.lft.to/lastmile_qr_scan", "ios": "https://dc.lft.to/lastmile_qr_scan"}, "fusion_lon": 0.0}, {"lat": 38.961504166666664, "is_disabled": 0, "type": "electric_scooter", "lon": -77.02787366666666, "bike_id": "069f246d4208c62951fa674e896c841d", "fusion_lat": 0.0, "name": "069f246d4208c62951fa674e896c841d", "is_reserved": 0, "rental_uris": {"android": "https://dc.lft.to/lastmile_qr_scan", "ios": "https://dc.lft.to/lastmile_qr_scan"}, "fusion_lon": 0.0}, {"lat": 38.92063383333333, "is_disabled": 0, "type": "electric_scooter", "lon": -77.04342416666667, "bike_id": "09fd4e55dd8e5e205372e5df6dd510c5", "fusion_lat": 0.0, "name": "09fd4e55dd8e5e205372e5df6dd510c5", "is_reserved": 0, "rental_uris": {"android": "https://dc.lft.to/lastmile_qr_scan", "ios": "https://dc.lft.to/lastmile_qr_scan"}, "fusion_lon": 0.0}, {"lat": 38.913258166666665, "is_disabled": 0, "type": "electric_scooter", "lon": -77.03269766666666, "bike_id": "2a6500c3c66ba5695a0e70d9e9e4bc34", "fusion_lat": 0.0, "name": "2a6500c3c66ba5695a0e70d9e9e4bc34", "is_reserved": 0, "rental_uris": {"android": "https://dc.lft.to/lastmile_qr_scan", "ios": "https://dc.lft.to/lastmile_qr_scan"}, "fusion_lon": 0.0}, {"lat": 38.916736, "is_disabled": 0, "type": "electric_scooter", "lon": -77.03348066666666, "bike_id": "b3140b9204807ddc0cc0306ff7610104", "fusion_lat": 0.0, "name": "b3140b9204807ddc0cc0306ff7610104", "is_reserved": 0, "rental_uris": {"android": "https://dc.lft.to/lastmile_qr_scan", "ios": "https://dc.lft.to/lastmile_qr_scan"}, "fusion_lon": 0.0}, {"lat": 38.908876666666664, "is_disabled": 0, "type": "electric_scooter", "lon": -77.044167, "bike_id": "03924647a1f45c4c40c6cb5cb716133f", "fusion_lat": 0.0, "name": "03924647a1f45c4c40c6cb5cb716133f", "is_reserved": 0, "rental_uris": {"android": "https://dc.lft.to/lastmile_qr_scan", "ios": "https://dc.lft.to/lastmile_qr_scan"}, "fusion_lon": 0.0}, {"lat": 38.892291, "is_disabled": 0, "type": "electric_scooter", "lon": -77.050041, "bike_id": "780caf632c303370ae3c463f58079897", "fusion_lat": 0.0, "name": "780caf632c303370ae3c463f58079897", "is_reserved": 0, "rental_uris": {"android": "https://dc.lft.to/lastmile_qr_scan", "ios": "https://dc.lft.to/lastmile_qr_scan"}, "fusion_lon": 0.0},