{"data": {"bikes": [{"type": "electric_scooter", "rental_uris": {"ios": "https://dc.lft.to/lastmile_qr_scan", "android": "https://dc.lft.to/lastmile_qr_scan"}, "lon": -77.014844, "fusion_lon": 0.0, "is_disabled": 0, "lat": 38.888195, "bike_id": "664ad22192541c2e209df37470df6311", "name": "664ad22192541c2e209df37470df6311", "is_reserved": 0, "fusion_lat": 0.0}, {"type": "electric_scooter", "rental_uris": {"ios": "https://dc.lft.to/lastmile_qr_scan", "android": "https://dc.lft.to/lastmile_qr_scan"}, "lon": -77.024161, "fusion_lon": 0.0, "is_disabled": 0, "lat": 38.8920135, "bike_id": "16ec3d4c21c3360c767341484c8d5b7b", "name": "16ec3d4c21c3360c767341484c8d5b7b", "is_reserved": 0, "fusion_lat": 0.0}, {"type": "electric_scooter", "rental_uris": {"ios": "https://dc.lft.to/lastmile_qr_scan", "android": "https://dc.lft.to/lastmile_qr_scan"}, "lon": -77.0262785, "fusion_lon": 0.0, "is_disabled": 0, "lat": 38.90567883333333, "bike_id": "cb9a79f1745870405a6672ad862cca0d", "name": "cb9a79f1745870405a6672ad862cca0d", "is_reserved": 0, "fusion_lat": 0.0}, {"type": "electric_scooter", "rental_uris": {"ios": "https://dc.lft.to/lastmile_qr_scan", "android": "https://dc.lft.to/lastmile_qr_scan"}, "lon": -77.02912016666667, "fusion_lon": 0.0, "is_disabled": 0, "lat": 38.925762, "bike_id": "34838aa8e0c2f50bb06e6d891d714b29", "name": "34838aa8e0c2f50bb06e6d891d714b29", "is_reserved": 0, "fusion_lat": 0.0}, {"type": "electric_scooter", "rental_uris": {"ios": "https://dc.lft.to/lastmile_qr_scan", "android": "https://dc.lft.to/lastmile_qr_scan"}, "lon": -77.03104116666667, "fusion_lon": 0.0, "is_disabled": 0, "lat": 38.879191166666665, "bike_id": "94bcc261af63d90648370ce48b90eaaf", "name": "94bcc261af63d90648370ce48b90eaaf", "is_reserved": 0, "fusion_lat": 0.0}, {"type": "electric_scooter", "rental_uris": {"ios": "https://dc.lft.to/lastmile_qr_scan", "android": "https://dc.lft.to/lastmile_qr_scan"}, "lon": -77.04076433333333, "fusion_lon": 0.0, "is_disabled": 0, "lat": 38.905019833333334, "bike_id": "415a4f395674e164558c6161460ee19d", "name": "415a4f395674e164558c6161460ee19d", "is_reserved": 0, "fusion_lat": 0.0}, {"type": "electric_scooter", "rental_uris": {"ios": "https://dc.lft.to/lastmile_qr_scan", "android": "https://dc.lft.to/lastmile_qr_scan"}, "lon": -76.93185233333334, "fusion_lon": 0.0, "is_disabled": 0, "lat": 38.898776833333336, "bike_id": "0d2397d8fd235629a2e8dd78905a8be9", "name": "0d2397d8fd235629a2e8dd78905a8be9", "is_reserved": 0, "fusion_lat": 0.0}, {"type": "electric_scooter", "rental_uris": {"ios": "https://dc.lft.to/lastmile_qr_scan", "android": "https://dc.lft.to/lastmile_qr_scan"}, "lon": -77.032118, "fusion_lon": 0.0, "is_disabled": 0, "lat": 38.90954716666667, "bike_id": "aa0b7c76e63ae334b9484225d8e5ba27", "name": "aa0b7c76e63ae334b9484225d8e5ba27", "is_reserved": 0, "fusion_lat": 0.0}, {"type": "electric_scooter", "rental_uris": {"ios": "https://dc.lft.to/lastmile_qr_scan", "android": "https://dc.lft.to/lastmile_qr_scan"}, "lon": -77.0270415, "fusion_lon": 0.0, "is_disabled": 0, "lat": 38.91825816666667, "bike_id": "0a74bae92bb2f1995a09c3dbeedf5a9d", "name": "0a74bae92bb2f1995a09c3dbeedf5a9d", "is_reserved": 0, "fusion_lat": 0.0}, {"type": "electric_scooter", "rental_uris": {"ios": "https://dc.lft.to/lastmile_qr_scan", "android": "https://dc.lft.to/lastmile_qr_scan"}, "lon": -77.026655, "fusion_lon": 0.0, "is_disabled": 0, "lat": 38.91706533333333, "bike_id": "cbfec8dfde0d06ab9f9c3d8c42b9af77", "name": "cbfec8dfde0d06ab9f9c3d8c42b9af77", "is_reserved": 0, "fusion_lat": 0.0}, {"type": "electric_scooter", "rental_uris": {"ios": "https://dc.lft.to/lastmile_qr_scan", "android": "https://dc.lft.to/lastmile_qr_scan"}, "lon": -77.033993, "fusion_lon": 0.0, "is_disabled": 0, "lat": 38.907073, "bike_id": "00c31f453bdb9952cd19ea59427b1236", "name": "00c31f453bdb9952cd19ea59427b1236", "is_reserved": 0, "fusion_lat": 0.0}, {"type": "electric_scooter", "rental_uris": {"ios": "https://dc.lft.to/lastmile_qr_scan", "android": "https://dc.lft.to/lastmile_qr_scan"}, "lon": -77.04148983333333, "fusion_lon": 0.0, "is_disabled": 0, "lat": 38.892237, "bike_id": "f918564c1f0d056ac35b7565744bae6f", "name": "f918564c1f0d056ac35b7565744bae6f", "is_reserved": 0, "fusion_lat": 0.0}, {"type": "electric_scooter", "rental_uris": {"ios": "https://dc.lft.to/lastmile_qr_scan", "android": "https://dc.lft.to/lastmile_qr_scan"}, "lon": -77.01761833333333, "fusion_lon": 0.0, "is_disabled": 0, "lat": 38.877222333333336, "bike_id": "934aa79dce52b30a618bd1d7cded0872", "name": "934aa79dce52b30a618bd1d7cded0872", "is_reserved": 0, "fusion_lat": 0.0}, {"type": "electric_bike", "rental_uris": {"ios": "https://dc.lft.to/lastmile_qr_scan", "android": "https://dc.lft.to/lastmile_qr_scan"}, "lon": -77.101285, "fusion_lon": 0.0, "is_disabled": 0, "lat": 38.8520495, "bike_id": "d23d9d8599455dfe0ed8ee17552bdac2", "name": "d23d9d8599455dfe0ed8ee17552bdac2", "is_reserved": 0, "fusion_lat": 0.0}, {"type": "electric_scooter", "rental_uris": {"ios": "https://dc.lft.to/lastmile_qr_scan", "android": "https://dc.lft.to/lastmile_qr_scan"}, "lon": -77.02975716666667, "fusion_lon": 0.0, "is_disabled": 0, "lat": 38.91684933333333, "bike_id": "5a1bac92d1c5b823eac904355705ad84", "name": "5a1bac92d1c5b823eac904355705ad84", "is_reserved": 0, "fusion_lat": 0.0}, {"type": "electric_scooter", "rental_uris": {"ios": "https://dc.lft.to/lastmile_qr_scan", "android": "https://dc.lft.to/lastmile_qr_scan"}, "lon": -77.02701816666666, "fusion_lon": 0.0, "is_disabled": 0, "lat": 38.90677633333333, "bike_id": "93b2ffa15e35f9a9a9668926b89c4e35", "name": "93b2ffa15e35f9a9a9668926b89c4e35", "is_reserved": 0, "fusion_lat": 0.0}, {"type": "electric_scooter", "rental_uris": {"ios": "https://dc.lft.to/lastmile_qr_scan", "android": "https://dc.lft.to/lastmile_qr_scan"}, "lon": -77.0175145, "fusion_lon": 0.0, "is_disabled": 0, "lat": 38.90267033333333, "bike_id": "b71b92cbb5af7d34f798bf75ab25181c", "name": "b71b92cbb5af7d34f798bf75ab25181c", "is_reserved": 0, "fusion_lat": 0.0}, {"type": "electric_bike", "rental_uris": {"ios": "https://dc.lft.to/lastmile_qr_scan", "android": "https://dc.lft.to/lastmile_qr_scan"}, "lon": -77.10090383333333, "fusion_lon": 0.0, "is_disabled": 0, "lat": 38.959604666666664, "bike_id": "c0a96b09a98972438d1340280cf693d2", "name": "c0a96b09a98972438d1340280cf693d2", "is_reserved": 0, "fusion_lat": 0.0}, {"type": "electric_scooter", "rental_uris": {"ios": "https://dc.lft.to/lastmile_qr_scan", "android": "https://dc.lft.to/lastmile_qr_scan"}, "lon": -77.0326315, "fusion_lon": 0.0, "is_disabled": 0, "lat": 38.913318833333335, "bike_id": "2b7b5a6a379b3640ea03ebfa4e0d1542", "name": "2b7b5a6a379b3640ea03ebfa4e0d1542", "is_reserved": 0, "fusion_lat": 0.0}, {"type": "electric_scooter", "rental_uris": {"ios": "https://dc.lft.to/lastmile_qr_scan", "android": "https://dc.lft.to/lastmile_qr_scan"}, "lon": -77.05948516666666, "fusion_lon": 0.0, "is_disabled": 0, "lat": 38.90231566666667, "bike_id": "0ae428094da2b05e665ff6458a46fd99", "name": "0ae428094da2b05e665ff6458a46fd99", "is_reserved": 0, "fusion_lat": 0.0}, {"type": "electric_scooter", "rental_uris": {"ios": "https://dc.lft.to/lastmile_qr_scan", "android": "https://dc.lft.to/lastmile_qr_scan"}, "lon": -77.03869266666666, "fusion_lon": 0.0, "is_disabled": 0, "lat": 38.912565, "bike_id": "fe5eeae85a945c9e5c022e44889f6fe9", "name": "fe5eeae85a945c9e5c022e44889f6fe9", "is_reserved": 0, "fusion_lat": 0.0}, {"type": "electric_scooter", "rental_uris": {"ios": "https://dc.lft.to/lastmile_qr_scan", "android": "https://dc.lft.to/lastmile_qr_scan"}, "lon": -77.03871533333333, "fusion_lon": 0.0, "is_disabled": 0, "lat": 38.934644166666665, "bike_id": "163c48e80aa19892ce2ce89640f4ac02", "name": "163c48e80aa19892ce2ce89640f4ac02", "is_reserved": 0, "fusion_lat": 0.0}, {"type": "electric_scooter", "rental_uris": {"ios": "https://dc.lft.to/lastmile_qr_scan", "android": "https://dc.lft.to/lastmile_qr_scan"}, "lon": -77.03627216666666, "fusion_lon": 0.0, "is_disabled": 0, "lat": 38.9368685, "bike_id": "91873ca9324a7b9da759fd0b6d5912a0", "name": "91873ca9324a7b9da759fd0b6d5912a0", "is_reserved": 0, "fusion_lat": 0.0}, {"type": "electric_scooter", "rental_uris": {"ios": "https://dc.lft.to/lastmile_qr_scan", "android": "https://dc.lft.to/lastmile_qr_scan"}, "lon": -77.03455666666666, "fusion_lon": 0.0, "is_disabled": 0, "lat": 38.90977616666667, "bike_id": "45c3b59b063ec7f08c6eccebe604f583", "name": "45c3b59b063ec7f08c6eccebe604f583", "is_reserved": 0, "fusion_lat": 0.0}, {"type": "electric_bike", "rental_uris": {"ios": "https://dc.lft.to/lastmile_qr_scan", "android": "https://dc.lft.to/lastmile_qr_scan"}, "lon": -76.98953, "fusion_lon": 0.0, "is_disabled": 0, "lat": 38.867059, "bike_id": "7eaa15d744a97413beda231a9c240ff0", "name": "7eaa15d744a97413beda231a9c240ff0", "is_reserved": 0, "fusion_lat": 0.0}, {"type": "electric_scooter", "rental_uris": {"ios": "https://dc.lft.to/lastmile_qr_scan", "android": "https://dc.lft.to/lastmile_qr_scan"}, "lon": -77.042602, "fusion_lon": 0.0, "is_disabled": 0, "lat": 38.916936666666665, "bike_id": "09e488ec4cdb703ce4ca86aeef2f9b82", "name": "09e488ec4cdb703ce4ca86aeef2f9b82", "is_reserved": 0, "fusion_lat": 0.0}, {"type": "electric_scooter", "rental_uris": {"ios": "https://dc.lft.to/lastmile_qr_scan", "android": "https://dc.lft.to/lastmile_qr_scan"}, "lon": -77.0260265, "fusion_lon": 0.0, "is_disabled": 0, "lat": 38.906031166666665, "bike_id": "45d647e4ae2a994ecb07fc103f12bd9d", "name": "45d647e4ae2a994ecb07fc103f12bd9d", "is_reserved": 0, "fusion_lat": 0.0}, {"type": "electric_scooter", "rental_uris": {"ios": "https://dc.lft.to/lastmile_qr_scan", "android": "https://dc.lft.to/lastmile_qr_scan"}, "lon": -77.0468555, "fusion_lon": 0.0, "is_disabled": 0, "lat": 38.8922355, "bike_id": "cde05638786a5698b824a13cdd51b2fe", "name": "cde05638786a5698b824a13cdd51b2fe", "is_reserved": 0, "fusion_lat": 0.0}, {"type": "electric_scooter", "rental_uris": {"ios": "https://dc.lft.to/lastmile_qr_scan", "android": "https://dc.lft.to/lastmile_qr_scan"}, "lon": -77.00604866666667, "fusion_lon": 0.0, "is_disabled": 0, "lat": 38.906421, "bike_id": "a22c6105a154f1c9ae630e0a3049bd2d", "name": "a22c6105a154f1c9ae630e0a3049bd2d", "is_reserved": 0, "fusion_lat": 0.0}, {"type": "electric_scooter", "rental_uris": {"ios": "https://dc.lft.to/lastmile_qr_scan", "android": "https://dc.lft.to/lastmile_qr_scan"}, "lon": -77.03166, "fusion_lon": 0.0, "is_disabled": 0, "lat": 38.897668, "bike_id": "e30b2ae22de7b14e3f87da9756b6ec03", "name": "e30b2ae22de7b14e3f87da9756b6ec03", "is_reserved": 0, "fusion_lat": 0.0}, {"type": "electric_scooter", "rental_uris": {"ios": "https://dc.lft.to/lastmile_qr_scan", "android": "https://dc.lft.to/lastmile_qr_scan"}, "lon": -77.0265625, "fusion_lon": 0.0, "is_disabled": 0, "lat": 38.892224666666664, "bike_id": "a640d960ea7b7959e9b4cb09040c63a2", "name": "a640d960ea7b7959e9b4cb09040c63a2", "is_reserved": 0, "fusion_lat": 0.0}, {"type": "electric_bike", "rental_uris": {"ios": "https://dc.lft.to/lastmile_qr_scan", "android": "https://dc.lft.to/lastmile_qr_scan"}, "lon": -77.02126283333334, "fusion_lon": 0.0, "is_disabled": 0, "lat": 38.93577366666667, "bike_id": "a010a7c861c5c2c85c2c3f4c480c7a56", "name": "a010a7c861c5c2c85c2c3f4c480c7a56", "is_reserved": 0, "fusion_lat": 0.0}, {"type": "electric_scooter", "rental_uris": {"ios": "https://dc.lft.to/lastmile_qr_scan", "android": "https://dc.lft.to/lastmile_qr_scan"}, "lon": -77.04046633333333, "fusion_lon": 0.0, "is_disabled": 0, "lat": 38.8990035, "bike_id": "1079659d9885a9da24a5a265ae9c51bd", "name": "1079659d9885a9da24a5a265ae9c51bd", "is_reserved": 0, "fusion_lat": 0.0}, {"type": "electric_scooter", "rental_uris": {"ios": "https://dc.lft.to/lastmile_qr_scan", "android": "https://dc.lft.to/lastmile_qr_scan"}, "lon": -77.03938533333333, "fusion_lon": 0.0, "is_disabled": 0, "lat": 38.915547, "bike_id": "6cd14e4687ff1a6648bf1805e2edb883", "name": "6cd14e4687ff1a6648bf1805e2edb883", "is_reserved": 0, "fusion_lat": 0.0}, {"type": "electric_scooter", "rental_uris": {"ios": "https://dc.lft.to/lastmile_qr_scan", "android": "https://dc.lft.to/lastmile_qr_scan"}, "lon": -77.02720866666667, "fusion_lon": 0.0, "is_disabled": 0, "lat": 38.951860333333336, "bike_id": "142da26403123f29399a59cd510a7e63", "name": "142da26403123f29399a59cd510a7e63", "is_reserved": 0, "fusion_lat": 0.0}, {"type": "electric_scooter", "rental_uris": {"ios": "https://dc.lft.to/lastmile_qr_scan", "android": "https://dc.lft.to/lastmile_qr_scan"}, "lon": -77.00342883333333, "fusion_lon": 0.0, "is_disabled": 0, "lat": 38.88741666666667, "bike_id": "794ee09ab9cd77157b2277d14935d2f6", "name": "794ee09ab9cd77157b2277d14935d2f6", "is_reserved": 0, "fusion_lat": 0.0}, {"type": "electric_scooter", "rental_uris": {"ios": "https://dc.lft.to/lastmile_qr_scan", "android": "https://dc.lft.to/lastmile_qr_scan"}, "lon": -77.036855, "fusion_lon": 0.0, "is_disabled": 0, "lat": 38.90292816666667, "bike_id": "319e60d5ecb3934034bcda40a27bf480", "name": "319e60d5ecb3934034bcda40a27bf480", "is_reserved": 0, "fusion_lat": 0.0}, {"type": "electric_scooter", "rental_uris": {"ios": "https://dc.lft.to/lastmile_qr_scan", "android": "https://dc.lft.to/lastmile_qr_scan"}, "lon": -77.0318445, "fusion_lon": 0.0, "is_disabled": 0, "lat": 38.91327883333334, "bike_id": "744537318fac2b8b708a7457655f2b69", "name": "744537318fac2b8b708a7457655f2b69", "is_reserved": 0, "fusion_lat": 0.0}, {"type": "electric_scooter", "rental_uris": {"ios": "https://dc.lft.to/lastmile_qr_scan", "android": "https://dc.lft.to/lastmile_qr_scan"}, "lon": -77.02792366666667, "fusion_lon": 0.0, "is_disabled": 0, "lat": 38.917161166666666, "bike_id": "90b5bbe11f7d6270cc56b3cd8896f7df", "name": "90b5bbe11f7d6270cc56b3cd8896f7df", "is_reserved": 0, "fusion_lat": 0.0}, {"type": "electric_scooter", "rental_uris": {"ios": "https://dc.lft.to/lastmile_qr_scan", "android": "https://dc.lft.to/lastmile_qr_scan"}, "lon": -77.03663566666667, "fusion_lon": 0.0, "is_disabled": 0, "lat": 38.91725133333333, "bike_id": "9707e5e9cce2a4676b3dbf2ff8494e35", "name": "9707e5e9cce2a4676b3dbf2ff8494e35", "is_reserved": 0, "fusion_lat": 0.0}, {"type": "electric_scooter", "rental_uris": {"ios": "https://dc.lft.to/lastmile_qr_scan", "android": "https://dc.lft.to/lastmile_qr_scan"}, "lon": -77.04186216666666, "fusion_lon": 0.0, "is_disabled": 0, "lat": 38.918142833333334, "bike_id": "465bb90cac88f8c0c4988db0251c4965", "name": "465bb90cac88f8c0c4988db0251c4965", "is_reserved": 0, "fusion_lat": 0.0}, {"type": "electric_scooter", "rental_uris": {"ios": "https://dc.lft.to/lastmile_qr_scan", "android": "https://dc.lft.to/lastmile_qr_scan"}, "lon": -77.0271835, "fusion_lon": 0.0, "is_disabled": 0, "lat": 38.90688816666667, "bike_id": "983c59425ccbb2bf71557d3cb88f2b79", "name": "983c59425ccbb2bf71557d3cb88f2b79", "is_reserved": 0, "fusion_lat": 0.0}, {"type": "electric_scooter", "rental_uris": {"ios": "https://dc.lft.to/lastmile_qr_scan", "android": "https://dc.lft.to/lastmile_qr_scan"}, "lon": -77.019668, "fusion_lon": 0.0, "is_disabled": 0, "lat": 38.929959833333335, "bike_id": "b268c5d81f797f43f1415926f453820a", "name": "b268c5d81f797f43f1415926f453820a", "is_reserved": 0, "fusion_lat": 0.0}, {"type": "electric_scooter", "rental_uris": {"ios": "https://dc.lft.to/lastmile_qr_scan", "android": "https://dc.lft.to/lastmile_qr_scan"}, "lon": -76.98174166666666, "fusion_lon": 0.0, "is_disabled": 0, "lat": 38.856829, "bike_id": "f5fa9ac516813720b4c218452c939472", "name": "f5fa9ac516813720b4c218452c939472", "is_reserved": 0, "fusion_lat": 0.0}, {"type": "electric_scooter", "rental_uris": {"ios": "https://dc.lft.to/lastmile_qr_scan", "android": "https://dc.lft.to/lastmile_qr_scan"}, "lon": -77.04317066666667, "fusion_lon": 0.0, "is_disabled": 0, "lat": 38.90122816666667, "bike_id": "c84015e20c973988732b89f2a01faeb4", "name": "c84015e20c973988732b89f2a01faeb4", "is_reserved": 0, "fusion_lat": 0.0}, {"type": "electric_bike", "rental_uris": {"ios": "https://dc.lft.to/lastmile_qr_scan", "android": "https://dc.lft.to/lastmile_qr_scan"}, "lon": -76.99775083333333, "fusion_lon": 0.0, "is_disabled": 0, "lat": 38.83740483333333, "bike_id": "1ff39eb75f11b9334ec95eb43be8e5bd", "name": "1ff39eb75f11b9334ec95eb43be8e5bd", "is_reserved": 0, "fusion_lat": 0.0}, {"type": "electric_scooter", "rental_uris": {"ios": "https://dc.lft.to/lastmile_qr_scan", "android": "https://dc.lft.to/lastmile_qr_scan"}, "lon": -77.07273016666667, "fusion_lon": 0.0, "is_disabled": 0, "lat": 38.93492066666666, "bike_id": "92004ce6ea3b2c4c6cb9b887f136c1fe", "name": "92004ce6ea3b2c4c6cb9b887f136c1fe", "is_reserved": 0, "fusion_lat": 0.0}, {"type": "electric_scooter", "rental_uris": {"ios": "https://dc.lft.to/lastmile_qr_scan", "android": "https://dc.lft.to/lastmile_qr_scan"}, "lon": -77.03754816666667, "fusion_lon": 0.0, "is_disabled": 0, "lat": 38.92935383333333, "bike_id": "d80c93f4f1dcac78e4039b931e21d1ae", "name": "d80c93f4f1dcac78e4039b931e21d1ae", "is_reserved": 0, "fusion_lat": 0.0}, {"type": "electric_bike", "rental_uris": {"ios": "https://dc.lft.to/lastmile_qr_scan", "android": "https://dc.lft.to/lastmile_qr_scan"}, "lon": -76.99135483333333, "fusion_lon": 0.0, "is_disabled": 0, "lat": 38.846387666666665, "bike_id": "9bf86100bb7155d4117f0a3852b0f122", "name": "9bf86100bb7155d4117f0a3852b0f122", "is_reserved": 0, "fusion_lat": 0.0}, {"type": "electric_scooter", "rental_uris": {"ios": "https://dc.lft.to/lastmile_qr_scan", "android": "https://dc.lft.to/lastmile_qr_scan"}, "lon": -76.94876183333334, "fusion_lon": 0.0, "is_disabled": 0, "lat": 38.89500366666667, "bike_id": "0f4e30e32d589f868af1c504df8d0440", "name": "0f4e30e32d589f868af1c504df8d0440", "is_reserved": 0, "fusion_lat": 0.0}, {"type": "electric_scooter", "rental_uris": {"ios": "https://dc.lft.to/lastmile_qr_scan", "android": "https://dc.lft.to/lastmile_qr_scan"}, "lon": -77.02475166666666, "fusion_lon": 0.0, "is_disabled": 0, "lat": 38.9310565, "bike_id": "b1774d97ca6f065ffe38bb5e57523016", "name": "b1774d97ca6f065ffe38bb5e57523016", "is_reserved": 0, "fusion_lat": 0.0}, {"type": "electric_scooter", "rental_uris": {"ios": "https://dc.lft.to/lastmile_qr_scan", "android": "https://dc.lft.to/lastmile_qr_scan"}, "lon": -77.0222445, "fusion_lon": 0.0, "is_disabled": 0, "lat": 38.89222633333333, "bike_id": "c04a32e85841738471ffcfa6cf09ab96", "name": "c04a32e85841738471ffcfa6cf09ab96", "is_reserved": 0, "fusion_lat": 0.0}, {"type": "electric_bike", "rental_uris": {"ios": "https://dc.lft.to/lastmile_qr_scan", "android": "https://dc.lft.to/lastmile_qr_scan"}, "lon": -77.05648016666666, "fusion_lon": 0.0, "is_disabled": 0, "lat": 38.93688816666667, "bike_id": "b35fe05f3c43cc73f9e4ed6c3c5972f5", "name": "b35fe05f3c43cc73f9e4ed6c3c5972f5", "is_reserved": 0, "fusion_lat": 0.0}, {"type": "electric_bike", "rental_uris": {"ios": "https://dc.lft.to/lastmile_qr_scan", "android": "https://dc.lft.to/lastmile_qr_scan"}, "lon": -77.03687, "fusion_lon": 0.0, "is_disabled": 0, "lat": 38.936537666666666, "bike_id": "778b9696b954cc7d9a2e73291e1f0f80", "name": "778b9696b954cc7d9a2e73291e1f0f80", "is_reserved": 0, "fusion_lat": 0.0}, {"type": "electric_scooter", "rental_uris": {"ios": "https://dc.lft.to/lastmile_qr_scan", "android": "https://dc.lft.to/lastmile_qr_scan"}, "lon": -76.977081, "fusion_lon": 0.0, "is_disabled": 0, "lat": 38.902593833333334, "bike_id": "3fea705732428a1378909c4fe75b11d9", "name": "3fea705732428a1378909c4fe75b11d9", "is_reserved": 0, "fusion_lat": 0.0}, {"type": "electric_scooter", "rental_uris": {"ios": "https://dc.lft.to/lastmile_qr_scan", "android": "https://dc.lft.to/lastmile_qr_scan"}, "lon": -77.0273595, "fusion_lon": 0.0, "is_disabled": 0, "lat": 38.93254483333333, "bike_id": "ddefa9d843e6ce05a1f6ece82d863382", "name": "ddefa9d843e6ce05a1f6ece82d863382", "is_reserved": 0, "fusion_lat": 0.0}, {"type": "electric_bike", "rental_uris": {"ios": "https://dc.lft.to/lastmile_qr_scan", "android": "https://dc.lft.to/lastmile_qr_scan"}, "lon": -77.01018133333334, "fusion_lon": 0.0, "is_disabled": 0, "lat": 38.955935833333335, "bike_id": "b9e543b66ea6751c5ea49aa6dc56e3ed", "name": "b9e543b66ea6751c5ea49aa6dc56e3ed", "is_reserved": 0, "fusion_lat": 0.0}, {"type": "electric_scooter", "rental_uris": {"ios": "https://dc.lft.to/lastmile_qr_scan", "android": "https://dc.lft.to/lastmile_qr_scan"}, "lon": -77.03883033333334, "fusion_lon": 0.0, "is_disabled": 0, "lat": 38.90249633333333, "bike_id": "0c24a14389a5bcfef75ffed4f4253d06", "name": "0c24a14389a5bcfef75ffed4f4253d06", "is_reserved": 0, "fusion_lat": 0.0}, {"type": "electric_scooter", "rental_uris": {"ios": "https://dc.lft.to/lastmile_qr_scan", "android": "https://dc.lft.to/lastmile_qr_scan"}, "lon": -77.03963283333333, "fusion_lon": 0.0, "is_disabled": 0, "lat": 38.892449666666664, "bike_id": "86a865ae49f83ce64fae411d0d6194e5", "name": "86a865ae49f83ce64fae411d0d6194e5", "is_reserved": 0, "fusion_lat": 0.0}, {"type": "electric_scooter", "rental_uris": {"ios": "https://dc.lft.to/lastmile_qr_scan", "android": "https://dc.lft.to/lastmile_qr_scan"}, "lon": -77.04371716666667, "fusion_lon": 0.0, "is_disabled": 0, "lat": 38.93326783333333, "bike_id": "338b5cade055d9d7aec683282b41fa5b", "name": "338b5cade055d9d7aec683282b41fa5b", "is_reserved": 0, "fusion_lat": 0.0}, {"type": "electric_scooter", "rental_uris": {"ios": "https://dc.lft.to/lastmile_qr_scan", "android": "https://dc.lft.to/lastmile_qr_scan"}, "lon": -77.01134816666666, "fusion_lon": 0.0, "is_disabled": 0, "lat": 38.88526183333333, "bike_id": "a4888a5ae25a3f39692775e108c86abd", "name": "a4888a5ae25a3f39692775e108c86abd", "is_reserved": 0, "fusion_lat": 0.0}, {"type": "electric_scooter", "rental_uris": {"ios": "https://dc.lft.to/lastmile_qr_scan", "android": "https://dc.lft.to/lastmile_qr_scan"}, "lon": -77.04221183333334, "fusion_lon": 0.0, "is_disabled": 0, "lat": 38.92175783333333, "bike_id": "1c3de950dc0e612f64a70c0dc263edd6", "name": "1c3de950dc0e612f64a70c0dc263edd6", "is_reserved": 0, "fusion_lat": 0.0}, {"type": "electric_scooter", "rental_uris": {"ios": "https://dc.lft.to/lastmile_qr_scan", "android": "https://dc.lft.to/lastmile_qr_scan"}, "lon": -77.02980333333333, "fusion_lon": 0.0, "is_disabled": 0, "lat": 38.905059333333334, "bike_id": "fe7b0e270d8e37b0637489f827ed9a44", "name": "fe7b0e270d8e37b0637489f827ed9a44", "is_reserved": 0, "fusion_lat": 0.0}, {"type": "electric_scooter", "rental_uris": {"ios": "https://dc.lft.to/lastmile_qr_scan", "android": "https://dc.lft.to/lastmile_qr_scan"}, "lon": -77.03422, "fusion_lon": 0.0, "is_disabled": 0, "lat": 38.93083266666667, "bike_id": "9cceab4bf0d3614cd4c6c51165b57555", "name": "9cceab4bf0d3614cd4c6c51165b57555", "is_reserved": 0, "fusion_lat": 0.0}, {"type": "electric_scooter", "rental_uris": {"ios": "https://dc.lft.to/lastmile_qr_scan", "android": "https://dc.lft.to/lastmile_qr_scan"}, "lon": -76.98085466666667, "fusion_lon": 0.0, "is_disabled": 0, "lat": 38.919487333333336, "bike_id": "134dbe9a09eb3bdd2ecd5bf17873794e", "name": "134dbe9a09eb3bdd2ecd5bf17873794e", "is_reserved": 0, "fusion_lat": 0.0}, {"type": "electric_scooter", "rental_uris": {"ios": "https://dc.lft.to/lastmile_qr_scan", "android": "https://dc.lft.to/lastmile_qr_scan"}, "lon": -77.02624316666666, "fusion_lon": 0.0, "is_disabled": 0, "lat": 38.92535683333333, "bike_id": "024070961d2f656cebb6988b2c689d76", "name": "024070961d2f656cebb6988b2c689d76", "is_reserved": 0, "fusion_lat": 0.0}, {"type": "electric_scooter", "rental_uris": {"ios": "https://dc.lft.to/lastmile_qr_scan", "android": "https://dc.lft.to/lastmile_qr_scan"}, "lon": -77.0061265, "fusion_lon": 0.0, "is_disabled": 0, "lat": 38.9057315, "bike_id": "06ffc454c09c195fc33a76a874873202", "name": "06ffc454c09c195fc33a76a874873202", "is_reserved": 0, "fusion_lat": 0.0}, {"type": "electric_scooter", "rental_uris": {"ios": "https://dc.lft.to/lastmile_qr_scan", "android": "https://dc.lft.to/lastmile_qr_scan"}, "lon": -77.02978366666666, "fusion_lon": 0.0, "is_disabled": 0, "lat": 38.91692366666667, "bike_id": "46c957b0c70e245111774e4e5c741dff", "name": "46c957b0c70e245111774e4e5c741dff", "is_reserved": 0, "fusion_lat": 0.0}, {"type": "electric_scooter", "rental_uris": {"ios": "https://dc.lft.to/lastmile_qr_scan", "android": "https://dc.lft.to/lastmile_qr_scan"}, "lon": -77.07890083333334, "fusion_lon": 0.0, "is_disabled": 0, "lat": 38.920652833333335, "bike_id": "036948698de761451f8cb0a7a243f66c", "name": "036948698de761451f8cb0a7a243f66c", "is_reserved": 0, "fusion_lat": 0.0}, {"type": "electric_scooter", "rental_uris": {"ios": "https://dc.lft.to/lastmile_qr_scan", "android": "https://dc.lft.to/lastmile_qr_scan"}, "lon": -77.00605566666667, "fusion_lon": 0.0, "is_disabled": 0, "lat": 38.90564083333334, "bike_id": "cfbddd2bfdede6f1bc5319b4501d342e", "name": "cfbddd2bfdede6f1bc5319b4501d342e", "is_reserved": 0, "fusion_lat": 0.0}, {"type": "electric_scooter", "rental_uris": {"ios": "https://dc.lft.to/lastmile_qr_scan", "android": "https://dc.lft.to/lastmile_qr_scan"}, "lon": -77.01774166666667, "fusion_lon": 0.0, "is_disabled": 0, "lat": 38.902645166666666, "bike_id": "b1655e721c5e299b63a3b9c72f245318", "name": "b1655e721c5e299b63a3b9c72f245318", "is_reserved": 0, "fusion_lat": 0.0}, {"type": "electric_scooter", "rental_uris": {"ios": "https://dc.lft.to/lastmile_qr_scan", "android": "https://dc.lft.to/lastmile_qr_scan"}, "lon": -77.058569, "fusion_lon": 0.0, "is_disabled": 0, "lat": 38.936066833333335, "bike_id": "d3d6ebe52265f7df0278252a0de8dddc", "name": "d3d6ebe52265f7df0278252a0de8dddc", "is_reserved": 0, "fusion_lat": 0.0}, {"type": "electric_scooter", "rental_uris": {"ios": "https://dc.lft.to/lastmile_qr_scan", "android": "https://dc.lft.to/lastmile_qr_scan"}, "lon": -77.02173233333333, "fusion_lon": 0.0, "is_disabled": 0, "lat": 38.94292216666667, "bike_id": "1eff1914b87936963e24c140890bcaee", "name": "1eff1914b87936963e24c140890bcaee", "is_reserved": 0, "fusion_lat": 0.0}, {"type": "electric_scooter", "rental_uris": {"ios": "https://dc.lft.to/lastmile_qr_scan", "android": "https://dc.lft.to/lastmile_qr_scan"}, "lon": -76.96532283333333, "fusion_lon": 0.0, "is_disabled": 0, "lat": 38.876298166666665, "bike_id": "38a648f2a6d760e933bebb43880f912b", "name": "38a648f2a6d760e933bebb43880f912b", "is_reserved": 0, "fusion_lat": 0.0}, {"type": "electric_scooter", "rental_uris": {"ios": "https://dc.lft.to/lastmile_qr_scan", "android": "https://dc.lft.to/lastmile_qr_scan"}, "lon": -76.976293, "fusion_lon": 0.0, "is_disabled": 0, "lat": 38.89876133333333, "bike_id": "1153b28f4c3b19199f48bbebb5a442a2", "name": "1153b28f4c3b19199f48bbebb5a442a2", "is_reserved": 0, "fusion_lat": 0.0}, {"type": "electric_scooter", "rental_uris": {"ios": "https://dc.lft.to/lastmile_qr_scan", "android": "https://dc.lft.to/lastmile_qr_scan"}, "lon": -76.94156016666666, "fusion_lon": 0.0, "is_disabled": 0, "lat": 38.883650333333335, "bike_id": "d8639f9b436f86042a3a239c712aca55", "name": "d8639f9b436f86042a3a239c712aca55", "is_reserved": 0, "fusion_lat": 0.0}, {"type": "electric_scooter", "rental_uris": {"ios": "https://dc.lft.to/lastmile_qr_scan", "android": "https://dc.lft.to/lastmile_qr_scan"}, "lon": -77.03961866666667, "fusion_lon": 0.0, "is_disabled": 0, "lat": 38.898869166666664, "bike_id": "802249fc52fb74a1e063845e3f256361", "name": "802249fc52fb74a1e063845e3f256361", "is_reserved": 0, "fusion_lat": 0.0}, {"type": "electric_bike", "rental_uris": {"ios": "https://dc.lft.to/lastmile_qr_scan", "android": "https://dc.lft.to/lastmile_qr_scan"}, "lon": -76.9249765, "fusion_lon": 0.0, "is_disabled": 0, "lat": 38.958915, "bike_id": "3569a1be028eb957aabc35415f99c55c", "name": "3569a1be028eb957aabc35415f99c55c", "is_reserved": 0, "fusion_lat": 0.0}, {"type": "electric_scooter", "rental_uris": {"ios": "https://dc.lft.to/lastmile_qr_scan", "android": "https://dc.lft.to/lastmile_qr_scan"}, "lon": -77.00312516666666, "fusion_lon": 0.0, "is_disabled": 0, "lat": 38.82600766666667, "bike_id": "8b7a487bb4b7289aa3d9edc43528ea03", "name": "8b7a487bb4b7289aa3d9edc43528ea03", "is_reserved": 0, "fusion_lat": 0.0}, {"type": "electric_scooter", "rental_uris": {"ios": "https://dc.lft.to/lastmile_qr_scan", "android": "https://dc.lft.to/lastmile_qr_scan"}, "lon": -77.019515, "fusion_lon": 0.0, "is_disabled": 0, "lat": 38.92910116666667, "bike_id": "e4eb813f6ba4e8eae5a9e784c54b443a", "name": "e4eb813f6ba4e8eae5a9e784c54b443a", "is_reserved": 0, "fusion_lat": 0.0}, {"type": "electric_scooter", "rental_uris": {"ios": "https://dc.lft.to/lastmile_qr_scan", "android": "https://dc.lft.to/lastmile_qr_scan"}, "lon": -77.028496, "fusion_lon": 0.0, "is_disabled": 0, "lat": 38.902732666666665, "bike_id": "9c677bfcc7130aeab6ccde4f571d7e99", "name": "9c677bfcc7130aeab6ccde4f571d7e99", "is_reserved": 0, "fusion_lat": 0.0}, {"type": "electric_bike", "rental_uris": {"ios": "https://dc.lft.to/lastmile_qr_scan", "android": "https://dc.lft.to/lastmile_qr_scan"}, "lon": -76.99344633333334, "fusion_lon": 0.0, "is_disabled": 0, "lat": 38.972295833333334, "bike_id": "451a07897c80d71a70c8f15b157f7698", "name": "451a07897c80d71a70c8f15b157f7698", "is_reserved": 0, "fusion_lat": 0.0}, {"type": "electric_scooter", "rental_uris": {"ios": "https://dc.lft.to/lastmile_qr_scan", "android": "https://dc.lft.to/lastmile_qr_scan"}, "lon": -76.99508016666667, "fusion_lon": 0.0, "is_disabled": 0, "lat": 38.88369483333334, "bike_id": "0c2f7ea7fcd658d32fe87475d8f908ff", "name": "0c2f7ea7fcd658d32fe87475d8f908ff", "is_reserved": 0, "fusion_lat": 0.0}, {"type": "electric_scooter", "rental_uris": {"ios": "https://dc.lft.to/lastmile_qr_scan", "android": "https://dc.lft.to/lastmile_qr_scan"}, "lon": -77.04365883333334, "fusion_lon": 0.0, "is_disabled": 0, "lat": 38.892183833333334, "bike_id": "da231426c2dd197c8650fdd0ac082e35", "name": "da231426c2dd197c8650fdd0ac082e35", "is_reserved": 0, "fusion_lat": 0.0}, {"type": "electric_scooter", "rental_uris": {"ios": "https://dc.lft.to/lastmile_qr_scan", "android": "https://dc.lft.to/lastmile_qr_scan"}, "lon": -77.03673533333334, "fusion_lon": 0.0, "is_disabled": 0, "lat": 38.91708166666667, "bike_id": "5feca5f82523ffc4ec7745eb47aef007", "name": "5feca5f82523ffc4ec7745eb47aef007", "is_reserved": 0, "fusion_lat": 0.0}, {"type": "electric_scooter", "rental_uris": {"ios": "https://dc.lft.to/lastmile_qr_scan", "android": "https://dc.lft.to/lastmile_qr_scan"}, "lon": -77.03183133333333, "fusion_lon": 0.0, "is_disabled": 0, "lat": 38.913274333333334, "bike_id": "4995593e1346908cdbe821041c418956", "name": "4995593e1346908cdbe821041c418956", "is_reserved": 0, "fusion_lat": 0.0}, {"type": "electric_scooter", "rental_uris": {"ios": "https://dc.lft.to/lastmile_qr_scan", "android": "https://dc.lft.to/lastmile_qr_scan"}, "lon": -76.93303366666666, "fusion_lon": 0.0, "is_disabled": 0, "lat": 38.88132916666667, "bike_id": "9353b74dc7d8a294fada0279b81ed660", "name": "9353b74dc7d8a294fada0279b81ed660", "is_reserved": 0, "fusion_lat": 0.0}, {"type": "electric_scooter", "rental_uris": {"ios": "https://dc.lft.to/lastmile_qr_scan", "android": "https://dc.lft.to/lastmile_qr_scan"}, "lon": -77.03258666666666, "fusion_lon": 0.0, "is_disabled": 0, "lat": 38.939723666666666, "bike_id": "0d260261f9da6943e9277ccced090b64", "name": "0d260261f9da6943e9277ccced090b64", "is_reserved": 0, "fusion_lat": 0.0}, {"type": "electric_scooter", "rental_uris": {"ios": "https://dc.lft.to/lastmile_qr_scan", "android": "https://dc.lft.to/lastmile_qr_scan"}, "lon": -77.01869766666667, "fusion_lon": 0.0, "is_disabled": 0, "lat": 38.93154916666667, "bike_id": "34877d873d4b40d07da6f0e3ffacd589", "name": "34877d873d4b40d07da6f0e3ffacd589", "is_reserved": 0, "fusion_lat": 0.0}, {"type": "electric_scooter", "rental_uris": {"ios": "https://dc.lft.to/lastmile_qr_scan", "android": "https://dc.lft.to/lastmile_qr_scan"}, "lon": -76.996935, "fusion_lon": 0.0, "is_disabled": 0, "lat": 38.90837283333333, "bike_id": "a2011d20999d3bf8b5f198ab3ea4c7b0", "name": "a2011d20999d3bf8b5f198ab3ea4c7b0", "is_reserved": 0, "fusion_lat": 0.0}, {"type": "electric_bike", "rental_uris": {"ios": "https://dc.lft.to/lastmile_qr_scan", "android": "https://dc.lft.to/lastmile_qr_scan"}, "lon": -77.03647166666667, "fusion_lon": 0.0, "is_disabled": 0, "lat": 38.928064166666665, "bike_id": "d82682b13143c65fb2d1c3f364afe122", "name": "d82682b13143c65fb2d1c3f364afe122", "is_reserved": 0, "fusion_lat": 0.0}, {"type": "electric_scooter", "rental_uris": {"ios": "https://dc.lft.to/lastmile_qr_scan", "android": "https://dc.lft.to/lastmile_qr_scan"}, "lon": -76.9990995, "fusion_lon": 0.0, "is_disabled": 0, "lat": 38.89888783333333, "bike_id": "c59542f17f6cdb3902f21711962e304f", "name": "c59542f17f6cdb3902f21711962e304f", "is_reserved": 0, "fusion_lat": 0.0}, {"type": "electric_scooter", "rental_uris": {"ios": "https://dc.lft.to/lastmile_qr_scan", "android": "https://dc.lft.to/lastmile_qr_scan"}, "lon": -77.049222, "fusion_lon": 0.0, "is_disabled": 0, "lat": 38.90094583333333, "bike_id": "13d1c1aeb9ab804ae54ac62aeeecfa5e", "name": "13d1c1aeb9ab804ae54ac62aeeecfa5e", "is_reserved": 0, "fusion_lat": 0.0}, {"type": "electric_scooter", "rental_uris": {"ios": "https://dc.lft.to/lastmile_qr_scan", "android": "https://dc.lft.to/lastmile_qr_scan"}, "lon": -77.03191483333333, "fusion_lon": 0.0, "is_disabled": 0, "lat": 38.91842183333333, "bike_id": "44bed93ac2bc712c50988ab47518ace0", "name": "44bed93ac2bc712c50988ab47518ace0", "is_reserved": 0, "fusion_lat": 0.0}, {"type": "electric_bike", "rental_uris": {"ios": "https://dc.lft.to/lastmile_qr_scan", "android": "https://dc.lft.to/lastmile_qr_scan"}, "lon": -77.024678, "fusion_lon": 0.0, "is_disabled": 0, "lat": 38.952941833333334, "bike_id": "7c7b125584a5c9dcb48a8b90c7a4f681", "name": "7c7b125584a5c9dcb48a8b90c7a4f681", "is_reserved": 0, "fusion_lat": 0.0}, {"type": "electric_bike", "rental_uris": {"ios": "https://dc.lft.to/lastmile_qr_scan", "android": "https://dc.lft.to/lastmile_qr_scan"}, "lon": -77.0633325, "fusion_lon": 0.0, "is_disabled": 0, "lat": 38.921086333333335, "bike_id": "102dc2125b35ebc363e74784f7a709cd", "name": "102dc2125b35ebc363e74784f7a709cd", "is_reserved": 0, "fusion_lat": 0.0}, {"type": "electric_scooter", "rental_uris": {"ios": "https://dc.lft.to/lastmile_qr_scan", "android": "https://dc.lft.to/lastmile_qr_scan"}, "lon": -77.04081483333333, "fusion_lon": 0.0, "is_disabled": 0, "lat": 38.91701583333333, "bike_id": "3de47ed37cdc30cbcff9cc0ae0befcc8", "name": "3de47ed37cdc30cbcff9cc0ae0befcc8", "is_reserved": 0, "fusion_lat": 0.0}, {"type": "electric_scooter", "rental_uris": {"ios": "https://dc.lft.to/lastmile_qr_scan", "android": "https://dc.lft.to/lastmile_qr_scan"}, "lon": -77.01621216666666, "fusion_lon": 0.0, "is_disabled": 0, "lat": 38.918907, "bike_id": "0ca7584ac18249e7adbe76824099b4dc", "name": "0ca7584ac18249e7adbe76824099b4dc", "is_reserved": 0, "fusion_lat": 0.0}, {"type": "electric_scooter", "rental_uris": {"ios": "https://dc.lft.to/lastmile_qr_scan", "android": "https://dc.lft.to/lastmile_qr_scan"}, "lon": -77.02491533333334, "fusion_lon": 0.0, "is_disabled": 0, "lat": 38.91955683333333, "bike_id": "9a0040c0f3b3b73e6447269f90f8443e", "name": "9a0040c0f3b3b73e6447269f90f8443e", "is_reserved": 0, "fusion_lat": 0.0}, {"type": "electric_scooter", "rental_uris": {"ios": "https://dc.lft.to/lastmile_qr_scan", "android": "https://dc.lft.to/lastmile_qr_scan"}, "lon": -76.98885266666667, "fusion_lon": 0.0, "is_disabled": 0, "lat": 38.8665335, "bike_id": "70eff4ca3eba342cb908bdfd8695fd00", "name": "70eff4ca3eba342cb908bdfd8695fd00", "is_reserved": 0, "fusion_lat": 0.0}, {"type": "electric_scooter", "rental_uris": {"ios": "https://dc.lft.to/lastmile_qr_scan", "android": "https://dc.lft.to/lastmile_qr_scan"}, "lon": -76.9962285, "fusion_lon": 0.0, "is_disabled": 0, "lat": 38.8999815, "bike_id": "2f21106e83cba83bfeb70f36def3289d", "name": "2f21106e83cba83bfeb70f36def3289d", "is_reserved": 0, "fusion_lat": 0.0}, {"type": "electric_scooter", "rental_uris": {"ios": "https://dc.lft.to/lastmile_qr_scan", "android": "https://dc.lft.to/lastmile_qr_scan"}, "lon": -77.020589, "fusion_lon": 0.0, "is_disabled": 0, "lat": 38.908526, "bike_id": "e4a622e2374affdaf9818fca20f36c5a", "name": "e4a622e2374affdaf9818fca20f36c5a", "is_reserved": 0, "fusion_lat": 0.0}, {"type": "electric_scooter", "rental_uris": {"ios": "https://dc.lft.to/lastmile_qr_scan", "android": "https://dc.lft.to/lastmile_qr_scan"}, "lon": -76.94876716666667, "fusion_lon": 0.0, "is_disabled": 0, "lat": 38.895007166666666, "bike_id": "0467c1057f02c34386c207684a5057cc", "name": "0467c1057f02c34386c207684a5057cc", "is_reserved": 0, "fusion_lat": 0.0}, {"type": "electric_bike", "rental_uris": {"ios": "https://dc.lft.to/lastmile_qr_scan", "android": "https://dc.lft.to/lastmile_qr_scan"}, "lon": -77.0711325, "fusion_lon": 0.0, "is_disabled": 0, "lat": 38.80065416666667, "bike_id": "f390bad992010d79b1601b9e85fd106a", "name": "f390bad992010d79b1601b9e85fd106a", "is_reserved": 0, "fusion_lat": 0.0}, {"type": "electric_scooter", "rental_uris": {"ios": "https://dc.lft.to/lastmile_qr_scan", "android": "https://dc.lft.to/lastmile_qr_scan"}, "lon": -77.03209, "fusion_lon": 0.0, "is_disabled": 0, "lat": 38.90896333333333, "bike_id": "fb5d4aecbb0f701bbb8f25c1b236bbd3", "name": "fb5d4aecbb0f701bbb8f25c1b236bbd3", "is_reserved": 0, "fusion_lat": 0.0}, {"type": "electric_scooter", "rental_uris": {"ios": "https://dc.lft.to/lastmile_qr_scan", "android": "https://dc.lft.to/lastmile_qr_scan"}, "lon": -77.03264366666667, "fusion_lon": 0.0, "is_disabled": 0, "lat": 38.9072645, "bike_id": "5c65e6b4d885d6e232dbf0b83e17d6e2", "name": "5c65e6b4d885d6e232dbf0b83e17d6e2", "is_reserved": 0, "fusion_lat": 0.0}, {"type": "electric_bike", "rental_uris": {"ios": "https://dc.lft.to/lastmile_qr_scan", "android": "https://dc.lft.to/lastmile_qr_scan"}, "lon": -77.13471333333334, "fusion_lon": 0.0, "is_disabled": 0, "lat": 38.853518333333334, "bike_id": "0f03058162e3aa4a0a9a4e8e307eba2f", "name": "0f03058162e3aa4a0a9a4e8e307eba2f", "is_reserved": 0, "fusion_lat": 0.0}, {"type": "electric_scooter", "rental_uris": {"ios": "https://dc.lft.to/lastmile_qr_scan", "android": "https://dc.lft.to/lastmile_qr_scan"}, "lon": -77.016561, "fusion_lon": 0.0, "is_disabled": 0, "lat": 38.9105485, "bike_id": "8944c4ef4163cf5ebce13f93bde861d1", "name": "8944c4ef4163cf5ebce13f93bde861d1", "is_reserved": 0, "fusion_lat": 0.0}, {"type": "electric_bike", "rental_uris": {"ios": "https://dc.lft.to/lastmile_qr_scan", "android": "https://dc.lft.to/lastmile_qr_scan"}, "lon": -76.924929, "fusion_lon": 0.0, "is_disabled": 0, "lat": 38.95910833333333, "bike_id": "defed316731b15d341f020b53c49b0db", "name": "defed316731b15d341f020b53c49b0db", "is_reserved": 0, "fusion_lat": 0.0}, {"type": "electric_scooter", "rental_uris": {"ios": "https://dc.lft.to/lastmile_qr_scan", "android": "https://dc.lft.to/lastmile_qr_scan"}, "lon": -76.931766, "fusion_lon": 0.0, "is_disabled": 0, "lat": 38.898878333333336, "bike_id": "d6fafb92d5f399d6aaf6b3e4b0477ac5", "name": "d6fafb92d5f399d6aaf6b3e4b0477ac5", "is_reserved": 0, "fusion_lat": 0.0}, {"type": "electric_bike", "rental_uris": {"ios": "https://dc.lft.to/lastmile_qr_scan", "android": "https://dc.lft.to/lastmile_qr_scan"}, "lon": -76.98021683333333, "fusion_lon": 0.0, "is_disabled": 0, "lat": 38.957554333333334, "bike_id": "5e068838900ffd50386e2814ace10de4", "name": "5e068838900ffd50386e2814ace10de4", "is_reserved": 0, "fusion_lat": 0.0}, {"type": "electric_scooter", "rental_uris": {"ios": "https://dc.lft.to/lastmile_qr_scan", "android": "https://dc.lft.to/lastmile_qr_scan"}, "lon": -77.03410483333333, "fusion_lon": 0.0, "is_disabled": 0, "lat": 38.93127633333334, "bike_id": "2160b8b33f301d71267d640baa39cbb4", "name": "2160b8b33f301d71267d640baa39cbb4", "is_reserved": 0, "fusion_lat": 0.0}, {"type": "electric_scooter", "rental_uris": {"ios": "https://dc.lft.to/lastmile_qr_scan", "android": "https://dc.lft.to/lastmile_qr_scan"}, "lon": -77.01224816666667, "fusion_lon": 0.0, "is_disabled": 0, "lat": 38.915021833333334, "bike_id": "ab991e065da012f0858bcd47a9e85bc0", "name": "ab991e065da012f0858bcd47a9e85bc0", "is_reserved": 0, "fusion_lat": 0.0}, {"type": "electric_scooter", "rental_uris": {"ios": "https://dc.lft.to/lastmile_qr_scan", "android": "https://dc.lft.to/lastmile_qr_scan"}, "lon": -77.03477633333334, "fusion_lon": 0.0, "is_disabled": 0, "lat": 38.9096075, "bike_id": "44cc5beac725fb3963c68f3b7905c563", "name": "44cc5beac725fb3963c68f3b7905c563", "is_reserved": 0, "fusion_lat": 0.0}, {"type": "electric_scooter", "rental_uris": {"ios": "https://dc.lft.to/lastmile_qr_scan", "android": "https://dc.lft.to/lastmile_qr_scan"}, "lon": -77.04006683333333, "fusion_lon": 0.0, "is_disabled": 0, "lat": 38.9078485, "bike_id": "f0119cc9c683bc5a6f61fb398176d411", "name": "f0119cc9c683bc5a6f61fb398176d411", "is_reserved": 0, "fusion_lat": 0.0}, {"type": "electric_scooter", "rental_uris": {"ios": "https://dc.lft.to/lastmile_qr_scan", "android": "https://dc.lft.to/lastmile_qr_scan"}, "lon": -77.00116183333333, "fusion_lon": 0.0, "is_disabled": 0, "lat": 38.917070833333334, "bike_id": "54ba1ced83e70934cf991a53576b3e9d", "name": "54ba1ced83e70934cf991a53576b3e9d", "is_reserved": 0, "fusion_lat": 0.0}, {"type": "electric_scooter", "rental_uris": {"ios": "https://dc.lft.to/lastmile_qr_scan", "android": "https://dc.lft.to/lastmile_qr_scan"}, "lon": -77.0249775, "fusion_lon": 0.0, "is_disabled": 0, "lat": 38.918089333333334, "bike_id": "a3b42d99c190759ba8796af9c21eac8e", "name": "a3b42d99c190759ba8796af9c21eac8e", "is_reserved": 0, "fusion_lat": 0.0}, {"type": "electric_scooter", "rental_uris": {"ios": "https://dc.lft.to/lastmile_qr_scan", "android": "https://dc.lft.to/lastmile_qr_scan"}, "lon": -77.02273583333333, "fusion_lon": 0.0, "is_disabled": 0, "lat": 38.91645183333333, "bike_id": "88c4f0ec45be57810c8893ed1fee144b", "name": "88c4f0ec45be57810c8893ed1fee144b", "is_reserved": 0, "fusion_lat": 0.0}, {"type": "electric_scooter", "rental_uris": {"ios": "https://dc.lft.to/lastmile_qr_scan", "android": "https://dc.lft.to/lastmile_qr_scan"}, "lon": -77.0341665, "fusion_lon": 0.0, "is_disabled": 0, "lat": 38.91923966666667, "bike_id": "2f2b520661fccebe8e10087baf3c8e3d", "name": "2f2b520661fccebe8e10087baf3c8e3d", "is_reserved": 0, "fusion_lat": 0.0}, {"type": "electric_scooter", "rental_uris": {"ios": "https://dc.lft.to/lastmile_qr_scan", "android": "https://dc.lft.to/lastmile_qr_scan"}, "lon": -77.03187066666666, "fusion_lon": 0.0, "is_disabled": 0, "lat": 38.91915866666667, "bike_id": "d903a1fc068e7883c74362c68d4bbabd", "name": "d903a1fc068e7883c74362c68d4bbabd", "is_reserved": 0, "fusion_lat": 0.0}, {"type": "electric_scooter", "rental_uris": {"ios": "https://dc.lft.to/lastmile_qr_scan", "android": "https://dc.lft.to/lastmile_qr_scan"}, "lon": -77.03355966666666, "fusion_lon": 0.0, "is_disabled": 0, "lat": 38.88757666666667, "bike_id": "dcfc06b4cb5bed77796cc0a8209ce968", "name": "dcfc06b4cb5bed77796cc0a8209ce968", "is_reserved": 0, "fusion_lat": 0.0}, {"type": "electric_scooter", "rental_uris": {"ios": "https://dc.lft.to/lastmile_qr_scan", "android": "https://dc.lft.to/lastmile_qr_scan"}, "lon": -77.03859533333333, "fusion_lon": 0.0, "is_disabled": 0, "lat": 38.910175333333335, "bike_id": "321a43729081d5fd122cde6de53bc543", "name": "321a43729081d5fd122cde6de53bc543", "is_reserved": 0, "fusion_lat": 0.0}, {"type": "electric_scooter", "rental_uris": {"ios": "https://dc.lft.to/lastmile_qr_scan", "android": "https://dc.lft.to/lastmile_qr_scan"}, "lon": -76.99565366666667, "fusion_lon": 0.0, "is_disabled": 0, "lat": 38.9002705, "bike_id": "1808bbf84e7fc2b663c07b8480a499a0", "name": "1808bbf84e7fc2b663c07b8480a499a0", "is_reserved": 0, "fusion_lat": 0.0}, {"type": "electric_bike", "rental_uris": {"ios": "https://dc.lft.to/lastmile_qr_scan", "android": "https://dc.lft.to/lastmile_qr_scan"}, "lon": -76.9859455, "fusion_lon": 0.0, "is_disabled": 0, "lat": 38.906229833333335, "bike_id": "e2e2f474acea2faea53a37be0ddccc74", "name": "e2e2f474acea2faea53a37be0ddccc74", "is_reserved": 0, "fusion_lat": 0.0}, {"type": "electric_scooter", "rental_uris": {"ios": "https://dc.lft.to/lastmile_qr_scan", "android": "https://dc.lft.to/lastmile_qr_scan"}, "lon": -77.0285175, "fusion_lon": 0.0, "is_disabled": 0, "lat": 38.92762666666667, "bike_id": "b7eddbf7a04d074814179cb68bb3b363", "name": "b7eddbf7a04d074814179cb68bb3b363", "is_reserved": 0, "fusion_lat": 0.0}, {"type": "electric_bike", "rental_uris": {"ios": "https://dc.lft.to/lastmile_qr_scan", "android": "https://dc.lft.to/lastmile_qr_scan"}, "lon": -76.90977466666666, "fusion_lon": 0.0, "is_disabled": 0, "lat": 38.85435483333333, "bike_id": "74c7085a7aaa06ef7f120ed0d4cf09d0", "name": "74c7085a7aaa06ef7f120ed0d4cf09d0", "is_reserved": 0, "fusion_lat": 0.0}, {"type": "electric_scooter", "rental_uris": {"ios": "https://dc.lft.to/lastmile_qr_scan", "android": "https://dc.lft.to/lastmile_qr_scan"}, "lon": -76.99958016666666, "fusion_lon": 0.0, "is_disabled": 0, "lat": 38.90110983333334, "bike_id": "e456e3f735d8e0514b2956494903cb4e", "name": "e456e3f735d8e0514b2956494903cb4e", "is_reserved": 0, "fusion_lat": 0.0}, {"type": "electric_scooter", "rental_uris": {"ios": "https://dc.lft.to/lastmile_qr_scan", "android": "https://dc.lft.to/lastmile_qr_scan"}, "lon": -77.05235166666667, "fusion_lon": 0.0, "is_disabled": 0, "lat": 38.92466316666667, "bike_id": "7838959956ef359bcc63772bcc110d3e", "name": "7838959956ef359bcc63772bcc110d3e", "is_reserved": 0, "fusion_lat": 0.0}, {"type": "electric_scooter", "rental_uris": {"ios": "https://dc.lft.to/lastmile_qr_scan", "android": "https://dc.lft.to/lastmile_qr_scan"}, "lon": -77.05129666666667, "fusion_lon": 0.0, "is_disabled": 0, "lat": 38.92364166666667, "bike_id": "b6434b77898eb18fd1cb617f14134fd5", "name": "b6434b77898eb18fd1cb617f14134fd5", "is_reserved": 0, "fusion_lat": 0.0}, {"type": "electric_scooter", "rental_uris": {"ios": "https://dc.lft.to/lastmile_qr_scan", "android": "https://dc.lft.to/lastmile_qr_scan"}, "lon": -77.04502683333334, "fusion_lon": 0.0, "is_disabled": 0, "lat": 38.9192835, "bike_id": "3e3a80ccc13fcb779bb1de087824cffd", "name": "3e3a80ccc13fcb779bb1de087824cffd", "is_reserved": 0, "fusion_lat": 0.0}, {"type": "electric_scooter", "rental_uris": {"ios": "https://dc.lft.to/lastmile_qr_scan", "android": "https://dc.lft.to/lastmile_qr_scan"}, "lon": -76.96524183333334, "fusion_lon": 0.0, "is_disabled": 0, "lat": 38.876257, "bike_id": "67834334dbf546ef4cc4ceab2ea992ff", "name": "67834334dbf546ef4cc4ceab2ea992ff", "is_reserved": 0, "fusion_lat": 0.0}, {"type": "electric_scooter", "rental_uris": {"ios": "https://dc.lft.to/lastmile_qr_scan", "android": "https://dc.lft.to/lastmile_qr_scan"}, "lon": -77.0150955, "fusion_lon": 0.0, "is_disabled": 0, "lat": 38.9433515, "bike_id": "d741c5caba0a012b5c5485a0d54592c5", "name": "d741c5caba0a012b5c5485a0d54592c5", "is_reserved": 0, "fusion_lat": 0.0}, {"type": "electric_scooter", "rental_uris": {"ios": "https://dc.lft.to/lastmile_qr_scan", "android": "https://dc.lft.to/lastmile_qr_scan"}, "lon": -77.03219366666667, "fusion_lon": 0.0, "is_disabled": 0, "lat": 38.892244, "bike_id": "95c7db81e6d750027b160c06c70bb0c6", "name": "95c7db81e6d750027b160c06c70bb0c6", "is_reserved": 0, "fusion_lat": 0.0}, {"type": "electric_scooter", "rental_uris": {"ios": "https://dc.lft.to/lastmile_qr_scan", "android": "https://dc.lft.to/lastmile_qr_scan"}, "lon": -77.02160583333334, "fusion_lon": 0.0, "is_disabled": 0, "lat": 38.89714516666667, "bike_id": "6fb81fc25ff99d72bc29d540b25fdd5b", "name": "6fb81fc25ff99d72bc29d540b25fdd5b", "is_reserved": 0, "fusion_lat": 0.0}, {"type": "electric_scooter", "rental_uris": {"ios": "https://dc.lft.to/lastmile_qr_scan", "android": "https://dc.lft.to/lastmile_qr_scan"}, "lon": -77.043327, "fusion_lon": 0.0, "is_disabled": 0, "lat": 38.89223583333333, "bike_id": "c3d85130e7dddf0de38e370d0edf3166", "name": "c3d85130e7dddf0de38e370d0edf3166", "is_reserved": 0, "fusion_lat": 0.0}, {"type": "electric_scooter", "rental_uris": {"ios": "https://dc.lft.to/lastmile_qr_scan", "android": "https://dc.lft.to/lastmile_qr_scan"}, "lon": -77.0249815, "fusion_lon": 0.0, "is_disabled": 0, "lat": 38.91807766666667, "bike_id": "078fe728d96c578678d6dfa291605199", "name": "078fe728d96c578678d6dfa291605199", "is_reserved": 0, "fusion_lat": 0.0}, {"type": "electric_scooter", "rental_uris": {"ios": "https://dc.lft.to/lastmile_qr_scan", "android": "https://dc.lft.to/lastmile_qr_scan"}, "lon": -77.03232166666666, "fusion_lon": 0.0, "is_disabled": 0, "lat": 38.9235695, "bike_id": "78dd9c2a8d1fd76cd7c46052a2ad69fb", "name": "78dd9c2a8d1fd76cd7c46052a2ad69fb", "is_reserved": 0, "fusion_lat": 0.0}, {"type": "electric_scooter", "rental_uris": {"ios": "https://dc.lft.to/lastmile_qr_scan", "android": "https://dc.lft.to/lastmile_qr_scan"}, "lon": -77.024333, "fusion_lon": 0.0, "is_disabled": 0, "lat": 38.9562885, "bike_id": "8aaf106f9d2b933277a4e7eebdd64b49", "name": "8aaf106f9d2b933277a4e7eebdd64b49", "is_reserved": 0, "fusion_lat": 0.0}, {"type": "electric_scooter", "rental_uris": {"ios": "https://dc.lft.to/lastmile_qr_scan", "android": "https://dc.lft.to/lastmile_qr_scan"}, "lon": -77.07301466666667, "fusion_lon": 0.0, "is_disabled": 0, "lat": 38.92884816666667, "bike_id": "250d7daf8361e998fd44cbdb7350c232", "name": "250d7daf8361e998fd44cbdb7350c232", "is_reserved": 0, "fusion_lat": 0.0}, {"type": "electric_scooter", "rental_uris": {"ios": "https://dc.lft.to/lastmile_qr_scan", "android": "https://dc.lft.to/lastmile_qr_scan"}, "lon": -77.02845833333333, "fusion_lon": 0.0, "is_disabled": 0, "lat": 38.91704883333333, "bike_id": "3a19be0bd749d8707b114be02f32dea2", "name": "3a19be0bd749d8707b114be02f32dea2", "is_reserved": 0, "fusion_lat": 0.0}, {"type": "electric_scooter", "rental_uris": {"ios": "https://dc.lft.to/lastmile_qr_scan", "android": "https://dc.lft.to/lastmile_qr_scan"}, "lon": -77.037575, "fusion_lon": 0.0, "is_disabled": 0, "lat": 38.9126835, "bike_id": "dcd2d7e0c89e4b43a85e2402ba0c5f8c", "name": "dcd2d7e0c89e4b43a85e2402ba0c5f8c", "is_reserved": 0, "fusion_lat": 0.0}, {"type": "electric_scooter", "rental_uris": {"ios": "https://dc.lft.to/lastmile_qr_scan", "android": "https://dc.lft.to/lastmile_qr_scan"}, "lon": -77.02343016666667, "fusion_lon": 0.0, "is_disabled": 0, "lat": 38.917844333333335, "bike_id": "542ed3f9415ee0aaf0c8cc6d733e99a2", "name": "542ed3f9415ee0aaf0c8cc6d733e99a2", "is_reserved": 0, "fusion_lat": 0.0}, {"type": "electric_scooter", "rental_uris": {"ios": "https://dc.lft.to/lastmile_qr_scan", "android": "https://dc.lft.to/lastmile_qr_scan"}, "lon": -77.03192516666667, "fusion_lon": 0.0, "is_disabled": 0, "lat": 38.91742133333333, "bike_id": "743bfbe996e58943d19ba56801f4fe8f", "name": "743bfbe996e58943d19ba56801f4fe8f", "is_reserved": 0, "fusion_lat": 0.0}, {"type": "electric_scooter", "rental_uris": {"ios": "https://dc.lft.to/lastmile_qr_scan", "android": "https://dc.lft.to/lastmile_qr_scan"}, "lon": -76.9888625, "fusion_lon": 0.0, "is_disabled": 0, "lat": 38.86651233333333, "bike_id": "ee2250987cd505d9ae8a0a4ba0d00823", "name": "ee2250987cd505d9ae8a0a4ba0d00823", "is_reserved": 0, "fusion_lat": 0.0}, {"type": "electric_scooter", "rental_uris": {"ios": "https://dc.lft.to/lastmile_qr_scan", "android": "https://dc.lft.to/lastmile_qr_scan"}, "lon": -77.043566, "fusion_lon": 0.0, "is_disabled": 0, "lat": 38.913006333333335, "bike_id": "31667ceb8a62c8f7d36816f252f0593c", "name": "31667ceb8a62c8f7d36816f252f0593c", "is_reserved": 0, "fusion_lat": 0.0}, {"type": "electric_scooter", "rental_uris": {"ios": "https://dc.lft.to/lastmile_qr_scan", "android": "https://dc.lft.to/lastmile_qr_scan"}, "lon": -76.93358033333334, "fusion_lon": 0.0, "is_disabled": 0, "lat": 38.89902033333333, "bike_id": "020f5e07258e1001d1474ce881654aef", "name": "020f5e07258e1001d1474ce881654aef", "is_reserved": 0, "fusion_lat": 0.0}, {"type": "electric_scooter", "rental_uris": {"ios": "https://dc.lft.to/lastmile_qr_scan", "android": "https://dc.lft.to/lastmile_qr_scan"}, "lon": -77.02337933333334, "fusion_lon": 0.0, "is_disabled": 0, "lat": 38.917771, "bike_id": "f555beb740f6bb2ea04f76e218592dde", "name": "f555beb740f6bb2ea04f76e218592dde", "is_reserved": 0, "fusion_lat": 0.0}, {"type": "electric_scooter", "rental_uris": {"ios": "https://dc.lft.to/lastmile_qr_scan", "android": "https://dc.lft.to/lastmile_qr_scan"}, "lon": -77.0318485, "fusion_lon": 0.0, "is_disabled": 0, "lat": 38.89233083333333, "bike_id": "afff0ac22e9f16ced86e346f0b9c5462", "name": "afff0ac22e9f16ced86e346f0b9c5462", "is_reserved": 0, "fusion_lat": 0.0}, {"type": "electric_scooter", "rental_uris": {"ios": "https://dc.lft.to/lastmile_qr_scan", "android": "https://dc.lft.to/lastmile_qr_scan"}, "lon": -77.03662416666667, "fusion_lon": 0.0, "is_disabled": 0, "lat": 38.920258, "bike_id": "a1bbf62d28d00e9fb0cff85c9ad74293", "name": "a1bbf62d28d00e9fb0cff85c9ad74293", "is_reserved": 0, "fusion_lat": 0.0}, {"type": "electric_scooter", "rental_uris": {"ios": "https://dc.lft.to/lastmile_qr_scan", "android": "https://dc.lft.to/lastmile_qr_scan"}, "lon": -77.04073333333334, "fusion_lon": 0.0, "is_disabled": 0, "lat": 38.9141715, "bike_id": "12c61dc853617e919503a66115f41cf9", "name": "12c61dc853617e919503a66115f41cf9", "is_reserved": 0, "fusion_lat": 0.0}, {"type": "electric_scooter", "rental_uris": {"ios": "https://dc.lft.to/lastmile_qr_scan", "android": "https://dc.lft.to/lastmile_qr_scan"}, "lon": -76.9903295, "fusion_lon": 0.0, "is_disabled": 0, "lat": 38.891481666666664, "bike_id": "b8f273667a4c698127490d6bb62d5bdd", "name": "b8f273667a4c698127490d6bb62d5bdd", "is_reserved": 0, "fusion_lat": 0.0}, {"type": "electric_scooter", "rental_uris": {"ios": "https://dc.lft.to/lastmile_qr_scan", "android": "https://dc.lft.to/lastmile_qr_scan"}, "lon": -77.04675816666666, "fusion_lon": 0.0, "is_disabled": 0, "lat": 38.9158515, "bike_id": "4177e74fa64df48235ef543c3193224a", "name": "4177e74fa64df48235ef543c3193224a", "is_reserved": 0, "fusion_lat": 0.0}, {"type": "electric_scooter", "rental_uris": {"ios": "https://dc.lft.to/lastmile_qr_scan", "android": "https://dc.lft.to/lastmile_qr_scan"}, "lon": -77.03221916666666, "fusion_lon": 0.0, "is_disabled": 0, "lat": 38.892236833333335, "bike_id": "2c56f7bce91de001c0e1a386d7b27230", "name": "2c56f7bce91de001c0e1a386d7b27230", "is_reserved": 0, "fusion_lat": 0.0}, {"type": "electric_scooter", "rental_uris": {"ios": "https://dc.lft.to/lastmile_qr_scan", "android": "https://dc.lft.to/lastmile_qr_scan"}, "lon": -77.04344283333333, "fusion_lon": 0.0, "is_disabled": 0, "lat": 38.90828066666667, "bike_id": "bd7ed942944b6dc2cdb22c6f1c6977e5", "name": "bd7ed942944b6dc2cdb22c6f1c6977e5", "is_reserved": 0, "fusion_lat": 0.0}, {"type": "electric_scooter", "rental_uris": {"ios": "https://dc.lft.to/lastmile_qr_scan", "android": "https://dc.lft.to/lastmile_qr_scan"}, "lon": -77.02224333333334, "fusion_lon": 0.0, "is_disabled": 0, "lat": 38.892209666666666, "bike_id": "4e40136d61941ebde6a637a2e591bad2", "name": "4e40136d61941ebde6a637a2e591bad2", "is_reserved": 0, "fusion_lat": 0.0}, {"type": "electric_bike", "rental_uris": {"ios": "https://dc.lft.to/lastmile_qr_scan", "android": "https://dc.lft.to/lastmile_qr_scan"}, "lon": -77.1172195, "fusion_lon": 0.0, "is_disabled": 0, "lat": 39.05457883333333, "bike_id": "e353dc6e1060b1099b9e9d180e7e2e60", "name": "e353dc6e1060b1099b9e9d180e7e2e60", "is_reserved": 0, "fusion_lat": 0.0}, {"type": "electric_scooter", "rental_uris": {"ios": "https://dc.lft.to/lastmile_qr_scan", "android": "https://dc.lft.to/lastmile_qr_scan"}, "lon": -77.00200516666666, "fusion_lon": 0.0, "is_disabled": 0, "lat": 38.90042866666667, "bike_id": "17a0543802c08ffa7b50598b72ec14a5", "name": "17a0543802c08ffa7b50598b72ec14a5", "is_reserved": 0, "fusion_lat": 0.0}, {"type": "electric_scooter", "rental_uris": {"ios": "https://dc.lft.to/lastmile_qr_scan", "android": "https://dc.lft.to/lastmile_qr_scan"}, "lon": -77.02838933333334, "fusion_lon": 0.0, "is_disabled": 0, "lat": 38.93279366666667, "bike_id": "15a96371aebeb715e101bd18f8fe7060", "name": "15a96371aebeb715e101bd18f8fe7060", "is_reserved": 0, "fusion_lat": 0.0}, {"type": "electric_scooter", "rental_uris": {"ios": "https://dc.lft.to/lastmile_qr_scan", "android": "https://dc.lft.to/lastmile_qr_scan"}, "lon": -77.04933366666667, "fusion_lon": 0.0, "is_disabled": 0, "lat": 38.90093516666666, "bike_id": "64326deccb30e995407fcc1968fe66d8", "name": "64326deccb30e995407fcc1968fe66d8", "is_reserved": 0, "fusion_lat": 0.0}, {"type": "electric_scooter", "rental_uris": {"ios": "https://dc.lft.to/lastmile_qr_scan", "android": "https://dc.lft.to/lastmile_qr_scan"}, "lon": -77.0391715, "fusion_lon": 0.0, "is_disabled": 0, "lat": 38.918170333333336, "bike_id": "edce9a1bdd8fed7f9bbfedc43a36a98a", "name": "edce9a1bdd8fed7f9bbfedc43a36a98a", "is_reserved": 0, "fusion_lat": 0.0}, {"type": "electric_scooter", "rental_uris": {"ios": "https://dc.lft.to/lastmile_qr_scan", "android": "https://dc.lft.to/lastmile_qr_scan"}, "lon": -77.03124433333333, "fusion_lon": 0.0, "is_disabled": 0, "lat": 38.92018683333333, "bike_id": "4535d22801ee4e1a6d38cc892e988c60", "name": "4535d22801ee4e1a6d38cc892e988c60", "is_reserved": 0, "fusion_lat": 0.0}, {"type": "electric_scooter", "rental_uris": {"ios": "https://dc.lft.to/lastmile_qr_scan", "android": "https://dc.lft.to/lastmile_qr_scan"}, "lon": -77.07683066666667, "fusion_lon": 0.0, "is_disabled": 0, "lat": 38.94228, "bike_id": "49c6b5f7d2d7fc744fe655653b2bf51d", "name": "49c6b5f7d2d7fc744fe655653b2bf51d", "is_reserved": 0, "fusion_lat": 0.0}, {"type": "electric_scooter", "rental_uris": {"ios": "https://dc.lft.to/lastmile_qr_scan", "android": "https://dc.lft.to/lastmile_qr_scan"}, "lon": -77.04442466666667, "fusion_lon": 0.0, "is_disabled": 0, "lat": 38.909903166666666, "bike_id": "d3fac2bfa8a457fcdb4633832b3bc3e6", "name": "d3fac2bfa8a457fcdb4633832b3bc3e6", "is_reserved": 0, "fusion_lat": 0.0}, {"type": "electric_scooter", "rental_uris": {"ios": "https://dc.lft.to/lastmile_qr_scan", "android": "https://dc.lft.to/lastmile_qr_scan"}, "lon": -77.02324866666666, "fusion_lon": 0.0, "is_disabled": 0, "lat": 38.930629, "bike_id": "6958bc5ab3d0f2e4eaffd4338520e91f", "name": "6958bc5ab3d0f2e4eaffd4338520e91f", "is_reserved": 0, "fusion_lat": 0.0}, {"type": "electric_bike", "rental_uris": {"ios": "https://dc.lft.to/lastmile_qr_scan", "android": "https://dc.lft.to/lastmile_qr_scan"}, "lon": -76.97525066666667, "fusion_lon": 0.0, "is_disabled": 0, "lat": 38.96703683333333, "bike_id": "c08ae1bf38cd9c86f13bc6ad8bde87be", "name": "c08ae1bf38cd9c86f13bc6ad8bde87be", "is_reserved": 0, "fusion_lat": 0.0}, {"type": "electric_bike", "rental_uris": {"ios": "https://dc.lft.to/lastmile_qr_scan", "android": "https://dc.lft.to/lastmile_qr_scan"}, "lon": -77.07915766666666, "fusion_lon": 0.0, "is_disabled": 0, "lat": 38.802283833333334, "bike_id": "ed5c9df97f7619290111ce0626242e06", "name": "ed5c9df97f7619290111ce0626242e06", "is_reserved": 0, "fusion_lat": 0.0}, {"type": "electric_scooter", "rental_uris": {"ios": "https://dc.lft.to/lastmile_qr_scan", "android": "https://dc.lft.to/lastmile_qr_scan"}, "lon": -77.043398, "fusion_lon": 0.0, "is_disabled": 0, "lat": 38.9025135, "bike_id": "2b1d779d466a375397a8ccc2b5a6715f", "name": "2b1d779d466a375397a8ccc2b5a6715f", "is_reserved": 0, "fusion_lat": 0.0}, {"type": "electric_scooter", "rental_uris": {"ios": "https://dc.lft.to/lastmile_qr_scan", "android": "https://dc.lft.to/lastmile_qr_scan"}, "lon": -77.04359033333333, "fusion_lon": 0.0, "is_disabled": 0, "lat": 38.92238183333333, "bike_id": "be8795029fc7d67bb74b3c799be3c47c", "name": "be8795029fc7d67bb74b3c799be3c47c", "is_reserved": 0, "fusion_lat": 0.0}, {"type": "electric_scooter", "rental_uris": {"ios": "https://dc.lft.to/lastmile_qr_scan", "android": "https://dc.lft.to/lastmile_qr_scan"}, "lon": -76.99042116666666, "fusion_lon": 0.0, "is_disabled": 0, "lat": 38.86359983333333, "bike_id": "a16cd139dfe2319188d8b4864fa7149a", "name": "a16cd139dfe2319188d8b4864fa7149a", "is_reserved": 0, "fusion_lat": 0.0}, {"type": "electric_scooter", "rental_uris": {"ios": "https://dc.lft.to/lastmile_qr_scan", "android": "https://dc.lft.to/lastmile_qr_scan"}, "lon": -77.009247, "fusion_lon": 0.0, "is_disabled": 0, "lat": 38.91851233333333, "bike_id": "51bd37f2caf7cf26aebb24a32b7fc94a", "name": "51bd37f2caf7cf26aebb24a32b7fc94a", "is_reserved": 0, "fusion_lat": 0.0}, {"type": "electric_scooter", "rental_uris": {"ios": "https://dc.lft.to/lastmile_qr_scan", "android": "https://dc.lft.to/lastmile_qr_scan"}, "lon": -77.04030983333334, "fusion_lon": 0.0, "is_disabled": 0, "lat": 38.92441616666667, "bike_id": "6f940c1be5fac75e16d9a824ab44d88f", "name": "6f940c1be5fac75e16d9a824ab44d88f", "is_reserved": 0, "fusion_lat": 0.0}, {"type": "electric_scooter", "rental_uris": {"ios": "https://dc.lft.to/lastmile_qr_scan", "android": "https://dc.lft.to/lastmile_qr_scan"}, "lon": -77.04153816666667, "fusion_lon": 0.0, "is_disabled": 0, "lat": 38.90543516666666, "bike_id": "ee57f268e5c8e360e06f57a1add19eda", "name": "ee57f268e5c8e360e06f57a1add19eda", "is_reserved": 0, "fusion_lat": 0.0}, {"type": "electric_bike", "rental_uris": {"ios": "https://dc.lft.to/lastmile_qr_scan", "android": "https://dc.lft.to/lastmile_qr_scan"}, "lon": -76.98429083333333, "fusion_lon": 0.0, "is_disabled": 0, "lat": 38.85523633333333, "bike_id": "09661fd9ffaa5971ddba622baef984d8", "name": "09661fd9ffaa5971ddba622baef984d8", "is_reserved": 0, "fusion_lat": 0.0}, {"type": "electric_scooter", "rental_uris": {"ios": "https://dc.lft.to/lastmile_qr_scan", "android": "https://dc.lft.to/lastmile_qr_scan"}, "lon": -77.03448583333333, "fusion_lon": 0.0, "is_disabled": 0, "lat": 38.9025395, "bike_id": "d58dc596ba20bf6b3fe026a2f3808f55", "name": "d58dc596ba20bf6b3fe026a2f3808f55", "is_reserved": 0, "fusion_lat": 0.0}, {"type": "electric_scooter", "rental_uris": {"ios": "https://dc.lft.to/lastmile_qr_scan", "android": "https://dc.lft.to/lastmile_qr_scan"}, "lon": -77.01456933333333, "fusion_lon": 0.0, "is_disabled": 0, "lat": 38.87727733333333, "bike_id": "ea7bc3fa96a562e657479f14cb73337e", "name": "ea7bc3fa96a562e657479f14cb73337e", "is_reserved": 0, "fusion_lat": 0.0}, {"type": "electric_scooter", "rental_uris": {"ios": "https://dc.lft.to/lastmile_qr_scan", "android": "https://dc.lft.to/lastmile_qr_scan"}, "lon": -77.00191866666667, "fusion_lon": 0.0, "is_disabled": 0, "lat": 38.900374166666666, "bike_id": "3d4a889e4e93aa457cb2355a12588ea2", "name": "3d4a889e4e93aa457cb2355a12588ea2", "is_reserved": 0, "fusion_lat": 0.0}, {"type": "electric_scooter", "rental_uris": {"ios": "https://dc.lft.to/lastmile_qr_scan", "android": "https://dc.lft.to/lastmile_qr_scan"}, "lon": -76.96980766666667, "fusion_lon": 0.0, "is_disabled": 0, "lat": 38.9194895, "bike_id": "fd2b336a5f5376dff300662255736750", "name": "fd2b336a5f5376dff300662255736750", "is_reserved": 0, "fusion_lat": 0.0}, {"type": "electric_scooter", "rental_uris": {"ios": "https://dc.lft.to/lastmile_qr_scan", "android": "https://dc.lft.to/lastmile_qr_scan"}, "lon": -77.04339366666666, "fusion_lon": 0.0, "is_disabled": 0, "lat": 38.9083925, "bike_id": "c825b913381e83b14b5950f244a8ec3d", "name": "c825b913381e83b14b5950f244a8ec3d", "is_reserved": 0, "fusion_lat": 0.0}, {"type": "electric_scooter", "rental_uris": {"ios": "https://dc.lft.to/lastmile_qr_scan", "android": "https://dc.lft.to/lastmile_qr_scan"}, "lon": -77.06055816666667, "fusion_lon": 0.0, "is_disabled": 0, "lat": 38.90243666666667, "bike_id": "e57e4879eb96896f6e2d57a2cd83ab57", "name": "e57e4879eb96896f6e2d57a2cd83ab57", "is_reserved": 0, "fusion_lat": 0.0}, {"type": "electric_scooter", "rental_uris": {"ios": "https://dc.lft.to/lastmile_qr_scan", "android": "https://dc.lft.to/lastmile_qr_scan"}, "lon": -77.04687666666666, "fusion_lon": 0.0, "is_disabled": 0, "lat": 38.897351666666665, "bike_id": "53241c9df95285ea7e71e5cf77b2b8a0", "name": "53241c9df95285ea7e71e5cf77b2b8a0", "is_reserved": 0, "fusion_lat": 0.0}, {"type": "electric_scooter", "rental_uris": {"ios": "https://dc.lft.to/lastmile_qr_scan", "android": "https://dc.lft.to/lastmile_qr_scan"}, "lon": -77.03237783333333, "fusion_lon": 0.0, "is_disabled": 0, "lat": 38.908742, "bike_id": "d936dc26395c43e3cdc677c42eb01589", "name": "d936dc26395c43e3cdc677c42eb01589", "is_reserved": 0, "fusion_lat": 0.0}, {"type": "electric_scooter", "rental_uris": {"ios": "https://dc.lft.to/lastmile_qr_scan", "android": "https://dc.lft.to/lastmile_qr_scan"}, "lon": -77.03174266666667, "fusion_lon": 0.0, "is_disabled": 0, "lat": 38.914186666666666, "bike_id": "9598af412bc66ce74faed5ff787f7186", "name": "9598af412bc66ce74faed5ff787f7186", "is_reserved": 0, "fusion_lat": 0.0}, {"type": "electric_scooter", "rental_uris": {"ios": "https://dc.lft.to/lastmile_qr_scan", "android": "https://dc.lft.to/lastmile_qr_scan"}, "lon": -77.02694333333334, "fusion_lon": 0.0, "is_disabled": 0, "lat": 38.9014125, "bike_id": "a4c555577352a86678a2c06004e1be89", "name": "a4c555577352a86678a2c06004e1be89", "is_reserved": 0, "fusion_lat": 0.0}, {"type": "electric_scooter", "rental_uris": {"ios": "https://dc.lft.to/lastmile_qr_scan", "android": "https://dc.lft.to/lastmile_qr_scan"}, "lon": -77.0485185, "fusion_lon": 0.0, "is_disabled": 0, "lat": 38.90462266666667, "bike_id": "6839e89e0ee135db609191c75db00ef1", "name": "6839e89e0ee135db609191c75db00ef1", "is_reserved": 0, "fusion_lat": 0.0}, {"type": "electric_scooter", "rental_uris": {"ios": "https://dc.lft.to/lastmile_qr_scan", "android": "https://dc.lft.to/lastmile_qr_scan"}, "lon": -77.03216733333333, "fusion_lon": 0.0, "is_disabled": 0, "lat": 38.909721833333336, "bike_id": "bb08585e262590524d2b6ec312089a03", "name": "bb08585e262590524d2b6ec312089a03", "is_reserved": 0, "fusion_lat": 0.0}, {"type": "electric_scooter", "rental_uris": {"ios": "https://dc.lft.to/lastmile_qr_scan", "android": "https://dc.lft.to/lastmile_qr_scan"}, "lon": -76.936091, "fusion_lon": 0.0, "is_disabled": 0, "lat": 38.89684116666667, "bike_id": "83d4ec97b0ba96abcc69798bd8897d3d", "name": "83d4ec97b0ba96abcc69798bd8897d3d", "is_reserved": 0, "fusion_lat": 0.0}, {"type": "electric_scooter", "rental_uris": {"ios": "https://dc.lft.to/lastmile_qr_scan", "android": "https://dc.lft.to/lastmile_qr_scan"}, "lon": -77.05226016666667, "fusion_lon": 0.0, "is_disabled": 0, "lat": 38.924983833333336, "bike_id": "1771a75bf5fe3fa52594c89b649cdecd", "name": "1771a75bf5fe3fa52594c89b649cdecd", "is_reserved": 0, "fusion_lat": 0.0}, {"type": "electric_scooter", "rental_uris": {"ios": "https://dc.lft.to/lastmile_qr_scan", "android": "https://dc.lft.to/lastmile_qr_scan"}, "lon": -77.0318555, "fusion_lon": 0.0, "is_disabled": 0, "lat": 38.917448666666665, "bike_id": "9f9fda65e2c9697f857c27e971618f0e", "name": "9f9fda65e2c9697f857c27e971618f0e", "is_reserved": 0, "fusion_lat": 0.0}, {"type": "electric_scooter", "rental_uris": {"ios": "https://dc.lft.to/lastmile_qr_scan", "android": "https://dc.lft.to/lastmile_qr_scan"}, "lon": -76.99901116666666, "fusion_lon": 0.0, "is_disabled": 0, "lat": 38.94826483333333, "bike_id": "7ea43537bab22c489d7ba2ef1240a8a9", "name": "7ea43537bab22c489d7ba2ef1240a8a9", "is_reserved": 0, "fusion_lat": 0.0}, {"type": "electric_scooter", "rental_uris": {"ios": "https://dc.lft.to/lastmile_qr_scan", "android": "https://dc.lft.to/lastmile_qr_scan"}, "lon": -77.02128083333334, "fusion_lon": 0.0, "is_disabled": 0, "lat": 38.8874765, "bike_id": "8fe488a71f802e593ee86af26c0c66b5", "name": "8fe488a71f802e593ee86af26c0c66b5", "is_reserved": 0, "fusion_lat": 0.0}, {"type": "electric_scooter", "rental_uris": {"ios": "https://dc.lft.to/lastmile_qr_scan", "android": "https://dc.lft.to/lastmile_qr_scan"}, "lon": -77.02192166666667, "fusion_lon": 0.0, "is_disabled": 0, "lat": 38.9148835, "bike_id": "258d2a2edfde81e674cdd32d2f3cb2f3", "name": "258d2a2edfde81e674cdd32d2f3cb2f3", "is_reserved": 0, "fusion_lat": 0.0}, {"type": "electric_scooter", "rental_uris": {"ios": "https://dc.lft.to/lastmile_qr_scan", "android": "https://dc.lft.to/lastmile_qr_scan"}, "lon": -77.06041, "fusion_lon": 0.0, "is_disabled": 0, "lat": 38.94464633333333, "bike_id": "f5655ac0546ea852a0498055a9beda6e", "name": "f5655ac0546ea852a0498055a9beda6e", "is_reserved": 0, "fusion_lat": 0.0}, {"type": "electric_scooter", "rental_uris": {"ios": "https://dc.lft.to/lastmile_qr_scan", "android": "https://dc.lft.to/lastmile_qr_scan"}, "lon": -77.033897, "fusion_lon": 0.0, "is_disabled": 0, "lat": 38.924566, "bike_id": "90feb71efd47725b9dd35044f16def0a", "name": "90feb71efd47725b9dd35044f16def0a", "is_reserved": 0, "fusion_lat": 0.0}, {"type": "electric_scooter", "rental_uris": {"ios": "https://dc.lft.to/lastmile_qr_scan", "android": "https://dc.lft.to/lastmile_qr_scan"}, "lon": -77.017807, "fusion_lon": 0.0, "is_disabled": 0, "lat": 38.887180666666666, "bike_id": "70847bc9833e6ba565d286c2e71da093", "name": "70847bc9833e6ba565d286c2e71da093", "is_reserved": 0, "fusion_lat": 0.0}, {"type": "electric_bike", "rental_uris": {"ios": "https://dc.lft.to/lastmile_qr_scan", "android": "https://dc.lft.to/lastmile_qr_scan"}, "lon": -77.07515383333333, "fusion_lon": 0.0, "is_disabled": 0, "lat": 38.848035333333335, "bike_id": "97c68a97d89446f5cd5aaf0892158f44", "name": "97c68a97d89446f5cd5aaf0892158f44", "is_reserved": 0, "fusion_lat": 0.0}, {"type": "electric_scooter", "rental_uris": {"ios": "https://dc.lft.to/lastmile_qr_scan", "android": "https://dc.lft.to/lastmile_qr_scan"}, "lon": -76.9513105, "fusion_lon": 0.0, "is_disabled": 0, "lat": 38.890331, "bike_id": "c00d58149ab29bc5c22c08d58855c6c4", "name": "c00d58149ab29bc5c22c08d58855c6c4", "is_reserved": 0, "fusion_lat": 0.0}, {"type": "electric_scooter", "rental_uris": {"ios": "https://dc.lft.to/lastmile_qr_scan", "android": "https://dc.lft.to/lastmile_qr_scan"}, "lon": -77.0222515, "fusion_lon": 0.0, "is_disabled": 0, "lat": 38.93553383333333, "bike_id": "f8146b7fa12c2ca301586ab4dcbf3e7a", "name": "f8146b7fa12c2ca301586ab4dcbf3e7a", "is_reserved": 0, "fusion_lat": 0.0}, {"type": "electric_bike", "rental_uris": {"ios": "https://dc.lft.to/lastmile_qr_scan", "android": "https://dc.lft.to/lastmile_qr_scan"}, "lon": -77.03946166666667, "fusion_lon": 0.0, "is_disabled": 0, "lat": 38.865041, "bike_id": "505fa119230db9f741ceca9b49c27629", "name": "505fa119230db9f741ceca9b49c27629", "is_reserved": 0, "fusion_lat": 0.0}, {"type": "electric_bike", "rental_uris": {"ios": "https://dc.lft.to/lastmile_qr_scan", "android": "https://dc.lft.to/lastmile_qr_scan"}, "lon": -77.11897466666667, "fusion_lon": 0.0, "is_disabled": 0, "lat": 39.075038166666666, "bike_id": "8e2ba2b03d59a9d3f126cf0bb8f057cd", "name": "8e2ba2b03d59a9d3f126cf0bb8f057cd", "is_reserved": 0, "fusion_lat": 0.0}, {"type": "electric_scooter", "rental_uris": {"ios": "https://dc.lft.to/lastmile_qr_scan", "android": "https://dc.lft.to/lastmile_qr_scan"}, "lon": -77.04353533333334, "fusion_lon": 0.0, "is_disabled": 0, "lat": 38.9083165, "bike_id": "260e801fe3e053dbc46b205b5d1a39d7", "name": "260e801fe3e053dbc46b205b5d1a39d7", "is_reserved": 0, "fusion_lat": 0.0}, {"type": "electric_scooter", "rental_uris": {"ios": "https://dc.lft.to/lastmile_qr_scan", "android": "https://dc.lft.to/lastmile_qr_scan"}, "lon": -77.03730766666666, "fusion_lon": 0.0, "is_disabled": 0, "lat": 38.9308295, "bike_id": "947ecf2325ed60f853d67c3fb5c1fa2b", "name": "947ecf2325ed60f853d67c3fb5c1fa2b", "is_reserved": 0, "fusion_lat": 0.0}, {"type": "electric_bike", "rental_uris": {"ios": "https://dc.lft.to/lastmile_qr_scan", "android": "https://dc.lft.to/lastmile_qr_scan"}, "lon": -77.05079916666666, "fusion_lon": 0.0, "is_disabled": 0, "lat": 38.81329516666667, "bike_id": "0007a1c7878e8b9c47b659956053f57e", "name": "0007a1c7878e8b9c47b659956053f57e", "is_reserved": 0, "fusion_lat": 0.0}, {"type": "electric_scooter", "rental_uris": {"ios": "https://dc.lft.to/lastmile_qr_scan", "android": "https://dc.lft.to/lastmile_qr_scan"}, "lon": -77.00579616666667, "fusion_lon": 0.0, "is_disabled": 0, "lat": 38.8818735, "bike_id": "081071e1466572f77c55e4c19c9c7406", "name": "081071e1466572f77c55e4c19c9c7406", "is_reserved": 0, "fusion_lat": 0.0}, {"type": "electric_scooter", "rental_uris": {"ios": "https://dc.lft.to/lastmile_qr_scan", "android": "https://dc.lft.to/lastmile_qr_scan"}, "lon": -77.02585283333333, "fusion_lon": 0.0, "is_disabled": 0, "lat": 38.914138666666666, "bike_id": "e17061fdf4ce723855cd32b50ed34669", "name": "e17061fdf4ce723855cd32b50ed34669", "is_reserved": 0, "fusion_lat": 0.0}, {"type": "electric_scooter", "rental_uris": {"ios": "https://dc.lft.to/lastmile_qr_scan", "android": "https://dc.lft.to/lastmile_qr_scan"}, "lon": -77.03123433333333, "fusion_lon": 0.0, "is_disabled": 0, "lat": 38.93768466666667, "bike_id": "0374da48022dd2555510ca401b234fe4", "name": "0374da48022dd2555510ca401b234fe4", "is_reserved": 0, "fusion_lat": 0.0}, {"type": "electric_bike", "rental_uris": {"ios": "https://dc.lft.to/lastmile_qr_scan", "android": "https://dc.lft.to/lastmile_qr_scan"}, "lon": -76.9935695, "fusion_lon": 0.0, "is_disabled": 0, "lat": 38.845076, "bike_id": "98c227d32f5c7b319ea2797ca3c33b5e", "name": "98c227d32f5c7b319ea2797ca3c33b5e", "is_reserved": 0, "fusion_lat": 0.0}, {"type": "electric_scooter", "rental_uris": {"ios": "https://dc.lft.to/lastmile_qr_scan", "android": "https://dc.lft.to/lastmile_qr_scan"}, "lon": -76.998288, "fusion_lon": 0.0, "is_disabled": 0, "lat": 38.8853525, "bike_id": "f91231e31fcb3ace4dbd6bc8eec814ab", "name": "f91231e31fcb3ace4dbd6bc8eec814ab", "is_reserved": 0, "fusion_lat": 0.0}, {"type": "electric_scooter", "rental_uris": {"ios": "https://dc.lft.to/lastmile_qr_scan", "android": "https://dc.lft.to/lastmile_qr_scan"}, "lon": -77.0527715, "fusion_lon": 0.0, "is_disabled": 0, "lat": 38.9254525, "bike_id": "82f83b299891f0a33a5795484d851de8", "name": "82f83b299891f0a33a5795484d851de8", "is_reserved": 0, "fusion_lat": 0.0}, {"type": "electric_scooter", "rental_uris": {"ios": "https://dc.lft.to/lastmile_qr_scan", "android": "https://dc.lft.to/lastmile_qr_scan"}, "lon": -77.02955233333333, "fusion_lon": 0.0, "is_disabled": 0, "lat": 38.93239966666667, "bike_id": "09421bcebfabc8ce4952e9726cd38018", "name": "09421bcebfabc8ce4952e9726cd38018", "is_reserved": 0, "fusion_lat": 0.0}, {"type": "electric_scooter", "rental_uris": {"ios": "https://dc.lft.to/lastmile_qr_scan", "android": "https://dc.lft.to/lastmile_qr_scan"}, "lon": -77.0271575, "fusion_lon": 0.0, "is_disabled": 0, "lat": 38.9068595, "bike_id": "77b266c71b7f9c492288f644d20ee676", "name": "77b266c71b7f9c492288f644d20ee676", "is_reserved": 0, "fusion_lat": 0.0}, {"type": "electric_scooter", "rental_uris": {"ios": "https://dc.lft.to/lastmile_qr_scan", "android": "https://dc.lft.to/lastmile_qr_scan"}, "lon": -77.03900133333333, "fusion_lon": 0.0, "is_disabled": 0, "lat": 38.90273633333334, "bike_id": "ee09bff0afef4c8df5a0f2d5a6897b44", "name": "ee09bff0afef4c8df5a0f2d5a6897b44", "is_reserved": 0, "fusion_lat": 0.0}, {"type": "electric_bike", "rental_uris": {"ios": "https://dc.lft.to/lastmile_qr_scan", "android": "https://dc.lft.to/lastmile_qr_scan"}, "lon": -77.20842516666667, "fusion_lon": 0.0, "is_disabled": 0, "lat": 38.924668833333335, "bike_id": "fb066215e3cb9076200d91a1cda86a1a", "name": "fb066215e3cb9076200d91a1cda86a1a", "is_reserved": 0, "fusion_lat": 0.0}, {"type": "electric_scooter", "rental_uris": {"ios": "https://dc.lft.to/lastmile_qr_scan", "android": "https://dc.lft.to/lastmile_qr_scan"}, "lon": -77.03233483333334, "fusion_lon": 0.0, "is_disabled": 0, "lat": 38.921805166666665, "bike_id": "ae31967b7d6a5ca9aeb48a9980fd6006", "name": "ae31967b7d6a5ca9aeb48a9980fd6006", "is_reserved": 0, "fusion_lat": 0.0}, {"type": "electric_scooter", "rental_uris": {"ios": "https://dc.lft.to/lastmile_qr_scan", "android": "https://dc.lft.to/lastmile_qr_scan"}, "lon": -77.0061925, "fusion_lon": 0.0, "is_disabled": 0, "lat": 38.8718185, "bike_id": "48ae4ccf0f1492a27e2a37a938c97c22", "name": "48ae4ccf0f1492a27e2a37a938c97c22", "is_reserved": 0, "fusion_lat": 0.0}, {"type": "electric_scooter", "rental_uris": {"ios": "https://dc.lft.to/lastmile_qr_scan", "android": "https://dc.lft.to/lastmile_qr_scan"}, "lon": -77.03665766666667, "fusion_lon": 0.0, "is_disabled": 0, "lat": 38.92250033333333, "bike_id": "ae5cc2d468f96f21b0e031572ba3a271", "name": "ae5cc2d468f96f21b0e031572ba3a271", "is_reserved": 0, "fusion_lat": 0.0}, {"type": "electric_scooter", "rental_uris": {"ios": "https://dc.lft.to/lastmile_qr_scan", "android": "https://dc.lft.to/lastmile_qr_scan"}, "lon": -77.040116, "fusion_lon": 0.0, "is_disabled": 0, "lat": 38.9156395, "bike_id": "13f362d99276b88f07d78cca7d4c04cc", "name": "13f362d99276b88f07d78cca7d4c04cc", "is_reserved": 0, "fusion_lat": 0.0}, {"type": "electric_scooter", "rental_uris": {"ios": "https://dc.lft.to/lastmile_qr_scan", "android": "https://dc.lft.to/lastmile_qr_scan"}, "lon": -77.02198533333333, "fusion_lon": 0.0, "is_disabled": 0, "lat": 38.91082633333333, "bike_id": "136d6ffa16e17e83a85707f49fa50fca", "name": "136d6ffa16e17e83a85707f49fa50fca", "is_reserved": 0, "fusion_lat": 0.0}, {"type": "electric_scooter", "rental_uris": {"ios": "https://dc.lft.to/lastmile_qr_scan", "android": "https://dc.lft.to/lastmile_qr_scan"}, "lon": -77.03899316666667, "fusion_lon": 0.0, "is_disabled": 0, "lat": 38.917069, "bike_id": "eb0fad4ac11480042e0898684a97376b", "name": "eb0fad4ac11480042e0898684a97376b", "is_reserved": 0, "fusion_lat": 0.0}, {"type": "electric_scooter", "rental_uris": {"ios": "https://dc.lft.to/lastmile_qr_scan", "android": "https://dc.lft.to/lastmile_qr_scan"}, "lon": -77.03249516666666, "fusion_lon": 0.0, "is_disabled": 0, "lat": 38.91709, "bike_id": "90d95927672c88f7aa19481937d2e1a6", "name": "90d95927672c88f7aa19481937d2e1a6", "is_reserved": 0, "fusion_lat": 0.0}, {"type": "electric_bike", "rental_uris": {"ios": "https://dc.lft.to/lastmile_qr_scan", "android": "https://dc.lft.to/lastmile_qr_scan"}, "lon": -77.12656633333333, "fusion_lon": 0.0, "is_disabled": 0, "lat": 38.81512133333333, "bike_id": "f02c1371a2b938d5f803d3f61db32e4a", "name": "f02c1371a2b938d5f803d3f61db32e4a", "is_reserved": 0, "fusion_lat": 0.0}, {"type": "electric_bike", "rental_uris": {"ios": "https://dc.lft.to/lastmile_qr_scan", "android": "https://dc.lft.to/lastmile_qr_scan"}, "lon": -77.11297283333333, "fusion_lon": 0.0, "is_disabled": 0, "lat": 38.831750666666665, "bike_id": "b1e2bc07dea1feb5eef83f4bb93d44d6", "name": "b1e2bc07dea1feb5eef83f4bb93d44d6", "is_reserved": 0, "fusion_lat": 0.0}, {"type": "electric_scooter", "rental_uris": {"ios": "https://dc.lft.to/lastmile_qr_scan", "android": "https://dc.lft.to/lastmile_qr_scan"}, "lon": -77.02434733333334, "fusion_lon": 0.0, "is_disabled": 0, "lat": 38.92255383333333, "bike_id": "b6e37fcc38cef24a18174679548699ef", "name": "b6e37fcc38cef24a18174679548699ef", "is_reserved": 0, "fusion_lat": 0.0}, {"type": "electric_scooter", "rental_uris": {"ios": "https://dc.lft.to/lastmile_qr_scan", "android": "https://dc.lft.to/lastmile_qr_scan"}, "lon": -77.04058633333334, "fusion_lon": 0.0, "is_disabled": 0, "lat": 38.91282983333333, "bike_id": "0452cf46a4282280f91e4792d7ffb794", "name": "0452cf46a4282280f91e4792d7ffb794", "is_reserved": 0, "fusion_lat": 0.0}, {"type": "electric_scooter", "rental_uris": {"ios": "https://dc.lft.to/lastmile_qr_scan", "android": "https://dc.lft.to/lastmile_qr_scan"}, "lon": -76.99695066666666, "fusion_lon": 0.0, "is_disabled": 0, "lat": 38.90826666666667, "bike_id": "535c5bb85704152b581390c9555ad09e", "name": "535c5bb85704152b581390c9555ad09e", "is_reserved": 0, "fusion_lat": 0.0}, {"type": "electric_scooter", "rental_uris": {"ios": "https://dc.lft.to/lastmile_qr_scan", "android": "https://dc.lft.to/lastmile_qr_scan"}, "lon": -77.0344645, "fusion_lon": 0.0, "is_disabled": 0, "lat": 38.9080985, "bike_id": "6240a4a76da2b618085375796b8b7a91", "name": "6240a4a76da2b618085375796b8b7a91", "is_reserved": 0, "fusion_lat": 0.0}, {"type": "electric_scooter", "rental_uris": {"ios": "https://dc.lft.to/lastmile_qr_scan", "android": "https://dc.lft.to/lastmile_qr_scan"}, "lon": -77.02323533333333, "fusion_lon": 0.0, "is_disabled": 0, "lat": 38.89221033333333, "bike_id": "2febbeb57d099cd6dd3d83b1825db3b0", "name": "2febbeb57d099cd6dd3d83b1825db3b0", "is_reserved": 0, "fusion_lat": 0.0}, {"type": "electric_scooter", "rental_uris": {"ios": "https://dc.lft.to/lastmile_qr_scan", "android": "https://dc.lft.to/lastmile_qr_scan"}, "lon": -77.02129766666667, "fusion_lon": 0.0, "is_disabled": 0, "lat": 38.887458333333335, "bike_id": "1dafd4f4f5c0ed7f7754f253082e588e", "name": "1dafd4f4f5c0ed7f7754f253082e588e", "is_reserved": 0, "fusion_lat": 0.0}, {"type": "electric_scooter", "rental_uris": {"ios": "https://dc.lft.to/lastmile_qr_scan", "android": "https://dc.lft.to/lastmile_qr_scan"}, "lon": -77.03505266666667, "fusion_lon": 0.0, "is_disabled": 0, "lat": 38.918733333333336, "bike_id": "2fed3e317fcbc95b11db08f8f8d1da5a", "name": "2fed3e317fcbc95b11db08f8f8d1da5a", "is_reserved": 0, "fusion_lat": 0.0}, {"type": "electric_scooter", "rental_uris": {"ios": "https://dc.lft.to/lastmile_qr_scan", "android": "https://dc.lft.to/lastmile_qr_scan"}, "lon": -77.041437, "fusion_lon": 0.0, "is_disabled": 0, "lat": 38.90524416666667, "bike_id": "693e2365bb2d73abe4e85b5d4983f05c", "name": "693e2365bb2d73abe4e85b5d4983f05c", "is_reserved": 0, "fusion_lat": 0.0}, {"type": "electric_scooter", "rental_uris": {"ios": "https://dc.lft.to/lastmile_qr_scan", "android": "https://dc.lft.to/lastmile_qr_scan"}, "lon": -76.99091033333333, "fusion_lon": 0.0, "is_disabled": 0, "lat": 38.882337666666665, "bike_id": "2c140cc1955a90ffb651dc8c250b15be", "name": "2c140cc1955a90ffb651dc8c250b15be", "is_reserved": 0, "fusion_lat": 0.0}, {"type": "electric_scooter", "rental_uris": {"ios": "https://dc.lft.to/lastmile_qr_scan", "android": "https://dc.lft.to/lastmile_qr_scan"}, "lon": -77.03650183333333, "fusion_lon": 0.0, "is_disabled": 0, "lat": 38.906796666666665, "bike_id": "11f164007f87315ea6b5747896ad6ab5", "name": "11f164007f87315ea6b5747896ad6ab5", "is_reserved": 0, "fusion_lat": 0.0}, {"type": "electric_scooter", "rental_uris": {"ios": "https://dc.lft.to/lastmile_qr_scan", "android": "https://dc.lft.to/lastmile_qr_scan"}, "lon": -77.03215166666666, "fusion_lon": 0.0, "is_disabled": 0, "lat": 38.91838216666667, "bike_id": "3016ac755f738ccb4f282ec3dac2f58c", "name": "3016ac755f738ccb4f282ec3dac2f58c", "is_reserved": 0, "fusion_lat": 0.0}, {"type": "electric_scooter", "rental_uris": {"ios": "https://dc.lft.to/lastmile_qr_scan", "android": "https://dc.lft.to/lastmile_qr_scan"}, "lon": -77.05898966666666, "fusion_lon": 0.0, "is_disabled": 0, "lat": 38.90244033333333, "bike_id": "ac9e6660f70cd96fab5d6b571a50dfe3", "name": "ac9e6660f70cd96fab5d6b571a50dfe3", "is_reserved": 0, "fusion_lat": 0.0}, {"type": "electric_scooter", "rental_uris": {"ios": "https://dc.lft.to/lastmile_qr_scan", "android": "https://dc.lft.to/lastmile_qr_scan"}, "lon": -76.99636283333334, "fusion_lon": 0.0, "is_disabled": 0, "lat": 38.908895666666666, "bike_id": "a963cc4e8e28e0cf5c3099e49ce01390", "name": "a963cc4e8e28e0cf5c3099e49ce01390", "is_reserved": 0, "fusion_lat": 0.0}, {"type": "electric_scooter", "rental_uris": {"ios": "https://dc.lft.to/lastmile_qr_scan", "android": "https://dc.lft.to/lastmile_qr_scan"}, "lon": -77.0217875, "fusion_lon": 0.0, "is_disabled": 0, "lat": 38.921084, "bike_id": "85d5b56a1ffc787e8c013c33a3420f2e", "name": "85d5b56a1ffc787e8c013c33a3420f2e", "is_reserved": 0, "fusion_lat": 0.0}, {"type": "electric_scooter", "rental_uris": {"ios": "https://dc.lft.to/lastmile_qr_scan", "android": "https://dc.lft.to/lastmile_qr_scan"}, "lon": -77.02296466666667, "fusion_lon": 0.0, "is_disabled": 0, "lat": 38.91606983333333, "bike_id": "35eec910370ae9d49a9610f018a44032", "name": "35eec910370ae9d49a9610f018a44032", "is_reserved": 0, "fusion_lat": 0.0}, {"type": "electric_scooter", "rental_uris": {"ios": "https://dc.lft.to/lastmile_qr_scan", "android": "https://dc.lft.to/lastmile_qr_scan"}, "lon": -77.04194366666667, "fusion_lon": 0.0, "is_disabled": 0, "lat": 38.905837, "bike_id": "0ee9fa627e537acb4907e1a3890c4c69", "name": "0ee9fa627e537acb4907e1a3890c4c69", "is_reserved": 0, "fusion_lat": 0.0}, {"type": "electric_scooter", "rental_uris": {"ios": "https://dc.lft.to/lastmile_qr_scan", "android": "https://dc.lft.to/lastmile_qr_scan"}, "lon": -77.044149, "fusion_lon": 0.0, "is_disabled": 0, "lat": 38.92598066666667, "bike_id": "06c20e45e05de987ef6f72278923d7a2", "name": "06c20e45e05de987ef6f72278923d7a2", "is_reserved": 0, "fusion_lat": 0.0}, {"type": "electric_scooter", "rental_uris": {"ios": "https://dc.lft.to/lastmile_qr_scan", "android": "https://dc.lft.to/lastmile_qr_scan"}, "lon": -77.0318985, "fusion_lon": 0.0, "is_disabled": 0, "lat": 38.919193666666665, "bike_id": "17580e4b9c70d284fd80774d1802e9f8", "name": "17580e4b9c70d284fd80774d1802e9f8", "is_reserved": 0, "fusion_lat": 0.0}, {"type": "electric_scooter", "rental_uris": {"ios": "https://dc.lft.to/lastmile_qr_scan", "android": "https://dc.lft.to/lastmile_qr_scan"}, "lon": -77.04575666666666, "fusion_lon": 0.0, "is_disabled": 0, "lat": 38.922432666666666, "bike_id": "fb14670600932e4583f653dc0f0d584e", "name": "fb14670600932e4583f653dc0f0d584e", "is_reserved": 0, "fusion_lat": 0.0}, {"type": "electric_scooter", "rental_uris": {"ios": "https://dc.lft.to/lastmile_qr_scan", "android": "https://dc.lft.to/lastmile_qr_scan"}, "lon": -76.97734283333334, "fusion_lon": 0.0, "is_disabled": 0, "lat": 38.87287333333333, "bike_id": "9e2366ced119a7a50ba7a0f6ebf064a4", "name": "9e2366ced119a7a50ba7a0f6ebf064a4", "is_reserved": 0, "fusion_lat": 0.0}, {"type": "electric_scooter", "rental_uris": {"ios": "https://dc.lft.to/lastmile_qr_scan", "android": "https://dc.lft.to/lastmile_qr_scan"}, "lon": -76.99411483333333, "fusion_lon": 0.0, "is_disabled": 0, "lat": 38.877945833333335, "bike_id": "1f2e3e0986c4cbae7856cdde4d86d3f0", "name": "1f2e3e0986c4cbae7856cdde4d86d3f0", "is_reserved": 0, "fusion_lat": 0.0}, {"type": "electric_bike", "rental_uris": {"ios": "https://dc.lft.to/lastmile_qr_scan", "android": "https://dc.lft.to/lastmile_qr_scan"}, "lon": -77.08809966666666, "fusion_lon": 0.0, "is_disabled": 0, "lat": 38.862382, "bike_id": "303e89202552fd76b3a7dc332ffe7eec", "name": "303e89202552fd76b3a7dc332ffe7eec", "is_reserved": 0, "fusion_lat": 0.0}, {"type": "electric_scooter", "rental_uris": {"ios": "https://dc.lft.to/lastmile_qr_scan", "android": "https://dc.lft.to/lastmile_qr_scan"}, "lon": -77.0359975, "fusion_lon": 0.0, "is_disabled": 0, "lat": 38.93298816666667, "bike_id": "52c00281e5cad593f2a1800f957cda7e", "name": "52c00281e5cad593f2a1800f957cda7e", "is_reserved": 0, "fusion_lat": 0.0}, {"type": "electric_bike", "rental_uris": {"ios": "https://dc.lft.to/lastmile_qr_scan", "android": "https://dc.lft.to/lastmile_qr_scan"}, "lon": -77.05011383333333, "fusion_lon": 0.0, "is_disabled": 0, "lat": 39.039031333333334, "bike_id": "66dc18eed951df6d93f8d47243e6408a", "name": "66dc18eed951df6d93f8d47243e6408a", "is_reserved": 0, "fusion_lat": 0.0}, {"type": "electric_scooter", "rental_uris": {"ios": "https://dc.lft.to/lastmile_qr_scan", "android": "https://dc.lft.to/lastmile_qr_scan"}, "lon": -77.0184325, "fusion_lon": 0.0, "is_disabled": 0, "lat": 38.90820466666667, "bike_id": "af00bbab42efd6de986c5dfdf92b7903", "name": "af00bbab42efd6de986c5dfdf92b7903", "is_reserved": 0, "fusion_lat": 0.0}, {"type": "electric_bike", "rental_uris": {"ios": "https://dc.lft.to/lastmile_qr_scan", "android": "https://dc.lft.to/lastmile_qr_scan"}, "lon": -76.987983, "fusion_lon": 0.0, "is_disabled": 0, "lat": 38.9220875, "bike_id": "0e481c72cd5e8e3f2f7ef66d32d3010c", "name": "0e481c72cd5e8e3f2f7ef66d32d3010c", "is_reserved": 0, "fusion_lat": 0.0}, {"type": "electric_scooter", "rental_uris": {"ios": "https://dc.lft.to/lastmile_qr_scan", "android": "https://dc.lft.to/lastmile_qr_scan"}, "lon": -77.0315545, "fusion_lon": 0.0, "is_disabled": 0, "lat": 38.91567, "bike_id": "1e431bbd9f4b4824381b37c30bfbfae4", "name": "1e431bbd9f4b4824381b37c30bfbfae4", "is_reserved": 0, "fusion_lat": 0.0}, {"type": "electric_scooter", "rental_uris": {"ios": "https://dc.lft.to/lastmile_qr_scan", "android": "https://dc.lft.to/lastmile_qr_scan"}, "lon": -77.02978416666667, "fusion_lon": 0.0, "is_disabled": 0, "lat": 38.91697833333333, "bike_id": "65f556b5367bde5963e67d2bd2e64509", "name": "65f556b5367bde5963e67d2bd2e64509", "is_reserved": 0, "fusion_lat": 0.0}, {"type": "electric_scooter", "rental_uris": {"ios": "https://dc.lft.to/lastmile_qr_scan", "android": "https://dc.lft.to/lastmile_qr_scan"}, "lon": -77.02278983333333, "fusion_lon": 0.0, "is_disabled": 0, "lat": 38.878435333333336, "bike_id": "da2057bb0f2993f3b4f90a7be2386b5a", "name": "da2057bb0f2993f3b4f90a7be2386b5a", "is_reserved": 0, "fusion_lat": 0.0}, {"type": "electric_scooter", "rental_uris": {"ios": "https://dc.lft.to/lastmile_qr_scan", "android": "https://dc.lft.to/lastmile_qr_scan"}, "lon": -77.03221683333334, "fusion_lon": 0.0, "is_disabled": 0, "lat": 38.892267833333335, "bike_id": "5250509df2c6ad0881fc131bcb8ff7f0", "name": "5250509df2c6ad0881fc131bcb8ff7f0", "is_reserved": 0, "fusion_lat": 0.0}, {"type": "electric_scooter", "rental_uris": {"ios": "https://dc.lft.to/lastmile_qr_scan", "android": "https://dc.lft.to/lastmile_qr_scan"}, "lon": -76.93736283333334, "fusion_lon": 0.0, "is_disabled": 0, "lat": 38.890183666666665, "bike_id": "2009830d3ef91b69db26052bf052bb0e", "name": "2009830d3ef91b69db26052bf052bb0e", "is_reserved": 0, "fusion_lat": 0.0}, {"type": "electric_scooter", "rental_uris": {"ios": "https://dc.lft.to/lastmile_qr_scan", "android": "https://dc.lft.to/lastmile_qr_scan"}, "lon": -77.02594683333334, "fusion_lon": 0.0, "is_disabled": 0, "lat": 38.942022333333334, "bike_id": "7d709a889c28cfb507f450a00d41da55", "name": "7d709a889c28cfb507f450a00d41da55", "is_reserved": 0, "fusion_lat": 0.0}, {"type": "electric_scooter", "rental_uris": {"ios": "https://dc.lft.to/lastmile_qr_scan", "android": "https://dc.lft.to/lastmile_qr_scan"}, "lon": -77.01374833333334, "fusion_lon": 0.0, "is_disabled": 0, "lat": 38.89219966666667, "bike_id": "2ad8f1204f8e0495cbd1c333c2841c7e", "name": "2ad8f1204f8e0495cbd1c333c2841c7e", "is_reserved": 0, "fusion_lat": 0.0}, {"type": "electric_scooter", "rental_uris": {"ios": "https://dc.lft.to/lastmile_qr_scan", "android": "https://dc.lft.to/lastmile_qr_scan"}, "lon": -77.0266955, "fusion_lon": 0.0, "is_disabled": 0, "lat": 38.917083, "bike_id": "ca1dbb8a610f4ae4e4c5aab611093d6e", "name": "ca1dbb8a610f4ae4e4c5aab611093d6e", "is_reserved": 0, "fusion_lat": 0.0}, {"type": "electric_scooter", "rental_uris": {"ios": "https://dc.lft.to/lastmile_qr_scan", "android": "https://dc.lft.to/lastmile_qr_scan"}, "lon": -77.009933, "fusion_lon": 0.0, "is_disabled": 0, "lat": 38.87285833333333, "bike_id": "b9429e11a09e94794a5f5607f7fde902", "name": "b9429e11a09e94794a5f5607f7fde902", "is_reserved": 0, "fusion_lat": 0.0}, {"type": "electric_scooter", "rental_uris": {"ios": "https://dc.lft.to/lastmile_qr_scan", "android": "https://dc.lft.to/lastmile_qr_scan"}, "lon": -77.03169533333333, "fusion_lon": 0.0, "is_disabled": 0, "lat": 38.897642, "bike_id": "17523160e7a9d3aa27ab6c4ddecf24a8", "name": "17523160e7a9d3aa27ab6c4ddecf24a8", "is_reserved": 0, "fusion_lat": 0.0}, {"type": "electric_scooter", "rental_uris": {"ios": "https://dc.lft.to/lastmile_qr_scan", "android": "https://dc.lft.to/lastmile_qr_scan"}, "lon": -77.036284, "fusion_lon": 0.0, "is_disabled": 0, "lat": 38.93682866666666, "bike_id": "f3d2daf116cf93128bb6431e41a9d555", "name": "f3d2daf116cf93128bb6431e41a9d555", "is_reserved": 0, "fusion_lat": 0.0}, {"type": "electric_scooter", "rental_uris": {"ios": "https://dc.lft.to/lastmile_qr_scan", "android": "https://dc.lft.to/lastmile_qr_scan"}, "lon": -77.041915, "fusion_lon": 0.0, "is_disabled": 0, "lat": 38.9205545, "bike_id": "0d27aaa7ea1cff6eca064e36158eab21", "name": "0d27aaa7ea1cff6eca064e36158eab21", "is_reserved": 0, "fusion_lat": 0.0}, {"type": "electric_scooter", "rental_uris": {"ios": "https://dc.lft.to/lastmile_qr_scan", "android": "https://dc.lft.to/lastmile_qr_scan"}, "lon": -77.0323275, "fusion_lon": 0.0, "is_disabled": 0, "lat": 38.929266, "bike_id": "68491e22b61642f4503ad0d963b9f240", "name": "68491e22b61642f4503ad0d963b9f240", "is_reserved": 0, "fusion_lat": 0.0}, {"type": "electric_scooter", "rental_uris": {"ios": "https://dc.lft.to/lastmile_qr_scan", "android": "https://dc.lft.to/lastmile_qr_scan"}, "lon": -77.02087033333333, "fusion_lon": 0.0, "is_disabled": 0, "lat": 38.931178, "bike_id": "dc63087fd924831c4a32bc342428612e", "name": "dc63087fd924831c4a32bc342428612e", "is_reserved": 0, "fusion_lat": 0.0}, {"type": "electric_scooter", "rental_uris": {"ios": "https://dc.lft.to/lastmile_qr_scan", "android": "https://dc.lft.to/lastmile_qr_scan"}, "lon": -77.03693933333334, "fusion_lon": 0.0, "is_disabled": 0, "lat": 38.916777833333335, "bike_id": "92db5e79bd0e2f1287a794f4fd25813c", "name": "92db5e79bd0e2f1287a794f4fd25813c", "is_reserved": 0, "fusion_lat": 0.0}, {"type": "electric_bike", "rental_uris": {"ios": "https://dc.lft.to/lastmile_qr_scan", "android": "https://dc.lft.to/lastmile_qr_scan"}, "lon": -77.05351266666666, "fusion_lon": 0.0, "is_disabled": 0, "lat": 38.9022965, "bike_id": "d99b4b9412815f6f03924ecea293b326", "name": "d99b4b9412815f6f03924ecea293b326", "is_reserved": 0, "fusion_lat": 0.0}, {"type": "electric_scooter", "rental_uris": {"ios": "https://dc.lft.to/lastmile_qr_scan", "android": "https://dc.lft.to/lastmile_qr_scan"}, "lon": -77.04245, "fusion_lon": 0.0, "is_disabled": 0, "lat": 38.922205, "bike_id": "3f74ab93aef05d9d7725875f04f571a3", "name": "3f74ab93aef05d9d7725875f04f571a3", "is_reserved": 0, "fusion_lat": 0.0}, {"type": "electric_scooter", "rental_uris": {"ios": "https://dc.lft.to/lastmile_qr_scan", "android": "https://dc.lft.to/lastmile_qr_scan"}, "lon": -77.0318945, "fusion_lon": 0.0, "is_disabled": 0, "lat": 38.91743183333333, "bike_id": "94f53467b8f1444d248c9ffeb8812867", "name": "94f53467b8f1444d248c9ffeb8812867", "is_reserved": 0, "fusion_lat": 0.0}, {"type": "electric_scooter", "rental_uris": {"ios": "https://dc.lft.to/lastmile_qr_scan", "android": "https://dc.lft.to/lastmile_qr_scan"}, "lon": -76.98730016666667, "fusion_lon": 0.0, "is_disabled": 0, "lat": 38.8671405, "bike_id": "aa6af98dc85a740cdd301d9f3ba1c452", "name": "aa6af98dc85a740cdd301d9f3ba1c452", "is_reserved": 0, "fusion_lat": 0.0}, {"type": "electric_bike", "rental_uris": {"ios": "https://dc.lft.to/lastmile_qr_scan", "android": "https://dc.lft.to/lastmile_qr_scan"}, "lon": -76.99018183333334, "fusion_lon": 0.0, "is_disabled": 0, "lat": 38.95478633333333, "bike_id": "58155d6382e7b1aa49c5ec3f23678399", "name": "58155d6382e7b1aa49c5ec3f23678399", "is_reserved": 0, "fusion_lat": 0.0}, {"type": "electric_bike", "rental_uris": {"ios": "https://dc.lft.to/lastmile_qr_scan", "android": "https://dc.lft.to/lastmile_qr_scan"}, "lon": -76.94792433333333, "fusion_lon": 0.0, "is_disabled": 0, "lat": 38.894006166666664, "bike_id": "ed81af7c77c1bce89058305927e36023", "name": "ed81af7c77c1bce89058305927e36023", "is_reserved": 0, "fusion_lat": 0.0}, {"type": "electric_scooter", "rental_uris": {"ios": "https://dc.lft.to/lastmile_qr_scan", "android": "https://dc.lft.to/lastmile_qr_scan"}, "lon": -76.98342766666667, "fusion_lon": 0.0, "is_disabled": 0, "lat": 38.9074525, "bike_id": "db28cfa429ff8838e4d790ec2a1e33be", "name": "db28cfa429ff8838e4d790ec2a1e33be", "is_reserved": 0, "fusion_lat": 0.0}, {"type": "electric_bike", "rental_uris": {"ios": "https://dc.lft.to/lastmile_qr_scan", "android": "https://dc.lft.to/lastmile_qr_scan"}, "lon": -77.0067295, "fusion_lon": 0.0, "is_disabled": 0, "lat": 38.945117, "bike_id": "68b035005eb4f2ba9593dfaeb1df85cc", "name": "68b035005eb4f2ba9593dfaeb1df85cc", "is_reserved": 0, "fusion_lat": 0.0}, {"type": "electric_scooter", "rental_uris": {"ios": "https://dc.lft.to/lastmile_qr_scan", "android": "https://dc.lft.to/lastmile_qr_scan"}, "lon": -77.04393166666667, "fusion_lon": 0.0, "is_disabled": 0, "lat": 38.91070466666667, "bike_id": "768ef81e23bde765c69945934304eee9", "name": "768ef81e23bde765c69945934304eee9", "is_reserved": 0, "fusion_lat": 0.0}, {"type": "electric_bike", "rental_uris": {"ios": "https://dc.lft.to/lastmile_qr_scan", "android": "https://dc.lft.to/lastmile_qr_scan"}, "lon": -76.96263033333334, "fusion_lon": 0.0, "is_disabled": 0, "lat": 38.882462833333335, "bike_id": "2536bf829075af2d4b50e979021114f0", "name": "2536bf829075af2d4b50e979021114f0", "is_reserved": 0, "fusion_lat": 0.0}, {"type": "electric_scooter", "rental_uris": {"ios": "https://dc.lft.to/lastmile_qr_scan", "android": "https://dc.lft.to/lastmile_qr_scan"}, "lon": -77.02967783333334, "fusion_lon": 0.0, "is_disabled": 0, "lat": 38.925894666666665, "bike_id": "b668ddbd97343485991d9fb4a08d45ae", "name": "b668ddbd97343485991d9fb4a08d45ae", "is_reserved": 0, "fusion_lat": 0.0}, {"type": "electric_scooter", "rental_uris": {"ios": "https://dc.lft.to/lastmile_qr_scan", "android": "https://dc.lft.to/lastmile_qr_scan"}, "lon": -77.0444805, "fusion_lon": 0.0, "is_disabled": 0, "lat": 38.912615833333334, "bike_id": "38d836adf7c9cd3588df21af2a2d664e", "name": "38d836adf7c9cd3588df21af2a2d664e", "is_reserved": 0, "fusion_lat": 0.0}, {"type": "electric_scooter", "rental_uris": {"ios": "https://dc.lft.to/lastmile_qr_scan", "android": "https://dc.lft.to/lastmile_qr_scan"}, "lon": -76.95415366666667, "fusion_lon": 0.0, "is_disabled": 0, "lat": 38.8906355, "bike_id": "56bfcf6648a6e4d48219ed54a2cce3a8", "name": "56bfcf6648a6e4d48219ed54a2cce3a8", "is_reserved": 0, "fusion_lat": 0.0}, {"type": "electric_scooter", "rental_uris": {"ios": "https://dc.lft.to/lastmile_qr_scan", "android": "https://dc.lft.to/lastmile_qr_scan"}, "lon": -77.00611433333333, "fusion_lon": 0.0, "is_disabled": 0, "lat": 38.871821, "bike_id": "8577188090c0a12f1eccc35aeb0e143c", "name": "8577188090c0a12f1eccc35aeb0e143c", "is_reserved": 0, "fusion_lat": 0.0}, {"type": "electric_scooter", "rental_uris": {"ios": "https://dc.lft.to/lastmile_qr_scan", "android": "https://dc.lft.to/lastmile_qr_scan"}, "lon": -77.03856466666667, "fusion_lon": 0.0, "is_disabled": 0, "lat": 38.86751983333333, "bike_id": "d77033c14c3ef428fca64564587bc012", "name": "d77033c14c3ef428fca64564587bc012", "is_reserved": 0, "fusion_lat": 0.0}, {"type": "electric_scooter", "rental_uris": {"ios": "https://dc.lft.to/lastmile_qr_scan", "android": "https://dc.lft.to/lastmile_qr_scan"}, "lon": -77.02598066666667, "fusion_lon": 0.0, "is_disabled": 0, "lat": 38.91693216666667, "bike_id": "d76840ddfa2de72cb4138c050cd4398f", "name": "d76840ddfa2de72cb4138c050cd4398f", "is_reserved": 0, "fusion_lat": 0.0}, {"type": "electric_bike", "rental_uris": {"ios": "https://dc.lft.to/lastmile_qr_scan", "android": "https://dc.lft.to/lastmile_qr_scan"}, "lon": -76.97837733333333, "fusion_lon": 0.0, "is_disabled": 0, "lat": 38.87079116666666, "bike_id": "c4bb01c95ddd450a0c97b9bbd91fe377", "name": "c4bb01c95ddd450a0c97b9bbd91fe377", "is_reserved": 0, "fusion_lat": 0.0}, {"type": "electric_scooter", "rental_uris": {"ios": "https://dc.lft.to/lastmile_qr_scan", "android": "https://dc.lft.to/lastmile_qr_scan"}, "lon": -77.02229783333334, "fusion_lon": 0.0, "is_disabled": 0, "lat": 38.91264483333333, "bike_id": "470b180496a092c66476d9c93c71ed85", "name": "470b180496a092c66476d9c93c71ed85", "is_reserved": 0, "fusion_lat": 0.0}, {"type": "electric_scooter", "rental_uris": {"ios": "https://dc.lft.to/lastmile_qr_scan", "android": "https://dc.lft.to/lastmile_qr_scan"}, "lon": -77.03430383333334, "fusion_lon": 0.0, "is_disabled": 0, "lat": 38.90737466666667, "bike_id": "dd44596b9b59e98566df215fa11fe96e", "name": "dd44596b9b59e98566df215fa11fe96e", "is_reserved": 0, "fusion_lat": 0.0}, {"type": "electric_scooter", "rental_uris": {"ios": "https://dc.lft.to/lastmile_qr_scan", "android": "https://dc.lft.to/lastmile_qr_scan"}, "lon": -77.00609766666666, "fusion_lon": 0.0, "is_disabled": 0, "lat": 38.9056565, "bike_id": "47ab10af346ba03014df2a0f38c4c38e", "name": "47ab10af346ba03014df2a0f38c4c38e", "is_reserved": 0, "fusion_lat": 0.0},