{"data": {"bikes": [{"is_disabled": 0, "fusion_lon": 0.0, "fusion_lat": 0.0, "lat": 38.91424816666667, "type": "electric_scooter", "lon": -77.034672, "bike_id": "145dde44bae3b82a7465394b97098008", "rental_uris": {"android": "https://dc.lft.to/lastmile_qr_scan", "ios": "https://dc.lft.to/lastmile_qr_scan"}, "name": "145dde44bae3b82a7465394b97098008", "is_reserved": 0}, {"is_disabled": 0, "fusion_lon": 0.0, "fusion_lat": 0.0, "lat": 38.9204085, "type": "electric_scooter", "lon": -77.0339425, "bike_id": "bd9f68b5ff686ac9c4a5b58a7bbb7a05", "rental_uris": {"android": "https://dc.lft.to/lastmile_qr_scan", "ios": "https://dc.lft.to/lastmile_qr_scan"}, "name": "bd9f68b5ff686ac9c4a5b58a7bbb7a05", "is_reserved": 0}, {"is_disabled": 0, "fusion_lon": 0.0, "fusion_lat": 0.0, "lat": 38.941779, "type": "electric_scooter", "lon": -77.02389233333334, "bike_id": "736ac43f654e3b48e6d6e7219e977a41", "rental_uris": {"android": "https://dc.lft.to/lastmile_qr_scan", "ios": "https://dc.lft.to/lastmile_qr_scan"}, "name": "736ac43f654e3b48e6d6e7219e977a41", "is_reserved": 0}, {"is_disabled": 0, "fusion_lon": 0.0, "fusion_lat": 0.0, "lat": 38.900925666666666, "type": "electric_scooter", "lon": -76.98838066666667, "bike_id": "5a5f421c689acf90a585feff8324ed44", "rental_uris": {"android": "https://dc.lft.to/lastmile_qr_scan", "ios": "https://dc.lft.to/lastmile_qr_scan"}, "name": "5a5f421c689acf90a585feff8324ed44", "is_reserved": 0}, {"is_disabled": 0, "fusion_lon": 0.0, "fusion_lat": 0.0, "lat": 38.833774166666664, "type": "electric_scooter", "lon": -76.99307400000001, "bike_id": "e6278f9490dc83dec339a22ef1ca74e6", "rental_uris": {"android": "https://dc.lft.to/lastmile_qr_scan", "ios": "https://dc.lft.to/lastmile_qr_scan"}, "name": "e6278f9490dc83dec339a22ef1ca74e6", "is_reserved": 0}, {"is_disabled": 0, "fusion_lon": 0.0, "fusion_lat": 0.0, "lat": 38.902468166666665, "type": "electric_scooter", "lon": -77.03330766666667, "bike_id": "28812e1643a2b863c1b8669390674300", "rental_uris": {"android": "https://dc.lft.to/lastmile_qr_scan", "ios": "https://dc.lft.to/lastmile_qr_scan"}, "name": "28812e1643a2b863c1b8669390674300", "is_reserved": 0}, {"is_disabled": 0, "fusion_lon": 0.0, "fusion_lat": 0.0, "lat": 38.91901633333333, "type": "electric_scooter", "lon": -77.01759566666667, "bike_id": "158f658e27007c53da8be97c4400adc3", "rental_uris": {"android": "https://dc.lft.to/lastmile_qr_scan", "ios": "https://dc.lft.to/lastmile_qr_scan"}, "name": "158f658e27007c53da8be97c4400adc3", "is_reserved": 0}, {"is_disabled": 0, "fusion_lon": 0.0, "fusion_lat": 0.0, "lat": 38.91555566666667, "type": "electric_scooter", "lon": -77.03148366666667, "bike_id": "63566ecaac48793a2e689f0ceb19abf4", "rental_uris": {"android": "https://dc.lft.to/lastmile_qr_scan", "ios": "https://dc.lft.to/lastmile_qr_scan"}, "name": "63566ecaac48793a2e689f0ceb19abf4", "is_reserved": 0}, {"is_disabled": 0, "fusion_lon": 0.0, "fusion_lat": 0.0, "lat": 38.916207, "type": "electric_scooter", "lon": -77.04863583333334, "bike_id": "ec1f9963a35b7a949fd45b10fb91c0ad", "rental_uris": {"android": "https://dc.lft.to/lastmile_qr_scan", "ios": "https://dc.lft.to/lastmile_qr_scan"}, "name": "ec1f9963a35b7a949fd45b10fb91c0ad", "is_reserved": 0}, {"is_disabled": 0, "fusion_lon": 0.0, "fusion_lat": 0.0, "lat": 38.91684566666667, "type": "electric_scooter", "lon": -77.0161025, "bike_id": "3d1fcb76bb027144a1c2c72097adfc7c", "rental_uris": {"android": "https://dc.lft.to/lastmile_qr_scan", "ios": "https://dc.lft.to/lastmile_qr_scan"}, "name": "3d1fcb76bb027144a1c2c72097adfc7c", "is_reserved": 0}, {"is_disabled": 0, "fusion_lon": 0.0, "fusion_lat": 0.0, "lat": 38.942673, "type": "electric_scooter", "lon": -77.03257316666667, "bike_id": "ffe647f0213b72c89b5c52ea187f2291", "rental_uris": {"android": "https://dc.lft.to/lastmile_qr_scan", "ios": "https://dc.lft.to/lastmile_qr_scan"}, "name": "ffe647f0213b72c89b5c52ea187f2291", "is_reserved": 0}, {"is_disabled": 0, "fusion_lon": 0.0, "fusion_lat": 0.0, "lat": 38.92992066666667, "type": "electric_scooter", "lon": -77.03222166666667, "bike_id": "742d32c0edb1a68742c33b44be0c356b", "rental_uris": {"android": "https://dc.lft.to/lastmile_qr_scan", "ios": "https://dc.lft.to/lastmile_qr_scan"}, "name": "742d32c0edb1a68742c33b44be0c356b", "is_reserved": 0}, {"is_disabled": 0, "fusion_lon": 0.0, "fusion_lat": 0.0, "lat": 38.84292633333333, "type": "electric_scooter", "lon": -76.9994455, "bike_id": "97938171dd6278812c0cfbd293fa13e8", "rental_uris": {"android": "https://dc.lft.to/lastmile_qr_scan", "ios": "https://dc.lft.to/lastmile_qr_scan"}, "name": "97938171dd6278812c0cfbd293fa13e8", "is_reserved": 0}, {"is_disabled": 0, "fusion_lon": 0.0, "fusion_lat": 0.0, "lat": 38.92019366666667, "type": "electric_scooter", "lon": -77.03122733333333, "bike_id": "b328d465e02b7803064bab85fa73ba86", "rental_uris": {"android": "https://dc.lft.to/lastmile_qr_scan", "ios": "https://dc.lft.to/lastmile_qr_scan"}, "name": "b328d465e02b7803064bab85fa73ba86", "is_reserved": 0}, {"is_disabled": 0, "fusion_lon": 0.0, "fusion_lat": 0.0, "lat": 38.88745633333333, "type": "electric_scooter", "lon": -77.01602183333334, "bike_id": "70bf6a243059d4244e96f727ef583955", "rental_uris": {"android": "https://dc.lft.to/lastmile_qr_scan", "ios": "https://dc.lft.to/lastmile_qr_scan"}, "name": "70bf6a243059d4244e96f727ef583955", "is_reserved": 0}, {"is_disabled": 0, "fusion_lon": 0.0, "fusion_lat": 0.0, "lat": 38.89949716666667, "type": "electric_scooter", "lon": -77.05199083333333, "bike_id": "1478bb7ca0419bf3237942821601289f", "rental_uris": {"android": "https://dc.lft.to/lastmile_qr_scan", "ios": "https://dc.lft.to/lastmile_qr_scan"}, "name": "1478bb7ca0419bf3237942821601289f", "is_reserved": 0}, {"is_disabled": 0, "fusion_lon": 0.0, "fusion_lat": 0.0, "lat": 38.940467, "type": "electric_scooter", "lon": -77.024932, "bike_id": "718d23923831380c0d7479eab5f7388c", "rental_uris": {"android": "https://dc.lft.to/lastmile_qr_scan", "ios": "https://dc.lft.to/lastmile_qr_scan"}, "name": "718d23923831380c0d7479eab5f7388c", "is_reserved": 0}, {"is_disabled": 0, "fusion_lon": 0.0, "fusion_lat": 0.0, "lat": 38.899089333333336, "type": "electric_scooter", "lon": -76.93389933333333, "bike_id": "df53ee202c5a61f12c97867d93c60cd1", "rental_uris": {"android": "https://dc.lft.to/lastmile_qr_scan", "ios": "https://dc.lft.to/lastmile_qr_scan"}, "name": "df53ee202c5a61f12c97867d93c60cd1", "is_reserved": 0}, {"is_disabled": 0, "fusion_lon": 0.0, "fusion_lat": 0.0, "lat": 38.9341305, "type": "electric_bike", "lon": -77.02507766666666, "bike_id": "84080ce87ca79f1b72e188a33f9c9760", "rental_uris": {"android": "https://dc.lft.to/lastmile_qr_scan", "ios": "https://dc.lft.to/lastmile_qr_scan"}, "name": "84080ce87ca79f1b72e188a33f9c9760", "is_reserved": 0}, {"is_disabled": 0, "fusion_lon": 0.0, "fusion_lat": 0.0, "lat": 38.9644745, "type": "electric_bike", "lon": -76.97725983333333, "bike_id": "799779fd45f56fc2873ea995b77cf602", "rental_uris": {"android": "https://dc.lft.to/lastmile_qr_scan", "ios": "https://dc.lft.to/lastmile_qr_scan"}, "name": "799779fd45f56fc2873ea995b77cf602", "is_reserved": 0}, {"is_disabled": 0, "fusion_lon": 0.0, "fusion_lat": 0.0, "lat": 38.911857166666664, "type": "electric_scooter", "lon": -77.01088483333334, "bike_id": "43f887b5ddf035534ebd084a9d82f471", "rental_uris": {"android": "https://dc.lft.to/lastmile_qr_scan", "ios": "https://dc.lft.to/lastmile_qr_scan"}, "name": "43f887b5ddf035534ebd084a9d82f471", "is_reserved": 0}, {"is_disabled": 0, "fusion_lon": 0.0, "fusion_lat": 0.0, "lat": 38.86592533333334, "type": "electric_bike", "lon": -76.9744595, "bike_id": "082f8bfd5c552158e2553e62cdb638b8", "rental_uris": {"android": "https://dc.lft.to/lastmile_qr_scan", "ios": "https://dc.lft.to/lastmile_qr_scan"}, "name": "082f8bfd5c552158e2553e62cdb638b8", "is_reserved": 0}, {"is_disabled": 0, "fusion_lon": 0.0, "fusion_lat": 0.0, "lat": 39.0299885, "type": "electric_bike", "lon": -77.106508, "bike_id": "e08eb0509cf72f0e99d5bc0ea15dd0f3", "rental_uris": {"android": "https://dc.lft.to/lastmile_qr_scan", "ios": "https://dc.lft.to/lastmile_qr_scan"}, "name": "e08eb0509cf72f0e99d5bc0ea15dd0f3", "is_reserved": 0}, {"is_disabled": 0, "fusion_lon": 0.0, "fusion_lat": 0.0, "lat": 38.858476, "type": "electric_bike", "lon": -77.09747133333333, "bike_id": "80b1c093c305d6161e1be6816b328e87", "rental_uris": {"android": "https://dc.lft.to/lastmile_qr_scan", "ios": "https://dc.lft.to/lastmile_qr_scan"}, "name": "80b1c093c305d6161e1be6816b328e87", "is_reserved": 0}, {"is_disabled": 0, "fusion_lon": 0.0, "fusion_lat": 0.0, "lat": 38.9412755, "type": "electric_scooter", "lon": -77.018175, "bike_id": "ddbacc62f8e1597147bb19686e60ae50", "rental_uris": {"android": "https://dc.lft.to/lastmile_qr_scan", "ios": "https://dc.lft.to/lastmile_qr_scan"}, "name": "ddbacc62f8e1597147bb19686e60ae50", "is_reserved": 0}, {"is_disabled": 0, "fusion_lon": 0.0, "fusion_lat": 0.0, "lat": 38.89472266666667, "type": "electric_scooter", "lon": -76.93302666666666, "bike_id": "86e029611ee54e612a150926a4c45d18", "rental_uris": {"android": "https://dc.lft.to/lastmile_qr_scan", "ios": "https://dc.lft.to/lastmile_qr_scan"}, "name": "86e029611ee54e612a150926a4c45d18", "is_reserved": 0}, {"is_disabled": 0, "fusion_lon": 0.0, "fusion_lat": 0.0, "lat": 38.90028566666667, "type": "electric_scooter", "lon": -76.99546416666666, "bike_id": "24c721885460eb44074ce58e53bebd22", "rental_uris": {"android": "https://dc.lft.to/lastmile_qr_scan", "ios": "https://dc.lft.to/lastmile_qr_scan"}, "name": "24c721885460eb44074ce58e53bebd22", "is_reserved": 0}, {"is_disabled": 0, "fusion_lon": 0.0, "fusion_lat": 0.0, "lat": 38.908226166666665, "type": "electric_scooter", "lon": -77.04176383333333, "bike_id": "58be1dc700dd89bb767fd63120f3b58c", "rental_uris": {"android": "https://dc.lft.to/lastmile_qr_scan", "ios": "https://dc.lft.to/lastmile_qr_scan"}, "name": "58be1dc700dd89bb767fd63120f3b58c", "is_reserved": 0}, {"is_disabled": 0, "fusion_lon": 0.0, "fusion_lat": 0.0, "lat": 38.896296, "type": "electric_scooter", "lon": -77.029154, "bike_id": "73258fb88b193db059e4839eb4da4d4c", "rental_uris": {"android": "https://dc.lft.to/lastmile_qr_scan", "ios": "https://dc.lft.to/lastmile_qr_scan"}, "name": "73258fb88b193db059e4839eb4da4d4c", "is_reserved": 0}, {"is_disabled": 0, "fusion_lon": 0.0, "fusion_lat": 0.0, "lat": 38.9511555, "type": "electric_scooter", "lon": -77.02788316666667, "bike_id": "702888ad8664efaee763c575e58f9be8", "rental_uris": {"android": "https://dc.lft.to/lastmile_qr_scan", "ios": "https://dc.lft.to/lastmile_qr_scan"}, "name": "702888ad8664efaee763c575e58f9be8", "is_reserved": 0}, {"is_disabled": 0, "fusion_lon": 0.0, "fusion_lat": 0.0, "lat": 38.90500016666667, "type": "electric_scooter", "lon": -77.029514, "bike_id": "d2b916e4547db120588f239540962389", "rental_uris": {"android": "https://dc.lft.to/lastmile_qr_scan", "ios": "https://dc.lft.to/lastmile_qr_scan"}, "name": "d2b916e4547db120588f239540962389", "is_reserved": 0}, {"is_disabled": 0, "fusion_lon": 0.0, "fusion_lat": 0.0, "lat": 38.920971333333334, "type": "electric_scooter", "lon": -77.03047433333333, "bike_id": "009b249c4fce46de3baa5ab241a863f4", "rental_uris": {"android": "https://dc.lft.to/lastmile_qr_scan", "ios": "https://dc.lft.to/lastmile_qr_scan"}, "name": "009b249c4fce46de3baa5ab241a863f4", "is_reserved": 0}, {"is_disabled": 0, "fusion_lon": 0.0, "fusion_lat": 0.0, "lat": 38.9287705, "type": "electric_scooter", "lon": -77.041244, "bike_id": "b842840f1d34eda6d75f70ecea572e48", "rental_uris": {"android": "https://dc.lft.to/lastmile_qr_scan", "ios": "https://dc.lft.to/lastmile_qr_scan"}, "name": "b842840f1d34eda6d75f70ecea572e48", "is_reserved": 0}, {"is_disabled": 0, "fusion_lon": 0.0, "fusion_lat": 0.0, "lat": 38.897286, "type": "electric_scooter", "lon": -77.0092865, "bike_id": "a6d282c56aecc5f651d96901bcd76433", "rental_uris": {"android": "https://dc.lft.to/lastmile_qr_scan", "ios": "https://dc.lft.to/lastmile_qr_scan"}, "name": "a6d282c56aecc5f651d96901bcd76433", "is_reserved": 0}, {"is_disabled": 0, "fusion_lon": 0.0, "fusion_lat": 0.0, "lat": 38.890008, "type": "electric_scooter", "lon": -77.0490045, "bike_id": "ceccf3a5601d8bb60f19ed9aa76d6f40", "rental_uris": {"android": "https://dc.lft.to/lastmile_qr_scan", "ios": "https://dc.lft.to/lastmile_qr_scan"}, "name": "ceccf3a5601d8bb60f19ed9aa76d6f40", "is_reserved": 0}, {"is_disabled": 0, "fusion_lon": 0.0, "fusion_lat": 0.0, "lat": 38.93121583333333, "type": "electric_scooter", "lon": -77.019857, "bike_id": "83bd643f0950bd79c6808ad664cff2df", "rental_uris": {"android": "https://dc.lft.to/lastmile_qr_scan", "ios": "https://dc.lft.to/lastmile_qr_scan"}, "name": "83bd643f0950bd79c6808ad664cff2df", "is_reserved": 0}, {"is_disabled": 0, "fusion_lon": 0.0, "fusion_lat": 0.0, "lat": 38.860572166666664, "type": "electric_scooter", "lon": -76.98510366666666, "bike_id": "5afd428c05675319722b28943cb92d96", "rental_uris": {"android": "https://dc.lft.to/lastmile_qr_scan", "ios": "https://dc.lft.to/lastmile_qr_scan"}, "name": "5afd428c05675319722b28943cb92d96", "is_reserved": 0}, {"is_disabled": 0, "fusion_lon": 0.0, "fusion_lat": 0.0, "lat": 38.949792, "type": "electric_scooter", "lon": -77.06761083333333, "bike_id": "27532703e97d8254453ebafa061aaeef", "rental_uris": {"android": "https://dc.lft.to/lastmile_qr_scan", "ios": "https://dc.lft.to/lastmile_qr_scan"}, "name": "27532703e97d8254453ebafa061aaeef", "is_reserved": 0}, {"is_disabled": 0, "fusion_lon": 0.0, "fusion_lat": 0.0, "lat": 38.933242, "type": "electric_scooter", "lon": -77.0293365, "bike_id": "f6da4d78da4bd17bfc69c3905ac22d7f", "rental_uris": {"android": "https://dc.lft.to/lastmile_qr_scan", "ios": "https://dc.lft.to/lastmile_qr_scan"}, "name": "f6da4d78da4bd17bfc69c3905ac22d7f", "is_reserved": 0}, {"is_disabled": 0, "fusion_lon": 0.0, "fusion_lat": 0.0, "lat": 38.96829733333333, "type": "electric_scooter", "lon": -77.015062, "bike_id": "454efebcb97bd825c9799392bddc2911", "rental_uris": {"android": "https://dc.lft.to/lastmile_qr_scan", "ios": "https://dc.lft.to/lastmile_qr_scan"}, "name": "454efebcb97bd825c9799392bddc2911", "is_reserved": 0}, {"is_disabled": 0, "fusion_lon": 0.0, "fusion_lat": 0.0, "lat": 38.897172833333336, "type": "electric_scooter", "lon": -77.02763583333333, "bike_id": "b7ddf266fa23ef47adb6ad3bea83a0a6", "rental_uris": {"android": "https://dc.lft.to/lastmile_qr_scan", "ios": "https://dc.lft.to/lastmile_qr_scan"}, "name": "b7ddf266fa23ef47adb6ad3bea83a0a6", "is_reserved": 0}, {"is_disabled": 0, "fusion_lon": 0.0, "fusion_lat": 0.0, "lat": 39.000021833333335, "type": "electric_bike", "lon": -76.9180545, "bike_id": "7dbeef6785bffbb0a82fe4a9d8bf99f5", "rental_uris": {"android": "https://dc.lft.to/lastmile_qr_scan", "ios": "https://dc.lft.to/lastmile_qr_scan"}, "name": "7dbeef6785bffbb0a82fe4a9d8bf99f5", "is_reserved": 0}, {"is_disabled": 0, "fusion_lon": 0.0, "fusion_lat": 0.0, "lat": 38.924052, "type": "electric_scooter", "lon": -77.05163633333333, "bike_id": "6a4002cf4d276645cbf306642692645b", "rental_uris": {"android": "https://dc.lft.to/lastmile_qr_scan", "ios": "https://dc.lft.to/lastmile_qr_scan"}, "name": "6a4002cf4d276645cbf306642692645b", "is_reserved": 0}, {"is_disabled": 0, "fusion_lon": 0.0, "fusion_lat": 0.0, "lat": 38.935288666666665, "type": "electric_scooter", "lon": -77.02069783333333, "bike_id": "f85ca83096348ffd8821db509b1c0836", "rental_uris": {"android": "https://dc.lft.to/lastmile_qr_scan", "ios": "https://dc.lft.to/lastmile_qr_scan"}, "name": "f85ca83096348ffd8821db509b1c0836", "is_reserved": 0}, {"is_disabled": 0, "fusion_lon": 0.0, "fusion_lat": 0.0, "lat": 38.9191775, "type": "electric_scooter", "lon": -77.02403666666666, "bike_id": "ebf2b7dbae751283d5b08ee5aa96ae64", "rental_uris": {"android": "https://dc.lft.to/lastmile_qr_scan", "ios": "https://dc.lft.to/lastmile_qr_scan"}, "name": "ebf2b7dbae751283d5b08ee5aa96ae64", "is_reserved": 0}, {"is_disabled": 0, "fusion_lon": 0.0, "fusion_lat": 0.0, "lat": 38.92452083333333, "type": "electric_scooter", "lon": -76.99904266666667, "bike_id": "ce018421f381a8d87aa7502cf04d28e6", "rental_uris": {"android": "https://dc.lft.to/lastmile_qr_scan", "ios": "https://dc.lft.to/lastmile_qr_scan"}, "name": "ce018421f381a8d87aa7502cf04d28e6", "is_reserved": 0}, {"is_disabled": 0, "fusion_lon": 0.0, "fusion_lat": 0.0, "lat": 38.941961666666664, "type": "electric_scooter", "lon": -77.02572283333333, "bike_id": "53204311214a8f54c6947bd9c612deaa", "rental_uris": {"android": "https://dc.lft.to/lastmile_qr_scan", "ios": "https://dc.lft.to/lastmile_qr_scan"}, "name": "53204311214a8f54c6947bd9c612deaa", "is_reserved": 0}, {"is_disabled": 0, "fusion_lon": 0.0, "fusion_lat": 0.0, "lat": 38.9083925, "type": "electric_scooter", "lon": -77.02693616666667, "bike_id": "0b079917c3fda569481019ba3be023d8", "rental_uris": {"android": "https://dc.lft.to/lastmile_qr_scan", "ios": "https://dc.lft.to/lastmile_qr_scan"}, "name": "0b079917c3fda569481019ba3be023d8", "is_reserved": 0}, {"is_disabled": 0, "fusion_lon": 0.0, "fusion_lat": 0.0, "lat": 38.9027495, "type": "electric_scooter", "lon": -77.03435933333333, "bike_id": "af05f2e8dd887f7ff0b1e4c2968279ad", "rental_uris": {"android": "https://dc.lft.to/lastmile_qr_scan", "ios": "https://dc.lft.to/lastmile_qr_scan"}, "name": "af05f2e8dd887f7ff0b1e4c2968279ad", "is_reserved": 0}, {"is_disabled": 0, "fusion_lon": 0.0, "fusion_lat": 0.0, "lat": 38.924582666666666, "type": "electric_scooter", "lon": -77.0296365, "bike_id": "9afef46d81794aae392f21d302d46307", "rental_uris": {"android": "https://dc.lft.to/lastmile_qr_scan", "ios": "https://dc.lft.to/lastmile_qr_scan"}, "name": "9afef46d81794aae392f21d302d46307", "is_reserved": 0}, {"is_disabled": 0, "fusion_lon": 0.0, "fusion_lat": 0.0, "lat": 38.916905, "type": "electric_scooter", "lon": -77.03476016666667, "bike_id": "6e58d8a97638b84b8c020f879b3f5016", "rental_uris": {"android": "https://dc.lft.to/lastmile_qr_scan", "ios": "https://dc.lft.to/lastmile_qr_scan"}, "name": "6e58d8a97638b84b8c020f879b3f5016", "is_reserved": 0}, {"is_disabled": 0, "fusion_lon": 0.0, "fusion_lat": 0.0, "lat": 38.9462435, "type": "electric_bike", "lon": -76.93410266666666, "bike_id": "f6d24ed6aea4035f7c17aab91c32d723", "rental_uris": {"android": "https://dc.lft.to/lastmile_qr_scan", "ios": "https://dc.lft.to/lastmile_qr_scan"}, "name": "f6d24ed6aea4035f7c17aab91c32d723", "is_reserved": 0}, {"is_disabled": 0, "fusion_lon": 0.0, "fusion_lat": 0.0, "lat": 38.881225, "type": "electric_bike", "lon": -77.016669, "bike_id": "c404f7153eeeaa3d5cbc52b460c39f60", "rental_uris": {"android": "https://dc.lft.to/lastmile_qr_scan", "ios": "https://dc.lft.to/lastmile_qr_scan"}, "name": "c404f7153eeeaa3d5cbc52b460c39f60", "is_reserved": 0}, {"is_disabled": 0, "fusion_lon": 0.0, "fusion_lat": 0.0, "lat": 38.903882333333335, "type": "electric_scooter", "lon": -76.990032, "bike_id": "4eeafec2c2b9b3178e511cdf82ce0e0a", "rental_uris": {"android": "https://dc.lft.to/lastmile_qr_scan", "ios": "https://dc.lft.to/lastmile_qr_scan"}, "name": "4eeafec2c2b9b3178e511cdf82ce0e0a", "is_reserved": 0}, {"is_disabled": 0, "fusion_lon": 0.0, "fusion_lat": 0.0, "lat": 38.95178766666667, "type": "electric_scooter", "lon": -77.02609683333333, "bike_id": "b507d244f3b0f62ac014e0f885fac74b", "rental_uris": {"android": "https://dc.lft.to/lastmile_qr_scan", "ios": "https://dc.lft.to/lastmile_qr_scan"}, "name": "b507d244f3b0f62ac014e0f885fac74b", "is_reserved": 0}, {"is_disabled": 0, "fusion_lon": 0.0, "fusion_lat": 0.0, "lat": 38.92798033333333, "type": "electric_scooter", "lon": -77.03631716666666, "bike_id": "35ae65ac7fdc96828c2116b26fd38a12", "rental_uris": {"android": "https://dc.lft.to/lastmile_qr_scan", "ios": "https://dc.lft.to/lastmile_qr_scan"}, "name": "35ae65ac7fdc96828c2116b26fd38a12", "is_reserved": 0}, {"is_disabled": 0, "fusion_lon": 0.0, "fusion_lat": 0.0, "lat": 38.86957783333333, "type": "electric_scooter", "lon": -76.97594266666667, "bike_id": "69c298710e1f0c0474b4eba0d8d81af1", "rental_uris": {"android": "https://dc.lft.to/lastmile_qr_scan", "ios": "https://dc.lft.to/lastmile_qr_scan"}, "name": "69c298710e1f0c0474b4eba0d8d81af1", "is_reserved": 0}, {"is_disabled": 0, "fusion_lon": 0.0, "fusion_lat": 0.0, "lat": 38.8982385, "type": "electric_scooter", "lon": -76.946549, "bike_id": "48ab30d2b212a4df163f83d205bd100b", "rental_uris": {"android": "https://dc.lft.to/lastmile_qr_scan", "ios": "https://dc.lft.to/lastmile_qr_scan"}, "name": "48ab30d2b212a4df163f83d205bd100b", "is_reserved": 0}, {"is_disabled": 0, "fusion_lon": 0.0, "fusion_lat": 0.0, "lat": 38.91697416666667, "type": "electric_scooter", "lon": -77.033197, "bike_id": "c00f4bcb95aca47ba6cece437ddbcebb", "rental_uris": {"android": "https://dc.lft.to/lastmile_qr_scan", "ios": "https://dc.lft.to/lastmile_qr_scan"}, "name": "c00f4bcb95aca47ba6cece437ddbcebb", "is_reserved": 0}, {"is_disabled": 0, "fusion_lon": 0.0, "fusion_lat": 0.0, "lat": 38.893666333333336, "type": "electric_scooter", "lon": -77.02263966666666, "bike_id": "9efc556fcb784bb719be2aabe8b5ee36", "rental_uris": {"android": "https://dc.lft.to/lastmile_qr_scan", "ios": "https://dc.lft.to/lastmile_qr_scan"}, "name": "9efc556fcb784bb719be2aabe8b5ee36", "is_reserved": 0}, {"is_disabled": 0, "fusion_lon": 0.0, "fusion_lat": 0.0, "lat": 38.998923, "type": "electric_bike", "lon": -77.02866483333334, "bike_id": "82024165ff533c9da5e17a00c7fd6619", "rental_uris": {"android": "https://dc.lft.to/lastmile_qr_scan", "ios": "https://dc.lft.to/lastmile_qr_scan"}, "name": "82024165ff533c9da5e17a00c7fd6619", "is_reserved": 0}, {"is_disabled": 0, "fusion_lon": 0.0, "fusion_lat": 0.0, "lat": 38.919617333333335, "type": "electric_scooter", "lon": -77.02395066666666, "bike_id": "0ebab0eba4cceb1183d17479eddc622d", "rental_uris": {"android": "https://dc.lft.to/lastmile_qr_scan", "ios": "https://dc.lft.to/lastmile_qr_scan"}, "name": "0ebab0eba4cceb1183d17479eddc622d", "is_reserved": 0}, {"is_disabled": 0, "fusion_lon": 0.0, "fusion_lat": 0.0, "lat": 38.85806483333333, "type": "electric_scooter", "lon": -76.9865345, "bike_id": "50116699db1ee8130354436e2940971a", "rental_uris": {"android": "https://dc.lft.to/lastmile_qr_scan", "ios": "https://dc.lft.to/lastmile_qr_scan"}, "name": "50116699db1ee8130354436e2940971a", "is_reserved": 0}, {"is_disabled": 0, "fusion_lon": 0.0, "fusion_lat": 0.0, "lat": 38.915797, "type": "electric_scooter", "lon": -76.9811055, "bike_id": "30012d6d56c250aa578003fd9958bfc7", "rental_uris": {"android": "https://dc.lft.to/lastmile_qr_scan", "ios": "https://dc.lft.to/lastmile_qr_scan"}, "name": "30012d6d56c250aa578003fd9958bfc7", "is_reserved": 0}, {"is_disabled": 0, "fusion_lon": 0.0, "fusion_lat": 0.0, "lat": 38.845971666666664, "type": "electric_bike", "lon": -76.96877916666666, "bike_id": "60ae26cc32539f9739a35785d77e8a84", "rental_uris": {"android": "https://dc.lft.to/lastmile_qr_scan", "ios": "https://dc.lft.to/lastmile_qr_scan"}, "name": "60ae26cc32539f9739a35785d77e8a84", "is_reserved": 0}, {"is_disabled": 0, "fusion_lon": 0.0, "fusion_lat": 0.0, "lat": 38.928575, "type": "electric_scooter", "lon": -77.01417333333333, "bike_id": "bafd08a0de42648f626aa003fdedbc9f", "rental_uris": {"android": "https://dc.lft.to/lastmile_qr_scan", "ios": "https://dc.lft.to/lastmile_qr_scan"}, "name": "bafd08a0de42648f626aa003fdedbc9f", "is_reserved": 0}, {"is_disabled": 0, "fusion_lon": 0.0, "fusion_lat": 0.0, "lat": 38.96755433333333, "type": "electric_bike", "lon": -77.0915725, "bike_id": "d0b9e1c2dcbc095215180b83b716d050", "rental_uris": {"android": "https://dc.lft.to/lastmile_qr_scan", "ios": "https://dc.lft.to/lastmile_qr_scan"}, "name": "d0b9e1c2dcbc095215180b83b716d050", "is_reserved": 0}, {"is_disabled": 0, "fusion_lon": 0.0, "fusion_lat": 0.0, "lat": 38.924799166666666, "type": "electric_scooter", "lon": -77.034841, "bike_id": "a1309f97f7b7e7d71c3b7e60eca4ef89", "rental_uris": {"android": "https://dc.lft.to/lastmile_qr_scan", "ios": "https://dc.lft.to/lastmile_qr_scan"}, "name": "a1309f97f7b7e7d71c3b7e60eca4ef89", "is_reserved": 0}, {"is_disabled": 0, "fusion_lon": 0.0, "fusion_lat": 0.0, "lat": 38.863110166666665, "type": "electric_scooter", "lon": -76.99028716666666, "bike_id": "c9906e1d9c4d74e51374bd5fe7e795e1", "rental_uris": {"android": "https://dc.lft.to/lastmile_qr_scan", "ios": "https://dc.lft.to/lastmile_qr_scan"}, "name": "c9906e1d9c4d74e51374bd5fe7e795e1", "is_reserved": 0}, {"is_disabled": 0, "fusion_lon": 0.0, "fusion_lat": 0.0, "lat": 38.84198383333333, "type": "electric_bike", "lon": -77.10684983333333, "bike_id": "d8c2dbcf5475f69a76232c9cc5854a3e", "rental_uris": {"android": "https://dc.lft.to/lastmile_qr_scan", "ios": "https://dc.lft.to/lastmile_qr_scan"}, "name": "d8c2dbcf5475f69a76232c9cc5854a3e", "is_reserved": 0}, {"is_disabled": 0, "fusion_lon": 0.0, "fusion_lat": 0.0, "lat": 38.93665033333333, "type": "electric_bike", "lon": -76.95203216666667, "bike_id": "d017e45988572ad1c0a4bcdf88926254", "rental_uris": {"android": "https://dc.lft.to/lastmile_qr_scan", "ios": "https://dc.lft.to/lastmile_qr_scan"}, "name": "d017e45988572ad1c0a4bcdf88926254", "is_reserved": 0}, {"is_disabled": 0, "fusion_lon": 0.0, "fusion_lat": 0.0, "lat": 38.8857745, "type": "electric_scooter", "lon": -76.91908183333334, "bike_id": "cdf4be8e6263318167f66e2a50f98c97", "rental_uris": {"android": "https://dc.lft.to/lastmile_qr_scan", "ios": "https://dc.lft.to/lastmile_qr_scan"}, "name": "cdf4be8e6263318167f66e2a50f98c97", "is_reserved": 0}, {"is_disabled": 0, "fusion_lon": 0.0, "fusion_lat": 0.0, "lat": 38.9560915, "type": "electric_scooter", "lon": -77.02784033333333, "bike_id": "b6f5c5ec4901d3eac6c2bb84c0eaee48", "rental_uris": {"android": "https://dc.lft.to/lastmile_qr_scan", "ios": "https://dc.lft.to/lastmile_qr_scan"}, "name": "b6f5c5ec4901d3eac6c2bb84c0eaee48", "is_reserved": 0}, {"is_disabled": 0, "fusion_lon": 0.0, "fusion_lat": 0.0, "lat": 38.91659083333333, "type": "electric_scooter", "lon": -77.04156683333333, "bike_id": "06d76e107196e40fc85eb73619ed3a47", "rental_uris": {"android": "https://dc.lft.to/lastmile_qr_scan", "ios": "https://dc.lft.to/lastmile_qr_scan"}, "name": "06d76e107196e40fc85eb73619ed3a47", "is_reserved": 0}, {"is_disabled": 0, "fusion_lon": 0.0, "fusion_lat": 0.0, "lat": 38.908851166666665, "type": "electric_scooter", "lon": -77.00259483333333, "bike_id": "f4bd152354e38a62cb3fb9f3875bd534", "rental_uris": {"android": "https://dc.lft.to/lastmile_qr_scan", "ios": "https://dc.lft.to/lastmile_qr_scan"}, "name": "f4bd152354e38a62cb3fb9f3875bd534", "is_reserved": 0}, {"is_disabled": 0, "fusion_lon": 0.0, "fusion_lat": 0.0, "lat": 38.934149833333336, "type": "electric_scooter", "lon": -77.0196915, "bike_id": "74c3de4c9d5b47c842cc622865b6f5a2", "rental_uris": {"android": "https://dc.lft.to/lastmile_qr_scan", "ios": "https://dc.lft.to/lastmile_qr_scan"}, "name": "74c3de4c9d5b47c842cc622865b6f5a2", "is_reserved": 0}, {"is_disabled": 0, "fusion_lon": 0.0, "fusion_lat": 0.0, "lat": 38.953258, "type": "electric_scooter", "lon": -77.06850983333334, "bike_id": "a6c25411868ba134c92ed35d3f262f38", "rental_uris": {"android": "https://dc.lft.to/lastmile_qr_scan", "ios": "https://dc.lft.to/lastmile_qr_scan"}, "name": "a6c25411868ba134c92ed35d3f262f38", "is_reserved": 0}, {"is_disabled": 0, "fusion_lon": 0.0, "fusion_lat": 0.0, "lat": 39.038818, "type": "electric_bike", "lon": -77.109087, "bike_id": "0f4d6fc1ab07a28b86c0e0e6cb5d7c6a", "rental_uris": {"android": "https://dc.lft.to/lastmile_qr_scan", "ios": "https://dc.lft.to/lastmile_qr_scan"}, "name": "0f4d6fc1ab07a28b86c0e0e6cb5d7c6a", "is_reserved": 0}, {"is_disabled": 0, "fusion_lon": 0.0, "fusion_lat": 0.0, "lat": 38.915092333333334, "type": "electric_scooter", "lon": -77.02296216666667, "bike_id": "27de4764ea1fe1f5ec9454c6dbdd220f", "rental_uris": {"android": "https://dc.lft.to/lastmile_qr_scan", "ios": "https://dc.lft.to/lastmile_qr_scan"}, "name": "27de4764ea1fe1f5ec9454c6dbdd220f", "is_reserved": 0}, {"is_disabled": 0, "fusion_lon": 0.0, "fusion_lat": 0.0, "lat": 38.892897166666664, "type": "electric_bike", "lon": -77.00141566666667, "bike_id": "df3703664278b7bba895c9c7a582941d", "rental_uris": {"android": "https://dc.lft.to/lastmile_qr_scan", "ios": "https://dc.lft.to/lastmile_qr_scan"}, "name": "df3703664278b7bba895c9c7a582941d", "is_reserved": 0}, {"is_disabled": 0, "fusion_lon": 0.0, "fusion_lat": 0.0, "lat": 38.903740166666665, "type": "electric_scooter", "lon": -77.017761, "bike_id": "0581d598cd93b54f08a578f9c5f72455", "rental_uris": {"android": "https://dc.lft.to/lastmile_qr_scan", "ios": "https://dc.lft.to/lastmile_qr_scan"}, "name": "0581d598cd93b54f08a578f9c5f72455", "is_reserved": 0}, {"is_disabled": 0, "fusion_lon": 0.0, "fusion_lat": 0.0, "lat": 38.862010166666664, "type": "electric_bike", "lon": -77.05653916666667, "bike_id": "e8d9d8273ee4aa73e09155f1109de63f", "rental_uris": {"android": "https://dc.lft.to/lastmile_qr_scan", "ios": "https://dc.lft.to/lastmile_qr_scan"}, "name": "e8d9d8273ee4aa73e09155f1109de63f", "is_reserved": 0}, {"is_disabled": 0, "fusion_lon": 0.0, "fusion_lat": 0.0, "lat": 38.87068216666667, "type": "electric_bike", "lon": -77.11064683333333, "bike_id": "e9fd5fc496e296294b36d2adcf0bd6a6", "rental_uris": {"android": "https://dc.lft.to/lastmile_qr_scan", "ios": "https://dc.lft.to/lastmile_qr_scan"}, "name": "e9fd5fc496e296294b36d2adcf0bd6a6", "is_reserved": 0}, {"is_disabled": 0, "fusion_lon": 0.0, "fusion_lat": 0.0, "lat": 38.86515083333333, "type": "electric_scooter", "lon": -76.973292, "bike_id": "99e8af8f437417328ac8493f34db2b6b", "rental_uris": {"android": "https://dc.lft.to/lastmile_qr_scan", "ios": "https://dc.lft.to/lastmile_qr_scan"}, "name": "99e8af8f437417328ac8493f34db2b6b", "is_reserved": 0}, {"is_disabled": 0, "fusion_lon": 0.0, "fusion_lat": 0.0, "lat": 38.85807966666667, "type": "electric_scooter", "lon": -76.989658, "bike_id": "3737df09409e40fe7ab77a6c5294c04e", "rental_uris": {"android": "https://dc.lft.to/lastmile_qr_scan", "ios": "https://dc.lft.to/lastmile_qr_scan"}, "name": "3737df09409e40fe7ab77a6c5294c04e", "is_reserved": 0}, {"is_disabled": 0, "fusion_lon": 0.0, "fusion_lat": 0.0, "lat": 38.90766933333333, "type": "electric_scooter", "lon": -77.03537566666667, "bike_id": "32660a3dec5d84ddef7df0c209f0b944", "rental_uris": {"android": "https://dc.lft.to/lastmile_qr_scan", "ios": "https://dc.lft.to/lastmile_qr_scan"}, "name": "32660a3dec5d84ddef7df0c209f0b944", "is_reserved": 0}, {"is_disabled": 0, "fusion_lon": 0.0, "fusion_lat": 0.0, "lat": 38.96216883333334, "type": "electric_scooter", "lon": -77.02806983333333, "bike_id": "c440307680038191b2b18b74a8097c54", "rental_uris": {"android": "https://dc.lft.to/lastmile_qr_scan", "ios": "https://dc.lft.to/lastmile_qr_scan"}, "name": "c440307680038191b2b18b74a8097c54", "is_reserved": 0}, {"is_disabled": 0, "fusion_lon": 0.0, "fusion_lat": 0.0, "lat": 38.89477633333333, "type": "electric_scooter", "lon": -76.9952095, "bike_id": "6f37e6bdf966beff0370e1ea86a69ab8", "rental_uris": {"android": "https://dc.lft.to/lastmile_qr_scan", "ios": "https://dc.lft.to/lastmile_qr_scan"}, "name": "6f37e6bdf966beff0370e1ea86a69ab8", "is_reserved": 0}, {"is_disabled": 0, "fusion_lon": 0.0, "fusion_lat": 0.0, "lat": 38.926692, "type": "electric_scooter", "lon": -77.02683633333334, "bike_id": "f0114e99f0b6a4e8e559488de85ddab5", "rental_uris": {"android": "https://dc.lft.to/lastmile_qr_scan", "ios": "https://dc.lft.to/lastmile_qr_scan"}, "name": "f0114e99f0b6a4e8e559488de85ddab5", "is_reserved": 0}, {"is_disabled": 0, "fusion_lon": 0.0, "fusion_lat": 0.0, "lat": 38.96125683333333, "type": "electric_scooter", "lon": -77.02797533333333, "bike_id": "3c7278196bf940e04762099e6f5d0af0", "rental_uris": {"android": "https://dc.lft.to/lastmile_qr_scan", "ios": "https://dc.lft.to/lastmile_qr_scan"}, "name": "3c7278196bf940e04762099e6f5d0af0", "is_reserved": 0}, {"is_disabled": 0, "fusion_lon": 0.0, "fusion_lat": 0.0, "lat": 38.921075333333334, "type": "electric_scooter", "lon": -77.0176465, "bike_id": "e0119e3ac7da6dcdd8dd7260beb98bb9", "rental_uris": {"android": "https://dc.lft.to/lastmile_qr_scan", "ios": "https://dc.lft.to/lastmile_qr_scan"}, "name": "e0119e3ac7da6dcdd8dd7260beb98bb9", "is_reserved": 0}, {"is_disabled": 0, "fusion_lon": 0.0, "fusion_lat": 0.0, "lat": 38.91707516666666, "type": "electric_scooter", "lon": -77.0283565, "bike_id": "fc5387751be9268634b4f90afe04f50b", "rental_uris": {"android": "https://dc.lft.to/lastmile_qr_scan", "ios": "https://dc.lft.to/lastmile_qr_scan"}, "name": "fc5387751be9268634b4f90afe04f50b", "is_reserved": 0}, {"is_disabled": 0, "fusion_lon": 0.0, "fusion_lat": 0.0, "lat": 38.893224000000004, "type": "electric_scooter", "lon": -77.02122, "bike_id": "e1af8c95ddaf79e420ffe85e1f07e370", "rental_uris": {"android": "https://dc.lft.to/lastmile_qr_scan", "ios": "https://dc.lft.to/lastmile_qr_scan"}, "name": "e1af8c95ddaf79e420ffe85e1f07e370", "is_reserved": 0}, {"is_disabled": 0, "fusion_lon": 0.0, "fusion_lat": 0.0, "lat": 38.94981833333333, "type": "electric_scooter", "lon": -77.026962, "bike_id": "b077116479b420245cec9ec1ece5980e", "rental_uris": {"android": "https://dc.lft.to/lastmile_qr_scan", "ios": "https://dc.lft.to/lastmile_qr_scan"}, "name": "b077116479b420245cec9ec1ece5980e", "is_reserved": 0}, {"is_disabled": 0, "fusion_lon": 0.0, "fusion_lat": 0.0, "lat": 38.916633166666664, "type": "electric_scooter", "lon": -77.02972316666667, "bike_id": "da1e7f090179bd7bfdb678290aafcaa5", "rental_uris": {"android": "https://dc.lft.to/lastmile_qr_scan", "ios": "https://dc.lft.to/lastmile_qr_scan"}, "name": "da1e7f090179bd7bfdb678290aafcaa5", "is_reserved": 0}, {"is_disabled": 0, "fusion_lon": 0.0, "fusion_lat": 0.0, "lat": 38.918601833333334, "type": "electric_scooter", "lon": -77.03510933333334, "bike_id": "238a7693b63becf35bb575938f03275a", "rental_uris": {"android": "https://dc.lft.to/lastmile_qr_scan", "ios": "https://dc.lft.to/lastmile_qr_scan"}, "name": "238a7693b63becf35bb575938f03275a", "is_reserved": 0}, {"is_disabled": 0, "fusion_lon": 0.0, "fusion_lat": 0.0, "lat": 38.876752333333336, "type": "electric_bike", "lon": -77.01442366666667, "bike_id": "f56fc5e21ea5e704bea0a9483d1d57d4", "rental_uris": {"android": "https://dc.lft.to/lastmile_qr_scan", "ios": "https://dc.lft.to/lastmile_qr_scan"}, "name": "f56fc5e21ea5e704bea0a9483d1d57d4", "is_reserved": 0}, {"is_disabled": 0, "fusion_lon": 0.0, "fusion_lat": 0.0, "lat": 38.88758166666667, "type": "electric_scooter", "lon": -77.03381816666666, "bike_id": "45dedcd495d02a36121585ea1713ec91", "rental_uris": {"android": "https://dc.lft.to/lastmile_qr_scan", "ios": "https://dc.lft.to/lastmile_qr_scan"}, "name": "45dedcd495d02a36121585ea1713ec91", "is_reserved": 0}, {"is_disabled": 0, "fusion_lon": 0.0, "fusion_lat": 0.0, "lat": 38.909536333333335, "type": "electric_scooter", "lon": -77.04860533333333, "bike_id": "5416f77ee09f0111c4f79f7c59a78b64", "rental_uris": {"android": "https://dc.lft.to/lastmile_qr_scan", "ios": "https://dc.lft.to/lastmile_qr_scan"}, "name": "5416f77ee09f0111c4f79f7c59a78b64", "is_reserved": 0}, {"is_disabled": 0, "fusion_lon": 0.0, "fusion_lat": 0.0, "lat": 38.94151, "type": "electric_bike", "lon": -77.00195083333334, "bike_id": "e0c3549dcce130a9c3810b904756c522", "rental_uris": {"android": "https://dc.lft.to/lastmile_qr_scan", "ios": "https://dc.lft.to/lastmile_qr_scan"}, "name": "e0c3549dcce130a9c3810b904756c522", "is_reserved": 0}, {"is_disabled": 0, "fusion_lon": 0.0, "fusion_lat": 0.0, "lat": 38.9027575, "type": "electric_scooter", "lon": -77.03855383333334, "bike_id": "b9d5471dc14caf2eec0cf624424e4cb0", "rental_uris": {"android": "https://dc.lft.to/lastmile_qr_scan", "ios": "https://dc.lft.to/lastmile_qr_scan"}, "name": "b9d5471dc14caf2eec0cf624424e4cb0", "is_reserved": 0}, {"is_disabled": 0, "fusion_lon": 0.0, "fusion_lat": 0.0, "lat": 38.926581666666664, "type": "electric_scooter", "lon": -77.0243065, "bike_id": "d33b6f1944e80d33035629a8fa1f3632", "rental_uris": {"android": "https://dc.lft.to/lastmile_qr_scan", "ios": "https://dc.lft.to/lastmile_qr_scan"}, "name": "d33b6f1944e80d33035629a8fa1f3632", "is_reserved": 0}, {"is_disabled": 0, "fusion_lon": 0.0, "fusion_lat": 0.0, "lat": 38.91497, "type": "electric_scooter", "lon": -77.03208416666666, "bike_id": "b130e511998c14697da60e7fdc7f9ad9", "rental_uris": {"android": "https://dc.lft.to/lastmile_qr_scan", "ios": "https://dc.lft.to/lastmile_qr_scan"}, "name": "b130e511998c14697da60e7fdc7f9ad9", "is_reserved": 0}, {"is_disabled": 0, "fusion_lon": 0.0, "fusion_lat": 0.0, "lat": 39.058113166666665, "type": "electric_bike", "lon": -77.12624566666666, "bike_id": "3e431092925ed21d55aaf9039fd186b3", "rental_uris": {"android": "https://dc.lft.to/lastmile_qr_scan", "ios": "https://dc.lft.to/lastmile_qr_scan"}, "name": "3e431092925ed21d55aaf9039fd186b3", "is_reserved": 0}, {"is_disabled": 0, "fusion_lon": 0.0, "fusion_lat": 0.0, "lat": 38.858704333333336, "type": "electric_scooter", "lon": -76.9902795, "bike_id": "e5d7cdd697dd579f2ef64276e6257de9", "rental_uris": {"android": "https://dc.lft.to/lastmile_qr_scan", "ios": "https://dc.lft.to/lastmile_qr_scan"}, "name": "e5d7cdd697dd579f2ef64276e6257de9", "is_reserved": 0}, {"is_disabled": 0, "fusion_lon": 0.0, "fusion_lat": 0.0, "lat": 38.958844666666664, "type": "electric_bike", "lon": -76.92481566666666, "bike_id": "b2375f5a9de5f5ca689a694cbb7fd2f6", "rental_uris": {"android": "https://dc.lft.to/lastmile_qr_scan", "ios": "https://dc.lft.to/lastmile_qr_scan"}, "name": "b2375f5a9de5f5ca689a694cbb7fd2f6", "is_reserved": 0}, {"is_disabled": 0, "fusion_lon": 0.0, "fusion_lat": 0.0, "lat": 38.90693616666667, "type": "electric_scooter", "lon": -77.06316733333334, "bike_id": "c5f14465f421e5973eed9f33ffc07d9d", "rental_uris": {"android": "https://dc.lft.to/lastmile_qr_scan", "ios": "https://dc.lft.to/lastmile_qr_scan"}, "name": "c5f14465f421e5973eed9f33ffc07d9d", "is_reserved": 0}, {"is_disabled": 0, "fusion_lon": 0.0, "fusion_lat": 0.0, "lat": 38.897248833333336, "type": "electric_scooter", "lon": -77.02504933333333, "bike_id": "205b917aa7d9a96368f9f6f1803f1e98", "rental_uris": {"android": "https://dc.lft.to/lastmile_qr_scan", "ios": "https://dc.lft.to/lastmile_qr_scan"}, "name": "205b917aa7d9a96368f9f6f1803f1e98", "is_reserved": 0}, {"is_disabled": 0, "fusion_lon": 0.0, "fusion_lat": 0.0, "lat": 38.93098416666667, "type": "electric_scooter", "lon": -77.0381575, "bike_id": "f0a9557abbc89340dbd061d9c1dc17a8", "rental_uris": {"android": "https://dc.lft.to/lastmile_qr_scan", "ios": "https://dc.lft.to/lastmile_qr_scan"}, "name": "f0a9557abbc89340dbd061d9c1dc17a8", "is_reserved": 0}, {"is_disabled": 0, "fusion_lon": 0.0, "fusion_lat": 0.0, "lat": 38.89370133333333, "type": "electric_scooter", "lon": -76.978165, "bike_id": "a736ca90b5e1be483fd1bd0989baf6b1", "rental_uris": {"android": "https://dc.lft.to/lastmile_qr_scan", "ios": "https://dc.lft.to/lastmile_qr_scan"}, "name": "a736ca90b5e1be483fd1bd0989baf6b1", "is_reserved": 0}, {"is_disabled": 0, "fusion_lon": 0.0, "fusion_lat": 0.0, "lat": 38.89308316666666, "type": "electric_scooter", "lon": -77.02205566666666, "bike_id": "51321422117607db4497dd0037283fe0", "rental_uris": {"android": "https://dc.lft.to/lastmile_qr_scan", "ios": "https://dc.lft.to/lastmile_qr_scan"}, "name": "51321422117607db4497dd0037283fe0", "is_reserved": 0}, {"is_disabled": 0, "fusion_lon": 0.0, "fusion_lat": 0.0, "lat": 38.89727883333333, "type": "electric_scooter", "lon": -77.02501366666667, "bike_id": "a32b729afe8441997260f855baeec436", "rental_uris": {"android": "https://dc.lft.to/lastmile_qr_scan", "ios": "https://dc.lft.to/lastmile_qr_scan"}, "name": "a32b729afe8441997260f855baeec436", "is_reserved": 0}, {"is_disabled": 0, "fusion_lon": 0.0, "fusion_lat": 0.0, "lat": 38.88521583333333, "type": "electric_scooter", "lon": -76.9980045, "bike_id": "aa57d02f6ebb0f20fa887b010debade9", "rental_uris": {"android": "https://dc.lft.to/lastmile_qr_scan", "ios": "https://dc.lft.to/lastmile_qr_scan"}, "name": "aa57d02f6ebb0f20fa887b010debade9", "is_reserved": 0}, {"is_disabled": 0, "fusion_lon": 0.0, "fusion_lat": 0.0, "lat": 38.91657566666667, "type": "electric_scooter", "lon": -77.04653133333333, "bike_id": "c841725ffff969b5b88ea5a7fead0dc6", "rental_uris": {"android": "https://dc.lft.to/lastmile_qr_scan", "ios": "https://dc.lft.to/lastmile_qr_scan"}, "name": "c841725ffff969b5b88ea5a7fead0dc6", "is_reserved": 0}, {"is_disabled": 0, "fusion_lon": 0.0, "fusion_lat": 0.0, "lat": 38.960395166666665, "type": "electric_bike", "lon": -76.92712916666666, "bike_id": "59543152f040bc3c9eae7b9551476bed", "rental_uris": {"android": "https://dc.lft.to/lastmile_qr_scan", "ios": "https://dc.lft.to/lastmile_qr_scan"}, "name": "59543152f040bc3c9eae7b9551476bed", "is_reserved": 0}, {"is_disabled": 0, "fusion_lon": 0.0, "fusion_lat": 0.0, "lat": 38.92016133333333, "type": "electric_scooter", "lon": -77.044214, "bike_id": "80e9a92cb81a40aff1414ced13be90b9", "rental_uris": {"android": "https://dc.lft.to/lastmile_qr_scan", "ios": "https://dc.lft.to/lastmile_qr_scan"}, "name": "80e9a92cb81a40aff1414ced13be90b9", "is_reserved": 0}, {"is_disabled": 0, "fusion_lon": 0.0, "fusion_lat": 0.0, "lat": 38.86354016666667, "type": "electric_scooter", "lon": -76.99063833333334, "bike_id": "6ee4f086ec1fde223d7398c24ba261d2", "rental_uris": {"android": "https://dc.lft.to/lastmile_qr_scan", "ios": "https://dc.lft.to/lastmile_qr_scan"}, "name": "6ee4f086ec1fde223d7398c24ba261d2", "is_reserved": 0}, {"is_disabled": 0, "fusion_lon": 0.0, "fusion_lat": 0.0, "lat": 38.93704866666667, "type": "electric_scooter", "lon": -77.0609985, "bike_id": "4e7965308b0826fcf3dc41554785c326", "rental_uris": {"android": "https://dc.lft.to/lastmile_qr_scan", "ios": "https://dc.lft.to/lastmile_qr_scan"}, "name": "4e7965308b0826fcf3dc41554785c326", "is_reserved": 0}, {"is_disabled": 0, "fusion_lon": 0.0, "fusion_lat": 0.0, "lat": 38.901785833333335, "type": "electric_scooter", "lon": -77.05000233333334, "bike_id": "f0f196c9c5d4c6272c41851d21ae4c23", "rental_uris": {"android": "https://dc.lft.to/lastmile_qr_scan", "ios": "https://dc.lft.to/lastmile_qr_scan"}, "name": "f0f196c9c5d4c6272c41851d21ae4c23", "is_reserved": 0}, {"is_disabled": 0, "fusion_lon": 0.0, "fusion_lat": 0.0, "lat": 38.9158035, "type": "electric_scooter", "lon": -77.02100116666666, "bike_id": "6634ff142abd2ee587219afc8330a09a", "rental_uris": {"android": "https://dc.lft.to/lastmile_qr_scan", "ios": "https://dc.lft.to/lastmile_qr_scan"}, "name": "6634ff142abd2ee587219afc8330a09a", "is_reserved": 0}, {"is_disabled": 0, "fusion_lon": 0.0, "fusion_lat": 0.0, "lat": 38.89823066666666, "type": "electric_scooter", "lon": -77.04333266666667, "bike_id": "883c14d1b986fd5ea3af2abc7f002470", "rental_uris": {"android": "https://dc.lft.to/lastmile_qr_scan", "ios": "https://dc.lft.to/lastmile_qr_scan"}, "name": "883c14d1b986fd5ea3af2abc7f002470", "is_reserved": 0}, {"is_disabled": 0, "fusion_lon": 0.0, "fusion_lat": 0.0, "lat": 38.895373166666666, "type": "electric_bike", "lon": -77.04056283333334, "bike_id": "a636a45b3883b62e18003bbed356878c", "rental_uris": {"android": "https://dc.lft.to/lastmile_qr_scan", "ios": "https://dc.lft.to/lastmile_qr_scan"}, "name": "a636a45b3883b62e18003bbed356878c", "is_reserved": 0}, {"is_disabled": 0, "fusion_lon": 0.0, "fusion_lat": 0.0, "lat": 38.91804283333333, "type": "electric_scooter", "lon": -77.02439516666666, "bike_id": "63938c2493bb931440a3ba307ce73c8f", "rental_uris": {"android": "https://dc.lft.to/lastmile_qr_scan", "ios": "https://dc.lft.to/lastmile_qr_scan"}, "name": "63938c2493bb931440a3ba307ce73c8f", "is_reserved": 0}, {"is_disabled": 0, "fusion_lon": 0.0, "fusion_lat": 0.0, "lat": 38.93248616666666, "type": "electric_scooter", "lon": -77.03267283333334, "bike_id": "af2dfd3f5fbe151cbef777741581941d", "rental_uris": {"android": "https://dc.lft.to/lastmile_qr_scan", "ios": "https://dc.lft.to/lastmile_qr_scan"}, "name": "af2dfd3f5fbe151cbef777741581941d", "is_reserved": 0}, {"is_disabled": 0, "fusion_lon": 0.0, "fusion_lat": 0.0, "lat": 38.962830333333336, "type": "electric_bike", "lon": -77.0287055, "bike_id": "c09e506c843944fbf820c6adb182b4d6", "rental_uris": {"android": "https://dc.lft.to/lastmile_qr_scan", "ios": "https://dc.lft.to/lastmile_qr_scan"}, "name": "c09e506c843944fbf820c6adb182b4d6", "is_reserved": 0}, {"is_disabled": 0, "fusion_lon": 0.0, "fusion_lat": 0.0, "lat": 38.910504333333336, "type": "electric_scooter", "lon": -77.05445216666666, "bike_id": "90d7726ec7d7279295ad6244a298a943", "rental_uris": {"android": "https://dc.lft.to/lastmile_qr_scan", "ios": "https://dc.lft.to/lastmile_qr_scan"}, "name": "90d7726ec7d7279295ad6244a298a943", "is_reserved": 0}, {"is_disabled": 0, "fusion_lon": 0.0, "fusion_lat": 0.0, "lat": 38.904762166666664, "type": "electric_scooter", "lon": -77.035675, "bike_id": "f3c1992be846ed6401f03177a2677eca", "rental_uris": {"android": "https://dc.lft.to/lastmile_qr_scan", "ios": "https://dc.lft.to/lastmile_qr_scan"}, "name": "f3c1992be846ed6401f03177a2677eca", "is_reserved": 0}, {"is_disabled": 0, "fusion_lon": 0.0, "fusion_lat": 0.0, "lat": 38.934543, "type": "electric_scooter", "lon": -77.03015483333333, "bike_id": "53b286a7ddb9b766eb343dff2e7d7dba", "rental_uris": {"android": "https://dc.lft.to/lastmile_qr_scan", "ios": "https://dc.lft.to/lastmile_qr_scan"}, "name": "53b286a7ddb9b766eb343dff2e7d7dba", "is_reserved": 0}, {"is_disabled": 0, "fusion_lon": 0.0, "fusion_lat": 0.0, "lat": 38.901723, "type": "electric_scooter", "lon": -77.0249585, "bike_id": "21754c069e3f5a485135160aabc851b8", "rental_uris": {"android": "https://dc.lft.to/lastmile_qr_scan", "ios": "https://dc.lft.to/lastmile_qr_scan"}, "name": "21754c069e3f5a485135160aabc851b8", "is_reserved": 0}, {"is_disabled": 0, "fusion_lon": 0.0, "fusion_lat": 0.0, "lat": 38.89733616666667, "type": "electric_scooter", "lon": -77.03016883333333, "bike_id": "0ddc1a0e6a660b8d7ce6fafd6d1078c4", "rental_uris": {"android": "https://dc.lft.to/lastmile_qr_scan", "ios": "https://dc.lft.to/lastmile_qr_scan"}, "name": "0ddc1a0e6a660b8d7ce6fafd6d1078c4", "is_reserved": 0}, {"is_disabled": 0, "fusion_lon": 0.0, "fusion_lat": 0.0, "lat": 38.936379333333335, "type": "electric_bike", "lon": -76.95464083333333, "bike_id": "6de4bba45243f0a4a124c273e58ae0cd", "rental_uris": {"android": "https://dc.lft.to/lastmile_qr_scan", "ios": "https://dc.lft.to/lastmile_qr_scan"}, "name": "6de4bba45243f0a4a124c273e58ae0cd", "is_reserved": 0}, {"is_disabled": 0, "fusion_lon": 0.0, "fusion_lat": 0.0, "lat": 38.945768, "type": "electric_bike", "lon": -76.987747, "bike_id": "619d58cf089b103c71d881ef9867b7bf", "rental_uris": {"android": "https://dc.lft.to/lastmile_qr_scan", "ios": "https://dc.lft.to/lastmile_qr_scan"}, "name": "619d58cf089b103c71d881ef9867b7bf", "is_reserved": 0}, {"is_disabled": 0, "fusion_lon": 0.0, "fusion_lat": 0.0, "lat": 38.82390066666667, "type": "electric_scooter", "lon": -77.00696016666667, "bike_id": "e3633bdfa64bb08da999ae0adb695b51", "rental_uris": {"android": "https://dc.lft.to/lastmile_qr_scan", "ios": "https://dc.lft.to/lastmile_qr_scan"}, "name": "e3633bdfa64bb08da999ae0adb695b51", "is_reserved": 0}, {"is_disabled": 0, "fusion_lon": 0.0, "fusion_lat": 0.0, "lat": 38.92304383333333, "type": "electric_scooter", "lon": -77.04179633333334, "bike_id": "a1c78e5a0abf9c25156fde2a084c8265", "rental_uris": {"android": "https://dc.lft.to/lastmile_qr_scan", "ios": "https://dc.lft.to/lastmile_qr_scan"}, "name": "a1c78e5a0abf9c25156fde2a084c8265", "is_reserved": 0}, {"is_disabled": 0, "fusion_lon": 0.0, "fusion_lat": 0.0, "lat": 38.890030333333335, "type": "electric_scooter", "lon": -77.04890966666666, "bike_id": "efe27a4e62fb93abf272f5cadee7808b", "rental_uris": {"android": "https://dc.lft.to/lastmile_qr_scan", "ios": "https://dc.lft.to/lastmile_qr_scan"}, "name": "efe27a4e62fb93abf272f5cadee7808b", "is_reserved": 0}, {"is_disabled": 0, "fusion_lon": 0.0, "fusion_lat": 0.0, "lat": 38.922585, "type": "electric_scooter", "lon": -77.041266, "bike_id": "9c79b414d61482c4f5826a073baeff98", "rental_uris": {"android": "https://dc.lft.to/lastmile_qr_scan", "ios": "https://dc.lft.to/lastmile_qr_scan"}, "name": "9c79b414d61482c4f5826a073baeff98", "is_reserved": 0}, {"is_disabled": 0, "fusion_lon": 0.0, "fusion_lat": 0.0, "lat": 38.937850166666664, "type": "electric_scooter", "lon": -77.01878366666666, "bike_id": "586fce7bdea5a3c97f0ae816f8f3db6c", "rental_uris": {"android": "https://dc.lft.to/lastmile_qr_scan", "ios": "https://dc.lft.to/lastmile_qr_scan"}, "name": "586fce7bdea5a3c97f0ae816f8f3db6c", "is_reserved": 0}, {"is_disabled": 0, "fusion_lon": 0.0, "fusion_lat": 0.0, "lat": 38.9221635, "type": "electric_scooter", "lon": -77.03292183333333, "bike_id": "7f7b58e1c25e465fbb105a31c6f94cc4", "rental_uris": {"android": "https://dc.lft.to/lastmile_qr_scan", "ios": "https://dc.lft.to/lastmile_qr_scan"}, "name": "7f7b58e1c25e465fbb105a31c6f94cc4", "is_reserved": 0}, {"is_disabled": 0, "fusion_lon": 0.0, "fusion_lat": 0.0, "lat": 38.96126683333333, "type": "electric_scooter", "lon": -77.08526366666666, "bike_id": "9d5fd97e485c22d043938531766666c7", "rental_uris": {"android": "https://dc.lft.to/lastmile_qr_scan", "ios": "https://dc.lft.to/lastmile_qr_scan"}, "name": "9d5fd97e485c22d043938531766666c7", "is_reserved": 0}, {"is_disabled": 0, "fusion_lon": 0.0, "fusion_lat": 0.0, "lat": 38.90834, "type": "electric_scooter", "lon": -76.99694983333333, "bike_id": "730057654febb9d0155bcaf49a0c4333", "rental_uris": {"android": "https://dc.lft.to/lastmile_qr_scan", "ios": "https://dc.lft.to/lastmile_qr_scan"}, "name": "730057654febb9d0155bcaf49a0c4333", "is_reserved": 0}, {"is_disabled": 0, "fusion_lon": 0.0, "fusion_lat": 0.0, "lat": 38.895649166666665, "type": "electric_bike", "lon": -77.127386, "bike_id": "da37d2399eba4479105532f69b603cd1", "rental_uris": {"android": "https://dc.lft.to/lastmile_qr_scan", "ios": "https://dc.lft.to/lastmile_qr_scan"}, "name": "da37d2399eba4479105532f69b603cd1", "is_reserved": 0}, {"is_disabled": 0, "fusion_lon": 0.0, "fusion_lat": 0.0, "lat": 38.916240333333334, "type": "electric_scooter", "lon": -77.04866916666667, "bike_id": "eca85d4b4d627b6da61f80f25cc0fb17", "rental_uris": {"android": "https://dc.lft.to/lastmile_qr_scan", "ios": "https://dc.lft.to/lastmile_qr_scan"}, "name": "eca85d4b4d627b6da61f80f25cc0fb17", "is_reserved": 0}, {"is_disabled": 0, "fusion_lon": 0.0, "fusion_lat": 0.0, "lat": 38.887443833333336, "type": "electric_scooter", "lon": -77.0153715, "bike_id": "36ff7d9538869344d9467d9b4fdca972", "rental_uris": {"android": "https://dc.lft.to/lastmile_qr_scan", "ios": "https://dc.lft.to/lastmile_qr_scan"}, "name": "36ff7d9538869344d9467d9b4fdca972", "is_reserved": 0}, {"is_disabled": 0, "fusion_lon": 0.0, "fusion_lat": 0.0, "lat": 38.89483333333333, "type": "electric_bike", "lon": -76.99522833333333, "bike_id": "93d0564084799810f64cc0d1609a8b2b", "rental_uris": {"android": "https://dc.lft.to/lastmile_qr_scan", "ios": "https://dc.lft.to/lastmile_qr_scan"}, "name": "93d0564084799810f64cc0d1609a8b2b", "is_reserved": 0}, {"is_disabled": 0, "fusion_lon": 0.0, "fusion_lat": 0.0, "lat": 38.907617333333334, "type": "electric_scooter", "lon": -77.0346365, "bike_id": "95ce5635ad360e0fed48ff2e5f918186", "rental_uris": {"android": "https://dc.lft.to/lastmile_qr_scan", "ios": "https://dc.lft.to/lastmile_qr_scan"}, "name": "95ce5635ad360e0fed48ff2e5f918186", "is_reserved": 0}, {"is_disabled": 0, "fusion_lon": 0.0, "fusion_lat": 0.0, "lat": 38.90467483333333, "type": "electric_scooter", "lon": -76.99206416666667, "bike_id": "6d53f0c80d06dc1f29d4fe0a4283aace", "rental_uris": {"android": "https://dc.lft.to/lastmile_qr_scan", "ios": "https://dc.lft.to/lastmile_qr_scan"}, "name": "6d53f0c80d06dc1f29d4fe0a4283aace", "is_reserved": 0}, {"is_disabled": 0, "fusion_lon": 0.0, "fusion_lat": 0.0, "lat": 38.935351, "type": "electric_scooter", "lon": -77.03420533333333, "bike_id": "9487162d165ae7b2db772ae42532feb0", "rental_uris": {"android": "https://dc.lft.to/lastmile_qr_scan", "ios": "https://dc.lft.to/lastmile_qr_scan"}, "name": "9487162d165ae7b2db772ae42532feb0", "is_reserved": 0}, {"is_disabled": 0, "fusion_lon": 0.0, "fusion_lat": 0.0, "lat": 38.93049716666667, "type": "electric_scooter", "lon": -76.99634533333334, "bike_id": "68837f572dcb4b0d7d0ccd42671b1e9c", "rental_uris": {"android": "https://dc.lft.to/lastmile_qr_scan", "ios": "https://dc.lft.to/lastmile_qr_scan"}, "name": "68837f572dcb4b0d7d0ccd42671b1e9c", "is_reserved": 0}, {"is_disabled": 0, "fusion_lon": 0.0, "fusion_lat": 0.0, "lat": 38.91150966666667, "type": "electric_scooter", "lon": -76.985004, "bike_id": "6d3c4549bb7fa55a3d534598d4768400", "rental_uris": {"android": "https://dc.lft.to/lastmile_qr_scan", "ios": "https://dc.lft.to/lastmile_qr_scan"}, "name": "6d3c4549bb7fa55a3d534598d4768400", "is_reserved": 0}, {"is_disabled": 0, "fusion_lon": 0.0, "fusion_lat": 0.0, "lat": 38.922585, "type": "electric_scooter", "lon": -77.07131633333333, "bike_id": "6f74319c36772e2639698a20f5d7a74d", "rental_uris": {"android": "https://dc.lft.to/lastmile_qr_scan", "ios": "https://dc.lft.to/lastmile_qr_scan"}, "name": "6f74319c36772e2639698a20f5d7a74d", "is_reserved": 0}, {"is_disabled": 0, "fusion_lon": 0.0, "fusion_lat": 0.0, "lat": 38.91044266666667, "type": "electric_scooter", "lon": -77.04804416666667, "bike_id": "40b48bf9de55c7949cc589c619bcd422", "rental_uris": {"android": "https://dc.lft.to/lastmile_qr_scan", "ios": "https://dc.lft.to/lastmile_qr_scan"}, "name": "40b48bf9de55c7949cc589c619bcd422", "is_reserved": 0}, {"is_disabled": 0, "fusion_lon": 0.0, "fusion_lat": 0.0, "lat": 38.952714666666665, "type": "electric_scooter", "lon": -77.06839183333334, "bike_id": "5b86c2d526a45d11cc1bba7a81753998", "rental_uris": {"android": "https://dc.lft.to/lastmile_qr_scan", "ios": "https://dc.lft.to/lastmile_qr_scan"}, "name": "5b86c2d526a45d11cc1bba7a81753998", "is_reserved": 0}, {"is_disabled": 0, "fusion_lon": 0.0, "fusion_lat": 0.0, "lat": 38.94033916666667, "type": "electric_scooter", "lon": -77.02918616666666, "bike_id": "913cb00c1f88edfcf686efd222d43bd1", "rental_uris": {"android": "https://dc.lft.to/lastmile_qr_scan", "ios": "https://dc.lft.to/lastmile_qr_scan"}, "name": "913cb00c1f88edfcf686efd222d43bd1", "is_reserved": 0}, {"is_disabled": 0, "fusion_lon": 0.0, "fusion_lat": 0.0, "lat": 38.887963666666664, "type": "electric_bike", "lon": -76.92995233333333, "bike_id": "743b69793732880cf1db478bac33cc1b", "rental_uris": {"android": "https://dc.lft.to/lastmile_qr_scan", "ios": "https://dc.lft.to/lastmile_qr_scan"}, "name": "743b69793732880cf1db478bac33cc1b", "is_reserved": 0}, {"is_disabled": 0, "fusion_lon": 0.0, "fusion_lat": 0.0, "lat": 38.89306666666667, "type": "electric_scooter", "lon": -77.02203083333333, "bike_id": "d1eb66104c680e2622756422ec592b51", "rental_uris": {"android": "https://dc.lft.to/lastmile_qr_scan", "ios": "https://dc.lft.to/lastmile_qr_scan"}, "name": "d1eb66104c680e2622756422ec592b51", "is_reserved": 0}, {"is_disabled": 0, "fusion_lon": 0.0, "fusion_lat": 0.0, "lat": 38.893695, "type": "electric_scooter", "lon": -76.94996316666666, "bike_id": "b7c3886163e8c1457f89b69828e37229", "rental_uris": {"android": "https://dc.lft.to/lastmile_qr_scan", "ios": "https://dc.lft.to/lastmile_qr_scan"}, "name": "b7c3886163e8c1457f89b69828e37229", "is_reserved": 0}, {"is_disabled": 0, "fusion_lon": 0.0, "fusion_lat": 0.0, "lat": 38.910416833333336, "type": "electric_scooter", "lon": -77.04055833333334, "bike_id": "6ef943c030eb2f3072827a13dea65b41", "rental_uris": {"android": "https://dc.lft.to/lastmile_qr_scan", "ios": "https://dc.lft.to/lastmile_qr_scan"}, "name": "6ef943c030eb2f3072827a13dea65b41", "is_reserved": 0}, {"is_disabled": 0, "fusion_lon": 0.0, "fusion_lat": 0.0, "lat": 38.89729633333334, "type": "electric_bike", "lon": -77.02381216666667, "bike_id": "e328b6506ed7158b7f42ab7324c91082", "rental_uris": {"android": "https://dc.lft.to/lastmile_qr_scan", "ios": "https://dc.lft.to/lastmile_qr_scan"}, "name": "e328b6506ed7158b7f42ab7324c91082", "is_reserved": 0}, {"is_disabled": 0, "fusion_lon": 0.0, "fusion_lat": 0.0, "lat": 38.940841166666665, "type": "electric_scooter", "lon": -77.0595575, "bike_id": "919b28248cfdf8a7bba2720d14486c67", "rental_uris": {"android": "https://dc.lft.to/lastmile_qr_scan", "ios": "https://dc.lft.to/lastmile_qr_scan"}, "name": "919b28248cfdf8a7bba2720d14486c67", "is_reserved": 0}, {"is_disabled": 0, "fusion_lon": 0.0, "fusion_lat": 0.0, "lat": 38.914778, "type": "electric_scooter", "lon": -77.02169166666667, "bike_id": "dc10b764a4ba271535ac73dfb7b4c689", "rental_uris": {"android": "https://dc.lft.to/lastmile_qr_scan", "ios": "https://dc.lft.to/lastmile_qr_scan"}, "name": "dc10b764a4ba271535ac73dfb7b4c689", "is_reserved": 0}, {"is_disabled": 0, "fusion_lon": 0.0, "fusion_lat": 0.0, "lat": 38.90503966666667, "type": "electric_scooter", "lon": -76.98848883333334, "bike_id": "3e323a71332736f6bc2fa3c98e675356", "rental_uris": {"android": "https://dc.lft.to/lastmile_qr_scan", "ios": "https://dc.lft.to/lastmile_qr_scan"}, "name": "3e323a71332736f6bc2fa3c98e675356", "is_reserved": 0}, {"is_disabled": 0, "fusion_lon": 0.0, "fusion_lat": 0.0, "lat": 38.90576183333334, "type": "electric_scooter", "lon": -76.98750083333333, "bike_id": "edee3df624360be51640eecf86988a87", "rental_uris": {"android": "https://dc.lft.to/lastmile_qr_scan", "ios": "https://dc.lft.to/lastmile_qr_scan"}, "name": "edee3df624360be51640eecf86988a87", "is_reserved": 0}, {"is_disabled": 0, "fusion_lon": 0.0, "fusion_lat": 0.0, "lat": 38.913963, "type": "electric_scooter", "lon": -77.00322583333333, "bike_id": "f77c796ac71a9c7c600ad403acd213c6", "rental_uris": {"android": "https://dc.lft.to/lastmile_qr_scan", "ios": "https://dc.lft.to/lastmile_qr_scan"}, "name": "f77c796ac71a9c7c600ad403acd213c6", "is_reserved": 0}, {"is_disabled": 0, "fusion_lon": 0.0, "fusion_lat": 0.0, "lat": 38.9177875, "type": "electric_scooter", "lon": -77.04298166666666, "bike_id": "16c1c5d9496f450436f328d5b14a6cec", "rental_uris": {"android": "https://dc.lft.to/lastmile_qr_scan", "ios": "https://dc.lft.to/lastmile_qr_scan"}, "name": "16c1c5d9496f450436f328d5b14a6cec", "is_reserved": 0}, {"is_disabled": 0, "fusion_lon": 0.0, "fusion_lat": 0.0, "lat": 38.91665966666667, "type": "electric_scooter", "lon": -77.03856783333333, "bike_id": "808c99a7f66017d8036a1093ee6a1d8e", "rental_uris": {"android": "https://dc.lft.to/lastmile_qr_scan", "ios": "https://dc.lft.to/lastmile_qr_scan"}, "name": "808c99a7f66017d8036a1093ee6a1d8e", "is_reserved": 0}, {"is_disabled": 0, "fusion_lon": 0.0, "fusion_lat": 0.0, "lat": 38.908379333333336, "type": "electric_scooter", "lon": -77.02691583333333, "bike_id": "1ba72c06384fb594b8c12f3d1b47bdc7", "rental_uris": {"android": "https://dc.lft.to/lastmile_qr_scan", "ios": "https://dc.lft.to/lastmile_qr_scan"}, "name": "1ba72c06384fb594b8c12f3d1b47bdc7", "is_reserved": 0}, {"is_disabled": 0, "fusion_lon": 0.0, "fusion_lat": 0.0, "lat": 38.94493116666666, "type": "electric_bike", "lon": -76.986633, "bike_id": "9169d4d42a169608976edc122946c593", "rental_uris": {"android": "https://dc.lft.to/lastmile_qr_scan", "ios": "https://dc.lft.to/lastmile_qr_scan"}, "name": "9169d4d42a169608976edc122946c593", "is_reserved": 0}, {"is_disabled": 0, "fusion_lon": 0.0, "fusion_lat": 0.0, "lat": 38.905759, "type": "electric_scooter", "lon": -77.05591766666667, "bike_id": "83f17d5494cd2955f5b5a64513d04b6b", "rental_uris": {"android": "https://dc.lft.to/lastmile_qr_scan", "ios": "https://dc.lft.to/lastmile_qr_scan"}, "name": "83f17d5494cd2955f5b5a64513d04b6b", "is_reserved": 0}, {"is_disabled": 0, "fusion_lon": 0.0, "fusion_lat": 0.0, "lat": 38.9028335, "type": "electric_scooter", "lon": -77.0488095, "bike_id": "0e2b76b2e9a17e61e0f87fb464137a34", "rental_uris": {"android": "https://dc.lft.to/lastmile_qr_scan", "ios": "https://dc.lft.to/lastmile_qr_scan"}, "name": "0e2b76b2e9a17e61e0f87fb464137a34", "is_reserved": 0}, {"is_disabled": 0, "fusion_lon": 0.0, "fusion_lat": 0.0, "lat": 38.89522783333334, "type": "electric_scooter", "lon": -77.0484595, "bike_id": "b967d98f555361c7ce3b2c36e86397f5", "rental_uris": {"android": "https://dc.lft.to/lastmile_qr_scan", "ios": "https://dc.lft.to/lastmile_qr_scan"}, "name": "b967d98f555361c7ce3b2c36e86397f5", "is_reserved": 0}, {"is_disabled": 0, "fusion_lon": 0.0, "fusion_lat": 0.0, "lat": 38.92113916666667, "type": "electric_scooter", "lon": -77.01769216666666, "bike_id": "fc625510d1acb6cfd29b4d9d8e9b6fef", "rental_uris": {"android": "https://dc.lft.to/lastmile_qr_scan", "ios": "https://dc.lft.to/lastmile_qr_scan"}, "name": "fc625510d1acb6cfd29b4d9d8e9b6fef", "is_reserved": 0}, {"is_disabled": 0, "fusion_lon": 0.0, "fusion_lat": 0.0, "lat": 38.92567966666667, "type": "electric_scooter", "lon": -77.0805235, "bike_id": "516af2e9504edd9ebc943ea3d594d0d7", "rental_uris": {"android": "https://dc.lft.to/lastmile_qr_scan", "ios": "https://dc.lft.to/lastmile_qr_scan"}, "name": "516af2e9504edd9ebc943ea3d594d0d7", "is_reserved": 0}, {"is_disabled": 0, "fusion_lon": 0.0, "fusion_lat": 0.0, "lat": 38.853191833333334, "type": "electric_bike", "lon": -77.05333033333334, "bike_id": "ce52098d03907f6ae33c3caa19be970f", "rental_uris": {"android": "https://dc.lft.to/lastmile_qr_scan", "ios": "https://dc.lft.to/lastmile_qr_scan"}, "name": "ce52098d03907f6ae33c3caa19be970f", "is_reserved": 0}, {"is_disabled": 0, "fusion_lon": 0.0, "fusion_lat": 0.0, "lat": 38.93963516666667, "type": "electric_bike", "lon": -77.36093116666666, "bike_id": "6d345442b2849cdf168abfd60151b93d", "rental_uris": {"android": "https://dc.lft.to/lastmile_qr_scan", "ios": "https://dc.lft.to/lastmile_qr_scan"}, "name": "6d345442b2849cdf168abfd60151b93d", "is_reserved": 0}, {"is_disabled": 0, "fusion_lon": 0.0, "fusion_lat": 0.0, "lat": 38.922861166666664, "type": "electric_scooter", "lon": -77.0445695, "bike_id": "a4c0d601c22b7b4dc67dbcd296e86ba6", "rental_uris": {"android": "https://dc.lft.to/lastmile_qr_scan", "ios": "https://dc.lft.to/lastmile_qr_scan"}, "name": "a4c0d601c22b7b4dc67dbcd296e86ba6", "is_reserved": 0}, {"is_disabled": 0, "fusion_lon": 0.0, "fusion_lat": 0.0, "lat": 38.92465083333333, "type": "electric_scooter", "lon": -77.0786475, "bike_id": "cbc2d976a12286d23edddc7f4bea0a5e", "rental_uris": {"android": "https://dc.lft.to/lastmile_qr_scan", "ios": "https://dc.lft.to/lastmile_qr_scan"}, "name": "cbc2d976a12286d23edddc7f4bea0a5e", "is_reserved": 0}, {"is_disabled": 0, "fusion_lon": 0.0, "fusion_lat": 0.0, "lat": 38.87752716666667, "type": "electric_bike", "lon": -76.97995483333334, "bike_id": "78ca3f3a7d818be158306253528e0e7c", "rental_uris": {"android": "https://dc.lft.to/lastmile_qr_scan", "ios": "https://dc.lft.to/lastmile_qr_scan"}, "name": "78ca3f3a7d818be158306253528e0e7c", "is_reserved": 0}, {"is_disabled": 0, "fusion_lon": 0.0, "fusion_lat": 0.0, "lat": 38.940640333333334, "type": "electric_scooter", "lon": -77.028789, "bike_id": "857fe527d1178e368ffcc26a0d5ac863", "rental_uris": {"android": "https://dc.lft.to/lastmile_qr_scan", "ios": "https://dc.lft.to/lastmile_qr_scan"}, "name": "857fe527d1178e368ffcc26a0d5ac863", "is_reserved": 0}, {"is_disabled": 0, "fusion_lon": 0.0, "fusion_lat": 0.0, "lat": 38.907620666666666, "type": "electric_scooter", "lon": -77.03271566666666, "bike_id": "f97cd0741cbd0c5d7bba4d4e090119ea", "rental_uris": {"android": "https://dc.lft.to/lastmile_qr_scan", "ios": "https://dc.lft.to/lastmile_qr_scan"}, "name": "f97cd0741cbd0c5d7bba4d4e090119ea", "is_reserved": 0}, {"is_disabled": 0, "fusion_lon": 0.0, "fusion_lat": 0.0, "lat": 38.92965816666667, "type": "electric_scooter", "lon": -77.03652683333334, "bike_id": "407681f49d8ff8d318ef777897e0182a", "rental_uris": {"android": "https://dc.lft.to/lastmile_qr_scan", "ios": "https://dc.lft.to/lastmile_qr_scan"}, "name": "407681f49d8ff8d318ef777897e0182a", "is_reserved": 0}, {"is_disabled": 0, "fusion_lon": 0.0, "fusion_lat": 0.0, "lat": 38.8882145, "type": "electric_bike", "lon": -77.12744516666666, "bike_id": "05f30507bc9f03fb760d6e67a67261ac", "rental_uris": {"android": "https://dc.lft.to/lastmile_qr_scan", "ios": "https://dc.lft.to/lastmile_qr_scan"}, "name": "05f30507bc9f03fb760d6e67a67261ac", "is_reserved": 0}, {"is_disabled": 0, "fusion_lon": 0.0, "fusion_lat": 0.0, "lat": 38.903772833333335, "type": "electric_scooter", "lon": -77.02970216666667, "bike_id": "4762b23569a98cd0ed8b113b62f905d4", "rental_uris": {"android": "https://dc.lft.to/lastmile_qr_scan", "ios": "https://dc.lft.to/lastmile_qr_scan"}, "name": "4762b23569a98cd0ed8b113b62f905d4", "is_reserved": 0}, {"is_disabled": 0, "fusion_lon": 0.0, "fusion_lat": 0.0, "lat": 38.93443933333333, "type": "electric_scooter", "lon": -77.03266966666666, "bike_id": "5470855af383a49826925aa981e29dea", "rental_uris": {"android": "https://dc.lft.to/lastmile_qr_scan", "ios": "https://dc.lft.to/lastmile_qr_scan"}, "name": "5470855af383a49826925aa981e29dea", "is_reserved": 0}, {"is_disabled": 0, "fusion_lon": 0.0, "fusion_lat": 0.0, "lat": 38.97571816666667, "type": "electric_bike", "lon": -76.96404383333333, "bike_id": "0e48fbdd3d947e2cc70e02125f84ebd9", "rental_uris": {"android": "https://dc.lft.to/lastmile_qr_scan", "ios": "https://dc.lft.to/lastmile_qr_scan"}, "name": "0e48fbdd3d947e2cc70e02125f84ebd9", "is_reserved": 0}, {"is_disabled": 0, "fusion_lon": 0.0, "fusion_lat": 0.0, "lat": 38.990906333333335, "type": "electric_bike", "lon": -76.87495383333334, "bike_id": "7b43c86b0361363e243bd677ce35656a", "rental_uris": {"android": "https://dc.lft.to/lastmile_qr_scan", "ios": "https://dc.lft.to/lastmile_qr_scan"}, "name": "7b43c86b0361363e243bd677ce35656a", "is_reserved": 0}, {"is_disabled": 0, "fusion_lon": 0.0, "fusion_lat": 0.0, "lat": 38.88964133333333, "type": "electric_bike", "lon": -76.94862216666667, "bike_id": "7a957fdf43a82dc8f73d129f4b56daac", "rental_uris": {"android": "https://dc.lft.to/lastmile_qr_scan", "ios": "https://dc.lft.to/lastmile_qr_scan"}, "name": "7a957fdf43a82dc8f73d129f4b56daac", "is_reserved": 0}, {"is_disabled": 0, "fusion_lon": 0.0, "fusion_lat": 0.0, "lat": 38.9061035, "type": "electric_scooter", "lon": -77.04152083333334, "bike_id": "f7a02733c3ce1793e0d026339d9bacf1", "rental_uris": {"android": "https://dc.lft.to/lastmile_qr_scan", "ios": "https://dc.lft.to/lastmile_qr_scan"}, "name": "f7a02733c3ce1793e0d026339d9bacf1", "is_reserved": 0}, {"is_disabled": 0, "fusion_lon": 0.0, "fusion_lat": 0.0, "lat": 38.9050965, "type": "electric_scooter", "lon": -77.0531295, "bike_id": "2d48c94eeb724d21abff9b2371758905", "rental_uris": {"android": "https://dc.lft.to/lastmile_qr_scan", "ios": "https://dc.lft.to/lastmile_qr_scan"}, "name": "2d48c94eeb724d21abff9b2371758905", "is_reserved": 0}, {"is_disabled": 0, "fusion_lon": 0.0, "fusion_lat": 0.0, "lat": 38.942990333333334, "type": "electric_scooter", "lon": -77.0276445, "bike_id": "a76d58c2ef57ad815761119fb32b8362", "rental_uris": {"android": "https://dc.lft.to/lastmile_qr_scan", "ios": "https://dc.lft.to/lastmile_qr_scan"}, "name": "a76d58c2ef57ad815761119fb32b8362", "is_reserved": 0}, {"is_disabled": 0, "fusion_lon": 0.0, "fusion_lat": 0.0, "lat": 38.92068116666667, "type": "electric_scooter", "lon": -77.0438095, "bike_id": "40513b76bc138f35168d54761e56170f", "rental_uris": {"android": "https://dc.lft.to/lastmile_qr_scan", "ios": "https://dc.lft.to/lastmile_qr_scan"}, "name": "40513b76bc138f35168d54761e56170f", "is_reserved": 0}, {"is_disabled": 0, "fusion_lon": 0.0, "fusion_lat": 0.0, "lat": 38.86960966666667, "type": "electric_scooter", "lon": -76.96032516666666, "bike_id": "c900e40caa0b24999b09547fab137887", "rental_uris": {"android": "https://dc.lft.to/lastmile_qr_scan", "ios": "https://dc.lft.to/lastmile_qr_scan"}, "name": "c900e40caa0b24999b09547fab137887", "is_reserved": 0}, {"is_disabled": 0, "fusion_lon": 0.0, "fusion_lat": 0.0, "lat": 38.91837533333333, "type": "electric_scooter", "lon": -77.07206266666667, "bike_id": "1aebf10bb706a92cef5e6a478652acbd", "rental_uris": {"android": "https://dc.lft.to/lastmile_qr_scan", "ios": "https://dc.lft.to/lastmile_qr_scan"}, "name": "1aebf10bb706a92cef5e6a478652acbd", "is_reserved": 0}, {"is_disabled": 0, "fusion_lon": 0.0, "fusion_lat": 0.0, "lat": 38.923357, "type": "electric_scooter", "lon": -77.04189633333333, "bike_id": "5d78de39a8b25770b326686db7f3b87c", "rental_uris": {"android": "https://dc.lft.to/lastmile_qr_scan", "ios": "https://dc.lft.to/lastmile_qr_scan"}, "name": "5d78de39a8b25770b326686db7f3b87c", "is_reserved": 0}, {"is_disabled": 0, "fusion_lon": 0.0, "fusion_lat": 0.0, "lat": 38.810237666666666, "type": "electric_bike", "lon": -77.08434216666667, "bike_id": "3eb384f2d101c44036d2b24099d05564", "rental_uris": {"android": "https://dc.lft.to/lastmile_qr_scan", "ios": "https://dc.lft.to/lastmile_qr_scan"}, "name": "3eb384f2d101c44036d2b24099d05564", "is_reserved": 0}, {"is_disabled": 0, "fusion_lon": 0.0, "fusion_lat": 0.0, "lat": 38.900201833333334, "type": "electric_scooter", "lon": -77.03334683333334, "bike_id": "b9aeed5ca8e814b16db07edef9a0d19b", "rental_uris": {"android": "https://dc.lft.to/lastmile_qr_scan", "ios": "https://dc.lft.to/lastmile_qr_scan"}, "name": "b9aeed5ca8e814b16db07edef9a0d19b", "is_reserved": 0}, {"is_disabled": 0, "fusion_lon": 0.0, "fusion_lat": 0.0, "lat": 38.90954283333333, "type": "electric_scooter", "lon": -77.02376216666667, "bike_id": "3d7215108d2416c07b0843f289e156a4", "rental_uris": {"android": "https://dc.lft.to/lastmile_qr_scan", "ios": "https://dc.lft.to/lastmile_qr_scan"}, "name": "3d7215108d2416c07b0843f289e156a4", "is_reserved": 0}, {"is_disabled": 0, "fusion_lon": 0.0, "fusion_lat": 0.0, "lat": 38.919352, "type": "electric_bike", "lon": -76.9750405, "bike_id": "dbb7b6db1d2e9b5991847f91f15d395c", "rental_uris": {"android": "https://dc.lft.to/lastmile_qr_scan", "ios": "https://dc.lft.to/lastmile_qr_scan"}, "name": "dbb7b6db1d2e9b5991847f91f15d395c", "is_reserved": 0}, {"is_disabled": 0, "fusion_lon": 0.0, "fusion_lat": 0.0, "lat": 38.894064666666665, "type": "electric_scooter", "lon": -77.010857, "bike_id": "795736a124879f3417e214973a9e80c7", "rental_uris": {"android": "https://dc.lft.to/lastmile_qr_scan", "ios": "https://dc.lft.to/lastmile_qr_scan"}, "name": "795736a124879f3417e214973a9e80c7", "is_reserved": 0}, {"is_disabled": 0, "fusion_lon": 0.0, "fusion_lat": 0.0, "lat": 38.91895616666667, "type": "electric_scooter", "lon": -77.07118583333333, "bike_id": "8e4d2b8b3b7bee1c04671939a77b75cb", "rental_uris": {"android": "https://dc.lft.to/lastmile_qr_scan", "ios": "https://dc.lft.to/lastmile_qr_scan"}, "name": "8e4d2b8b3b7bee1c04671939a77b75cb", "is_reserved": 0}, {"is_disabled": 0, "fusion_lon": 0.0, "fusion_lat": 0.0, "lat": 38.908783166666666, "type": "electric_scooter", "lon": -77.076379, "bike_id": "26cb6124b865e96094dfd0766130eca9", "rental_uris": {"android": "https://dc.lft.to/lastmile_qr_scan", "ios": "https://dc.lft.to/lastmile_qr_scan"}, "name": "26cb6124b865e96094dfd0766130eca9", "is_reserved": 0}, {"is_disabled": 0, "fusion_lon": 0.0, "fusion_lat": 0.0, "lat": 38.93639916666667, "type": "electric_scooter", "lon": -77.03037583333334, "bike_id": "135ff2510aa6cbb84cec5e0991c64ab3", "rental_uris": {"android": "https://dc.lft.to/lastmile_qr_scan", "ios": "https://dc.lft.to/lastmile_qr_scan"}, "name": "135ff2510aa6cbb84cec5e0991c64ab3", "is_reserved": 0}, {"is_disabled": 0, "fusion_lon": 0.0, "fusion_lat": 0.0, "lat": 38.91833966666667, "type": "electric_scooter", "lon": -77.03516733333333, "bike_id": "777f369331281f1809c409ec4bc61d95", "rental_uris": {"android": "https://dc.lft.to/lastmile_qr_scan", "ios": "https://dc.lft.to/lastmile_qr_scan"}, "name": "777f369331281f1809c409ec4bc61d95", "is_reserved": 0}, {"is_disabled": 0, "fusion_lon": 0.0, "fusion_lat": 0.0, "lat": 38.897386833333336, "type": "electric_scooter", "lon": -77.00312816666667, "bike_id": "75ad65a988207435ca9b95e84e13bbe5", "rental_uris": {"android": "https://dc.lft.to/lastmile_qr_scan", "ios": "https://dc.lft.to/lastmile_qr_scan"}, "name": "75ad65a988207435ca9b95e84e13bbe5", "is_reserved": 0}, {"is_disabled": 0, "fusion_lon": 0.0, "fusion_lat": 0.0, "lat": 38.869567833333335, "type": "electric_scooter", "lon": -76.97937733333333, "bike_id": "138a3fe14b928409f43530748d8383b9", "rental_uris": {"android": "https://dc.lft.to/lastmile_qr_scan", "ios": "https://dc.lft.to/lastmile_qr_scan"}, "name": "138a3fe14b928409f43530748d8383b9", "is_reserved": 0}, {"is_disabled": 0, "fusion_lon": 0.0, "fusion_lat": 0.0, "lat": 38.895230833333336, "type": "electric_scooter", "lon": -77.00916083333334, "bike_id": "9439933520e6638cbc40ce2b73289df6", "rental_uris": {"android": "https://dc.lft.to/lastmile_qr_scan", "ios": "https://dc.lft.to/lastmile_qr_scan"}, "name": "9439933520e6638cbc40ce2b73289df6", "is_reserved": 0}, {"is_disabled": 0, "fusion_lon": 0.0, "fusion_lat": 0.0, "lat": 38.9255375, "type": "electric_scooter", "lon": -77.02563483333333, "bike_id": "ec1e2b5e4dbd6a726d71808f3e6a5577", "rental_uris": {"android": "https://dc.lft.to/lastmile_qr_scan", "ios": "https://dc.lft.to/lastmile_qr_scan"}, "name": "ec1e2b5e4dbd6a726d71808f3e6a5577", "is_reserved": 0}, {"is_disabled": 0, "fusion_lon": 0.0, "fusion_lat": 0.0, "lat": 38.9066745, "type": "electric_scooter", "lon": -77.0270785, "bike_id": "f69cd8bae8246d5c1c20fbfefa87538a", "rental_uris": {"android": "https://dc.lft.to/lastmile_qr_scan", "ios": "https://dc.lft.to/lastmile_qr_scan"}, "name": "f69cd8bae8246d5c1c20fbfefa87538a", "is_reserved": 0}, {"is_disabled": 0, "fusion_lon": 0.0, "fusion_lat": 0.0, "lat": 38.918035833333334, "type": "electric_scooter", "lon": -77.02398833333334, "bike_id": "f0befad0fd8ea7b84ab72a800ebf8811", "rental_uris": {"android": "https://dc.lft.to/lastmile_qr_scan", "ios": "https://dc.lft.to/lastmile_qr_scan"}, "name": "f0befad0fd8ea7b84ab72a800ebf8811", "is_reserved": 0}, {"is_disabled": 0, "fusion_lon": 0.0, "fusion_lat": 0.0, "lat": 38.9282295, "type": "electric_scooter", "lon": -77.02257716666666, "bike_id": "722dbb23ea15f3d3462b0122913f8c71", "rental_uris": {"android": "https://dc.lft.to/lastmile_qr_scan", "ios": "https://dc.lft.to/lastmile_qr_scan"}, "name": "722dbb23ea15f3d3462b0122913f8c71", "is_reserved": 0}, {"is_disabled": 0, "fusion_lon": 0.0, "fusion_lat": 0.0, "lat": 38.90443483333333, "type": "electric_scooter", "lon": -77.0483485, "bike_id": "f1fef7693d4c0b9b3b08bd624e628f78", "rental_uris": {"android": "https://dc.lft.to/lastmile_qr_scan", "ios": "https://dc.lft.to/lastmile_qr_scan"}, "name": "f1fef7693d4c0b9b3b08bd624e628f78", "is_reserved": 0}, {"is_disabled": 0, "fusion_lon": 0.0, "fusion_lat": 0.0, "lat": 38.91803316666667, "type": "electric_scooter", "lon": -77.02687933333333, "bike_id": "792086d0f5327c742347e21255564477", "rental_uris": {"android": "https://dc.lft.to/lastmile_qr_scan", "ios": "https://dc.lft.to/lastmile_qr_scan"}, "name": "792086d0f5327c742347e21255564477", "is_reserved": 0}, {"is_disabled": 0, "fusion_lon": 0.0, "fusion_lat": 0.0, "lat": 38.8689005, "type": "electric_scooter", "lon": -76.98318333333333, "bike_id": "9793d8cd719cbf21dd2c4669f131f6e3", "rental_uris": {"android": "https://dc.lft.to/lastmile_qr_scan", "ios": "https://dc.lft.to/lastmile_qr_scan"}, "name": "9793d8cd719cbf21dd2c4669f131f6e3", "is_reserved": 0}, {"is_disabled": 0, "fusion_lon": 0.0, "fusion_lat": 0.0, "lat": 38.859877833333336, "type": "electric_bike", "lon": -76.97052116666667, "bike_id": "38cf0b80d66674e7eeb71a84f604a491", "rental_uris": {"android": "https://dc.lft.to/lastmile_qr_scan", "ios": "https://dc.lft.to/lastmile_qr_scan"}, "name": "38cf0b80d66674e7eeb71a84f604a491", "is_reserved": 0}, {"is_disabled": 0, "fusion_lon": 0.0, "fusion_lat": 0.0, "lat": 38.8837515, "type": "electric_scooter", "lon": -76.98568633333333, "bike_id": "e2ba04d8bba83bdcc0fcdd93b41bb26d", "rental_uris": {"android": "https://dc.lft.to/lastmile_qr_scan", "ios": "https://dc.lft.to/lastmile_qr_scan"}, "name": "e2ba04d8bba83bdcc0fcdd93b41bb26d", "is_reserved": 0}, {"is_disabled": 0, "fusion_lon": 0.0, "fusion_lat": 0.0, "lat": 38.925614833333334, "type": "electric_scooter", "lon": -77.02278983333333, "bike_id": "345eed47af6282e869f19b7f416c1d2f", "rental_uris": {"android": "https://dc.lft.to/lastmile_qr_scan", "ios": "https://dc.lft.to/lastmile_qr_scan"}, "name": "345eed47af6282e869f19b7f416c1d2f", "is_reserved": 0}, {"is_disabled": 0, "fusion_lon": 0.0, "fusion_lat": 0.0, "lat": 38.994520333333334, "type": "electric_bike", "lon": -76.90812666666666, "bike_id": "029a7ac986dde92a5074df4c6520c219", "rental_uris": {"android": "https://dc.lft.to/lastmile_qr_scan", "ios": "https://dc.lft.to/lastmile_qr_scan"}, "name": "029a7ac986dde92a5074df4c6520c219", "is_reserved": 0}, {"is_disabled": 0, "fusion_lon": 0.0, "fusion_lat": 0.0, "lat": 38.895029666666666, "type": "electric_scooter", "lon": -76.94874716666666, "bike_id": "d89ffa1d22d5b4ea0fc8065c5d326786", "rental_uris": {"android": "https://dc.lft.to/lastmile_qr_scan", "ios": "https://dc.lft.to/lastmile_qr_scan"}, "name": "d89ffa1d22d5b4ea0fc8065c5d326786", "is_reserved": 0}, {"is_disabled": 0, "fusion_lon": 0.0, "fusion_lat": 0.0, "lat": 38.86027816666667, "type": "electric_scooter", "lon": -76.99693433333333, "bike_id": "407c65842a3dfbcf25c53c1bb6eab8a7", "rental_uris": {"android": "https://dc.lft.to/lastmile_qr_scan", "ios": "https://dc.lft.to/lastmile_qr_scan"}, "name": "407c65842a3dfbcf25c53c1bb6eab8a7", "is_reserved": 0}, {"is_disabled": 0, "fusion_lon": 0.0, "fusion_lat": 0.0, "lat": 38.85537466666667, "type": "electric_bike", "lon": -77.1071815, "bike_id": "76ea859276b39af8b70a6b48dff11240", "rental_uris": {"android": "https://dc.lft.to/lastmile_qr_scan", "ios": "https://dc.lft.to/lastmile_qr_scan"}, "name": "76ea859276b39af8b70a6b48dff11240", "is_reserved": 0}, {"is_disabled": 0, "fusion_lon": 0.0, "fusion_lat": 0.0, "lat": 38.919355333333336, "type": "electric_scooter", "lon": -77.08131566666667, "bike_id": "6b7376e57563acbf14e0102fb121a1af", "rental_uris": {"android": "https://dc.lft.to/lastmile_qr_scan", "ios": "https://dc.lft.to/lastmile_qr_scan"}, "name": "6b7376e57563acbf14e0102fb121a1af", "is_reserved": 0}, {"is_disabled": 0, "fusion_lon": 0.0, "fusion_lat": 0.0, "lat": 38.916219, "type": "electric_scooter", "lon": -77.04866166666666, "bike_id": "b7ca626886ecd3a6dd9ce1b6d28e6e45", "rental_uris": {"android": "https://dc.lft.to/lastmile_qr_scan", "ios": "https://dc.lft.to/lastmile_qr_scan"}, "name": "b7ca626886ecd3a6dd9ce1b6d28e6e45", "is_reserved": 0}, {"is_disabled": 0, "fusion_lon": 0.0, "fusion_lat": 0.0, "lat": 38.906329, "type": "electric_scooter", "lon": -77.02504266666666, "bike_id": "6d5e927d8ff460f53f515ab2ccb4d7d4", "rental_uris": {"android": "https://dc.lft.to/lastmile_qr_scan", "ios": "https://dc.lft.to/lastmile_qr_scan"}, "name": "6d5e927d8ff460f53f515ab2ccb4d7d4", "is_reserved": 0}, {"is_disabled": 0, "fusion_lon": 0.0, "fusion_lat": 0.0, "lat": 38.898408, "type": "electric_scooter", "lon": -76.94558366666666, "bike_id": "67e3467435a35e629d555ffa29d0bb81", "rental_uris": {"android": "https://dc.lft.to/lastmile_qr_scan", "ios": "https://dc.lft.to/lastmile_qr_scan"}, "name": "67e3467435a35e629d555ffa29d0bb81", "is_reserved": 0}, {"is_disabled": 0, "fusion_lon": 0.0, "fusion_lat": 0.0, "lat": 38.99934283333333, "type": "electric_bike", "lon": -77.001194, "bike_id": "58e3acbd19de91c0892bf959eebb8904", "rental_uris": {"android": "https://dc.lft.to/lastmile_qr_scan", "ios": "https://dc.lft.to/lastmile_qr_scan"}, "name": "58e3acbd19de91c0892bf959eebb8904", "is_reserved": 0}, {"is_disabled": 0, "fusion_lon": 0.0, "fusion_lat": 0.0, "lat": 39.095877, "type": "electric_bike", "lon": -77.14774233333333, "bike_id": "593833328821dd4200f44937f73a1b69", "rental_uris": {"android": "https://dc.lft.to/lastmile_qr_scan", "ios": "https://dc.lft.to/lastmile_qr_scan"}, "name": "593833328821dd4200f44937f73a1b69", "is_reserved": 0}, {"is_disabled": 0, "fusion_lon": 0.0, "fusion_lat": 0.0, "lat": 38.939607, "type": "electric_scooter", "lon": -77.02747166666667, "bike_id": "c398b6b465bf927e6305c91b84ebf9f1", "rental_uris": {"android": "https://dc.lft.to/lastmile_qr_scan", "ios": "https://dc.lft.to/lastmile_qr_scan"}, "name": "c398b6b465bf927e6305c91b84ebf9f1", "is_reserved": 0}, {"is_disabled": 0, "fusion_lon": 0.0, "fusion_lat": 0.0, "lat": 38.91494683333333, "type": "electric_scooter", "lon": -77.03206616666667, "bike_id": "8a5403b6596ad9d0b17b9470069e5ed4", "rental_uris": {"android": "https://dc.lft.to/lastmile_qr_scan", "ios": "https://dc.lft.to/lastmile_qr_scan"}, "name": "8a5403b6596ad9d0b17b9470069e5ed4", "is_reserved": 0}, {"is_disabled": 0, "fusion_lon": 0.0, "fusion_lat": 0.0, "lat": 38.968076, "type": "electric_scooter", "lon": -77.0212245, "bike_id": "733c258729a1e951384dd17dc8a39193", "rental_uris": {"android": "https://dc.lft.to/lastmile_qr_scan", "ios": "https://dc.lft.to/lastmile_qr_scan"}, "name": "733c258729a1e951384dd17dc8a39193", "is_reserved": 0}, {"is_disabled": 0, "fusion_lon": 0.0, "fusion_lat": 0.0, "lat": 38.880169333333335, "type": "electric_scooter", "lon": -76.98238866666667, "bike_id": "3e48dec7ee459cb0e649094ba96c1013", "rental_uris": {"android": "https://dc.lft.to/lastmile_qr_scan", "ios": "https://dc.lft.to/lastmile_qr_scan"}, "name": "3e48dec7ee459cb0e649094ba96c1013", "is_reserved": 0}, {"is_disabled": 0, "fusion_lon": 0.0, "fusion_lat": 0.0, "lat": 38.8831645, "type": "electric_scooter", "lon": -77.01670566666667, "bike_id": "7c8361e6e65f82bf99d4f764af3ea199", "rental_uris": {"android": "https://dc.lft.to/lastmile_qr_scan", "ios": "https://dc.lft.to/lastmile_qr_scan"}, "name": "7c8361e6e65f82bf99d4f764af3ea199", "is_reserved": 0}, {"is_disabled": 0, "fusion_lon": 0.0, "fusion_lat": 0.0, "lat": 38.97168583333333, "type": "electric_bike", "lon": -76.98020466666667, "bike_id": "f2c4648d61eceacd138698c572052fc8", "rental_uris": {"android": "https://dc.lft.to/lastmile_qr_scan", "ios": "https://dc.lft.to/lastmile_qr_scan"}, "name": "f2c4648d61eceacd138698c572052fc8", "is_reserved": 0}, {"is_disabled": 0, "fusion_lon": 0.0, "fusion_lat": 0.0, "lat": 38.90135, "type": "electric_scooter", "lon": -77.0399655, "bike_id": "ce4862108b1cf8899b619e19bf9ab90e", "rental_uris": {"android": "https://dc.lft.to/lastmile_qr_scan", "ios": "https://dc.lft.to/lastmile_qr_scan"}, "name": "ce4862108b1cf8899b619e19bf9ab90e", "is_reserved": 0}, {"is_disabled": 0, "fusion_lon": 0.0, "fusion_lat": 0.0, "lat": 38.94085333333334, "type": "electric_scooter", "lon": -77.03817716666667, "bike_id": "adf1eebab2edfb235a2484ef5c340388", "rental_uris": {"android": "https://dc.lft.to/lastmile_qr_scan", "ios": "https://dc.lft.to/lastmile_qr_scan"}, "name": "adf1eebab2edfb235a2484ef5c340388", "is_reserved": 0}, {"is_disabled": 0, "fusion_lon": 0.0, "fusion_lat": 0.0, "lat": 38.90131916666667, "type": "electric_scooter", "lon": -77.01769533333334, "bike_id": "a6121a2f2ee37f303f50d745349d7758", "rental_uris": {"android": "https://dc.lft.to/lastmile_qr_scan", "ios": "https://dc.lft.to/lastmile_qr_scan"}, "name": "a6121a2f2ee37f303f50d745349d7758", "is_reserved": 0}, {"is_disabled": 0, "fusion_lon": 0.0, "fusion_lat": 0.0, "lat": 38.893512, "type": "electric_scooter", "lon": -76.98466983333333, "bike_id": "8b17f23f46f44e05740a2685feb11f45", "rental_uris": {"android": "https://dc.lft.to/lastmile_qr_scan", "ios": "https://dc.lft.to/lastmile_qr_scan"}, "name": "8b17f23f46f44e05740a2685feb11f45", "is_reserved": 0}, {"is_disabled": 0, "fusion_lon": 0.0, "fusion_lat": 0.0, "lat": 38.88613566666667, "type": "electric_scooter", "lon": -77.00574083333333, "bike_id": "4db14ecb9da96d7e8fcdfab54b9d409b", "rental_uris": {"android": "https://dc.lft.to/lastmile_qr_scan", "ios": "https://dc.lft.to/lastmile_qr_scan"}, "name": "4db14ecb9da96d7e8fcdfab54b9d409b", "is_reserved": 0}, {"is_disabled": 0, "fusion_lon": 0.0, "fusion_lat": 0.0, "lat": 38.886923333333336, "type": "electric_scooter", "lon": -76.98793233333333, "bike_id": "a3705d6e64b56f163424ff713e27926b", "rental_uris": {"android": "https://dc.lft.to/lastmile_qr_scan", "ios": "https://dc.lft.to/lastmile_qr_scan"}, "name": "a3705d6e64b56f163424ff713e27926b", "is_reserved": 0}, {"is_disabled": 0, "fusion_lon": 0.0, "fusion_lat": 0.0, "lat": 38.919049, "type": "electric_scooter", "lon": -77.024022, "bike_id": "b821b5fd6d0efb51895a1000e871ab93", "rental_uris": {"android": "https://dc.lft.to/lastmile_qr_scan", "ios": "https://dc.lft.to/lastmile_qr_scan"}, "name": "b821b5fd6d0efb51895a1000e871ab93", "is_reserved": 0}, {"is_disabled": 0, "fusion_lon": 0.0, "fusion_lat": 0.0, "lat": 38.93702966666667, "type": "electric_scooter", "lon": -77.05597983333334, "bike_id": "00b3ed6f421b49166fab888352bf4be2", "rental_uris": {"android": "https://dc.lft.to/lastmile_qr_scan", "ios": "https://dc.lft.to/lastmile_qr_scan"}, "name": "00b3ed6f421b49166fab888352bf4be2", "is_reserved": 0}, {"is_disabled": 0, "fusion_lon": 0.0, "fusion_lat": 0.0, "lat": 38.91699366666667, "type": "electric_scooter", "lon": -77.01167066666666, "bike_id": "bf01151601161ffdd65871d06b2c668f", "rental_uris": {"android": "https://dc.lft.to/lastmile_qr_scan", "ios": "https://dc.lft.to/lastmile_qr_scan"}, "name": "bf01151601161ffdd65871d06b2c668f", "is_reserved": 0}, {"is_disabled": 0, "fusion_lon": 0.0, "fusion_lat": 0.0, "lat": 38.91703666666667, "type": "electric_scooter", "lon": -77.02745916666667, "bike_id": "45ca68aaaece923a7e00877ef0953758", "rental_uris": {"android": "https://dc.lft.to/lastmile_qr_scan", "ios": "https://dc.lft.to/lastmile_qr_scan"}, "name": "45ca68aaaece923a7e00877ef0953758", "is_reserved": 0}, {"is_disabled": 0, "fusion_lon": 0.0, "fusion_lat": 0.0, "lat": 38.903757166666665, "type": "electric_scooter", "lon": -77.05373883333333, "bike_id": "5ecdf4f662dda02ecfe66153730de845", "rental_uris": {"android": "https://dc.lft.to/lastmile_qr_scan", "ios": "https://dc.lft.to/lastmile_qr_scan"}, "name": "5ecdf4f662dda02ecfe66153730de845", "is_reserved": 0}, {"is_disabled": 0, "fusion_lon": 0.0, "fusion_lat": 0.0, "lat": 38.913122666666666, "type": "electric_scooter", "lon": -77.01435083333334, "bike_id": "186dc2d0763a6ae4d017dc0bf45d4512", "rental_uris": {"android": "https://dc.lft.to/lastmile_qr_scan", "ios": "https://dc.lft.to/lastmile_qr_scan"}, "name": "186dc2d0763a6ae4d017dc0bf45d4512", "is_reserved": 0}, {"is_disabled": 0, "fusion_lon": 0.0, "fusion_lat": 0.0, "lat": 38.870537, "type": "electric_scooter", "lon": -76.98082416666666, "bike_id": "57554eccfa61dfe642b7e059a16684cb", "rental_uris": {"android": "https://dc.lft.to/lastmile_qr_scan", "ios": "https://dc.lft.to/lastmile_qr_scan"}, "name": "57554eccfa61dfe642b7e059a16684cb", "is_reserved": 0}, {"is_disabled": 0, "fusion_lon": 0.0, "fusion_lat": 0.0, "lat": 38.8493155, "type": "electric_bike", "lon": -77.10010266666667, "bike_id": "57be2ae371dff073dda05abb3421766c", "rental_uris": {"android": "https://dc.lft.to/lastmile_qr_scan", "ios": "https://dc.lft.to/lastmile_qr_scan"}, "name": "57be2ae371dff073dda05abb3421766c", "is_reserved": 0}, {"is_disabled": 0, "fusion_lon": 0.0, "fusion_lat": 0.0, "lat": 38.95638483333333, "type": "electric_scooter", "lon": -77.09098883333333, "bike_id": "6d137348f4b1b0529e90f99532d94be2", "rental_uris": {"android": "https://dc.lft.to/lastmile_qr_scan", "ios": "https://dc.lft.to/lastmile_qr_scan"}, "name": "6d137348f4b1b0529e90f99532d94be2", "is_reserved": 0}, {"is_disabled": 0, "fusion_lon": 0.0, "fusion_lat": 0.0, "lat": 38.85650066666667, "type": "electric_bike", "lon": -77.08530766666667, "bike_id": "38ea80788f0766655a9250a86e760798", "rental_uris": {"android": "https://dc.lft.to/lastmile_qr_scan", "ios": "https://dc.lft.to/lastmile_qr_scan"}, "name": "38ea80788f0766655a9250a86e760798", "is_reserved": 0}, {"is_disabled": 0, "fusion_lon": 0.0, "fusion_lat": 0.0, "lat": 38.90762766666667, "type": "electric_scooter", "lon": -77.00105066666667, "bike_id": "086b68ed46a8180c04ba7575cea49acc", "rental_uris": {"android": "https://dc.lft.to/lastmile_qr_scan", "ios": "https://dc.lft.to/lastmile_qr_scan"}, "name": "086b68ed46a8180c04ba7575cea49acc", "is_reserved": 0}, {"is_disabled": 0, "fusion_lon": 0.0, "fusion_lat": 0.0, "lat": 38.931327833333334, "type": "electric_scooter", "lon": -77.07843833333334, "bike_id": "61bc59a7a4d117ae50776c4383b3294e", "rental_uris": {"android": "https://dc.lft.to/lastmile_qr_scan", "ios": "https://dc.lft.to/lastmile_qr_scan"}, "name": "61bc59a7a4d117ae50776c4383b3294e", "is_reserved": 0}, {"is_disabled": 0, "fusion_lon": 0.0, "fusion_lat": 0.0, "lat": 38.9308335, "type": "electric_scooter", "lon": -77.02533783333334, "bike_id": "b8a5c5be3bfd6b6d40b7cc25e7229c56", "rental_uris": {"android": "https://dc.lft.to/lastmile_qr_scan", "ios": "https://dc.lft.to/lastmile_qr_scan"}, "name": "b8a5c5be3bfd6b6d40b7cc25e7229c56", "is_reserved": 0}, {"is_disabled": 0, "fusion_lon": 0.0, "fusion_lat": 0.0, "lat": 38.90046683333333, "type": "electric_scooter", "lon": -76.98327383333333, "bike_id": "072f16ec3db1a5b22cb5a437bf6e96d2", "rental_uris": {"android": "https://dc.lft.to/lastmile_qr_scan", "ios": "https://dc.lft.to/lastmile_qr_scan"}, "name": "072f16ec3db1a5b22cb5a437bf6e96d2", "is_reserved": 0}, {"is_disabled": 0, "fusion_lon": 0.0, "fusion_lat": 0.0, "lat": 38.90529466666667, "type": "electric_scooter", "lon": -77.04882516666666, "bike_id": "0727a6a8ab43f02bd3693786fc5ec567", "rental_uris": {"android": "https://dc.lft.to/lastmile_qr_scan", "ios": "https://dc.lft.to/lastmile_qr_scan"}, "name": "0727a6a8ab43f02bd3693786fc5ec567", "is_reserved": 0}, {"is_disabled": 0, "fusion_lon": 0.0, "fusion_lat": 0.0, "lat": 38.8749785, "type": "electric_scooter", "lon": -76.997972, "bike_id": "86c723b119ae542e86edbd963f466cd5", "rental_uris": {"android": "https://dc.lft.to/lastmile_qr_scan", "ios": "https://dc.lft.to/lastmile_qr_scan"}, "name": "86c723b119ae542e86edbd963f466cd5", "is_reserved": 0}, {"is_disabled": 0, "fusion_lon": 0.0, "fusion_lat": 0.0, "lat": 38.89499, "type": "electric_scooter", "lon": -77.00948816666667, "bike_id": "5a408030ee9a80ffbacee24e54c25f96", "rental_uris": {"android": "https://dc.lft.to/lastmile_qr_scan", "ios": "https://dc.lft.to/lastmile_qr_scan"}, "name": "5a408030ee9a80ffbacee24e54c25f96", "is_reserved": 0}, {"is_disabled": 0, "fusion_lon": 0.0, "fusion_lat": 0.0, "lat": 38.9299205, "type": "electric_scooter", "lon": -77.02398716666667, "bike_id": "fa51acde0b34b710ee80517909a6ef67", "rental_uris": {"android": "https://dc.lft.to/lastmile_qr_scan", "ios": "https://dc.lft.to/lastmile_qr_scan"}, "name": "fa51acde0b34b710ee80517909a6ef67", "is_reserved": 0}, {"is_disabled": 0, "fusion_lon": 0.0, "fusion_lat": 0.0, "lat": 38.917084833333334, "type": "electric_scooter", "lon": -77.0334465, "bike_id": "526833066fdba4eb3a1cb3a5d528cf76", "rental_uris": {"android": "https://dc.lft.to/lastmile_qr_scan", "ios": "https://dc.lft.to/lastmile_qr_scan"}, "name": "526833066fdba4eb3a1cb3a5d528cf76", "is_reserved": 0}, {"is_disabled": 0, "fusion_lon": 0.0, "fusion_lat": 0.0, "lat": 38.921195833333336, "type": "electric_scooter", "lon": -77.012079, "bike_id": "05e62668196c536e69ac8454629558e4", "rental_uris": {"android": "https://dc.lft.to/lastmile_qr_scan", "ios": "https://dc.lft.to/lastmile_qr_scan"}, "name": "05e62668196c536e69ac8454629558e4", "is_reserved": 0}, {"is_disabled": 0, "fusion_lon": 0.0, "fusion_lat": 0.0, "lat": 38.92999783333333, "type": "electric_scooter", "lon": -77.03797283333333, "bike_id": "31cb97da23f2e738db160bb87efa5e8f", "rental_uris": {"android": "https://dc.lft.to/lastmile_qr_scan", "ios": "https://dc.lft.to/lastmile_qr_scan"}, "name": "31cb97da23f2e738db160bb87efa5e8f", "is_reserved": 0}, {"is_disabled": 0, "fusion_lon": 0.0, "fusion_lat": 0.0, "lat": 38.90580683333334, "type": "electric_scooter", "lon": -77.04353333333333, "bike_id": "cd3037d7936c1e5dbff069e1a1707118", "rental_uris": {"android": "https://dc.lft.to/lastmile_qr_scan", "ios": "https://dc.lft.to/lastmile_qr_scan"}, "name": "cd3037d7936c1e5dbff069e1a1707118", "is_reserved": 0}, {"is_disabled": 0, "fusion_lon": 0.0, "fusion_lat": 0.0, "lat": 38.91831583333333, "type": "electric_scooter", "lon": -77.0228075, "bike_id": "7fd34b0dadcc5daa8173bc69cdeffaf8", "rental_uris": {"android": "https://dc.lft.to/lastmile_qr_scan", "ios": "https://dc.lft.to/lastmile_qr_scan"}, "name": "7fd34b0dadcc5daa8173bc69cdeffaf8", "is_reserved": 0}, {"is_disabled": 0, "fusion_lon": 0.0, "fusion_lat": 0.0, "lat": 38.9166375, "type": "electric_scooter", "lon": -77.02971933333333, "bike_id": "2bdbd5b6087db1421a296ae99a9e968a", "rental_uris": {"android": "https://dc.lft.to/lastmile_qr_scan", "ios": "https://dc.lft.to/lastmile_qr_scan"}, "name": "2bdbd5b6087db1421a296ae99a9e968a", "is_reserved": 0}, {"is_disabled": 0, "fusion_lon": 0.0, "fusion_lat": 0.0, "lat": 39.00018016666667, "type": "electric_bike", "lon": -76.87285033333333, "bike_id": "22107b278c0459e12b83c53e3257f28c", "rental_uris": {"android": "https://dc.lft.to/lastmile_qr_scan", "ios": "https://dc.lft.to/lastmile_qr_scan"}, "name": "22107b278c0459e12b83c53e3257f28c", "is_reserved": 0}, {"is_disabled": 0, "fusion_lon": 0.0, "fusion_lat": 0.0, "lat": 38.828761166666666, "type": "electric_bike", "lon": -77.1122165, "bike_id": "b3d80b4415c20eb51fc797454579eac4", "rental_uris": {"android": "https://dc.lft.to/lastmile_qr_scan", "ios": "https://dc.lft.to/lastmile_qr_scan"}, "name": "b3d80b4415c20eb51fc797454579eac4", "is_reserved": 0}, {"is_disabled": 0, "fusion_lon": 0.0, "fusion_lat": 0.0, "lat": 38.912865333333336, "type": "electric_scooter", "lon": -77.0207235, "bike_id": "fc29e8aa37b0570a92bfb21a7bcbcfdb", "rental_uris": {"android": "https://dc.lft.to/lastmile_qr_scan", "ios": "https://dc.lft.to/lastmile_qr_scan"}, "name": "fc29e8aa37b0570a92bfb21a7bcbcfdb", "is_reserved": 0}, {"is_disabled": 0, "fusion_lon": 0.0, "fusion_lat": 0.0, "lat": 38.91695266666667, "type": "electric_scooter", "lon": -77.03205183333333, "bike_id": "350e5002bfa823045208bd018db570ec", "rental_uris": {"android": "https://dc.lft.to/lastmile_qr_scan", "ios": "https://dc.lft.to/lastmile_qr_scan"}, "name": "350e5002bfa823045208bd018db570ec", "is_reserved": 0}, {"is_disabled": 0, "fusion_lon": 0.0, "fusion_lat": 0.0, "lat": 38.91631266666667, "type": "electric_scooter", "lon": -77.02291616666666, "bike_id": "4274df970c498e5ed829d79e4c1d7dac", "rental_uris": {"android": "https://dc.lft.to/lastmile_qr_scan", "ios": "https://dc.lft.to/lastmile_qr_scan"}, "name": "4274df970c498e5ed829d79e4c1d7dac", "is_reserved": 0}, {"is_disabled": 0, "fusion_lon": 0.0, "fusion_lat": 0.0, "lat": 38.908507166666666, "type": "electric_scooter", "lon": -77.03838016666667, "bike_id": "286e6c5f646ebc1b4119931a2af6fda7", "rental_uris": {"android": "https://dc.lft.to/lastmile_qr_scan", "ios": "https://dc.lft.to/lastmile_qr_scan"}, "name": "286e6c5f646ebc1b4119931a2af6fda7", "is_reserved": 0}, {"is_disabled": 0, "fusion_lon": 0.0, "fusion_lat": 0.0, "lat": 38.87213466666667, "type": "electric_bike", "lon": -77.01621883333334, "bike_id": "b7741cfc4ecfbc6c7ffa5dd1fafeb210", "rental_uris": {"android": "https://dc.lft.to/lastmile_qr_scan", "ios": "https://dc.lft.to/lastmile_qr_scan"}, "name": "b7741cfc4ecfbc6c7ffa5dd1fafeb210", "is_reserved": 0}, {"is_disabled": 0, "fusion_lon": 0.0, "fusion_lat": 0.0, "lat": 38.935803666666665, "type": "electric_bike", "lon": -77.03656633333334, "bike_id": "60edee3bbf4599ed300d5c3b451c4180", "rental_uris": {"android": "https://dc.lft.to/lastmile_qr_scan", "ios": "https://dc.lft.to/lastmile_qr_scan"}, "name": "60edee3bbf4599ed300d5c3b451c4180", "is_reserved": 0}, {"is_disabled": 0, "fusion_lon": 0.0, "fusion_lat": 0.0, "lat": 38.87869516666667, "type": "electric_bike", "lon": -77.017444, "bike_id": "8e86d773d2f8893a6547d808bd62e9ac", "rental_uris": {"android": "https://dc.lft.to/lastmile_qr_scan", "ios": "https://dc.lft.to/lastmile_qr_scan"}, "name": "8e86d773d2f8893a6547d808bd62e9ac", "is_reserved": 0}, {"is_disabled": 0, "fusion_lon": 0.0, "fusion_lat": 0.0, "lat": 38.8845425, "type": "electric_bike", "lon": -76.916342, "bike_id": "abb385292a85940c0d9f7877c47e68ea", "rental_uris": {"android": "https://dc.lft.to/lastmile_qr_scan", "ios": "https://dc.lft.to/lastmile_qr_scan"}, "name": "abb385292a85940c0d9f7877c47e68ea", "is_reserved": 0}, {"is_disabled": 0, "fusion_lon": 0.0, "fusion_lat": 0.0, "lat": 38.90535033333333, "type": "electric_scooter", "lon": -77.05005633333333, "bike_id": "4122922423588dc34da300eec90be97d", "rental_uris": {"android": "https://dc.lft.to/lastmile_qr_scan", "ios": "https://dc.lft.to/lastmile_qr_scan"}, "name": "4122922423588dc34da300eec90be97d", "is_reserved": 0}, {"is_disabled": 0, "fusion_lon": 0.0, "fusion_lat": 0.0, "lat": 38.9489845, "type": "electric_bike", "lon": -76.96368133333333, "bike_id": "b6403c38fd00ee926f991cc7d34aca1b", "rental_uris": {"android": "https://dc.lft.to/lastmile_qr_scan", "ios": "https://dc.lft.to/lastmile_qr_scan"}, "name": "b6403c38fd00ee926f991cc7d34aca1b", "is_reserved": 0}, {"is_disabled": 0, "fusion_lon": 0.0, "fusion_lat": 0.0, "lat": 38.90962416666667, "type": "electric_scooter", "lon": -77.04826316666667, "bike_id": "ce10296d688af1cfb20e2af7271c1a04", "rental_uris": {"android": "https://dc.lft.to/lastmile_qr_scan", "ios": "https://dc.lft.to/lastmile_qr_scan"}, "name": "ce10296d688af1cfb20e2af7271c1a04", "is_reserved": 0}, {"is_disabled": 0, "fusion_lon": 0.0, "fusion_lat": 0.0, "lat": 39.05264233333333, "type": "electric_bike", "lon": -77.04378416666667, "bike_id": "5f353c9a9260dc55ebc49d827d0ab0ad", "rental_uris": {"android": "https://dc.lft.to/lastmile_qr_scan", "ios": "https://dc.lft.to/lastmile_qr_scan"}, "name": "5f353c9a9260dc55ebc49d827d0ab0ad", "is_reserved": 0}, {"is_disabled": 0, "fusion_lon": 0.0, "fusion_lat": 0.0, "lat": 38.917027833333336, "type": "electric_scooter", "lon": -77.00112283333333, "bike_id": "6eefe2f0b7c8f7b6507115e59bcb0f56", "rental_uris": {"android": "https://dc.lft.to/lastmile_qr_scan", "ios": "https://dc.lft.to/lastmile_qr_scan"}, "name": "6eefe2f0b7c8f7b6507115e59bcb0f56", "is_reserved": 0}, {"is_disabled": 0, "fusion_lon": 0.0, "fusion_lat": 0.0, "lat": 38.93699633333333, "type": "electric_scooter", "lon": -77.055984, "bike_id": "adcface73f795c9cef79385416820f06", "rental_uris": {"android": "https://dc.lft.to/lastmile_qr_scan", "ios": "https://dc.lft.to/lastmile_qr_scan"}, "name": "adcface73f795c9cef79385416820f06", "is_reserved": 0}, {"is_disabled": 0, "fusion_lon": 0.0, "fusion_lat": 0.0, "lat": 38.85869066666667, "type": "electric_scooter", "lon": -76.99023483333333, "bike_id": "420773a43df151b7a711b4ae903a2e50", "rental_uris": {"android": "https://dc.lft.to/lastmile_qr_scan", "ios": "https://dc.lft.to/lastmile_qr_scan"}, "name": "420773a43df151b7a711b4ae903a2e50", "is_reserved": 0}, {"is_disabled": 0, "fusion_lon": 0.0, "fusion_lat": 0.0, "lat": 38.88724216666667, "type": "electric_scooter", "lon": -77.0219905, "bike_id": "7ddff53cae7e1b1ff4cac9f84fa5184a", "rental_uris": {"android": "https://dc.lft.to/lastmile_qr_scan", "ios": "https://dc.lft.to/lastmile_qr_scan"}, "name": "7ddff53cae7e1b1ff4cac9f84fa5184a", "is_reserved": 0}, {"is_disabled": 0, "fusion_lon": 0.0, "fusion_lat": 0.0, "lat": 38.92030066666667, "type": "electric_scooter", "lon": -77.02581566666667, "bike_id": "dd02517b5c57463481ecb551b2371377", "rental_uris": {"android": "https://dc.lft.to/lastmile_qr_scan", "ios": "https://dc.lft.to/lastmile_qr_scan"}, "name": "dd02517b5c57463481ecb551b2371377", "is_reserved": 0}, {"is_disabled": 0, "fusion_lon": 0.0, "fusion_lat": 0.0, "lat": 38.95624466666666, "type": "electric_scooter", "lon": -77.02454366666667, "bike_id": "3a3de63a1607fd95978f2b454cf1f11b", "rental_uris": {"android": "https://dc.lft.to/lastmile_qr_scan", "ios": "https://dc.lft.to/lastmile_qr_scan"}, "name": "3a3de63a1607fd95978f2b454cf1f11b", "is_reserved": 0}, {"is_disabled": 0, "fusion_lon": 0.0, "fusion_lat": 0.0, "lat": 38.918035333333336, "type": "electric_scooter", "lon": -77.0268935, "bike_id": "72269cce82f45994aa2857c3043140d7", "rental_uris": {"android": "https://dc.lft.to/lastmile_qr_scan", "ios": "https://dc.lft.to/lastmile_qr_scan"}, "name": "72269cce82f45994aa2857c3043140d7", "is_reserved": 0},