{"data": {"bikes": [{"fusion_lon": 0.0, "bike_id": "9c1e7c09cac32e4acf8edbd4f92895c6", "name": "9c1e7c09cac32e4acf8edbd4f92895c6", "type": "electric_bike", "lon": -77.04978433333333, "rental_uris": {"android": "https://dc.lft.to/lastmile_qr_scan", "ios": "https://dc.lft.to/lastmile_qr_scan"}, "lat": 38.992419, "is_reserved": 0, "is_disabled": 0, "fusion_lat": 0.0}, {"fusion_lon": 0.0, "bike_id": "d6811e0a7339644744f68262996a540a", "name": "d6811e0a7339644744f68262996a540a", "type": "electric_scooter", "lon": -77.02300733333334, "rental_uris": {"android": "https://dc.lft.to/lastmile_qr_scan", "ios": "https://dc.lft.to/lastmile_qr_scan"}, "lat": 38.878727166666664, "is_reserved": 0, "is_disabled": 0, "fusion_lat": 0.0}, {"fusion_lon": 0.0, "bike_id": "360cd0f938300d33e7b511f79c5ce133", "name": "360cd0f938300d33e7b511f79c5ce133", "type": "electric_bike", "lon": -76.9669875, "rental_uris": {"android": "https://dc.lft.to/lastmile_qr_scan", "ios": "https://dc.lft.to/lastmile_qr_scan"}, "lat": 38.86852916666667, "is_reserved": 0, "is_disabled": 0, "fusion_lat": 0.0}, {"fusion_lon": 0.0, "bike_id": "75ec4d3e3aa79cabc8f9f097590dc433", "name": "75ec4d3e3aa79cabc8f9f097590dc433", "type": "electric_bike", "lon": -77.19544066666667, "rental_uris": {"android": "https://dc.lft.to/lastmile_qr_scan", "ios": "https://dc.lft.to/lastmile_qr_scan"}, "lat": 39.115127666666666, "is_reserved": 0, "is_disabled": 0, "fusion_lat": 0.0}, {"fusion_lon": 0.0, "bike_id": "db7a731e6d24a0210847e2fc884d944f", "name": "db7a731e6d24a0210847e2fc884d944f", "type": "electric_scooter", "lon": -77.04665, "rental_uris": {"android": "https://dc.lft.to/lastmile_qr_scan", "ios": "https://dc.lft.to/lastmile_qr_scan"}, "lat": 38.915735166666664, "is_reserved": 0, "is_disabled": 0, "fusion_lat": 0.0}, {"fusion_lon": 0.0, "bike_id": "4bcf2c3d5507757a98f1c9e6d3a3fc42", "name": "4bcf2c3d5507757a98f1c9e6d3a3fc42", "type": "electric_scooter", "lon": -76.94652216666667, "rental_uris": {"android": "https://dc.lft.to/lastmile_qr_scan", "ios": "https://dc.lft.to/lastmile_qr_scan"}, "lat": 38.898242, "is_reserved": 0, "is_disabled": 0, "fusion_lat": 0.0}, {"fusion_lon": 0.0, "bike_id": "804d63f066c128c585a93d8ce6a81153", "name": "804d63f066c128c585a93d8ce6a81153", "type": "electric_scooter", "lon": -76.994078, "rental_uris": {"android": "https://dc.lft.to/lastmile_qr_scan", "ios": "https://dc.lft.to/lastmile_qr_scan"}, "lat": 38.877897833333336, "is_reserved": 0, "is_disabled": 0, "fusion_lat": 0.0}, {"fusion_lon": 0.0, "bike_id": "6d042abbdcea2dcbb68c7978451899e6", "name": "6d042abbdcea2dcbb68c7978451899e6", "type": "electric_scooter", "lon": -77.040304, "rental_uris": {"android": "https://dc.lft.to/lastmile_qr_scan", "ios": "https://dc.lft.to/lastmile_qr_scan"}, "lat": 38.8999335, "is_reserved": 0, "is_disabled": 0, "fusion_lat": 0.0}, {"fusion_lon": 0.0, "bike_id": "1c39541eeadfbaff6bbdcd625d63c2e2", "name": "1c39541eeadfbaff6bbdcd625d63c2e2", "type": "electric_scooter", "lon": -77.04497716666667, "rental_uris": {"android": "https://dc.lft.to/lastmile_qr_scan", "ios": "https://dc.lft.to/lastmile_qr_scan"}, "lat": 38.90907833333333, "is_reserved": 0, "is_disabled": 0, "fusion_lat": 0.0}, {"fusion_lon": 0.0, "bike_id": "a7bc784cca889cf3b353d90d20c8b856", "name": "a7bc784cca889cf3b353d90d20c8b856", "type": "electric_scooter", "lon": -77.00819933333334, "rental_uris": {"android": "https://dc.lft.to/lastmile_qr_scan", "ios": "https://dc.lft.to/lastmile_qr_scan"}, "lat": 38.91562916666667, "is_reserved": 0, "is_disabled": 0, "fusion_lat": 0.0}, {"fusion_lon": 0.0, "bike_id": "809cd03847fd079ca55e4fc73ad98373", "name": "809cd03847fd079ca55e4fc73ad98373", "type": "electric_scooter", "lon": -77.06105483333333, "rental_uris": {"android": "https://dc.lft.to/lastmile_qr_scan", "ios": "https://dc.lft.to/lastmile_qr_scan"}, "lat": 38.943623, "is_reserved": 0, "is_disabled": 0, "fusion_lat": 0.0}, {"fusion_lon": 0.0, "bike_id": "ab24fcbe99f7e056fdf8f6a80cc135e6", "name": "ab24fcbe99f7e056fdf8f6a80cc135e6", "type": "electric_scooter", "lon": -77.04174733333333, "rental_uris": {"android": "https://dc.lft.to/lastmile_qr_scan", "ios": "https://dc.lft.to/lastmile_qr_scan"}, "lat": 38.91359033333333, "is_reserved": 0, "is_disabled": 0, "fusion_lat": 0.0}, {"fusion_lon": 0.0, "bike_id": "5ffd51b543389dd13fe1483170eba476", "name": "5ffd51b543389dd13fe1483170eba476", "type": "electric_scooter", "lon": -77.04679483333334, "rental_uris": {"android": "https://dc.lft.to/lastmile_qr_scan", "ios": "https://dc.lft.to/lastmile_qr_scan"}, "lat": 38.895033833333336, "is_reserved": 0, "is_disabled": 0, "fusion_lat": 0.0}, {"fusion_lon": 0.0, "bike_id": "e03246ccb939c08bb3196e089466a350", "name": "e03246ccb939c08bb3196e089466a350", "type": "electric_scooter", "lon": -77.0435855, "rental_uris": {"android": "https://dc.lft.to/lastmile_qr_scan", "ios": "https://dc.lft.to/lastmile_qr_scan"}, "lat": 38.907245, "is_reserved": 0, "is_disabled": 0, "fusion_lat": 0.0}, {"fusion_lon": 0.0, "bike_id": "d2a0bdfe56757e867f8e13acc6d5d79f", "name": "d2a0bdfe56757e867f8e13acc6d5d79f", "type": "electric_scooter", "lon": -77.011074, "rental_uris": {"android": "https://dc.lft.to/lastmile_qr_scan", "ios": "https://dc.lft.to/lastmile_qr_scan"}, "lat": 38.894833, "is_reserved": 0, "is_disabled": 0, "fusion_lat": 0.0}, {"fusion_lon": 0.0, "bike_id": "be590b78dc83d337cb44c07b65bae55f", "name": "be590b78dc83d337cb44c07b65bae55f", "type": "electric_scooter", "lon": -77.03052783333334, "rental_uris": {"android": "https://dc.lft.to/lastmile_qr_scan", "ios": "https://dc.lft.to/lastmile_qr_scan"}, "lat": 38.8840935, "is_reserved": 0, "is_disabled": 0, "fusion_lat": 0.0}, {"fusion_lon": 0.0, "bike_id": "69d79dfed9ef9a671540174fa630f6b0", "name": "69d79dfed9ef9a671540174fa630f6b0", "type": "electric_scooter", "lon": -77.02023066666666, "rental_uris": {"android": "https://dc.lft.to/lastmile_qr_scan", "ios": "https://dc.lft.to/lastmile_qr_scan"}, "lat": 38.92443516666667, "is_reserved": 0, "is_disabled": 0, "fusion_lat": 0.0}, {"fusion_lon": 0.0, "bike_id": "ed7ec2f34f89778b9deb85278bf51e0c", "name": "ed7ec2f34f89778b9deb85278bf51e0c", "type": "electric_scooter", "lon": -77.0325345, "rental_uris": {"android": "https://dc.lft.to/lastmile_qr_scan", "ios": "https://dc.lft.to/lastmile_qr_scan"}, "lat": 38.918168, "is_reserved": 0, "is_disabled": 0, "fusion_lat": 0.0}, {"fusion_lon": 0.0, "bike_id": "91b7a78402343ebd29e72d82dfc483cf", "name": "91b7a78402343ebd29e72d82dfc483cf", "type": "electric_scooter", "lon": -77.02781466666667, "rental_uris": {"android": "https://dc.lft.to/lastmile_qr_scan", "ios": "https://dc.lft.to/lastmile_qr_scan"}, "lat": 38.89223533333333, "is_reserved": 0, "is_disabled": 0, "fusion_lat": 0.0}, {"fusion_lon": 0.0, "bike_id": "4e5d8411e5575d3d2f9aade2efb3c2e6", "name": "4e5d8411e5575d3d2f9aade2efb3c2e6", "type": "electric_scooter", "lon": -77.03833333333333, "rental_uris": {"android": "https://dc.lft.to/lastmile_qr_scan", "ios": "https://dc.lft.to/lastmile_qr_scan"}, "lat": 38.917336666666664, "is_reserved": 0, "is_disabled": 0, "fusion_lat": 0.0}, {"fusion_lon": 0.0, "bike_id": "56b965be74f32678a223beb95539b02b", "name": "56b965be74f32678a223beb95539b02b", "type": "electric_scooter", "lon": -77.033238, "rental_uris": {"android": "https://dc.lft.to/lastmile_qr_scan", "ios": "https://dc.lft.to/lastmile_qr_scan"}, "lat": 38.9025635, "is_reserved": 0, "is_disabled": 0, "fusion_lat": 0.0}, {"fusion_lon": 0.0, "bike_id": "b49cb9bd1ff6dcac5c45afc39dc3a6cc", "name": "b49cb9bd1ff6dcac5c45afc39dc3a6cc", "type": "electric_scooter", "lon": -76.98885483333333, "rental_uris": {"android": "https://dc.lft.to/lastmile_qr_scan", "ios": "https://dc.lft.to/lastmile_qr_scan"}, "lat": 38.866731333333334, "is_reserved": 0, "is_disabled": 0, "fusion_lat": 0.0}, {"fusion_lon": 0.0, "bike_id": "1fd2862403e7d0cf44b976640931a56c", "name": "1fd2862403e7d0cf44b976640931a56c", "type": "electric_bike", "lon": -76.96089833333333, "rental_uris": {"android": "https://dc.lft.to/lastmile_qr_scan", "ios": "https://dc.lft.to/lastmile_qr_scan"}, "lat": 38.918580166666665, "is_reserved": 0, "is_disabled": 0, "fusion_lat": 0.0}, {"fusion_lon": 0.0, "bike_id": "9bee640e5c27d6b4f84a933d7c7cd96c", "name": "9bee640e5c27d6b4f84a933d7c7cd96c", "type": "electric_scooter", "lon": -77.0115525, "rental_uris": {"android": "https://dc.lft.to/lastmile_qr_scan", "ios": "https://dc.lft.to/lastmile_qr_scan"}, "lat": 38.895862666666666, "is_reserved": 0, "is_disabled": 0, "fusion_lat": 0.0}, {"fusion_lon": 0.0, "bike_id": "50420a01f9603328fe42d39b50f607da", "name": "50420a01f9603328fe42d39b50f607da", "type": "electric_scooter", "lon": -76.94998433333333, "rental_uris": {"android": "https://dc.lft.to/lastmile_qr_scan", "ios": "https://dc.lft.to/lastmile_qr_scan"}, "lat": 38.893912666666665, "is_reserved": 0, "is_disabled": 0, "fusion_lat": 0.0}, {"fusion_lon": 0.0, "bike_id": "d4741d7e03a5950c23293b5d79193865", "name": "d4741d7e03a5950c23293b5d79193865", "type": "electric_scooter", "lon": -77.06351166666667, "rental_uris": {"android": "https://dc.lft.to/lastmile_qr_scan", "ios": "https://dc.lft.to/lastmile_qr_scan"}, "lat": 38.94448766666667, "is_reserved": 0, "is_disabled": 0, "fusion_lat": 0.0}, {"fusion_lon": 0.0, "bike_id": "ba39b2848dc719aea4b5c50c96574377", "name": "ba39b2848dc719aea4b5c50c96574377", "type": "electric_scooter", "lon": -77.04011566666667, "rental_uris": {"android": "https://dc.lft.to/lastmile_qr_scan", "ios": "https://dc.lft.to/lastmile_qr_scan"}, "lat": 38.903637833333335, "is_reserved": 0, "is_disabled": 0, "fusion_lat": 0.0}, {"fusion_lon": 0.0, "bike_id": "aa984c696853005fb08c16f85f599b46", "name": "aa984c696853005fb08c16f85f599b46", "type": "electric_bike", "lon": -76.92543933333333, "rental_uris": {"android": "https://dc.lft.to/lastmile_qr_scan", "ios": "https://dc.lft.to/lastmile_qr_scan"}, "lat": 38.95929233333333, "is_reserved": 0, "is_disabled": 0, "fusion_lat": 0.0}, {"fusion_lon": 0.0, "bike_id": "730ac221b0bfdacccecfcedcd6c56373", "name": "730ac221b0bfdacccecfcedcd6c56373", "type": "electric_bike", "lon": -77.063875, "rental_uris": {"android": "https://dc.lft.to/lastmile_qr_scan", "ios": "https://dc.lft.to/lastmile_qr_scan"}, "lat": 39.01729916666667, "is_reserved": 0, "is_disabled": 0, "fusion_lat": 0.0}, {"fusion_lon": 0.0, "bike_id": "941bb4ae675f1f91050e26a80bad34a5", "name": "941bb4ae675f1f91050e26a80bad34a5", "type": "electric_scooter", "lon": -77.052208, "rental_uris": {"android": "https://dc.lft.to/lastmile_qr_scan", "ios": "https://dc.lft.to/lastmile_qr_scan"}, "lat": 38.89821233333333, "is_reserved": 0, "is_disabled": 0, "fusion_lat": 0.0}, {"fusion_lon": 0.0, "bike_id": "9eb7278ef7b9f643033ac2c3eebf0738", "name": "9eb7278ef7b9f643033ac2c3eebf0738", "type": "electric_bike", "lon": -76.98020833333334, "rental_uris": {"android": "https://dc.lft.to/lastmile_qr_scan", "ios": "https://dc.lft.to/lastmile_qr_scan"}, "lat": 38.90093433333333, "is_reserved": 0, "is_disabled": 0, "fusion_lat": 0.0}, {"fusion_lon": 0.0, "bike_id": "73ef9828d3b692cd48ed0c6536d3c0e0", "name": "73ef9828d3b692cd48ed0c6536d3c0e0", "type": "electric_scooter", "lon": -77.03474166666666, "rental_uris": {"android": "https://dc.lft.to/lastmile_qr_scan", "ios": "https://dc.lft.to/lastmile_qr_scan"}, "lat": 38.916273333333336, "is_reserved": 0, "is_disabled": 0, "fusion_lat": 0.0}, {"fusion_lon": 0.0, "bike_id": "9ff49e085fc4b60d889b5483f644baa4", "name": "9ff49e085fc4b60d889b5483f644baa4", "type": "electric_scooter", "lon": -76.98454083333333, "rental_uris": {"android": "https://dc.lft.to/lastmile_qr_scan", "ios": "https://dc.lft.to/lastmile_qr_scan"}, "lat": 38.880087333333336, "is_reserved": 0, "is_disabled": 0, "fusion_lat": 0.0}, {"fusion_lon": 0.0, "bike_id": "b90933da768054785aedc8687b968dec", "name": "b90933da768054785aedc8687b968dec", "type": "electric_scooter", "lon": -77.00744066666667, "rental_uris": {"android": "https://dc.lft.to/lastmile_qr_scan", "ios": "https://dc.lft.to/lastmile_qr_scan"}, "lat": 38.91191116666667, "is_reserved": 0, "is_disabled": 0, "fusion_lat": 0.0}, {"fusion_lon": 0.0, "bike_id": "50a6364c0102a280d0af9d07227cb376", "name": "50a6364c0102a280d0af9d07227cb376", "type": "electric_scooter", "lon": -77.02489983333334, "rental_uris": {"android": "https://dc.lft.to/lastmile_qr_scan", "ios": "https://dc.lft.to/lastmile_qr_scan"}, "lat": 38.917477166666664, "is_reserved": 0, "is_disabled": 0, "fusion_lat": 0.0}, {"fusion_lon": 0.0, "bike_id": "9fd080ed79a807a0ba80c13a8ec1d3fa", "name": "9fd080ed79a807a0ba80c13a8ec1d3fa", "type": "electric_scooter", "lon": -76.990726, "rental_uris": {"android": "https://dc.lft.to/lastmile_qr_scan", "ios": "https://dc.lft.to/lastmile_qr_scan"}, "lat": 38.90415183333333, "is_reserved": 0, "is_disabled": 0, "fusion_lat": 0.0}, {"fusion_lon": 0.0, "bike_id": "468ab4834c41d08b7c6473cb71bebb02", "name": "468ab4834c41d08b7c6473cb71bebb02", "type": "electric_bike", "lon": -77.00864916666667, "rental_uris": {"android": "https://dc.lft.to/lastmile_qr_scan", "ios": "https://dc.lft.to/lastmile_qr_scan"}, "lat": 38.82730383333333, "is_reserved": 0, "is_disabled": 0, "fusion_lat": 0.0}, {"fusion_lon": 0.0, "bike_id": "5356aa44dce9d67190730b3764479622", "name": "5356aa44dce9d67190730b3764479622", "type": "electric_scooter", "lon": -76.99372333333334, "rental_uris": {"android": "https://dc.lft.to/lastmile_qr_scan", "ios": "https://dc.lft.to/lastmile_qr_scan"}, "lat": 38.92398166666667, "is_reserved": 0, "is_disabled": 0, "fusion_lat": 0.0}, {"fusion_lon": 0.0, "bike_id": "c97197313ede59f54b23a60f0b6ed72e", "name": "c97197313ede59f54b23a60f0b6ed72e", "type": "electric_scooter", "lon": -77.02525516666667, "rental_uris": {"android": "https://dc.lft.to/lastmile_qr_scan", "ios": "https://dc.lft.to/lastmile_qr_scan"}, "lat": 38.900913333333335, "is_reserved": 0, "is_disabled": 0, "fusion_lat": 0.0}, {"fusion_lon": 0.0, "bike_id": "ddcdd30992ca3130ba3226bdf77ddc57", "name": "ddcdd30992ca3130ba3226bdf77ddc57", "type": "electric_scooter", "lon": -76.98568633333333, "rental_uris": {"android": "https://dc.lft.to/lastmile_qr_scan", "ios": "https://dc.lft.to/lastmile_qr_scan"}, "lat": 38.855900166666665, "is_reserved": 0, "is_disabled": 0, "fusion_lat": 0.0}, {"fusion_lon": 0.0, "bike_id": "1c3358d855cb007de28fd7cd26d015ca", "name": "1c3358d855cb007de28fd7cd26d015ca", "type": "electric_scooter", "lon": -77.03479716666666, "rental_uris": {"android": "https://dc.lft.to/lastmile_qr_scan", "ios": "https://dc.lft.to/lastmile_qr_scan"}, "lat": 38.907994333333335, "is_reserved": 0, "is_disabled": 0, "fusion_lat": 0.0}, {"fusion_lon": 0.0, "bike_id": "a3ec91a53515cc0430818413aae482e3", "name": "a3ec91a53515cc0430818413aae482e3", "type": "electric_scooter", "lon": -77.01747183333333, "rental_uris": {"android": "https://dc.lft.to/lastmile_qr_scan", "ios": "https://dc.lft.to/lastmile_qr_scan"}, "lat": 38.878834499999996, "is_reserved": 0, "is_disabled": 0, "fusion_lat": 0.0}, {"fusion_lon": 0.0, "bike_id": "61dab7d794f97bb414ed1784abd179b3", "name": "61dab7d794f97bb414ed1784abd179b3", "type": "electric_scooter", "lon": -77.053985, "rental_uris": {"android": "https://dc.lft.to/lastmile_qr_scan", "ios": "https://dc.lft.to/lastmile_qr_scan"}, "lat": 38.8689965, "is_reserved": 0, "is_disabled": 0, "fusion_lat": 0.0}, {"fusion_lon": 0.0, "bike_id": "136c60e5b2c67ddd07ab98bc9aa9b964", "name": "136c60e5b2c67ddd07ab98bc9aa9b964", "type": "electric_scooter", "lon": -77.03183466666667, "rental_uris": {"android": "https://dc.lft.to/lastmile_qr_scan", "ios": "https://dc.lft.to/lastmile_qr_scan"}, "lat": 38.919233166666665, "is_reserved": 0, "is_disabled": 0, "fusion_lat": 0.0}, {"fusion_lon": 0.0, "bike_id": "25409c5eb99164a815cf7116e8182c5e", "name": "25409c5eb99164a815cf7116e8182c5e", "type": "electric_scooter", "lon": -77.038561, "rental_uris": {"android": "https://dc.lft.to/lastmile_qr_scan", "ios": "https://dc.lft.to/lastmile_qr_scan"}, "lat": 38.911829, "is_reserved": 0, "is_disabled": 0, "fusion_lat": 0.0}, {"fusion_lon": 0.0, "bike_id": "8056d2a4fd69a48550ba830538bf20f8", "name": "8056d2a4fd69a48550ba830538bf20f8", "type": "electric_scooter", "lon": -76.964364, "rental_uris": {"android": "https://dc.lft.to/lastmile_qr_scan", "ios": "https://dc.lft.to/lastmile_qr_scan"}, "lat": 38.9346265, "is_reserved": 0, "is_disabled": 0, "fusion_lat": 0.0}, {"fusion_lon": 0.0, "bike_id": "bcd8d22eb1949d8376557023cf18b8f7", "name": "bcd8d22eb1949d8376557023cf18b8f7", "type": "electric_bike", "lon": -77.10718833333334, "rental_uris": {"android": "https://dc.lft.to/lastmile_qr_scan", "ios": "https://dc.lft.to/lastmile_qr_scan"}, "lat": 38.85548766666667, "is_reserved": 0, "is_disabled": 0, "fusion_lat": 0.0}, {"fusion_lon": 0.0, "bike_id": "f80af47c2fdabc1445d2d5fdd6ab1872", "name": "f80af47c2fdabc1445d2d5fdd6ab1872", "type": "electric_scooter", "lon": -77.03879616666667, "rental_uris": {"android": "https://dc.lft.to/lastmile_qr_scan", "ios": "https://dc.lft.to/lastmile_qr_scan"}, "lat": 38.93429666666667, "is_reserved": 0, "is_disabled": 0, "fusion_lat": 0.0}, {"fusion_lon": 0.0, "bike_id": "33cc77d8c0fa307a096a2e9d7176df5a", "name": "33cc77d8c0fa307a096a2e9d7176df5a", "type": "electric_scooter", "lon": -77.044541, "rental_uris": {"android": "https://dc.lft.to/lastmile_qr_scan", "ios": "https://dc.lft.to/lastmile_qr_scan"}, "lat": 38.90993183333333, "is_reserved": 0, "is_disabled": 0, "fusion_lat": 0.0}, {"fusion_lon": 0.0, "bike_id": "64fd6e1739a28c0af8ceb95d8ce16af4", "name": "64fd6e1739a28c0af8ceb95d8ce16af4", "type": "electric_bike", "lon": -77.05120466666666, "rental_uris": {"android": "https://dc.lft.to/lastmile_qr_scan", "ios": "https://dc.lft.to/lastmile_qr_scan"}, "lat": 38.94554083333333, "is_reserved": 0, "is_disabled": 0, "fusion_lat": 0.0}, {"fusion_lon": 0.0, "bike_id": "0c6ae36920bd4e348da94573ae7a5e61", "name": "0c6ae36920bd4e348da94573ae7a5e61", "type": "electric_scooter", "lon": -77.063642, "rental_uris": {"android": "https://dc.lft.to/lastmile_qr_scan", "ios": "https://dc.lft.to/lastmile_qr_scan"}, "lat": 38.944160833333335, "is_reserved": 0, "is_disabled": 0, "fusion_lat": 0.0}, {"fusion_lon": 0.0, "bike_id": "fdb4dfe9c14d7553c5ba0142c5f25024", "name": "fdb4dfe9c14d7553c5ba0142c5f25024", "type": "electric_scooter", "lon": -77.043329, "rental_uris": {"android": "https://dc.lft.to/lastmile_qr_scan", "ios": "https://dc.lft.to/lastmile_qr_scan"}, "lat": 38.902594666666666, "is_reserved": 0, "is_disabled": 0, "fusion_lat": 0.0}, {"fusion_lon": 0.0, "bike_id": "2a8327c52d818e502488a09a1c231a3c", "name": "2a8327c52d818e502488a09a1c231a3c", "type": "electric_scooter", "lon": -77.039295, "rental_uris": {"android": "https://dc.lft.to/lastmile_qr_scan", "ios": "https://dc.lft.to/lastmile_qr_scan"}, "lat": 38.92491966666667, "is_reserved": 0, "is_disabled": 0, "fusion_lat": 0.0}, {"fusion_lon": 0.0, "bike_id": "175bde69d9ea3921d04bc05cbd8d02b9", "name": "175bde69d9ea3921d04bc05cbd8d02b9", "type": "electric_scooter", "lon": -77.027766, "rental_uris": {"android": "https://dc.lft.to/lastmile_qr_scan", "ios": "https://dc.lft.to/lastmile_qr_scan"}, "lat": 38.89219, "is_reserved": 0, "is_disabled": 0, "fusion_lat": 0.0}, {"fusion_lon": 0.0, "bike_id": "f33cc70db78abf5e18fb273185cad2c7", "name": "f33cc70db78abf5e18fb273185cad2c7", "type": "electric_bike", "lon": -77.03211383333333, "rental_uris": {"android": "https://dc.lft.to/lastmile_qr_scan", "ios": "https://dc.lft.to/lastmile_qr_scan"}, "lat": 38.91720633333333, "is_reserved": 0, "is_disabled": 0, "fusion_lat": 0.0}, {"fusion_lon": 0.0, "bike_id": "69b765e7c9a733d2cf2287cf2955ea1e", "name": "69b765e7c9a733d2cf2287cf2955ea1e", "type": "electric_bike", "lon": -77.05415833333333, "rental_uris": {"android": "https://dc.lft.to/lastmile_qr_scan", "ios": "https://dc.lft.to/lastmile_qr_scan"}, "lat": 38.84887416666667, "is_reserved": 0, "is_disabled": 0, "fusion_lat": 0.0}, {"fusion_lon": 0.0, "bike_id": "77dfbde4e68013dc7b581d81b4981611", "name": "77dfbde4e68013dc7b581d81b4981611", "type": "electric_scooter", "lon": -77.02025566666667, "rental_uris": {"android": "https://dc.lft.to/lastmile_qr_scan", "ios": "https://dc.lft.to/lastmile_qr_scan"}, "lat": 38.913076833333335, "is_reserved": 0, "is_disabled": 0, "fusion_lat": 0.0}, {"fusion_lon": 0.0, "bike_id": "239d18255c30e91c23c1731caaeee308", "name": "239d18255c30e91c23c1731caaeee308", "type": "electric_scooter", "lon": -77.0447335, "rental_uris": {"android": "https://dc.lft.to/lastmile_qr_scan", "ios": "https://dc.lft.to/lastmile_qr_scan"}, "lat": 38.9055575, "is_reserved": 0, "is_disabled": 0, "fusion_lat": 0.0}, {"fusion_lon": 0.0, "bike_id": "ed3c72b1fed2c5f95975c5cbf73f6f3a", "name": "ed3c72b1fed2c5f95975c5cbf73f6f3a", "type": "electric_scooter", "lon": -77.04179466666666, "rental_uris": {"android": "https://dc.lft.to/lastmile_qr_scan", "ios": "https://dc.lft.to/lastmile_qr_scan"}, "lat": 38.912686, "is_reserved": 0, "is_disabled": 0, "fusion_lat": 0.0}, {"fusion_lon": 0.0, "bike_id": "aefc3b8330c46a50d058f07b2153874e", "name": "aefc3b8330c46a50d058f07b2153874e", "type": "electric_scooter", "lon": -77.04993616666667, "rental_uris": {"android": "https://dc.lft.to/lastmile_qr_scan", "ios": "https://dc.lft.to/lastmile_qr_scan"}, "lat": 38.901770166666665, "is_reserved": 0, "is_disabled": 0, "fusion_lat": 0.0}, {"fusion_lon": 0.0, "bike_id": "fc29c17e09780990f1f95ca0e7c331c6", "name": "fc29c17e09780990f1f95ca0e7c331c6", "type": "electric_scooter", "lon": -77.01589816666667, "rental_uris": {"android": "https://dc.lft.to/lastmile_qr_scan", "ios": "https://dc.lft.to/lastmile_qr_scan"}, "lat": 38.9284375, "is_reserved": 0, "is_disabled": 0, "fusion_lat": 0.0}, {"fusion_lon": 0.0, "bike_id": "364a5071329d10e12fe1d1891fec93a1", "name": "364a5071329d10e12fe1d1891fec93a1", "type": "electric_scooter", "lon": -77.010602, "rental_uris": {"android": "https://dc.lft.to/lastmile_qr_scan", "ios": "https://dc.lft.to/lastmile_qr_scan"}, "lat": 38.87247816666667, "is_reserved": 0, "is_disabled": 0, "fusion_lat": 0.0}, {"fusion_lon": 0.0, "bike_id": "7a6f812d118612fe74082b8c063a0c02", "name": "7a6f812d118612fe74082b8c063a0c02", "type": "electric_scooter", "lon": -77.031827, "rental_uris": {"android": "https://dc.lft.to/lastmile_qr_scan", "ios": "https://dc.lft.to/lastmile_qr_scan"}, "lat": 38.891764333333334, "is_reserved": 0, "is_disabled": 0, "fusion_lat": 0.0}, {"fusion_lon": 0.0, "bike_id": "d10fffd3017ae6104a7ffeb862094460", "name": "d10fffd3017ae6104a7ffeb862094460", "type": "electric_scooter", "lon": -77.02469316666667, "rental_uris": {"android": "https://dc.lft.to/lastmile_qr_scan", "ios": "https://dc.lft.to/lastmile_qr_scan"}, "lat": 38.89732333333333, "is_reserved": 0, "is_disabled": 0, "fusion_lat": 0.0}, {"fusion_lon": 0.0, "bike_id": "f3489640396587b44027b0ea6efce8f8", "name": "f3489640396587b44027b0ea6efce8f8", "type": "electric_scooter", "lon": -76.9892965, "rental_uris": {"android": "https://dc.lft.to/lastmile_qr_scan", "ios": "https://dc.lft.to/lastmile_qr_scan"}, "lat": 38.88198633333333, "is_reserved": 0, "is_disabled": 0, "fusion_lat": 0.0}, {"fusion_lon": 0.0, "bike_id": "697b45f2a22a55775cb9f6f411707644", "name": "697b45f2a22a55775cb9f6f411707644", "type": "electric_scooter", "lon": -77.04978833333334, "rental_uris": {"android": "https://dc.lft.to/lastmile_qr_scan", "ios": "https://dc.lft.to/lastmile_qr_scan"}, "lat": 38.8960935, "is_reserved": 0, "is_disabled": 0, "fusion_lat": 0.0}, {"fusion_lon": 0.0, "bike_id": "35a46a8d2356794656c74241a37f3737", "name": "35a46a8d2356794656c74241a37f3737", "type": "electric_scooter", "lon": -77.01769066666667, "rental_uris": {"android": "https://dc.lft.to/lastmile_qr_scan", "ios": "https://dc.lft.to/lastmile_qr_scan"}, "lat": 38.921106333333334, "is_reserved": 0, "is_disabled": 0, "fusion_lat": 0.0}, {"fusion_lon": 0.0, "bike_id": "89fc7067c7f6911e0df9013c65205cf6", "name": "89fc7067c7f6911e0df9013c65205cf6", "type": "electric_scooter", "lon": -77.027173, "rental_uris": {"android": "https://dc.lft.to/lastmile_qr_scan", "ios": "https://dc.lft.to/lastmile_qr_scan"}, "lat": 38.91964383333333, "is_reserved": 0, "is_disabled": 0, "fusion_lat": 0.0}, {"fusion_lon": 0.0, "bike_id": "7285753199e39cb5be1bf1b22dee4e3a", "name": "7285753199e39cb5be1bf1b22dee4e3a", "type": "electric_scooter", "lon": -77.02480633333333, "rental_uris": {"android": "https://dc.lft.to/lastmile_qr_scan", "ios": "https://dc.lft.to/lastmile_qr_scan"}, "lat": 38.938868666666664, "is_reserved": 0, "is_disabled": 0, "fusion_lat": 0.0}, {"fusion_lon": 0.0, "bike_id": "47a0f9473d9b4cc97f619e42a8c4deda", "name": "47a0f9473d9b4cc97f619e42a8c4deda", "type": "electric_scooter", "lon": -77.03073283333333, "rental_uris": {"android": "https://dc.lft.to/lastmile_qr_scan", "ios": "https://dc.lft.to/lastmile_qr_scan"}, "lat": 38.90263516666667, "is_reserved": 0, "is_disabled": 0, "fusion_lat": 0.0}, {"fusion_lon": 0.0, "bike_id": "152530fba94855adaca5d4a4a195d060", "name": "152530fba94855adaca5d4a4a195d060", "type": "electric_scooter", "lon": -77.0249575, "rental_uris": {"android": "https://dc.lft.to/lastmile_qr_scan", "ios": "https://dc.lft.to/lastmile_qr_scan"}, "lat": 38.92065366666667, "is_reserved": 0, "is_disabled": 0, "fusion_lat": 0.0}, {"fusion_lon": 0.0, "bike_id": "40930e9fd8ae92f0bfd6e59b842d2342", "name": "40930e9fd8ae92f0bfd6e59b842d2342", "type": "electric_scooter", "lon": -77.04402933333333, "rental_uris": {"android": "https://dc.lft.to/lastmile_qr_scan", "ios": "https://dc.lft.to/lastmile_qr_scan"}, "lat": 38.92014, "is_reserved": 0, "is_disabled": 0, "fusion_lat": 0.0}, {"fusion_lon": 0.0, "bike_id": "6ec1a0d96bb86a957de60c8b052b9838", "name": "6ec1a0d96bb86a957de60c8b052b9838", "type": "electric_bike", "lon": -77.1273775, "rental_uris": {"android": "https://dc.lft.to/lastmile_qr_scan", "ios": "https://dc.lft.to/lastmile_qr_scan"}, "lat": 38.895677166666665, "is_reserved": 0, "is_disabled": 0, "fusion_lat": 0.0}, {"fusion_lon": 0.0, "bike_id": "11074119b2e6717b041f3912187fe6b0", "name": "11074119b2e6717b041f3912187fe6b0", "type": "electric_scooter", "lon": -77.027933, "rental_uris": {"android": "https://dc.lft.to/lastmile_qr_scan", "ios": "https://dc.lft.to/lastmile_qr_scan"}, "lat": 38.92681283333334, "is_reserved": 0, "is_disabled": 0, "fusion_lat": 0.0}, {"fusion_lon": 0.0, "bike_id": "471e573749817904d733ef0d3e3e695c", "name": "471e573749817904d733ef0d3e3e695c", "type": "electric_scooter", "lon": -77.02385216666667, "rental_uris": {"android": "https://dc.lft.to/lastmile_qr_scan", "ios": "https://dc.lft.to/lastmile_qr_scan"}, "lat": 38.89234966666667, "is_reserved": 0, "is_disabled": 0, "fusion_lat": 0.0}, {"fusion_lon": 0.0, "bike_id": "e475507c130478d04e0004e6395460b1", "name": "e475507c130478d04e0004e6395460b1", "type": "electric_scooter", "lon": -76.99631416666666, "rental_uris": {"android": "https://dc.lft.to/lastmile_qr_scan", "ios": "https://dc.lft.to/lastmile_qr_scan"}, "lat": 38.8462255, "is_reserved": 0, "is_disabled": 0, "fusion_lat": 0.0}, {"fusion_lon": 0.0, "bike_id": "a25cb6ca120e8b8858c55b573f14062c", "name": "a25cb6ca120e8b8858c55b573f14062c", "type": "electric_scooter", "lon": -76.93753666666667, "rental_uris": {"android": "https://dc.lft.to/lastmile_qr_scan", "ios": "https://dc.lft.to/lastmile_qr_scan"}, "lat": 38.890369166666666, "is_reserved": 0, "is_disabled": 0, "fusion_lat": 0.0}, {"fusion_lon": 0.0, "bike_id": "a67252fabfc8a46c34a75a7810531d94", "name": "a67252fabfc8a46c34a75a7810531d94", "type": "electric_scooter", "lon": -77.03144316666666, "rental_uris": {"android": "https://dc.lft.to/lastmile_qr_scan", "ios": "https://dc.lft.to/lastmile_qr_scan"}, "lat": 38.931823333333334, "is_reserved": 0, "is_disabled": 0, "fusion_lat": 0.0}, {"fusion_lon": 0.0, "bike_id": "14a02a8f1f38f631f13f9fd056956401", "name": "14a02a8f1f38f631f13f9fd056956401", "type": "electric_scooter", "lon": -77.01217283333334, "rental_uris": {"android": "https://dc.lft.to/lastmile_qr_scan", "ios": "https://dc.lft.to/lastmile_qr_scan"}, "lat": 38.895474, "is_reserved": 0, "is_disabled": 0, "fusion_lat": 0.0}, {"fusion_lon": 0.0, "bike_id": "612d5808196de6b322bca1cd3a72b5a3", "name": "612d5808196de6b322bca1cd3a72b5a3", "type": "electric_bike", "lon": -76.93898966666667, "rental_uris": {"android": "https://dc.lft.to/lastmile_qr_scan", "ios": "https://dc.lft.to/lastmile_qr_scan"}, "lat": 38.956269666666664, "is_reserved": 0, "is_disabled": 0, "fusion_lat": 0.0}, {"fusion_lon": 0.0, "bike_id": "8cc6444e40cb8600a1e293be53159b5a", "name": "8cc6444e40cb8600a1e293be53159b5a", "type": "electric_scooter", "lon": -77.04656616666666, "rental_uris": {"android": "https://dc.lft.to/lastmile_qr_scan", "ios": "https://dc.lft.to/lastmile_qr_scan"}, "lat": 38.892354166666664, "is_reserved": 0, "is_disabled": 0, "fusion_lat": 0.0}, {"fusion_lon": 0.0, "bike_id": "d070ecf30ea97caec5c53f7158a2bef2", "name": "d070ecf30ea97caec5c53f7158a2bef2", "type": "electric_scooter", "lon": -77.02317533333333, "rental_uris": {"android": "https://dc.lft.to/lastmile_qr_scan", "ios": "https://dc.lft.to/lastmile_qr_scan"}, "lat": 38.878837, "is_reserved": 0, "is_disabled": 0, "fusion_lat": 0.0}, {"fusion_lon": 0.0, "bike_id": "beee5b5f2f3f12215374e71750967f37", "name": "beee5b5f2f3f12215374e71750967f37", "type": "electric_scooter", "lon": -77.05056216666667, "rental_uris": {"android": "https://dc.lft.to/lastmile_qr_scan", "ios": "https://dc.lft.to/lastmile_qr_scan"}, "lat": 38.900892999999996, "is_reserved": 0, "is_disabled": 0, "fusion_lat": 0.0}, {"fusion_lon": 0.0, "bike_id": "701c859f607562d9e9cf66c1198056cf", "name": "701c859f607562d9e9cf66c1198056cf", "type": "electric_scooter", "lon": -77.01754183333334, "rental_uris": {"android": "https://dc.lft.to/lastmile_qr_scan", "ios": "https://dc.lft.to/lastmile_qr_scan"}, "lat": 38.913576166666665, "is_reserved": 0, "is_disabled": 0, "fusion_lat": 0.0}, {"fusion_lon": 0.0, "bike_id": "5388c05d130742804663384ad44d9b17", "name": "5388c05d130742804663384ad44d9b17", "type": "electric_scooter", "lon": -77.017707, "rental_uris": {"android": "https://dc.lft.to/lastmile_qr_scan", "ios": "https://dc.lft.to/lastmile_qr_scan"}, "lat": 38.921064666666666, "is_reserved": 0, "is_disabled": 0, "fusion_lat": 0.0}, {"fusion_lon": 0.0, "bike_id": "f3f03d7c9b86b2c97175caad663de4ca", "name": "f3f03d7c9b86b2c97175caad663de4ca", "type": "electric_scooter", "lon": -77.03156333333334, "rental_uris": {"android": "https://dc.lft.to/lastmile_qr_scan", "ios": "https://dc.lft.to/lastmile_qr_scan"}, "lat": 38.92814533333333, "is_reserved": 0, "is_disabled": 0, "fusion_lat": 0.0}, {"fusion_lon": 0.0, "bike_id": "2fb231f86700f565ee28672650f928a3", "name": "2fb231f86700f565ee28672650f928a3", "type": "electric_scooter", "lon": -77.00516166666667, "rental_uris": {"android": "https://dc.lft.to/lastmile_qr_scan", "ios": "https://dc.lft.to/lastmile_qr_scan"}, "lat": 38.87470833333333, "is_reserved": 0, "is_disabled": 0, "fusion_lat": 0.0}, {"fusion_lon": 0.0, "bike_id": "e0b3c6f0b25c9623ecf9d4c7128fb606", "name": "e0b3c6f0b25c9623ecf9d4c7128fb606", "type": "electric_bike", "lon": -76.98749116666667, "rental_uris": {"android": "https://dc.lft.to/lastmile_qr_scan", "ios": "https://dc.lft.to/lastmile_qr_scan"}, "lat": 38.9882415, "is_reserved": 0, "is_disabled": 0, "fusion_lat": 0.0}, {"fusion_lon": 0.0, "bike_id": "f3dda1d8edaa4ef104ffccffd808f4e6", "name": "f3dda1d8edaa4ef104ffccffd808f4e6", "type": "electric_scooter", "lon": -76.980322, "rental_uris": {"android": "https://dc.lft.to/lastmile_qr_scan", "ios": "https://dc.lft.to/lastmile_qr_scan"}, "lat": 38.907894166666665, "is_reserved": 0, "is_disabled": 0, "fusion_lat": 0.0}, {"fusion_lon": 0.0, "bike_id": "749f3b0e003441f2659ccafc4357f327", "name": "749f3b0e003441f2659ccafc4357f327", "type": "electric_scooter", "lon": -76.99867216666667, "rental_uris": {"android": "https://dc.lft.to/lastmile_qr_scan", "ios": "https://dc.lft.to/lastmile_qr_scan"}, "lat": 38.9089835, "is_reserved": 0, "is_disabled": 0, "fusion_lat": 0.0}, {"fusion_lon": 0.0, "bike_id": "9af7928cbc3a72153f419aa223f76b86", "name": "9af7928cbc3a72153f419aa223f76b86", "type": "electric_bike", "lon": -77.04305416666666, "rental_uris": {"android": "https://dc.lft.to/lastmile_qr_scan", "ios": "https://dc.lft.to/lastmile_qr_scan"}, "lat": 39.054480833333336, "is_reserved": 0, "is_disabled": 0, "fusion_lat": 0.0}, {"fusion_lon": 0.0, "bike_id": "ba9023eb3135785e90e6cde7388d34c7", "name": "ba9023eb3135785e90e6cde7388d34c7", "type": "electric_scooter", "lon": -77.03629783333334, "rental_uris": {"android": "https://dc.lft.to/lastmile_qr_scan", "ios": "https://dc.lft.to/lastmile_qr_scan"}, "lat": 38.90303516666667, "is_reserved": 0, "is_disabled": 0, "fusion_lat": 0.0}, {"fusion_lon": 0.0, "bike_id": "a86f909da628867d98abf8e76e1f9aef", "name": "a86f909da628867d98abf8e76e1f9aef", "type": "electric_scooter", "lon": -76.986688, "rental_uris": {"android": "https://dc.lft.to/lastmile_qr_scan", "ios": "https://dc.lft.to/lastmile_qr_scan"}, "lat": 38.901510333333334, "is_reserved": 0, "is_disabled": 0, "fusion_lat": 0.0}, {"fusion_lon": 0.0, "bike_id": "51835fc77131e4dd26b639927d4966b3", "name": "51835fc77131e4dd26b639927d4966b3", "type": "electric_scooter", "lon": -77.03846883333334, "rental_uris": {"android": "https://dc.lft.to/lastmile_qr_scan", "ios": "https://dc.lft.to/lastmile_qr_scan"}, "lat": 38.912087, "is_reserved": 0, "is_disabled": 0, "fusion_lat": 0.0}, {"fusion_lon": 0.0, "bike_id": "5a7d3df3438cd32b6009027aba814d85", "name": "5a7d3df3438cd32b6009027aba814d85", "type": "electric_bike", "lon": -77.17849266666667, "rental_uris": {"android": "https://dc.lft.to/lastmile_qr_scan", "ios": "https://dc.lft.to/lastmile_qr_scan"}, "lat": 39.08897566666667, "is_reserved": 0, "is_disabled": 0, "fusion_lat": 0.0}, {"fusion_lon": 0.0, "bike_id": "81993f95748472440eb11eff37505bfc", "name": "81993f95748472440eb11eff37505bfc", "type": "electric_scooter", "lon": -77.0176035, "rental_uris": {"android": "https://dc.lft.to/lastmile_qr_scan", "ios": "https://dc.lft.to/lastmile_qr_scan"}, "lat": 38.9167055, "is_reserved": 0, "is_disabled": 0, "fusion_lat": 0.0}, {"fusion_lon": 0.0, "bike_id": "fb9716efb866a76cd616004f556a58e9", "name": "fb9716efb866a76cd616004f556a58e9", "type": "electric_scooter", "lon": -77.01255483333334, "rental_uris": {"android": "https://dc.lft.to/lastmile_qr_scan", "ios": "https://dc.lft.to/lastmile_qr_scan"}, "lat": 38.87478633333333, "is_reserved": 0, "is_disabled": 0, "fusion_lat": 0.0}, {"fusion_lon": 0.0, "bike_id": "7690424668bbdac0e341651e191e16ff", "name": "7690424668bbdac0e341651e191e16ff", "type": "electric_scooter", "lon": -77.02646316666667, "rental_uris": {"android": "https://dc.lft.to/lastmile_qr_scan", "ios": "https://dc.lft.to/lastmile_qr_scan"}, "lat": 38.902668, "is_reserved": 0, "is_disabled": 0, "fusion_lat": 0.0}, {"fusion_lon": 0.0, "bike_id": "4202b4929227ad7910e39a2b58d12f8c", "name": "4202b4929227ad7910e39a2b58d12f8c", "type": "electric_scooter", "lon": -77.02104783333333, "rental_uris": {"android": "https://dc.lft.to/lastmile_qr_scan", "ios": "https://dc.lft.to/lastmile_qr_scan"}, "lat": 38.897382666666665, "is_reserved": 0, "is_disabled": 0, "fusion_lat": 0.0}, {"fusion_lon": 0.0, "bike_id": "142e995380c51722b33339356b78409f", "name": "142e995380c51722b33339356b78409f", "type": "electric_bike", "lon": -77.12738916666666, "rental_uris": {"android": "https://dc.lft.to/lastmile_qr_scan", "ios": "https://dc.lft.to/lastmile_qr_scan"}, "lat": 38.888231833333336, "is_reserved": 0, "is_disabled": 0, "fusion_lat": 0.0}, {"fusion_lon": 0.0, "bike_id": "7055c801570ef5b3b00c24f15099f773", "name": "7055c801570ef5b3b00c24f15099f773", "type": "electric_scooter", "lon": -77.01514566666667, "rental_uris": {"android": "https://dc.lft.to/lastmile_qr_scan", "ios": "https://dc.lft.to/lastmile_qr_scan"}, "lat": 38.885000833333336, "is_reserved": 0, "is_disabled": 0, "fusion_lat": 0.0}, {"fusion_lon": 0.0, "bike_id": "73556e69ee24c413b4112bc22f77f4d7", "name": "73556e69ee24c413b4112bc22f77f4d7", "type": "electric_scooter", "lon": -76.987707, "rental_uris": {"android": "https://dc.lft.to/lastmile_qr_scan", "ios": "https://dc.lft.to/lastmile_qr_scan"}, "lat": 38.91205633333333, "is_reserved": 0, "is_disabled": 0, "fusion_lat": 0.0}, {"fusion_lon": 0.0, "bike_id": "a276f754c22da331066a87aa98f216fd", "name": "a276f754c22da331066a87aa98f216fd", "type": "electric_scooter", "lon": -77.01588383333333, "rental_uris": {"android": "https://dc.lft.to/lastmile_qr_scan", "ios": "https://dc.lft.to/lastmile_qr_scan"}, "lat": 38.897295666666665, "is_reserved": 0, "is_disabled": 0, "fusion_lat": 0.0}, {"fusion_lon": 0.0, "bike_id": "41546747ff2831a85f9b19c42271f5c4", "name": "41546747ff2831a85f9b19c42271f5c4", "type": "electric_scooter", "lon": -77.027167, "rental_uris": {"android": "https://dc.lft.to/lastmile_qr_scan", "ios": "https://dc.lft.to/lastmile_qr_scan"}, "lat": 38.9067305, "is_reserved": 0, "is_disabled": 0, "fusion_lat": 0.0}, {"fusion_lon": 0.0, "bike_id": "4911289f1d5b9b3e5099c225dce4d8ab", "name": "4911289f1d5b9b3e5099c225dce4d8ab", "type": "electric_scooter", "lon": -76.931571, "rental_uris": {"android": "https://dc.lft.to/lastmile_qr_scan", "ios": "https://dc.lft.to/lastmile_qr_scan"}, "lat": 38.8988, "is_reserved": 0, "is_disabled": 0, "fusion_lat": 0.0}, {"fusion_lon": 0.0, "bike_id": "bd69fbf41e22c27588477b7c86276833", "name": "bd69fbf41e22c27588477b7c86276833", "type": "electric_scooter", "lon": -77.06161033333333, "rental_uris": {"android": "https://dc.lft.to/lastmile_qr_scan", "ios": "https://dc.lft.to/lastmile_qr_scan"}, "lat": 38.94217666666667, "is_reserved": 0, "is_disabled": 0, "fusion_lat": 0.0}, {"fusion_lon": 0.0, "bike_id": "e269c35d3f4e81a393abd16872571c9f", "name": "e269c35d3f4e81a393abd16872571c9f", "type": "electric_scooter", "lon": -76.94117683333333, "rental_uris": {"android": "https://dc.lft.to/lastmile_qr_scan", "ios": "https://dc.lft.to/lastmile_qr_scan"}, "lat": 38.90795966666667, "is_reserved": 0, "is_disabled": 0, "fusion_lat": 0.0}, {"fusion_lon": 0.0, "bike_id": "d85ed2f418ce828f7b3ca6b63e4e2e71", "name": "d85ed2f418ce828f7b3ca6b63e4e2e71", "type": "electric_scooter", "lon": -77.00482966666667, "rental_uris": {"android": "https://dc.lft.to/lastmile_qr_scan", "ios": "https://dc.lft.to/lastmile_qr_scan"}, "lat": 38.9259485, "is_reserved": 0, "is_disabled": 0, "fusion_lat": 0.0}, {"fusion_lon": 0.0, "bike_id": "25a2affe595680e7fd5fa0a6ccee09fe", "name": "25a2affe595680e7fd5fa0a6ccee09fe", "type": "electric_scooter", "lon": -77.007501, "rental_uris": {"android": "https://dc.lft.to/lastmile_qr_scan", "ios": "https://dc.lft.to/lastmile_qr_scan"}, "lat": 38.900723666666664, "is_reserved": 0, "is_disabled": 0, "fusion_lat": 0.0}, {"fusion_lon": 0.0, "bike_id": "bb55ed2334f4cbfd284608635b546163", "name": "bb55ed2334f4cbfd284608635b546163", "type": "electric_scooter", "lon": -77.0271445, "rental_uris": {"android": "https://dc.lft.to/lastmile_qr_scan", "ios": "https://dc.lft.to/lastmile_qr_scan"}, "lat": 38.917309, "is_reserved": 0, "is_disabled": 0, "fusion_lat": 0.0}, {"fusion_lon": 0.0, "bike_id": "0ae3f5d88ca4e11df22c99427952d2af", "name": "0ae3f5d88ca4e11df22c99427952d2af", "type": "electric_scooter", "lon": -76.98676733333333, "rental_uris": {"android": "https://dc.lft.to/lastmile_qr_scan", "ios": "https://dc.lft.to/lastmile_qr_scan"}, "lat": 38.85577833333333, "is_reserved": 0, "is_disabled": 0, "fusion_lat": 0.0}, {"fusion_lon": 0.0, "bike_id": "6bb4c0f3a340e7574f8c70f619e87540", "name": "6bb4c0f3a340e7574f8c70f619e87540", "type": "electric_scooter", "lon": -77.04369633333333, "rental_uris": {"android": "https://dc.lft.to/lastmile_qr_scan", "ios": "https://dc.lft.to/lastmile_qr_scan"}, "lat": 38.92581716666667, "is_reserved": 0, "is_disabled": 0, "fusion_lat": 0.0}, {"fusion_lon": 0.0, "bike_id": "c937437fbb1457e157ebbe722c11f853", "name": "c937437fbb1457e157ebbe722c11f853", "type": "electric_bike", "lon": -76.98094083333334, "rental_uris": {"android": "https://dc.lft.to/lastmile_qr_scan", "ios": "https://dc.lft.to/lastmile_qr_scan"}, "lat": 38.953585, "is_reserved": 0, "is_disabled": 0, "fusion_lat": 0.0}, {"fusion_lon": 0.0, "bike_id": "b3e22f64280a6273bc3f5d364c5d9bd8", "name": "b3e22f64280a6273bc3f5d364c5d9bd8", "type": "electric_scooter", "lon": -76.95755466666667, "rental_uris": {"android": "https://dc.lft.to/lastmile_qr_scan", "ios": "https://dc.lft.to/lastmile_qr_scan"}, "lat": 38.88435466666667, "is_reserved": 0, "is_disabled": 0, "fusion_lat": 0.0}, {"fusion_lon": 0.0, "bike_id": "79424397e0876a358c22d8f02ed8cc60", "name": "79424397e0876a358c22d8f02ed8cc60", "type": "electric_bike", "lon": -77.08047666666667, "rental_uris": {"android": "https://dc.lft.to/lastmile_qr_scan", "ios": "https://dc.lft.to/lastmile_qr_scan"}, "lat": 38.848451, "is_reserved": 0, "is_disabled": 0, "fusion_lat": 0.0}, {"fusion_lon": 0.0, "bike_id": "470996baaf0752042986dde9dc8914f7", "name": "470996baaf0752042986dde9dc8914f7", "type": "electric_scooter", "lon": -77.04657583333334, "rental_uris": {"android": "https://dc.lft.to/lastmile_qr_scan", "ios": "https://dc.lft.to/lastmile_qr_scan"}, "lat": 38.89907066666667, "is_reserved": 0, "is_disabled": 0, "fusion_lat": 0.0}, {"fusion_lon": 0.0, "bike_id": "3c83ad1862e4c0ab97813371cbd29e9e", "name": "3c83ad1862e4c0ab97813371cbd29e9e", "type": "electric_scooter", "lon": -77.02675066666667, "rental_uris": {"android": "https://dc.lft.to/lastmile_qr_scan", "ios": "https://dc.lft.to/lastmile_qr_scan"}, "lat": 38.89846516666667, "is_reserved": 0, "is_disabled": 0, "fusion_lat": 0.0}, {"fusion_lon": 0.0, "bike_id": "7adc72611de96e33af28618e74cd5735", "name": "7adc72611de96e33af28618e74cd5735", "type": "electric_scooter", "lon": -77.0019895, "rental_uris": {"android": "https://dc.lft.to/lastmile_qr_scan", "ios": "https://dc.lft.to/lastmile_qr_scan"}, "lat": 38.902313, "is_reserved": 0, "is_disabled": 0, "fusion_lat": 0.0}, {"fusion_lon": 0.0, "bike_id": "26e1f8bf4ea914e886ee663b80b527b3", "name": "26e1f8bf4ea914e886ee663b80b527b3", "type": "electric_scooter", "lon": -77.01160566666667, "rental_uris": {"android": "https://dc.lft.to/lastmile_qr_scan", "ios": "https://dc.lft.to/lastmile_qr_scan"}, "lat": 38.87198716666666, "is_reserved": 0, "is_disabled": 0, "fusion_lat": 0.0}, {"fusion_lon": 0.0, "bike_id": "bbf0570817775059012182d3774d66c9", "name": "bbf0570817775059012182d3774d66c9", "type": "electric_scooter", "lon": -77.0363995, "rental_uris": {"android": "https://dc.lft.to/lastmile_qr_scan", "ios": "https://dc.lft.to/lastmile_qr_scan"}, "lat": 38.924120333333335, "is_reserved": 0, "is_disabled": 0, "fusion_lat": 0.0}, {"fusion_lon": 0.0, "bike_id": "9c89b1a5f31fa283bdfd94e5a726a209", "name": "9c89b1a5f31fa283bdfd94e5a726a209", "type": "electric_scooter", "lon": -77.01386, "rental_uris": {"android": "https://dc.lft.to/lastmile_qr_scan", "ios": "https://dc.lft.to/lastmile_qr_scan"}, "lat": 38.92828383333333, "is_reserved": 0, "is_disabled": 0, "fusion_lat": 0.0}, {"fusion_lon": 0.0, "bike_id": "b0a9d3e9a2ccae69b10d6982170eaa99", "name": "b0a9d3e9a2ccae69b10d6982170eaa99", "type": "electric_scooter", "lon": -77.05188333333334, "rental_uris": {"android": "https://dc.lft.to/lastmile_qr_scan", "ios": "https://dc.lft.to/lastmile_qr_scan"}, "lat": 38.925516, "is_reserved": 0, "is_disabled": 0, "fusion_lat": 0.0}, {"fusion_lon": 0.0, "bike_id": "b907f23fc4eb66e16821cc0b56f7702f", "name": "b907f23fc4eb66e16821cc0b56f7702f", "type": "electric_scooter", "lon": -76.93748216666667, "rental_uris": {"android": "https://dc.lft.to/lastmile_qr_scan", "ios": "https://dc.lft.to/lastmile_qr_scan"}, "lat": 38.890192166666665, "is_reserved": 0, "is_disabled": 0, "fusion_lat": 0.0}, {"fusion_lon": 0.0, "bike_id": "8d489eab399fc7696437f88ef2e71298", "name": "8d489eab399fc7696437f88ef2e71298", "type": "electric_scooter", "lon": -77.02962566666666, "rental_uris": {"android": "https://dc.lft.to/lastmile_qr_scan", "ios": "https://dc.lft.to/lastmile_qr_scan"}, "lat": 38.91667316666667, "is_reserved": 0, "is_disabled": 0, "fusion_lat": 0.0}, {"fusion_lon": 0.0, "bike_id": "4a58c5854ef0fb84c16c52e998f61360", "name": "4a58c5854ef0fb84c16c52e998f61360", "type": "electric_bike", "lon": -76.96688616666667, "rental_uris": {"android": "https://dc.lft.to/lastmile_qr_scan", "ios": "https://dc.lft.to/lastmile_qr_scan"}, "lat": 38.95889566666666, "is_reserved": 0, "is_disabled": 0, "fusion_lat": 0.0}, {"fusion_lon": 0.0, "bike_id": "66eb8feddf6607d295999d6887575456", "name": "66eb8feddf6607d295999d6887575456", "type": "electric_scooter", "lon": -76.98318166666667, "rental_uris": {"android": "https://dc.lft.to/lastmile_qr_scan", "ios": "https://dc.lft.to/lastmile_qr_scan"}, "lat": 38.888178833333335, "is_reserved": 0, "is_disabled": 0, "fusion_lat": 0.0}, {"fusion_lon": 0.0, "bike_id": "5a195c5ac52d291efbe99b816fc01ea5", "name": "5a195c5ac52d291efbe99b816fc01ea5", "type": "electric_scooter", "lon": -77.02217483333334, "rental_uris": {"android": "https://dc.lft.to/lastmile_qr_scan", "ios": "https://dc.lft.to/lastmile_qr_scan"}, "lat": 38.91416516666666, "is_reserved": 0, "is_disabled": 0, "fusion_lat": 0.0}, {"fusion_lon": 0.0, "bike_id": "4c4e48e1e463a2bb6cbff7cc8f858ad5", "name": "4c4e48e1e463a2bb6cbff7cc8f858ad5", "type": "electric_scooter", "lon": -76.988806, "rental_uris": {"android": "https://dc.lft.to/lastmile_qr_scan", "ios": "https://dc.lft.to/lastmile_qr_scan"}, "lat": 38.906316, "is_reserved": 0, "is_disabled": 0, "fusion_lat": 0.0}, {"fusion_lon": 0.0, "bike_id": "cd425c4c3d98696765f6141175d62009", "name": "cd425c4c3d98696765f6141175d62009", "type": "electric_scooter", "lon": -77.04660716666666, "rental_uris": {"android": "https://dc.lft.to/lastmile_qr_scan", "ios": "https://dc.lft.to/lastmile_qr_scan"}, "lat": 38.893412, "is_reserved": 0, "is_disabled": 0, "fusion_lat": 0.0}, {"fusion_lon": 0.0, "bike_id": "9827496c911423f2f54b3a3b638011f2", "name": "9827496c911423f2f54b3a3b638011f2", "type": "electric_scooter", "lon": -77.051277, "rental_uris": {"android": "https://dc.lft.to/lastmile_qr_scan", "ios": "https://dc.lft.to/lastmile_qr_scan"}, "lat": 38.92364416666667, "is_reserved": 0, "is_disabled": 0, "fusion_lat": 0.0}, {"fusion_lon": 0.0, "bike_id": "895a3376bb6748021de94d5edd562c3f", "name": "895a3376bb6748021de94d5edd562c3f", "type": "electric_scooter", "lon": -77.021009, "rental_uris": {"android": "https://dc.lft.to/lastmile_qr_scan", "ios": "https://dc.lft.to/lastmile_qr_scan"}, "lat": 38.895901333333335, "is_reserved": 0, "is_disabled": 0, "fusion_lat": 0.0}, {"fusion_lon": 0.0, "bike_id": "237adb6fc41de1126271fe9b4291dadf", "name": "237adb6fc41de1126271fe9b4291dadf", "type": "electric_scooter", "lon": -77.02220983333333, "rental_uris": {"android": "https://dc.lft.to/lastmile_qr_scan", "ios": "https://dc.lft.to/lastmile_qr_scan"}, "lat": 38.935528, "is_reserved": 0, "is_disabled": 0, "fusion_lat": 0.0}, {"fusion_lon": 0.0, "bike_id": "00967a9c5de7eeeaa796395dade16b60", "name": "00967a9c5de7eeeaa796395dade16b60", "type": "electric_scooter", "lon": -76.965428, "rental_uris": {"android": "https://dc.lft.to/lastmile_qr_scan", "ios": "https://dc.lft.to/lastmile_qr_scan"}, "lat": 38.918887833333336, "is_reserved": 0, "is_disabled": 0, "fusion_lat": 0.0}, {"fusion_lon": 0.0, "bike_id": "3b5bb036ec36cf77978e2f1ccf920974", "name": "3b5bb036ec36cf77978e2f1ccf920974", "type": "electric_scooter", "lon": -77.01256466666666, "rental_uris": {"android": "https://dc.lft.to/lastmile_qr_scan", "ios": "https://dc.lft.to/lastmile_qr_scan"}, "lat": 38.8763235, "is_reserved": 0, "is_disabled": 0, "fusion_lat": 0.0}, {"fusion_lon": 0.0, "bike_id": "a577312d07344335cee83aff96ab0faa", "name": "a577312d07344335cee83aff96ab0faa", "type": "electric_scooter", "lon": -77.02756133333334, "rental_uris": {"android": "https://dc.lft.to/lastmile_qr_scan", "ios": "https://dc.lft.to/lastmile_qr_scan"}, "lat": 38.9541485, "is_reserved": 0, "is_disabled": 0, "fusion_lat": 0.0}, {"fusion_lon": 0.0, "bike_id": "593f5ca3623968882e8a1041759ffacb", "name": "593f5ca3623968882e8a1041759ffacb", "type": "electric_scooter", "lon": -77.005721, "rental_uris": {"android": "https://dc.lft.to/lastmile_qr_scan", "ios": "https://dc.lft.to/lastmile_qr_scan"}, "lat": 38.88536466666667, "is_reserved": 0, "is_disabled": 0, "fusion_lat": 0.0}, {"fusion_lon": 0.0, "bike_id": "d201f4d18d1d59c5fe0d4c9d9ea93345", "name": "d201f4d18d1d59c5fe0d4c9d9ea93345", "type": "electric_scooter", "lon": -77.0057565, "rental_uris": {"android": "https://dc.lft.to/lastmile_qr_scan", "ios": "https://dc.lft.to/lastmile_qr_scan"}, "lat": 38.88538116666667, "is_reserved": 0, "is_disabled": 0, "fusion_lat": 0.0}, {"fusion_lon": 0.0, "bike_id": "4cc4d7e885bf2da21e8b1d85fc3d3485", "name": "4cc4d7e885bf2da21e8b1d85fc3d3485", "type": "electric_scooter", "lon": -76.92405433333333, "rental_uris": {"android": "https://dc.lft.to/lastmile_qr_scan", "ios": "https://dc.lft.to/lastmile_qr_scan"}, "lat": 38.88985866666667, "is_reserved": 0, "is_disabled": 0, "fusion_lat": 0.0}, {"fusion_lon": 0.0, "bike_id": "a24a982d5ea19c5d185929aab3fe8624", "name": "a24a982d5ea19c5d185929aab3fe8624", "type": "electric_scooter", "lon": -77.01225166666667, "rental_uris": {"android": "https://dc.lft.to/lastmile_qr_scan", "ios": "https://dc.lft.to/lastmile_qr_scan"}, "lat": 38.867239, "is_reserved": 0, "is_disabled": 0, "fusion_lat": 0.0}, {"fusion_lon": 0.0, "bike_id": "7636de46f274c229a5b15f7270a38716", "name": "7636de46f274c229a5b15f7270a38716", "type": "electric_scooter", "lon": -77.03219283333334, "rental_uris": {"android": "https://dc.lft.to/lastmile_qr_scan", "ios": "https://dc.lft.to/lastmile_qr_scan"}, "lat": 38.894116, "is_reserved": 0, "is_disabled": 0, "fusion_lat": 0.0}, {"fusion_lon": 0.0, "bike_id": "85c0b3e46e0d8c02c4e8092eb4466789", "name": "85c0b3e46e0d8c02c4e8092eb4466789", "type": "electric_bike", "lon": -76.93411833333333, "rental_uris": {"android": "https://dc.lft.to/lastmile_qr_scan", "ios": "https://dc.lft.to/lastmile_qr_scan"}, "lat": 38.94626083333333, "is_reserved": 0, "is_disabled": 0, "fusion_lat": 0.0}, {"fusion_lon": 0.0, "bike_id": "829e3e99fa57a1da7ba393fdde855c5e", "name": "829e3e99fa57a1da7ba393fdde855c5e", "type": "electric_scooter", "lon": -76.9982885, "rental_uris": {"android": "https://dc.lft.to/lastmile_qr_scan", "ios": "https://dc.lft.to/lastmile_qr_scan"}, "lat": 38.90714833333333, "is_reserved": 0, "is_disabled": 0, "fusion_lat": 0.0}, {"fusion_lon": 0.0, "bike_id": "fc2378cbb9bb912072fc2b3ebd1d4131", "name": "fc2378cbb9bb912072fc2b3ebd1d4131", "type": "electric_scooter", "lon": -76.99160033333334, "rental_uris": {"android": "https://dc.lft.to/lastmile_qr_scan", "ios": "https://dc.lft.to/lastmile_qr_scan"}, "lat": 38.87916283333333, "is_reserved": 0, "is_disabled": 0, "fusion_lat": 0.0}, {"fusion_lon": 0.0, "bike_id": "6661995814603a6359f6217876f76756", "name": "6661995814603a6359f6217876f76756", "type": "electric_scooter", "lon": -76.99409666666666, "rental_uris": {"android": "https://dc.lft.to/lastmile_qr_scan", "ios": "https://dc.lft.to/lastmile_qr_scan"}, "lat": 38.877875333333336, "is_reserved": 0, "is_disabled": 0, "fusion_lat": 0.0}, {"fusion_lon": 0.0, "bike_id": "abd4fb5a462fbced5254419131ff1ce7", "name": "abd4fb5a462fbced5254419131ff1ce7", "type": "electric_scooter", "lon": -77.04507516666666, "rental_uris": {"android": "https://dc.lft.to/lastmile_qr_scan", "ios": "https://dc.lft.to/lastmile_qr_scan"}, "lat": 38.912802, "is_reserved": 0, "is_disabled": 0, "fusion_lat": 0.0}, {"fusion_lon": 0.0, "bike_id": "7c53ce23521122a902cfab290b8fcd67", "name": "7c53ce23521122a902cfab290b8fcd67", "type": "electric_scooter", "lon": -77.04742833333333, "rental_uris": {"android": "https://dc.lft.to/lastmile_qr_scan", "ios": "https://dc.lft.to/lastmile_qr_scan"}, "lat": 38.9018415, "is_reserved": 0, "is_disabled": 0, "fusion_lat": 0.0}, {"fusion_lon": 0.0, "bike_id": "2633ce45d21ff705bc5efb78dc0b255f", "name": "2633ce45d21ff705bc5efb78dc0b255f", "type": "electric_bike", "lon": -76.93541616666667, "rental_uris": {"android": "https://dc.lft.to/lastmile_qr_scan", "ios": "https://dc.lft.to/lastmile_qr_scan"}, "lat": 38.95560116666667, "is_reserved": 0, "is_disabled": 0, "fusion_lat": 0.0}, {"fusion_lon": 0.0, "bike_id": "f81b9281a92a2550d6fd47884f3f9c0d", "name": "f81b9281a92a2550d6fd47884f3f9c0d", "type": "electric_scooter", "lon": -77.03443966666667, "rental_uris": {"android": "https://dc.lft.to/lastmile_qr_scan", "ios": "https://dc.lft.to/lastmile_qr_scan"}, "lat": 38.90561183333333, "is_reserved": 0, "is_disabled": 0, "fusion_lat": 0.0}, {"fusion_lon": 0.0, "bike_id": "7b07977ca7f84e4088d5b7e28d58d07d", "name": "7b07977ca7f84e4088d5b7e28d58d07d", "type": "electric_scooter", "lon": -77.07864466666666, "rental_uris": {"android": "https://dc.lft.to/lastmile_qr_scan", "ios": "https://dc.lft.to/lastmile_qr_scan"}, "lat": 38.92464433333333, "is_reserved": 0, "is_disabled": 0, "fusion_lat": 0.0}, {"fusion_lon": 0.0, "bike_id": "7747e1b7647af1230e967ab6a677baf5", "name": "7747e1b7647af1230e967ab6a677baf5", "type": "electric_bike", "lon": -77.1225625, "rental_uris": {"android": "https://dc.lft.to/lastmile_qr_scan", "ios": "https://dc.lft.to/lastmile_qr_scan"}, "lat": 38.887715666666665, "is_reserved": 0, "is_disabled": 0, "fusion_lat": 0.0}, {"fusion_lon": 0.0, "bike_id": "de97f82c805a92aefbd0bf2f89734a0a", "name": "de97f82c805a92aefbd0bf2f89734a0a", "type": "electric_scooter", "lon": -77.00605916666666, "rental_uris": {"android": "https://dc.lft.to/lastmile_qr_scan", "ios": "https://dc.lft.to/lastmile_qr_scan"}, "lat": 38.876594, "is_reserved": 0, "is_disabled": 0, "fusion_lat": 0.0}, {"fusion_lon": 0.0, "bike_id": "42f7aceec297a2e2106cafa946d03f3f", "name": "42f7aceec297a2e2106cafa946d03f3f", "type": "electric_scooter", "lon": -77.02847, "rental_uris": {"android": "https://dc.lft.to/lastmile_qr_scan", "ios": "https://dc.lft.to/lastmile_qr_scan"}, "lat": 38.900286666666666, "is_reserved": 0, "is_disabled": 0, "fusion_lat": 0.0}, {"fusion_lon": 0.0, "bike_id": "d0cea20cf01cfe1e4d84211850fa7500", "name": "d0cea20cf01cfe1e4d84211850fa7500", "type": "electric_scooter", "lon": -77.01095866666667, "rental_uris": {"android": "https://dc.lft.to/lastmile_qr_scan", "ios": "https://dc.lft.to/lastmile_qr_scan"}, "lat": 38.90557583333333, "is_reserved": 0, "is_disabled": 0, "fusion_lat": 0.0}, {"fusion_lon": 0.0, "bike_id": "ff15df6f278cd857620ec88f19651b4d", "name": "ff15df6f278cd857620ec88f19651b4d", "type": "electric_scooter", "lon": -77.04146866666666, "rental_uris": {"android": "https://dc.lft.to/lastmile_qr_scan", "ios": "https://dc.lft.to/lastmile_qr_scan"}, "lat": 38.9170855, "is_reserved": 0, "is_disabled": 0, "fusion_lat": 0.0}, {"fusion_lon": 0.0, "bike_id": "a11629f9fd987bf00988ae9cab5b4e66", "name": "a11629f9fd987bf00988ae9cab5b4e66", "type": "electric_scooter", "lon": -77.04183666666667, "rental_uris": {"android": "https://dc.lft.to/lastmile_qr_scan", "ios": "https://dc.lft.to/lastmile_qr_scan"}, "lat": 38.91265816666667, "is_reserved": 0, "is_disabled": 0, "fusion_lat": 0.0}, {"fusion_lon": 0.0, "bike_id": "1a5eea56d4f7d5869a2c18b7e661b8a3", "name": "1a5eea56d4f7d5869a2c18b7e661b8a3", "type": "electric_scooter", "lon": -77.03195633333333, "rental_uris": {"android": "https://dc.lft.to/lastmile_qr_scan", "ios": "https://dc.lft.to/lastmile_qr_scan"}, "lat": 38.900306666666665, "is_reserved": 0, "is_disabled": 0, "fusion_lat": 0.0}, {"fusion_lon": 0.0, "bike_id": "160a598a1abb45ad22177cc684379d25", "name": "160a598a1abb45ad22177cc684379d25", "type": "electric_scooter", "lon": -77.04768166666666, "rental_uris": {"android": "https://dc.lft.to/lastmile_qr_scan", "ios": "https://dc.lft.to/lastmile_qr_scan"}, "lat": 38.90212533333333, "is_reserved": 0, "is_disabled": 0, "fusion_lat": 0.0}, {"fusion_lon": 0.0, "bike_id": "75298fb5321bf5c02e0222468c25075d", "name": "75298fb5321bf5c02e0222468c25075d", "type": "electric_scooter", "lon": -77.0302525, "rental_uris": {"android": "https://dc.lft.to/lastmile_qr_scan", "ios": "https://dc.lft.to/lastmile_qr_scan"}, "lat": 38.926668166666666, "is_reserved": 0, "is_disabled": 0, "fusion_lat": 0.0}, {"fusion_lon": 0.0, "bike_id": "ddf8f6f609e5e5fb987783d8132937e1", "name": "ddf8f6f609e5e5fb987783d8132937e1", "type": "electric_bike", "lon": -77.07680483333333, "rental_uris": {"android": "https://dc.lft.to/lastmile_qr_scan", "ios": "https://dc.lft.to/lastmile_qr_scan"}, "lat": 38.83196266666667, "is_reserved": 0, "is_disabled": 0, "fusion_lat": 0.0}, {"fusion_lon": 0.0, "bike_id": "4fce87d5c3e1d943ebf5c47a777ea1fe", "name": "4fce87d5c3e1d943ebf5c47a777ea1fe", "type": "electric_bike", "lon": -77.11222533333333, "rental_uris": {"android": "https://dc.lft.to/lastmile_qr_scan", "ios": "https://dc.lft.to/lastmile_qr_scan"}, "lat": 38.828750666666664, "is_reserved": 0, "is_disabled": 0, "fusion_lat": 0.0}, {"fusion_lon": 0.0, "bike_id": "e57799db96a35c012379e6c61c0369b0", "name": "e57799db96a35c012379e6c61c0369b0", "type": "electric_scooter", "lon": -77.04178316666666, "rental_uris": {"android": "https://dc.lft.to/lastmile_qr_scan", "ios": "https://dc.lft.to/lastmile_qr_scan"}, "lat": 38.90731433333333, "is_reserved": 0, "is_disabled": 0, "fusion_lat": 0.0}, {"fusion_lon": 0.0, "bike_id": "a40e019fd872250e11f99c36dcfb4206", "name": "a40e019fd872250e11f99c36dcfb4206", "type": "electric_scooter", "lon": -77.03288883333333, "rental_uris": {"android": "https://dc.lft.to/lastmile_qr_scan", "ios": "https://dc.lft.to/lastmile_qr_scan"}, "lat": 38.956510333333334, "is_reserved": 0, "is_disabled": 0, "fusion_lat": 0.0}, {"fusion_lon": 0.0, "bike_id": "92a59c3ffdea5d4195dcd76a94a6bedb", "name": "92a59c3ffdea5d4195dcd76a94a6bedb", "type": "electric_scooter", "lon": -76.9493865, "rental_uris": {"android": "https://dc.lft.to/lastmile_qr_scan", "ios": "https://dc.lft.to/lastmile_qr_scan"}, "lat": 38.88322766666667, "is_reserved": 0, "is_disabled": 0, "fusion_lat": 0.0}, {"fusion_lon": 0.0, "bike_id": "76655071c5fc43d23ab61f0ddd0a53cd", "name": "76655071c5fc43d23ab61f0ddd0a53cd", "type": "electric_scooter", "lon": -77.02304316666667, "rental_uris": {"android": "https://dc.lft.to/lastmile_qr_scan", "ios": "https://dc.lft.to/lastmile_qr_scan"}, "lat": 38.9156815, "is_reserved": 0, "is_disabled": 0, "fusion_lat": 0.0}, {"fusion_lon": 0.0, "bike_id": "980b938df0addf924918225840ea2901", "name": "980b938df0addf924918225840ea2901", "type": "electric_scooter", "lon": -77.02396183333333, "rental_uris": {"android": "https://dc.lft.to/lastmile_qr_scan", "ios": "https://dc.lft.to/lastmile_qr_scan"}, "lat": 38.90743616666666, "is_reserved": 0, "is_disabled": 0, "fusion_lat": 0.0}, {"fusion_lon": 0.0, "bike_id": "3ad51be893cc948dd79d21348ac90245", "name": "3ad51be893cc948dd79d21348ac90245", "type": "electric_bike", "lon": -77.08945116666666, "rental_uris": {"android": "https://dc.lft.to/lastmile_qr_scan", "ios": "https://dc.lft.to/lastmile_qr_scan"}, "lat": 38.841082, "is_reserved": 0, "is_disabled": 0, "fusion_lat": 0.0}, {"fusion_lon": 0.0, "bike_id": "d2f73741c82f35082c3e5bf92bb7d061", "name": "d2f73741c82f35082c3e5bf92bb7d061", "type": "electric_scooter", "lon": -77.04357616666667, "rental_uris": {"android": "https://dc.lft.to/lastmile_qr_scan", "ios": "https://dc.lft.to/lastmile_qr_scan"}, "lat": 38.907290833333334, "is_reserved": 0, "is_disabled": 0, "fusion_lat": 0.0}, {"fusion_lon": 0.0, "bike_id": "ffb603c3a21e2242d5693627d8257fbf", "name": "ffb603c3a21e2242d5693627d8257fbf", "type": "electric_scooter", "lon": -77.0299575, "rental_uris": {"android": "https://dc.lft.to/lastmile_qr_scan", "ios": "https://dc.lft.to/lastmile_qr_scan"}, "lat": 38.9248385, "is_reserved": 0, "is_disabled": 0, "fusion_lat": 0.0}, {"fusion_lon": 0.0, "bike_id": "0b8c2714776e2f45944bd985cd5d745f", "name": "0b8c2714776e2f45944bd985cd5d745f", "type": "electric_scooter", "lon": -76.94772683333333, "rental_uris": {"android": "https://dc.lft.to/lastmile_qr_scan", "ios": "https://dc.lft.to/lastmile_qr_scan"}, "lat": 38.896409166666665, "is_reserved": 0, "is_disabled": 0, "fusion_lat": 0.0}, {"fusion_lon": 0.0, "bike_id": "92b3c1073e572d24566c0f791ef38e3c", "name": "92b3c1073e572d24566c0f791ef38e3c", "type": "electric_scooter", "lon": -77.0229125, "rental_uris": {"android": "https://dc.lft.to/lastmile_qr_scan", "ios": "https://dc.lft.to/lastmile_qr_scan"}, "lat": 38.937636499999996, "is_reserved": 0, "is_disabled": 0, "fusion_lat": 0.0}, {"fusion_lon": 0.0, "bike_id": "20be2b46a12bf049c989f79425b5a9ca", "name": "20be2b46a12bf049c989f79425b5a9ca", "type": "electric_bike", "lon": -76.98841883333333, "rental_uris": {"android": "https://dc.lft.to/lastmile_qr_scan", "ios": "https://dc.lft.to/lastmile_qr_scan"}, "lat": 38.842788666666664, "is_reserved": 0, "is_disabled": 0, "fusion_lat": 0.0}, {"fusion_lon": 0.0, "bike_id": "cb9189b7d0b9507598a4d5b4617c748b", "name": "cb9189b7d0b9507598a4d5b4617c748b", "type": "electric_scooter", "lon": -77.00446466666666, "rental_uris": {"android": "https://dc.lft.to/lastmile_qr_scan", "ios": "https://dc.lft.to/lastmile_qr_scan"}, "lat": 38.907222166666664, "is_reserved": 0, "is_disabled": 0, "fusion_lat": 0.0}, {"fusion_lon": 0.0, "bike_id": "a0be280843b559ce85a85af105d4a21b", "name": "a0be280843b559ce85a85af105d4a21b", "type": "electric_scooter", "lon": -77.02810783333334, "rental_uris": {"android": "https://dc.lft.to/lastmile_qr_scan", "ios": "https://dc.lft.to/lastmile_qr_scan"}, "lat": 38.916343499999996, "is_reserved": 0, "is_disabled": 0, "fusion_lat": 0.0}, {"fusion_lon": 0.0, "bike_id": "119edfae50ba657a75570693c6708c97", "name": "119edfae50ba657a75570693c6708c97", "type": "electric_scooter", "lon": -77.01384333333333, "rental_uris": {"android": "https://dc.lft.to/lastmile_qr_scan", "ios": "https://dc.lft.to/lastmile_qr_scan"}, "lat": 38.92862433333333, "is_reserved": 0, "is_disabled": 0, "fusion_lat": 0.0}, {"fusion_lon": 0.0, "bike_id": "4f5862710c36552c814a2ad4664b5b9a", "name": "4f5862710c36552c814a2ad4664b5b9a", "type": "electric_scooter", "lon": -76.99354816666667, "rental_uris": {"android": "https://dc.lft.to/lastmile_qr_scan", "ios": "https://dc.lft.to/lastmile_qr_scan"}, "lat": 38.89612116666667, "is_reserved": 0, "is_disabled": 0, "fusion_lat": 0.0}, {"fusion_lon": 0.0, "bike_id": "5ed9854f7861fe3cfd1a11ae760415ce", "name": "5ed9854f7861fe3cfd1a11ae760415ce", "type": "electric_scooter", "lon": -77.04353533333334, "rental_uris": {"android": "https://dc.lft.to/lastmile_qr_scan", "ios": "https://dc.lft.to/lastmile_qr_scan"}, "lat": 38.9071105, "is_reserved": 0, "is_disabled": 0, "fusion_lat": 0.0}, {"fusion_lon": 0.0, "bike_id": "e39e518134b2ccf455b073a240ded6e3", "name": "e39e518134b2ccf455b073a240ded6e3", "type": "electric_scooter", "lon": -77.04556466666666, "rental_uris": {"android": "https://dc.lft.to/lastmile_qr_scan", "ios": "https://dc.lft.to/lastmile_qr_scan"}, "lat": 38.90745166666667, "is_reserved": 0, "is_disabled": 0, "fusion_lat": 0.0}, {"fusion_lon": 0.0, "bike_id": "6ffd57e4a92fc38de61ccfdebfeb9176", "name": "6ffd57e4a92fc38de61ccfdebfeb9176", "type": "electric_scooter", "lon": -77.007265, "rental_uris": {"android": "https://dc.lft.to/lastmile_qr_scan", "ios": "https://dc.lft.to/lastmile_qr_scan"}, "lat": 38.87696616666667, "is_reserved": 0, "is_disabled": 0, "fusion_lat": 0.0}, {"fusion_lon": 0.0, "bike_id": "2028c0dd821fa486dd74b37fcdf4f266", "name": "2028c0dd821fa486dd74b37fcdf4f266", "type": "electric_scooter", "lon": -77.02748166666667, "rental_uris": {"android": "https://dc.lft.to/lastmile_qr_scan", "ios": "https://dc.lft.to/lastmile_qr_scan"}, "lat": 38.9320085, "is_reserved": 0, "is_disabled": 0, "fusion_lat": 0.0}, {"fusion_lon": 0.0, "bike_id": "36db2b1e983756cec8b1b42b62826b7d", "name": "36db2b1e983756cec8b1b42b62826b7d", "type": "electric_scooter", "lon": -77.043948, "rental_uris": {"android": "https://dc.lft.to/lastmile_qr_scan", "ios": "https://dc.lft.to/lastmile_qr_scan"}, "lat": 38.90262883333333, "is_reserved": 0, "is_disabled": 0, "fusion_lat": 0.0}, {"fusion_lon": 0.0, "bike_id": "9e920c56f67d1d38baa848bd02289410", "name": "9e920c56f67d1d38baa848bd02289410", "type": "electric_scooter", "lon": -76.9905755, "rental_uris": {"android": "https://dc.lft.to/lastmile_qr_scan", "ios": "https://dc.lft.to/lastmile_qr_scan"}, "lat": 38.86379933333333, "is_reserved": 0, "is_disabled": 0, "fusion_lat": 0.0}, {"fusion_lon": 0.0, "bike_id": "cb661313b87b71bb4e9cd10d68f5865a", "name": "cb661313b87b71bb4e9cd10d68f5865a", "type": "electric_scooter", "lon": -77.0453985, "rental_uris": {"android": "https://dc.lft.to/lastmile_qr_scan", "ios": "https://dc.lft.to/lastmile_qr_scan"}, "lat": 38.9141405, "is_reserved": 0, "is_disabled": 0, "fusion_lat": 0.0}, {"fusion_lon": 0.0, "bike_id": "30dd4454b0938926965add07ed267f45", "name": "30dd4454b0938926965add07ed267f45", "type": "electric_scooter", "lon": -76.988806, "rental_uris": {"android": "https://dc.lft.to/lastmile_qr_scan", "ios": "https://dc.lft.to/lastmile_qr_scan"}, "lat": 38.866700333333334, "is_reserved": 0, "is_disabled": 0, "fusion_lat": 0.0}, {"fusion_lon": 0.0, "bike_id": "c48a9dee1d87313f51fa43737a6d49ea", "name": "c48a9dee1d87313f51fa43737a6d49ea", "type": "electric_scooter", "lon": -77.04303533333334, "rental_uris": {"android": "https://dc.lft.to/lastmile_qr_scan", "ios": "https://dc.lft.to/lastmile_qr_scan"}, "lat": 38.9060485, "is_reserved": 0, "is_disabled": 0, "fusion_lat": 0.0}, {"fusion_lon": 0.0, "bike_id": "eddd3ba7cb22e47f1372abe959d47d93", "name": "eddd3ba7cb22e47f1372abe959d47d93", "type": "electric_scooter", "lon": -77.061937, "rental_uris": {"android": "https://dc.lft.to/lastmile_qr_scan", "ios": "https://dc.lft.to/lastmile_qr_scan"}, "lat": 38.93019016666667, "is_reserved": 0, "is_disabled": 0, "fusion_lat": 0.0}, {"fusion_lon": 0.0, "bike_id": "496b9984ab1c8d6dd1058f3430a3a287", "name": "496b9984ab1c8d6dd1058f3430a3a287", "type": "electric_scooter", "lon": -76.94854233333334, "rental_uris": {"android": "https://dc.lft.to/lastmile_qr_scan", "ios": "https://dc.lft.to/lastmile_qr_scan"}, "lat": 38.883001666666665, "is_reserved": 0, "is_disabled": 0, "fusion_lat": 0.0}, {"fusion_lon": 0.0, "bike_id": "7ee64850317462580e5e1023d43a788a", "name": "7ee64850317462580e5e1023d43a788a", "type": "electric_scooter", "lon": -76.99027416666667, "rental_uris": {"android": "https://dc.lft.to/lastmile_qr_scan", "ios": "https://dc.lft.to/lastmile_qr_scan"}, "lat": 38.860754666666665, "is_reserved": 0, "is_disabled": 0, "fusion_lat": 0.0}, {"fusion_lon": 0.0, "bike_id": "20de83ff6182add88f61d675f8af60ed", "name": "20de83ff6182add88f61d675f8af60ed", "type": "electric_bike", "lon": -77.3440805, "rental_uris": {"android": "https://dc.lft.to/lastmile_qr_scan", "ios": "https://dc.lft.to/lastmile_qr_scan"}, "lat": 38.94607366666666, "is_reserved": 0, "is_disabled": 0, "fusion_lat": 0.0}, {"fusion_lon": 0.0, "bike_id": "b2ba7641b764e3630b2d710b3be7e3a2", "name": "b2ba7641b764e3630b2d710b3be7e3a2", "type": "electric_scooter", "lon": -77.0138, "rental_uris": {"android": "https://dc.lft.to/lastmile_qr_scan", "ios": "https://dc.lft.to/lastmile_qr_scan"}, "lat": 38.88642083333333, "is_reserved": 0, "is_disabled": 0, "fusion_lat": 0.0}, {"fusion_lon": 0.0, "bike_id": "cfa9e1819bb8b3a44f3d3bca75a063fa", "name": "cfa9e1819bb8b3a44f3d3bca75a063fa", "type": "electric_scooter", "lon": -77.00555366666667, "rental_uris": {"android": "https://dc.lft.to/lastmile_qr_scan", "ios": "https://dc.lft.to/lastmile_qr_scan"}, "lat": 38.9118425, "is_reserved": 0, "is_disabled": 0, "fusion_lat": 0.0}, {"fusion_lon": 0.0, "bike_id": "de05de9ea7a8d1e792ba778130204aae", "name": "de05de9ea7a8d1e792ba778130204aae", "type": "electric_scooter", "lon": -77.02316316666666, "rental_uris": {"android": "https://dc.lft.to/lastmile_qr_scan", "ios": "https://dc.lft.to/lastmile_qr_scan"}, "lat": 38.92074, "is_reserved": 0, "is_disabled": 0, "fusion_lat": 0.0}, {"fusion_lon": 0.0, "bike_id": "74e93e3ad22c87c2a6052e5c0d140414", "name": "74e93e3ad22c87c2a6052e5c0d140414", "type": "electric_scooter", "lon": -77.00221283333333, "rental_uris": {"android": "https://dc.lft.to/lastmile_qr_scan", "ios": "https://dc.lft.to/lastmile_qr_scan"}, "lat": 38.900279833333336, "is_reserved": 0, "is_disabled": 0, "fusion_lat": 0.0}, {"fusion_lon": 0.0, "bike_id": "06114cca2a4093541b3444de9d59c45d", "name": "06114cca2a4093541b3444de9d59c45d", "type": "electric_scooter", "lon": -77.028081, "rental_uris": {"android": "https://dc.lft.to/lastmile_qr_scan", "ios": "https://dc.lft.to/lastmile_qr_scan"}, "lat": 38.89928716666667, "is_reserved": 0, "is_disabled": 0, "fusion_lat": 0.0}, {"fusion_lon": 0.0, "bike_id": "2d252a4b741c237d7ac2ec4a03635640", "name": "2d252a4b741c237d7ac2ec4a03635640", "type": "electric_scooter", "lon": -77.02846033333333, "rental_uris": {"android": "https://dc.lft.to/lastmile_qr_scan", "ios": "https://dc.lft.to/lastmile_qr_scan"}, "lat": 38.92384833333333, "is_reserved": 0, "is_disabled": 0, "fusion_lat": 0.0}, {"fusion_lon": 0.0, "bike_id": "f534857011671fca16017cdcfe56fd7e", "name": "f534857011671fca16017cdcfe56fd7e", "type": "electric_bike", "lon": -77.1432645, "rental_uris": {"android": "https://dc.lft.to/lastmile_qr_scan", "ios": "https://dc.lft.to/lastmile_qr_scan"}, "lat": 39.054576833333336, "is_reserved": 0, "is_disabled": 0, "fusion_lat": 0.0}, {"fusion_lon": 0.0, "bike_id": "d8b6d1c9d288303382bad38a78ae47bf", "name": "d8b6d1c9d288303382bad38a78ae47bf", "type": "electric_scooter", "lon": -77.031495, "rental_uris": {"android": "https://dc.lft.to/lastmile_qr_scan", "ios": "https://dc.lft.to/lastmile_qr_scan"}, "lat": 38.8874345, "is_reserved": 0, "is_disabled": 0, "fusion_lat": 0.0}, {"fusion_lon": 0.0, "bike_id": "118bba4cc648dd7407e93467c50e827f", "name": "118bba4cc648dd7407e93467c50e827f", "type": "electric_scooter", "lon": -77.04186316666667, "rental_uris": {"android": "https://dc.lft.to/lastmile_qr_scan", "ios": "https://dc.lft.to/lastmile_qr_scan"}, "lat": 38.90523483333333, "is_reserved": 0, "is_disabled": 0, "fusion_lat": 0.0}, {"fusion_lon": 0.0, "bike_id": "f15c6167d9f02c3d6b0fe30eedb97174", "name": "f15c6167d9f02c3d6b0fe30eedb97174", "type": "electric_scooter", "lon": -77.05512766666666, "rental_uris": {"android": "https://dc.lft.to/lastmile_qr_scan", "ios": "https://dc.lft.to/lastmile_qr_scan"}, "lat": 38.94418066666667, "is_reserved": 0, "is_disabled": 0, "fusion_lat": 0.0}, {"fusion_lon": 0.0, "bike_id": "620e5f76e49f424be7eead1f655a87cf", "name": "620e5f76e49f424be7eead1f655a87cf", "type": "electric_scooter", "lon": -77.02452466666666, "rental_uris": {"android": "https://dc.lft.to/lastmile_qr_scan", "ios": "https://dc.lft.to/lastmile_qr_scan"}, "lat": 38.928926833333335, "is_reserved": 0, "is_disabled": 0, "fusion_lat": 0.0}, {"fusion_lon": 0.0, "bike_id": "84f4b300aba38d1a08c668d999d9d3e1", "name": "84f4b300aba38d1a08c668d999d9d3e1", "type": "electric_scooter", "lon": -77.04477933333334, "rental_uris": {"android": "https://dc.lft.to/lastmile_qr_scan", "ios": "https://dc.lft.to/lastmile_qr_scan"}, "lat": 38.9108285, "is_reserved": 0, "is_disabled": 0, "fusion_lat": 0.0}, {"fusion_lon": 0.0, "bike_id": "88da98546073b11c9fe2b52fbf497c49", "name": "88da98546073b11c9fe2b52fbf497c49", "type": "electric_scooter", "lon": -76.94997183333334, "rental_uris": {"android": "https://dc.lft.to/lastmile_qr_scan", "ios": "https://dc.lft.to/lastmile_qr_scan"}, "lat": 38.893934, "is_reserved": 0, "is_disabled": 0, "fusion_lat": 0.0}, {"fusion_lon": 0.0, "bike_id": "09d114f352a972e68174018c11a54387", "name": "09d114f352a972e68174018c11a54387", "type": "electric_scooter", "lon": -77.0221555, "rental_uris": {"android": "https://dc.lft.to/lastmile_qr_scan", "ios": "https://dc.lft.to/lastmile_qr_scan"}, "lat": 38.9009035, "is_reserved": 0, "is_disabled": 0, "fusion_lat": 0.0}, {"fusion_lon": 0.0, "bike_id": "e350195106a2d0c95d69bb83e4b5883f", "name": "e350195106a2d0c95d69bb83e4b5883f", "type": "electric_scooter", "lon": -76.98928333333333, "rental_uris": {"android": "https://dc.lft.to/lastmile_qr_scan", "ios": "https://dc.lft.to/lastmile_qr_scan"}, "lat": 38.90226083333334, "is_reserved": 0, "is_disabled": 0, "fusion_lat": 0.0}, {"fusion_lon": 0.0, "bike_id": "a2698a36f209374eb359b65302d82d80", "name": "a2698a36f209374eb359b65302d82d80", "type": "electric_scooter", "lon": -77.0328655, "rental_uris": {"android": "https://dc.lft.to/lastmile_qr_scan", "ios": "https://dc.lft.to/lastmile_qr_scan"}, "lat": 38.937488, "is_reserved": 0, "is_disabled": 0, "fusion_lat": 0.0}, {"fusion_lon": 0.0, "bike_id": "ff5496b01e23d5312a7f1345dcf53f02", "name": "ff5496b01e23d5312a7f1345dcf53f02", "type": "electric_bike", "lon": -76.9838485, "rental_uris": {"android": "https://dc.lft.to/lastmile_qr_scan", "ios": "https://dc.lft.to/lastmile_qr_scan"}, "lat": 38.91474916666667, "is_reserved": 0, "is_disabled": 0, "fusion_lat": 0.0}, {"fusion_lon": 0.0, "bike_id": "1a5103befcebc8f23bc55dd5ad15d438", "name": "1a5103befcebc8f23bc55dd5ad15d438", "type": "electric_scooter", "lon": -77.036392, "rental_uris": {"android": "https://dc.lft.to/lastmile_qr_scan", "ios": "https://dc.lft.to/lastmile_qr_scan"}, "lat": 38.91765433333333, "is_reserved": 0, "is_disabled": 0, "fusion_lat": 0.0}, {"fusion_lon": 0.0, "bike_id": "ab1a3e286b3b5e68c4e731dca4ac0d61", "name": "ab1a3e286b3b5e68c4e731dca4ac0d61", "type": "electric_scooter", "lon": -77.04194833333334, "rental_uris": {"android": "https://dc.lft.to/lastmile_qr_scan", "ios": "https://dc.lft.to/lastmile_qr_scan"}, "lat": 38.923367666666664, "is_reserved": 0, "is_disabled": 0, "fusion_lat": 0.0}, {"fusion_lon": 0.0, "bike_id": "8d26099fa143a6e5d5c66587a5af7734", "name": "8d26099fa143a6e5d5c66587a5af7734", "type": "electric_scooter", "lon": -77.01190116666666, "rental_uris": {"android": "https://dc.lft.to/lastmile_qr_scan", "ios": "https://dc.lft.to/lastmile_qr_scan"}, "lat": 38.88771166666667, "is_reserved": 0, "is_disabled": 0, "fusion_lat": 0.0}, {"fusion_lon": 0.0, "bike_id": "353a22d9a00729d1839305533358f7c9", "name": "353a22d9a00729d1839305533358f7c9", "type": "electric_scooter", "lon": -77.03177466666666, "rental_uris": {"android": "https://dc.lft.to/lastmile_qr_scan", "ios": "https://dc.lft.to/lastmile_qr_scan"}, "lat": 38.905167, "is_reserved": 0, "is_disabled": 0, "fusion_lat": 0.0}, {"fusion_lon": 0.0, "bike_id": "0797d47729b03523f5d61c9b8692c26c", "name": "0797d47729b03523f5d61c9b8692c26c", "type": "electric_scooter", "lon": -77.002488, "rental_uris": {"android": "https://dc.lft.to/lastmile_qr_scan", "ios": "https://dc.lft.to/lastmile_qr_scan"}, "lat": 38.88992433333333, "is_reserved": 0, "is_disabled": 0, "fusion_lat": 0.0}, {"fusion_lon": 0.0, "bike_id": "7e7a40787d3a7bf3cc0e1635b41ac2df", "name": "7e7a40787d3a7bf3cc0e1635b41ac2df", "type": "electric_scooter", "lon": -77.02953966666666, "rental_uris": {"android": "https://dc.lft.to/lastmile_qr_scan", "ios": "https://dc.lft.to/lastmile_qr_scan"}, "lat": 38.90497516666667, "is_reserved": 0, "is_disabled": 0, "fusion_lat": 0.0}, {"fusion_lon": 0.0, "bike_id": "ad9cb18f4f0575affbee70f32ee3eff6", "name": "ad9cb18f4f0575affbee70f32ee3eff6", "type": "electric_scooter", "lon": -76.94841216666667, "rental_uris": {"android": "https://dc.lft.to/lastmile_qr_scan", "ios": "https://dc.lft.to/lastmile_qr_scan"}, "lat": 38.894863, "is_reserved": 0, "is_disabled": 0, "fusion_lat": 0.0}, {"fusion_lon": 0.0, "bike_id": "f8e4db3418f70dba01f2b8b04522f92e", "name": "f8e4db3418f70dba01f2b8b04522f92e", "type": "electric_scooter", "lon": -77.02929833333333, "rental_uris": {"android": "https://dc.lft.to/lastmile_qr_scan", "ios": "https://dc.lft.to/lastmile_qr_scan"}, "lat": 38.898200833333334, "is_reserved": 0, "is_disabled": 0, "fusion_lat": 0.0}, {"fusion_lon": 0.0, "bike_id": "daac90a94ee8828e074cd9b56d4dddcd", "name": "daac90a94ee8828e074cd9b56d4dddcd", "type": "electric_bike", "lon": -76.9882715, "rental_uris": {"android": "https://dc.lft.to/lastmile_qr_scan", "ios": "https://dc.lft.to/lastmile_qr_scan"}, "lat": 38.98565133333334, "is_reserved": 0, "is_disabled": 0, "fusion_lat": 0.0}, {"fusion_lon": 0.0, "bike_id": "e47a9276c7064dc6e38c2a20c477dd0a", "name": "e47a9276c7064dc6e38c2a20c477dd0a", "type": "electric_scooter", "lon": -77.034531, "rental_uris": {"android": "https://dc.lft.to/lastmile_qr_scan", "ios": "https://dc.lft.to/lastmile_qr_scan"}, "lat": 38.90510716666667, "is_reserved": 0, "is_disabled": 0, "fusion_lat": 0.0}, {"fusion_lon": 0.0, "bike_id": "f8dae3eb0f2aa8fd9510f993d3a1e322", "name": "f8dae3eb0f2aa8fd9510f993d3a1e322", "type": "electric_scooter", "lon": -77.04787183333333, "rental_uris": {"android": "https://dc.lft.to/lastmile_qr_scan", "ios": "https://dc.lft.to/lastmile_qr_scan"}, "lat": 38.9079315, "is_reserved": 0, "is_disabled": 0, "fusion_lat": 0.0}, {"fusion_lon": 0.0, "bike_id": "7cf69e95f8f3ce7b1b3b78b52f75659e", "name": "7cf69e95f8f3ce7b1b3b78b52f75659e", "type": "electric_scooter", "lon": -77.00210383333334, "rental_uris": {"android": "https://dc.lft.to/lastmile_qr_scan", "ios": "https://dc.lft.to/lastmile_qr_scan"}, "lat": 38.90013183333333, "is_reserved": 0, "is_disabled": 0, "fusion_lat": 0.0}, {"fusion_lon": 0.0, "bike_id": "4ce8ab493d2d41739f59648b31afee26", "name": "4ce8ab493d2d41739f59648b31afee26", "type": "electric_scooter", "lon": -77.04158466666667, "rental_uris": {"android": "https://dc.lft.to/lastmile_qr_scan", "ios": "https://dc.lft.to/lastmile_qr_scan"}, "lat": 38.916013, "is_reserved": 0, "is_disabled": 0, "fusion_lat": 0.0}, {"fusion_lon": 0.0, "bike_id": "0af4cf9e4289025048318037eb76eb68", "name": "0af4cf9e4289025048318037eb76eb68", "type": "electric_scooter", "lon": -76.99466483333333, "rental_uris": {"android": "https://dc.lft.to/lastmile_qr_scan", "ios": "https://dc.lft.to/lastmile_qr_scan"}, "lat": 38.8403495, "is_reserved": 0, "is_disabled": 0, "fusion_lat": 0.0}, {"fusion_lon": 0.0, "bike_id": "849fd54b450439a7a662300da9026b32", "name": "849fd54b450439a7a662300da9026b32", "type": "electric_scooter", "lon": -77.04281083333333, "rental_uris": {"android": "https://dc.lft.to/lastmile_qr_scan", "ios": "https://dc.lft.to/lastmile_qr_scan"}, "lat": 38.90834816666667, "is_reserved": 0, "is_disabled": 0, "fusion_lat": 0.0}, {"fusion_lon": 0.0, "bike_id": "c82df33caff693f282525edcccc2efde", "name": "c82df33caff693f282525edcccc2efde", "type": "electric_scooter", "lon": -77.024474, "rental_uris": {"android": "https://dc.lft.to/lastmile_qr_scan", "ios": "https://dc.lft.to/lastmile_qr_scan"}, "lat": 38.927936833333334, "is_reserved": 0, "is_disabled": 0, "fusion_lat": 0.0}, {"fusion_lon": 0.0, "bike_id": "d27d18262288ca94f727c080328418ad", "name": "d27d18262288ca94f727c080328418ad", "type": "electric_scooter", "lon": -77.04699266666667, "rental_uris": {"android": "https://dc.lft.to/lastmile_qr_scan", "ios": "https://dc.lft.to/lastmile_qr_scan"}, "lat": 38.89743383333333, "is_reserved": 0, "is_disabled": 0, "fusion_lat": 0.0}, {"fusion_lon": 0.0, "bike_id": "34a701896d627ffa48f55e4691a9e596", "name": "34a701896d627ffa48f55e4691a9e596", "type": "electric_scooter", "lon": -77.02661283333333, "rental_uris": {"android": "https://dc.lft.to/lastmile_qr_scan", "ios": "https://dc.lft.to/lastmile_qr_scan"}, "lat": 38.97941933333333, "is_reserved": 0, "is_disabled": 0, "fusion_lat": 0.0}, {"fusion_lon": 0.0, "bike_id": "b3827b920403e893241b2398ee4ff12a", "name": "b3827b920403e893241b2398ee4ff12a", "type": "electric_scooter", "lon": -77.03267933333333, "rental_uris": {"android": "https://dc.lft.to/lastmile_qr_scan", "ios": "https://dc.lft.to/lastmile_qr_scan"}, "lat": 38.932100166666665, "is_reserved": 0, "is_disabled": 0, "fusion_lat": 0.0}, {"fusion_lon": 0.0, "bike_id": "76b3fe988400ae9144b358cc9a1b624a", "name": "76b3fe988400ae9144b358cc9a1b624a", "type": "electric_scooter", "lon": -77.052558, "rental_uris": {"android": "https://dc.lft.to/lastmile_qr_scan", "ios": "https://dc.lft.to/lastmile_qr_scan"}, "lat": 38.92373883333333, "is_reserved": 0, "is_disabled": 0, "fusion_lat": 0.0}, {"fusion_lon": 0.0, "bike_id": "a51fec41a0ac53c95d8424a48e5d7386", "name": "a51fec41a0ac53c95d8424a48e5d7386", "type": "electric_scooter", "lon": -77.0238635, "rental_uris": {"android": "https://dc.lft.to/lastmile_qr_scan", "ios": "https://dc.lft.to/lastmile_qr_scan"}, "lat": 38.957381, "is_reserved": 0, "is_disabled": 0, "fusion_lat": 0.0}, {"fusion_lon": 0.0, "bike_id": "2c32def1b01d860ee479a568e5f7046c", "name": "2c32def1b01d860ee479a568e5f7046c", "type": "electric_scooter", "lon": -77.0241225, "rental_uris": {"android": "https://dc.lft.to/lastmile_qr_scan", "ios": "https://dc.lft.to/lastmile_qr_scan"}, "lat": 38.89451916666667, "is_reserved": 0, "is_disabled": 0, "fusion_lat": 0.0}, {"fusion_lon": 0.0, "bike_id": "f321bb1154cbfdf906450dd2400684d4", "name": "f321bb1154cbfdf906450dd2400684d4", "type": "electric_scooter", "lon": -77.09205083333333, "rental_uris": {"android": "https://dc.lft.to/lastmile_qr_scan", "ios": "https://dc.lft.to/lastmile_qr_scan"}, "lat": 38.91711383333333, "is_reserved": 0, "is_disabled": 0, "fusion_lat": 0.0}, {"fusion_lon": 0.0, "bike_id": "8a53448402ac059f92eef23fb7c6c46f", "name": "8a53448402ac059f92eef23fb7c6c46f", "type": "electric_bike", "lon": -76.907571, "rental_uris": {"android": "https://dc.lft.to/lastmile_qr_scan", "ios": "https://dc.lft.to/lastmile_qr_scan"}, "lat": 38.9243775, "is_reserved": 0, "is_disabled": 0, "fusion_lat": 0.0}, {"fusion_lon": 0.0, "bike_id": "4be1ffccd7b40d997907533da1c6d83d", "name": "4be1ffccd7b40d997907533da1c6d83d", "type": "electric_scooter", "lon": -77.00451, "rental_uris": {"android": "https://dc.lft.to/lastmile_qr_scan", "ios": "https://dc.lft.to/lastmile_qr_scan"}, "lat": 38.9289475, "is_reserved": 0, "is_disabled": 0, "fusion_lat": 0.0}, {"fusion_lon": 0.0, "bike_id": "0aa5de2e1e190867394e4283ae72a65b", "name": "0aa5de2e1e190867394e4283ae72a65b", "type": "electric_scooter", "lon": -77.0326305, "rental_uris": {"android": "https://dc.lft.to/lastmile_qr_scan", "ios": "https://dc.lft.to/lastmile_qr_scan"}, "lat": 38.93520683333333, "is_reserved": 0, "is_disabled": 0, "fusion_lat": 0.0}, {"fusion_lon": 0.0, "bike_id": "e1efd33de67be42dc3cf0cab6226975b", "name": "e1efd33de67be42dc3cf0cab6226975b", "type": "electric_scooter", "lon": -77.0468355, "rental_uris": {"android": "https://dc.lft.to/lastmile_qr_scan", "ios": "https://dc.lft.to/lastmile_qr_scan"}, "lat": 38.915861666666665, "is_reserved": 0, "is_disabled": 0, "fusion_lat": 0.0}, {"fusion_lon": 0.0, "bike_id": "8257c0d42ea21e8464c6fdbd27a262ce", "name": "8257c0d42ea21e8464c6fdbd27a262ce", "type": "electric_scooter", "lon": -77.03184116666667, "rental_uris": {"android": "https://dc.lft.to/lastmile_qr_scan", "ios": "https://dc.lft.to/lastmile_qr_scan"}, "lat": 38.893291166666664, "is_reserved": 0, "is_disabled": 0, "fusion_lat": 0.0}, {"fusion_lon": 0.0, "bike_id": "ca7af91b64dae8e97f5f5752889b4ce9", "name": "ca7af91b64dae8e97f5f5752889b4ce9", "type": "electric_scooter", "lon": -77.04392533333333, "rental_uris": {"android": "https://dc.lft.to/lastmile_qr_scan", "ios": "https://dc.lft.to/lastmile_qr_scan"}, "lat": 38.91105316666667, "is_reserved": 0, "is_disabled": 0, "fusion_lat": 0.0}, {"fusion_lon": 0.0, "bike_id": "b0eb9f6542ddf15964b9ff9a69f734aa", "name": "b0eb9f6542ddf15964b9ff9a69f734aa", "type": "electric_scooter", "lon": -77.02146716666667, "rental_uris": {"android": "https://dc.lft.to/lastmile_qr_scan", "ios": "https://dc.lft.to/lastmile_qr_scan"}, "lat": 38.89933116666667, "is_reserved": 0, "is_disabled": 0, "fusion_lat": 0.0}, {"fusion_lon": 0.0, "bike_id": "07c285c5321a1d2ea7b290cd9b0cb58e", "name": "07c285c5321a1d2ea7b290cd9b0cb58e", "type": "electric_scooter", "lon": -77.02426583333333, "rental_uris": {"android": "https://dc.lft.to/lastmile_qr_scan", "ios": "https://dc.lft.to/lastmile_qr_scan"}, "lat": 38.92761183333333, "is_reserved": 0, "is_disabled": 0, "fusion_lat": 0.0}, {"fusion_lon": 0.0, "bike_id": "28f9c3c1f45adffd568b3c6108ea08a2", "name": "28f9c3c1f45adffd568b3c6108ea08a2", "type": "electric_scooter", "lon": -77.0057885, "rental_uris": {"android": "https://dc.lft.to/lastmile_qr_scan", "ios": "https://dc.lft.to/lastmile_qr_scan"}, "lat": 38.871736, "is_reserved": 0, "is_disabled": 0, "fusion_lat": 0.0}, {"fusion_lon": 0.0, "bike_id": "26651b1c4c9626c757ef53652f56c126", "name": "26651b1c4c9626c757ef53652f56c126", "type": "electric_scooter", "lon": -77.0130965, "rental_uris": {"android": "https://dc.lft.to/lastmile_qr_scan", "ios": "https://dc.lft.to/lastmile_qr_scan"}, "lat": 38.90137816666667, "is_reserved": 0, "is_disabled": 0, "fusion_lat": 0.0}, {"fusion_lon": 0.0, "bike_id": "e266e1efe2131b2e518e26da8c0ff5fa", "name": "e266e1efe2131b2e518e26da8c0ff5fa", "type": "electric_scooter", "lon": -77.02204266666666, "rental_uris": {"android": "https://dc.lft.to/lastmile_qr_scan", "ios": "https://dc.lft.to/lastmile_qr_scan"}, "lat": 38.91530916666667, "is_reserved": 0, "is_disabled": 0, "fusion_lat": 0.0}, {"fusion_lon": 0.0, "bike_id": "67d4ec01aa29ef635aa22e6493d5b259", "name": "67d4ec01aa29ef635aa22e6493d5b259", "type": "electric_scooter", "lon": -77.02214583333334, "rental_uris": {"android": "https://dc.lft.to/lastmile_qr_scan", "ios": "https://dc.lft.to/lastmile_qr_scan"}, "lat": 38.89613, "is_reserved": 0, "is_disabled": 0, "fusion_lat": 0.0}, {"fusion_lon": 0.0, "bike_id": "5d5536521e619f464a32a0d4d29f68cb", "name": "5d5536521e619f464a32a0d4d29f68cb", "type": "electric_scooter", "lon": -76.99087933333334, "rental_uris": {"android": "https://dc.lft.to/lastmile_qr_scan", "ios": "https://dc.lft.to/lastmile_qr_scan"}, "lat": 38.862419, "is_reserved": 0, "is_disabled": 0, "fusion_lat": 0.0}, {"fusion_lon": 0.0, "bike_id": "a071014744d41512c52777a7cce5c10c", "name": "a071014744d41512c52777a7cce5c10c", "type": "electric_scooter", "lon": -77.02328233333333, "rental_uris": {"android": "https://dc.lft.to/lastmile_qr_scan", "ios": "https://dc.lft.to/lastmile_qr_scan"}, "lat": 38.92874666666667, "is_reserved": 0, "is_disabled": 0, "fusion_lat": 0.0}, {"fusion_lon": 0.0, "bike_id": "73bb4ad4454fdcf41379d43b12d94106", "name": "73bb4ad4454fdcf41379d43b12d94106", "type": "electric_scooter", "lon": -77.04832533333334, "rental_uris": {"android": "https://dc.lft.to/lastmile_qr_scan", "ios": "https://dc.lft.to/lastmile_qr_scan"}, "lat": 38.902189666666665, "is_reserved": 0, "is_disabled": 0, "fusion_lat": 0.0}, {"fusion_lon": 0.0, "bike_id": "acc6c8110b047b0394ca3bf4ddba63a1", "name": "acc6c8110b047b0394ca3bf4ddba63a1", "type": "electric_scooter", "lon": -76.9872865, "rental_uris": {"android": "https://dc.lft.to/lastmile_qr_scan", "ios": "https://dc.lft.to/lastmile_qr_scan"}, "lat": 38.86712433333334, "is_reserved": 0, "is_disabled": 0, "fusion_lat": 0.0}, {"fusion_lon": 0.0, "bike_id": "398c29eafe38173ad2dee97a5b39c475", "name": "398c29eafe38173ad2dee97a5b39c475", "type": "electric_scooter", "lon": -77.029805, "rental_uris": {"android": "https://dc.lft.to/lastmile_qr_scan", "ios": "https://dc.lft.to/lastmile_qr_scan"}, "lat": 38.92538366666667, "is_reserved": 0, "is_disabled": 0, "fusion_lat": 0.0}, {"fusion_lon": 0.0, "bike_id": "4870fba5c94255280b417a035eefce64", "name": "4870fba5c94255280b417a035eefce64", "type": "electric_scooter", "lon": -77.02486716666667, "rental_uris": {"android": "https://dc.lft.to/lastmile_qr_scan", "ios": "https://dc.lft.to/lastmile_qr_scan"}, "lat": 38.932903333333336, "is_reserved": 0, "is_disabled": 0, "fusion_lat": 0.0}, {"fusion_lon": 0.0, "bike_id": "6366fd16342751970b5b607a6599d07e", "name": "6366fd16342751970b5b607a6599d07e", "type": "electric_scooter", "lon": -77.028145, "rental_uris": {"android": "https://dc.lft.to/lastmile_qr_scan", "ios": "https://dc.lft.to/lastmile_qr_scan"}, "lat": 38.91420516666667, "is_reserved": 0, "is_disabled": 0, "fusion_lat": 0.0}, {"fusion_lon": 0.0, "bike_id": "df66d9282de28e5df1eaf1f6a177b8a3", "name": "df66d9282de28e5df1eaf1f6a177b8a3", "type": "electric_scooter", "lon": -76.98094216666667, "rental_uris": {"android": "https://dc.lft.to/lastmile_qr_scan", "ios": "https://dc.lft.to/lastmile_qr_scan"}, "lat": 38.85720633333333, "is_reserved": 0, "is_disabled": 0, "fusion_lat": 0.0}, {"fusion_lon": 0.0, "bike_id": "b809c631faafbce88cfb23638923caca", "name": "b809c631faafbce88cfb23638923caca", "type": "electric_scooter", "lon": -76.94982766666666, "rental_uris": {"android": "https://dc.lft.to/lastmile_qr_scan", "ios": "https://dc.lft.to/lastmile_qr_scan"}, "lat": 38.89434966666666, "is_reserved": 0, "is_disabled": 0, "fusion_lat": 0.0}, {"fusion_lon": 0.0, "bike_id": "f4c6ae08ec3d447e6b5c29608e08a453", "name": "f4c6ae08ec3d447e6b5c29608e08a453", "type": "electric_scooter", "lon": -77.02685933333333, "rental_uris": {"android": "https://dc.lft.to/lastmile_qr_scan", "ios": "https://dc.lft.to/lastmile_qr_scan"}, "lat": 38.9125765, "is_reserved": 0, "is_disabled": 0, "fusion_lat": 0.0}, {"fusion_lon": 0.0, "bike_id": "f2e50ca8735a8abac217a24720318379", "name": "f2e50ca8735a8abac217a24720318379", "type": "electric_scooter", "lon": -77.04166666666667, "rental_uris": {"android": "https://dc.lft.to/lastmile_qr_scan", "ios": "https://dc.lft.to/lastmile_qr_scan"}, "lat": 38.90926316666667, "is_reserved": 0, "is_disabled": 0, "fusion_lat": 0.0}, {"fusion_lon": 0.0, "bike_id": "6f2bd3527c05307399b88cd2ba9b3ba8", "name": "6f2bd3527c05307399b88cd2ba9b3ba8", "type": "electric_scooter", "lon": -77.00337533333334, "rental_uris": {"android": "https://dc.lft.to/lastmile_qr_scan", "ios": "https://dc.lft.to/lastmile_qr_scan"}, "lat": 38.89359266666666, "is_reserved": 0, "is_disabled": 0, "fusion_lat": 0.0}, {"fusion_lon": 0.0, "bike_id": "685dd55a4b9900e78ad1d5213fb02d1d", "name": "685dd55a4b9900e78ad1d5213fb02d1d", "type": "electric_scooter", "lon": -77.03454083333334, "rental_uris": {"android": "https://dc.lft.to/lastmile_qr_scan", "ios": "https://dc.lft.to/lastmile_qr_scan"}, "lat": 38.9033625, "is_reserved": 0, "is_disabled": 0, "fusion_lat": 0.0}, {"fusion_lon": 0.0, "bike_id": "18162813f9e787a92e090c150577f284", "name": "18162813f9e787a92e090c150577f284", "type": "electric_bike", "lon": -77.02627416666667, "rental_uris": {"android": "https://dc.lft.to/lastmile_qr_scan", "ios": "https://dc.lft.to/lastmile_qr_scan"}, "lat": 38.96220066666667, "is_reserved": 0, "is_disabled": 0, "fusion_lat": 0.0}, {"fusion_lon": 0.0, "bike_id": "6b496ffeb2f024cf6cf58d8af379b29c", "name": "6b496ffeb2f024cf6cf58d8af379b29c", "type": "electric_scooter", "lon": -77.00574883333333, "rental_uris": {"android": "https://dc.lft.to/lastmile_qr_scan", "ios": "https://dc.lft.to/lastmile_qr_scan"}, "lat": 38.8765395, "is_reserved": 0, "is_disabled": 0, "fusion_lat": 0.0}, {"fusion_lon": 0.0, "bike_id": "8671cf144463df59a0ab4299f8876cbb", "name": "8671cf144463df59a0ab4299f8876cbb", "type": "electric_scooter", "lon": -76.948431, "rental_uris": {"android": "https://dc.lft.to/lastmile_qr_scan", "ios": "https://dc.lft.to/lastmile_qr_scan"}, "lat": 38.8948565, "is_reserved": 0, "is_disabled": 0, "fusion_lat": 0.0}, {"fusion_lon": 0.0, "bike_id": "6263dfc17c5101c7cbf50eefe557c9d5", "name": "6263dfc17c5101c7cbf50eefe557c9d5", "type": "electric_scooter", "lon": -77.03700433333333, "rental_uris": {"android": "https://dc.lft.to/lastmile_qr_scan", "ios": "https://dc.lft.to/lastmile_qr_scan"}, "lat": 38.926467, "is_reserved": 0, "is_disabled": 0, "fusion_lat": 0.0}, {"fusion_lon": 0.0, "bike_id": "a9fa9005c58dfc7f6481d4a5f719ec2e", "name": "a9fa9005c58dfc7f6481d4a5f719ec2e", "type": "electric_bike", "lon": -77.08526766666667, "rental_uris": {"android": "https://dc.lft.to/lastmile_qr_scan", "ios": "https://dc.lft.to/lastmile_qr_scan"}, "lat": 38.856501333333334, "is_reserved": 0, "is_disabled": 0, "fusion_lat": 0.0}, {"fusion_lon": 0.0, "bike_id": "0f5b9d8fade30d3e2cb5553729e2d68a", "name": "0f5b9d8fade30d3e2cb5553729e2d68a", "type": "electric_scooter", "lon": -77.032018, "rental_uris": {"android": "https://dc.lft.to/lastmile_qr_scan", "ios": "https://dc.lft.to/lastmile_qr_scan"}, "lat": 38.907566333333335, "is_reserved": 0, "is_disabled": 0, "fusion_lat": 0.0}, {"fusion_lon": 0.0, "bike_id": "a9f40e90279118fe30310e31f8329a80", "name": "a9f40e90279118fe30310e31f8329a80", "type": "electric_scooter", "lon": -77.0483745, "rental_uris": {"android": "https://dc.lft.to/lastmile_qr_scan", "ios": "https://dc.lft.to/lastmile_qr_scan"}, "lat": 38.91339116666666, "is_reserved": 0, "is_disabled": 0, "fusion_lat": 0.0}, {"fusion_lon": 0.0, "bike_id": "875ab1813a220dcfb843cbed7c388dc7", "name": "875ab1813a220dcfb843cbed7c388dc7", "type": "electric_scooter", "lon": -77.01112666666667, "rental_uris": {"android": "https://dc.lft.to/lastmile_qr_scan", "ios": "https://dc.lft.to/lastmile_qr_scan"}, "lat": 38.90357383333333, "is_reserved": 0, "is_disabled": 0, "fusion_lat": 0.0}, {"fusion_lon": 0.0, "bike_id": "33f8e1c0bf079a67e4171ea126cf8f88", "name": "33f8e1c0bf079a67e4171ea126cf8f88", "type": "electric_scooter", "lon": -77.04787716666667, "rental_uris": {"android": "https://dc.lft.to/lastmile_qr_scan", "ios": "https://dc.lft.to/lastmile_qr_scan"}, "lat": 38.913403333333335, "is_reserved": 0, "is_disabled": 0, "fusion_lat": 0.0}, {"fusion_lon": 0.0, "bike_id": "d3952caf15a6a8aa69b82b893f2fba80", "name": "d3952caf15a6a8aa69b82b893f2fba80", "type": "electric_scooter", "lon": -77.02222683333333, "rental_uris": {"android": "https://dc.lft.to/lastmile_qr_scan", "ios": "https://dc.lft.to/lastmile_qr_scan"}, "lat": 38.912697666666666, "is_reserved": 0, "is_disabled": 0, "fusion_lat": 0.0}, {"fusion_lon": 0.0, "bike_id": "9d3b07a9f820c2689f787450732197fc", "name": "9d3b07a9f820c2689f787450732197fc", "type": "electric_scooter", "lon": -77.02950616666666, "rental_uris": {"android": "https://dc.lft.to/lastmile_qr_scan", "ios": "https://dc.lft.to/lastmile_qr_scan"}, "lat": 38.896207, "is_reserved": 0, "is_disabled": 0, "fusion_lat": 0.0}, {"fusion_lon": 0.0, "bike_id": "296691c927299a9e2b7abc7d29a57a4d", "name": "296691c927299a9e2b7abc7d29a57a4d", "type": "electric_scooter", "lon": -77.00330233333334, "rental_uris": {"android": "https://dc.lft.to/lastmile_qr_scan", "ios": "https://dc.lft.to/lastmile_qr_scan"}, "lat": 38.89369166666667, "is_reserved": 0, "is_disabled": 0, "fusion_lat": 0.0}, {"fusion_lon": 0.0, "bike_id": "3a1af9b930172830e1103a5de5bb17b1", "name": "3a1af9b930172830e1103a5de5bb17b1", "type": "electric_scooter", "lon": -77.02586133333334, "rental_uris": {"android": "https://dc.lft.to/lastmile_qr_scan", "ios": "https://dc.lft.to/lastmile_qr_scan"}, "lat": 38.92040266666667, "is_reserved": 0, "is_disabled": 0, "fusion_lat": 0.0}, {"fusion_lon": 0.0, "bike_id": "3c7119a8de9541f6090305aa550d6471", "name": "3c7119a8de9541f6090305aa550d6471", "type": "electric_scooter", "lon": -77.07255883333333, "rental_uris": {"android": "https://dc.lft.to/lastmile_qr_scan", "ios": "https://dc.lft.to/lastmile_qr_scan"}, "lat": 38.907879, "is_reserved": 0, "is_disabled": 0, "fusion_lat": 0.0}, {"fusion_lon": 0.0, "bike_id": "ec6f90fc6308d10571bfb0d295741f7a", "name": "ec6f90fc6308d10571bfb0d295741f7a", "type": "electric_scooter", "lon": -77.0075895, "rental_uris": {"android": "https://dc.lft.to/lastmile_qr_scan", "ios": "https://dc.lft.to/lastmile_qr_scan"}, "lat": 38.907167666666666, "is_reserved": 0, "is_disabled": 0, "fusion_lat": 0.0}, {"fusion_lon": 0.0, "bike_id": "e6a589b6d972ae418b88d0f468b1b7f4", "name": "e6a589b6d972ae418b88d0f468b1b7f4", "type": "electric_scooter", "lon": -77.04510783333333, "rental_uris": {"android": "https://dc.lft.to/lastmile_qr_scan", "ios": "https://dc.lft.to/lastmile_qr_scan"}, "lat": 38.9037585, "is_reserved": 0, "is_disabled": 0, "fusion_lat": 0.0}, {"fusion_lon": 0.0, "bike_id": "962841bcd8be192ad46973a914598a85", "name": "962841bcd8be192ad46973a914598a85", "type": "electric_scooter", "lon": -77.02794233333333, "rental_uris": {"android": "https://dc.lft.to/lastmile_qr_scan", "ios": "https://dc.lft.to/lastmile_qr_scan"}, "lat": 38.930843333333335, "is_reserved": 0, "is_disabled": 0, "fusion_lat": 0.0}, {"fusion_lon": 0.0, "bike_id": "744ebd132f8ba8cdcab3e81b4aa6ea4c", "name": "744ebd132f8ba8cdcab3e81b4aa6ea4c", "type": "electric_scooter", "lon": -77.0270005, "rental_uris": {"android": "https://dc.lft.to/lastmile_qr_scan", "ios": "https://dc.lft.to/lastmile_qr_scan"}, "lat": 38.90978333333334, "is_reserved": 0, "is_disabled": 0, "fusion_lat": 0.0}, {"fusion_lon": 0.0, "bike_id": "cb986ebd44624d701574b68f5f9366ee", "name": "cb986ebd44624d701574b68f5f9366ee", "type": "electric_scooter", "lon": -76.975492, "rental_uris": {"android": "https://dc.lft.to/lastmile_qr_scan", "ios": "https://dc.lft.to/lastmile_qr_scan"}, "lat": 38.9026325, "is_reserved": 0, "is_disabled": 0, "fusion_lat": 0.0}, {"fusion_lon": 0.0, "bike_id": "ef6177c52ac4c3cc742ffcd723701a49", "name": "ef6177c52ac4c3cc742ffcd723701a49", "type": "electric_scooter", "lon": -76.983339, "rental_uris": {"android": "https://dc.lft.to/lastmile_qr_scan", "ios": "https://dc.lft.to/lastmile_qr_scan"}, "lat": 38.889880166666664, "is_reserved": 0, "is_disabled": 0, "fusion_lat": 0.0}, {"fusion_lon": 0.0, "bike_id": "c405af96a9f3e1409b984e68c1c3b31e", "name": "c405af96a9f3e1409b984e68c1c3b31e", "type": "electric_scooter", "lon": -77.03335533333333, "rental_uris": {"android": "https://dc.lft.to/lastmile_qr_scan", "ios": "https://dc.lft.to/lastmile_qr_scan"}, "lat": 38.90234483333333, "is_reserved": 0, "is_disabled": 0, "fusion_lat": 0.0}, {"fusion_lon": 0.0, "bike_id": "4a055b408d846682bcdfffc4d116fdb2", "name": "4a055b408d846682bcdfffc4d116fdb2", "type": "electric_scooter", "lon": -76.99091966666667, "rental_uris": {"android": "https://dc.lft.to/lastmile_qr_scan", "ios": "https://dc.lft.to/lastmile_qr_scan"}, "lat": 38.8636075, "is_reserved": 0, "is_disabled": 0, "fusion_lat": 0.0}, {"fusion_lon": 0.0, "bike_id": "c3bec6af6577d40543ec7e61909aa80e", "name": "c3bec6af6577d40543ec7e61909aa80e", "type": "electric_scooter", "lon": -77.02756066666667, "rental_uris": {"android": "https://dc.lft.to/lastmile_qr_scan", "ios": "https://dc.lft.to/lastmile_qr_scan"}, "lat": 38.92587283333334, "is_reserved": 0, "is_disabled": 0, "fusion_lat": 0.0}, {"fusion_lon": 0.0, "bike_id": "e779f124ca3bc475a9b2b3882cb279a3", "name": "e779f124ca3bc475a9b2b3882cb279a3", "type": "electric_scooter", "lon": -76.99516333333334, "rental_uris": {"android": "https://dc.lft.to/lastmile_qr_scan", "ios": "https://dc.lft.to/lastmile_qr_scan"}, "lat": 38.862606166666666, "is_reserved": 0, "is_disabled": 0, "fusion_lat": 0.0}, {"fusion_lon": 0.0, "bike_id": "31eb7a0797b6f6a02421761be5b03f01", "name": "31eb7a0797b6f6a02421761be5b03f01", "type": "electric_bike", "lon": -77.006771, "rental_uris": {"android": "https://dc.lft.to/lastmile_qr_scan", "ios": "https://dc.lft.to/lastmile_qr_scan"}, "lat": 38.9452075, "is_reserved": 0, "is_disabled": 0, "fusion_lat": 0.0}, {"fusion_lon": 0.0, "bike_id": "f3d2e873b96b9099512f2005bf2f7545", "name": "f3d2e873b96b9099512f2005bf2f7545", "type": "electric_scooter", "lon": -77.02484033333333, "rental_uris": {"android": "https://dc.lft.to/lastmile_qr_scan", "ios": "https://dc.lft.to/lastmile_qr_scan"}, "lat": 38.880189333333334, "is_reserved": 0, "is_disabled": 0, "fusion_lat": 0.0}, {"fusion_lon": 0.0, "bike_id": "74533eb22e77422c0a312bc46fcf417a", "name": "74533eb22e77422c0a312bc46fcf417a", "type": "electric_scooter", "lon": -77.0425335, "rental_uris": {"android": "https://dc.lft.to/lastmile_qr_scan", "ios": "https://dc.lft.to/lastmile_qr_scan"}, "lat": 38.90826966666667, "is_reserved": 0, "is_disabled": 0, "fusion_lat": 0.0}, {"fusion_lon": 0.0, "bike_id": "b68194f11b5ccff887b55e3fe1845759", "name": "b68194f11b5ccff887b55e3fe1845759", "type": "electric_scooter", "lon": -76.99574066666666, "rental_uris": {"android": "https://dc.lft.to/lastmile_qr_scan", "ios": "https://dc.lft.to/lastmile_qr_scan"}, "lat": 38.92002216666667, "is_reserved": 0, "is_disabled": 0, "fusion_lat": 0.0}, {"fusion_lon": 0.0, "bike_id": "771c962c4c27f9d5c02b69c8e9ebaaac", "name": "771c962c4c27f9d5c02b69c8e9ebaaac", "type": "electric_bike", "lon": -77.12584666666666, "rental_uris": {"android": "https://dc.lft.to/lastmile_qr_scan", "ios": "https://dc.lft.to/lastmile_qr_scan"}, "lat": 38.851465, "is_reserved": 0, "is_disabled": 0, "fusion_lat": 0.0},