{"data": {"bikes": [{"bike_id": "2ae5a551b461569ef5eab6f6c4aea95c", "lon": -77.042585, "lat": 38.908657833333336, "fusion_lon": 0.0, "rental_uris": {"ios": "https://dc.lft.to/lastmile_qr_scan", "android": "https://dc.lft.to/lastmile_qr_scan"}, "is_disabled": 0, "is_reserved": 0, "name": "2ae5a551b461569ef5eab6f6c4aea95c", "type": "electric_scooter", "fusion_lat": 0.0}, {"bike_id": "9fbf29213d8d29c9251d75668fdb40e2", "lon": -77.00140133333333, "lat": 38.907239833333335, "fusion_lon": 0.0, "rental_uris": {"ios": "https://dc.lft.to/lastmile_qr_scan", "android": "https://dc.lft.to/lastmile_qr_scan"}, "is_disabled": 0, "is_reserved": 0, "name": "9fbf29213d8d29c9251d75668fdb40e2", "type": "electric_scooter", "fusion_lat": 0.0}, {"bike_id": "146ea20374f45b10bef6742f90de5ebb", "lon": -77.01625316666667, "lat": 38.89819166666667, "fusion_lon": 0.0, "rental_uris": {"ios": "https://dc.lft.to/lastmile_qr_scan", "android": "https://dc.lft.to/lastmile_qr_scan"}, "is_disabled": 0, "is_reserved": 0, "name": "146ea20374f45b10bef6742f90de5ebb", "type": "electric_scooter", "fusion_lat": 0.0}, {"bike_id": "efe6b33bad5daba7a59a21489df945a8", "lon": -77.035746, "lat": 38.909631833333336, "fusion_lon": 0.0, "rental_uris": {"ios": "https://dc.lft.to/lastmile_qr_scan", "android": "https://dc.lft.to/lastmile_qr_scan"}, "is_disabled": 0, "is_reserved": 0, "name": "efe6b33bad5daba7a59a21489df945a8", "type": "electric_scooter", "fusion_lat": 0.0}, {"bike_id": "4aabb4728f34484919aa4245c8b1f636", "lon": -77.03211716666667, "lat": 38.92313333333333, "fusion_lon": 0.0, "rental_uris": {"ios": "https://dc.lft.to/lastmile_qr_scan", "android": "https://dc.lft.to/lastmile_qr_scan"}, "is_disabled": 0, "is_reserved": 0, "name": "4aabb4728f34484919aa4245c8b1f636", "type": "electric_scooter", "fusion_lat": 0.0}, {"bike_id": "d3714fd70ef30e70a01a8d25f18b3540", "lon": -77.04545333333333, "lat": 38.903851333333336, "fusion_lon": 0.0, "rental_uris": {"ios": "https://dc.lft.to/lastmile_qr_scan", "android": "https://dc.lft.to/lastmile_qr_scan"}, "is_disabled": 0, "is_reserved": 0, "name": "d3714fd70ef30e70a01a8d25f18b3540", "type": "electric_scooter", "fusion_lat": 0.0}, {"bike_id": "2cbd40a0cc731d11f6ac7b6bead61587", "lon": -76.93210916666666, "lat": 38.88049516666667, "fusion_lon": 0.0, "rental_uris": {"ios": "https://dc.lft.to/lastmile_qr_scan", "android": "https://dc.lft.to/lastmile_qr_scan"}, "is_disabled": 0, "is_reserved": 0, "name": "2cbd40a0cc731d11f6ac7b6bead61587", "type": "electric_scooter", "fusion_lat": 0.0}, {"bike_id": "617369cd8bc5dd6c358a5a30defed5e5", "lon": -77.017736, "lat": 38.886033, "fusion_lon": 0.0, "rental_uris": {"ios": "https://dc.lft.to/lastmile_qr_scan", "android": "https://dc.lft.to/lastmile_qr_scan"}, "is_disabled": 0, "is_reserved": 0, "name": "617369cd8bc5dd6c358a5a30defed5e5", "type": "electric_scooter", "fusion_lat": 0.0}, {"bike_id": "5bbf89bea005b72a3b80f90c873d721c", "lon": -77.023605, "lat": 38.931617, "fusion_lon": 0.0, "rental_uris": {"ios": "https://dc.lft.to/lastmile_qr_scan", "android": "https://dc.lft.to/lastmile_qr_scan"}, "is_disabled": 0, "is_reserved": 0, "name": "5bbf89bea005b72a3b80f90c873d721c", "type": "electric_scooter", "fusion_lat": 0.0}, {"bike_id": "6a03eb1151ae94a97aac7def0b6b00bc", "lon": -77.01455716666666, "lat": 38.9627655, "fusion_lon": 0.0, "rental_uris": {"ios": "https://dc.lft.to/lastmile_qr_scan", "android": "https://dc.lft.to/lastmile_qr_scan"}, "is_disabled": 0, "is_reserved": 0, "name": "6a03eb1151ae94a97aac7def0b6b00bc", "type": "electric_bike", "fusion_lat": 0.0}, {"bike_id": "9cb66a337c2499bb37a52ae89da10889", "lon": -77.04238933333333, "lat": 38.92269233333333, "fusion_lon": 0.0, "rental_uris": {"ios": "https://dc.lft.to/lastmile_qr_scan", "android": "https://dc.lft.to/lastmile_qr_scan"}, "is_disabled": 0, "is_reserved": 0, "name": "9cb66a337c2499bb37a52ae89da10889", "type": "electric_scooter", "fusion_lat": 0.0}, {"bike_id": "19acb238afbb19dac4f1e201f2ac9b95", "lon": -76.9773305, "lat": 38.95175233333333, "fusion_lon": 0.0, "rental_uris": {"ios": "https://dc.lft.to/lastmile_qr_scan", "android": "https://dc.lft.to/lastmile_qr_scan"}, "is_disabled": 0, "is_reserved": 0, "name": "19acb238afbb19dac4f1e201f2ac9b95", "type": "electric_bike", "fusion_lat": 0.0}, {"bike_id": "ad261dc09c23269b31f2c8b490bf16c4", "lon": -77.06516733333333, "lat": 38.910930666666665, "fusion_lon": 0.0, "rental_uris": {"ios": "https://dc.lft.to/lastmile_qr_scan", "android": "https://dc.lft.to/lastmile_qr_scan"}, "is_disabled": 0, "is_reserved": 0, "name": "ad261dc09c23269b31f2c8b490bf16c4", "type": "electric_bike", "fusion_lat": 0.0}, {"bike_id": "c7a6da7f46d2266eb39a343faec25f20", "lon": -76.94966716666667, "lat": 38.9049115, "fusion_lon": 0.0, "rental_uris": {"ios": "https://dc.lft.to/lastmile_qr_scan", "android": "https://dc.lft.to/lastmile_qr_scan"}, "is_disabled": 0, "is_reserved": 0, "name": "c7a6da7f46d2266eb39a343faec25f20", "type": "electric_scooter", "fusion_lat": 0.0}, {"bike_id": "497ae83b75fe356d178415d563655f57", "lon": -77.04463133333333, "lat": 38.90853, "fusion_lon": 0.0, "rental_uris": {"ios": "https://dc.lft.to/lastmile_qr_scan", "android": "https://dc.lft.to/lastmile_qr_scan"}, "is_disabled": 0, "is_reserved": 0, "name": "497ae83b75fe356d178415d563655f57", "type": "electric_scooter", "fusion_lat": 0.0}, {"bike_id": "41314742bd4d593f18b7f0d2a3ed96e8", "lon": -77.058146, "lat": 38.90287216666667, "fusion_lon": 0.0, "rental_uris": {"ios": "https://dc.lft.to/lastmile_qr_scan", "android": "https://dc.lft.to/lastmile_qr_scan"}, "is_disabled": 0, "is_reserved": 0, "name": "41314742bd4d593f18b7f0d2a3ed96e8", "type": "electric_scooter", "fusion_lat": 0.0}, {"bike_id": "34e593636332472e92f9a1c4d8aadf5d", "lon": -76.93729766666667, "lat": 38.890146333333334, "fusion_lon": 0.0, "rental_uris": {"ios": "https://dc.lft.to/lastmile_qr_scan", "android": "https://dc.lft.to/lastmile_qr_scan"}, "is_disabled": 0, "is_reserved": 0, "name": "34e593636332472e92f9a1c4d8aadf5d", "type": "electric_scooter", "fusion_lat": 0.0}, {"bike_id": "aee822965343079232aaa569428c22fa", "lon": -77.03311516666666, "lat": 38.9217335, "fusion_lon": 0.0, "rental_uris": {"ios": "https://dc.lft.to/lastmile_qr_scan", "android": "https://dc.lft.to/lastmile_qr_scan"}, "is_disabled": 0, "is_reserved": 0, "name": "aee822965343079232aaa569428c22fa", "type": "electric_scooter", "fusion_lat": 0.0}, {"bike_id": "73baf0786dc024c8afdc25eb075ec948", "lon": -77.04800683333333, "lat": 38.9095695, "fusion_lon": 0.0, "rental_uris": {"ios": "https://dc.lft.to/lastmile_qr_scan", "android": "https://dc.lft.to/lastmile_qr_scan"}, "is_disabled": 0, "is_reserved": 0, "name": "73baf0786dc024c8afdc25eb075ec948", "type": "electric_scooter", "fusion_lat": 0.0}, {"bike_id": "b287fbbe5a651ec451bb8f53a39468cf", "lon": -77.04039, "lat": 38.91414533333333, "fusion_lon": 0.0, "rental_uris": {"ios": "https://dc.lft.to/lastmile_qr_scan", "android": "https://dc.lft.to/lastmile_qr_scan"}, "is_disabled": 0, "is_reserved": 0, "name": "b287fbbe5a651ec451bb8f53a39468cf", "type": "electric_scooter", "fusion_lat": 0.0}, {"bike_id": "beb93ea6b5bc1ad219cccb2a844ed374", "lon": -77.0214275, "lat": 38.92323783333333, "fusion_lon": 0.0, "rental_uris": {"ios": "https://dc.lft.to/lastmile_qr_scan", "android": "https://dc.lft.to/lastmile_qr_scan"}, "is_disabled": 0, "is_reserved": 0, "name": "beb93ea6b5bc1ad219cccb2a844ed374", "type": "electric_scooter", "fusion_lat": 0.0}, {"bike_id": "20b2dac7237eaed231a3e16c923f8e7b", "lon": -77.04092183333333, "lat": 38.91039383333333, "fusion_lon": 0.0, "rental_uris": {"ios": "https://dc.lft.to/lastmile_qr_scan", "android": "https://dc.lft.to/lastmile_qr_scan"}, "is_disabled": 0, "is_reserved": 0, "name": "20b2dac7237eaed231a3e16c923f8e7b", "type": "electric_scooter", "fusion_lat": 0.0}, {"bike_id": "359db7abab50434b33b45f886e3ba50d", "lon": -77.150274, "lat": 39.05794983333333, "fusion_lon": 0.0, "rental_uris": {"ios": "https://dc.lft.to/lastmile_qr_scan", "android": "https://dc.lft.to/lastmile_qr_scan"}, "is_disabled": 0, "is_reserved": 0, "name": "359db7abab50434b33b45f886e3ba50d", "type": "electric_bike", "fusion_lat": 0.0}, {"bike_id": "bd353002efa2f4fdaec8fe4db2f710b1", "lon": -76.98966, "lat": 38.85691283333333, "fusion_lon": 0.0, "rental_uris": {"ios": "https://dc.lft.to/lastmile_qr_scan", "android": "https://dc.lft.to/lastmile_qr_scan"}, "is_disabled": 0, "is_reserved": 0, "name": "bd353002efa2f4fdaec8fe4db2f710b1", "type": "electric_scooter", "fusion_lat": 0.0}, {"bike_id": "49950f2795c2221c152fecd977d1a067", "lon": -77.01890666666667, "lat": 38.923686333333336, "fusion_lon": 0.0, "rental_uris": {"ios": "https://dc.lft.to/lastmile_qr_scan", "android": "https://dc.lft.to/lastmile_qr_scan"}, "is_disabled": 0, "is_reserved": 0, "name": "49950f2795c2221c152fecd977d1a067", "type": "electric_scooter", "fusion_lat": 0.0}, {"bike_id": "8252e9b1121fc3536a3744bec4f5a224", "lon": -77.0379895, "lat": 38.930468166666664, "fusion_lon": 0.0, "rental_uris": {"ios": "https://dc.lft.to/lastmile_qr_scan", "android": "https://dc.lft.to/lastmile_qr_scan"}, "is_disabled": 0, "is_reserved": 0, "name": "8252e9b1121fc3536a3744bec4f5a224", "type": "electric_scooter", "fusion_lat": 0.0}, {"bike_id": "709d8644243c2ae2af423172dd44ab9d", "lon": -76.99781216666666, "lat": 38.8442645, "fusion_lon": 0.0, "rental_uris": {"ios": "https://dc.lft.to/lastmile_qr_scan", "android": "https://dc.lft.to/lastmile_qr_scan"}, "is_disabled": 0, "is_reserved": 0, "name": "709d8644243c2ae2af423172dd44ab9d", "type": "electric_scooter", "fusion_lat": 0.0}, {"bike_id": "e2e59490c7ba46c78971c1206ff45b17", "lon": -77.08449316666666, "lat": 38.95912116666667, "fusion_lon": 0.0, "rental_uris": {"ios": "https://dc.lft.to/lastmile_qr_scan", "android": "https://dc.lft.to/lastmile_qr_scan"}, "is_disabled": 0, "is_reserved": 0, "name": "e2e59490c7ba46c78971c1206ff45b17", "type": "electric_scooter", "fusion_lat": 0.0}, {"bike_id": "66eab4aa68501292789fd619919875fd", "lon": -77.07285083333333, "lat": 38.9090055, "fusion_lon": 0.0, "rental_uris": {"ios": "https://dc.lft.to/lastmile_qr_scan", "android": "https://dc.lft.to/lastmile_qr_scan"}, "is_disabled": 0, "is_reserved": 0, "name": "66eab4aa68501292789fd619919875fd", "type": "electric_scooter", "fusion_lat": 0.0}, {"bike_id": "44ee707dc24eaa318e3face723221ba8", "lon": -77.044275, "lat": 38.92115733333333, "fusion_lon": 0.0, "rental_uris": {"ios": "https://dc.lft.to/lastmile_qr_scan", "android": "https://dc.lft.to/lastmile_qr_scan"}, "is_disabled": 0, "is_reserved": 0, "name": "44ee707dc24eaa318e3face723221ba8", "type": "electric_scooter", "fusion_lat": 0.0}, {"bike_id": "d80b85899d212263df94274cb10dd262", "lon": -77.0332605, "lat": 38.916941, "fusion_lon": 0.0, "rental_uris": {"ios": "https://dc.lft.to/lastmile_qr_scan", "android": "https://dc.lft.to/lastmile_qr_scan"}, "is_disabled": 0, "is_reserved": 0, "name": "d80b85899d212263df94274cb10dd262", "type": "electric_scooter", "fusion_lat": 0.0}, {"bike_id": "f884350ef906a59ce3fead6a669d2455", "lon": -77.04095983333333, "lat": 38.915637833333335, "fusion_lon": 0.0, "rental_uris": {"ios": "https://dc.lft.to/lastmile_qr_scan", "android": "https://dc.lft.to/lastmile_qr_scan"}, "is_disabled": 0, "is_reserved": 0, "name": "f884350ef906a59ce3fead6a669d2455", "type": "electric_scooter", "fusion_lat": 0.0}, {"bike_id": "a57422389b317f5c834177ae147ebdcd", "lon": -77.0238035, "lat": 38.906324833333336, "fusion_lon": 0.0, "rental_uris": {"ios": "https://dc.lft.to/lastmile_qr_scan", "android": "https://dc.lft.to/lastmile_qr_scan"}, "is_disabled": 0, "is_reserved": 0, "name": "a57422389b317f5c834177ae147ebdcd", "type": "electric_scooter", "fusion_lat": 0.0}, {"bike_id": "7df6f1ccb9737fca6d4f65c6d01c200c", "lon": -77.03644666666666, "lat": 38.917470333333334, "fusion_lon": 0.0, "rental_uris": {"ios": "https://dc.lft.to/lastmile_qr_scan", "android": "https://dc.lft.to/lastmile_qr_scan"}, "is_disabled": 0, "is_reserved": 0, "name": "7df6f1ccb9737fca6d4f65c6d01c200c", "type": "electric_scooter", "fusion_lat": 0.0}, {"bike_id": "1a2fb1169be899c3c651187a3537743b", "lon": -77.05494416666667, "lat": 39.01479233333333, "fusion_lon": 0.0, "rental_uris": {"ios": "https://dc.lft.to/lastmile_qr_scan", "android": "https://dc.lft.to/lastmile_qr_scan"}, "is_disabled": 0, "is_reserved": 0, "name": "1a2fb1169be899c3c651187a3537743b", "type": "electric_bike", "fusion_lat": 0.0}, {"bike_id": "8d0d331fc1de61d08330fd96874270ac", "lon": -77.04880566666667, "lat": 38.9038655, "fusion_lon": 0.0, "rental_uris": {"ios": "https://dc.lft.to/lastmile_qr_scan", "android": "https://dc.lft.to/lastmile_qr_scan"}, "is_disabled": 0, "is_reserved": 0, "name": "8d0d331fc1de61d08330fd96874270ac", "type": "electric_scooter", "fusion_lat": 0.0}, {"bike_id": "9be16a30edb086d975f05b80be9ad702", "lon": -77.02308883333333, "lat": 38.91696966666667, "fusion_lon": 0.0, "rental_uris": {"ios": "https://dc.lft.to/lastmile_qr_scan", "android": "https://dc.lft.to/lastmile_qr_scan"}, "is_disabled": 0, "is_reserved": 0, "name": "9be16a30edb086d975f05b80be9ad702", "type": "electric_scooter", "fusion_lat": 0.0}, {"bike_id": "1133219a2dd7f579a0f11aeb53b918be", "lon": -77.04498366666667, "lat": 38.910258, "fusion_lon": 0.0, "rental_uris": {"ios": "https://dc.lft.to/lastmile_qr_scan", "android": "https://dc.lft.to/lastmile_qr_scan"}, "is_disabled": 0, "is_reserved": 0, "name": "1133219a2dd7f579a0f11aeb53b918be", "type": "electric_scooter", "fusion_lat": 0.0}, {"bike_id": "e6dcf5dac936c4021d89250b910ae9aa", "lon": -76.99299533333334, "lat": 38.900124166666664, "fusion_lon": 0.0, "rental_uris": {"ios": "https://dc.lft.to/lastmile_qr_scan", "android": "https://dc.lft.to/lastmile_qr_scan"}, "is_disabled": 0, "is_reserved": 0, "name": "e6dcf5dac936c4021d89250b910ae9aa", "type": "electric_scooter", "fusion_lat": 0.0}, {"bike_id": "fed631de96719994621447d595cc83a5", "lon": -77.04688, "lat": 38.892225, "fusion_lon": 0.0, "rental_uris": {"ios": "https://dc.lft.to/lastmile_qr_scan", "android": "https://dc.lft.to/lastmile_qr_scan"}, "is_disabled": 0, "is_reserved": 0, "name": "fed631de96719994621447d595cc83a5", "type": "electric_scooter", "fusion_lat": 0.0}, {"bike_id": "b53b4ef4f847fcd1fb9e74ba8af46f11", "lon": -76.9947025, "lat": 38.862114, "fusion_lon": 0.0, "rental_uris": {"ios": "https://dc.lft.to/lastmile_qr_scan", "android": "https://dc.lft.to/lastmile_qr_scan"}, "is_disabled": 0, "is_reserved": 0, "name": "b53b4ef4f847fcd1fb9e74ba8af46f11", "type": "electric_scooter", "fusion_lat": 0.0}, {"bike_id": "c7001cb86af4a31246408d64e006b367", "lon": -77.108387, "lat": 38.81203766666667, "fusion_lon": 0.0, "rental_uris": {"ios": "https://dc.lft.to/lastmile_qr_scan", "android": "https://dc.lft.to/lastmile_qr_scan"}, "is_disabled": 0, "is_reserved": 0, "name": "c7001cb86af4a31246408d64e006b367", "type": "electric_bike", "fusion_lat": 0.0}, {"bike_id": "330e86f35cec826a5bd44cddca447e33", "lon": -77.027169, "lat": 38.9181905, "fusion_lon": 0.0, "rental_uris": {"ios": "https://dc.lft.to/lastmile_qr_scan", "android": "https://dc.lft.to/lastmile_qr_scan"}, "is_disabled": 0, "is_reserved": 0, "name": "330e86f35cec826a5bd44cddca447e33", "type": "electric_scooter", "fusion_lat": 0.0}, {"bike_id": "4fe6deee14d6784840fb7c42cb5383df", "lon": -77.044336, "lat": 38.910182, "fusion_lon": 0.0, "rental_uris": {"ios": "https://dc.lft.to/lastmile_qr_scan", "android": "https://dc.lft.to/lastmile_qr_scan"}, "is_disabled": 0, "is_reserved": 0, "name": "4fe6deee14d6784840fb7c42cb5383df", "type": "electric_scooter", "fusion_lat": 0.0}, {"bike_id": "dc1544ff014537a71ff597a56d48bf9e", "lon": -77.03992233333334, "lat": 38.90138533333333, "fusion_lon": 0.0, "rental_uris": {"ios": "https://dc.lft.to/lastmile_qr_scan", "android": "https://dc.lft.to/lastmile_qr_scan"}, "is_disabled": 0, "is_reserved": 0, "name": "dc1544ff014537a71ff597a56d48bf9e", "type": "electric_scooter", "fusion_lat": 0.0}, {"bike_id": "5e6a5bf2c4f68fb5b14dc44ff871b103", "lon": -77.06890033333333, "lat": 38.90642583333333, "fusion_lon": 0.0, "rental_uris": {"ios": "https://dc.lft.to/lastmile_qr_scan", "android": "https://dc.lft.to/lastmile_qr_scan"}, "is_disabled": 0, "is_reserved": 0, "name": "5e6a5bf2c4f68fb5b14dc44ff871b103", "type": "electric_scooter", "fusion_lat": 0.0}, {"bike_id": "a1aa46e1b04f44c375c8101f6d2696b2", "lon": -76.92704583333334, "lat": 38.882064666666665, "fusion_lon": 0.0, "rental_uris": {"ios": "https://dc.lft.to/lastmile_qr_scan", "android": "https://dc.lft.to/lastmile_qr_scan"}, "is_disabled": 0, "is_reserved": 0, "name": "a1aa46e1b04f44c375c8101f6d2696b2", "type": "electric_scooter", "fusion_lat": 0.0}, {"bike_id": "b509923a55d16865cb0c25882ed3e0ae", "lon": -77.03323366666666, "lat": 38.908853, "fusion_lon": 0.0, "rental_uris": {"ios": "https://dc.lft.to/lastmile_qr_scan", "android": "https://dc.lft.to/lastmile_qr_scan"}, "is_disabled": 0, "is_reserved": 0, "name": "b509923a55d16865cb0c25882ed3e0ae", "type": "electric_scooter", "fusion_lat": 0.0}, {"bike_id": "74a1dc1dc076a5a86791a731bf95c702", "lon": -77.0565945, "lat": 38.895417, "fusion_lon": 0.0, "rental_uris": {"ios": "https://dc.lft.to/lastmile_qr_scan", "android": "https://dc.lft.to/lastmile_qr_scan"}, "is_disabled": 0, "is_reserved": 0, "name": "74a1dc1dc076a5a86791a731bf95c702", "type": "electric_scooter", "fusion_lat": 0.0}, {"bike_id": "1adcac6cff77cfbc35ac000e1a6a970e", "lon": -77.02108633333333, "lat": 38.911107333333334, "fusion_lon": 0.0, "rental_uris": {"ios": "https://dc.lft.to/lastmile_qr_scan", "android": "https://dc.lft.to/lastmile_qr_scan"}, "is_disabled": 0, "is_reserved": 0, "name": "1adcac6cff77cfbc35ac000e1a6a970e", "type": "electric_scooter", "fusion_lat": 0.0}, {"bike_id": "39c1e629c1efa9566da40aeed2fa7d04", "lon": -77.04174933333333, "lat": 38.90582716666667, "fusion_lon": 0.0, "rental_uris": {"ios": "https://dc.lft.to/lastmile_qr_scan", "android": "https://dc.lft.to/lastmile_qr_scan"}, "is_disabled": 0, "is_reserved": 0, "name": "39c1e629c1efa9566da40aeed2fa7d04", "type": "electric_scooter", "fusion_lat": 0.0}, {"bike_id": "1981f23235fdccbc7df38c5ff06d2a85", "lon": -77.074099, "lat": 38.908333666666664, "fusion_lon": 0.0, "rental_uris": {"ios": "https://dc.lft.to/lastmile_qr_scan", "android": "https://dc.lft.to/lastmile_qr_scan"}, "is_disabled": 0, "is_reserved": 0, "name": "1981f23235fdccbc7df38c5ff06d2a85", "type": "electric_scooter", "fusion_lat": 0.0}, {"bike_id": "2d717981c9f3975e0be2a5e90aa0c20b", "lon": -77.04351866666667, "lat": 38.903820333333336, "fusion_lon": 0.0, "rental_uris": {"ios": "https://dc.lft.to/lastmile_qr_scan", "android": "https://dc.lft.to/lastmile_qr_scan"}, "is_disabled": 0, "is_reserved": 0, "name": "2d717981c9f3975e0be2a5e90aa0c20b", "type": "electric_scooter", "fusion_lat": 0.0}, {"bike_id": "4596fc36847b2f4e95a7f901a4be79bf", "lon": -77.03677133333333, "lat": 38.92326, "fusion_lon": 0.0, "rental_uris": {"ios": "https://dc.lft.to/lastmile_qr_scan", "android": "https://dc.lft.to/lastmile_qr_scan"}, "is_disabled": 0, "is_reserved": 0, "name": "4596fc36847b2f4e95a7f901a4be79bf", "type": "electric_scooter", "fusion_lat": 0.0}, {"bike_id": "0b1b266162bcc996a37b8258df1d2763", "lon": -77.02349733333334, "lat": 38.93209616666667, "fusion_lon": 0.0, "rental_uris": {"ios": "https://dc.lft.to/lastmile_qr_scan", "android": "https://dc.lft.to/lastmile_qr_scan"}, "is_disabled": 0, "is_reserved": 0, "name": "0b1b266162bcc996a37b8258df1d2763", "type": "electric_bike", "fusion_lat": 0.0}, {"bike_id": "76e6db0bdcaf32c562ab90154bffc999", "lon": -77.04486516666667, "lat": 38.910905166666666, "fusion_lon": 0.0, "rental_uris": {"ios": "https://dc.lft.to/lastmile_qr_scan", "android": "https://dc.lft.to/lastmile_qr_scan"}, "is_disabled": 0, "is_reserved": 0, "name": "76e6db0bdcaf32c562ab90154bffc999", "type": "electric_scooter", "fusion_lat": 0.0}, {"bike_id": "ba1f8a948f4d8eff0c1143310908b993", "lon": -77.03464916666667, "lat": 38.90412216666667, "fusion_lon": 0.0, "rental_uris": {"ios": "https://dc.lft.to/lastmile_qr_scan", "android": "https://dc.lft.to/lastmile_qr_scan"}, "is_disabled": 0, "is_reserved": 0, "name": "ba1f8a948f4d8eff0c1143310908b993", "type": "electric_scooter", "fusion_lat": 0.0}, {"bike_id": "9e854e9254a1676bf06044e0f3a0f364", "lon": -77.03047816666667, "lat": 38.9044275, "fusion_lon": 0.0, "rental_uris": {"ios": "https://dc.lft.to/lastmile_qr_scan", "android": "https://dc.lft.to/lastmile_qr_scan"}, "is_disabled": 0, "is_reserved": 0, "name": "9e854e9254a1676bf06044e0f3a0f364", "type": "electric_scooter", "fusion_lat": 0.0}, {"bike_id": "1f08e635d6a54a810f32badf8cd9ffde", "lon": -77.04804266666666, "lat": 38.892251333333334, "fusion_lon": 0.0, "rental_uris": {"ios": "https://dc.lft.to/lastmile_qr_scan", "android": "https://dc.lft.to/lastmile_qr_scan"}, "is_disabled": 0, "is_reserved": 0, "name": "1f08e635d6a54a810f32badf8cd9ffde", "type": "electric_scooter", "fusion_lat": 0.0}, {"bike_id": "23a27c03fbbbca903d6664d2e2a62324", "lon": -77.13921233333333, "lat": 38.8730295, "fusion_lon": 0.0, "rental_uris": {"ios": "https://dc.lft.to/lastmile_qr_scan", "android": "https://dc.lft.to/lastmile_qr_scan"}, "is_disabled": 0, "is_reserved": 0, "name": "23a27c03fbbbca903d6664d2e2a62324", "type": "electric_bike", "fusion_lat": 0.0}, {"bike_id": "713ff072f1bcd25ef12bfc29319393d8", "lon": -77.12465633333333, "lat": 38.8537395, "fusion_lon": 0.0, "rental_uris": {"ios": "https://dc.lft.to/lastmile_qr_scan", "android": "https://dc.lft.to/lastmile_qr_scan"}, "is_disabled": 0, "is_reserved": 0, "name": "713ff072f1bcd25ef12bfc29319393d8", "type": "electric_bike", "fusion_lat": 0.0}, {"bike_id": "96f19c4dd860ec84b6c4a7b7f8f754ce", "lon": -77.00235, "lat": 38.90750933333333, "fusion_lon": 0.0, "rental_uris": {"ios": "https://dc.lft.to/lastmile_qr_scan", "android": "https://dc.lft.to/lastmile_qr_scan"}, "is_disabled": 0, "is_reserved": 0, "name": "96f19c4dd860ec84b6c4a7b7f8f754ce", "type": "electric_bike", "fusion_lat": 0.0}, {"bike_id": "966403b97833d632dc5287fdc0368315", "lon": -77.0675155, "lat": 38.936159833333335, "fusion_lon": 0.0, "rental_uris": {"ios": "https://dc.lft.to/lastmile_qr_scan", "android": "https://dc.lft.to/lastmile_qr_scan"}, "is_disabled": 0, "is_reserved": 0, "name": "966403b97833d632dc5287fdc0368315", "type": "electric_scooter", "fusion_lat": 0.0}, {"bike_id": "bea56059ecec749a21c1b6a74bf558b3", "lon": -77.026986, "lat": 38.91682216666667, "fusion_lon": 0.0, "rental_uris": {"ios": "https://dc.lft.to/lastmile_qr_scan", "android": "https://dc.lft.to/lastmile_qr_scan"}, "is_disabled": 0, "is_reserved": 0, "name": "bea56059ecec749a21c1b6a74bf558b3", "type": "electric_scooter", "fusion_lat": 0.0}, {"bike_id": "8eb70d21d6cea0817cde8dcb28c85723", "lon": -77.04391933333333, "lat": 38.897607666666666, "fusion_lon": 0.0, "rental_uris": {"ios": "https://dc.lft.to/lastmile_qr_scan", "android": "https://dc.lft.to/lastmile_qr_scan"}, "is_disabled": 0, "is_reserved": 0, "name": "8eb70d21d6cea0817cde8dcb28c85723", "type": "electric_scooter", "fusion_lat": 0.0}, {"bike_id": "319a521d2f0095825972af777505c5ab", "lon": -76.97329416666666, "lat": 38.904111, "fusion_lon": 0.0, "rental_uris": {"ios": "https://dc.lft.to/lastmile_qr_scan", "android": "https://dc.lft.to/lastmile_qr_scan"}, "is_disabled": 0, "is_reserved": 0, "name": "319a521d2f0095825972af777505c5ab", "type": "electric_scooter", "fusion_lat": 0.0}, {"bike_id": "b1b84f2d1ecca3761a2113e9ccd1e165", "lon": -77.06497483333334, "lat": 38.906746, "fusion_lon": 0.0, "rental_uris": {"ios": "https://dc.lft.to/lastmile_qr_scan", "android": "https://dc.lft.to/lastmile_qr_scan"}, "is_disabled": 0, "is_reserved": 0, "name": "b1b84f2d1ecca3761a2113e9ccd1e165", "type": "electric_bike", "fusion_lat": 0.0}, {"bike_id": "b27c6e9ac0606310069157dcf2a6812f", "lon": -77.02701766666667, "lat": 38.949914666666665, "fusion_lon": 0.0, "rental_uris": {"ios": "https://dc.lft.to/lastmile_qr_scan", "android": "https://dc.lft.to/lastmile_qr_scan"}, "is_disabled": 0, "is_reserved": 0, "name": "b27c6e9ac0606310069157dcf2a6812f", "type": "electric_scooter", "fusion_lat": 0.0}, {"bike_id": "86d2669caac843766347849a66ca077e", "lon": -76.97091583333334, "lat": 38.87297233333334, "fusion_lon": 0.0, "rental_uris": {"ios": "https://dc.lft.to/lastmile_qr_scan", "android": "https://dc.lft.to/lastmile_qr_scan"}, "is_disabled": 0, "is_reserved": 0, "name": "86d2669caac843766347849a66ca077e", "type": "electric_bike", "fusion_lat": 0.0}, {"bike_id": "7a9f87c611983e8abe19ebce5e411b54", "lon": -77.02590516666666, "lat": 38.883939, "fusion_lon": 0.0, "rental_uris": {"ios": "https://dc.lft.to/lastmile_qr_scan", "android": "https://dc.lft.to/lastmile_qr_scan"}, "is_disabled": 0, "is_reserved": 0, "name": "7a9f87c611983e8abe19ebce5e411b54", "type": "electric_scooter", "fusion_lat": 0.0}, {"bike_id": "17f1f022ce3f5502b54326ba3d460c7f", "lon": -77.02677216666666, "lat": 38.971955666666666, "fusion_lon": 0.0, "rental_uris": {"ios": "https://dc.lft.to/lastmile_qr_scan", "android": "https://dc.lft.to/lastmile_qr_scan"}, "is_disabled": 0, "is_reserved": 0, "name": "17f1f022ce3f5502b54326ba3d460c7f", "type": "electric_scooter", "fusion_lat": 0.0}, {"bike_id": "c39712539d27db5bce3c11c63a2d217e", "lon": -77.04443416666666, "lat": 38.91166283333333, "fusion_lon": 0.0, "rental_uris": {"ios": "https://dc.lft.to/lastmile_qr_scan", "android": "https://dc.lft.to/lastmile_qr_scan"}, "is_disabled": 0, "is_reserved": 0, "name": "c39712539d27db5bce3c11c63a2d217e", "type": "electric_scooter", "fusion_lat": 0.0}, {"bike_id": "e69f9aa2873d518baf321d2159cc2989", "lon": -77.0229415, "lat": 38.916497666666665, "fusion_lon": 0.0, "rental_uris": {"ios": "https://dc.lft.to/lastmile_qr_scan", "android": "https://dc.lft.to/lastmile_qr_scan"}, "is_disabled": 0, "is_reserved": 0, "name": "e69f9aa2873d518baf321d2159cc2989", "type": "electric_scooter", "fusion_lat": 0.0}, {"bike_id": "06bb38269f55fc46b5a1cba576176e79", "lon": -77.03162583333334, "lat": 38.89216833333333, "fusion_lon": 0.0, "rental_uris": {"ios": "https://dc.lft.to/lastmile_qr_scan", "android": "https://dc.lft.to/lastmile_qr_scan"}, "is_disabled": 0, "is_reserved": 0, "name": "06bb38269f55fc46b5a1cba576176e79", "type": "electric_scooter", "fusion_lat": 0.0}, {"bike_id": "9585f7a098164ce5d9cb1bf948b53357", "lon": -77.059501, "lat": 38.9184015, "fusion_lon": 0.0, "rental_uris": {"ios": "https://dc.lft.to/lastmile_qr_scan", "android": "https://dc.lft.to/lastmile_qr_scan"}, "is_disabled": 0, "is_reserved": 0, "name": "9585f7a098164ce5d9cb1bf948b53357", "type": "electric_scooter", "fusion_lat": 0.0}, {"bike_id": "34e36891268943b01a8f87e2de3bbe39", "lon": -76.93705033333333, "lat": 38.889613, "fusion_lon": 0.0, "rental_uris": {"ios": "https://dc.lft.to/lastmile_qr_scan", "android": "https://dc.lft.to/lastmile_qr_scan"}, "is_disabled": 0, "is_reserved": 0, "name": "34e36891268943b01a8f87e2de3bbe39", "type": "electric_scooter", "fusion_lat": 0.0}, {"bike_id": "9f712641ba767ea08004f8a15ff91483", "lon": -77.021835, "lat": 38.928642333333336, "fusion_lon": 0.0, "rental_uris": {"ios": "https://dc.lft.to/lastmile_qr_scan", "android": "https://dc.lft.to/lastmile_qr_scan"}, "is_disabled": 0, "is_reserved": 0, "name": "9f712641ba767ea08004f8a15ff91483", "type": "electric_scooter", "fusion_lat": 0.0}, {"bike_id": "83b7425ba8ad28aceca5214b4411db4d", "lon": -77.02332816666667, "lat": 38.91677166666667, "fusion_lon": 0.0, "rental_uris": {"ios": "https://dc.lft.to/lastmile_qr_scan", "android": "https://dc.lft.to/lastmile_qr_scan"}, "is_disabled": 0, "is_reserved": 0, "name": "83b7425ba8ad28aceca5214b4411db4d", "type": "electric_scooter", "fusion_lat": 0.0}, {"bike_id": "3d91d5fd39bd9bbe001fa4892cb292d8", "lon": -76.973403, "lat": 38.86515266666667, "fusion_lon": 0.0, "rental_uris": {"ios": "https://dc.lft.to/lastmile_qr_scan", "android": "https://dc.lft.to/lastmile_qr_scan"}, "is_disabled": 0, "is_reserved": 0, "name": "3d91d5fd39bd9bbe001fa4892cb292d8", "type": "electric_bike", "fusion_lat": 0.0}, {"bike_id": "6dabcc5c62c8a2373d323cfc18bd94e0", "lon": -77.08305216666666, "lat": 38.854384833333334, "fusion_lon": 0.0, "rental_uris": {"ios": "https://dc.lft.to/lastmile_qr_scan", "android": "https://dc.lft.to/lastmile_qr_scan"}, "is_disabled": 0, "is_reserved": 0, "name": "6dabcc5c62c8a2373d323cfc18bd94e0", "type": "electric_bike", "fusion_lat": 0.0}, {"bike_id": "9f16dccaa5fe321d2ffba334e6586e42", "lon": -77.04005483333333, "lat": 38.906495166666666, "fusion_lon": 0.0, "rental_uris": {"ios": "https://dc.lft.to/lastmile_qr_scan", "android": "https://dc.lft.to/lastmile_qr_scan"}, "is_disabled": 0, "is_reserved": 0, "name": "9f16dccaa5fe321d2ffba334e6586e42", "type": "electric_scooter", "fusion_lat": 0.0}, {"bike_id": "ce5d34b0ea1b432950902bc2e1a36586", "lon": -77.05064316666666, "lat": 38.92414433333333, "fusion_lon": 0.0, "rental_uris": {"ios": "https://dc.lft.to/lastmile_qr_scan", "android": "https://dc.lft.to/lastmile_qr_scan"}, "is_disabled": 0, "is_reserved": 0, "name": "ce5d34b0ea1b432950902bc2e1a36586", "type": "electric_scooter", "fusion_lat": 0.0}, {"bike_id": "c40618e5651d5a0ce1b10d122cdb2a62", "lon": -77.04413166666667, "lat": 38.90126866666667, "fusion_lon": 0.0, "rental_uris": {"ios": "https://dc.lft.to/lastmile_qr_scan", "android": "https://dc.lft.to/lastmile_qr_scan"}, "is_disabled": 0, "is_reserved": 0, "name": "c40618e5651d5a0ce1b10d122cdb2a62", "type": "electric_scooter", "fusion_lat": 0.0}, {"bike_id": "f688e55eac8d78ca458ea9453f76c732", "lon": -77.021705, "lat": 38.9149705, "fusion_lon": 0.0, "rental_uris": {"ios": "https://dc.lft.to/lastmile_qr_scan", "android": "https://dc.lft.to/lastmile_qr_scan"}, "is_disabled": 0, "is_reserved": 0, "name": "f688e55eac8d78ca458ea9453f76c732", "type": "electric_scooter", "fusion_lat": 0.0}, {"bike_id": "29b9187f3f59ad2f285cc24354cf8097", "lon": -77.02820516666667, "lat": 38.91355683333333, "fusion_lon": 0.0, "rental_uris": {"ios": "https://dc.lft.to/lastmile_qr_scan", "android": "https://dc.lft.to/lastmile_qr_scan"}, "is_disabled": 0, "is_reserved": 0, "name": "29b9187f3f59ad2f285cc24354cf8097", "type": "electric_bike", "fusion_lat": 0.0}, {"bike_id": "a60e353565e5a516b1c19d33aa04e061", "lon": -77.03069816666667, "lat": 38.914141, "fusion_lon": 0.0, "rental_uris": {"ios": "https://dc.lft.to/lastmile_qr_scan", "android": "https://dc.lft.to/lastmile_qr_scan"}, "is_disabled": 0, "is_reserved": 0, "name": "a60e353565e5a516b1c19d33aa04e061", "type": "electric_scooter", "fusion_lat": 0.0}, {"bike_id": "3b64962bb0ef86a27bb8d3b0e6a92ca4", "lon": -77.00090333333333, "lat": 38.8760025, "fusion_lon": 0.0, "rental_uris": {"ios": "https://dc.lft.to/lastmile_qr_scan", "android": "https://dc.lft.to/lastmile_qr_scan"}, "is_disabled": 0, "is_reserved": 0, "name": "3b64962bb0ef86a27bb8d3b0e6a92ca4", "type": "electric_scooter", "fusion_lat": 0.0}, {"bike_id": "f17f6b621139ddd6dc2e12022b73b396", "lon": -77.0452915, "lat": 38.913101, "fusion_lon": 0.0, "rental_uris": {"ios": "https://dc.lft.to/lastmile_qr_scan", "android": "https://dc.lft.to/lastmile_qr_scan"}, "is_disabled": 0, "is_reserved": 0, "name": "f17f6b621139ddd6dc2e12022b73b396", "type": "electric_scooter", "fusion_lat": 0.0}, {"bike_id": "5f0dbd1d89b49cdf5b65ff06bd649846", "lon": -76.995085, "lat": 38.886100666666664, "fusion_lon": 0.0, "rental_uris": {"ios": "https://dc.lft.to/lastmile_qr_scan", "android": "https://dc.lft.to/lastmile_qr_scan"}, "is_disabled": 0, "is_reserved": 0, "name": "5f0dbd1d89b49cdf5b65ff06bd649846", "type": "electric_scooter", "fusion_lat": 0.0}, {"bike_id": "ee081cbc18f5766113669ebe10800b6f", "lon": -77.01359616666667, "lat": 38.870861833333336, "fusion_lon": 0.0, "rental_uris": {"ios": "https://dc.lft.to/lastmile_qr_scan", "android": "https://dc.lft.to/lastmile_qr_scan"}, "is_disabled": 0, "is_reserved": 0, "name": "ee081cbc18f5766113669ebe10800b6f", "type": "electric_scooter", "fusion_lat": 0.0}, {"bike_id": "5f901b07f0a84174259d64335b479e4b", "lon": -77.03899816666667, "lat": 38.91836266666667, "fusion_lon": 0.0, "rental_uris": {"ios": "https://dc.lft.to/lastmile_qr_scan", "android": "https://dc.lft.to/lastmile_qr_scan"}, "is_disabled": 0, "is_reserved": 0, "name": "5f901b07f0a84174259d64335b479e4b", "type": "electric_scooter", "fusion_lat": 0.0}, {"bike_id": "1bc30fcc4c3610a0a1281bcaf2a277c1", "lon": -77.0262535, "lat": 38.962208, "fusion_lon": 0.0, "rental_uris": {"ios": "https://dc.lft.to/lastmile_qr_scan", "android": "https://dc.lft.to/lastmile_qr_scan"}, "is_disabled": 0, "is_reserved": 0, "name": "1bc30fcc4c3610a0a1281bcaf2a277c1", "type": "electric_bike", "fusion_lat": 0.0}, {"bike_id": "a722750857f36b1ddbad4926ba01283f", "lon": -77.03331066666667, "lat": 38.92891133333333, "fusion_lon": 0.0, "rental_uris": {"ios": "https://dc.lft.to/lastmile_qr_scan", "android": "https://dc.lft.to/lastmile_qr_scan"}, "is_disabled": 0, "is_reserved": 0, "name": "a722750857f36b1ddbad4926ba01283f", "type": "electric_scooter", "fusion_lat": 0.0}, {"bike_id": "1446a94eae8bcecbacdaa7a8965f06a9", "lon": -77.02108, "lat": 38.906066, "fusion_lon": 0.0, "rental_uris": {"ios": "https://dc.lft.to/lastmile_qr_scan", "android": "https://dc.lft.to/lastmile_qr_scan"}, "is_disabled": 0, "is_reserved": 0, "name": "1446a94eae8bcecbacdaa7a8965f06a9", "type": "electric_scooter", "fusion_lat": 0.0}, {"bike_id": "6b1bc0c5112271ec83ccb93efbc8a1dc", "lon": -76.974207, "lat": 38.904984666666664, "fusion_lon": 0.0, "rental_uris": {"ios": "https://dc.lft.to/lastmile_qr_scan", "android": "https://dc.lft.to/lastmile_qr_scan"}, "is_disabled": 0, "is_reserved": 0, "name": "6b1bc0c5112271ec83ccb93efbc8a1dc", "type": "electric_bike", "fusion_lat": 0.0}, {"bike_id": "6f672a1da128a14492db585dda27f5cc", "lon": -77.04374166666666, "lat": 38.900960166666664, "fusion_lon": 0.0, "rental_uris": {"ios": "https://dc.lft.to/lastmile_qr_scan", "android": "https://dc.lft.to/lastmile_qr_scan"}, "is_disabled": 0, "is_reserved": 0, "name": "6f672a1da128a14492db585dda27f5cc", "type": "electric_scooter", "fusion_lat": 0.0}, {"bike_id": "d880034db320c279216866e1607b9ebb", "lon": -77.0229655, "lat": 38.9145285, "fusion_lon": 0.0, "rental_uris": {"ios": "https://dc.lft.to/lastmile_qr_scan", "android": "https://dc.lft.to/lastmile_qr_scan"}, "is_disabled": 0, "is_reserved": 0, "name": "d880034db320c279216866e1607b9ebb", "type": "electric_scooter", "fusion_lat": 0.0}, {"bike_id": "41a77703bcede15237e90f49ba0b52d9", "lon": -76.9963185, "lat": 38.885228, "fusion_lon": 0.0, "rental_uris": {"ios": "https://dc.lft.to/lastmile_qr_scan", "android": "https://dc.lft.to/lastmile_qr_scan"}, "is_disabled": 0, "is_reserved": 0, "name": "41a77703bcede15237e90f49ba0b52d9", "type": "electric_scooter", "fusion_lat": 0.0}, {"bike_id": "43042286cd0c74f3a01c2f4911352111", "lon": -76.92621666666666, "lat": 38.884587, "fusion_lon": 0.0, "rental_uris": {"ios": "https://dc.lft.to/lastmile_qr_scan", "android": "https://dc.lft.to/lastmile_qr_scan"}, "is_disabled": 0, "is_reserved": 0, "name": "43042286cd0c74f3a01c2f4911352111", "type": "electric_scooter", "fusion_lat": 0.0}, {"bike_id": "18f75f30985802d996ccaebf2466f4e6", "lon": -77.02815816666667, "lat": 38.90385716666667, "fusion_lon": 0.0, "rental_uris": {"ios": "https://dc.lft.to/lastmile_qr_scan", "android": "https://dc.lft.to/lastmile_qr_scan"}, "is_disabled": 0, "is_reserved": 0, "name": "18f75f30985802d996ccaebf2466f4e6", "type": "electric_scooter", "fusion_lat": 0.0}, {"bike_id": "c937e567f0fb9dc9ad6869aa33a55787", "lon": -77.03203966666666, "lat": 38.892398666666665, "fusion_lon": 0.0, "rental_uris": {"ios": "https://dc.lft.to/lastmile_qr_scan", "android": "https://dc.lft.to/lastmile_qr_scan"}, "is_disabled": 0, "is_reserved": 0, "name": "c937e567f0fb9dc9ad6869aa33a55787", "type": "electric_scooter", "fusion_lat": 0.0}, {"bike_id": "ec1789837053cb23f49c3d888520ab58", "lon": -77.02831683333334, "lat": 38.9650445, "fusion_lon": 0.0, "rental_uris": {"ios": "https://dc.lft.to/lastmile_qr_scan", "android": "https://dc.lft.to/lastmile_qr_scan"}, "is_disabled": 0, "is_reserved": 0, "name": "ec1789837053cb23f49c3d888520ab58", "type": "electric_bike", "fusion_lat": 0.0}, {"bike_id": "14fa812c92c72de2944c961b15cf676c", "lon": -77.10833166666667, "lat": 38.812035, "fusion_lon": 0.0, "rental_uris": {"ios": "https://dc.lft.to/lastmile_qr_scan", "android": "https://dc.lft.to/lastmile_qr_scan"}, "is_disabled": 0, "is_reserved": 0, "name": "14fa812c92c72de2944c961b15cf676c", "type": "electric_bike", "fusion_lat": 0.0}, {"bike_id": "c361aca40d61a94fc0da8dacb9cdf5fe", "lon": -77.01173516666667, "lat": 38.915694333333334, "fusion_lon": 0.0, "rental_uris": {"ios": "https://dc.lft.to/lastmile_qr_scan", "android": "https://dc.lft.to/lastmile_qr_scan"}, "is_disabled": 0, "is_reserved": 0, "name": "c361aca40d61a94fc0da8dacb9cdf5fe", "type": "electric_scooter", "fusion_lat": 0.0}, {"bike_id": "da1819362677ff4501991c815668386d", "lon": -76.99230733333333, "lat": 38.90821783333333, "fusion_lon": 0.0, "rental_uris": {"ios": "https://dc.lft.to/lastmile_qr_scan", "android": "https://dc.lft.to/lastmile_qr_scan"}, "is_disabled": 0, "is_reserved": 0, "name": "da1819362677ff4501991c815668386d", "type": "electric_scooter", "fusion_lat": 0.0}, {"bike_id": "2dd93396bf64f72f2edfb730d8707b08", "lon": -77.23327933333333, "lat": 38.872753833333334, "fusion_lon": 0.0, "rental_uris": {"ios": "https://dc.lft.to/lastmile_qr_scan", "android": "https://dc.lft.to/lastmile_qr_scan"}, "is_disabled": 0, "is_reserved": 0, "name": "2dd93396bf64f72f2edfb730d8707b08", "type": "electric_bike", "fusion_lat": 0.0}, {"bike_id": "5c8d3049591b4f1c6e7e127e45dfffa8", "lon": -77.032466, "lat": 38.92868266666667, "fusion_lon": 0.0, "rental_uris": {"ios": "https://dc.lft.to/lastmile_qr_scan", "android": "https://dc.lft.to/lastmile_qr_scan"}, "is_disabled": 0, "is_reserved": 0, "name": "5c8d3049591b4f1c6e7e127e45dfffa8", "type": "electric_scooter", "fusion_lat": 0.0}, {"bike_id": "39dd33449b1179b33b880fc006c8cc59", "lon": -77.04134566666667, "lat": 38.913835666666664, "fusion_lon": 0.0, "rental_uris": {"ios": "https://dc.lft.to/lastmile_qr_scan", "android": "https://dc.lft.to/lastmile_qr_scan"}, "is_disabled": 0, "is_reserved": 0, "name": "39dd33449b1179b33b880fc006c8cc59", "type": "electric_scooter", "fusion_lat": 0.0}, {"bike_id": "09ea6f7d43a316df5c25c667a870d40b", "lon": -77.05116733333334, "lat": 38.902124, "fusion_lon": 0.0, "rental_uris": {"ios": "https://dc.lft.to/lastmile_qr_scan", "android": "https://dc.lft.to/lastmile_qr_scan"}, "is_disabled": 0, "is_reserved": 0, "name": "09ea6f7d43a316df5c25c667a870d40b", "type": "electric_scooter", "fusion_lat": 0.0}, {"bike_id": "3074bae0866c99a4075aa036a7ab44a8", "lon": -77.02597333333334, "lat": 38.91694366666667, "fusion_lon": 0.0, "rental_uris": {"ios": "https://dc.lft.to/lastmile_qr_scan", "android": "https://dc.lft.to/lastmile_qr_scan"}, "is_disabled": 0, "is_reserved": 0, "name": "3074bae0866c99a4075aa036a7ab44a8", "type": "electric_scooter", "fusion_lat": 0.0}, {"bike_id": "076b8ec35c79b8f3a17f5f0157d738d9", "lon": -77.00684516666666, "lat": 38.90016133333334, "fusion_lon": 0.0, "rental_uris": {"ios": "https://dc.lft.to/lastmile_qr_scan", "android": "https://dc.lft.to/lastmile_qr_scan"}, "is_disabled": 0, "is_reserved": 0, "name": "076b8ec35c79b8f3a17f5f0157d738d9", "type": "electric_scooter", "fusion_lat": 0.0}, {"bike_id": "4ab02a2975fd8625990add971b5d4921", "lon": -77.03993016666666, "lat": 38.92711766666667, "fusion_lon": 0.0, "rental_uris": {"ios": "https://dc.lft.to/lastmile_qr_scan", "android": "https://dc.lft.to/lastmile_qr_scan"}, "is_disabled": 0, "is_reserved": 0, "name": "4ab02a2975fd8625990add971b5d4921", "type": "electric_scooter", "fusion_lat": 0.0}, {"bike_id": "025cc41c53d4fdd66e18d4a55f575702", "lon": -77.03448416666667, "lat": 38.916669166666665, "fusion_lon": 0.0, "rental_uris": {"ios": "https://dc.lft.to/lastmile_qr_scan", "android": "https://dc.lft.to/lastmile_qr_scan"}, "is_disabled": 0, "is_reserved": 0, "name": "025cc41c53d4fdd66e18d4a55f575702", "type": "electric_scooter", "fusion_lat": 0.0}, {"bike_id": "29f0ba53adaee981765eaf5f703a2cc6", "lon": -77.03997183333334, "lat": 38.90141, "fusion_lon": 0.0, "rental_uris": {"ios": "https://dc.lft.to/lastmile_qr_scan", "android": "https://dc.lft.to/lastmile_qr_scan"}, "is_disabled": 0, "is_reserved": 0, "name": "29f0ba53adaee981765eaf5f703a2cc6", "type": "electric_scooter", "fusion_lat": 0.0}, {"bike_id": "393fbf42534d2ecdd0055c8a575791bd", "lon": -76.9415785, "lat": 38.908248666666665, "fusion_lon": 0.0, "rental_uris": {"ios": "https://dc.lft.to/lastmile_qr_scan", "android": "https://dc.lft.to/lastmile_qr_scan"}, "is_disabled": 0, "is_reserved": 0, "name": "393fbf42534d2ecdd0055c8a575791bd", "type": "electric_scooter", "fusion_lat": 0.0}, {"bike_id": "ec23fa0981ad661d0e027f88d00fc5e7", "lon": -77.0690235, "lat": 38.90632266666667, "fusion_lon": 0.0, "rental_uris": {"ios": "https://dc.lft.to/lastmile_qr_scan", "android": "https://dc.lft.to/lastmile_qr_scan"}, "is_disabled": 0, "is_reserved": 0, "name": "ec23fa0981ad661d0e027f88d00fc5e7", "type": "electric_scooter", "fusion_lat": 0.0}, {"bike_id": "5b28431c0420ad97a23a3a7919344af2", "lon": -77.06013383333334, "lat": 38.90151933333333, "fusion_lon": 0.0, "rental_uris": {"ios": "https://dc.lft.to/lastmile_qr_scan", "android": "https://dc.lft.to/lastmile_qr_scan"}, "is_disabled": 0, "is_reserved": 0, "name": "5b28431c0420ad97a23a3a7919344af2", "type": "electric_scooter", "fusion_lat": 0.0}, {"bike_id": "1243fd3b165af24c8b334fb4f4faf823", "lon": -76.9493395, "lat": 38.8935915, "fusion_lon": 0.0, "rental_uris": {"ios": "https://dc.lft.to/lastmile_qr_scan", "android": "https://dc.lft.to/lastmile_qr_scan"}, "is_disabled": 0, "is_reserved": 0, "name": "1243fd3b165af24c8b334fb4f4faf823", "type": "electric_scooter", "fusion_lat": 0.0}, {"bike_id": "703315b2a78ab3efce9543b327db2412", "lon": -76.985025, "lat": 38.860609333333336, "fusion_lon": 0.0, "rental_uris": {"ios": "https://dc.lft.to/lastmile_qr_scan", "android": "https://dc.lft.to/lastmile_qr_scan"}, "is_disabled": 0, "is_reserved": 0, "name": "703315b2a78ab3efce9543b327db2412", "type": "electric_scooter", "fusion_lat": 0.0}, {"bike_id": "5d7537387943ad28e834858ecb9eb143", "lon": -76.99620350000001, "lat": 38.900076, "fusion_lon": 0.0, "rental_uris": {"ios": "https://dc.lft.to/lastmile_qr_scan", "android": "https://dc.lft.to/lastmile_qr_scan"}, "is_disabled": 0, "is_reserved": 0, "name": "5d7537387943ad28e834858ecb9eb143", "type": "electric_scooter", "fusion_lat": 0.0}, {"bike_id": "62e2f09b5df864b33e14135b22fc8dd2", "lon": -77.03852983333333, "lat": 38.90865933333333, "fusion_lon": 0.0, "rental_uris": {"ios": "https://dc.lft.to/lastmile_qr_scan", "android": "https://dc.lft.to/lastmile_qr_scan"}, "is_disabled": 0, "is_reserved": 0, "name": "62e2f09b5df864b33e14135b22fc8dd2", "type": "electric_scooter", "fusion_lat": 0.0}, {"bike_id": "b8f7b7a3531a67358bbd74dfe51f27d0", "lon": -77.03275433333333, "lat": 38.8988805, "fusion_lon": 0.0, "rental_uris": {"ios": "https://dc.lft.to/lastmile_qr_scan", "android": "https://dc.lft.to/lastmile_qr_scan"}, "is_disabled": 0, "is_reserved": 0, "name": "b8f7b7a3531a67358bbd74dfe51f27d0", "type": "electric_scooter", "fusion_lat": 0.0}, {"bike_id": "960ccc14a971bdc2791f5eda330c6ed0", "lon": -76.98695366666666, "lat": 38.907304333333336, "fusion_lon": 0.0, "rental_uris": {"ios": "https://dc.lft.to/lastmile_qr_scan", "android": "https://dc.lft.to/lastmile_qr_scan"}, "is_disabled": 0, "is_reserved": 0, "name": "960ccc14a971bdc2791f5eda330c6ed0", "type": "electric_scooter", "fusion_lat": 0.0}, {"bike_id": "9d75e2612f86c8218c41a25e3e4533d2", "lon": -77.04045283333333, "lat": 38.924638333333334, "fusion_lon": 0.0, "rental_uris": {"ios": "https://dc.lft.to/lastmile_qr_scan", "android": "https://dc.lft.to/lastmile_qr_scan"}, "is_disabled": 0, "is_reserved": 0, "name": "9d75e2612f86c8218c41a25e3e4533d2", "type": "electric_scooter", "fusion_lat": 0.0}, {"bike_id": "8cb621b86bc699cfa5fe895e52782d83", "lon": -76.99968133333333, "lat": 38.896124666666665, "fusion_lon": 0.0, "rental_uris": {"ios": "https://dc.lft.to/lastmile_qr_scan", "android": "https://dc.lft.to/lastmile_qr_scan"}, "is_disabled": 0, "is_reserved": 0, "name": "8cb621b86bc699cfa5fe895e52782d83", "type": "electric_scooter", "fusion_lat": 0.0}, {"bike_id": "f579d64a8b41969740478b640d4249fb", "lon": -76.99712183333334, "lat": 38.903672666666665, "fusion_lon": 0.0, "rental_uris": {"ios": "https://dc.lft.to/lastmile_qr_scan", "android": "https://dc.lft.to/lastmile_qr_scan"}, "is_disabled": 0, "is_reserved": 0, "name": "f579d64a8b41969740478b640d4249fb", "type": "electric_scooter", "fusion_lat": 0.0}, {"bike_id": "70f4488e8cf6effc617eca3585336618", "lon": -77.0050815, "lat": 38.911905833333336, "fusion_lon": 0.0, "rental_uris": {"ios": "https://dc.lft.to/lastmile_qr_scan", "android": "https://dc.lft.to/lastmile_qr_scan"}, "is_disabled": 0, "is_reserved": 0, "name": "70f4488e8cf6effc617eca3585336618", "type": "electric_scooter", "fusion_lat": 0.0}, {"bike_id": "a54d1f06f78bc731fc3205d318424730", "lon": -77.03649216666666, "lat": 38.922139333333334, "fusion_lon": 0.0, "rental_uris": {"ios": "https://dc.lft.to/lastmile_qr_scan", "android": "https://dc.lft.to/lastmile_qr_scan"}, "is_disabled": 0, "is_reserved": 0, "name": "a54d1f06f78bc731fc3205d318424730", "type": "electric_scooter", "fusion_lat": 0.0}, {"bike_id": "6529b7dbbf866adc55c73a59f4624482", "lon": -77.04688633333333, "lat": 38.8922355, "fusion_lon": 0.0, "rental_uris": {"ios": "https://dc.lft.to/lastmile_qr_scan", "android": "https://dc.lft.to/lastmile_qr_scan"}, "is_disabled": 0, "is_reserved": 0, "name": "6529b7dbbf866adc55c73a59f4624482", "type": "electric_scooter", "fusion_lat": 0.0}, {"bike_id": "d5414cf62456ed3de8229db9ceb4f83d", "lon": -77.0515865, "lat": 39.0431005, "fusion_lon": 0.0, "rental_uris": {"ios": "https://dc.lft.to/lastmile_qr_scan", "android": "https://dc.lft.to/lastmile_qr_scan"}, "is_disabled": 0, "is_reserved": 0, "name": "d5414cf62456ed3de8229db9ceb4f83d", "type": "electric_bike", "fusion_lat": 0.0}, {"bike_id": "6f1a8c643113d2ca889ec454d48fd992", "lon": -77.028822, "lat": 38.917073, "fusion_lon": 0.0, "rental_uris": {"ios": "https://dc.lft.to/lastmile_qr_scan", "android": "https://dc.lft.to/lastmile_qr_scan"}, "is_disabled": 0, "is_reserved": 0, "name": "6f1a8c643113d2ca889ec454d48fd992", "type": "electric_scooter", "fusion_lat": 0.0}, {"bike_id": "841bb26601f843674d9ec11daa36110d", "lon": -76.97010883333333, "lat": 38.915419666666665, "fusion_lon": 0.0, "rental_uris": {"ios": "https://dc.lft.to/lastmile_qr_scan", "android": "https://dc.lft.to/lastmile_qr_scan"}, "is_disabled": 0, "is_reserved": 0, "name": "841bb26601f843674d9ec11daa36110d", "type": "electric_scooter", "fusion_lat": 0.0}, {"bike_id": "203b75a25e1ff5883451de64393c34fd", "lon": -77.02415283333333, "lat": 38.909645166666664, "fusion_lon": 0.0, "rental_uris": {"ios": "https://dc.lft.to/lastmile_qr_scan", "android": "https://dc.lft.to/lastmile_qr_scan"}, "is_disabled": 0, "is_reserved": 0, "name": "203b75a25e1ff5883451de64393c34fd", "type": "electric_scooter", "fusion_lat": 0.0}, {"bike_id": "673d6fb058b7840568db93a7e684cdef", "lon": -76.98160666666666, "lat": 38.9167885, "fusion_lon": 0.0, "rental_uris": {"ios": "https://dc.lft.to/lastmile_qr_scan", "android": "https://dc.lft.to/lastmile_qr_scan"}, "is_disabled": 0, "is_reserved": 0, "name": "673d6fb058b7840568db93a7e684cdef", "type": "electric_scooter", "fusion_lat": 0.0}, {"bike_id": "2bbc40f74c880e2357399e85ca5bb703", "lon": -77.011371, "lat": 38.896087, "fusion_lon": 0.0, "rental_uris": {"ios": "https://dc.lft.to/lastmile_qr_scan", "android": "https://dc.lft.to/lastmile_qr_scan"}, "is_disabled": 0, "is_reserved": 0, "name": "2bbc40f74c880e2357399e85ca5bb703", "type": "electric_scooter", "fusion_lat": 0.0}, {"bike_id": "00ca860eca24d74313c41ea59d911199", "lon": -77.06425483333334, "lat": 38.90596766666667, "fusion_lon": 0.0, "rental_uris": {"ios": "https://dc.lft.to/lastmile_qr_scan", "android": "https://dc.lft.to/lastmile_qr_scan"}, "is_disabled": 0, "is_reserved": 0, "name": "00ca860eca24d74313c41ea59d911199", "type": "electric_scooter", "fusion_lat": 0.0}, {"bike_id": "3679490d786b96dced9581eb338687ae", "lon": -77.026499, "lat": 38.9845525, "fusion_lon": 0.0, "rental_uris": {"ios": "https://dc.lft.to/lastmile_qr_scan", "android": "https://dc.lft.to/lastmile_qr_scan"}, "is_disabled": 0, "is_reserved": 0, "name": "3679490d786b96dced9581eb338687ae", "type": "electric_scooter", "fusion_lat": 0.0}, {"bike_id": "862dee2a1da21cad4b9df64963bfb183", "lon": -77.0314465, "lat": 38.911153, "fusion_lon": 0.0, "rental_uris": {"ios": "https://dc.lft.to/lastmile_qr_scan", "android": "https://dc.lft.to/lastmile_qr_scan"}, "is_disabled": 0, "is_reserved": 0, "name": "862dee2a1da21cad4b9df64963bfb183", "type": "electric_scooter", "fusion_lat": 0.0}, {"bike_id": "e454386dbb9364d2f8744a54c31ba265", "lon": -77.01870283333334, "lat": 38.921368666666666, "fusion_lon": 0.0, "rental_uris": {"ios": "https://dc.lft.to/lastmile_qr_scan", "android": "https://dc.lft.to/lastmile_qr_scan"}, "is_disabled": 0, "is_reserved": 0, "name": "e454386dbb9364d2f8744a54c31ba265", "type": "electric_scooter", "fusion_lat": 0.0}, {"bike_id": "b84f7544d086978cb2ed7639730254f9", "lon": -77.0768985, "lat": 38.92520616666667, "fusion_lon": 0.0, "rental_uris": {"ios": "https://dc.lft.to/lastmile_qr_scan", "android": "https://dc.lft.to/lastmile_qr_scan"}, "is_disabled": 0, "is_reserved": 0, "name": "b84f7544d086978cb2ed7639730254f9", "type": "electric_scooter", "fusion_lat": 0.0}, {"bike_id": "58573f3a8f5e35156617f13b22ecb197", "lon": -77.06867916666667, "lat": 38.918239166666666, "fusion_lon": 0.0, "rental_uris": {"ios": "https://dc.lft.to/lastmile_qr_scan", "android": "https://dc.lft.to/lastmile_qr_scan"}, "is_disabled": 0, "is_reserved": 0, "name": "58573f3a8f5e35156617f13b22ecb197", "type": "electric_scooter", "fusion_lat": 0.0}, {"bike_id": "aa733bd60ae1ef4aabe8a2e7ef318347", "lon": -77.045034, "lat": 38.91464216666667, "fusion_lon": 0.0, "rental_uris": {"ios": "https://dc.lft.to/lastmile_qr_scan", "android": "https://dc.lft.to/lastmile_qr_scan"}, "is_disabled": 0, "is_reserved": 0, "name": "aa733bd60ae1ef4aabe8a2e7ef318347", "type": "electric_scooter", "fusion_lat": 0.0}, {"bike_id": "64cbb55a1832e4015e14214bb87172b1", "lon": -77.02842916666667, "lat": 38.89562566666667, "fusion_lon": 0.0, "rental_uris": {"ios": "https://dc.lft.to/lastmile_qr_scan", "android": "https://dc.lft.to/lastmile_qr_scan"}, "is_disabled": 0, "is_reserved": 0, "name": "64cbb55a1832e4015e14214bb87172b1", "type": "electric_scooter", "fusion_lat": 0.0}, {"bike_id": "a1b3ccbb80176b09fa4d494b6a5e8f83", "lon": -77.06482516666667, "lat": 38.934806333333334, "fusion_lon": 0.0, "rental_uris": {"ios": "https://dc.lft.to/lastmile_qr_scan", "android": "https://dc.lft.to/lastmile_qr_scan"}, "is_disabled": 0, "is_reserved": 0, "name": "a1b3ccbb80176b09fa4d494b6a5e8f83", "type": "electric_scooter", "fusion_lat": 0.0}, {"bike_id": "3a86452fcde7832e0b8d294511b5acdd", "lon": -77.027421, "lat": 38.9519635, "fusion_lon": 0.0, "rental_uris": {"ios": "https://dc.lft.to/lastmile_qr_scan", "android": "https://dc.lft.to/lastmile_qr_scan"}, "is_disabled": 0, "is_reserved": 0, "name": "3a86452fcde7832e0b8d294511b5acdd", "type": "electric_scooter", "fusion_lat": 0.0}, {"bike_id": "4db423259ddb60e330e15ed42e9b9b8a", "lon": -77.0419465, "lat": 38.90520933333333, "fusion_lon": 0.0, "rental_uris": {"ios": "https://dc.lft.to/lastmile_qr_scan", "android": "https://dc.lft.to/lastmile_qr_scan"}, "is_disabled": 0, "is_reserved": 0, "name": "4db423259ddb60e330e15ed42e9b9b8a", "type": "electric_scooter", "fusion_lat": 0.0}, {"bike_id": "17655bf9ab556d3726334b5871655cf6", "lon": -77.0443095, "lat": 38.910781666666665, "fusion_lon": 0.0, "rental_uris": {"ios": "https://dc.lft.to/lastmile_qr_scan", "android": "https://dc.lft.to/lastmile_qr_scan"}, "is_disabled": 0, "is_reserved": 0, "name": "17655bf9ab556d3726334b5871655cf6", "type": "electric_scooter", "fusion_lat": 0.0}, {"bike_id": "74578b6b1c0c1769318f69882dbb8144", "lon": -77.02114833333333, "lat": 38.935761, "fusion_lon": 0.0, "rental_uris": {"ios": "https://dc.lft.to/lastmile_qr_scan", "android": "https://dc.lft.to/lastmile_qr_scan"}, "is_disabled": 0, "is_reserved": 0, "name": "74578b6b1c0c1769318f69882dbb8144", "type": "electric_scooter", "fusion_lat": 0.0}, {"bike_id": "bdc2cbdfaaca6552202da9254f04ee3c", "lon": -77.04210533333334, "lat": 38.9071615, "fusion_lon": 0.0, "rental_uris": {"ios": "https://dc.lft.to/lastmile_qr_scan", "android": "https://dc.lft.to/lastmile_qr_scan"}, "is_disabled": 0, "is_reserved": 0, "name": "bdc2cbdfaaca6552202da9254f04ee3c", "type": "electric_scooter", "fusion_lat": 0.0}, {"bike_id": "9f9134bd4f47ae5677fc039efb65f5a7", "lon": -76.93729516666667, "lat": 38.89014683333333, "fusion_lon": 0.0, "rental_uris": {"ios": "https://dc.lft.to/lastmile_qr_scan", "android": "https://dc.lft.to/lastmile_qr_scan"}, "is_disabled": 0, "is_reserved": 0, "name": "9f9134bd4f47ae5677fc039efb65f5a7", "type": "electric_scooter", "fusion_lat": 0.0}, {"bike_id": "ddf6d1ff4e82f0c8dfa6f6f8bd19d2da", "lon": -77.04020116666666, "lat": 38.89805783333333, "fusion_lon": 0.0, "rental_uris": {"ios": "https://dc.lft.to/lastmile_qr_scan", "android": "https://dc.lft.to/lastmile_qr_scan"}, "is_disabled": 0, "is_reserved": 0, "name": "ddf6d1ff4e82f0c8dfa6f6f8bd19d2da", "type": "electric_scooter", "fusion_lat": 0.0}, {"bike_id": "f6117ced9d8a11d4750f10c98b36b4d6", "lon": -77.00854033333333, "lat": 38.9013625, "fusion_lon": 0.0, "rental_uris": {"ios": "https://dc.lft.to/lastmile_qr_scan", "android": "https://dc.lft.to/lastmile_qr_scan"}, "is_disabled": 0, "is_reserved": 0, "name": "f6117ced9d8a11d4750f10c98b36b4d6", "type": "electric_scooter", "fusion_lat": 0.0}, {"bike_id": "c1075d00c9579aec7347c7fae409d7ab", "lon": -77.0043975, "lat": 38.876540166666665, "fusion_lon": 0.0, "rental_uris": {"ios": "https://dc.lft.to/lastmile_qr_scan", "android": "https://dc.lft.to/lastmile_qr_scan"}, "is_disabled": 0, "is_reserved": 0, "name": "c1075d00c9579aec7347c7fae409d7ab", "type": "electric_scooter", "fusion_lat": 0.0}, {"bike_id": "e4b0b6a9d15a5e30a0005312d3cfebe6", "lon": -77.04250316666666, "lat": 38.92266133333333, "fusion_lon": 0.0, "rental_uris": {"ios": "https://dc.lft.to/lastmile_qr_scan", "android": "https://dc.lft.to/lastmile_qr_scan"}, "is_disabled": 0, "is_reserved": 0, "name": "e4b0b6a9d15a5e30a0005312d3cfebe6", "type": "electric_scooter", "fusion_lat": 0.0}, {"bike_id": "f38d5f6c9add6cb10bec8dcf8085a0df", "lon": -77.01942116666666, "lat": 38.924203166666665, "fusion_lon": 0.0, "rental_uris": {"ios": "https://dc.lft.to/lastmile_qr_scan", "android": "https://dc.lft.to/lastmile_qr_scan"}, "is_disabled": 0, "is_reserved": 0, "name": "f38d5f6c9add6cb10bec8dcf8085a0df", "type": "electric_scooter", "fusion_lat": 0.0}, {"bike_id": "4f100280dbb66bf2c3ced24cb06fd242", "lon": -76.98424466666667, "lat": 38.86059216666666, "fusion_lon": 0.0, "rental_uris": {"ios": "https://dc.lft.to/lastmile_qr_scan", "android": "https://dc.lft.to/lastmile_qr_scan"}, "is_disabled": 0, "is_reserved": 0, "name": "4f100280dbb66bf2c3ced24cb06fd242", "type": "electric_scooter", "fusion_lat": 0.0}, {"bike_id": "1d32e2171c223c75cd04e1e7543a90cf", "lon": -76.9901645, "lat": 38.86516533333333, "fusion_lon": 0.0, "rental_uris": {"ios": "https://dc.lft.to/lastmile_qr_scan", "android": "https://dc.lft.to/lastmile_qr_scan"}, "is_disabled": 0, "is_reserved": 0, "name": "1d32e2171c223c75cd04e1e7543a90cf", "type": "electric_scooter", "fusion_lat": 0.0}, {"bike_id": "eb70f8ac25f220ecc42e02d01f3a6353", "lon": -77.00187483333333, "lat": 38.874900833333335, "fusion_lon": 0.0, "rental_uris": {"ios": "https://dc.lft.to/lastmile_qr_scan", "android": "https://dc.lft.to/lastmile_qr_scan"}, "is_disabled": 0, "is_reserved": 0, "name": "eb70f8ac25f220ecc42e02d01f3a6353", "type": "electric_scooter", "fusion_lat": 0.0}, {"bike_id": "30e1e197041c69559cf5da7957fe1c11", "lon": -77.03378683333334, "lat": 38.925338833333335, "fusion_lon": 0.0, "rental_uris": {"ios": "https://dc.lft.to/lastmile_qr_scan", "android": "https://dc.lft.to/lastmile_qr_scan"}, "is_disabled": 0, "is_reserved": 0, "name": "30e1e197041c69559cf5da7957fe1c11", "type": "electric_scooter", "fusion_lat": 0.0}, {"bike_id": "80b7e862e0c3e1236e8802e347dc8792", "lon": -76.98106866666667, "lat": 38.877321, "fusion_lon": 0.0, "rental_uris": {"ios": "https://dc.lft.to/lastmile_qr_scan", "android": "https://dc.lft.to/lastmile_qr_scan"}, "is_disabled": 0, "is_reserved": 0, "name": "80b7e862e0c3e1236e8802e347dc8792", "type": "electric_bike", "fusion_lat": 0.0}, {"bike_id": "8869138af0293f8d1d4aa977bf389b8f", "lon": -76.93398333333333, "lat": 38.89896266666667, "fusion_lon": 0.0, "rental_uris": {"ios": "https://dc.lft.to/lastmile_qr_scan", "android": "https://dc.lft.to/lastmile_qr_scan"}, "is_disabled": 0, "is_reserved": 0, "name": "8869138af0293f8d1d4aa977bf389b8f", "type": "electric_scooter", "fusion_lat": 0.0}, {"bike_id": "b6c01e817a8023639f498e50f4715512", "lon": -77.04584483333333, "lat": 38.90285633333333, "fusion_lon": 0.0, "rental_uris": {"ios": "https://dc.lft.to/lastmile_qr_scan", "android": "https://dc.lft.to/lastmile_qr_scan"}, "is_disabled": 0, "is_reserved": 0, "name": "b6c01e817a8023639f498e50f4715512", "type": "electric_scooter", "fusion_lat": 0.0}, {"bike_id": "219ba594035f5886409a59fea9657479", "lon": -77.03987683333334, "lat": 38.924562333333334, "fusion_lon": 0.0, "rental_uris": {"ios": "https://dc.lft.to/lastmile_qr_scan", "android": "https://dc.lft.to/lastmile_qr_scan"}, "is_disabled": 0, "is_reserved": 0, "name": "219ba594035f5886409a59fea9657479", "type": "electric_scooter", "fusion_lat": 0.0}, {"bike_id": "15320a13bf3ceb095ac45d341b7b5fc5", "lon": -77.003351, "lat": 38.893551, "fusion_lon": 0.0, "rental_uris": {"ios": "https://dc.lft.to/lastmile_qr_scan", "android": "https://dc.lft.to/lastmile_qr_scan"}, "is_disabled": 0, "is_reserved": 0, "name": "15320a13bf3ceb095ac45d341b7b5fc5", "type": "electric_scooter", "fusion_lat": 0.0}, {"bike_id": "018f796bd2053e4738696c3fcb3c47e6", "lon": -77.0347455, "lat": 38.9170865, "fusion_lon": 0.0, "rental_uris": {"ios": "https://dc.lft.to/lastmile_qr_scan", "android": "https://dc.lft.to/lastmile_qr_scan"}, "is_disabled": 0, "is_reserved": 0, "name": "018f796bd2053e4738696c3fcb3c47e6", "type": "electric_scooter", "fusion_lat": 0.0}, {"bike_id": "d8270d0cf552ca836cc48ae121b919f5", "lon": -77.03209233333334, "lat": 38.89351533333333, "fusion_lon": 0.0, "rental_uris": {"ios": "https://dc.lft.to/lastmile_qr_scan", "android": "https://dc.lft.to/lastmile_qr_scan"}, "is_disabled": 0, "is_reserved": 0, "name": "d8270d0cf552ca836cc48ae121b919f5", "type": "electric_scooter", "fusion_lat": 0.0}, {"bike_id": "ca8f138805736cc6214f109f362ac996", "lon": -76.97015733333333, "lat": 38.85066616666667, "fusion_lon": 0.0, "rental_uris": {"ios": "https://dc.lft.to/lastmile_qr_scan", "android": "https://dc.lft.to/lastmile_qr_scan"}, "is_disabled": 0, "is_reserved": 0, "name": "ca8f138805736cc6214f109f362ac996", "type": "electric_scooter", "fusion_lat": 0.0}, {"bike_id": "bbd6040a920ae158899c14204743758a", "lon": -77.04012916666667, "lat": 38.91890866666667, "fusion_lon": 0.0, "rental_uris": {"ios": "https://dc.lft.to/lastmile_qr_scan", "android": "https://dc.lft.to/lastmile_qr_scan"}, "is_disabled": 0, "is_reserved": 0, "name": "bbd6040a920ae158899c14204743758a", "type": "electric_scooter", "fusion_lat": 0.0}, {"bike_id": "533bc5b6555260b8853514708932ae31", "lon": -77.06532183333333, "lat": 38.950724, "fusion_lon": 0.0, "rental_uris": {"ios": "https://dc.lft.to/lastmile_qr_scan", "android": "https://dc.lft.to/lastmile_qr_scan"}, "is_disabled": 0, "is_reserved": 0, "name": "533bc5b6555260b8853514708932ae31", "type": "electric_scooter", "fusion_lat": 0.0}, {"bike_id": "9a8b354ec2d7f6e0c024a6fec9f67581", "lon": -77.0372445, "lat": 38.92589983333333, "fusion_lon": 0.0, "rental_uris": {"ios": "https://dc.lft.to/lastmile_qr_scan", "android": "https://dc.lft.to/lastmile_qr_scan"}, "is_disabled": 0, "is_reserved": 0, "name": "9a8b354ec2d7f6e0c024a6fec9f67581", "type": "electric_scooter", "fusion_lat": 0.0}, {"bike_id": "4966c191b2e72206a56fb98f712b9ff4", "lon": -77.040567, "lat": 38.928829, "fusion_lon": 0.0, "rental_uris": {"ios": "https://dc.lft.to/lastmile_qr_scan", "android": "https://dc.lft.to/lastmile_qr_scan"}, "is_disabled": 0, "is_reserved": 0, "name": "4966c191b2e72206a56fb98f712b9ff4", "type": "electric_scooter", "fusion_lat": 0.0}, {"bike_id": "7acfda6a2111ab1e7437f0f41637f20f", "lon": -77.03008116666666, "lat": 38.91916783333333, "fusion_lon": 0.0, "rental_uris": {"ios": "https://dc.lft.to/lastmile_qr_scan", "android": "https://dc.lft.to/lastmile_qr_scan"}, "is_disabled": 0, "is_reserved": 0, "name": "7acfda6a2111ab1e7437f0f41637f20f", "type": "electric_scooter", "fusion_lat": 0.0}, {"bike_id": "96a371981b7be86e99f4cf9a0662eafd", "lon": -77.01308533333334, "lat": 38.901387666666665, "fusion_lon": 0.0, "rental_uris": {"ios": "https://dc.lft.to/lastmile_qr_scan", "android": "https://dc.lft.to/lastmile_qr_scan"}, "is_disabled": 0, "is_reserved": 0, "name": "96a371981b7be86e99f4cf9a0662eafd", "type": "electric_scooter", "fusion_lat": 0.0}, {"bike_id": "02e4dad75995c9be06e1daebaac66307", "lon": -76.93963483333333, "lat": 38.8931435, "fusion_lon": 0.0, "rental_uris": {"ios": "https://dc.lft.to/lastmile_qr_scan", "android": "https://dc.lft.to/lastmile_qr_scan"}, "is_disabled": 0, "is_reserved": 0, "name": "02e4dad75995c9be06e1daebaac66307", "type": "electric_scooter", "fusion_lat": 0.0}, {"bike_id": "79675888de3d432b20d9b5aa0020248e", "lon": -77.0434615, "lat": 38.906057, "fusion_lon": 0.0, "rental_uris": {"ios": "https://dc.lft.to/lastmile_qr_scan", "android": "https://dc.lft.to/lastmile_qr_scan"}, "is_disabled": 0, "is_reserved": 0, "name": "79675888de3d432b20d9b5aa0020248e", "type": "electric_scooter", "fusion_lat": 0.0}, {"bike_id": "1af57e63dfa68e60b0e96454101eec9d", "lon": -77.03182716666667, "lat": 38.91329983333333, "fusion_lon": 0.0, "rental_uris": {"ios": "https://dc.lft.to/lastmile_qr_scan", "android": "https://dc.lft.to/lastmile_qr_scan"}, "is_disabled": 0, "is_reserved": 0, "name": "1af57e63dfa68e60b0e96454101eec9d", "type": "electric_scooter", "fusion_lat": 0.0}, {"bike_id": "be0e4e7493ecf34b9d4bd92f4fcc7104", "lon": -77.043507, "lat": 38.896432, "fusion_lon": 0.0, "rental_uris": {"ios": "https://dc.lft.to/lastmile_qr_scan", "android": "https://dc.lft.to/lastmile_qr_scan"}, "is_disabled": 0, "is_reserved": 0, "name": "be0e4e7493ecf34b9d4bd92f4fcc7104", "type": "electric_scooter", "fusion_lat": 0.0}, {"bike_id": "5b6e9a5b3b67280e1eb104b69fb88f43", "lon": -77.036605, "lat": 38.923367999999996, "fusion_lon": 0.0, "rental_uris": {"ios": "https://dc.lft.to/lastmile_qr_scan", "android": "https://dc.lft.to/lastmile_qr_scan"}, "is_disabled": 0, "is_reserved": 0, "name": "5b6e9a5b3b67280e1eb104b69fb88f43", "type": "electric_scooter", "fusion_lat": 0.0}, {"bike_id": "5bc39a6180bb1a7051f47ae9aca55349", "lon": -77.031872, "lat": 38.92863766666667, "fusion_lon": 0.0, "rental_uris": {"ios": "https://dc.lft.to/lastmile_qr_scan", "android": "https://dc.lft.to/lastmile_qr_scan"}, "is_disabled": 0, "is_reserved": 0, "name": "5bc39a6180bb1a7051f47ae9aca55349", "type": "electric_scooter", "fusion_lat": 0.0}, {"bike_id": "04e73466cdea933d787d463b96aa139d", "lon": -77.06285983333333, "lat": 38.90447483333333, "fusion_lon": 0.0, "rental_uris": {"ios": "https://dc.lft.to/lastmile_qr_scan", "android": "https://dc.lft.to/lastmile_qr_scan"}, "is_disabled": 0, "is_reserved": 0, "name": "04e73466cdea933d787d463b96aa139d", "type": "electric_scooter", "fusion_lat": 0.0}, {"bike_id": "030bb1ed75b2853c916e79f1f2f5caed", "lon": -77.02142383333333, "lat": 38.92399116666667, "fusion_lon": 0.0, "rental_uris": {"ios": "https://dc.lft.to/lastmile_qr_scan", "android": "https://dc.lft.to/lastmile_qr_scan"}, "is_disabled": 0, "is_reserved": 0, "name": "030bb1ed75b2853c916e79f1f2f5caed", "type": "electric_scooter", "fusion_lat": 0.0}, {"bike_id": "f5870813fa39d1ed8acb0d4b64bcf750", "lon": -76.99487583333334, "lat": 38.93155516666667, "fusion_lon": 0.0, "rental_uris": {"ios": "https://dc.lft.to/lastmile_qr_scan", "android": "https://dc.lft.to/lastmile_qr_scan"}, "is_disabled": 0, "is_reserved": 0, "name": "f5870813fa39d1ed8acb0d4b64bcf750", "type": "electric_bike", "fusion_lat": 0.0}, {"bike_id": "2b64131cb87415169a82cfcaae1a2c25", "lon": -77.05691283333333, "lat": 38.9060835, "fusion_lon": 0.0, "rental_uris": {"ios": "https://dc.lft.to/lastmile_qr_scan", "android": "https://dc.lft.to/lastmile_qr_scan"}, "is_disabled": 0, "is_reserved": 0, "name": "2b64131cb87415169a82cfcaae1a2c25", "type": "electric_scooter", "fusion_lat": 0.0}, {"bike_id": "495ca9f7327b593a398962200fec1a02", "lon": -77.00564566666667, "lat": 38.8851525, "fusion_lon": 0.0, "rental_uris": {"ios": "https://dc.lft.to/lastmile_qr_scan", "android": "https://dc.lft.to/lastmile_qr_scan"}, "is_disabled": 0, "is_reserved": 0, "name": "495ca9f7327b593a398962200fec1a02", "type": "electric_scooter", "fusion_lat": 0.0}, {"bike_id": "985b9163386328486824f9287ee6ffd8", "lon": -77.0365475, "lat": 38.9131595, "fusion_lon": 0.0, "rental_uris": {"ios": "https://dc.lft.to/lastmile_qr_scan", "android": "https://dc.lft.to/lastmile_qr_scan"}, "is_disabled": 0, "is_reserved": 0, "name": "985b9163386328486824f9287ee6ffd8", "type": "electric_scooter", "fusion_lat": 0.0}, {"bike_id": "8c9c868509dfa0fd2bfd4b879491a618", "lon": -77.02331, "lat": 38.93215216666667, "fusion_lon": 0.0, "rental_uris": {"ios": "https://dc.lft.to/lastmile_qr_scan", "android": "https://dc.lft.to/lastmile_qr_scan"}, "is_disabled": 0, "is_reserved": 0, "name": "8c9c868509dfa0fd2bfd4b879491a618", "type": "electric_bike", "fusion_lat": 0.0}, {"bike_id": "065625d8a619cb5077f94c79232cc826", "lon": -77.0274845, "lat": 38.9231435, "fusion_lon": 0.0, "rental_uris": {"ios": "https://dc.lft.to/lastmile_qr_scan", "android": "https://dc.lft.to/lastmile_qr_scan"}, "is_disabled": 0, "is_reserved": 0, "name": "065625d8a619cb5077f94c79232cc826", "type": "electric_scooter", "fusion_lat": 0.0}, {"bike_id": "d7e1432a6ff5cec42f17c9b0086c4ea6", "lon": -77.0251735, "lat": 38.94207133333333, "fusion_lon": 0.0, "rental_uris": {"ios": "https://dc.lft.to/lastmile_qr_scan", "android": "https://dc.lft.to/lastmile_qr_scan"}, "is_disabled": 0, "is_reserved": 0, "name": "d7e1432a6ff5cec42f17c9b0086c4ea6", "type": "electric_scooter", "fusion_lat": 0.0}, {"bike_id": "3288223c43a78dce737f756f59293021", "lon": -77.04876633333333, "lat": 38.893210833333335, "fusion_lon": 0.0, "rental_uris": {"ios": "https://dc.lft.to/lastmile_qr_scan", "android": "https://dc.lft.to/lastmile_qr_scan"}, "is_disabled": 0, "is_reserved": 0, "name": "3288223c43a78dce737f756f59293021", "type": "electric_scooter", "fusion_lat": 0.0}, {"bike_id": "fd0d431482f74dd17abf07fb7a3a6b75", "lon": -77.03835933333333, "lat": 38.90370983333333, "fusion_lon": 0.0, "rental_uris": {"ios": "https://dc.lft.to/lastmile_qr_scan", "android": "https://dc.lft.to/lastmile_qr_scan"}, "is_disabled": 0, "is_reserved": 0, "name": "fd0d431482f74dd17abf07fb7a3a6b75", "type": "electric_scooter", "fusion_lat": 0.0}, {"bike_id": "235bc1eb257f5462c59650b850ecaecc", "lon": -77.2280335, "lat": 38.9101425, "fusion_lon": 0.0, "rental_uris": {"ios": "https://dc.lft.to/lastmile_qr_scan", "android": "https://dc.lft.to/lastmile_qr_scan"}, "is_disabled": 0, "is_reserved": 0, "name": "235bc1eb257f5462c59650b850ecaecc", "type": "electric_bike", "fusion_lat": 0.0}, {"bike_id": "c812834e05995a6f863b234426cf6045", "lon": -77.01182716666666, "lat": 38.90025133333333, "fusion_lon": 0.0, "rental_uris": {"ios": "https://dc.lft.to/lastmile_qr_scan", "android": "https://dc.lft.to/lastmile_qr_scan"}, "is_disabled": 0, "is_reserved": 0, "name": "c812834e05995a6f863b234426cf6045", "type": "electric_scooter", "fusion_lat": 0.0}, {"bike_id": "b4ad47d0d30516dc2d44b2412401245f", "lon": -76.99512383333334, "lat": 38.86255383333334, "fusion_lon": 0.0, "rental_uris": {"ios": "https://dc.lft.to/lastmile_qr_scan", "android": "https://dc.lft.to/lastmile_qr_scan"}, "is_disabled": 0, "is_reserved": 0, "name": "b4ad47d0d30516dc2d44b2412401245f", "type": "electric_scooter", "fusion_lat": 0.0}, {"bike_id": "e9a061220a54a44e03092be7b6724aa1", "lon": -77.033178, "lat": 38.8981725, "fusion_lon": 0.0, "rental_uris": {"ios": "https://dc.lft.to/lastmile_qr_scan", "android": "https://dc.lft.to/lastmile_qr_scan"}, "is_disabled": 0, "is_reserved": 0, "name": "e9a061220a54a44e03092be7b6724aa1", "type": "electric_scooter", "fusion_lat": 0.0}, {"bike_id": "b01e53c38c603e3c0294bd598839f1a5", "lon": -76.96236416666666, "lat": 38.880636333333335, "fusion_lon": 0.0, "rental_uris": {"ios": "https://dc.lft.to/lastmile_qr_scan", "android": "https://dc.lft.to/lastmile_qr_scan"}, "is_disabled": 0, "is_reserved": 0, "name": "b01e53c38c603e3c0294bd598839f1a5", "type": "electric_bike", "fusion_lat": 0.0}, {"bike_id": "908733067e5974cc5bb25d0ccd47619c", "lon": -76.99473083333334, "lat": 38.8620945, "fusion_lon": 0.0, "rental_uris": {"ios": "https://dc.lft.to/lastmile_qr_scan", "android": "https://dc.lft.to/lastmile_qr_scan"}, "is_disabled": 0, "is_reserved": 0, "name": "908733067e5974cc5bb25d0ccd47619c", "type": "electric_scooter", "fusion_lat": 0.0}, {"bike_id": "7d505cb6fc662565dd2633c5ba95c011", "lon": -77.23318933333333, "lat": 38.8728045, "fusion_lon": 0.0, "rental_uris": {"ios": "https://dc.lft.to/lastmile_qr_scan", "android": "https://dc.lft.to/lastmile_qr_scan"}, "is_disabled": 0, "is_reserved": 0, "name": "7d505cb6fc662565dd2633c5ba95c011", "type": "electric_bike", "fusion_lat": 0.0}, {"bike_id": "f5052827372c093268a951faa9cffb1b", "lon": -77.028298, "lat": 38.8872805, "fusion_lon": 0.0, "rental_uris": {"ios": "https://dc.lft.to/lastmile_qr_scan", "android": "https://dc.lft.to/lastmile_qr_scan"}, "is_disabled": 0, "is_reserved": 0, "name": "f5052827372c093268a951faa9cffb1b", "type": "electric_scooter", "fusion_lat": 0.0}, {"bike_id": "57603cc73997d97a170c952cd4c30ae2", "lon": -76.93769083333333, "lat": 38.90374, "fusion_lon": 0.0, "rental_uris": {"ios": "https://dc.lft.to/lastmile_qr_scan", "android": "https://dc.lft.to/lastmile_qr_scan"}, "is_disabled": 0, "is_reserved": 0, "name": "57603cc73997d97a170c952cd4c30ae2", "type": "electric_scooter", "fusion_lat": 0.0}, {"bike_id": "a62902e9481e8788359cb8d53a023a33", "lon": -77.03118333333333, "lat": 38.92028916666667, "fusion_lon": 0.0, "rental_uris": {"ios": "https://dc.lft.to/lastmile_qr_scan", "android": "https://dc.lft.to/lastmile_qr_scan"}, "is_disabled": 0, "is_reserved": 0, "name": "a62902e9481e8788359cb8d53a023a33", "type": "electric_scooter", "fusion_lat": 0.0}, {"bike_id": "2d4079bfbc709e1de7905c4be6a35bcb", "lon": -77.01951583333333, "lat": 38.92314916666667, "fusion_lon": 0.0, "rental_uris": {"ios": "https://dc.lft.to/lastmile_qr_scan", "android": "https://dc.lft.to/lastmile_qr_scan"}, "is_disabled": 0, "is_reserved": 0, "name": "2d4079bfbc709e1de7905c4be6a35bcb", "type": "electric_scooter", "fusion_lat": 0.0}, {"bike_id": "2743a6428d70781309d6577a84ccc85d", "lon": -77.02346483333334, "lat": 38.89220433333333, "fusion_lon": 0.0, "rental_uris": {"ios": "https://dc.lft.to/lastmile_qr_scan", "android": "https://dc.lft.to/lastmile_qr_scan"}, "is_disabled": 0, "is_reserved": 0, "name": "2743a6428d70781309d6577a84ccc85d", "type": "electric_scooter", "fusion_lat": 0.0}, {"bike_id": "9f3ddef06e7f25282de8aa8d03e9c87c", "lon": -77.04980416666666, "lat": 39.0629585, "fusion_lon": 0.0, "rental_uris": {"ios": "https://dc.lft.to/lastmile_qr_scan", "android": "https://dc.lft.to/lastmile_qr_scan"}, "is_disabled": 0, "is_reserved": 0, "name": "9f3ddef06e7f25282de8aa8d03e9c87c", "type": "electric_bike", "fusion_lat": 0.0}, {"bike_id": "45cf2b24f31e135b0827d78a84622cb4", "lon": -77.02093133333334, "lat": 38.92698866666667, "fusion_lon": 0.0, "rental_uris": {"ios": "https://dc.lft.to/lastmile_qr_scan", "android": "https://dc.lft.to/lastmile_qr_scan"}, "is_disabled": 0, "is_reserved": 0, "name": "45cf2b24f31e135b0827d78a84622cb4", "type": "electric_scooter", "fusion_lat": 0.0}, {"bike_id": "9b0969a98da18037f2ce61d9c66410b1", "lon": -76.93061416666667, "lat": 38.90154666666667, "fusion_lon": 0.0, "rental_uris": {"ios": "https://dc.lft.to/lastmile_qr_scan", "android": "https://dc.lft.to/lastmile_qr_scan"}, "is_disabled": 0, "is_reserved": 0, "name": "9b0969a98da18037f2ce61d9c66410b1", "type": "electric_scooter", "fusion_lat": 0.0}, {"bike_id": "801032f0da8a6f89a32ef0470175bebe", "lon": -77.03684333333334, "lat": 38.90634516666667, "fusion_lon": 0.0, "rental_uris": {"ios": "https://dc.lft.to/lastmile_qr_scan", "android": "https://dc.lft.to/lastmile_qr_scan"}, "is_disabled": 0, "is_reserved": 0, "name": "801032f0da8a6f89a32ef0470175bebe", "type": "electric_scooter", "fusion_lat": 0.0}, {"bike_id": "a842a808c0f79a21ffd18a06b5d78da1", "lon": -76.99901, "lat": 38.90024, "fusion_lon": 0.0, "rental_uris": {"ios": "https://dc.lft.to/lastmile_qr_scan", "android": "https://dc.lft.to/lastmile_qr_scan"}, "is_disabled": 0, "is_reserved": 0, "name": "a842a808c0f79a21ffd18a06b5d78da1", "type": "electric_scooter", "fusion_lat": 0.0}, {"bike_id": "5cd99178deb83fe97b195d6178677f34", "lon": -76.9985395, "lat": 38.90895183333333, "fusion_lon": 0.0, "rental_uris": {"ios": "https://dc.lft.to/lastmile_qr_scan", "android": "https://dc.lft.to/lastmile_qr_scan"}, "is_disabled": 0, "is_reserved": 0, "name": "5cd99178deb83fe97b195d6178677f34", "type": "electric_scooter", "fusion_lat": 0.0}, {"bike_id": "07ff426f8b86c628b0b6a80a8f1184e3", "lon": -76.94935016666666, "lat": 38.89359616666667, "fusion_lon": 0.0, "rental_uris": {"ios": "https://dc.lft.to/lastmile_qr_scan", "android": "https://dc.lft.to/lastmile_qr_scan"}, "is_disabled": 0, "is_reserved": 0, "name": "07ff426f8b86c628b0b6a80a8f1184e3", "type": "electric_scooter", "fusion_lat": 0.0}, {"bike_id": "95532fb64041d25375dad2dcecb43810", "lon": -77.002046, "lat": 38.87370766666667, "fusion_lon": 0.0, "rental_uris": {"ios": "https://dc.lft.to/lastmile_qr_scan", "android": "https://dc.lft.to/lastmile_qr_scan"}, "is_disabled": 0, "is_reserved": 0, "name": "95532fb64041d25375dad2dcecb43810", "type": "electric_scooter", "fusion_lat": 0.0}, {"bike_id": "ea57ed59b9f25531dfcee497badc6490", "lon": -77.01759483333333, "lat": 38.87668733333334, "fusion_lon": 0.0, "rental_uris": {"ios": "https://dc.lft.to/lastmile_qr_scan", "android": "https://dc.lft.to/lastmile_qr_scan"}, "is_disabled": 0, "is_reserved": 0, "name": "ea57ed59b9f25531dfcee497badc6490", "type": "electric_scooter", "fusion_lat": 0.0}, {"bike_id": "902adc5f73aabcc5d8c340b8174dd499", "lon": -77.04495666666666, "lat": 38.914195166666666, "fusion_lon": 0.0, "rental_uris": {"ios": "https://dc.lft.to/lastmile_qr_scan", "android": "https://dc.lft.to/lastmile_qr_scan"}, "is_disabled": 0, "is_reserved": 0, "name": "902adc5f73aabcc5d8c340b8174dd499", "type": "electric_scooter", "fusion_lat": 0.0}, {"bike_id": "b249badc129e8d4e546c239cfd5a7b23", "lon": -76.9687765, "lat": 38.861007666666666, "fusion_lon": 0.0, "rental_uris": {"ios": "https://dc.lft.to/lastmile_qr_scan", "android": "https://dc.lft.to/lastmile_qr_scan"}, "is_disabled": 0, "is_reserved": 0, "name": "b249badc129e8d4e546c239cfd5a7b23", "type": "electric_scooter", "fusion_lat": 0.0}, {"bike_id": "3d433d14c9c0fcae43c53639fc3dd934", "lon": -77.028278, "lat": 38.932437166666666, "fusion_lon": 0.0, "rental_uris": {"ios": "https://dc.lft.to/lastmile_qr_scan", "android": "https://dc.lft.to/lastmile_qr_scan"}, "is_disabled": 0, "is_reserved": 0, "name": "3d433d14c9c0fcae43c53639fc3dd934", "type": "electric_scooter", "fusion_lat": 0.0}, {"bike_id": "dcfc37bdf7fb0c9464a6644a2e8a1627", "lon": -77.02660966666667, "lat": 38.93263483333333, "fusion_lon": 0.0, "rental_uris": {"ios": "https://dc.lft.to/lastmile_qr_scan", "android": "https://dc.lft.to/lastmile_qr_scan"}, "is_disabled": 0, "is_reserved": 0, "name": "dcfc37bdf7fb0c9464a6644a2e8a1627", "type": "electric_scooter", "fusion_lat": 0.0}, {"bike_id": "2f8cff139a8828411feccfc779299d7f", "lon": -77.03527533333333, "lat": 38.922828833333334, "fusion_lon": 0.0, "rental_uris": {"ios": "https://dc.lft.to/lastmile_qr_scan", "android": "https://dc.lft.to/lastmile_qr_scan"}, "is_disabled": 0, "is_reserved": 0, "name": "2f8cff139a8828411feccfc779299d7f", "type": "electric_scooter", "fusion_lat": 0.0}, {"bike_id": "bc92ceeddb62c069707c89adfcda310b", "lon": -77.0217085, "lat": 38.900645833333336, "fusion_lon": 0.0, "rental_uris": {"ios": "https://dc.lft.to/lastmile_qr_scan", "android": "https://dc.lft.to/lastmile_qr_scan"}, "is_disabled": 0, "is_reserved": 0, "name": "bc92ceeddb62c069707c89adfcda310b", "type": "electric_scooter", "fusion_lat": 0.0}, {"bike_id": "2a8179a01d9d26f211b77de3cb9d574f", "lon": -77.02325416666666, "lat": 38.9293745, "fusion_lon": 0.0, "rental_uris": {"ios": "https://dc.lft.to/lastmile_qr_scan", "android": "https://dc.lft.to/lastmile_qr_scan"}, "is_disabled": 0, "is_reserved": 0, "name": "2a8179a01d9d26f211b77de3cb9d574f", "type": "electric_scooter", "fusion_lat": 0.0}, {"bike_id": "8fe5f48b7956125e8f920e52b0e0f02f", "lon": -76.99489516666667, "lat": 38.835793, "fusion_lon": 0.0, "rental_uris": {"ios": "https://dc.lft.to/lastmile_qr_scan", "android": "https://dc.lft.to/lastmile_qr_scan"}, "is_disabled": 0, "is_reserved": 0, "name": "8fe5f48b7956125e8f920e52b0e0f02f", "type": "electric_scooter", "fusion_lat": 0.0}, {"bike_id": "0b4f306c379ad92610a7e787ae4da732", "lon": -77.02975383333333, "lat": 38.91727483333333, "fusion_lon": 0.0, "rental_uris": {"ios": "https://dc.lft.to/lastmile_qr_scan", "android": "https://dc.lft.to/lastmile_qr_scan"}, "is_disabled": 0, "is_reserved": 0, "name": "0b4f306c379ad92610a7e787ae4da732", "type": "electric_scooter", "fusion_lat": 0.0}, {"bike_id": "f7ed8aa13a01a2a4dd589d93755c7129", "lon": -77.0329165, "lat": 38.937864833333336, "fusion_lon": 0.0, "rental_uris": {"ios": "https://dc.lft.to/lastmile_qr_scan", "android": "https://dc.lft.to/lastmile_qr_scan"}, "is_disabled": 0, "is_reserved": 0, "name": "f7ed8aa13a01a2a4dd589d93755c7129", "type": "electric_scooter", "fusion_lat": 0.0}, {"bike_id": "49374ec24a7907e43536e40003e214b0", "lon": -77.026169, "lat": 38.8959935, "fusion_lon": 0.0, "rental_uris": {"ios": "https://dc.lft.to/lastmile_qr_scan", "android": "https://dc.lft.to/lastmile_qr_scan"}, "is_disabled": 0, "is_reserved": 0, "name": "49374ec24a7907e43536e40003e214b0", "type": "electric_scooter", "fusion_lat": 0.0}, {"bike_id": "363253a0a88d32598e14957544f4c625", "lon": -77.02818833333333, "lat": 38.91682516666667, "fusion_lon": 0.0, "rental_uris": {"ios": "https://dc.lft.to/lastmile_qr_scan", "android": "https://dc.lft.to/lastmile_qr_scan"}, "is_disabled": 0, "is_reserved": 0, "name": "363253a0a88d32598e14957544f4c625", "type": "electric_scooter", "fusion_lat": 0.0}, {"bike_id": "09d74bed3957798205e2c9af973f1aed", "lon": -77.02553116666667, "lat": 38.91557533333334, "fusion_lon": 0.0, "rental_uris": {"ios": "https://dc.lft.to/lastmile_qr_scan", "android": "https://dc.lft.to/lastmile_qr_scan"}, "is_disabled": 0, "is_reserved": 0, "name": "09d74bed3957798205e2c9af973f1aed", "type": "electric_scooter", "fusion_lat": 0.0}, {"bike_id": "b9af7830d035b395b8accd6479b9d019", "lon": -77.031501, "lat": 38.906251833333336, "fusion_lon": 0.0, "rental_uris": {"ios": "https://dc.lft.to/lastmile_qr_scan", "android": "https://dc.lft.to/lastmile_qr_scan"}, "is_disabled": 0, "is_reserved": 0, "name": "b9af7830d035b395b8accd6479b9d019", "type": "electric_scooter", "fusion_lat": 0.0}, {"bike_id": "2df4df82bd714cf174b31ef0a4b53fe6", "lon": -77.047465, "lat": 38.90088016666667, "fusion_lon": 0.0, "rental_uris": {"ios": "https://dc.lft.to/lastmile_qr_scan", "android": "https://dc.lft.to/lastmile_qr_scan"}, "is_disabled": 0, "is_reserved": 0, "name": "2df4df82bd714cf174b31ef0a4b53fe6", "type": "electric_scooter", "fusion_lat": 0.0}, {"bike_id": "28601f1e91c4ad9b22455042c478f1a8", "lon": -77.03840616666666, "lat": 38.9050875, "fusion_lon": 0.0, "rental_uris": {"ios": "https://dc.lft.to/lastmile_qr_scan", "android": "https://dc.lft.to/lastmile_qr_scan"}, "is_disabled": 0, "is_reserved": 0, "name": "28601f1e91c4ad9b22455042c478f1a8", "type": "electric_scooter", "fusion_lat": 0.0}, {"bike_id": "3c0f99995e7d23e6f1a4e8fa04895d62", "lon": -77.04513566666667, "lat": 38.907258666666664, "fusion_lon": 0.0, "rental_uris": {"ios": "https://dc.lft.to/lastmile_qr_scan", "android": "https://dc.lft.to/lastmile_qr_scan"}, "is_disabled": 0, "is_reserved": 0, "name": "3c0f99995e7d23e6f1a4e8fa04895d62", "type": "electric_scooter", "fusion_lat": 0.0}, {"bike_id": "b36e358fe06909eaaee235d1b8cc360a", "lon": -77.0383655, "lat": 38.9140825, "fusion_lon": 0.0, "rental_uris": {"ios": "https://dc.lft.to/lastmile_qr_scan", "android": "https://dc.lft.to/lastmile_qr_scan"}, "is_disabled": 0, "is_reserved": 0, "name": "b36e358fe06909eaaee235d1b8cc360a", "type": "electric_scooter", "fusion_lat": 0.0}, {"bike_id": "6700f56bb833d521058846dfcda8aa8e", "lon": -77.00610566666667, "lat": 38.87180933333333, "fusion_lon": 0.0, "rental_uris": {"ios": "https://dc.lft.to/lastmile_qr_scan", "android": "https://dc.lft.to/lastmile_qr_scan"}, "is_disabled": 0, "is_reserved": 0, "name": "6700f56bb833d521058846dfcda8aa8e", "type": "electric_scooter", "fusion_lat": 0.0}, {"bike_id": "f05c00aaf45a3e7838d4adb4e7aa43e2", "lon": -76.9337575, "lat": 38.8991415, "fusion_lon": 0.0, "rental_uris": {"ios": "https://dc.lft.to/lastmile_qr_scan", "android": "https://dc.lft.to/lastmile_qr_scan"}, "is_disabled": 0, "is_reserved": 0, "name": "f05c00aaf45a3e7838d4adb4e7aa43e2", "type": "electric_scooter", "fusion_lat": 0.0}, {"bike_id": "e9d2d2fe35bcd2aa5fee3f9209f4f7e4", "lon": -77.032414, "lat": 38.92858, "fusion_lon": 0.0, "rental_uris": {"ios": "https://dc.lft.to/lastmile_qr_scan", "android": "https://dc.lft.to/lastmile_qr_scan"}, "is_disabled": 0, "is_reserved": 0, "name": "e9d2d2fe35bcd2aa5fee3f9209f4f7e4", "type": "electric_scooter", "fusion_lat": 0.0}, {"bike_id": "b2aabceeca4014d506c15b37db31b96d", "lon": -76.97640583333333, "lat": 38.900948, "fusion_lon": 0.0, "rental_uris": {"ios": "https://dc.lft.to/lastmile_qr_scan", "android": "https://dc.lft.to/lastmile_qr_scan"}, "is_disabled": 0, "is_reserved": 0, "name": "b2aabceeca4014d506c15b37db31b96d", "type": "electric_scooter", "fusion_lat": 0.0}, {"bike_id": "4bbf3b1558411733ccaa476b78531800", "lon": -77.01229233333333, "lat": 38.89339483333333, "fusion_lon": 0.0, "rental_uris": {"ios": "https://dc.lft.to/lastmile_qr_scan", "android": "https://dc.lft.to/lastmile_qr_scan"}, "is_disabled": 0, "is_reserved": 0, "name": "4bbf3b1558411733ccaa476b78531800", "type": "electric_scooter", "fusion_lat": 0.0}, {"bike_id": "6f1b57fba6a3a4c30532751ed47d66de", "lon": -77.02586233333334, "lat": 38.91254566666667, "fusion_lon": 0.0, "rental_uris": {"ios": "https://dc.lft.to/lastmile_qr_scan", "android": "https://dc.lft.to/lastmile_qr_scan"}, "is_disabled": 0, "is_reserved": 0, "name": "6f1b57fba6a3a4c30532751ed47d66de", "type": "electric_bike", "fusion_lat": 0.0}, {"bike_id": "489e300cb7dd03a706b51e3dcbfdc16c", "lon": -76.98928166666667, "lat": 38.88205466666667, "fusion_lon": 0.0, "rental_uris": {"ios": "https://dc.lft.to/lastmile_qr_scan", "android": "https://dc.lft.to/lastmile_qr_scan"}, "is_disabled": 0, "is_reserved": 0, "name": "489e300cb7dd03a706b51e3dcbfdc16c", "type": "electric_scooter", "fusion_lat": 0.0}, {"bike_id": "ceda38c8ee4e991fa507adb62dc065d9", "lon": -77.03176516666667, "lat": 38.88470616666667, "fusion_lon": 0.0, "rental_uris": {"ios": "https://dc.lft.to/lastmile_qr_scan", "android": "https://dc.lft.to/lastmile_qr_scan"}, "is_disabled": 0, "is_reserved": 0, "name": "ceda38c8ee4e991fa507adb62dc065d9", "type": "electric_scooter", "fusion_lat": 0.0}, {"bike_id": "0d6864a1cb20c458f1927ad10ad05229", "lon": -77.012938, "lat": 38.900806833333334, "fusion_lon": 0.0, "rental_uris": {"ios": "https://dc.lft.to/lastmile_qr_scan", "android": "https://dc.lft.to/lastmile_qr_scan"}, "is_disabled": 0, "is_reserved": 0, "name": "0d6864a1cb20c458f1927ad10ad05229", "type": "electric_scooter", "fusion_lat": 0.0}, {"bike_id": "6e9c99296a29a9d735d3448d4837931b", "lon": -76.97547, "lat": 38.903242, "fusion_lon": 0.0, "rental_uris": {"ios": "https://dc.lft.to/lastmile_qr_scan", "android": "https://dc.lft.to/lastmile_qr_scan"}, "is_disabled": 0, "is_reserved": 0, "name": "6e9c99296a29a9d735d3448d4837931b", "type": "electric_scooter", "fusion_lat": 0.0}, {"bike_id": "5a23e29d59aab5efb362242e706c63cb", "lon": -76.9859025, "lat": 38.866988, "fusion_lon": 0.0, "rental_uris": {"ios": "https://dc.lft.to/lastmile_qr_scan", "android": "https://dc.lft.to/lastmile_qr_scan"}, "is_disabled": 0, "is_reserved": 0, "name": "5a23e29d59aab5efb362242e706c63cb", "type": "electric_scooter", "fusion_lat": 0.0}, {"bike_id": "161f28c6f78172954814d971ab5daa76", "lon": -77.04342283333334, "lat": 38.901257, "fusion_lon": 0.0, "rental_uris": {"ios": "https://dc.lft.to/lastmile_qr_scan", "android": "https://dc.lft.to/lastmile_qr_scan"}, "is_disabled": 0, "is_reserved": 0, "name": "161f28c6f78172954814d971ab5daa76", "type": "electric_scooter", "fusion_lat": 0.0}, {"bike_id": "487b356accc6715dfe24b67e8703900d", "lon": -77.01422316666667, "lat": 38.928293, "fusion_lon": 0.0, "rental_uris": {"ios": "https://dc.lft.to/lastmile_qr_scan", "android": "https://dc.lft.to/lastmile_qr_scan"}, "is_disabled": 0, "is_reserved": 0, "name": "487b356accc6715dfe24b67e8703900d", "type": "electric_scooter", "fusion_lat": 0.0}, {"bike_id": "4baa95df2fe115dec78fc80c3fbf9f21", "lon": -77.03211216666666, "lat": 38.922246333333334, "fusion_lon": 0.0, "rental_uris": {"ios": "https://dc.lft.to/lastmile_qr_scan", "android": "https://dc.lft.to/lastmile_qr_scan"}, "is_disabled": 0, "is_reserved": 0, "name": "4baa95df2fe115dec78fc80c3fbf9f21", "type": "electric_scooter", "fusion_lat": 0.0}, {"bike_id": "38a96b558f2fc63642f3f2c16085921e", "lon": -77.05082166666666, "lat": 38.92346083333333, "fusion_lon": 0.0, "rental_uris": {"ios": "https://dc.lft.to/lastmile_qr_scan", "android": "https://dc.lft.to/lastmile_qr_scan"}, "is_disabled": 0, "is_reserved": 0, "name": "38a96b558f2fc63642f3f2c16085921e", "type": "electric_scooter", "fusion_lat": 0.0}, {"bike_id": "8d05146a3b348bf26497b40e2a789c0c", "lon": -76.98169716666666, "lat": 38.898515333333336, "fusion_lon": 0.0, "rental_uris": {"ios": "https://dc.lft.to/lastmile_qr_scan", "android": "https://dc.lft.to/lastmile_qr_scan"}, "is_disabled": 0, "is_reserved": 0, "name": "8d05146a3b348bf26497b40e2a789c0c", "type": "electric_scooter", "fusion_lat": 0.0}, {"bike_id": "63ca4bfa2eaedd83a011f6a1805ab8dc", "lon": -77.03666933333334, "lat": 38.922369833333335, "fusion_lon": 0.0, "rental_uris": {"ios": "https://dc.lft.to/lastmile_qr_scan", "android": "https://dc.lft.to/lastmile_qr_scan"}, "is_disabled": 0, "is_reserved": 0, "name": "63ca4bfa2eaedd83a011f6a1805ab8dc", "type": "electric_scooter", "fusion_lat": 0.0}, {"bike_id": "5fbaf722d4b817ac332c2b6bc5654029", "lon": -77.04802333333333, "lat": 38.892234, "fusion_lon": 0.0, "rental_uris": {"ios": "https://dc.lft.to/lastmile_qr_scan", "android": "https://dc.lft.to/lastmile_qr_scan"}, "is_disabled": 0, "is_reserved": 0, "name": "5fbaf722d4b817ac332c2b6bc5654029", "type": "electric_scooter", "fusion_lat": 0.0}, {"bike_id": "7aaff015557afbe259450b137f157086", "lon": -76.95576966666667, "lat": 38.88619716666667, "fusion_lon": 0.0, "rental_uris": {"ios": "https://dc.lft.to/lastmile_qr_scan", "android": "https://dc.lft.to/lastmile_qr_scan"}, "is_disabled": 0, "is_reserved": 0, "name": "7aaff015557afbe259450b137f157086", "type": "electric_scooter", "fusion_lat": 0.0}, {"bike_id": "c8da1cfbcdde51c74ba7084dbe2e4dac", "lon": -76.99044666666667, "lat": 38.86388733333333, "fusion_lon": 0.0, "rental_uris": {"ios": "https://dc.lft.to/lastmile_qr_scan", "android": "https://dc.lft.to/lastmile_qr_scan"}, "is_disabled": 0, "is_reserved": 0, "name": "c8da1cfbcdde51c74ba7084dbe2e4dac", "type": "electric_scooter", "fusion_lat": 0.0}, {"bike_id": "ae7c0f92aa69e981f128411b282c3787", "lon": -77.0617155, "lat": 38.8071025, "fusion_lon": 0.0, "rental_uris": {"ios": "https://dc.lft.to/lastmile_qr_scan", "android": "https://dc.lft.to/lastmile_qr_scan"}, "is_disabled": 0, "is_reserved": 0, "name": "ae7c0f92aa69e981f128411b282c3787", "type": "electric_bike", "fusion_lat": 0.0}, {"bike_id": "6e194249eeaa90e803bb859264195dae", "lon": -77.02829116666666, "lat": 38.88733, "fusion_lon": 0.0, "rental_uris": {"ios": "https://dc.lft.to/lastmile_qr_scan", "android": "https://dc.lft.to/lastmile_qr_scan"}, "is_disabled": 0, "is_reserved": 0, "name": "6e194249eeaa90e803bb859264195dae", "type": "electric_scooter", "fusion_lat": 0.0}, {"bike_id": "4bd2ae0e8a6face45746359c1049eeed", "lon": -77.046641, "lat": 38.89750466666667, "fusion_lon": 0.0, "rental_uris": {"ios": "https://dc.lft.to/lastmile_qr_scan", "android": "https://dc.lft.to/lastmile_qr_scan"}, "is_disabled": 0, "is_reserved": 0, "name": "4bd2ae0e8a6face45746359c1049eeed", "type": "electric_scooter", "fusion_lat": 0.0}, {"bike_id": "985ebc1acdb62cd090ac74d8c7ae4169", "lon": -77.03836933333334, "lat": 38.911897333333336, "fusion_lon": 0.0, "rental_uris": {"ios": "https://dc.lft.to/lastmile_qr_scan", "android": "https://dc.lft.to/lastmile_qr_scan"}, "is_disabled": 0, "is_reserved": 0, "name": "985ebc1acdb62cd090ac74d8c7ae4169", "type": "electric_scooter", "fusion_lat": 0.0}, {"bike_id": "c1aa8dd2fd3cf8bf3266557ba0ae11be", "lon": -77.04536116666667, "lat": 38.913268333333335, "fusion_lon": 0.0, "rental_uris": {"ios": "https://dc.lft.to/lastmile_qr_scan", "android": "https://dc.lft.to/lastmile_qr_scan"}, "is_disabled": 0, "is_reserved": 0, "name": "c1aa8dd2fd3cf8bf3266557ba0ae11be", "type": "electric_bike", "fusion_lat": 0.0}, {"bike_id": "e4eaac9c31d5a4112a328ab7d1fa0861", "lon": -77.02579466666667, "lat": 38.944035166666666, "fusion_lon": 0.0, "rental_uris": {"ios": "https://dc.lft.to/lastmile_qr_scan", "android": "https://dc.lft.to/lastmile_qr_scan"}, "is_disabled": 0, "is_reserved": 0, "name": "e4eaac9c31d5a4112a328ab7d1fa0861", "type": "electric_scooter", "fusion_lat": 0.0}, {"bike_id": "adaeae81ecd084ddd361a5c34acd43f2", "lon": -77.03153033333334, "lat": 38.92794083333333, "fusion_lon": 0.0, "rental_uris": {"ios": "https://dc.lft.to/lastmile_qr_scan", "android": "https://dc.lft.to/lastmile_qr_scan"}, "is_disabled": 0, "is_reserved": 0, "name": "adaeae81ecd084ddd361a5c34acd43f2", "type": "electric_scooter", "fusion_lat": 0.0}, {"bike_id": "e5ce0d111ca73c655e5c65f0b0ec47ae", "lon": -77.03277066666666, "lat": 38.928369333333336, "fusion_lon": 0.0, "rental_uris": {"ios": "https://dc.lft.to/lastmile_qr_scan", "android": "https://dc.lft.to/lastmile_qr_scan"}, "is_disabled": 0, "is_reserved": 0, "name": "e5ce0d111ca73c655e5c65f0b0ec47ae", "type": "electric_scooter", "fusion_lat": 0.0}, {"bike_id": "ba4f58d19bac6483d7c0ab4e6342cb9d", "lon": -77.0165285, "lat": 38.9289595, "fusion_lon": 0.0, "rental_uris": {"ios": "https://dc.lft.to/lastmile_qr_scan", "android": "https://dc.lft.to/lastmile_qr_scan"}, "is_disabled": 0, "is_reserved": 0, "name": "ba4f58d19bac6483d7c0ab4e6342cb9d", "type": "electric_scooter", "fusion_lat": 0.0}, {"bike_id": "82f33f59d4fa8b5a0794b85b3d136644", "lon": -77.0227315, "lat": 38.878402666666666, "fusion_lon": 0.0, "rental_uris": {"ios": "https://dc.lft.to/lastmile_qr_scan", "android": "https://dc.lft.to/lastmile_qr_scan"}, "is_disabled": 0, "is_reserved": 0, "name": "82f33f59d4fa8b5a0794b85b3d136644", "type": "electric_scooter", "fusion_lat": 0.0}, {"bike_id": "021edbd759156317863f888c1292b9a6", "lon": -76.937, "lat": 38.890196833333334, "fusion_lon": 0.0, "rental_uris": {"ios": "https://dc.lft.to/lastmile_qr_scan", "android": "https://dc.lft.to/lastmile_qr_scan"}, "is_disabled": 0, "is_reserved": 0, "name": "021edbd759156317863f888c1292b9a6", "type": "electric_scooter", "fusion_lat": 0.0}, {"bike_id": "e3196f602e41833d1b590742adab8cbd", "lon": -77.09464733333333, "lat": 38.869394, "fusion_lon": 0.0, "rental_uris": {"ios": "https://dc.lft.to/lastmile_qr_scan", "android": "https://dc.lft.to/lastmile_qr_scan"}, "is_disabled": 0, "is_reserved": 0, "name": "e3196f602e41833d1b590742adab8cbd", "type": "electric_bike", "fusion_lat": 0.0}, {"bike_id": "519d412a78c44d45ef00e30c1f860087", "lon": -77.02851183333334, "lat": 38.90129966666667, "fusion_lon": 0.0, "rental_uris": {"ios": "https://dc.lft.to/lastmile_qr_scan", "android": "https://dc.lft.to/lastmile_qr_scan"}, "is_disabled": 0, "is_reserved": 0, "name": "519d412a78c44d45ef00e30c1f860087", "type": "electric_scooter", "fusion_lat": 0.0}, {"bike_id": "308db169c5722c1ffc1c9bc925efeee7", "lon": -77.01287033333334, "lat": 38.901948, "fusion_lon": 0.0, "rental_uris": {"ios": "https://dc.lft.to/lastmile_qr_scan", "android": "https://dc.lft.to/lastmile_qr_scan"}, "is_disabled": 0, "is_reserved": 0, "name": "308db169c5722c1ffc1c9bc925efeee7", "type": "electric_scooter", "fusion_lat": 0.0}, {"bike_id": "d80fca79eea7a1b1531d2abe2973be90", "lon": -77.01082733333334, "lat": 38.91746066666666, "fusion_lon": 0.0, "rental_uris": {"ios": "https://dc.lft.to/lastmile_qr_scan", "android": "https://dc.lft.to/lastmile_qr_scan"}, "is_disabled": 0, "is_reserved": 0, "name": "d80fca79eea7a1b1531d2abe2973be90", "type": "electric_scooter", "fusion_lat": 0.0}, {"bike_id": "2d0311b1593a4dd2d7a330c45e036b67", "lon": -77.03508716666667, "lat": 38.92159433333333, "fusion_lon": 0.0, "rental_uris": {"ios": "https://dc.lft.to/lastmile_qr_scan", "android": "https://dc.lft.to/lastmile_qr_scan"}, "is_disabled": 0, "is_reserved": 0, "name": "2d0311b1593a4dd2d7a330c45e036b67", "type": "electric_scooter", "fusion_lat": 0.0}, {"bike_id": "a752f7d41d99a62136057454ccad71f6", "lon": -77.02639883333333, "lat": 38.936549, "fusion_lon": 0.0, "rental_uris": {"ios": "https://dc.lft.to/lastmile_qr_scan", "android": "https://dc.lft.to/lastmile_qr_scan"}, "is_disabled": 0, "is_reserved": 0, "name": "a752f7d41d99a62136057454ccad71f6", "type": "electric_scooter", "fusion_lat": 0.0}, {"bike_id": "aa0daa994a640e7951c9ff1ff5b170bf", "lon": -77.02117716666666, "lat": 38.935810333333336, "fusion_lon": 0.0, "rental_uris": {"ios": "https://dc.lft.to/lastmile_qr_scan", "android": "https://dc.lft.to/lastmile_qr_scan"}, "is_disabled": 0, "is_reserved": 0, "name": "aa0daa994a640e7951c9ff1ff5b170bf", "type": "electric_scooter", "fusion_lat": 0.0}, {"bike_id": "aa5ea0e080b32e53833c77576c5b90eb", "lon": -77.02843933333334, "lat": 38.88745466666667, "fusion_lon": 0.0, "rental_uris": {"ios": "https://dc.lft.to/lastmile_qr_scan", "android": "https://dc.lft.to/lastmile_qr_scan"}, "is_disabled": 0, "is_reserved": 0, "name": "aa5ea0e080b32e53833c77576c5b90eb", "type": "electric_scooter", "fusion_lat": 0.0}, {"bike_id": "bd4fed60b60669e579934bf340f379ce", "lon": -76.95747016666667, "lat": 38.8846145, "fusion_lon": 0.0, "rental_uris": {"ios": "https://dc.lft.to/lastmile_qr_scan", "android": "https://dc.lft.to/lastmile_qr_scan"}, "is_disabled": 0, "is_reserved": 0, "name": "bd4fed60b60669e579934bf340f379ce", "type": "electric_scooter", "fusion_lat": 0.0}, {"bike_id": "83833083ff4df16462fd5e29949d11c9", "lon": -77.02708316666667, "lat": 38.909097833333334, "fusion_lon": 0.0, "rental_uris": {"ios": "https://dc.lft.to/lastmile_qr_scan", "android": "https://dc.lft.to/lastmile_qr_scan"}, "is_disabled": 0, "is_reserved": 0, "name": "83833083ff4df16462fd5e29949d11c9", "type": "electric_scooter", "fusion_lat": 0.0}, {"bike_id": "5438a50642d01c4099d07557a15891d4", "lon": -77.04200533333334, "lat": 38.906474833333334, "fusion_lon": 0.0, "rental_uris": {"ios": "https://dc.lft.to/lastmile_qr_scan", "android": "https://dc.lft.to/lastmile_qr_scan"}, "is_disabled": 0, "is_reserved": 0, "name": "5438a50642d01c4099d07557a15891d4", "type": "electric_bike", "fusion_lat": 0.0}, {"bike_id": "b679110cf3b344092d84fb2323eb7e7d", "lon": -77.05012983333333, "lat": 38.893099, "fusion_lon": 0.0, "rental_uris": {"ios": "https://dc.lft.to/lastmile_qr_scan", "android": "https://dc.lft.to/lastmile_qr_scan"}, "is_disabled": 0, "is_reserved": 0, "name": "b679110cf3b344092d84fb2323eb7e7d", "type": "electric_scooter", "fusion_lat": 0.0}, {"bike_id": "b2669944bf9e66477416d3130bf93751", "lon": -77.00570316666666, "lat": 38.871994666666666, "fusion_lon": 0.0, "rental_uris": {"ios": "https://dc.lft.to/lastmile_qr_scan", "android": "https://dc.lft.to/lastmile_qr_scan"}, "is_disabled": 0, "is_reserved": 0, "name": "b2669944bf9e66477416d3130bf93751", "type": "electric_scooter", "fusion_lat": 0.0}, {"bike_id": "93882572ead5d616ebaf914ca3aeeb25", "lon": -77.00120766666667, "lat": 38.907646, "fusion_lon": 0.0, "rental_uris": {"ios": "https://dc.lft.to/lastmile_qr_scan", "android": "https://dc.lft.to/lastmile_qr_scan"}, "is_disabled": 0, "is_reserved": 0, "name": "93882572ead5d616ebaf914ca3aeeb25", "type": "electric_scooter", "fusion_lat": 0.0}, {"bike_id": "0f8ddee3e2d6be487caa076f25ab16f8", "lon": -77.02089633333334, "lat": 38.9452315, "fusion_lon": 0.0, "rental_uris": {"ios": "https://dc.lft.to/lastmile_qr_scan", "android": "https://dc.lft.to/lastmile_qr_scan"}, "is_disabled": 0, "is_reserved": 0, "name": "0f8ddee3e2d6be487caa076f25ab16f8", "type": "electric_scooter", "fusion_lat": 0.0}, {"bike_id": "98a869cdc915befe192b2e526e93a110", "lon": -77.04153916666667, "lat": 38.9183785, "fusion_lon": 0.0, "rental_uris": {"ios": "https://dc.lft.to/lastmile_qr_scan", "android": "https://dc.lft.to/lastmile_qr_scan"}, "is_disabled": 0, "is_reserved": 0, "name": "98a869cdc915befe192b2e526e93a110", "type": "electric_scooter", "fusion_lat": 0.0}, {"bike_id": "aade00e7f546f48f968c65ffa5aa4374", "lon": -77.0413015, "lat": 38.92128966666667, "fusion_lon": 0.0, "rental_uris": {"ios": "https://dc.lft.to/lastmile_qr_scan", "android": "https://dc.lft.to/lastmile_qr_scan"}, "is_disabled": 0, "is_reserved": 0, "name": "aade00e7f546f48f968c65ffa5aa4374", "type": "electric_scooter", "fusion_lat": 0.0}, {"bike_id": "636b5580d0306910ab10352c792f7624", "lon": -76.93109316666667, "lat": 38.889916, "fusion_lon": 0.0, "rental_uris": {"ios": "https://dc.lft.to/lastmile_qr_scan", "android": "https://dc.lft.to/lastmile_qr_scan"}, "is_disabled": 0, "is_reserved": 0, "name": "636b5580d0306910ab10352c792f7624", "type": "electric_scooter", "fusion_lat": 0.0}, {"bike_id": "db791f6841099ac06947ea5b699b5f5a", "lon": -77.00645916666667, "lat": 38.94908516666667, "fusion_lon": 0.0, "rental_uris": {"ios": "https://dc.lft.to/lastmile_qr_scan", "android": "https://dc.lft.to/lastmile_qr_scan"}, "is_disabled": 0, "is_reserved": 0, "name": "db791f6841099ac06947ea5b699b5f5a", "type": "electric_scooter", "fusion_lat": 0.0}, {"bike_id": "ca8d8038031229b74eb56f05dfc7636a", "lon": -77.06058233333333, "lat": 38.93893383333333, "fusion_lon": 0.0, "rental_uris": {"ios": "https://dc.lft.to/lastmile_qr_scan", "android": "https://dc.lft.to/lastmile_qr_scan"}, "is_disabled": 0, "is_reserved": 0, "name": "ca8d8038031229b74eb56f05dfc7636a", "type": "electric_scooter", "fusion_lat": 0.0}, {"bike_id": "80d84f4ad317ec48628420aea98e14cb", "lon": -77.0591305, "lat": 38.90141366666667, "fusion_lon": 0.0, "rental_uris": {"ios": "https://dc.lft.to/lastmile_qr_scan", "android": "https://dc.lft.to/lastmile_qr_scan"}, "is_disabled": 0, "is_reserved": 0, "name": "80d84f4ad317ec48628420aea98e14cb", "type": "electric_scooter", "fusion_lat": 0.0}, {"bike_id": "2352c1c366d90dc5a89c145c4ba2c79a", "lon": -77.0381215, "lat": 38.92549183333333, "fusion_lon": 0.0, "rental_uris": {"ios": "https://dc.lft.to/lastmile_qr_scan", "android": "https://dc.lft.to/lastmile_qr_scan"}, "is_disabled": 0, "is_reserved": 0, "name": "2352c1c366d90dc5a89c145c4ba2c79a", "type": "electric_scooter", "fusion_lat": 0.0}, {"bike_id": "f15cc70ead9e8dd671a8f64eb8e6f081", "lon": -77.0437785, "lat": 38.892234333333334, "fusion_lon": 0.0, "rental_uris": {"ios": "https://dc.lft.to/lastmile_qr_scan", "android": "https://dc.lft.to/lastmile_qr_scan"},