{"data": {"bikes": [{"is_disabled": 0, "rental_uris": {"android": "https://dc.lft.to/lastmile_qr_scan", "ios": "https://dc.lft.to/lastmile_qr_scan"}, "is_reserved": 0, "name": "4bd2fddfc57c8b3b0a5c8f98e6071f7b", "lon": -77.04172816666667, "type": "electric_scooter", "bike_id": "4bd2fddfc57c8b3b0a5c8f98e6071f7b", "fusion_lon": 0.0, "lat": 38.912756333333334, "fusion_lat": 0.0}, {"is_disabled": 0, "rental_uris": {"android": "https://dc.lft.to/lastmile_qr_scan", "ios": "https://dc.lft.to/lastmile_qr_scan"}, "is_reserved": 0, "name": "fa220df2ce6fa674c0d59c3b73e27858", "lon": -77.04677183333334, "type": "electric_scooter", "bike_id": "fa220df2ce6fa674c0d59c3b73e27858", "fusion_lon": 0.0, "lat": 38.90742316666667, "fusion_lat": 0.0}, {"is_disabled": 0, "rental_uris": {"android": "https://dc.lft.to/lastmile_qr_scan", "ios": "https://dc.lft.to/lastmile_qr_scan"}, "is_reserved": 0, "name": "73b295392b47a34cecd6af35167f8dea", "lon": -77.01706483333334, "type": "electric_scooter", "bike_id": "73b295392b47a34cecd6af35167f8dea", "fusion_lon": 0.0, "lat": 38.90522833333333, "fusion_lat": 0.0}, {"is_disabled": 0, "rental_uris": {"android": "https://dc.lft.to/lastmile_qr_scan", "ios": "https://dc.lft.to/lastmile_qr_scan"}, "is_reserved": 0, "name": "e59b5dc9ca5795161e6443da1206f194", "lon": -77.060761, "type": "electric_scooter", "bike_id": "e59b5dc9ca5795161e6443da1206f194", "fusion_lon": 0.0, "lat": 38.94370216666667, "fusion_lat": 0.0}, {"is_disabled": 0, "rental_uris": {"android": "https://dc.lft.to/lastmile_qr_scan", "ios": "https://dc.lft.to/lastmile_qr_scan"}, "is_reserved": 0, "name": "fb903b9d90f02f7a442ffa3900bd2d45", "lon": -77.0345405, "type": "electric_scooter", "bike_id": "fb903b9d90f02f7a442ffa3900bd2d45", "fusion_lon": 0.0, "lat": 38.93427583333333, "fusion_lat": 0.0}, {"is_disabled": 0, "rental_uris": {"android": "https://dc.lft.to/lastmile_qr_scan", "ios": "https://dc.lft.to/lastmile_qr_scan"}, "is_reserved": 0, "name": "bd025fcf90bc02cb70a739c43caf5bb0", "lon": -77.0179525, "type": "electric_scooter", "bike_id": "bd025fcf90bc02cb70a739c43caf5bb0", "fusion_lon": 0.0, "lat": 38.91908466666667, "fusion_lat": 0.0}, {"is_disabled": 0, "rental_uris": {"android": "https://dc.lft.to/lastmile_qr_scan", "ios": "https://dc.lft.to/lastmile_qr_scan"}, "is_reserved": 0, "name": "8f2d4177ee8281f30adc7b2f88d29428", "lon": -76.99882883333333, "type": "electric_scooter", "bike_id": "8f2d4177ee8281f30adc7b2f88d29428", "fusion_lon": 0.0, "lat": 38.889747166666666, "fusion_lat": 0.0}, {"is_disabled": 0, "rental_uris": {"android": "https://dc.lft.to/lastmile_qr_scan", "ios": "https://dc.lft.to/lastmile_qr_scan"}, "is_reserved": 0, "name": "c4cf899a6db74bad976df595ec37b81a", "lon": -77.033588, "type": "electric_scooter", "bike_id": "c4cf899a6db74bad976df595ec37b81a", "fusion_lon": 0.0, "lat": 38.93785333333334, "fusion_lat": 0.0}, {"is_disabled": 0, "rental_uris": {"android": "https://dc.lft.to/lastmile_qr_scan", "ios": "https://dc.lft.to/lastmile_qr_scan"}, "is_reserved": 0, "name": "bb0fd7ffdc55a01bcf97010741c6f05c", "lon": -77.046956, "type": "electric_scooter", "bike_id": "bb0fd7ffdc55a01bcf97010741c6f05c", "fusion_lon": 0.0, "lat": 38.91587833333333, "fusion_lat": 0.0}, {"is_disabled": 0, "rental_uris": {"android": "https://dc.lft.to/lastmile_qr_scan", "ios": "https://dc.lft.to/lastmile_qr_scan"}, "is_reserved": 0, "name": "c2dfd49b28ae42c63f096b544e85bb6f", "lon": -77.0552045, "type": "electric_scooter", "bike_id": "c2dfd49b28ae42c63f096b544e85bb6f", "fusion_lon": 0.0, "lat": 38.92160766666667, "fusion_lat": 0.0}, {"is_disabled": 0, "rental_uris": {"android": "https://dc.lft.to/lastmile_qr_scan", "ios": "https://dc.lft.to/lastmile_qr_scan"}, "is_reserved": 0, "name": "27f93fc81e91bc090815c379008e2dbb", "lon": -77.0294975, "type": "electric_scooter", "bike_id": "27f93fc81e91bc090815c379008e2dbb", "fusion_lon": 0.0, "lat": 38.917687666666666, "fusion_lat": 0.0}, {"is_disabled": 0, "rental_uris": {"android": "https://dc.lft.to/lastmile_qr_scan", "ios": "https://dc.lft.to/lastmile_qr_scan"}, "is_reserved": 0, "name": "491f9ba67ce5452d6671aca1af4ca84f", "lon": -77.0321175, "type": "electric_scooter", "bike_id": "491f9ba67ce5452d6671aca1af4ca84f", "fusion_lon": 0.0, "lat": 38.925786333333335, "fusion_lat": 0.0}, {"is_disabled": 0, "rental_uris": {"android": "https://dc.lft.to/lastmile_qr_scan", "ios": "https://dc.lft.to/lastmile_qr_scan"}, "is_reserved": 0, "name": "4fae676e8ed59a2bacbb98d3a901fb0c", "lon": -76.99571416666667, "type": "electric_bike", "bike_id": "4fae676e8ed59a2bacbb98d3a901fb0c", "fusion_lon": 0.0, "lat": 39.00781533333333, "fusion_lat": 0.0}, {"is_disabled": 0, "rental_uris": {"android": "https://dc.lft.to/lastmile_qr_scan", "ios": "https://dc.lft.to/lastmile_qr_scan"}, "is_reserved": 0, "name": "5249f4d0e45089551f0b225aa6ed9fc0", "lon": -77.03776683333334, "type": "electric_bike", "bike_id": "5249f4d0e45089551f0b225aa6ed9fc0", "fusion_lon": 0.0, "lat": 38.929433, "fusion_lat": 0.0}, {"is_disabled": 0, "rental_uris": {"android": "https://dc.lft.to/lastmile_qr_scan", "ios": "https://dc.lft.to/lastmile_qr_scan"}, "is_reserved": 0, "name": "41d269f6a213cf33bb4a81065036e569", "lon": -77.04021516666667, "type": "electric_scooter", "bike_id": "41d269f6a213cf33bb4a81065036e569", "fusion_lon": 0.0, "lat": 38.9170665, "fusion_lat": 0.0}, {"is_disabled": 0, "rental_uris": {"android": "https://dc.lft.to/lastmile_qr_scan", "ios": "https://dc.lft.to/lastmile_qr_scan"}, "is_reserved": 0, "name": "46483e887af2399c0977a7fe24bae52c", "lon": -77.04533566666667, "type": "electric_scooter", "bike_id": "46483e887af2399c0977a7fe24bae52c", "fusion_lon": 0.0, "lat": 38.90651616666667, "fusion_lat": 0.0}, {"is_disabled": 0, "rental_uris": {"android": "https://dc.lft.to/lastmile_qr_scan", "ios": "https://dc.lft.to/lastmile_qr_scan"}, "is_reserved": 0, "name": "ba73e981499778f1ddebce4da2d618e2", "lon": -77.0215425, "type": "electric_scooter", "bike_id": "ba73e981499778f1ddebce4da2d618e2", "fusion_lon": 0.0, "lat": 38.926046666666664, "fusion_lat": 0.0}, {"is_disabled": 0, "rental_uris": {"android": "https://dc.lft.to/lastmile_qr_scan", "ios": "https://dc.lft.to/lastmile_qr_scan"}, "is_reserved": 0, "name": "95cffba3084f6cb56ed9a9bce0d6d4e3", "lon": -77.02232433333333, "type": "electric_scooter", "bike_id": "95cffba3084f6cb56ed9a9bce0d6d4e3", "fusion_lon": 0.0, "lat": 38.9055995, "fusion_lat": 0.0}, {"is_disabled": 0, "rental_uris": {"android": "https://dc.lft.to/lastmile_qr_scan", "ios": "https://dc.lft.to/lastmile_qr_scan"}, "is_reserved": 0, "name": "30f093d0cb6fa45aa07cf27bf16bc806", "lon": -77.0226745, "type": "electric_scooter", "bike_id": "30f093d0cb6fa45aa07cf27bf16bc806", "fusion_lon": 0.0, "lat": 38.927377, "fusion_lat": 0.0}, {"is_disabled": 0, "rental_uris": {"android": "https://dc.lft.to/lastmile_qr_scan", "ios": "https://dc.lft.to/lastmile_qr_scan"}, "is_reserved": 0, "name": "88300d7eaf962e2e39052f9fa567cddf", "lon": -76.98717583333334, "type": "electric_scooter", "bike_id": "88300d7eaf962e2e39052f9fa567cddf", "fusion_lon": 0.0, "lat": 38.867021, "fusion_lat": 0.0}, {"is_disabled": 0, "rental_uris": {"android": "https://dc.lft.to/lastmile_qr_scan", "ios": "https://dc.lft.to/lastmile_qr_scan"}, "is_reserved": 0, "name": "85ec47c6ec4630a328562dd05cf0f8b4", "lon": -76.988713, "type": "electric_scooter", "bike_id": "85ec47c6ec4630a328562dd05cf0f8b4", "fusion_lon": 0.0, "lat": 38.892074, "fusion_lat": 0.0}, {"is_disabled": 0, "rental_uris": {"android": "https://dc.lft.to/lastmile_qr_scan", "ios": "https://dc.lft.to/lastmile_qr_scan"}, "is_reserved": 0, "name": "4d6062a59a32688aff2b38ad39df5309", "lon": -77.0264525, "type": "electric_scooter", "bike_id": "4d6062a59a32688aff2b38ad39df5309", "fusion_lon": 0.0, "lat": 38.8960425, "fusion_lat": 0.0}, {"is_disabled": 0, "rental_uris": {"android": "https://dc.lft.to/lastmile_qr_scan", "ios": "https://dc.lft.to/lastmile_qr_scan"}, "is_reserved": 0, "name": "e8eb5cc3d71d8521f769bc0d4307eec8", "lon": -76.9995545, "type": "electric_scooter", "bike_id": "e8eb5cc3d71d8521f769bc0d4307eec8", "fusion_lon": 0.0, "lat": 38.84289733333333, "fusion_lat": 0.0}, {"is_disabled": 0, "rental_uris": {"android": "https://dc.lft.to/lastmile_qr_scan", "ios": "https://dc.lft.to/lastmile_qr_scan"}, "is_reserved": 0, "name": "007dcaea5cef4b9502d57ba14fdb0240", "lon": -77.0438365, "type": "electric_scooter", "bike_id": "007dcaea5cef4b9502d57ba14fdb0240", "fusion_lon": 0.0, "lat": 38.905781833333336, "fusion_lat": 0.0}, {"is_disabled": 0, "rental_uris": {"android": "https://dc.lft.to/lastmile_qr_scan", "ios": "https://dc.lft.to/lastmile_qr_scan"}, "is_reserved": 0, "name": "53581b251391329f546d5d825e921af3", "lon": -77.024969, "type": "electric_scooter", "bike_id": "53581b251391329f546d5d825e921af3", "fusion_lon": 0.0, "lat": 38.90572366666667, "fusion_lat": 0.0}, {"is_disabled": 0, "rental_uris": {"android": "https://dc.lft.to/lastmile_qr_scan", "ios": "https://dc.lft.to/lastmile_qr_scan"}, "is_reserved": 0, "name": "871c40f773adf2360c2ab2f83415fe89", "lon": -77.02611483333334, "type": "electric_scooter", "bike_id": "871c40f773adf2360c2ab2f83415fe89", "fusion_lon": 0.0, "lat": 38.904302333333334, "fusion_lat": 0.0}, {"is_disabled": 0, "rental_uris": {"android": "https://dc.lft.to/lastmile_qr_scan", "ios": "https://dc.lft.to/lastmile_qr_scan"}, "is_reserved": 0, "name": "5c772aa1134f7525db27aea529a7b727", "lon": -76.94785516666667, "type": "electric_scooter", "bike_id": "5c772aa1134f7525db27aea529a7b727", "fusion_lon": 0.0, "lat": 38.8846195, "fusion_lat": 0.0}, {"is_disabled": 0, "rental_uris": {"android": "https://dc.lft.to/lastmile_qr_scan", "ios": "https://dc.lft.to/lastmile_qr_scan"}, "is_reserved": 0, "name": "6d582e44ca905c71ae7915d85184b8fb", "lon": -76.9823745, "type": "electric_scooter", "bike_id": "6d582e44ca905c71ae7915d85184b8fb", "fusion_lon": 0.0, "lat": 38.8646865, "fusion_lat": 0.0}, {"is_disabled": 0, "rental_uris": {"android": "https://dc.lft.to/lastmile_qr_scan", "ios": "https://dc.lft.to/lastmile_qr_scan"}, "is_reserved": 0, "name": "52d2ea5f7137683784ed055a76759c7a", "lon": -77.00674966666666, "type": "electric_scooter", "bike_id": "52d2ea5f7137683784ed055a76759c7a", "fusion_lon": 0.0, "lat": 38.89981566666667, "fusion_lat": 0.0}, {"is_disabled": 0, "rental_uris": {"android": "https://dc.lft.to/lastmile_qr_scan", "ios": "https://dc.lft.to/lastmile_qr_scan"}, "is_reserved": 0, "name": "54152707ec83ecbcf5693a8364223640", "lon": -77.05942816666666, "type": "electric_scooter", "bike_id": "54152707ec83ecbcf5693a8364223640", "fusion_lon": 0.0, "lat": 38.9367335, "fusion_lat": 0.0}, {"is_disabled": 0, "rental_uris": {"android": "https://dc.lft.to/lastmile_qr_scan", "ios": "https://dc.lft.to/lastmile_qr_scan"}, "is_reserved": 0, "name": "8b4ed46c9f4bc36c4550b4ce43a0aa80", "lon": -76.94897233333333, "type": "electric_scooter", "bike_id": "8b4ed46c9f4bc36c4550b4ce43a0aa80", "fusion_lon": 0.0, "lat": 38.89527483333333, "fusion_lat": 0.0}, {"is_disabled": 0, "rental_uris": {"android": "https://dc.lft.to/lastmile_qr_scan", "ios": "https://dc.lft.to/lastmile_qr_scan"}, "is_reserved": 0, "name": "7ab57aad53b3f8eaa6b1b918efc0a661", "lon": -77.04734633333334, "type": "electric_scooter", "bike_id": "7ab57aad53b3f8eaa6b1b918efc0a661", "fusion_lon": 0.0, "lat": 38.90855783333333, "fusion_lat": 0.0}, {"is_disabled": 0, "rental_uris": {"android": "https://dc.lft.to/lastmile_qr_scan", "ios": "https://dc.lft.to/lastmile_qr_scan"}, "is_reserved": 0, "name": "82a72f842787f96dd413f26aba7d0df2", "lon": -76.951975, "type": "electric_bike", "bike_id": "82a72f842787f96dd413f26aba7d0df2", "fusion_lon": 0.0, "lat": 38.906827, "fusion_lat": 0.0}, {"is_disabled": 0, "rental_uris": {"android": "https://dc.lft.to/lastmile_qr_scan", "ios": "https://dc.lft.to/lastmile_qr_scan"}, "is_reserved": 0, "name": "11319439e486a7c33f12f705b82e4faf", "lon": -77.03445583333334, "type": "electric_scooter", "bike_id": "11319439e486a7c33f12f705b82e4faf", "fusion_lon": 0.0, "lat": 38.908132, "fusion_lat": 0.0}, {"is_disabled": 0, "rental_uris": {"android": "https://dc.lft.to/lastmile_qr_scan", "ios": "https://dc.lft.to/lastmile_qr_scan"}, "is_reserved": 0, "name": "d74a98b8c8c44111661a322f9d614592", "lon": -76.98387866666667, "type": "electric_scooter", "bike_id": "d74a98b8c8c44111661a322f9d614592", "fusion_lon": 0.0, "lat": 38.90651183333333, "fusion_lat": 0.0}, {"is_disabled": 0, "rental_uris": {"android": "https://dc.lft.to/lastmile_qr_scan", "ios": "https://dc.lft.to/lastmile_qr_scan"}, "is_reserved": 0, "name": "87c57814c43a313ba81857ecc3c6c734", "lon": -77.04273883333333, "type": "electric_scooter", "bike_id": "87c57814c43a313ba81857ecc3c6c734", "fusion_lon": 0.0, "lat": 38.93416116666667, "fusion_lat": 0.0}, {"is_disabled": 0, "rental_uris": {"android": "https://dc.lft.to/lastmile_qr_scan", "ios": "https://dc.lft.to/lastmile_qr_scan"}, "is_reserved": 0, "name": "2f6e82df816c87cf72401fb93ac0f638", "lon": -76.99881133333334, "type": "electric_scooter", "bike_id": "2f6e82df816c87cf72401fb93ac0f638", "fusion_lon": 0.0, "lat": 38.8897675, "fusion_lat": 0.0}, {"is_disabled": 0, "rental_uris": {"android": "https://dc.lft.to/lastmile_qr_scan", "ios": "https://dc.lft.to/lastmile_qr_scan"}, "is_reserved": 0, "name": "08b9dfa385c9d8ccfa9c5c9a9b394efe", "lon": -77.02466083333333, "type": "electric_scooter", "bike_id": "08b9dfa385c9d8ccfa9c5c9a9b394efe", "fusion_lon": 0.0, "lat": 38.937115666666664, "fusion_lat": 0.0}, {"is_disabled": 0, "rental_uris": {"android": "https://dc.lft.to/lastmile_qr_scan", "ios": "https://dc.lft.to/lastmile_qr_scan"}, "is_reserved": 0, "name": "2529ea5ad893a4576bc49b961112ab3f", "lon": -77.01408666666667, "type": "electric_scooter", "bike_id": "2529ea5ad893a4576bc49b961112ab3f", "fusion_lon": 0.0, "lat": 38.876606833333334, "fusion_lat": 0.0}, {"is_disabled": 0, "rental_uris": {"android": "https://dc.lft.to/lastmile_qr_scan", "ios": "https://dc.lft.to/lastmile_qr_scan"}, "is_reserved": 0, "name": "cb602b132d505bb335182cb4a79a1126", "lon": -76.95018366666666, "type": "electric_scooter", "bike_id": "cb602b132d505bb335182cb4a79a1126", "fusion_lon": 0.0, "lat": 38.883915, "fusion_lat": 0.0}, {"is_disabled": 0, "rental_uris": {"android": "https://dc.lft.to/lastmile_qr_scan", "ios": "https://dc.lft.to/lastmile_qr_scan"}, "is_reserved": 0, "name": "81346ec3b0e5b448c3d5875e0de6a86e", "lon": -77.054383, "type": "electric_scooter", "bike_id": "81346ec3b0e5b448c3d5875e0de6a86e", "fusion_lon": 0.0, "lat": 38.89603833333334, "fusion_lat": 0.0}, {"is_disabled": 0, "rental_uris": {"android": "https://dc.lft.to/lastmile_qr_scan", "ios": "https://dc.lft.to/lastmile_qr_scan"}, "is_reserved": 0, "name": "37e75fcb87f0ae03bd492e4ae2c38333", "lon": -77.03659316666666, "type": "electric_scooter", "bike_id": "37e75fcb87f0ae03bd492e4ae2c38333", "fusion_lon": 0.0, "lat": 38.91244, "fusion_lat": 0.0}, {"is_disabled": 0, "rental_uris": {"android": "https://dc.lft.to/lastmile_qr_scan", "ios": "https://dc.lft.to/lastmile_qr_scan"}, "is_reserved": 0, "name": "8d26ad701b00e4f5343b79c2fda26a2e", "lon": -77.10442216666667, "type": "electric_bike", "bike_id": "8d26ad701b00e4f5343b79c2fda26a2e", "fusion_lon": 0.0, "lat": 39.0286535, "fusion_lat": 0.0}, {"is_disabled": 0, "rental_uris": {"android": "https://dc.lft.to/lastmile_qr_scan", "ios": "https://dc.lft.to/lastmile_qr_scan"}, "is_reserved": 0, "name": "f2bd9131dd84ae70a9ca74ece04d1f71", "lon": -77.0463465, "type": "electric_scooter", "bike_id": "f2bd9131dd84ae70a9ca74ece04d1f71", "fusion_lon": 0.0, "lat": 38.905375166666666, "fusion_lat": 0.0}, {"is_disabled": 0, "rental_uris": {"android": "https://dc.lft.to/lastmile_qr_scan", "ios": "https://dc.lft.to/lastmile_qr_scan"}, "is_reserved": 0, "name": "8a810f60c652c5d9c9175532b1c85bb3", "lon": -76.97517516666667, "type": "electric_bike", "bike_id": "8a810f60c652c5d9c9175532b1c85bb3", "fusion_lon": 0.0, "lat": 38.90312083333333, "fusion_lat": 0.0}, {"is_disabled": 0, "rental_uris": {"android": "https://dc.lft.to/lastmile_qr_scan", "ios": "https://dc.lft.to/lastmile_qr_scan"}, "is_reserved": 0, "name": "9508b949f972d36e76472e5dffd69139", "lon": -77.00861616666667, "type": "electric_scooter", "bike_id": "9508b949f972d36e76472e5dffd69139", "fusion_lon": 0.0, "lat": 38.906425166666665, "fusion_lat": 0.0}, {"is_disabled": 0, "rental_uris": {"android": "https://dc.lft.to/lastmile_qr_scan", "ios": "https://dc.lft.to/lastmile_qr_scan"}, "is_reserved": 0, "name": "4fe80bf9e8758e709b8a63d2de441e8e", "lon": -76.94827883333333, "type": "electric_scooter", "bike_id": "4fe80bf9e8758e709b8a63d2de441e8e", "fusion_lon": 0.0, "lat": 38.88515566666667, "fusion_lat": 0.0}, {"is_disabled": 0, "rental_uris": {"android": "https://dc.lft.to/lastmile_qr_scan", "ios": "https://dc.lft.to/lastmile_qr_scan"}, "is_reserved": 0, "name": "d870fefe9a1a5dc9faf7136447c5be03", "lon": -77.03633983333333, "type": "electric_scooter", "bike_id": "d870fefe9a1a5dc9faf7136447c5be03", "fusion_lon": 0.0, "lat": 38.91035083333333, "fusion_lat": 0.0}, {"is_disabled": 0, "rental_uris": {"android": "https://dc.lft.to/lastmile_qr_scan", "ios": "https://dc.lft.to/lastmile_qr_scan"}, "is_reserved": 0, "name": "0173ab96e19ba8bb6fe4eeb7ab80fa0c", "lon": -77.03863233333334, "type": "electric_scooter", "bike_id": "0173ab96e19ba8bb6fe4eeb7ab80fa0c", "fusion_lon": 0.0, "lat": 38.915606333333336, "fusion_lat": 0.0}, {"is_disabled": 0, "rental_uris": {"android": "https://dc.lft.to/lastmile_qr_scan", "ios": "https://dc.lft.to/lastmile_qr_scan"}, "is_reserved": 0, "name": "8493455a7b0ceb4b75601528377a30f3", "lon": -77.02002516666667, "type": "electric_scooter", "bike_id": "8493455a7b0ceb4b75601528377a30f3", "fusion_lon": 0.0, "lat": 38.9158315, "fusion_lat": 0.0}, {"is_disabled": 0, "rental_uris": {"android": "https://dc.lft.to/lastmile_qr_scan", "ios": "https://dc.lft.to/lastmile_qr_scan"}, "is_reserved": 0, "name": "cd480fe6396a1654072956940e704920", "lon": -76.97882633333333, "type": "electric_scooter", "bike_id": "cd480fe6396a1654072956940e704920", "fusion_lon": 0.0, "lat": 38.92714433333333, "fusion_lat": 0.0}, {"is_disabled": 0, "rental_uris": {"android": "https://dc.lft.to/lastmile_qr_scan", "ios": "https://dc.lft.to/lastmile_qr_scan"}, "is_reserved": 0, "name": "5b9ea3e55035be235bfce96ca39b243f", "lon": -77.012271, "type": "electric_scooter", "bike_id": "5b9ea3e55035be235bfce96ca39b243f", "fusion_lon": 0.0, "lat": 38.88583633333333, "fusion_lat": 0.0}, {"is_disabled": 0, "rental_uris": {"android": "https://dc.lft.to/lastmile_qr_scan", "ios": "https://dc.lft.to/lastmile_qr_scan"}, "is_reserved": 0, "name": "bc940b932923ea459b02b757f0a93e25", "lon": -77.03287633333333, "type": "electric_scooter", "bike_id": "bc940b932923ea459b02b757f0a93e25", "fusion_lon": 0.0, "lat": 38.898392, "fusion_lat": 0.0}, {"is_disabled": 0, "rental_uris": {"android": "https://dc.lft.to/lastmile_qr_scan", "ios": "https://dc.lft.to/lastmile_qr_scan"}, "is_reserved": 0, "name": "a8c0fda002a81a701b6173718b20049f", "lon": -77.02347083333333, "type": "electric_scooter", "bike_id": "a8c0fda002a81a701b6173718b20049f", "fusion_lon": 0.0, "lat": 38.915913833333335, "fusion_lat": 0.0}, {"is_disabled": 0, "rental_uris": {"android": "https://dc.lft.to/lastmile_qr_scan", "ios": "https://dc.lft.to/lastmile_qr_scan"}, "is_reserved": 0, "name": "ec577e75d10398df09946d878e3f525d", "lon": -77.0230705, "type": "electric_scooter", "bike_id": "ec577e75d10398df09946d878e3f525d", "fusion_lon": 0.0, "lat": 38.916105, "fusion_lat": 0.0}, {"is_disabled": 0, "rental_uris": {"android": "https://dc.lft.to/lastmile_qr_scan", "ios": "https://dc.lft.to/lastmile_qr_scan"}, "is_reserved": 0, "name": "7f7df06d819fdc9c2f349a701b07cf25", "lon": -77.04568583333334, "type": "electric_scooter", "bike_id": "7f7df06d819fdc9c2f349a701b07cf25", "fusion_lon": 0.0, "lat": 38.917811666666665, "fusion_lat": 0.0}, {"is_disabled": 0, "rental_uris": {"android": "https://dc.lft.to/lastmile_qr_scan", "ios": "https://dc.lft.to/lastmile_qr_scan"}, "is_reserved": 0, "name": "79d19538636a3aabbd719c1de04ec08a", "lon": -77.02428083333334, "type": "electric_scooter", "bike_id": "79d19538636a3aabbd719c1de04ec08a", "fusion_lon": 0.0, "lat": 38.9124865, "fusion_lat": 0.0}, {"is_disabled": 0, "rental_uris": {"android": "https://dc.lft.to/lastmile_qr_scan", "ios": "https://dc.lft.to/lastmile_qr_scan"}, "is_reserved": 0, "name": "e70cce700d0048628f42f7bb4f64d5b7", "lon": -77.03143233333333, "type": "electric_scooter", "bike_id": "e70cce700d0048628f42f7bb4f64d5b7", "fusion_lon": 0.0, "lat": 38.887465, "fusion_lat": 0.0}, {"is_disabled": 0, "rental_uris": {"android": "https://dc.lft.to/lastmile_qr_scan", "ios": "https://dc.lft.to/lastmile_qr_scan"}, "is_reserved": 0, "name": "e80d2a2d5d6f38a931526d56e2424a8e", "lon": -77.0272095, "type": "electric_scooter", "bike_id": "e80d2a2d5d6f38a931526d56e2424a8e", "fusion_lon": 0.0, "lat": 38.908583166666666, "fusion_lat": 0.0}, {"is_disabled": 0, "rental_uris": {"android": "https://dc.lft.to/lastmile_qr_scan", "ios": "https://dc.lft.to/lastmile_qr_scan"}, "is_reserved": 0, "name": "9daf734a696b9993f87e356e25715d63", "lon": -77.0021845, "type": "electric_scooter", "bike_id": "9daf734a696b9993f87e356e25715d63", "fusion_lon": 0.0, "lat": 38.900293, "fusion_lat": 0.0}, {"is_disabled": 0, "rental_uris": {"android": "https://dc.lft.to/lastmile_qr_scan", "ios": "https://dc.lft.to/lastmile_qr_scan"}, "is_reserved": 0, "name": "a081976dcb991d20d76be55178975685", "lon": -77.041684, "type": "electric_scooter", "bike_id": "a081976dcb991d20d76be55178975685", "fusion_lon": 0.0, "lat": 38.91499533333333, "fusion_lat": 0.0}, {"is_disabled": 0, "rental_uris": {"android": "https://dc.lft.to/lastmile_qr_scan", "ios": "https://dc.lft.to/lastmile_qr_scan"}, "is_reserved": 0, "name": "cea389d0e9b9c227d9962fa8531d50ac", "lon": -77.022687, "type": "electric_scooter", "bike_id": "cea389d0e9b9c227d9962fa8531d50ac", "fusion_lon": 0.0, "lat": 38.9127325, "fusion_lat": 0.0}, {"is_disabled": 0, "rental_uris": {"android": "https://dc.lft.to/lastmile_qr_scan", "ios": "https://dc.lft.to/lastmile_qr_scan"}, "is_reserved": 0, "name": "db961d829ac135788e2348c52665094d", "lon": -77.01115416666667, "type": "electric_scooter", "bike_id": "db961d829ac135788e2348c52665094d", "fusion_lon": 0.0, "lat": 38.903652, "fusion_lat": 0.0}, {"is_disabled": 0, "rental_uris": {"android": "https://dc.lft.to/lastmile_qr_scan", "ios": "https://dc.lft.to/lastmile_qr_scan"}, "is_reserved": 0, "name": "0e0aa2018f6ef20e8b60d6d33962f5c2", "lon": -77.08531166666667, "type": "electric_bike", "bike_id": "0e0aa2018f6ef20e8b60d6d33962f5c2", "fusion_lon": 0.0, "lat": 38.856480833333336, "fusion_lat": 0.0}, {"is_disabled": 0, "rental_uris": {"android": "https://dc.lft.to/lastmile_qr_scan", "ios": "https://dc.lft.to/lastmile_qr_scan"}, "is_reserved": 0, "name": "e56bfea3c121cea3dafbfad39878799d", "lon": -77.0117715, "type": "electric_scooter", "bike_id": "e56bfea3c121cea3dafbfad39878799d", "fusion_lon": 0.0, "lat": 38.868095, "fusion_lat": 0.0}, {"is_disabled": 0, "rental_uris": {"android": "https://dc.lft.to/lastmile_qr_scan", "ios": "https://dc.lft.to/lastmile_qr_scan"}, "is_reserved": 0, "name": "f58fcaca96c96aba95fa1c5a08435824", "lon": -76.9888755, "type": "electric_scooter", "bike_id": "f58fcaca96c96aba95fa1c5a08435824", "fusion_lon": 0.0, "lat": 38.86671, "fusion_lat": 0.0}, {"is_disabled": 0, "rental_uris": {"android": "https://dc.lft.to/lastmile_qr_scan", "ios": "https://dc.lft.to/lastmile_qr_scan"}, "is_reserved": 0, "name": "3b4c695a1ab912411e6ddb60b507c745", "lon": -77.03463983333333, "type": "electric_scooter", "bike_id": "3b4c695a1ab912411e6ddb60b507c745", "fusion_lon": 0.0, "lat": 38.91667066666667, "fusion_lat": 0.0}, {"is_disabled": 0, "rental_uris": {"android": "https://dc.lft.to/lastmile_qr_scan", "ios": "https://dc.lft.to/lastmile_qr_scan"}, "is_reserved": 0, "name": "42a16e331c51327c6850d7c49f26a313", "lon": -77.34409133333334, "type": "electric_bike", "bike_id": "42a16e331c51327c6850d7c49f26a313", "fusion_lon": 0.0, "lat": 38.94585333333333, "fusion_lat": 0.0}, {"is_disabled": 0, "rental_uris": {"android": "https://dc.lft.to/lastmile_qr_scan", "ios": "https://dc.lft.to/lastmile_qr_scan"}, "is_reserved": 0, "name": "776cdecae7333f318983c4c12ee08a43", "lon": -77.14329583333334, "type": "electric_bike", "bike_id": "776cdecae7333f318983c4c12ee08a43", "fusion_lon": 0.0, "lat": 39.05461416666667, "fusion_lat": 0.0}, {"is_disabled": 0, "rental_uris": {"android": "https://dc.lft.to/lastmile_qr_scan", "ios": "https://dc.lft.to/lastmile_qr_scan"}, "is_reserved": 0, "name": "0cebbe97ac55155ab814cf813496ded0", "lon": -77.03298216666667, "type": "electric_scooter", "bike_id": "0cebbe97ac55155ab814cf813496ded0", "fusion_lon": 0.0, "lat": 38.92749516666667, "fusion_lat": 0.0}, {"is_disabled": 0, "rental_uris": {"android": "https://dc.lft.to/lastmile_qr_scan", "ios": "https://dc.lft.to/lastmile_qr_scan"}, "is_reserved": 0, "name": "df79b4803141386665ef08a84fd08e4a", "lon": -76.94894116666667, "type": "electric_scooter", "bike_id": "df79b4803141386665ef08a84fd08e4a", "fusion_lon": 0.0, "lat": 38.8952875, "fusion_lat": 0.0}, {"is_disabled": 0, "rental_uris": {"android": "https://dc.lft.to/lastmile_qr_scan", "ios": "https://dc.lft.to/lastmile_qr_scan"}, "is_reserved": 0, "name": "7db97cde37ecc9a4c8cb96ed4a199b0d", "lon": -77.0619305, "type": "electric_scooter", "bike_id": "7db97cde37ecc9a4c8cb96ed4a199b0d", "fusion_lon": 0.0, "lat": 38.930139833333335, "fusion_lat": 0.0}, {"is_disabled": 0, "rental_uris": {"android": "https://dc.lft.to/lastmile_qr_scan", "ios": "https://dc.lft.to/lastmile_qr_scan"}, "is_reserved": 0, "name": "e2d71c8f9d47339f5c390a8fed3635fa", "lon": -77.0319395, "type": "electric_scooter", "bike_id": "e2d71c8f9d47339f5c390a8fed3635fa", "fusion_lon": 0.0, "lat": 38.9189645, "fusion_lat": 0.0}, {"is_disabled": 0, "rental_uris": {"android": "https://dc.lft.to/lastmile_qr_scan", "ios": "https://dc.lft.to/lastmile_qr_scan"}, "is_reserved": 0, "name": "3b08add26943f54eaa7d4db881022e56", "lon": -77.012265, "type": "electric_scooter", "bike_id": "3b08add26943f54eaa7d4db881022e56", "fusion_lon": 0.0, "lat": 38.915004, "fusion_lat": 0.0}, {"is_disabled": 0, "rental_uris": {"android": "https://dc.lft.to/lastmile_qr_scan", "ios": "https://dc.lft.to/lastmile_qr_scan"}, "is_reserved": 0, "name": "eaecf9ce4c5a6f2ef84e30b1a8572d9a", "lon": -77.01379466666667, "type": "electric_scooter", "bike_id": "eaecf9ce4c5a6f2ef84e30b1a8572d9a", "fusion_lon": 0.0, "lat": 38.9103635, "fusion_lat": 0.0}, {"is_disabled": 0, "rental_uris": {"android": "https://dc.lft.to/lastmile_qr_scan", "ios": "https://dc.lft.to/lastmile_qr_scan"}, "is_reserved": 0, "name": "d2b61fda59f3b500ea9559df57bba108", "lon": -77.02695183333333, "type": "electric_scooter", "bike_id": "d2b61fda59f3b500ea9559df57bba108", "fusion_lon": 0.0, "lat": 38.91833783333333, "fusion_lat": 0.0}, {"is_disabled": 0, "rental_uris": {"android": "https://dc.lft.to/lastmile_qr_scan", "ios": "https://dc.lft.to/lastmile_qr_scan"}, "is_reserved": 0, "name": "419eb257cfa39f654d8f371a18765fb1", "lon": -77.01237283333333, "type": "electric_scooter", "bike_id": "419eb257cfa39f654d8f371a18765fb1", "fusion_lon": 0.0, "lat": 38.87475583333333, "fusion_lat": 0.0}, {"is_disabled": 0, "rental_uris": {"android": "https://dc.lft.to/lastmile_qr_scan", "ios": "https://dc.lft.to/lastmile_qr_scan"}, "is_reserved": 0, "name": "c01827d7c8397996850879d7e3253dc0", "lon": -77.02217416666667, "type": "electric_scooter", "bike_id": "c01827d7c8397996850879d7e3253dc0", "fusion_lon": 0.0, "lat": 38.9155015, "fusion_lat": 0.0}, {"is_disabled": 0, "rental_uris": {"android": "https://dc.lft.to/lastmile_qr_scan", "ios": "https://dc.lft.to/lastmile_qr_scan"}, "is_reserved": 0, "name": "adc9fa07179c960643bee1932f6d28d5", "lon": -77.02385083333333, "type": "electric_scooter", "bike_id": "adc9fa07179c960643bee1932f6d28d5", "fusion_lon": 0.0, "lat": 38.920178166666666, "fusion_lat": 0.0}, {"is_disabled": 0, "rental_uris": {"android": "https://dc.lft.to/lastmile_qr_scan", "ios": "https://dc.lft.to/lastmile_qr_scan"}, "is_reserved": 0, "name": "5bca3c210461776b7409a895a2581fff", "lon": -77.0246645, "type": "electric_scooter", "bike_id": "5bca3c210461776b7409a895a2581fff", "fusion_lon": 0.0, "lat": 38.937741833333334, "fusion_lat": 0.0}, {"is_disabled": 0, "rental_uris": {"android": "https://dc.lft.to/lastmile_qr_scan", "ios": "https://dc.lft.to/lastmile_qr_scan"}, "is_reserved": 0, "name": "3c722d0c9db7ee8854358ce5dad512b0", "lon": -77.02719466666667, "type": "electric_scooter", "bike_id": "3c722d0c9db7ee8854358ce5dad512b0", "fusion_lon": 0.0, "lat": 38.919659333333335, "fusion_lat": 0.0}, {"is_disabled": 0, "rental_uris": {"android": "https://dc.lft.to/lastmile_qr_scan", "ios": "https://dc.lft.to/lastmile_qr_scan"}, "is_reserved": 0, "name": "9a2d6cc8e639cbe4f756fc44cef95842", "lon": -77.0280115, "type": "electric_scooter", "bike_id": "9a2d6cc8e639cbe4f756fc44cef95842", "fusion_lon": 0.0, "lat": 38.90394916666666, "fusion_lat": 0.0}, {"is_disabled": 0, "rental_uris": {"android": "https://dc.lft.to/lastmile_qr_scan", "ios": "https://dc.lft.to/lastmile_qr_scan"}, "is_reserved": 0, "name": "ac3f4e1c7a1b6787c8638a737be0a6c7", "lon": -76.94637433333334, "type": "electric_scooter", "bike_id": "ac3f4e1c7a1b6787c8638a737be0a6c7", "fusion_lon": 0.0, "lat": 38.898444, "fusion_lat": 0.0}, {"is_disabled": 0, "rental_uris": {"android": "https://dc.lft.to/lastmile_qr_scan", "ios": "https://dc.lft.to/lastmile_qr_scan"}, "is_reserved": 0, "name": "4bbd5d4ed0ce110e223067d9b1fc7357", "lon": -77.0344995, "type": "electric_scooter", "bike_id": "4bbd5d4ed0ce110e223067d9b1fc7357", "fusion_lon": 0.0, "lat": 38.9315935, "fusion_lat": 0.0}, {"is_disabled": 0, "rental_uris": {"android": "https://dc.lft.to/lastmile_qr_scan", "ios": "https://dc.lft.to/lastmile_qr_scan"}, "is_reserved": 0, "name": "3b476fc5556df066a52bdd357f5ad05c", "lon": -77.04619466666666, "type": "electric_scooter", "bike_id": "3b476fc5556df066a52bdd357f5ad05c", "fusion_lon": 0.0, "lat": 38.89969983333334, "fusion_lat": 0.0}, {"is_disabled": 0, "rental_uris": {"android": "https://dc.lft.to/lastmile_qr_scan", "ios": "https://dc.lft.to/lastmile_qr_scan"}, "is_reserved": 0, "name": "0845f30bd6d3ef91af0cad044c56e88a", "lon": -76.99536966666666, "type": "electric_scooter", "bike_id": "0845f30bd6d3ef91af0cad044c56e88a", "fusion_lon": 0.0, "lat": 38.86255883333333, "fusion_lat": 0.0}, {"is_disabled": 0, "rental_uris": {"android": "https://dc.lft.to/lastmile_qr_scan", "ios": "https://dc.lft.to/lastmile_qr_scan"}, "is_reserved": 0, "name": "e284d3051fff5822905e91abea8e9162", "lon": -77.0487525, "type": "electric_scooter", "bike_id": "e284d3051fff5822905e91abea8e9162", "fusion_lon": 0.0, "lat": 38.9095425, "fusion_lat": 0.0}, {"is_disabled": 0, "rental_uris": {"android": "https://dc.lft.to/lastmile_qr_scan", "ios": "https://dc.lft.to/lastmile_qr_scan"}, "is_reserved": 0, "name": "d24a72fc8dc5abdc78b638b15faa53ff", "lon": -77.041892, "type": "electric_scooter", "bike_id": "d24a72fc8dc5abdc78b638b15faa53ff", "fusion_lon": 0.0, "lat": 38.907965833333336, "fusion_lat": 0.0}, {"is_disabled": 0, "rental_uris": {"android": "https://dc.lft.to/lastmile_qr_scan", "ios": "https://dc.lft.to/lastmile_qr_scan"}, "is_reserved": 0, "name": "f932db97e6ad3389797db287717c0262", "lon": -77.1240515, "type": "electric_bike", "bike_id": "f932db97e6ad3389797db287717c0262", "fusion_lon": 0.0, "lat": 38.893356833333335, "fusion_lat": 0.0}, {"is_disabled": 0, "rental_uris": {"android": "https://dc.lft.to/lastmile_qr_scan", "ios": "https://dc.lft.to/lastmile_qr_scan"}, "is_reserved": 0, "name": "f2ee03802152de47ee648679a8762428", "lon": -77.02095683333333, "type": "electric_scooter", "bike_id": "f2ee03802152de47ee648679a8762428", "fusion_lon": 0.0, "lat": 38.93476916666667, "fusion_lat": 0.0}, {"is_disabled": 0, "rental_uris": {"android": "https://dc.lft.to/lastmile_qr_scan", "ios": "https://dc.lft.to/lastmile_qr_scan"}, "is_reserved": 0, "name": "d929da4a905f82c51bf737b3fe19d91a", "lon": -77.03414933333333, "type": "electric_scooter", "bike_id": "d929da4a905f82c51bf737b3fe19d91a", "fusion_lon": 0.0, "lat": 38.91927183333333, "fusion_lat": 0.0}, {"is_disabled": 0, "rental_uris": {"android": "https://dc.lft.to/lastmile_qr_scan", "ios": "https://dc.lft.to/lastmile_qr_scan"}, "is_reserved": 0, "name": "d4f7221a20ed5b0ad2248f193169bc76", "lon": -77.0395805, "type": "electric_scooter", "bike_id": "d4f7221a20ed5b0ad2248f193169bc76", "fusion_lon": 0.0, "lat": 38.89902333333333, "fusion_lat": 0.0}, {"is_disabled": 0, "rental_uris": {"android": "https://dc.lft.to/lastmile_qr_scan", "ios": "https://dc.lft.to/lastmile_qr_scan"}, "is_reserved": 0, "name": "610a52f1395420b6caec31f96035debf", "lon": -77.03195183333334, "type": "electric_scooter", "bike_id": "610a52f1395420b6caec31f96035debf", "fusion_lon": 0.0, "lat": 38.93064966666667, "fusion_lat": 0.0}, {"is_disabled": 0, "rental_uris": {"android": "https://dc.lft.to/lastmile_qr_scan", "ios": "https://dc.lft.to/lastmile_qr_scan"}, "is_reserved": 0, "name": "1d98e5086c1739d2145855a72575e488", "lon": -77.04357933333333, "type": "electric_scooter", "bike_id": "1d98e5086c1739d2145855a72575e488", "fusion_lon": 0.0, "lat": 38.902691833333336, "fusion_lat": 0.0}, {"is_disabled": 0, "rental_uris": {"android": "https://dc.lft.to/lastmile_qr_scan", "ios": "https://dc.lft.to/lastmile_qr_scan"}, "is_reserved": 0, "name": "86d1ecb0e08b50db979f893da7b2208f", "lon": -77.03750316666667, "type": "electric_scooter", "bike_id": "86d1ecb0e08b50db979f893da7b2208f", "fusion_lon": 0.0, "lat": 38.929129, "fusion_lat": 0.0}, {"is_disabled": 0, "rental_uris": {"android": "https://dc.lft.to/lastmile_qr_scan", "ios": "https://dc.lft.to/lastmile_qr_scan"}, "is_reserved": 0, "name": "3220d6e96041775265267f57efd01593", "lon": -77.02389983333333, "type": "electric_scooter", "bike_id": "3220d6e96041775265267f57efd01593", "fusion_lon": 0.0, "lat": 38.907073833333335, "fusion_lat": 0.0}, {"is_disabled": 0, "rental_uris": {"android": "https://dc.lft.to/lastmile_qr_scan", "ios": "https://dc.lft.to/lastmile_qr_scan"}, "is_reserved": 0, "name": "e29052ffb70cd49375abd63148a92973", "lon": -76.98180783333333, "type": "electric_bike", "bike_id": "e29052ffb70cd49375abd63148a92973", "fusion_lon": 0.0, "lat": 38.984862, "fusion_lat": 0.0}, {"is_disabled": 0, "rental_uris": {"android": "https://dc.lft.to/lastmile_qr_scan", "ios": "https://dc.lft.to/lastmile_qr_scan"}, "is_reserved": 0, "name": "c310d3cfcaf2f1d509dac1fcf4627498", "lon": -76.98781816666667, "type": "electric_scooter", "bike_id": "c310d3cfcaf2f1d509dac1fcf4627498", "fusion_lon": 0.0, "lat": 38.89823616666666, "fusion_lat": 0.0}, {"is_disabled": 0, "rental_uris": {"android": "https://dc.lft.to/lastmile_qr_scan", "ios": "https://dc.lft.to/lastmile_qr_scan"}, "is_reserved": 0, "name": "b6c37d5316bfa0a7de61c70880d45291", "lon": -77.0418465, "type": "electric_scooter", "bike_id": "b6c37d5316bfa0a7de61c70880d45291", "fusion_lon": 0.0, "lat": 38.892307, "fusion_lat": 0.0}, {"is_disabled": 0, "rental_uris": {"android": "https://dc.lft.to/lastmile_qr_scan", "ios": "https://dc.lft.to/lastmile_qr_scan"}, "is_reserved": 0, "name": "4123f078090dbca30bf5cbeb9c5a9c71", "lon": -77.016866, "type": "electric_scooter", "bike_id": "4123f078090dbca30bf5cbeb9c5a9c71", "fusion_lon": 0.0, "lat": 38.902306833333334, "fusion_lat": 0.0}, {"is_disabled": 0, "rental_uris": {"android": "https://dc.lft.to/lastmile_qr_scan", "ios": "https://dc.lft.to/lastmile_qr_scan"}, "is_reserved": 0, "name": "6f1bc3c8ea0a38d98ae3443b9847cdf8", "lon": -77.02950266666667, "type": "electric_scooter", "bike_id": "6f1bc3c8ea0a38d98ae3443b9847cdf8", "fusion_lon": 0.0, "lat": 38.92759083333333, "fusion_lat": 0.0}, {"is_disabled": 0, "rental_uris": {"android": "https://dc.lft.to/lastmile_qr_scan", "ios": "https://dc.lft.to/lastmile_qr_scan"}, "is_reserved": 0, "name": "879aa4503de20b4af98828db075dbc1f", "lon": -77.05054333333334, "type": "electric_scooter", "bike_id": "879aa4503de20b4af98828db075dbc1f", "fusion_lon": 0.0, "lat": 38.900899333333335, "fusion_lat": 0.0}, {"is_disabled": 0, "rental_uris": {"android": "https://dc.lft.to/lastmile_qr_scan", "ios": "https://dc.lft.to/lastmile_qr_scan"}, "is_reserved": 0, "name": "cd9996e6be04581abaaadea37f904d36", "lon": -77.03197216666666, "type": "electric_scooter", "bike_id": "cd9996e6be04581abaaadea37f904d36", "fusion_lon": 0.0, "lat": 38.901201, "fusion_lat": 0.0}, {"is_disabled": 0, "rental_uris": {"android": "https://dc.lft.to/lastmile_qr_scan", "ios": "https://dc.lft.to/lastmile_qr_scan"}, "is_reserved": 0, "name": "e17378bee573dfcc66c5ceed410263d7", "lon": -77.024921, "type": "electric_scooter", "bike_id": "e17378bee573dfcc66c5ceed410263d7", "fusion_lon": 0.0, "lat": 38.941842, "fusion_lat": 0.0}, {"is_disabled": 0, "rental_uris": {"android": "https://dc.lft.to/lastmile_qr_scan", "ios": "https://dc.lft.to/lastmile_qr_scan"}, "is_reserved": 0, "name": "8fb37634d358ab875059ba0417f4c609", "lon": -77.02544483333334, "type": "electric_scooter", "bike_id": "8fb37634d358ab875059ba0417f4c609", "fusion_lon": 0.0, "lat": 38.92401366666667, "fusion_lat": 0.0}, {"is_disabled": 0, "rental_uris": {"android": "https://dc.lft.to/lastmile_qr_scan", "ios": "https://dc.lft.to/lastmile_qr_scan"}, "is_reserved": 0, "name": "97c9065915c396d560d3438fd1936319", "lon": -77.04498766666667, "type": "electric_scooter", "bike_id": "97c9065915c396d560d3438fd1936319", "fusion_lon": 0.0, "lat": 38.906748666666665, "fusion_lat": 0.0}, {"is_disabled": 0, "rental_uris": {"android": "https://dc.lft.to/lastmile_qr_scan", "ios": "https://dc.lft.to/lastmile_qr_scan"}, "is_reserved": 0, "name": "3ee1d2360c4fca2bd2f31c7558b0b083", "lon": -77.00065, "type": "electric_scooter", "bike_id": "3ee1d2360c4fca2bd2f31c7558b0b083", "fusion_lon": 0.0, "lat": 38.88859683333333, "fusion_lat": 0.0}, {"is_disabled": 0, "rental_uris": {"android": "https://dc.lft.to/lastmile_qr_scan", "ios": "https://dc.lft.to/lastmile_qr_scan"}, "is_reserved": 0, "name": "4ac4d0b7d78250f53b4e78ecc630a3dd", "lon": -77.02494216666666, "type": "electric_scooter", "bike_id": "4ac4d0b7d78250f53b4e78ecc630a3dd", "fusion_lon": 0.0, "lat": 38.91948133333333, "fusion_lat": 0.0}, {"is_disabled": 0, "rental_uris": {"android": "https://dc.lft.to/lastmile_qr_scan", "ios": "https://dc.lft.to/lastmile_qr_scan"}, "is_reserved": 0, "name": "327ec32147a567e2d7bc4132d7bac269", "lon": -76.98577483333334, "type": "electric_scooter", "bike_id": "327ec32147a567e2d7bc4132d7bac269", "fusion_lon": 0.0, "lat": 38.89620383333333, "fusion_lat": 0.0}, {"is_disabled": 0, "rental_uris": {"android": "https://dc.lft.to/lastmile_qr_scan", "ios": "https://dc.lft.to/lastmile_qr_scan"}, "is_reserved": 0, "name": "f5d49aa3beae167312ac4c455ea9429e", "lon": -77.02625183333333, "type": "electric_scooter", "bike_id": "f5d49aa3beae167312ac4c455ea9429e", "fusion_lon": 0.0, "lat": 38.915723, "fusion_lat": 0.0}, {"is_disabled": 0, "rental_uris": {"android": "https://dc.lft.to/lastmile_qr_scan", "ios": "https://dc.lft.to/lastmile_qr_scan"}, "is_reserved": 0, "name": "94f107f959566bf390548025ed4d05ba", "lon": -77.02780633333333, "type": "electric_scooter", "bike_id": "94f107f959566bf390548025ed4d05ba", "fusion_lon": 0.0, "lat": 38.91708916666666, "fusion_lat": 0.0}, {"is_disabled": 0, "rental_uris": {"android": "https://dc.lft.to/lastmile_qr_scan", "ios": "https://dc.lft.to/lastmile_qr_scan"}, "is_reserved": 0, "name": "372d9f604a38fc875dda5534edab3ba0", "lon": -77.02658816666667, "type": "electric_scooter", "bike_id": "372d9f604a38fc875dda5534edab3ba0", "fusion_lon": 0.0, "lat": 38.89582, "fusion_lat": 0.0}, {"is_disabled": 0, "rental_uris": {"android": "https://dc.lft.to/lastmile_qr_scan", "ios": "https://dc.lft.to/lastmile_qr_scan"}, "is_reserved": 0, "name": "b8288ab5a01fd47de3ced5ac1c5868ac", "lon": -76.9291505, "type": "electric_bike", "bike_id": "b8288ab5a01fd47de3ced5ac1c5868ac", "fusion_lon": 0.0, "lat": 38.98024516666667, "fusion_lat": 0.0}, {"is_disabled": 0, "rental_uris": {"android": "https://dc.lft.to/lastmile_qr_scan", "ios": "https://dc.lft.to/lastmile_qr_scan"}, "is_reserved": 0, "name": "75fe40fb115d0f38c74de18a8c85b5ca", "lon": -76.99499066666667, "type": "electric_scooter", "bike_id": "75fe40fb115d0f38c74de18a8c85b5ca", "fusion_lon": 0.0, "lat": 38.898170666666665, "fusion_lat": 0.0}, {"is_disabled": 0, "rental_uris": {"android": "https://dc.lft.to/lastmile_qr_scan", "ios": "https://dc.lft.to/lastmile_qr_scan"}, "is_reserved": 0, "name": "84af5b79ecf74c65efdc49496b181d81", "lon": -77.05063583333333, "type": "electric_scooter", "bike_id": "84af5b79ecf74c65efdc49496b181d81", "fusion_lon": 0.0, "lat": 38.90112166666667, "fusion_lat": 0.0}, {"is_disabled": 0, "rental_uris": {"android": "https://dc.lft.to/lastmile_qr_scan", "ios": "https://dc.lft.to/lastmile_qr_scan"}, "is_reserved": 0, "name": "ed9b4a2874e63fcb8619f3edcda7d332", "lon": -76.94470333333334, "type": "electric_scooter", "bike_id": "ed9b4a2874e63fcb8619f3edcda7d332", "fusion_lon": 0.0, "lat": 38.902800166666665, "fusion_lat": 0.0}, {"is_disabled": 0, "rental_uris": {"android": "https://dc.lft.to/lastmile_qr_scan", "ios": "https://dc.lft.to/lastmile_qr_scan"}, "is_reserved": 0, "name": "4db9f4a38d91fa6de84dc27c3fd404f2", "lon": -77.04776233333334, "type": "electric_scooter", "bike_id": "4db9f4a38d91fa6de84dc27c3fd404f2", "fusion_lon": 0.0, "lat": 38.912495166666666, "fusion_lat": 0.0}, {"is_disabled": 0, "rental_uris": {"android": "https://dc.lft.to/lastmile_qr_scan", "ios": "https://dc.lft.to/lastmile_qr_scan"}, "is_reserved": 0, "name": "edd8b818ad24cf69f04ebd81acc4e841", "lon": -77.04823933333333, "type": "electric_scooter", "bike_id": "edd8b818ad24cf69f04ebd81acc4e841", "fusion_lon": 0.0, "lat": 38.9047075, "fusion_lat": 0.0}, {"is_disabled": 0, "rental_uris": {"android": "https://dc.lft.to/lastmile_qr_scan", "ios": "https://dc.lft.to/lastmile_qr_scan"}, "is_reserved": 0, "name": "b21128cee7a5a9ca3d2ec105371f0d06", "lon": -76.94638966666666, "type": "electric_scooter", "bike_id": "b21128cee7a5a9ca3d2ec105371f0d06", "fusion_lon": 0.0, "lat": 38.898426666666666, "fusion_lat": 0.0}, {"is_disabled": 0, "rental_uris": {"android": "https://dc.lft.to/lastmile_qr_scan", "ios": "https://dc.lft.to/lastmile_qr_scan"}, "is_reserved": 0, "name": "76703e13cb38f3237d98ca61f45cb846", "lon": -77.03523216666666, "type": "electric_scooter", "bike_id": "76703e13cb38f3237d98ca61f45cb846", "fusion_lon": 0.0, "lat": 38.922595666666666, "fusion_lat": 0.0}, {"is_disabled": 0, "rental_uris": {"android": "https://dc.lft.to/lastmile_qr_scan", "ios": "https://dc.lft.to/lastmile_qr_scan"}, "is_reserved": 0, "name": "7d0e13ff3fc185b83d2cdae3adc84c26", "lon": -77.034479, "type": "electric_scooter", "bike_id": "7d0e13ff3fc185b83d2cdae3adc84c26", "fusion_lon": 0.0, "lat": 38.908905, "fusion_lat": 0.0}, {"is_disabled": 0, "rental_uris": {"android": "https://dc.lft.to/lastmile_qr_scan", "ios": "https://dc.lft.to/lastmile_qr_scan"}, "is_reserved": 0, "name": "67afbfff2fffa78a03447a0100c3619e", "lon": -77.0386635, "type": "electric_scooter", "bike_id": "67afbfff2fffa78a03447a0100c3619e", "fusion_lon": 0.0, "lat": 38.91560366666667, "fusion_lat": 0.0}, {"is_disabled": 0, "rental_uris": {"android": "https://dc.lft.to/lastmile_qr_scan", "ios": "https://dc.lft.to/lastmile_qr_scan"}, "is_reserved": 0, "name": "f4417895b696c42558c9c89239516c69", "lon": -77.03542616666667, "type": "electric_scooter", "bike_id": "f4417895b696c42558c9c89239516c69", "fusion_lon": 0.0, "lat": 38.923520833333335, "fusion_lat": 0.0}, {"is_disabled": 0, "rental_uris": {"android": "https://dc.lft.to/lastmile_qr_scan", "ios": "https://dc.lft.to/lastmile_qr_scan"}, "is_reserved": 0, "name": "e9fad5e1296db87e2a23b18fbf6972b6", "lon": -77.0173625, "type": "electric_scooter", "bike_id": "e9fad5e1296db87e2a23b18fbf6972b6", "fusion_lon": 0.0, "lat": 38.911221833333336, "fusion_lat": 0.0}, {"is_disabled": 0, "rental_uris": {"android": "https://dc.lft.to/lastmile_qr_scan", "ios": "https://dc.lft.to/lastmile_qr_scan"}, "is_reserved": 0, "name": "38bc186d5056bba3e1f69f2552d499d6", "lon": -77.05564066666666, "type": "electric_scooter", "bike_id": "38bc186d5056bba3e1f69f2552d499d6", "fusion_lon": 0.0, "lat": 38.9000775, "fusion_lat": 0.0}, {"is_disabled": 0, "rental_uris": {"android": "https://dc.lft.to/lastmile_qr_scan", "ios": "https://dc.lft.to/lastmile_qr_scan"}, "is_reserved": 0, "name": "ea9296bf3839638830caab84b00bc94a", "lon": -77.0511145, "type": "electric_bike", "bike_id": "ea9296bf3839638830caab84b00bc94a", "fusion_lon": 0.0, "lat": 38.9456005, "fusion_lat": 0.0}, {"is_disabled": 0, "rental_uris": {"android": "https://dc.lft.to/lastmile_qr_scan", "ios": "https://dc.lft.to/lastmile_qr_scan"}, "is_reserved": 0, "name": "d6335b8573f50c03116aaf34a5cd433d", "lon": -76.99955433333334, "type": "electric_scooter", "bike_id": "d6335b8573f50c03116aaf34a5cd433d", "fusion_lon": 0.0, "lat": 38.9033725, "fusion_lat": 0.0}, {"is_disabled": 0, "rental_uris": {"android": "https://dc.lft.to/lastmile_qr_scan", "ios": "https://dc.lft.to/lastmile_qr_scan"}, "is_reserved": 0, "name": "735be678567fadbccbc7fc2d4d2d17aa", "lon": -77.031921, "type": "electric_scooter", "bike_id": "735be678567fadbccbc7fc2d4d2d17aa", "fusion_lon": 0.0, "lat": 38.91900916666667, "fusion_lat": 0.0}, {"is_disabled": 0, "rental_uris": {"android": "https://dc.lft.to/lastmile_qr_scan", "ios": "https://dc.lft.to/lastmile_qr_scan"}, "is_reserved": 0, "name": "2b4fa470cd5067984f0fa26e2eee7859", "lon": -77.10720216666667, "type": "electric_bike", "bike_id": "2b4fa470cd5067984f0fa26e2eee7859", "fusion_lon": 0.0, "lat": 38.855411, "fusion_lat": 0.0}, {"is_disabled": 0, "rental_uris": {"android": "https://dc.lft.to/lastmile_qr_scan", "ios": "https://dc.lft.to/lastmile_qr_scan"}, "is_reserved": 0, "name": "724281ffc0ca69b71b4c9e5dd9c834ec", "lon": -77.038826, "type": "electric_scooter", "bike_id": "724281ffc0ca69b71b4c9e5dd9c834ec", "fusion_lon": 0.0, "lat": 38.9342925, "fusion_lat": 0.0}, {"is_disabled": 0, "rental_uris": {"android": "https://dc.lft.to/lastmile_qr_scan", "ios": "https://dc.lft.to/lastmile_qr_scan"}, "is_reserved": 0, "name": "4cbddb16127c14e35ba1b98131576cf1", "lon": -77.00647633333334, "type": "electric_bike", "bike_id": "4cbddb16127c14e35ba1b98131576cf1", "fusion_lon": 0.0, "lat": 38.944753166666665, "fusion_lat": 0.0}, {"is_disabled": 0, "rental_uris": {"android": "https://dc.lft.to/lastmile_qr_scan", "ios": "https://dc.lft.to/lastmile_qr_scan"}, "is_reserved": 0, "name": "9352252a442208431a2cfa37daf323b2", "lon": -77.05838816666666, "type": "electric_scooter", "bike_id": "9352252a442208431a2cfa37daf323b2", "fusion_lon": 0.0, "lat": 38.934254833333334, "fusion_lat": 0.0}, {"is_disabled": 0, "rental_uris": {"android": "https://dc.lft.to/lastmile_qr_scan", "ios": "https://dc.lft.to/lastmile_qr_scan"}, "is_reserved": 0, "name": "23a5f63e975332d2168db7ec5ffa8fd2", "lon": -77.0318465, "type": "electric_scooter", "bike_id": "23a5f63e975332d2168db7ec5ffa8fd2", "fusion_lon": 0.0, "lat": 38.919031333333336, "fusion_lat": 0.0}, {"is_disabled": 0, "rental_uris": {"android": "https://dc.lft.to/lastmile_qr_scan", "ios": "https://dc.lft.to/lastmile_qr_scan"}, "is_reserved": 0, "name": "592ccedab0862305b9cd9d05ced4802c", "lon": -76.98372583333334, "type": "electric_scooter", "bike_id": "592ccedab0862305b9cd9d05ced4802c", "fusion_lon": 0.0, "lat": 38.922008, "fusion_lat": 0.0}, {"is_disabled": 0, "rental_uris": {"android": "https://dc.lft.to/lastmile_qr_scan", "ios": "https://dc.lft.to/lastmile_qr_scan"}, "is_reserved": 0, "name": "237ec1455ecccaa5fee29d16fbdb0379", "lon": -77.02827683333334, "type": "electric_scooter", "bike_id": "237ec1455ecccaa5fee29d16fbdb0379", "fusion_lon": 0.0, "lat": 38.914204166666664, "fusion_lat": 0.0}, {"is_disabled": 0, "rental_uris": {"android": "https://dc.lft.to/lastmile_qr_scan", "ios": "https://dc.lft.to/lastmile_qr_scan"}, "is_reserved": 0, "name": "3c8a67cd16e9bdb5dee833fe877ef2f3", "lon": -77.03185666666667, "type": "electric_scooter", "bike_id": "3c8a67cd16e9bdb5dee833fe877ef2f3", "fusion_lon": 0.0, "lat": 38.93068433333333, "fusion_lat": 0.0}, {"is_disabled": 0, "rental_uris": {"android": "https://dc.lft.to/lastmile_qr_scan", "ios": "https://dc.lft.to/lastmile_qr_scan"}, "is_reserved": 0, "name": "5e1b7a5dcbac50db791dea7b1f97ad8d", "lon": -77.0636285, "type": "electric_scooter", "bike_id": "5e1b7a5dcbac50db791dea7b1f97ad8d", "fusion_lon": 0.0, "lat": 38.944158, "fusion_lat": 0.0}, {"is_disabled": 0, "rental_uris": {"android": "https://dc.lft.to/lastmile_qr_scan", "ios": "https://dc.lft.to/lastmile_qr_scan"}, "is_reserved": 0, "name": "1f34c6826362efe7b9af44310d3ed8cb", "lon": -77.03755483333333, "type": "electric_scooter", "bike_id": "1f34c6826362efe7b9af44310d3ed8cb", "fusion_lon": 0.0, "lat": 38.906757166666665, "fusion_lat": 0.0}, {"is_disabled": 0, "rental_uris": {"android": "https://dc.lft.to/lastmile_qr_scan", "ios": "https://dc.lft.to/lastmile_qr_scan"}, "is_reserved": 0, "name": "65597a83c15a0ff8256cce677629a2b8", "lon": -76.99033383333334, "type": "electric_scooter", "bike_id": "65597a83c15a0ff8256cce677629a2b8", "fusion_lon": 0.0, "lat": 38.898767166666666, "fusion_lat": 0.0}, {"is_disabled": 0, "rental_uris": {"android": "https://dc.lft.to/lastmile_qr_scan", "ios": "https://dc.lft.to/lastmile_qr_scan"}, "is_reserved": 0, "name": "c9a057614ca5f278a7834124556ee692", "lon": -77.05517283333333, "type": "electric_scooter", "bike_id": "c9a057614ca5f278a7834124556ee692", "fusion_lon": 0.0, "lat": 38.90015266666666, "fusion_lat": 0.0}, {"is_disabled": 0, "rental_uris": {"android": "https://dc.lft.to/lastmile_qr_scan", "ios": "https://dc.lft.to/lastmile_qr_scan"}, "is_reserved": 0, "name": "514b174d9c65cd606131f2431ff806e4", "lon": -77.038488, "type": "electric_scooter", "bike_id": "514b174d9c65cd606131f2431ff806e4", "fusion_lon": 0.0, "lat": 38.92647433333333, "fusion_lat": 0.0}, {"is_disabled": 0, "rental_uris": {"android": "https://dc.lft.to/lastmile_qr_scan", "ios": "https://dc.lft.to/lastmile_qr_scan"}, "is_reserved": 0, "name": "71b935cf5add1e929648c35a2500905e", "lon": -77.0033835, "type": "electric_scooter", "bike_id": "71b935cf5add1e929648c35a2500905e", "fusion_lon": 0.0, "lat": 38.88988916666667, "fusion_lat": 0.0}, {"is_disabled": 0, "rental_uris": {"android": "https://dc.lft.to/lastmile_qr_scan", "ios": "https://dc.lft.to/lastmile_qr_scan"}, "is_reserved": 0, "name": "094123e5d6a2552633f4ae4330375829", "lon": -77.04181816666667, "type": "electric_scooter", "bike_id": "094123e5d6a2552633f4ae4330375829", "fusion_lon": 0.0, "lat": 38.914167666666664, "fusion_lat": 0.0}, {"is_disabled": 0, "rental_uris": {"android": "https://dc.lft.to/lastmile_qr_scan", "ios": "https://dc.lft.to/lastmile_qr_scan"}, "is_reserved": 0, "name": "69ca73c97a6b5ec87bd2e971d57fe9b5", "lon": -76.97503583333334, "type": "electric_bike", "bike_id": "69ca73c97a6b5ec87bd2e971d57fe9b5", "fusion_lon": 0.0, "lat": 38.9193745, "fusion_lat": 0.0}, {"is_disabled": 0, "rental_uris": {"android": "https://dc.lft.to/lastmile_qr_scan", "ios": "https://dc.lft.to/lastmile_qr_scan"}, "is_reserved": 0, "name": "80706a88dc8604a6133f7b28db211fc0", "lon": -77.009488, "type": "electric_scooter", "bike_id": "80706a88dc8604a6133f7b28db211fc0", "fusion_lon": 0.0, "lat": 38.8950495, "fusion_lat": 0.0}, {"is_disabled": 0, "rental_uris": {"android": "https://dc.lft.to/lastmile_qr_scan", "ios": "https://dc.lft.to/lastmile_qr_scan"}, "is_reserved": 0, "name": "33b58d7194f41c641063e184b58ccaf1", "lon": -76.94828683333333, "type": "electric_scooter", "bike_id": "33b58d7194f41c641063e184b58ccaf1", "fusion_lon": 0.0, "lat": 38.88518633333333, "fusion_lat": 0.0}, {"is_disabled": 0, "rental_uris": {"android": "https://dc.lft.to/lastmile_qr_scan", "ios": "https://dc.lft.to/lastmile_qr_scan"}, "is_reserved": 0, "name": "cda017cc19605e32f5720bece4af7dfc", "lon": -77.08439066666666, "type": "electric_bike", "bike_id": "cda017cc19605e32f5720bece4af7dfc", "fusion_lon": 0.0, "lat": 38.81026166666667, "fusion_lat": 0.0}, {"is_disabled": 0, "rental_uris": {"android": "https://dc.lft.to/lastmile_qr_scan", "ios": "https://dc.lft.to/lastmile_qr_scan"}, "is_reserved": 0, "name": "d3de149a0f201d2d00a56a4e41d4d0cb", "lon": -77.04284783333334, "type": "electric_scooter", "bike_id": "d3de149a0f201d2d00a56a4e41d4d0cb", "fusion_lon": 0.0, "lat": 38.917101833333334, "fusion_lat": 0.0}, {"is_disabled": 0, "rental_uris": {"android": "https://dc.lft.to/lastmile_qr_scan", "ios": "https://dc.lft.to/lastmile_qr_scan"}, "is_reserved": 0, "name": "a5d34d4bb1122c255d70583217c432c7", "lon": -76.979084, "type": "electric_scooter", "bike_id": "a5d34d4bb1122c255d70583217c432c7", "fusion_lon": 0.0, "lat": 38.90430116666667, "fusion_lat": 0.0}, {"is_disabled": 0, "rental_uris": {"android": "https://dc.lft.to/lastmile_qr_scan", "ios": "https://dc.lft.to/lastmile_qr_scan"}, "is_reserved": 0, "name": "23c4a33254f9057985dce8f192c0bd1e", "lon": -77.02771816666667, "type": "electric_scooter", "bike_id": "23c4a33254f9057985dce8f192c0bd1e", "fusion_lon": 0.0, "lat": 38.943016666666665, "fusion_lat": 0.0}, {"is_disabled": 0, "rental_uris": {"android": "https://dc.lft.to/lastmile_qr_scan", "ios": "https://dc.lft.to/lastmile_qr_scan"}, "is_reserved": 0, "name": "700debaf678f2117fe7b028ed0ced1b4", "lon": -77.00221133333334, "type": "electric_scooter", "bike_id": "700debaf678f2117fe7b028ed0ced1b4", "fusion_lon": 0.0, "lat": 38.913386333333335, "fusion_lat": 0.0}, {"is_disabled": 0, "rental_uris": {"android": "https://dc.lft.to/lastmile_qr_scan", "ios": "https://dc.lft.to/lastmile_qr_scan"}, "is_reserved": 0, "name": "896a10497ae8c9c99aa75a5b20bbc9fd", "lon": -77.02337383333334, "type": "electric_scooter", "bike_id": "896a10497ae8c9c99aa75a5b20bbc9fd", "fusion_lon": 0.0, "lat": 38.9223255, "fusion_lat": 0.0}, {"is_disabled": 0, "rental_uris": {"android": "https://dc.lft.to/lastmile_qr_scan", "ios": "https://dc.lft.to/lastmile_qr_scan"}, "is_reserved": 0, "name": "689255bf4504258019a02c3579653444", "lon": -77.02870316666667, "type": "electric_bike", "bike_id": "689255bf4504258019a02c3579653444", "fusion_lon": 0.0, "lat": 38.998682333333335, "fusion_lat": 0.0}, {"is_disabled": 0, "rental_uris": {"android": "https://dc.lft.to/lastmile_qr_scan", "ios": "https://dc.lft.to/lastmile_qr_scan"}, "is_reserved": 0, "name": "51d5780f8d601f97cce99645eab0cdc9", "lon": -77.01791216666666, "type": "electric_scooter", "bike_id": "51d5780f8d601f97cce99645eab0cdc9", "fusion_lon": 0.0, "lat": 38.921174666666666, "fusion_lat": 0.0}, {"is_disabled": 0, "rental_uris": {"android": "https://dc.lft.to/lastmile_qr_scan", "ios": "https://dc.lft.to/lastmile_qr_scan"}, "is_reserved": 0, "name": "ec5aafe73d756db7724ccb0adb0d3b23", "lon": -77.04730516666666, "type": "electric_scooter", "bike_id": "ec5aafe73d756db7724ccb0adb0d3b23", "fusion_lon": 0.0, "lat": 38.8983175, "fusion_lat": 0.0}, {"is_disabled": 0, "rental_uris": {"android": "https://dc.lft.to/lastmile_qr_scan", "ios": "https://dc.lft.to/lastmile_qr_scan"}, "is_reserved": 0, "name": "474fd089242d81eafdbcc9a1e93cd872", "lon": -77.041612, "type": "electric_scooter", "bike_id": "474fd089242d81eafdbcc9a1e93cd872", "fusion_lon": 0.0, "lat": 38.9131415, "fusion_lat": 0.0}, {"is_disabled": 0, "rental_uris": {"android": "https://dc.lft.to/lastmile_qr_scan", "ios": "https://dc.lft.to/lastmile_qr_scan"}, "is_reserved": 0, "name": "e9cefb3d44671b67b3f1bc97f98e2433", "lon": -76.97416816666667, "type": "electric_scooter", "bike_id": "e9cefb3d44671b67b3f1bc97f98e2433", "fusion_lon": 0.0, "lat": 38.865178, "fusion_lat": 0.0}, {"is_disabled": 0, "rental_uris": {"android": "https://dc.lft.to/lastmile_qr_scan", "ios": "https://dc.lft.to/lastmile_qr_scan"}, "is_reserved": 0, "name": "adf64aa3378708ebfaf76a1c7d0c2ab0", "lon": -77.06775716666667, "type": "electric_scooter", "bike_id": "adf64aa3378708ebfaf76a1c7d0c2ab0", "fusion_lon": 0.0, "lat": 38.949794, "fusion_lat": 0.0}, {"is_disabled": 0, "rental_uris": {"android": "https://dc.lft.to/lastmile_qr_scan", "ios": "https://dc.lft.to/lastmile_qr_scan"}, "is_reserved": 0, "name": "531263817c490f3d4e50c4e0a44702b4", "lon": -77.02226066666667, "type": "electric_scooter", "bike_id": "531263817c490f3d4e50c4e0a44702b4", "fusion_lon": 0.0, "lat": 38.9156985, "fusion_lat": 0.0}, {"is_disabled": 0, "rental_uris": {"android": "https://dc.lft.to/lastmile_qr_scan", "ios": "https://dc.lft.to/lastmile_qr_scan"}, "is_reserved": 0, "name": "736d0f577f8e2ef1302b80a8eae25a23", "lon": -77.0819925, "type": "electric_bike", "bike_id": "736d0f577f8e2ef1302b80a8eae25a23", "fusion_lon": 0.0, "lat": 38.92217316666667, "fusion_lat": 0.0}, {"is_disabled": 0, "rental_uris": {"android": "https://dc.lft.to/lastmile_qr_scan", "ios": "https://dc.lft.to/lastmile_qr_scan"}, "is_reserved": 0, "name": "b4b4b905d71dd442c7af5bbc58604664", "lon": -76.97220366666667, "type": "electric_bike", "bike_id": "b4b4b905d71dd442c7af5bbc58604664", "fusion_lon": 0.0, "lat": 38.84485433333333, "fusion_lat": 0.0}, {"is_disabled": 0, "rental_uris": {"android": "https://dc.lft.to/lastmile_qr_scan", "ios": "https://dc.lft.to/lastmile_qr_scan"}, "is_reserved": 0, "name": "59b19da4ea430012571e418c4b94d0aa", "lon": -77.051357, "type": "electric_scooter", "bike_id": "59b19da4ea430012571e418c4b94d0aa", "fusion_lon": 0.0, "lat": 38.9003805, "fusion_lat": 0.0}, {"is_disabled": 0, "rental_uris": {"android": "https://dc.lft.to/lastmile_qr_scan", "ios": "https://dc.lft.to/lastmile_qr_scan"}, "is_reserved": 0, "name": "a168d443e8b87b65f7fc8eb6532b8650", "lon": -77.02699133333333, "type": "electric_scooter", "bike_id": "a168d443e8b87b65f7fc8eb6532b8650", "fusion_lon": 0.0, "lat": 38.90870783333333, "fusion_lat": 0.0}, {"is_disabled": 0, "rental_uris": {"android": "https://dc.lft.to/lastmile_qr_scan", "ios": "https://dc.lft.to/lastmile_qr_scan"}, "is_reserved": 0, "name": "aaa4073cec5db08f8f1c39ff6d92c8c1", "lon": -76.94891983333333, "type": "electric_scooter", "bike_id": "aaa4073cec5db08f8f1c39ff6d92c8c1", "fusion_lon": 0.0, "lat": 38.89514066666667, "fusion_lat": 0.0}, {"is_disabled": 0, "rental_uris": {"android": "https://dc.lft.to/lastmile_qr_scan", "ios": "https://dc.lft.to/lastmile_qr_scan"}, "is_reserved": 0, "name": "b52cb87b40300248a33c71ba65ad9b72", "lon": -77.02790583333334, "type": "electric_scooter", "bike_id": "b52cb87b40300248a33c71ba65ad9b72", "fusion_lon": 0.0, "lat": 38.9612665, "fusion_lat": 0.0}, {"is_disabled": 0, "rental_uris": {"android": "https://dc.lft.to/lastmile_qr_scan", "ios": "https://dc.lft.to/lastmile_qr_scan"}, "is_reserved": 0, "name": "e96fd3cc2ce16019d15a747d9985d1b9", "lon": -77.00203333333333, "type": "electric_scooter", "bike_id": "e96fd3cc2ce16019d15a747d9985d1b9", "fusion_lon": 0.0, "lat": 38.902354, "fusion_lat": 0.0}, {"is_disabled": 0, "rental_uris": {"android": "https://dc.lft.to/lastmile_qr_scan", "ios": "https://dc.lft.to/lastmile_qr_scan"}, "is_reserved": 0, "name": "bdeaea32d34bd04134e98b4f802c5e2f", "lon": -77.01223233333333, "type": "electric_scooter", "bike_id": "bdeaea32d34bd04134e98b4f802c5e2f", "fusion_lon": 0.0, "lat": 38.914976, "fusion_lat": 0.0}, {"is_disabled": 0, "rental_uris": {"android": "https://dc.lft.to/lastmile_qr_scan", "ios": "https://dc.lft.to/lastmile_qr_scan"}, "is_reserved": 0, "name": "bfae3687689b02bb4b3574fd373d8166", "lon": -77.0272305, "type": "electric_scooter", "bike_id": "bfae3687689b02bb4b3574fd373d8166", "fusion_lon": 0.0, "lat": 38.911000666666666, "fusion_lat": 0.0}, {"is_disabled": 0, "rental_uris": {"android": "https://dc.lft.to/lastmile_qr_scan", "ios": "https://dc.lft.to/lastmile_qr_scan"}, "is_reserved": 0, "name": "5b9ee217e61f857e0b249430f82c756b", "lon": -77.038168, "type": "electric_scooter", "bike_id": "5b9ee217e61f857e0b249430f82c756b", "fusion_lon": 0.0, "lat": 38.9096975, "fusion_lat": 0.0}, {"is_disabled": 0, "rental_uris": {"android": "https://dc.lft.to/lastmile_qr_scan", "ios": "https://dc.lft.to/lastmile_qr_scan"}, "is_reserved": 0, "name": "06f91b9962908d113d3eb346e5f0ca57", "lon": -77.0676935, "type": "electric_scooter", "bike_id": "06f91b9962908d113d3eb346e5f0ca57", "fusion_lon": 0.0, "lat": 38.90498516666667, "fusion_lat": 0.0}, {"is_disabled": 0, "rental_uris": {"android": "https://dc.lft.to/lastmile_qr_scan", "ios": "https://dc.lft.to/lastmile_qr_scan"}, "is_reserved": 0, "name": "4372b078af788944702e30c1a587aadb", "lon": -77.03296683333333, "type": "electric_scooter", "bike_id": "4372b078af788944702e30c1a587aadb", "fusion_lon": 0.0, "lat": 38.908544, "fusion_lat": 0.0}, {"is_disabled": 0, "rental_uris": {"android": "https://dc.lft.to/lastmile_qr_scan", "ios": "https://dc.lft.to/lastmile_qr_scan"}, "is_reserved": 0, "name": "64be60d5dad71ae1affa1a07ba636464", "lon": -77.032683, "type": "electric_scooter", "bike_id": "64be60d5dad71ae1affa1a07ba636464", "fusion_lon": 0.0, "lat": 38.9326535, "fusion_lat": 0.0}, {"is_disabled": 0, "rental_uris": {"android": "https://dc.lft.to/lastmile_qr_scan", "ios": "https://dc.lft.to/lastmile_qr_scan"}, "is_reserved": 0, "name": "5ba5964555b857839681c5b355d7f013", "lon": -77.02858833333333, "type": "electric_scooter", "bike_id": "5ba5964555b857839681c5b355d7f013", "fusion_lon": 0.0, "lat": 38.9021175, "fusion_lat": 0.0}, {"is_disabled": 0, "rental_uris": {"android": "https://dc.lft.to/lastmile_qr_scan", "ios": "https://dc.lft.to/lastmile_qr_scan"}, "is_reserved": 0, "name": "ee9fa3779cf8982bf4cb9ec2ce185810", "lon": -77.041826, "type": "electric_scooter", "bike_id": "ee9fa3779cf8982bf4cb9ec2ce185810", "fusion_lon": 0.0, "lat": 38.91551716666667, "fusion_lat": 0.0}, {"is_disabled": 0, "rental_uris": {"android": "https://dc.lft.to/lastmile_qr_scan", "ios": "https://dc.lft.to/lastmile_qr_scan"}, "is_reserved": 0, "name": "d8c7457025cf127f521e7570b7969dcd", "lon": -77.0317345, "type": "electric_scooter", "bike_id": "d8c7457025cf127f521e7570b7969dcd", "fusion_lon": 0.0, "lat": 38.930594166666666, "fusion_lat": 0.0}, {"is_disabled": 0, "rental_uris": {"android": "https://dc.lft.to/lastmile_qr_scan", "ios": "https://dc.lft.to/lastmile_qr_scan"}, "is_reserved": 0, "name": "dcb61c063d351a28182e0e987c65be30", "lon": -77.022261, "type": "electric_scooter", "bike_id": "dcb61c063d351a28182e0e987c65be30", "fusion_lon": 0.0, "lat": 38.91416266666667, "fusion_lat": 0.0}, {"is_disabled": 0, "rental_uris": {"android": "https://dc.lft.to/lastmile_qr_scan", "ios": "https://dc.lft.to/lastmile_qr_scan"}, "is_reserved": 0, "name": "b0c21b7f1894a7a9acaebba261fad662", "lon": -77.04458133333333, "type": "electric_scooter", "bike_id": "b0c21b7f1894a7a9acaebba261fad662", "fusion_lon": 0.0, "lat": 38.91401783333333, "fusion_lat": 0.0}, {"is_disabled": 0, "rental_uris": {"android": "https://dc.lft.to/lastmile_qr_scan", "ios": "https://dc.lft.to/lastmile_qr_scan"}, "is_reserved": 0, "name": "ddb6258a35dd70d8efcc98efd53c0747", "lon": -77.00700233333333, "type": "electric_scooter", "bike_id": "ddb6258a35dd70d8efcc98efd53c0747", "fusion_lon": 0.0, "lat": 38.905235166666664, "fusion_lat": 0.0}, {"is_disabled": 0, "rental_uris": {"android": "https://dc.lft.to/lastmile_qr_scan", "ios": "https://dc.lft.to/lastmile_qr_scan"}, "is_reserved": 0, "name": "a676e68381a071ad138d2718a308e003", "lon": -76.99905716666666, "type": "electric_scooter", "bike_id": "a676e68381a071ad138d2718a308e003", "fusion_lon": 0.0, "lat": 38.924583166666665, "fusion_lat": 0.0}, {"is_disabled": 0, "rental_uris": {"android": "https://dc.lft.to/lastmile_qr_scan", "ios": "https://dc.lft.to/lastmile_qr_scan"}, "is_reserved": 0, "name": "ee703cf1a62363dccae7355f1a8258f0", "lon": -77.01980516666667, "type": "electric_scooter", "bike_id": "ee703cf1a62363dccae7355f1a8258f0", "fusion_lon": 0.0, "lat": 38.8951205, "fusion_lat": 0.0}, {"is_disabled": 0, "rental_uris": {"android": "https://dc.lft.to/lastmile_qr_scan", "ios": "https://dc.lft.to/lastmile_qr_scan"}, "is_reserved": 0, "name": "dbe1eed5e6885c6234fccee5c4e7f590", "lon": -77.0493165, "type": "electric_scooter", "bike_id": "dbe1eed5e6885c6234fccee5c4e7f590", "fusion_lon": 0.0, "lat": 38.90711483333333, "fusion_lat": 0.0}, {"is_disabled": 0, "rental_uris": {"android": "https://dc.lft.to/lastmile_qr_scan", "ios": "https://dc.lft.to/lastmile_qr_scan"}, "is_reserved": 0, "name": "2808adf1115d6e13d01de2adea057012", "lon": -77.00149833333333, "type": "electric_scooter", "bike_id": "2808adf1115d6e13d01de2adea057012", "fusion_lon": 0.0, "lat": 38.8737375, "fusion_lat": 0.0}, {"is_disabled": 0, "rental_uris": {"android": "https://dc.lft.to/lastmile_qr_scan", "ios": "https://dc.lft.to/lastmile_qr_scan"}, "is_reserved": 0, "name": "d09cc2eb672fe78d507e13a963cd10e7", "lon": -77.02479533333333, "type": "electric_scooter", "bike_id": "d09cc2eb672fe78d507e13a963cd10e7", "fusion_lon": 0.0, "lat": 38.938558666666665, "fusion_lat": 0.0}, {"is_disabled": 0, "rental_uris": {"android": "https://dc.lft.to/lastmile_qr_scan", "ios": "https://dc.lft.to/lastmile_qr_scan"}, "is_reserved": 0, "name": "3733fb0dc621b319e35d74627c092c93", "lon": -77.01191083333333, "type": "electric_scooter", "bike_id": "3733fb0dc621b319e35d74627c092c93", "fusion_lon": 0.0, "lat": 38.90368566666667, "fusion_lat": 0.0}, {"is_disabled": 0, "rental_uris": {"android": "https://dc.lft.to/lastmile_qr_scan", "ios": "https://dc.lft.to/lastmile_qr_scan"}, "is_reserved": 0, "name": "2626099a53b7ac45457c0005f1c615a7", "lon": -77.02901466666667, "type": "electric_scooter", "bike_id": "2626099a53b7ac45457c0005f1c615a7", "fusion_lon": 0.0, "lat": 38.901353, "fusion_lat": 0.0}, {"is_disabled": 0, "rental_uris": {"android": "https://dc.lft.to/lastmile_qr_scan", "ios": "https://dc.lft.to/lastmile_qr_scan"}, "is_reserved": 0, "name": "cbf360c9a5099f43598e85f6ff2175c2", "lon": -77.03378516666666, "type": "electric_scooter", "bike_id": "cbf360c9a5099f43598e85f6ff2175c2", "fusion_lon": 0.0, "lat": 38.92159733333333, "fusion_lat": 0.0}, {"is_disabled": 0, "rental_uris": {"android": "https://dc.lft.to/lastmile_qr_scan", "ios": "https://dc.lft.to/lastmile_qr_scan"}, "is_reserved": 0, "name": "77b741b040e227b94c069c17e7972aae", "lon": -77.02809183333333, "type": "electric_scooter", "bike_id": "77b741b040e227b94c069c17e7972aae", "fusion_lon": 0.0, "lat": 38.96216783333333, "fusion_lat": 0.0}, {"is_disabled": 0, "rental_uris": {"android": "https://dc.lft.to/lastmile_qr_scan", "ios": "https://dc.lft.to/lastmile_qr_scan"}, "is_reserved": 0, "name": "d8dcb757170b73dadeee22bfb71bb36b", "lon": -77.03632733333333, "type": "electric_scooter", "bike_id": "d8dcb757170b73dadeee22bfb71bb36b", "fusion_lon": 0.0, "lat": 38.942841, "fusion_lat": 0.0}, {"is_disabled": 0, "rental_uris": {"android": "https://dc.lft.to/lastmile_qr_scan", "ios": "https://dc.lft.to/lastmile_qr_scan"}, "is_reserved": 0, "name": "5bfd74e8a71e8d7c569cf8c37de14585", "lon": -77.03177816666667, "type": "electric_scooter", "bike_id": "5bfd74e8a71e8d7c569cf8c37de14585", "fusion_lon": 0.0, "lat": 38.91415466666667, "fusion_lat": 0.0}, {"is_disabled": 0, "rental_uris": {"android": "https://dc.lft.to/lastmile_qr_scan", "ios": "https://dc.lft.to/lastmile_qr_scan"}, "is_reserved": 0, "name": "7bf75fae75235b1cebbfce9ebad3e4b0", "lon": -77.02701516666667, "type": "electric_scooter", "bike_id": "7bf75fae75235b1cebbfce9ebad3e4b0", "fusion_lon": 0.0, "lat": 38.9498275, "fusion_lat": 0.0}, {"is_disabled": 0, "rental_uris": {"android": "https://dc.lft.to/lastmile_qr_scan", "ios": "https://dc.lft.to/lastmile_qr_scan"}, "is_reserved": 0, "name": "a82583a96d70ece530b25c44417753a5", "lon": -77.031653, "type": "electric_scooter", "bike_id": "a82583a96d70ece530b25c44417753a5", "fusion_lon": 0.0, "lat": 38.92860916666667, "fusion_lat": 0.0}, {"is_disabled": 0, "rental_uris": {"android": "https://dc.lft.to/lastmile_qr_scan", "ios": "https://dc.lft.to/lastmile_qr_scan"}, "is_reserved": 0, "name": "dc9cb1d376f1951e1b011c825f33e133", "lon": -77.0468955, "type": "electric_scooter", "bike_id": "dc9cb1d376f1951e1b011c825f33e133", "fusion_lon": 0.0, "lat": 38.89725933333333, "fusion_lat": 0.0}, {"is_disabled": 0, "rental_uris": {"android": "https://dc.lft.to/lastmile_qr_scan", "ios": "https://dc.lft.to/lastmile_qr_scan"}, "is_reserved": 0, "name": "f12f6fd4da0abbe22deec3c2e0b59875", "lon": -77.00671016666666, "type": "electric_bike", "bike_id": "f12f6fd4da0abbe22deec3c2e0b59875", "fusion_lon": 0.0, "lat": 38.94509, "fusion_lat": 0.0}, {"is_disabled": 0, "rental_uris": {"android": "https://dc.lft.to/lastmile_qr_scan", "ios": "https://dc.lft.to/lastmile_qr_scan"}, "is_reserved": 0, "name": "338460ec27017344fe1c2df768cb2528", "lon": -77.03638216666667, "type": "electric_scooter", "bike_id": "338460ec27017344fe1c2df768cb2528", "fusion_lon": 0.0, "lat": 38.93049516666667, "fusion_lat": 0.0}, {"is_disabled": 0, "rental_uris": {"android": "https://dc.lft.to/lastmile_qr_scan", "ios": "https://dc.lft.to/lastmile_qr_scan"}, "is_reserved": 0, "name": "04967ed4d747c8626c66b03f8ddf4fe7", "lon": -77.02683516666667, "type": "electric_scooter", "bike_id": "04967ed4d747c8626c66b03f8ddf4fe7", "fusion_lon": 0.0, "lat": 38.906228166666665, "fusion_lat": 0.0}, {"is_disabled": 0, "rental_uris": {"android": "https://dc.lft.to/lastmile_qr_scan", "ios": "https://dc.lft.to/lastmile_qr_scan"}, "is_reserved": 0, "name": "6f39a4ff8a8e366954676c92c16c69cb", "lon": -77.03134216666666, "type": "electric_scooter", "bike_id": "6f39a4ff8a8e366954676c92c16c69cb", "fusion_lon": 0.0, "lat": 38.923659, "fusion_lat": 0.0}, {"is_disabled": 0, "rental_uris": {"android": "https://dc.lft.to/lastmile_qr_scan", "ios": "https://dc.lft.to/lastmile_qr_scan"}, "is_reserved": 0, "name": "47246476de73a9ce01df90da1f728e69", "lon": -77.02222883333333, "type": "electric_scooter", "bike_id": "47246476de73a9ce01df90da1f728e69", "fusion_lon": 0.0, "lat": 38.9127, "fusion_lat": 0.0}, {"is_disabled": 0, "rental_uris": {"android": "https://dc.lft.to/lastmile_qr_scan", "ios": "https://dc.lft.to/lastmile_qr_scan"}, "is_reserved": 0, "name": "1537564fdab745df200b6255e93b5202", "lon": -77.0314195, "type": "electric_scooter", "bike_id": "1537564fdab745df200b6255e93b5202", "fusion_lon": 0.0, "lat": 38.90962183333333, "fusion_lat": 0.0}, {"is_disabled": 0, "rental_uris": {"android": "https://dc.lft.to/lastmile_qr_scan", "ios": "https://dc.lft.to/lastmile_qr_scan"}, "is_reserved": 0, "name": "e12d88b51dbf24cc407ffc9253582dec", "lon": -77.00202233333333, "type": "electric_scooter", "bike_id": "e12d88b51dbf24cc407ffc9253582dec", "fusion_lon": 0.0, "lat": 38.91636883333334, "fusion_lat": 0.0}, {"is_disabled": 0, "rental_uris": {"android": "https://dc.lft.to/lastmile_qr_scan", "ios": "https://dc.lft.to/lastmile_qr_scan"}, "is_reserved": 0, "name": "a21715234fb223a82f62aa67592b0125", "lon": -77.03830366666666, "type": "electric_scooter", "bike_id": "a21715234fb223a82f62aa67592b0125", "fusion_lon": 0.0, "lat": 38.91109983333333, "fusion_lat": 0.0}, {"is_disabled": 0, "rental_uris": {"android": "https://dc.lft.to/lastmile_qr_scan", "ios": "https://dc.lft.to/lastmile_qr_scan"}, "is_reserved": 0, "name": "cc6cc04efaaa90b305c086d522b6c92c", "lon": -77.03205983333334, "type": "electric_scooter", "bike_id": "cc6cc04efaaa90b305c086d522b6c92c", "fusion_lon": 0.0, "lat": 38.91800166666667, "fusion_lat": 0.0}, {"is_disabled": 0, "rental_uris": {"android": "https://dc.lft.to/lastmile_qr_scan", "ios": "https://dc.lft.to/lastmile_qr_scan"}, "is_reserved": 0, "name": "0403845bede72f6f8e2f94ce351e35b0", "lon": -77.02507933333334, "type": "electric_bike", "bike_id": "0403845bede72f6f8e2f94ce351e35b0", "fusion_lon": 0.0, "lat": 38.934112, "fusion_lat": 0.0}, {"is_disabled": 0, "rental_uris": {"android": "https://dc.lft.to/lastmile_qr_scan", "ios": "https://dc.lft.to/lastmile_qr_scan"}, "is_reserved": 0, "name": "aa2c3b5ee7e5c9eff44eea92f01e1139", "lon": -77.01509883333334, "type": "electric_scooter", "bike_id": "aa2c3b5ee7e5c9eff44eea92f01e1139", "fusion_lon": 0.0, "lat": 38.9023825, "fusion_lat": 0.0}, {"is_disabled": 0, "rental_uris": {"android": "https://dc.lft.to/lastmile_qr_scan", "ios": "https://dc.lft.to/lastmile_qr_scan"}, "is_reserved": 0, "name": "ae77d4971b671c01bd81d3649b8bd2ed", "lon": -77.0118025, "type": "electric_scooter", "bike_id": "ae77d4971b671c01bd81d3649b8bd2ed", "fusion_lon": 0.0, "lat": 38.87085066666667, "fusion_lat": 0.0}, {"is_disabled": 0, "rental_uris": {"android": "https://dc.lft.to/lastmile_qr_scan", "ios": "https://dc.lft.to/lastmile_qr_scan"}, "is_reserved": 0, "name": "140cd148e80e907bbd3b382584df9372", "lon": -77.025245, "type": "electric_scooter", "bike_id": "140cd148e80e907bbd3b382584df9372", "fusion_lon": 0.0, "lat": 38.9757585, "fusion_lat": 0.0}, {"is_disabled": 0, "rental_uris": {"android": "https://dc.lft.to/lastmile_qr_scan", "ios": "https://dc.lft.to/lastmile_qr_scan"}, "is_reserved": 0, "name": "5889d3746da980b7564f8e2a361dc8af", "lon": -77.035854, "type": "electric_scooter", "bike_id": "5889d3746da980b7564f8e2a361dc8af", "fusion_lon": 0.0, "lat": 38.907615166666666, "fusion_lat": 0.0}, {"is_disabled": 0, "rental_uris": {"android": "https://dc.lft.to/lastmile_qr_scan", "ios": "https://dc.lft.to/lastmile_qr_scan"}, "is_reserved": 0, "name": "44e436baeb31145017dc66eb30de0f3b", "lon": -76.987948, "type": "electric_scooter", "bike_id": "44e436baeb31145017dc66eb30de0f3b", "fusion_lon": 0.0, "lat": 38.8920675, "fusion_lat": 0.0}, {"is_disabled": 0, "rental_uris": {"android": "https://dc.lft.to/lastmile_qr_scan", "ios": "https://dc.lft.to/lastmile_qr_scan"}, "is_reserved": 0, "name": "82f8cfc3f8d1c06b889dc0df7c2ebb0c", "lon": -77.0634755, "type": "electric_scooter", "bike_id": "82f8cfc3f8d1c06b889dc0df7c2ebb0c", "fusion_lon": 0.0, "lat": 38.94439033333333, "fusion_lat": 0.0}, {"is_disabled": 0, "rental_uris": {"android": "https://dc.lft.to/lastmile_qr_scan", "ios": "https://dc.lft.to/lastmile_qr_scan"}, "is_reserved": 0, "name": "af7cb2aed49367dde405a5a891f5105a", "lon": -77.00584983333333, "type": "electric_bike", "bike_id": "af7cb2aed49367dde405a5a891f5105a", "fusion_lon": 0.0, "lat": 38.836882833333334, "fusion_lat": 0.0}, {"is_disabled": 0, "rental_uris": {"android": "https://dc.lft.to/lastmile_qr_scan", "ios": "https://dc.lft.to/lastmile_qr_scan"}, "is_reserved": 0, "name": "f628bf36dc8078dc9084af5735779574", "lon": -77.0248165, "type": "electric_scooter", "bike_id": "f628bf36dc8078dc9084af5735779574", "fusion_lon": 0.0, "lat": 38.90259133333333, "fusion_lat": 0.0}, {"is_disabled": 0, "rental_uris": {"android": "https://dc.lft.to/lastmile_qr_scan", "ios": "https://dc.lft.to/lastmile_qr_scan"}, "is_reserved": 0, "name": "338b8fbfb949ec3f60acd697830a8914", "lon": -77.03267, "type": "electric_scooter", "bike_id": "338b8fbfb949ec3f60acd697830a8914", "fusion_lon": 0.0, "lat": 38.937354166666665, "fusion_lat": 0.0}, {"is_disabled": 0, "rental_uris": {"android": "https://dc.lft.to/lastmile_qr_scan", "ios": "https://dc.lft.to/lastmile_qr_scan"}, "is_reserved": 0, "name": "007a01f2c7949d918519a6ec63ab593c", "lon": -77.03101966666667, "type": "electric_scooter", "bike_id": "007a01f2c7949d918519a6ec63ab593c", "fusion_lon": 0.0, "lat": 38.93543016666667, "fusion_lat": 0.0}, {"is_disabled": 0, "rental_uris": {"android": "https://dc.lft.to/lastmile_qr_scan", "ios": "https://dc.lft.to/lastmile_qr_scan"}, "is_reserved": 0, "name": "c29dca5493451d651f5e10f53d8c6e33", "lon": -76.92928066666667, "type": "electric_bike", "bike_id": "c29dca5493451d651f5e10f53d8c6e33", "fusion_lon": 0.0, "lat": 38.90291216666667, "fusion_lat": 0.0}, {"is_disabled": 0, "rental_uris": {"android": "https://dc.lft.to/lastmile_qr_scan", "ios": "https://dc.lft.to/lastmile_qr_scan"}, "is_reserved": 0, "name": "f2c8a3c295d80fd9657abdce3d943799", "lon": -76.9617445, "type": "electric_bike", "bike_id": "f2c8a3c295d80fd9657abdce3d943799", "fusion_lon": 0.0, "lat": 38.918614833333336, "fusion_lat": 0.0}, {"is_disabled": 0, "rental_uris": {"android": "https://dc.lft.to/lastmile_qr_scan", "ios": "https://dc.lft.to/lastmile_qr_scan"}, "is_reserved": 0, "name": "a4b8a369898ff7225d47175c9e79be14", "lon": -76.933872, "type": "electric_scooter", "bike_id": "a4b8a369898ff7225d47175c9e79be14", "fusion_lon": 0.0, "lat": 38.899173833333336, "fusion_lat": 0.0}, {"is_disabled": 0, "rental_uris": {"android": "https://dc.lft.to/lastmile_qr_scan", "ios": "https://dc.lft.to/lastmile_qr_scan"}, "is_reserved": 0, "name": "82a5bc79677e44cfbb469a3cc106b041", "lon": -77.03779633333333, "type": "electric_scooter", "bike_id": "82a5bc79677e44cfbb469a3cc106b041", "fusion_lon": 0.0, "lat": 38.9362045, "fusion_lat": 0.0}, {"is_disabled": 0, "rental_uris": {"android": "https://dc.lft.to/lastmile_qr_scan", "ios": "https://dc.lft.to/lastmile_qr_scan"}, "is_reserved": 0, "name": "7687ced210ce5c80b32ba03c492a65bf", "lon": -77.0609245, "type": "electric_scooter", "bike_id": "7687ced210ce5c80b32ba03c492a65bf", "fusion_lon": 0.0, "lat": 38.94371483333333, "fusion_lat": 0.0}, {"is_disabled": 0, "rental_uris": {"android": "https://dc.lft.to/lastmile_qr_scan", "ios": "https://dc.lft.to/lastmile_qr_scan"}, "is_reserved": 0, "name": "6210f22f4ef01e1b0bac40bc1443fcd3", "lon": -77.01015566666666, "type": "electric_scooter", "bike_id": "6210f22f4ef01e1b0bac40bc1443fcd3", "fusion_lon": 0.0, "lat": 38.86716416666667, "fusion_lat": 0.0}, {"is_disabled": 0, "rental_uris": {"android": "https://dc.lft.to/lastmile_qr_scan", "ios": "https://dc.lft.to/lastmile_qr_scan"}, "is_reserved": 0, "name": "06ee0cb46a1bda278318543d7da920b8", "lon": -77.03067066666667, "type": "electric_scooter", "bike_id": "06ee0cb46a1bda278318543d7da920b8", "fusion_lon": 0.0, "lat": 38.90095066666667, "fusion_lat": 0.0}, {"is_disabled": 0, "rental_uris": {"android": "https://dc.lft.to/lastmile_qr_scan", "ios": "https://dc.lft.to/lastmile_qr_scan"}, "is_reserved": 0, "name": "ba473955dba765a177d625fe5be5f9d6", "lon": -77.051343, "type": "electric_scooter", "bike_id": "ba473955dba765a177d625fe5be5f9d6", "fusion_lon": 0.0, "lat": 38.90710766666667, "fusion_lat": 0.0}, {"is_disabled": 0, "rental_uris": {"android": "https://dc.lft.to/lastmile_qr_scan", "ios": "https://dc.lft.to/lastmile_qr_scan"}, "is_reserved": 0, "name": "b9660468b44f486078ee7561576c1cc4", "lon": -76.96554233333333, "type": "electric_scooter", "bike_id": "b9660468b44f486078ee7561576c1cc4", "fusion_lon": 0.0, "lat": 38.918413666666666, "fusion_lat": 0.0}, {"is_disabled": 0, "rental_uris": {"android": "https://dc.lft.to/lastmile_qr_scan", "ios": "https://dc.lft.to/lastmile_qr_scan"}, "is_reserved": 0, "name": "479c53f7db7bdb4979c14464a3412a44", "lon": -77.0140355, "type": "electric_scooter", "bike_id": "479c53f7db7bdb4979c14464a3412a44", "fusion_lon": 0.0, "lat": 38.928630166666665, "fusion_lat": 0.0}, {"is_disabled": 0, "rental_uris": {"android": "https://dc.lft.to/lastmile_qr_scan", "ios": "https://dc.lft.to/lastmile_qr_scan"}, "is_reserved": 0, "name": "0957fdc383b04712f42119212a23aa0a", "lon": -76.9095235, "type": "electric_bike", "bike_id": "0957fdc383b04712f42119212a23aa0a", "fusion_lon": 0.0, "lat": 38.85423616666667, "fusion_lat": 0.0}, {"is_disabled": 0, "rental_uris": {"android": "https://dc.lft.to/lastmile_qr_scan", "ios": "https://dc.lft.to/lastmile_qr_scan"}, "is_reserved": 0, "name": "a6e8089fc736713aa1e930e154821b10", "lon": -77.02196133333334, "type": "electric_scooter", "bike_id": "a6e8089fc736713aa1e930e154821b10", "fusion_lon": 0.0, "lat": 38.91126366666667, "fusion_lat": 0.0}, {"is_disabled": 0, "rental_uris": {"android": "https://dc.lft.to/lastmile_qr_scan", "ios": "https://dc.lft.to/lastmile_qr_scan"}, "is_reserved": 0, "name": "28e0489129d8f31f992f124ded16a709", "lon": -76.941547, "type": "electric_scooter", "bike_id": "28e0489129d8f31f992f124ded16a709", "fusion_lon": 0.0, "lat": 38.8836115, "fusion_lat": 0.0}, {"is_disabled": 0, "rental_uris": {"android": "https://dc.lft.to/lastmile_qr_scan", "ios": "https://dc.lft.to/lastmile_qr_scan"}, "is_reserved": 0, "name": "941738aa922fdf5cdd7786601b34e917", "lon": -77.0313265, "type": "electric_bike", "bike_id": "941738aa922fdf5cdd7786601b34e917", "fusion_lon": 0.0, "lat": 38.962809166666666, "fusion_lat": 0.0}, {"is_disabled": 0, "rental_uris": {"android": "https://dc.lft.to/lastmile_qr_scan", "ios": "https://dc.lft.to/lastmile_qr_scan"}, "is_reserved": 0, "name": "0797b4d2ccb150b11e1176f3797f1f15", "lon": -76.937348, "type": "electric_scooter", "bike_id": "0797b4d2ccb150b11e1176f3797f1f15", "fusion_lon": 0.0, "lat": 38.89015466666667, "fusion_lat": 0.0}, {"is_disabled": 0, "rental_uris": {"android": "https://dc.lft.to/lastmile_qr_scan", "ios": "https://dc.lft.to/lastmile_qr_scan"}, "is_reserved": 0, "name": "77ffe44f4e7682a02d8120ced31915b6", "lon": -77.0532825, "type": "electric_scooter", "bike_id": "77ffe44f4e7682a02d8120ced31915b6", "fusion_lon": 0.0, "lat": 38.9031205, "fusion_lat": 0.0}, {"is_disabled": 0, "rental_uris": {"android": "https://dc.lft.to/lastmile_qr_scan", "ios": "https://dc.lft.to/lastmile_qr_scan"}, "is_reserved": 0, "name": "6ad02f12ca7290b2d682cff9f7bfa7db", "lon": -77.05295333333333, "type": "electric_scooter", "bike_id": "6ad02f12ca7290b2d682cff9f7bfa7db", "fusion_lon": 0.0, "lat": 38.903405666666664, "fusion_lat": 0.0}, {"is_disabled": 0, "rental_uris": {"android": "https://dc.lft.to/lastmile_qr_scan", "ios": "https://dc.lft.to/lastmile_qr_scan"}, "is_reserved": 0, "name": "ce08845238570f1af2fbfe29161b1379", "lon": -77.03235366666667, "type": "electric_scooter", "bike_id": "ce08845238570f1af2fbfe29161b1379", "fusion_lon": 0.0, "lat": 38.92497816666667, "fusion_lat": 0.0}, {"is_disabled": 0, "rental_uris": {"android": "https://dc.lft.to/lastmile_qr_scan", "ios": "https://dc.lft.to/lastmile_qr_scan"}, "is_reserved": 0, "name": "24f9c75b4c79408fa6ed36b6765f3399", "lon": -77.02225466666667, "type": "electric_scooter", "bike_id": "24f9c75b4c79408fa6ed36b6765f3399", "fusion_lon": 0.0, "lat": 38.914140833333335, "fusion_lat": 0.0}, {"is_disabled": 0, "rental_uris": {"android": "https://dc.lft.to/lastmile_qr_scan", "ios": "https://dc.lft.to/lastmile_qr_scan"}, "is_reserved": 0, "name": "c9f0978f9a52f7d648e429cf39b64873", "lon": -77.0226545, "type": "electric_scooter", "bike_id": "c9f0978f9a52f7d648e429cf39b64873", "fusion_lon": 0.0, "lat": 38.928270499999996, "fusion_lat": 0.0}, {"is_disabled": 0, "rental_uris": {"android": "https://dc.lft.to/lastmile_qr_scan", "ios": "https://dc.lft.to/lastmile_qr_scan"}, "is_reserved": 0, "name": "4a0065790807c067a24941c5356741fd", "lon": -77.036609, "type": "electric_scooter", "bike_id": "4a0065790807c067a24941c5356741fd", "fusion_lon": 0.0, "lat": 38.921394166666666, "fusion_lat": 0.0}, {"is_disabled": 0, "rental_uris": {"android": "https://dc.lft.to/lastmile_qr_scan", "ios": "https://dc.lft.to/lastmile_qr_scan"}, "is_reserved": 0, "name": "654d45390badd8a7dc0590b27f924ba5", "lon": -77.00589133333334, "type": "electric_scooter", "bike_id": "654d45390badd8a7dc0590b27f924ba5", "fusion_lon": 0.0, "lat": 38.92753583333333, "fusion_lat": 0.0}, {"is_disabled": 0, "rental_uris": {"android": "https://dc.lft.to/lastmile_qr_scan", "ios": "https://dc.lft.to/lastmile_qr_scan"}, "is_reserved": 0, "name": "a48715ca98c605286b10b0b00ffaa1a5", "lon": -77.00812866666666, "type": "electric_scooter", "bike_id": "a48715ca98c605286b10b0b00ffaa1a5", "fusion_lon": 0.0, "lat": 38.88331, "fusion_lat": 0.0}, {"is_disabled": 0, "rental_uris": {"android": "https://dc.lft.to/lastmile_qr_scan", "ios": "https://dc.lft.to/lastmile_qr_scan"}, "is_reserved": 0, "name": "ff8f0ba15f67d1ed7c564cf8f5483a0f", "lon": -76.9969935, "type": "electric_scooter", "bike_id": "ff8f0ba15f67d1ed7c564cf8f5483a0f", "fusion_lon": 0.0, "lat": 38.83864033333333, "fusion_lat": 0.0}, {"is_disabled": 0, "rental_uris": {"android": "https://dc.lft.to/lastmile_qr_scan", "ios": "https://dc.lft.to/lastmile_qr_scan"}, "is_reserved": 0, "name": "f8810187b3e76627886878677d112663", "lon": -77.0185585, "type": "electric_scooter", "bike_id": "f8810187b3e76627886878677d112663", "fusion_lon": 0.0, "lat": 38.95433466666667, "fusion_lat": 0.0}, {"is_disabled": 0, "rental_uris": {"android": "https://dc.lft.to/lastmile_qr_scan", "ios": "https://dc.lft.to/lastmile_qr_scan"}, "is_reserved": 0, "name": "c7d4371845b26d1915f9e0cd26f42801", "lon": -77.0008355, "type": "electric_bike", "bike_id": "c7d4371845b26d1915f9e0cd26f42801", "fusion_lon": 0.0, "lat": 38.8860165, "fusion_lat": 0.0}, {"is_disabled": 0, "rental_uris": {"android": "https://dc.lft.to/lastmile_qr_scan", "ios": "https://dc.lft.to/lastmile_qr_scan"}, "is_reserved": 0, "name": "4c054a62ea4565fa3e4cf4213075b448", "lon": -77.02126383333334, "type": "electric_bike", "bike_id": "4c054a62ea4565fa3e4cf4213075b448", "fusion_lon": 0.0, "lat": 38.93578616666667, "fusion_lat": 0.0}, {"is_disabled": 0, "rental_uris": {"android": "https://dc.lft.to/lastmile_qr_scan", "ios": "https://dc.lft.to/lastmile_qr_scan"}, "is_reserved": 0, "name": "7ea7dd33f4abaf3096af7be4aa263f9d", "lon": -77.02367433333333, "type": "electric_scooter", "bike_id": "7ea7dd33f4abaf3096af7be4aa263f9d", "fusion_lon": 0.0, "lat": 38.918997166666664, "fusion_lat": 0.0}, {"is_disabled": 0, "rental_uris": {"android": "https://dc.lft.to/lastmile_qr_scan", "ios": "https://dc.lft.to/lastmile_qr_scan"}, "is_reserved": 0, "name": "fabfecbeffe2e7aef40c052631154ce4", "lon": -77.03249866666667, "type": "electric_scooter", "bike_id": "fabfecbeffe2e7aef40c052631154ce4", "fusion_lon": 0.0, "lat": 38.921102166666664, "fusion_lat": 0.0}, {"is_disabled": 0, "rental_uris": {"android": "https://dc.lft.to/lastmile_qr_scan", "ios": "https://dc.lft.to/lastmile_qr_scan"}, "is_reserved": 0, "name": "dbbc2b36dc16306e559a612e202b4086", "lon": -77.01891, "type": "electric_scooter", "bike_id": "dbbc2b36dc16306e559a612e202b4086", "fusion_lon": 0.0, "lat": 38.92955716666667, "fusion_lat": 0.0}, {"is_disabled": 0, "rental_uris": {"android": "https://dc.lft.to/lastmile_qr_scan", "ios": "https://dc.lft.to/lastmile_qr_scan"}, "is_reserved": 0, "name": "ad80e0f57e7257ff10512a683d58e8fb", "lon": -76.9791705, "type": "electric_scooter", "bike_id": "ad80e0f57e7257ff10512a683d58e8fb", "fusion_lon": 0.0, "lat": 38.904345166666666, "fusion_lat": 0.0}, {"is_disabled": 0, "rental_uris": {"android": "https://dc.lft.to/lastmile_qr_scan", "ios": "https://dc.lft.to/lastmile_qr_scan"}, "is_reserved": 0, "name": "9052a3f9e4762bcbb7885fd3795ed38c", "lon": -77.00874383333333, "type": "electric_scooter", "bike_id": "9052a3f9e4762bcbb7885fd3795ed38c", "fusion_lon": 0.0, "lat": 38.90574516666667, "fusion_lat": 0.0}, {"is_disabled": 0, "rental_uris": {"android": "https://dc.lft.to/lastmile_qr_scan", "ios": "https://dc.lft.to/lastmile_qr_scan"}, "is_reserved": 0, "name": "acce1b968f23aac3ede44212342044c8", "lon": -77.04330716666666, "type": "electric_scooter", "bike_id": "acce1b968f23aac3ede44212342044c8", "fusion_lon": 0.0, "lat": 38.9233455, "fusion_lat": 0.0}, {"is_disabled": 0, "rental_uris": {"android": "https://dc.lft.to/lastmile_qr_scan", "ios": "https://dc.lft.to/lastmile_qr_scan"}, "is_reserved": 0, "name": "6f38a72d08d7424a24685517c7878b11", "lon": -77.012259, "type": "electric_scooter", "bike_id": "6f38a72d08d7424a24685517c7878b11", "fusion_lon": 0.0, "lat": 38.90720366666667, "fusion_lat": 0.0}, {"is_disabled": 0, "rental_uris": {"android": "https://dc.lft.to/lastmile_qr_scan", "ios": "https://dc.lft.to/lastmile_qr_scan"}, "is_reserved": 0, "name": "3a85293adf890edf8c6208682baf0ad1", "lon": -77.03452466666667, "type": "electric_scooter", "bike_id": "3a85293adf890edf8c6208682baf0ad1", "fusion_lon": 0.0, "lat": 38.908851166666665, "fusion_lat": 0.0}, {"is_disabled": 0, "rental_uris": {"android": "https://dc.lft.to/lastmile_qr_scan", "ios": "https://dc.lft.to/lastmile_qr_scan"}, "is_reserved": 0, "name": "6d3cc89d8c27c17845d41def4eadc4f6", "lon": -76.932032, "type": "electric_bike", "bike_id": "6d3cc89d8c27c17845d41def4eadc4f6", "fusion_lon": 0.0, "lat": 38.87230066666667, "fusion_lat": 0.0}, {"is_disabled": 0, "rental_uris": {"android": "https://dc.lft.to/lastmile_qr_scan", "ios": "https://dc.lft.to/lastmile_qr_scan"}, "is_reserved": 0, "name": "7c72c63f334d48b363981ea4368a1d15", "lon": -76.98074133333333, "type": "electric_scooter", "bike_id": "7c72c63f334d48b363981ea4368a1d15", "fusion_lon": 0.0, "lat": 38.919346, "fusion_lat": 0.0}, {"is_disabled": 0, "rental_uris": {"android": "https://dc.lft.to/lastmile_qr_scan", "ios": "https://dc.lft.to/lastmile_qr_scan"}, "is_reserved": 0, "name": "0b8824e673315b523df5fc372741cdda", "lon": -77.039035, "type": "electric_scooter", "bike_id": "0b8824e673315b523df5fc372741cdda", "fusion_lon": 0.0, "lat": 38.91428633333334, "fusion_lat": 0.0}, {"is_disabled": 0, "rental_uris": {"android": "https://dc.lft.to/lastmile_qr_scan", "ios": "https://dc.lft.to/lastmile_qr_scan"}, "is_reserved": 0, "name": "c9af9ee28a767ebc3cfc0fcd991c840f", "lon": -77.0175385, "type": "electric_scooter", "bike_id": "c9af9ee28a767ebc3cfc0fcd991c840f", "fusion_lon": 0.0, "lat": 38.9135165, "fusion_lat": 0.0}, {"is_disabled": 0, "rental_uris": {"android": "https://dc.lft.to/lastmile_qr_scan", "ios": "https://dc.lft.to/lastmile_qr_scan"}, "is_reserved": 0, "name": "753b20c27c3bcc3e6c5ea54cd60542c7", "lon": -77.01640016666667, "type": "electric_scooter", "bike_id": "753b20c27c3bcc3e6c5ea54cd60542c7", "fusion_lon": 0.0, "lat": 38.898645333333334, "fusion_lat": 0.0}, {"is_disabled": 0, "rental_uris": {"android": "https://dc.lft.to/lastmile_qr_scan", "ios": "https://dc.lft.to/lastmile_qr_scan"}, "is_reserved": 0, "name": "ae2d1f5cef1a771b3d90347d54709bd1", "lon": -77.02806583333333, "type": "electric_scooter", "bike_id": "ae2d1f5cef1a771b3d90347d54709bd1", "fusion_lon": 0.0, "lat": 38.917708166666664, "fusion_lat": 0.0}, {"is_disabled": 0, "rental_uris": {"android": "https://dc.lft.to/lastmile_qr_scan", "ios": "https://dc.lft.to/lastmile_qr_scan"}, "is_reserved": 0, "name": "22728c04b306f41ec83e2480b8761879", "lon": -77.00128866666667, "type": "electric_scooter", "bike_id": "22728c04b306f41ec83e2480b8761879", "fusion_lon": 0.0, "lat": 38.912462833333336, "fusion_lat": 0.0}, {"is_disabled": 0, "rental_uris": {"android": "https://dc.lft.to/lastmile_qr_scan", "ios": "https://dc.lft.to/lastmile_qr_scan"}, "is_reserved": 0, "name": "194eaf01155ae06a01b953d72c914dc7", "lon": -76.99485233333333, "type": "electric_scooter", "bike_id": "194eaf01155ae06a01b953d72c914dc7", "fusion_lon": 0.0, "lat": 38.9322695, "fusion_lat": 0.0}, {"is_disabled": 0, "rental_uris": {"android": "https://dc.lft.to/lastmile_qr_scan", "ios": "https://dc.lft.to/lastmile_qr_scan"}, "is_reserved": 0, "name": "2a9c33ce6e2b13585044adb4d13f4211", "lon": -77.0101285, "type": "electric_scooter", "bike_id": "2a9c33ce6e2b13585044adb4d13f4211", "fusion_lon": 0.0, "lat": 38.87965066666667, "fusion_lat": 0.0}, {"is_disabled": 0, "rental_uris": {"android": "https://dc.lft.to/lastmile_qr_scan", "ios": "https://dc.lft.to/lastmile_qr_scan"}, "is_reserved": 0, "name": "f827b76e10eb82a8bc79d6beadf09914", "lon": -77.0617645, "type": "electric_bike", "bike_id": "f827b76e10eb82a8bc79d6beadf09914", "fusion_lon": 0.0, "lat": 38.812712166666664, "fusion_lat": 0.0}, {"is_disabled": 0, "rental_uris": {"android": "https://dc.lft.to/lastmile_qr_scan", "ios": "https://dc.lft.to/lastmile_qr_scan"}, "is_reserved": 0, "name": "0c32d92ec496313cfb0c4afb00316924", "lon": -77.008907, "type": "electric_scooter", "bike_id": "0c32d92ec496313cfb0c4afb00316924", "fusion_lon": 0.0, "lat": 38.8953895, "fusion_lat": 0.0}, {"is_disabled": 0, "rental_uris": {"android": "https://dc.lft.to/lastmile_qr_scan", "ios": "https://dc.lft.to/lastmile_qr_scan"}, "is_reserved": 0, "name": "0e83843d52ee6720b16b541767dfd7a0", "lon": -77.03402566666666, "type": "electric_scooter", "bike_id": "0e83843d52ee6720b16b541767dfd7a0", "fusion_lon": 0.0, "lat": 38.91966683333333, "fusion_lat": 0.0}, {"is_disabled": 0, "rental_uris": {"android": "https://dc.lft.to/lastmile_qr_scan", "ios": "https://dc.lft.to/lastmile_qr_scan"}, "is_reserved": 0, "name": "5d98a6f3705a04f55b52ddcb8dac7fc7", "lon": -77.079013, "type": "electric_bike", "bike_id": "5d98a6f3705a04f55b52ddcb8dac7fc7", "fusion_lon": 0.0, "lat": 38.8393205, "fusion_lat": 0.0}, {"is_disabled": 0, "rental_uris": {"android": "https://dc.lft.to/lastmile_qr_scan", "ios": "https://dc.lft.to/lastmile_qr_scan"}, "is_reserved": 0, "name": "199968b4e41760af78d4c770ae83b4cc", "lon": -77.06131833333333, "type": "electric_scooter", "bike_id": "199968b4e41760af78d4c770ae83b4cc", "fusion_lon": 0.0, "lat": 38.943723166666665, "fusion_lat": 0.0}, {"is_disabled": 0, "rental_uris": {"android": "https://dc.lft.to/lastmile_qr_scan", "ios": "https://dc.lft.to/lastmile_qr_scan"}, "is_reserved": 0, "name": "2a9d5578736663354e337d0c23896966", "lon": -77.0240805, "type": "electric_scooter", "bike_id": "2a9d5578736663354e337d0c23896966", "fusion_lon": 0.0, "lat": 38.9168675, "fusion_lat": 0.0}, {"is_disabled": 0, "rental_uris": {"android": "https://dc.lft.to/lastmile_qr_scan", "ios": "https://dc.lft.to/lastmile_qr_scan"}, "is_reserved": 0, "name": "31e61fab62e5dc434971a2b3c4105e88", "lon": -77.046764, "type": "electric_scooter", "bike_id": "31e61fab62e5dc434971a2b3c4105e88", "fusion_lon": 0.0, "lat": 38.907448, "fusion_lat": 0.0}, {"is_disabled": 0, "rental_uris": {"android": "https://dc.lft.to/lastmile_qr_scan", "ios": "https://dc.lft.to/lastmile_qr_scan"}, "is_reserved": 0, "name": "a4942bb0a372b3ae2e4e491ad48cbf6d", "lon": -76.99172733333333, "type": "electric_bike", "bike_id": "a4942bb0a372b3ae2e4e491ad48cbf6d", "fusion_lon": 0.0, "lat": 38.97258583333333, "fusion_lat": 0.0}, {"is_disabled": 0, "rental_uris": {"android": "https://dc.lft.to/lastmile_qr_scan", "ios": "https://dc.lft.to/lastmile_qr_scan"}, "is_reserved": 0, "name": "b07141f9c74e52cbdc76381e163e7be7", "lon": -77.03059633333334, "type": "electric_scooter", "bike_id": "b07141f9c74e52cbdc76381e163e7be7", "fusion_lon": 0.0, "lat": 38.956294166666666, "fusion_lat": 0.0}, {"is_disabled": 0, "rental_uris": {"android": "https://dc.lft.to/lastmile_qr_scan", "ios": "https://dc.lft.to/lastmile_qr_scan"}, "is_reserved": 0, "name": "cf493bb718f1ac76c1cf3a2fe6cdec94", "lon": -76.99687433333334, "type": "electric_scooter", "bike_id": "cf493bb718f1ac76c1cf3a2fe6cdec94", "fusion_lon": 0.0, "lat": 38.86038283333333, "fusion_lat": 0.0}, {"is_disabled": 0, "rental_uris": {"android": "https://dc.lft.to/lastmile_qr_scan", "ios": "https://dc.lft.to/lastmile_qr_scan"}, "is_reserved": 0, "name": "9d55fab27f5dba193a91664f60818a7a", "lon": -77.04124916666666, "type": "electric_scooter", "bike_id": "9d55fab27f5dba193a91664f60818a7a", "fusion_lon": 0.0, "lat": 38.91709266666667, "fusion_lat": 0.0}, {"is_disabled": 0, "rental_uris": {"android": "https://dc.lft.to/lastmile_qr_scan", "ios": "https://dc.lft.to/lastmile_qr_scan"}, "is_reserved": 0, "name": "78058b274884e9b3022c98cf7745e293", "lon": -77.14776633333334, "type": "electric_bike", "bike_id": "78058b274884e9b3022c98cf7745e293", "fusion_lon": 0.0, "lat": 39.095958833333334, "fusion_lat": 0.0}, {"is_disabled": 0, "rental_uris": {"android": "https://dc.lft.to/lastmile_qr_scan", "ios": "https://dc.lft.to/lastmile_qr_scan"}, "is_reserved": 0, "name": "534e10a8e6e1ea3bb5bd69fbf993546c", "lon": -77.09582016666667, "type": "electric_bike", "bike_id": "534e10a8e6e1ea3bb5bd69fbf993546c", "fusion_lon": 0.0, "lat": 38.8378845, "fusion_lat": 0.0}, {"is_disabled": 0, "rental_uris": {"android": "https://dc.lft.to/lastmile_qr_scan", "ios": "https://dc.lft.to/lastmile_qr_scan"}, "is_reserved": 0, "name": "207bc5355591573b1e6a28f91d8a677c", "lon": -77.02573833333334, "type": "electric_scooter", "bike_id": "207bc5355591573b1e6a28f91d8a677c", "fusion_lon": 0.0, "lat": 38.89983483333334, "fusion_lat": 0.0}, {"is_disabled": 0, "rental_uris": {"android": "https://dc.lft.to/lastmile_qr_scan", "ios": "https://dc.lft.to/lastmile_qr_scan"}, "is_reserved": 0, "name": "ca6409c75af4051ae345917aeb2952ef", "lon": -77.00258633333333, "type": "electric_scooter", "bike_id": "ca6409c75af4051ae345917aeb2952ef", "fusion_lon": 0.0, "lat": 38.911743, "fusion_lat": 0.0}, {"is_disabled": 0, "rental_uris": {"android": "https://dc.lft.to/lastmile_qr_scan", "ios": "https://dc.lft.to/lastmile_qr_scan"}, "is_reserved": 0, "name": "e8f5e847fcf7970fa4351f3069b8e78e", "lon": -77.03611983333333, "type": "electric_scooter", "bike_id": "e8f5e847fcf7970fa4351f3069b8e78e", "fusion_lon": 0.0, "lat": 38.93149233333333, "fusion_lat": 0.0}, {"is_disabled": 0, "rental_uris": {"android": "https://dc.lft.to/lastmile_qr_scan", "ios": "https://dc.lft.to/lastmile_qr_scan"}, "is_reserved": 0, "name": "8dd3770737b4f11b520d92bcfdcfe328", "lon": -77.04791666666667, "type": "electric_bike", "bike_id": "8dd3770737b4f11b520d92bcfdcfe328", "fusion_lon": 0.0, "lat": 38.9193635, "fusion_lat": 0.0}, {"is_disabled": 0, "rental_uris": {"android": "https://dc.lft.to/lastmile_qr_scan", "ios": "https://dc.lft.to/lastmile_qr_scan"}, "is_reserved": 0, "name": "db190f7a9c52a2008a937a68b214e3a8", "lon": -77.00124783333334, "type": "electric_bike", "bike_id": "db190f7a9c52a2008a937a68b214e3a8", "fusion_lon": 0.0, "lat": 38.99935816666667, "fusion_lat": 0.0}, {"is_disabled": 0, "rental_uris": {"android": "https://dc.lft.to/lastmile_qr_scan", "ios": "https://dc.lft.to/lastmile_qr_scan"}, "is_reserved": 0, "name": "31a14043bf37885ebd50269230f57674", "lon": -76.94890633333333, "type": "electric_scooter", "bike_id": "31a14043bf37885ebd50269230f57674", "fusion_lon": 0.0, "lat": 38.895131, "fusion_lat": 0.0}, {"is_disabled": 0, "rental_uris": {"android": "https://dc.lft.to/lastmile_qr_scan", "ios": "https://dc.lft.to/lastmile_qr_scan"}, "is_reserved": 0, "name": "143156146462783fa28767dae68842e0", "lon": -76.947006, "type": "electric_scooter", "bike_id": "143156146462783fa28767dae68842e0", "fusion_lon": 0.0, "lat": 38.897292166666666, "fusion_lat": 0.0}, {"is_disabled": 0, "rental_uris": {"android": "https://dc.lft.to/lastmile_qr_scan", "ios": "https://dc.lft.to/lastmile_qr_scan"}, "is_reserved": 0, "name": "cfaf657fea047817751f08ab919bca04", "lon": -77.0182355, "type": "electric_scooter", "bike_id": "cfaf657fea047817751f08ab919bca04", "fusion_lon": 0.0, "lat": 38.90427583333334, "fusion_lat": 0.0}, {"is_disabled": 0, "rental_uris": {"android": "https://dc.lft.to/lastmile_qr_scan", "ios": "https://dc.lft.to/lastmile_qr_scan"}, "is_reserved": 0, "name": "478190351bdfb2beea87d01bf92b2c1d", "lon": -76.99228816666667, "type": "electric_scooter", "bike_id": "478190351bdfb2beea87d01bf92b2c1d", "fusion_lon": 0.0, "lat": 38.89885966666667, "fusion_lat": 0.0}, {"is_disabled": 0, "rental_uris": {"android": "https://dc.lft.to/lastmile_qr_scan", "ios": "https://dc.lft.to/lastmile_qr_scan"}, "is_reserved": 0, "name": "a974fc92c3e3fca166de4d849ed686b3", "lon": -76.96555583333334, "type": "electric_scooter", "bike_id": "a974fc92c3e3fca166de4d849ed686b3", "fusion_lon": 0.0, "lat": 38.918426333333336, "fusion_lat": 0.0}, {"is_disabled": 0, "rental_uris": {"android": "https://dc.lft.to/lastmile_qr_scan", "ios": "https://dc.lft.to/lastmile_qr_scan"}, "is_reserved": 0, "name": "400c9b06c27bc610f8a4203c3673cd27", "lon": -77.04347616666666, "type": "electric_scooter", "bike_id": "400c9b06c27bc610f8a4203c3673cd27", "fusion_lon": 0.0, "lat": 38.911889, "fusion_lat": 0.0}, {"is_disabled": 0, "rental_uris": {"android": "https://dc.lft.to/lastmile_qr_scan", "ios": "https://dc.lft.to/lastmile_qr_scan"}, "is_reserved": 0, "name": "69ee7c8501aae1aba73e78f565e1ab67", "lon": -76.94717183333333, "type": "electric_scooter", "bike_id": "69ee7c8501aae1aba73e78f565e1ab67", "fusion_lon": 0.0, "lat": 38.896687166666666, "fusion_lat": 0.0}, {"is_disabled": 0, "rental_uris": {"android": "https://dc.lft.to/lastmile_qr_scan", "ios": "https://dc.lft.to/lastmile_qr_scan"}, "is_reserved": 0, "name": "071cc344d784c238a1d263555852b5db", "lon": -76.9668265, "type": "electric_bike", "bike_id": "071cc344d784c238a1d263555852b5db", "fusion_lon": 0.0, "lat": 38.95889783333333, "fusion_lat": 0.0}, {"is_disabled": 0, "rental_uris": {"android": "https://dc.lft.to/lastmile_qr_scan", "ios": "https://dc.lft.to/lastmile_qr_scan"},