{"data": {"bikes": [{"fusion_lat": 0.0, "lon": -77.027965, "is_reserved": 0, "bike_id": "5743a055c5b3e6bec1e0337fa345cf71", "fusion_lon": 0.0, "rental_uris": {"android": "https://dc.lft.to/lastmile_qr_scan", "ios": "https://dc.lft.to/lastmile_qr_scan"}, "name": "5743a055c5b3e6bec1e0337fa345cf71", "type": "electric_scooter", "lat": 38.90610133333333, "is_disabled": 0}, {"fusion_lat": 0.0, "lon": -77.042365, "is_reserved": 0, "bike_id": "fa02fbd934006f10ff863a9880728b8a", "fusion_lon": 0.0, "rental_uris": {"android": "https://dc.lft.to/lastmile_qr_scan", "ios": "https://dc.lft.to/lastmile_qr_scan"}, "name": "fa02fbd934006f10ff863a9880728b8a", "type": "electric_scooter", "lat": 38.91343616666666, "is_disabled": 0}, {"fusion_lat": 0.0, "lon": -77.03545366666667, "is_reserved": 0, "bike_id": "c4a04c6e9c340f3fcc5dd39ea35236ac", "fusion_lon": 0.0, "rental_uris": {"android": "https://dc.lft.to/lastmile_qr_scan", "ios": "https://dc.lft.to/lastmile_qr_scan"}, "name": "c4a04c6e9c340f3fcc5dd39ea35236ac", "type": "electric_scooter", "lat": 38.92326116666667, "is_disabled": 0}, {"fusion_lat": 0.0, "lon": -77.02646316666667, "is_reserved": 0, "bike_id": "869effc6c4dd5d14bb5e6290b960d014", "fusion_lon": 0.0, "rental_uris": {"android": "https://dc.lft.to/lastmile_qr_scan", "ios": "https://dc.lft.to/lastmile_qr_scan"}, "name": "869effc6c4dd5d14bb5e6290b960d014", "type": "electric_scooter", "lat": 38.89215733333333, "is_disabled": 0}, {"fusion_lat": 0.0, "lon": -77.02168766666666, "is_reserved": 0, "bike_id": "f4158d9b9e32e78a37524cc40896dc8c", "fusion_lon": 0.0, "rental_uris": {"android": "https://dc.lft.to/lastmile_qr_scan", "ios": "https://dc.lft.to/lastmile_qr_scan"}, "name": "f4158d9b9e32e78a37524cc40896dc8c", "type": "electric_scooter", "lat": 38.905593, "is_disabled": 0}, {"fusion_lat": 0.0, "lon": -76.98880933333334, "is_reserved": 0, "bike_id": "eae23493a08b45de1fe96e91a5bfd993", "fusion_lon": 0.0, "rental_uris": {"android": "https://dc.lft.to/lastmile_qr_scan", "ios": "https://dc.lft.to/lastmile_qr_scan"}, "name": "eae23493a08b45de1fe96e91a5bfd993", "type": "electric_scooter", "lat": 38.86655233333333, "is_disabled": 0}, {"fusion_lat": 0.0, "lon": -77.02282683333334, "is_reserved": 0, "bike_id": "7405df8ae2ec7b58268ab9077c875314", "fusion_lon": 0.0, "rental_uris": {"android": "https://dc.lft.to/lastmile_qr_scan", "ios": "https://dc.lft.to/lastmile_qr_scan"}, "name": "7405df8ae2ec7b58268ab9077c875314", "type": "electric_scooter", "lat": 38.917462, "is_disabled": 0}, {"fusion_lat": 0.0, "lon": -76.99711416666666, "is_reserved": 0, "bike_id": "e5e0abfdfdc44c6bb86b567507e506cc", "fusion_lon": 0.0, "rental_uris": {"android": "https://dc.lft.to/lastmile_qr_scan", "ios": "https://dc.lft.to/lastmile_qr_scan"}, "name": "e5e0abfdfdc44c6bb86b567507e506cc", "type": "electric_scooter", "lat": 38.8591545, "is_disabled": 0}, {"fusion_lat": 0.0, "lon": -77.024156, "is_reserved": 0, "bike_id": "0216392f9a1435f8e1d499330ccb3507", "fusion_lon": 0.0, "rental_uris": {"android": "https://dc.lft.to/lastmile_qr_scan", "ios": "https://dc.lft.to/lastmile_qr_scan"}, "name": "0216392f9a1435f8e1d499330ccb3507", "type": "electric_scooter", "lat": 38.91930633333333, "is_disabled": 0}, {"fusion_lat": 0.0, "lon": -77.02421533333333, "is_reserved": 0, "bike_id": "70034790be7f1e2a1b85c00913610505", "fusion_lon": 0.0, "rental_uris": {"android": "https://dc.lft.to/lastmile_qr_scan", "ios": "https://dc.lft.to/lastmile_qr_scan"}, "name": "70034790be7f1e2a1b85c00913610505", "type": "electric_scooter", "lat": 38.927555166666664, "is_disabled": 0}, {"fusion_lat": 0.0, "lon": -77.0340465, "is_reserved": 0, "bike_id": "176557a68670e4ae81848e59749ce18b", "fusion_lon": 0.0, "rental_uris": {"android": "https://dc.lft.to/lastmile_qr_scan", "ios": "https://dc.lft.to/lastmile_qr_scan"}, "name": "176557a68670e4ae81848e59749ce18b", "type": "electric_scooter", "lat": 38.9063825, "is_disabled": 0}, {"fusion_lat": 0.0, "lon": -77.0354775, "is_reserved": 0, "bike_id": "448c0ba21e4ea9742aeccb77b93ef2e0", "fusion_lon": 0.0, "rental_uris": {"android": "https://dc.lft.to/lastmile_qr_scan", "ios": "https://dc.lft.to/lastmile_qr_scan"}, "name": "448c0ba21e4ea9742aeccb77b93ef2e0", "type": "electric_scooter", "lat": 38.928772333333335, "is_disabled": 0}, {"fusion_lat": 0.0, "lon": -77.02976433333333, "is_reserved": 0, "bike_id": "9d90d0835cd874c9e7df52670d050431", "fusion_lon": 0.0, "rental_uris": {"android": "https://dc.lft.to/lastmile_qr_scan", "ios": "https://dc.lft.to/lastmile_qr_scan"}, "name": "9d90d0835cd874c9e7df52670d050431", "type": "electric_scooter", "lat": 38.929513166666666, "is_disabled": 0}, {"fusion_lat": 0.0, "lon": -76.9854225, "is_reserved": 0, "bike_id": "9ec1f4444878cbf1c6ae150c889a1f40", "fusion_lon": 0.0, "rental_uris": {"android": "https://dc.lft.to/lastmile_qr_scan", "ios": "https://dc.lft.to/lastmile_qr_scan"}, "name": "9ec1f4444878cbf1c6ae150c889a1f40", "type": "electric_bike", "lat": 38.881853, "is_disabled": 0}, {"fusion_lat": 0.0, "lon": -77.03529583333334, "is_reserved": 0, "bike_id": "01b1514446e395786b734e593d539210", "fusion_lon": 0.0, "rental_uris": {"android": "https://dc.lft.to/lastmile_qr_scan", "ios": "https://dc.lft.to/lastmile_qr_scan"}, "name": "01b1514446e395786b734e593d539210", "type": "electric_scooter", "lat": 38.921991166666665, "is_disabled": 0}, {"fusion_lat": 0.0, "lon": -77.00606583333334, "is_reserved": 0, "bike_id": "3be0751ef6aaa780e9c55c83f332efaf", "fusion_lon": 0.0, "rental_uris": {"android": "https://dc.lft.to/lastmile_qr_scan", "ios": "https://dc.lft.to/lastmile_qr_scan"}, "name": "3be0751ef6aaa780e9c55c83f332efaf", "type": "electric_scooter", "lat": 38.905757333333334, "is_disabled": 0}, {"fusion_lat": 0.0, "lon": -77.02981466666667, "is_reserved": 0, "bike_id": "8a019ffec2864443a16a46b0f8362353", "fusion_lon": 0.0, "rental_uris": {"android": "https://dc.lft.to/lastmile_qr_scan", "ios": "https://dc.lft.to/lastmile_qr_scan"}, "name": "8a019ffec2864443a16a46b0f8362353", "type": "electric_bike", "lat": 38.924467666666665, "is_disabled": 0}, {"fusion_lat": 0.0, "lon": -77.1159, "is_reserved": 0, "bike_id": "a611f3e8da6b7363eba55bc274f14d50", "fusion_lon": 0.0, "rental_uris": {"android": "https://dc.lft.to/lastmile_qr_scan", "ios": "https://dc.lft.to/lastmile_qr_scan"}, "name": "a611f3e8da6b7363eba55bc274f14d50", "type": "electric_bike", "lat": 39.07493233333334, "is_disabled": 0}, {"fusion_lat": 0.0, "lon": -77.01138866666666, "is_reserved": 0, "bike_id": "97a6bd16c8b830d2567eabc82a6aa891", "fusion_lon": 0.0, "rental_uris": {"android": "https://dc.lft.to/lastmile_qr_scan", "ios": "https://dc.lft.to/lastmile_qr_scan"}, "name": "97a6bd16c8b830d2567eabc82a6aa891", "type": "electric_scooter", "lat": 38.906538, "is_disabled": 0}, {"fusion_lat": 0.0, "lon": -77.02378366666667, "is_reserved": 0, "bike_id": "5d5d00bc280e1fb320f381474c954d3b", "fusion_lon": 0.0, "rental_uris": {"android": "https://dc.lft.to/lastmile_qr_scan", "ios": "https://dc.lft.to/lastmile_qr_scan"}, "name": "5d5d00bc280e1fb320f381474c954d3b", "type": "electric_scooter", "lat": 38.92002766666667, "is_disabled": 0}, {"fusion_lat": 0.0, "lon": -77.04565416666667, "is_reserved": 0, "bike_id": "bbf84ee85941c1b5f3a5e5d5d729b7c1", "fusion_lon": 0.0, "rental_uris": {"android": "https://dc.lft.to/lastmile_qr_scan", "ios": "https://dc.lft.to/lastmile_qr_scan"}, "name": "bbf84ee85941c1b5f3a5e5d5d729b7c1", "type": "electric_scooter", "lat": 38.89747333333333, "is_disabled": 0}, {"fusion_lat": 0.0, "lon": -77.03441983333333, "is_reserved": 0, "bike_id": "311a33fc6eee59612f8fbdf1a72a2a64", "fusion_lon": 0.0, "rental_uris": {"android": "https://dc.lft.to/lastmile_qr_scan", "ios": "https://dc.lft.to/lastmile_qr_scan"}, "name": "311a33fc6eee59612f8fbdf1a72a2a64", "type": "electric_scooter", "lat": 38.910099, "is_disabled": 0}, {"fusion_lat": 0.0, "lon": -77.0115405, "is_reserved": 0, "bike_id": "73abaceba849bd1d22d8d7d8fd67806d", "fusion_lon": 0.0, "rental_uris": {"android": "https://dc.lft.to/lastmile_qr_scan", "ios": "https://dc.lft.to/lastmile_qr_scan"}, "name": "73abaceba849bd1d22d8d7d8fd67806d", "type": "electric_bike", "lat": 38.9115125, "is_disabled": 0}, {"fusion_lat": 0.0, "lon": -77.03959416666666, "is_reserved": 0, "bike_id": "49b8086f8142eee0d58c6047b0c82de4", "fusion_lon": 0.0, "rental_uris": {"android": "https://dc.lft.to/lastmile_qr_scan", "ios": "https://dc.lft.to/lastmile_qr_scan"}, "name": "49b8086f8142eee0d58c6047b0c82de4", "type": "electric_scooter", "lat": 38.911877, "is_disabled": 0}, {"fusion_lat": 0.0, "lon": -77.03340883333334, "is_reserved": 0, "bike_id": "a4373b729886b72694b2c09a371e60f5", "fusion_lon": 0.0, "rental_uris": {"android": "https://dc.lft.to/lastmile_qr_scan", "ios": "https://dc.lft.to/lastmile_qr_scan"}, "name": "a4373b729886b72694b2c09a371e60f5", "type": "electric_scooter", "lat": 38.897342, "is_disabled": 0}, {"fusion_lat": 0.0, "lon": -77.1184965, "is_reserved": 0, "bike_id": "492d56894f649f57264fa2f2a5e9e4b0", "fusion_lon": 0.0, "rental_uris": {"android": "https://dc.lft.to/lastmile_qr_scan", "ios": "https://dc.lft.to/lastmile_qr_scan"}, "name": "492d56894f649f57264fa2f2a5e9e4b0", "type": "electric_bike", "lat": 38.87734916666667, "is_disabled": 0}, {"fusion_lat": 0.0, "lon": -77.00751566666666, "is_reserved": 0, "bike_id": "f028b34f05e98b2229fbf80437822c2f", "fusion_lon": 0.0, "rental_uris": {"android": "https://dc.lft.to/lastmile_qr_scan", "ios": "https://dc.lft.to/lastmile_qr_scan"}, "name": "f028b34f05e98b2229fbf80437822c2f", "type": "electric_scooter", "lat": 38.9267445, "is_disabled": 0}, {"fusion_lat": 0.0, "lon": -77.0131845, "is_reserved": 0, "bike_id": "9129dcf58996e1506bcc70647238d6d3", "fusion_lon": 0.0, "rental_uris": {"android": "https://dc.lft.to/lastmile_qr_scan", "ios": "https://dc.lft.to/lastmile_qr_scan"}, "name": "9129dcf58996e1506bcc70647238d6d3", "type": "electric_scooter", "lat": 38.870728166666666, "is_disabled": 0}, {"fusion_lat": 0.0, "lon": -77.04247133333334, "is_reserved": 0, "bike_id": "4cb482a2067d40d1345494004160aa08", "fusion_lon": 0.0, "rental_uris": {"android": "https://dc.lft.to/lastmile_qr_scan", "ios": "https://dc.lft.to/lastmile_qr_scan"}, "name": "4cb482a2067d40d1345494004160aa08", "type": "electric_scooter", "lat": 38.9224675, "is_disabled": 0}, {"fusion_lat": 0.0, "lon": -77.03165616666666, "is_reserved": 0, "bike_id": "d39cf88b79d01eb54713f4f6caca0f14", "fusion_lon": 0.0, "rental_uris": {"android": "https://dc.lft.to/lastmile_qr_scan", "ios": "https://dc.lft.to/lastmile_qr_scan"}, "name": "d39cf88b79d01eb54713f4f6caca0f14", "type": "electric_scooter", "lat": 38.88769933333333, "is_disabled": 0}, {"fusion_lat": 0.0, "lon": -77.0019705, "is_reserved": 0, "bike_id": "df69184835c3cc345aa8c976a265ce57", "fusion_lon": 0.0, "rental_uris": {"android": "https://dc.lft.to/lastmile_qr_scan", "ios": "https://dc.lft.to/lastmile_qr_scan"}, "name": "df69184835c3cc345aa8c976a265ce57", "type": "electric_scooter", "lat": 38.90292783333334, "is_disabled": 0}, {"fusion_lat": 0.0, "lon": -77.01764316666667, "is_reserved": 0, "bike_id": "1ea043092cc7f6a24f102f555a3d70e3", "fusion_lon": 0.0, "rental_uris": {"android": "https://dc.lft.to/lastmile_qr_scan", "ios": "https://dc.lft.to/lastmile_qr_scan"}, "name": "1ea043092cc7f6a24f102f555a3d70e3", "type": "electric_scooter", "lat": 38.876911166666666, "is_disabled": 0}, {"fusion_lat": 0.0, "lon": -77.034496, "is_reserved": 0, "bike_id": "4ed2242d510d6c7b44cc6a088c718f90", "fusion_lon": 0.0, "rental_uris": {"android": "https://dc.lft.to/lastmile_qr_scan", "ios": "https://dc.lft.to/lastmile_qr_scan"}, "name": "4ed2242d510d6c7b44cc6a088c718f90", "type": "electric_scooter", "lat": 38.908021166666664, "is_disabled": 0}, {"fusion_lat": 0.0, "lon": -77.20837166666666, "is_reserved": 0, "bike_id": "ccfdcc3275bbc9fcd74f139c78b66577", "fusion_lon": 0.0, "rental_uris": {"android": "https://dc.lft.to/lastmile_qr_scan", "ios": "https://dc.lft.to/lastmile_qr_scan"}, "name": "ccfdcc3275bbc9fcd74f139c78b66577", "type": "electric_bike", "lat": 38.9246665, "is_disabled": 0}, {"fusion_lat": 0.0, "lon": -77.0284825, "is_reserved": 0, "bike_id": "e73430f16bc2f11f4fa59a5f8131d6ea", "fusion_lon": 0.0, "rental_uris": {"android": "https://dc.lft.to/lastmile_qr_scan", "ios": "https://dc.lft.to/lastmile_qr_scan"}, "name": "e73430f16bc2f11f4fa59a5f8131d6ea", "type": "electric_scooter", "lat": 38.8875, "is_disabled": 0}, {"fusion_lat": 0.0, "lon": -77.0414355, "is_reserved": 0, "bike_id": "711dca8e2b0db53a186bc0c54b5ff36a", "fusion_lon": 0.0, "rental_uris": {"android": "https://dc.lft.to/lastmile_qr_scan", "ios": "https://dc.lft.to/lastmile_qr_scan"}, "name": "711dca8e2b0db53a186bc0c54b5ff36a", "type": "electric_scooter", "lat": 38.89220183333333, "is_disabled": 0}, {"fusion_lat": 0.0, "lon": -77.00963416666667, "is_reserved": 0, "bike_id": "9536a5d13f656be2ed064840a4100270", "fusion_lon": 0.0, "rental_uris": {"android": "https://dc.lft.to/lastmile_qr_scan", "ios": "https://dc.lft.to/lastmile_qr_scan"}, "name": "9536a5d13f656be2ed064840a4100270", "type": "electric_scooter", "lat": 38.89749283333333, "is_disabled": 0}, {"fusion_lat": 0.0, "lon": -77.03414316666667, "is_reserved": 0, "bike_id": "871c7ca2e5cecfe70729003eda88ba8b", "fusion_lon": 0.0, "rental_uris": {"android": "https://dc.lft.to/lastmile_qr_scan", "ios": "https://dc.lft.to/lastmile_qr_scan"}, "name": "871c7ca2e5cecfe70729003eda88ba8b", "type": "electric_scooter", "lat": 38.919414333333336, "is_disabled": 0}, {"fusion_lat": 0.0, "lon": -77.06655033333334, "is_reserved": 0, "bike_id": "cf3ded273211e75cff1911b890f24275", "fusion_lon": 0.0, "rental_uris": {"android": "https://dc.lft.to/lastmile_qr_scan", "ios": "https://dc.lft.to/lastmile_qr_scan"}, "name": "cf3ded273211e75cff1911b890f24275", "type": "electric_scooter", "lat": 38.94956466666667, "is_disabled": 0}, {"fusion_lat": 0.0, "lon": -76.93751633333333, "is_reserved": 0, "bike_id": "123462442274150e540a8082759ff1c1", "fusion_lon": 0.0, "rental_uris": {"android": "https://dc.lft.to/lastmile_qr_scan", "ios": "https://dc.lft.to/lastmile_qr_scan"}, "name": "123462442274150e540a8082759ff1c1", "type": "electric_scooter", "lat": 38.903692666666664, "is_disabled": 0}, {"fusion_lat": 0.0, "lon": -77.03719216666667, "is_reserved": 0, "bike_id": "c39a78a6e4db5bd5dcc23ebc7e63c9f1", "fusion_lon": 0.0, "rental_uris": {"android": "https://dc.lft.to/lastmile_qr_scan", "ios": "https://dc.lft.to/lastmile_qr_scan"}, "name": "c39a78a6e4db5bd5dcc23ebc7e63c9f1", "type": "electric_scooter", "lat": 38.935654666666665, "is_disabled": 0}, {"fusion_lat": 0.0, "lon": -77.01794166666667, "is_reserved": 0, "bike_id": "06ee048ede7485021686c1642707396f", "fusion_lon": 0.0, "rental_uris": {"android": "https://dc.lft.to/lastmile_qr_scan", "ios": "https://dc.lft.to/lastmile_qr_scan"}, "name": "06ee048ede7485021686c1642707396f", "type": "electric_scooter", "lat": 38.92120283333333, "is_disabled": 0}, {"fusion_lat": 0.0, "lon": -76.99883133333333, "is_reserved": 0, "bike_id": "b890fea8a2c5f7291af5507fceb6ebd6", "fusion_lon": 0.0, "rental_uris": {"android": "https://dc.lft.to/lastmile_qr_scan", "ios": "https://dc.lft.to/lastmile_qr_scan"}, "name": "b890fea8a2c5f7291af5507fceb6ebd6", "type": "electric_scooter", "lat": 38.920524666666665, "is_disabled": 0}, {"fusion_lat": 0.0, "lon": -76.97019816666666, "is_reserved": 0, "bike_id": "93e9f1be92e9023e1dd43ed8f77910b6", "fusion_lon": 0.0, "rental_uris": {"android": "https://dc.lft.to/lastmile_qr_scan", "ios": "https://dc.lft.to/lastmile_qr_scan"}, "name": "93e9f1be92e9023e1dd43ed8f77910b6", "type": "electric_scooter", "lat": 38.92533683333333, "is_disabled": 0}, {"fusion_lat": 0.0, "lon": -77.05648916666667, "is_reserved": 0, "bike_id": "c98cf96ba1afbac36a1bdcb5628fff29", "fusion_lon": 0.0, "rental_uris": {"android": "https://dc.lft.to/lastmile_qr_scan", "ios": "https://dc.lft.to/lastmile_qr_scan"}, "name": "c98cf96ba1afbac36a1bdcb5628fff29", "type": "electric_scooter", "lat": 38.90767433333333, "is_disabled": 0}, {"fusion_lat": 0.0, "lon": -77.02267716666667, "is_reserved": 0, "bike_id": "214a079b48b599e804c89f29b128f7b0", "fusion_lon": 0.0, "rental_uris": {"android": "https://dc.lft.to/lastmile_qr_scan", "ios": "https://dc.lft.to/lastmile_qr_scan"}, "name": "214a079b48b599e804c89f29b128f7b0", "type": "electric_scooter", "lat": 38.9122535, "is_disabled": 0}, {"fusion_lat": 0.0, "lon": -76.98767733333334, "is_reserved": 0, "bike_id": "7b27ae039cbac3dc69b90519c80ce286", "fusion_lon": 0.0, "rental_uris": {"android": "https://dc.lft.to/lastmile_qr_scan", "ios": "https://dc.lft.to/lastmile_qr_scan"}, "name": "7b27ae039cbac3dc69b90519c80ce286", "type": "electric_scooter", "lat": 38.900276833333336, "is_disabled": 0}, {"fusion_lat": 0.0, "lon": -77.04646883333334, "is_reserved": 0, "bike_id": "737570ca9aecd7d953183010920ea28f", "fusion_lon": 0.0, "rental_uris": {"android": "https://dc.lft.to/lastmile_qr_scan", "ios": "https://dc.lft.to/lastmile_qr_scan"}, "name": "737570ca9aecd7d953183010920ea28f", "type": "electric_scooter", "lat": 38.903288833333335, "is_disabled": 0}, {"fusion_lat": 0.0, "lon": -77.0276625, "is_reserved": 0, "bike_id": "caa0963796bda4f4e214cf4370394f71", "fusion_lon": 0.0, "rental_uris": {"android": "https://dc.lft.to/lastmile_qr_scan", "ios": "https://dc.lft.to/lastmile_qr_scan"}, "name": "caa0963796bda4f4e214cf4370394f71", "type": "electric_scooter", "lat": 38.929759, "is_disabled": 0}, {"fusion_lat": 0.0, "lon": -77.00055383333333, "is_reserved": 0, "bike_id": "8920f2823ec26d0171f0872f0b89e47e", "fusion_lon": 0.0, "rental_uris": {"android": "https://dc.lft.to/lastmile_qr_scan", "ios": "https://dc.lft.to/lastmile_qr_scan"}, "name": "8920f2823ec26d0171f0872f0b89e47e", "type": "electric_scooter", "lat": 38.8998125, "is_disabled": 0}, {"fusion_lat": 0.0, "lon": -76.99014616666666, "is_reserved": 0, "bike_id": "45221af921fbc7884f027b153d3403dc", "fusion_lon": 0.0, "rental_uris": {"android": "https://dc.lft.to/lastmile_qr_scan", "ios": "https://dc.lft.to/lastmile_qr_scan"}, "name": "45221af921fbc7884f027b153d3403dc", "type": "electric_scooter", "lat": 38.8818575, "is_disabled": 0}, {"fusion_lat": 0.0, "lon": -77.025538, "is_reserved": 0, "bike_id": "56f1c11b2fe3c2a4cbab33508343c65d", "fusion_lon": 0.0, "rental_uris": {"android": "https://dc.lft.to/lastmile_qr_scan", "ios": "https://dc.lft.to/lastmile_qr_scan"}, "name": "56f1c11b2fe3c2a4cbab33508343c65d", "type": "electric_scooter", "lat": 38.92084966666667, "is_disabled": 0}, {"fusion_lat": 0.0, "lon": -77.03261, "is_reserved": 0, "bike_id": "51b93805847d75963932ad82b1319c49", "fusion_lon": 0.0, "rental_uris": {"android": "https://dc.lft.to/lastmile_qr_scan", "ios": "https://dc.lft.to/lastmile_qr_scan"}, "name": "51b93805847d75963932ad82b1319c49", "type": "electric_scooter", "lat": 38.92839416666666, "is_disabled": 0}, {"fusion_lat": 0.0, "lon": -77.04321783333333, "is_reserved": 0, "bike_id": "e4cc0e202c2aa286c909d4ed9beb004a", "fusion_lon": 0.0, "rental_uris": {"android": "https://dc.lft.to/lastmile_qr_scan", "ios": "https://dc.lft.to/lastmile_qr_scan"}, "name": "e4cc0e202c2aa286c909d4ed9beb004a", "type": "electric_scooter", "lat": 38.892210666666664, "is_disabled": 0}, {"fusion_lat": 0.0, "lon": -77.00714266666667, "is_reserved": 0, "bike_id": "ee2714242ca5f1b413a7c1d9dc664d7d", "fusion_lon": 0.0, "rental_uris": {"android": "https://dc.lft.to/lastmile_qr_scan", "ios": "https://dc.lft.to/lastmile_qr_scan"}, "name": "ee2714242ca5f1b413a7c1d9dc664d7d", "type": "electric_scooter", "lat": 38.905561666666664, "is_disabled": 0}, {"fusion_lat": 0.0, "lon": -77.03460916666667, "is_reserved": 0, "bike_id": "f2aef8e70cd499c8143d5a9fd0912be4", "fusion_lon": 0.0, "rental_uris": {"android": "https://dc.lft.to/lastmile_qr_scan", "ios": "https://dc.lft.to/lastmile_qr_scan"}, "name": "f2aef8e70cd499c8143d5a9fd0912be4", "type": "electric_scooter", "lat": 38.905527166666666, "is_disabled": 0}, {"fusion_lat": 0.0, "lon": -77.0320725, "is_reserved": 0, "bike_id": "6e2ae879566fd08d553640c12dea328f", "fusion_lon": 0.0, "rental_uris": {"android": "https://dc.lft.to/lastmile_qr_scan", "ios": "https://dc.lft.to/lastmile_qr_scan"}, "name": "6e2ae879566fd08d553640c12dea328f", "type": "electric_scooter", "lat": 38.917834666666664, "is_disabled": 0}, {"fusion_lat": 0.0, "lon": -77.0365095, "is_reserved": 0, "bike_id": "f27167595423bb8455628ccb48f67939", "fusion_lon": 0.0, "rental_uris": {"android": "https://dc.lft.to/lastmile_qr_scan", "ios": "https://dc.lft.to/lastmile_qr_scan"}, "name": "f27167595423bb8455628ccb48f67939", "type": "electric_scooter", "lat": 38.921047333333334, "is_disabled": 0}, {"fusion_lat": 0.0, "lon": -76.9809895, "is_reserved": 0, "bike_id": "3b42b54c655d522b574950eb00ceb0c9", "fusion_lon": 0.0, "rental_uris": {"android": "https://dc.lft.to/lastmile_qr_scan", "ios": "https://dc.lft.to/lastmile_qr_scan"}, "name": "3b42b54c655d522b574950eb00ceb0c9", "type": "electric_scooter", "lat": 38.90389866666666, "is_disabled": 0}, {"fusion_lat": 0.0, "lon": -77.02803683333333, "is_reserved": 0, "bike_id": "378f668bdefe00a8edf3e60d31de85b4", "fusion_lon": 0.0, "rental_uris": {"android": "https://dc.lft.to/lastmile_qr_scan", "ios": "https://dc.lft.to/lastmile_qr_scan"}, "name": "378f668bdefe00a8edf3e60d31de85b4", "type": "electric_scooter", "lat": 38.90977, "is_disabled": 0}, {"fusion_lat": 0.0, "lon": -77.042488, "is_reserved": 0, "bike_id": "9fe1e1aead1276b4d619185449d148f2", "fusion_lon": 0.0, "rental_uris": {"android": "https://dc.lft.to/lastmile_qr_scan", "ios": "https://dc.lft.to/lastmile_qr_scan"}, "name": "9fe1e1aead1276b4d619185449d148f2", "type": "electric_scooter", "lat": 38.916963333333335, "is_disabled": 0}, {"fusion_lat": 0.0, "lon": -76.98516716666667, "is_reserved": 0, "bike_id": "ee766abc75a311e8e99558fa06e656df", "fusion_lon": 0.0, "rental_uris": {"android": "https://dc.lft.to/lastmile_qr_scan", "ios": "https://dc.lft.to/lastmile_qr_scan"}, "name": "ee766abc75a311e8e99558fa06e656df", "type": "electric_scooter", "lat": 38.8665185, "is_disabled": 0}, {"fusion_lat": 0.0, "lon": -77.0727455, "is_reserved": 0, "bike_id": "e4cbd4248b275dbbbccd912f6a85f7be", "fusion_lon": 0.0, "rental_uris": {"android": "https://dc.lft.to/lastmile_qr_scan", "ios": "https://dc.lft.to/lastmile_qr_scan"}, "name": "e4cbd4248b275dbbbccd912f6a85f7be", "type": "electric_scooter", "lat": 38.93483033333333, "is_disabled": 0}, {"fusion_lat": 0.0, "lon": -77.038125, "is_reserved": 0, "bike_id": "a1744254da58434f3d7867203ae6d73a", "fusion_lon": 0.0, "rental_uris": {"android": "https://dc.lft.to/lastmile_qr_scan", "ios": "https://dc.lft.to/lastmile_qr_scan"}, "name": "a1744254da58434f3d7867203ae6d73a", "type": "electric_scooter", "lat": 38.9096585, "is_disabled": 0}, {"fusion_lat": 0.0, "lon": -77.0229545, "is_reserved": 0, "bike_id": "235450eb7452c890574fc4c5ee35d153", "fusion_lon": 0.0, "rental_uris": {"android": "https://dc.lft.to/lastmile_qr_scan", "ios": "https://dc.lft.to/lastmile_qr_scan"}, "name": "235450eb7452c890574fc4c5ee35d153", "type": "electric_scooter", "lat": 38.91774766666666, "is_disabled": 0}, {"fusion_lat": 0.0, "lon": -77.072324, "is_reserved": 0, "bike_id": "910f26a035ff7b3ee6369efae1bb38b7", "fusion_lon": 0.0, "rental_uris": {"android": "https://dc.lft.to/lastmile_qr_scan", "ios": "https://dc.lft.to/lastmile_qr_scan"}, "name": "910f26a035ff7b3ee6369efae1bb38b7", "type": "electric_scooter", "lat": 38.95970916666667, "is_disabled": 0}, {"fusion_lat": 0.0, "lon": -77.0181145, "is_reserved": 0, "bike_id": "62085c60684fcaef388cf3a096f78bf1", "fusion_lon": 0.0, "rental_uris": {"android": "https://dc.lft.to/lastmile_qr_scan", "ios": "https://dc.lft.to/lastmile_qr_scan"}, "name": "62085c60684fcaef388cf3a096f78bf1", "type": "electric_scooter", "lat": 38.9236535, "is_disabled": 0}, {"fusion_lat": 0.0, "lon": -77.03800683333333, "is_reserved": 0, "bike_id": "be486552e52d88b3342fe28a9023fc20", "fusion_lon": 0.0, "rental_uris": {"android": "https://dc.lft.to/lastmile_qr_scan", "ios": "https://dc.lft.to/lastmile_qr_scan"}, "name": "be486552e52d88b3342fe28a9023fc20", "type": "electric_scooter", "lat": 38.92502016666667, "is_disabled": 0}, {"fusion_lat": 0.0, "lon": -77.02379866666666, "is_reserved": 0, "bike_id": "2e42249a25a455345685ffdd8511a4b2", "fusion_lon": 0.0, "rental_uris": {"android": "https://dc.lft.to/lastmile_qr_scan", "ios": "https://dc.lft.to/lastmile_qr_scan"}, "name": "2e42249a25a455345685ffdd8511a4b2", "type": "electric_scooter", "lat": 38.9290445, "is_disabled": 0}, {"fusion_lat": 0.0, "lon": -77.03838183333333, "is_reserved": 0, "bike_id": "7c50a9443fce695eff24d9a060892c04", "fusion_lon": 0.0, "rental_uris": {"android": "https://dc.lft.to/lastmile_qr_scan", "ios": "https://dc.lft.to/lastmile_qr_scan"}, "name": "7c50a9443fce695eff24d9a060892c04", "type": "electric_scooter", "lat": 38.911183666666666, "is_disabled": 0}, {"fusion_lat": 0.0, "lon": -77.00554233333334, "is_reserved": 0, "bike_id": "ad7fca4e43a3bbd5a3b8459dcfa347a4", "fusion_lon": 0.0, "rental_uris": {"android": "https://dc.lft.to/lastmile_qr_scan", "ios": "https://dc.lft.to/lastmile_qr_scan"}, "name": "ad7fca4e43a3bbd5a3b8459dcfa347a4", "type": "electric_scooter", "lat": 38.875339, "is_disabled": 0}, {"fusion_lat": 0.0, "lon": -77.05114466666667, "is_reserved": 0, "bike_id": "30aba73292c3d1a03750f1da7715f58c", "fusion_lon": 0.0, "rental_uris": {"android": "https://dc.lft.to/lastmile_qr_scan", "ios": "https://dc.lft.to/lastmile_qr_scan"}, "name": "30aba73292c3d1a03750f1da7715f58c", "type": "electric_scooter", "lat": 38.89772166666667, "is_disabled": 0}, {"fusion_lat": 0.0, "lon": -77.045411, "is_reserved": 0, "bike_id": "4f3484ced4f9b03a9f3e8eb7e51bfa08", "fusion_lon": 0.0, "rental_uris": {"android": "https://dc.lft.to/lastmile_qr_scan", "ios": "https://dc.lft.to/lastmile_qr_scan"}, "name": "4f3484ced4f9b03a9f3e8eb7e51bfa08", "type": "electric_scooter", "lat": 38.90957783333333, "is_disabled": 0}, {"fusion_lat": 0.0, "lon": -77.03864333333334, "is_reserved": 0, "bike_id": "dc4d5382e1aa84edc2ba6e82f425cf33", "fusion_lon": 0.0, "rental_uris": {"android": "https://dc.lft.to/lastmile_qr_scan", "ios": "https://dc.lft.to/lastmile_qr_scan"}, "name": "dc4d5382e1aa84edc2ba6e82f425cf33", "type": "electric_scooter", "lat": 38.906685833333334, "is_disabled": 0}, {"fusion_lat": 0.0, "lon": -76.98458433333333, "is_reserved": 0, "bike_id": "d9d66242a2a5897c17f98fa7e52c10ea", "fusion_lon": 0.0, "rental_uris": {"android": "https://dc.lft.to/lastmile_qr_scan", "ios": "https://dc.lft.to/lastmile_qr_scan"}, "name": "d9d66242a2a5897c17f98fa7e52c10ea", "type": "electric_scooter", "lat": 38.90016116666666, "is_disabled": 0}, {"fusion_lat": 0.0, "lon": -77.0007035, "is_reserved": 0, "bike_id": "822e8d4233d57c361507ddf22ff6ecf1", "fusion_lon": 0.0, "rental_uris": {"android": "https://dc.lft.to/lastmile_qr_scan", "ios": "https://dc.lft.to/lastmile_qr_scan"}, "name": "822e8d4233d57c361507ddf22ff6ecf1", "type": "electric_scooter", "lat": 38.900519333333335, "is_disabled": 0}, {"fusion_lat": 0.0, "lon": -77.01255383333333, "is_reserved": 0, "bike_id": "e29203003871067a352e56779cfe114a", "fusion_lon": 0.0, "rental_uris": {"android": "https://dc.lft.to/lastmile_qr_scan", "ios": "https://dc.lft.to/lastmile_qr_scan"}, "name": "e29203003871067a352e56779cfe114a", "type": "electric_scooter", "lat": 38.90844966666667, "is_disabled": 0}, {"fusion_lat": 0.0, "lon": -77.0317675, "is_reserved": 0, "bike_id": "317c1730f046058399c2daba1597ff1f", "fusion_lon": 0.0, "rental_uris": {"android": "https://dc.lft.to/lastmile_qr_scan", "ios": "https://dc.lft.to/lastmile_qr_scan"}, "name": "317c1730f046058399c2daba1597ff1f", "type": "electric_scooter", "lat": 38.9155485, "is_disabled": 0}, {"fusion_lat": 0.0, "lon": -77.00192, "is_reserved": 0, "bike_id": "621996fc93a7a37b82699d21c7949acd", "fusion_lon": 0.0, "rental_uris": {"android": "https://dc.lft.to/lastmile_qr_scan", "ios": "https://dc.lft.to/lastmile_qr_scan"}, "name": "621996fc93a7a37b82699d21c7949acd", "type": "electric_scooter", "lat": 38.903787666666666, "is_disabled": 0}, {"fusion_lat": 0.0, "lon": -77.044093, "is_reserved": 0, "bike_id": "6cfcdea3d83952f8c3408b20580ea4a4", "fusion_lon": 0.0, "rental_uris": {"android": "https://dc.lft.to/lastmile_qr_scan", "ios": "https://dc.lft.to/lastmile_qr_scan"}, "name": "6cfcdea3d83952f8c3408b20580ea4a4", "type": "electric_scooter", "lat": 38.91353566666667, "is_disabled": 0}, {"fusion_lat": 0.0, "lon": -77.019973, "is_reserved": 0, "bike_id": "99337c128bdc7a39cdfc69360eb1677d", "fusion_lon": 0.0, "rental_uris": {"android": "https://dc.lft.to/lastmile_qr_scan", "ios": "https://dc.lft.to/lastmile_qr_scan"}, "name": "99337c128bdc7a39cdfc69360eb1677d", "type": "electric_scooter", "lat": 38.91361466666667, "is_disabled": 0}, {"fusion_lat": 0.0, "lon": -77.02942383333334, "is_reserved": 0, "bike_id": "95cf3dabf347093220194c675e7c5b79", "fusion_lon": 0.0, "rental_uris": {"android": "https://dc.lft.to/lastmile_qr_scan", "ios": "https://dc.lft.to/lastmile_qr_scan"}, "name": "95cf3dabf347093220194c675e7c5b79", "type": "electric_scooter", "lat": 38.93258133333333, "is_disabled": 0}, {"fusion_lat": 0.0, "lon": -77.022868, "is_reserved": 0, "bike_id": "1ebc54a23ee1e2a488bedd4473dabde7", "fusion_lon": 0.0, "rental_uris": {"android": "https://dc.lft.to/lastmile_qr_scan", "ios": "https://dc.lft.to/lastmile_qr_scan"}, "name": "1ebc54a23ee1e2a488bedd4473dabde7", "type": "electric_scooter", "lat": 38.914281833333334, "is_disabled": 0}, {"fusion_lat": 0.0, "lon": -77.03213816666667, "is_reserved": 0, "bike_id": "e904b25e64c59e61e8368e4297a10622", "fusion_lon": 0.0, "rental_uris": {"android": "https://dc.lft.to/lastmile_qr_scan", "ios": "https://dc.lft.to/lastmile_qr_scan"}, "name": "e904b25e64c59e61e8368e4297a10622", "type": "electric_scooter", "lat": 38.90727533333333, "is_disabled": 0}, {"fusion_lat": 0.0, "lon": -76.93730016666666, "is_reserved": 0, "bike_id": "89b279811d7aeee44f20977a97a96e3b", "fusion_lon": 0.0, "rental_uris": {"android": "https://dc.lft.to/lastmile_qr_scan", "ios": "https://dc.lft.to/lastmile_qr_scan"}, "name": "89b279811d7aeee44f20977a97a96e3b", "type": "electric_scooter", "lat": 38.89014066666667, "is_disabled": 0}, {"fusion_lat": 0.0, "lon": -77.06330516666667, "is_reserved": 0, "bike_id": "1224157938b6b673046266c661129bf1", "fusion_lon": 0.0, "rental_uris": {"android": "https://dc.lft.to/lastmile_qr_scan", "ios": "https://dc.lft.to/lastmile_qr_scan"}, "name": "1224157938b6b673046266c661129bf1", "type": "electric_scooter", "lat": 38.94421666666667, "is_disabled": 0}, {"fusion_lat": 0.0, "lon": -77.02326533333333, "is_reserved": 0, "bike_id": "7171c836c0618019bd79644ca9af22ba", "fusion_lon": 0.0, "rental_uris": {"android": "https://dc.lft.to/lastmile_qr_scan", "ios": "https://dc.lft.to/lastmile_qr_scan"}, "name": "7171c836c0618019bd79644ca9af22ba", "type": "electric_scooter", "lat": 38.92704716666667, "is_disabled": 0}, {"fusion_lat": 0.0, "lon": -77.00721183333333, "is_reserved": 0, "bike_id": "342e70b07a3d633aa6068f2bd6c91512", "fusion_lon": 0.0, "rental_uris": {"android": "https://dc.lft.to/lastmile_qr_scan", "ios": "https://dc.lft.to/lastmile_qr_scan"}, "name": "342e70b07a3d633aa6068f2bd6c91512", "type": "electric_scooter", "lat": 38.8978885, "is_disabled": 0}, {"fusion_lat": 0.0, "lon": -77.01510616666667, "is_reserved": 0, "bike_id": "c2cee2125089360b76d6a12a611dd5af", "fusion_lon": 0.0, "rental_uris": {"android": "https://dc.lft.to/lastmile_qr_scan", "ios": "https://dc.lft.to/lastmile_qr_scan"}, "name": "c2cee2125089360b76d6a12a611dd5af", "type": "electric_scooter", "lat": 38.892466666666664, "is_disabled": 0}, {"fusion_lat": 0.0, "lon": -76.974587, "is_reserved": 0, "bike_id": "eddcd2af031a7df7ec678bfec3bf2a70", "fusion_lon": 0.0, "rental_uris": {"android": "https://dc.lft.to/lastmile_qr_scan", "ios": "https://dc.lft.to/lastmile_qr_scan"}, "name": "eddcd2af031a7df7ec678bfec3bf2a70", "type": "electric_bike", "lat": 38.863991, "is_disabled": 0}, {"fusion_lat": 0.0, "lon": -77.06863533333333, "is_reserved": 0, "bike_id": "c5f53f59484abab7a0e47d0fdc9dfa50", "fusion_lon": 0.0, "rental_uris": {"android": "https://dc.lft.to/lastmile_qr_scan", "ios": "https://dc.lft.to/lastmile_qr_scan"}, "name": "c5f53f59484abab7a0e47d0fdc9dfa50", "type": "electric_bike", "lat": 38.8057815, "is_disabled": 0}, {"fusion_lat": 0.0, "lon": -77.02689833333334, "is_reserved": 0, "bike_id": "d2cc86d6be1f0caeae64562d3299ef0e", "fusion_lon": 0.0, "rental_uris": {"android": "https://dc.lft.to/lastmile_qr_scan", "ios": "https://dc.lft.to/lastmile_qr_scan"}, "name": "d2cc86d6be1f0caeae64562d3299ef0e", "type": "electric_scooter", "lat": 38.902467666666666, "is_disabled": 0}, {"fusion_lat": 0.0, "lon": -76.89539566666667, "is_reserved": 0, "bike_id": "9c1aaf7455fc84646309b8fd0cf42f30", "fusion_lon": 0.0, "rental_uris": {"android": "https://dc.lft.to/lastmile_qr_scan", "ios": "https://dc.lft.to/lastmile_qr_scan"}, "name": "9c1aaf7455fc84646309b8fd0cf42f30", "type": "electric_bike", "lat": 38.945585666666666, "is_disabled": 0}, {"fusion_lat": 0.0, "lon": -76.99144216666667, "is_reserved": 0, "bike_id": "c837342b47ebb9b7974e5a5410fed46e", "fusion_lon": 0.0, "rental_uris": {"android": "https://dc.lft.to/lastmile_qr_scan", "ios": "https://dc.lft.to/lastmile_qr_scan"}, "name": "c837342b47ebb9b7974e5a5410fed46e", "type": "electric_scooter", "lat": 38.89342833333333, "is_disabled": 0}, {"fusion_lat": 0.0, "lon": -77.001982, "is_reserved": 0, "bike_id": "6aaf3c650736952439f1d8071136d938", "fusion_lon": 0.0, "rental_uris": {"android": "https://dc.lft.to/lastmile_qr_scan", "ios": "https://dc.lft.to/lastmile_qr_scan"}, "name": "6aaf3c650736952439f1d8071136d938", "type": "electric_scooter", "lat": 38.9168355, "is_disabled": 0}, {"fusion_lat": 0.0, "lon": -77.02729816666667, "is_reserved": 0, "bike_id": "139eb6d4016e038b2c0996f199038aba", "fusion_lon": 0.0, "rental_uris": {"android": "https://dc.lft.to/lastmile_qr_scan", "ios": "https://dc.lft.to/lastmile_qr_scan"}, "name": "139eb6d4016e038b2c0996f199038aba", "type": "electric_scooter", "lat": 38.94090083333333, "is_disabled": 0}, {"fusion_lat": 0.0, "lon": -77.03436433333333, "is_reserved": 0, "bike_id": "ac57b7c16e7c08e230d90d44e7d5e219", "fusion_lon": 0.0, "rental_uris": {"android": "https://dc.lft.to/lastmile_qr_scan", "ios": "https://dc.lft.to/lastmile_qr_scan"}, "name": "ac57b7c16e7c08e230d90d44e7d5e219", "type": "electric_scooter", "lat": 38.91808483333333, "is_disabled": 0}, {"fusion_lat": 0.0, "lon": -76.97329366666666, "is_reserved": 0, "bike_id": "d488ca31ada810dc1fb08136829cb4ab", "fusion_lon": 0.0, "rental_uris": {"android": "https://dc.lft.to/lastmile_qr_scan", "ios": "https://dc.lft.to/lastmile_qr_scan"}, "name": "d488ca31ada810dc1fb08136829cb4ab", "type": "electric_scooter", "lat": 38.9177355, "is_disabled": 0}, {"fusion_lat": 0.0, "lon": -77.04301733333334, "is_reserved": 0, "bike_id": "514beaa8f7473d7476bc1bc8641710eb", "fusion_lon": 0.0, "rental_uris": {"android": "https://dc.lft.to/lastmile_qr_scan", "ios": "https://dc.lft.to/lastmile_qr_scan"}, "name": "514beaa8f7473d7476bc1bc8641710eb", "type": "electric_scooter", "lat": 38.923276666666666, "is_disabled": 0}, {"fusion_lat": 0.0, "lon": -77.03482433333333, "is_reserved": 0, "bike_id": "e7128b9969d8963e3f308b3526594baa", "fusion_lon": 0.0, "rental_uris": {"android": "https://dc.lft.to/lastmile_qr_scan", "ios": "https://dc.lft.to/lastmile_qr_scan"}, "name": "e7128b9969d8963e3f308b3526594baa", "type": "electric_scooter", "lat": 38.9214745, "is_disabled": 0}, {"fusion_lat": 0.0, "lon": -77.02564033333333, "is_reserved": 0, "bike_id": "020b3fa2a5a9b6f9d3afd89aef77488b", "fusion_lon": 0.0, "rental_uris": {"android": "https://dc.lft.to/lastmile_qr_scan", "ios": "https://dc.lft.to/lastmile_qr_scan"}, "name": "020b3fa2a5a9b6f9d3afd89aef77488b", "type": "electric_scooter", "lat": 38.9141715, "is_disabled": 0}, {"fusion_lat": 0.0, "lon": -76.99227566666667, "is_reserved": 0, "bike_id": "976a8ffc6a10fe5d4ca1d66fe02891cd", "fusion_lon": 0.0, "rental_uris": {"android": "https://dc.lft.to/lastmile_qr_scan", "ios": "https://dc.lft.to/lastmile_qr_scan"}, "name": "976a8ffc6a10fe5d4ca1d66fe02891cd", "type": "electric_bike", "lat": 38.93860566666667, "is_disabled": 0}, {"fusion_lat": 0.0, "lon": -77.00674883333333, "is_reserved": 0, "bike_id": "d9c73ad3ecd3958381607c1f46fae4ca", "fusion_lon": 0.0, "rental_uris": {"android": "https://dc.lft.to/lastmile_qr_scan", "ios": "https://dc.lft.to/lastmile_qr_scan"}, "name": "d9c73ad3ecd3958381607c1f46fae4ca", "type": "electric_scooter", "lat": 38.90014383333333, "is_disabled": 0}, {"fusion_lat": 0.0, "lon": -77.08586466666667, "is_reserved": 0, "bike_id": "922f9a7c0e5d0c4684902c90d8bee92d", "fusion_lon": 0.0, "rental_uris": {"android": "https://dc.lft.to/lastmile_qr_scan", "ios": "https://dc.lft.to/lastmile_qr_scan"}, "name": "922f9a7c0e5d0c4684902c90d8bee92d", "type": "electric_bike", "lat": 38.844378166666665, "is_disabled": 0}, {"fusion_lat": 0.0, "lon": -77.01450633333333, "is_reserved": 0, "bike_id": "847c9244d1c16b35e10356874998b161", "fusion_lon": 0.0, "rental_uris": {"android": "https://dc.lft.to/lastmile_qr_scan", "ios": "https://dc.lft.to/lastmile_qr_scan"}, "name": "847c9244d1c16b35e10356874998b161", "type": "electric_bike", "lat": 38.87672883333333, "is_disabled": 0}, {"fusion_lat": 0.0, "lon": -76.9723825, "is_reserved": 0, "bike_id": "798afff4327f155a016d860baa1f09fd", "fusion_lon": 0.0, "rental_uris": {"android": "https://dc.lft.to/lastmile_qr_scan", "ios": "https://dc.lft.to/lastmile_qr_scan"}, "name": "798afff4327f155a016d860baa1f09fd", "type": "electric_bike", "lat": 38.949023333333336, "is_disabled": 0}, {"fusion_lat": 0.0, "lon": -77.0230195, "is_reserved": 0, "bike_id": "7a2be709aba3d8155b284e06a8627f7d", "fusion_lon": 0.0, "rental_uris": {"android": "https://dc.lft.to/lastmile_qr_scan", "ios": "https://dc.lft.to/lastmile_qr_scan"}, "name": "7a2be709aba3d8155b284e06a8627f7d", "type": "electric_scooter", "lat": 38.886359166666665, "is_disabled": 0}, {"fusion_lat": 0.0, "lon": -77.05739733333333, "is_reserved": 0, "bike_id": "9329d28a93ef62a874a15d9f197949e0", "fusion_lon": 0.0, "rental_uris": {"android": "https://dc.lft.to/lastmile_qr_scan", "ios": "https://dc.lft.to/lastmile_qr_scan"}, "name": "9329d28a93ef62a874a15d9f197949e0", "type": "electric_scooter", "lat": 38.93388983333333, "is_disabled": 0}, {"fusion_lat": 0.0, "lon": -77.03427566666667, "is_reserved": 0, "bike_id": "958b41bbe36c48fc781cc3ca419f256c", "fusion_lon": 0.0, "rental_uris": {"android": "https://dc.lft.to/lastmile_qr_scan", "ios": "https://dc.lft.to/lastmile_qr_scan"}, "name": "958b41bbe36c48fc781cc3ca419f256c", "type": "electric_scooter", "lat": 38.91934216666667, "is_disabled": 0}, {"fusion_lat": 0.0, "lon": -76.993885, "is_reserved": 0, "bike_id": "fd131429c6002e69773da61ba3f0605d", "fusion_lon": 0.0, "rental_uris": {"android": "https://dc.lft.to/lastmile_qr_scan", "ios": "https://dc.lft.to/lastmile_qr_scan"}, "name": "fd131429c6002e69773da61ba3f0605d", "type": "electric_scooter", "lat": 38.897283, "is_disabled": 0}, {"fusion_lat": 0.0, "lon": -77.003919, "is_reserved": 0, "bike_id": "92a84a4eb4783ad936aaf467705eda40", "fusion_lon": 0.0, "rental_uris": {"android": "https://dc.lft.to/lastmile_qr_scan", "ios": "https://dc.lft.to/lastmile_qr_scan"}, "name": "92a84a4eb4783ad936aaf467705eda40", "type": "electric_scooter", "lat": 38.905720333333335, "is_disabled": 0}, {"fusion_lat": 0.0, "lon": -77.02225066666666, "is_reserved": 0, "bike_id": "f402f83cdcb9062b8416a17c504dc318", "fusion_lon": 0.0, "rental_uris": {"android": "https://dc.lft.to/lastmile_qr_scan", "ios": "https://dc.lft.to/lastmile_qr_scan"}, "name": "f402f83cdcb9062b8416a17c504dc318", "type": "electric_bike", "lat": 38.9568275, "is_disabled": 0}, {"fusion_lat": 0.0, "lon": -76.98777616666666, "is_reserved": 0, "bike_id": "0651829823610ca285ddfc31b5a42715", "fusion_lon": 0.0, "rental_uris": {"android": "https://dc.lft.to/lastmile_qr_scan", "ios": "https://dc.lft.to/lastmile_qr_scan"}, "name": "0651829823610ca285ddfc31b5a42715", "type": "electric_scooter", "lat": 38.844648166666666, "is_disabled": 0}, {"fusion_lat": 0.0, "lon": -76.998255, "is_reserved": 0, "bike_id": "3d1b1ef8d718d0ccce68c603a034326c", "fusion_lon": 0.0, "rental_uris": {"android": "https://dc.lft.to/lastmile_qr_scan", "ios": "https://dc.lft.to/lastmile_qr_scan"}, "name": "3d1b1ef8d718d0ccce68c603a034326c", "type": "electric_scooter", "lat": 38.90853883333333, "is_disabled": 0}, {"fusion_lat": 0.0, "lon": -77.03477516666666, "is_reserved": 0, "bike_id": "4c9068c93d3f87cb6e755cf6414e1be4", "fusion_lon": 0.0, "rental_uris": {"android": "https://dc.lft.to/lastmile_qr_scan", "ios": "https://dc.lft.to/lastmile_qr_scan"}, "name": "4c9068c93d3f87cb6e755cf6414e1be4", "type": "electric_scooter", "lat": 38.92481216666667, "is_disabled": 0}, {"fusion_lat": 0.0, "lon": -77.05223083333334, "is_reserved": 0, "bike_id": "cdbbdd59aaf94638a4d849a12b833ff9", "fusion_lon": 0.0, "rental_uris": {"android": "https://dc.lft.to/lastmile_qr_scan", "ios": "https://dc.lft.to/lastmile_qr_scan"}, "name": "cdbbdd59aaf94638a4d849a12b833ff9", "type": "electric_bike", "lat": 38.900233, "is_disabled": 0}, {"fusion_lat": 0.0, "lon": -76.9985635, "is_reserved": 0, "bike_id": "c61a2341ef49f245912b9e3288d54786", "fusion_lon": 0.0, "rental_uris": {"android": "https://dc.lft.to/lastmile_qr_scan", "ios": "https://dc.lft.to/lastmile_qr_scan"}, "name": "c61a2341ef49f245912b9e3288d54786", "type": "electric_bike", "lat": 38.897250166666666, "is_disabled": 0}, {"fusion_lat": 0.0, "lon": -77.02383033333334, "is_reserved": 0, "bike_id": "1a19e7929ce158c654ee598f80725ee1", "fusion_lon": 0.0, "rental_uris": {"android": "https://dc.lft.to/lastmile_qr_scan", "ios": "https://dc.lft.to/lastmile_qr_scan"}, "name": "1a19e7929ce158c654ee598f80725ee1", "type": "electric_scooter", "lat": 38.909544, "is_disabled": 0}, {"fusion_lat": 0.0, "lon": -77.1032565, "is_reserved": 0, "bike_id": "055980350264e428669c8794e53e728b", "fusion_lon": 0.0, "rental_uris": {"android": "https://dc.lft.to/lastmile_qr_scan", "ios": "https://dc.lft.to/lastmile_qr_scan"}, "name": "055980350264e428669c8794e53e728b", "type": "electric_bike", "lat": 38.87414, "is_disabled": 0}, {"fusion_lat": 0.0, "lon": -77.0239815, "is_reserved": 0, "bike_id": "060e6bd68d909ef2f73372fe237eff1a", "fusion_lon": 0.0, "rental_uris": {"android": "https://dc.lft.to/lastmile_qr_scan", "ios": "https://dc.lft.to/lastmile_qr_scan"}, "name": "060e6bd68d909ef2f73372fe237eff1a", "type": "electric_scooter", "lat": 38.957027, "is_disabled": 0}, {"fusion_lat": 0.0, "lon": -77.03391833333333, "is_reserved": 0, "bike_id": "232fd839e2909457b191fd098142f979", "fusion_lon": 0.0, "rental_uris": {"android": "https://dc.lft.to/lastmile_qr_scan", "ios": "https://dc.lft.to/lastmile_qr_scan"}, "name": "232fd839e2909457b191fd098142f979", "type": "electric_scooter", "lat": 38.92306466666667, "is_disabled": 0}, {"fusion_lat": 0.0, "lon": -76.93137983333334, "is_reserved": 0, "bike_id": "f4d24b7ebec8810f14e266b943c9e07e", "fusion_lon": 0.0, "rental_uris": {"android": "https://dc.lft.to/lastmile_qr_scan", "ios": "https://dc.lft.to/lastmile_qr_scan"}, "name": "f4d24b7ebec8810f14e266b943c9e07e", "type": "electric_scooter", "lat": 38.880762, "is_disabled": 0}, {"fusion_lat": 0.0, "lon": -77.03082666666667, "is_reserved": 0, "bike_id": "b8efc6230aa108b7f71f95e20fb216da", "fusion_lon": 0.0, "rental_uris": {"android": "https://dc.lft.to/lastmile_qr_scan", "ios": "https://dc.lft.to/lastmile_qr_scan"}, "name": "b8efc6230aa108b7f71f95e20fb216da", "type": "electric_scooter", "lat": 38.9175795, "is_disabled": 0}, {"fusion_lat": 0.0, "lon": -77.07971833333333, "is_reserved": 0, "bike_id": "c8b22d26de77a1b70ab5a63c671a0678", "fusion_lon": 0.0, "rental_uris": {"android": "https://dc.lft.to/lastmile_qr_scan", "ios": "https://dc.lft.to/lastmile_qr_scan"}, "name": "c8b22d26de77a1b70ab5a63c671a0678", "type": "electric_scooter", "lat": 38.925803333333334, "is_disabled": 0}, {"fusion_lat": 0.0, "lon": -77.03646, "is_reserved": 0, "bike_id": "89877d96e09cdb2a3fcc9d2777ec31e5", "fusion_lon": 0.0, "rental_uris": {"android": "https://dc.lft.to/lastmile_qr_scan", "ios": "https://dc.lft.to/lastmile_qr_scan"}, "name": "89877d96e09cdb2a3fcc9d2777ec31e5", "type": "electric_scooter", "lat": 38.922633833333336, "is_disabled": 0}, {"fusion_lat": 0.0, "lon": -77.01946516666666, "is_reserved": 0, "bike_id": "1b2f885ce8e6e223bb0a382564632b67", "fusion_lon": 0.0, "rental_uris": {"android": "https://dc.lft.to/lastmile_qr_scan", "ios": "https://dc.lft.to/lastmile_qr_scan"}, "name": "1b2f885ce8e6e223bb0a382564632b67", "type": "electric_bike", "lat": 38.924212, "is_disabled": 0}, {"fusion_lat": 0.0, "lon": -77.0209325, "is_reserved": 0, "bike_id": "a134dd2b739bb0e3e3828fabae7ce9a0", "fusion_lon": 0.0, "rental_uris": {"android": "https://dc.lft.to/lastmile_qr_scan", "ios": "https://dc.lft.to/lastmile_qr_scan"}, "name": "a134dd2b739bb0e3e3828fabae7ce9a0", "type": "electric_scooter", "lat": 38.911202333333335, "is_disabled": 0}, {"fusion_lat": 0.0, "lon": -77.05153866666667, "is_reserved": 0, "bike_id": "e8e1cc21c60ee47f04df5e220c5900eb", "fusion_lon": 0.0, "rental_uris": {"android": "https://dc.lft.to/lastmile_qr_scan", "ios": "https://dc.lft.to/lastmile_qr_scan"}, "name": "e8e1cc21c60ee47f04df5e220c5900eb", "type": "electric_scooter", "lat": 38.899462666666665, "is_disabled": 0}, {"fusion_lat": 0.0, "lon": -77.01933283333334, "is_reserved": 0, "bike_id": "b153dbf39da779d5040099b7b329c0a0", "fusion_lon": 0.0, "rental_uris": {"android": "https://dc.lft.to/lastmile_qr_scan", "ios": "https://dc.lft.to/lastmile_qr_scan"}, "name": "b153dbf39da779d5040099b7b329c0a0", "type": "electric_scooter", "lat": 38.947008, "is_disabled": 0}, {"fusion_lat": 0.0, "lon": -77.0424955, "is_reserved": 0, "bike_id": "3eeb25845007c962a4393adf705e675c", "fusion_lon": 0.0, "rental_uris": {"android": "https://dc.lft.to/lastmile_qr_scan", "ios": "https://dc.lft.to/lastmile_qr_scan"}, "name": "3eeb25845007c962a4393adf705e675c", "type": "electric_scooter", "lat": 38.925418, "is_disabled": 0}, {"fusion_lat": 0.0, "lon": -76.99509983333333, "is_reserved": 0, "bike_id": "96597f9b8553f2c6da384e151fd00c51", "fusion_lon": 0.0, "rental_uris": {"android": "https://dc.lft.to/lastmile_qr_scan", "ios": "https://dc.lft.to/lastmile_qr_scan"}, "name": "96597f9b8553f2c6da384e151fd00c51", "type": "electric_scooter", "lat": 38.88283633333333, "is_disabled": 0}, {"fusion_lat": 0.0, "lon": -76.92736216666667, "is_reserved": 0, "bike_id": "6c1f8002e7d6be6d846218db992b8c43", "fusion_lon": 0.0, "rental_uris": {"android": "https://dc.lft.to/lastmile_qr_scan", "ios": "https://dc.lft.to/lastmile_qr_scan"}, "name": "6c1f8002e7d6be6d846218db992b8c43", "type": "electric_scooter", "lat": 38.889645333333334, "is_disabled": 0}, {"fusion_lat": 0.0, "lon": -77.03865183333333, "is_reserved": 0, "bike_id": "00c711eccefd0cbec7c2601309c4b5ce", "fusion_lon": 0.0, "rental_uris": {"android": "https://dc.lft.to/lastmile_qr_scan", "ios": "https://dc.lft.to/lastmile_qr_scan"}, "name": "00c711eccefd0cbec7c2601309c4b5ce", "type": "electric_scooter", "lat": 38.90792033333334, "is_disabled": 0}, {"fusion_lat": 0.0, "lon": -76.98284, "is_reserved": 0, "bike_id": "378a0173d76bf73fe29862e4fb1c2711", "fusion_lon": 0.0, "rental_uris": {"android": "https://dc.lft.to/lastmile_qr_scan", "ios": "https://dc.lft.to/lastmile_qr_scan"}, "name": "378a0173d76bf73fe29862e4fb1c2711", "type": "electric_scooter", "lat": 38.900462833333336, "is_disabled": 0}, {"fusion_lat": 0.0, "lon": -77.05732166666667, "is_reserved": 0, "bike_id": "e847c955ab132cbf389d4dc08b9f0ce5", "fusion_lon": 0.0, "rental_uris": {"android": "https://dc.lft.to/lastmile_qr_scan", "ios": "https://dc.lft.to/lastmile_qr_scan"}, "name": "e847c955ab132cbf389d4dc08b9f0ce5", "type": "electric_scooter", "lat": 38.933618, "is_disabled": 0}, {"fusion_lat": 0.0, "lon": -76.931563, "is_reserved": 0, "bike_id": "db6ddc890889985f6397b98395a36f15", "fusion_lon": 0.0, "rental_uris": {"android": "https://dc.lft.to/lastmile_qr_scan", "ios": "https://dc.lft.to/lastmile_qr_scan"}, "name": "db6ddc890889985f6397b98395a36f15", "type": "electric_scooter", "lat": 38.8987685, "is_disabled": 0}, {"fusion_lat": 0.0, "lon": -77.01761733333333, "is_reserved": 0, "bike_id": "87e9a07b6081478634f149e8f14203c9", "fusion_lon": 0.0, "rental_uris": {"android": "https://dc.lft.to/lastmile_qr_scan", "ios": "https://dc.lft.to/lastmile_qr_scan"}, "name": "87e9a07b6081478634f149e8f14203c9", "type": "electric_scooter", "lat": 38.90269083333333, "is_disabled": 0}, {"fusion_lat": 0.0, "lon": -77.0367095, "is_reserved": 0, "bike_id": "9630e82b9ab669f3d5fb2a1ee7caf81b", "fusion_lon": 0.0, "rental_uris": {"android": "https://dc.lft.to/lastmile_qr_scan", "ios": "https://dc.lft.to/lastmile_qr_scan"}, "name": "9630e82b9ab669f3d5fb2a1ee7caf81b", "type": "electric_scooter", "lat": 38.90695816666667, "is_disabled": 0}, {"fusion_lat": 0.0, "lon": -77.021034, "is_reserved": 0, "bike_id": "5b461e77f12ddd1b9351558007a0b96f", "fusion_lon": 0.0, "rental_uris": {"android": "https://dc.lft.to/lastmile_qr_scan", "ios": "https://dc.lft.to/lastmile_qr_scan"}, "name": "5b461e77f12ddd1b9351558007a0b96f", "type": "electric_scooter", "lat": 38.88516083333333, "is_disabled": 0}, {"fusion_lat": 0.0, "lon": -77.0396005, "is_reserved": 0, "bike_id": "a0ef2e5d1b2dc94dd963197c6407301b", "fusion_lon": 0.0, "rental_uris": {"android": "https://dc.lft.to/lastmile_qr_scan", "ios": "https://dc.lft.to/lastmile_qr_scan"}, "name": "a0ef2e5d1b2dc94dd963197c6407301b", "type": "electric_scooter", "lat": 38.892459833333334, "is_disabled": 0}, {"fusion_lat": 0.0, "lon": -77.03906716666667, "is_reserved": 0, "bike_id": "3793dc983f9e270da7cce0b2ff0e0e5a", "fusion_lon": 0.0, "rental_uris": {"android": "https://dc.lft.to/lastmile_qr_scan", "ios": "https://dc.lft.to/lastmile_qr_scan"}, "name": "3793dc983f9e270da7cce0b2ff0e0e5a", "type": "electric_scooter", "lat": 38.9241895, "is_disabled": 0}, {"fusion_lat": 0.0, "lon": -77.03230633333334, "is_reserved": 0, "bike_id": "d3cac23a89902af37dc371387474b451", "fusion_lon": 0.0, "rental_uris": {"android": "https://dc.lft.to/lastmile_qr_scan", "ios": "https://dc.lft.to/lastmile_qr_scan"}, "name": "d3cac23a89902af37dc371387474b451", "type": "electric_scooter", "lat": 38.928712, "is_disabled": 0}, {"fusion_lat": 0.0, "lon": -77.0062775, "is_reserved": 0, "bike_id": "43eb8a2dd5779485397bd995f1334601", "fusion_lon": 0.0, "rental_uris": {"android": "https://dc.lft.to/lastmile_qr_scan", "ios": "https://dc.lft.to/lastmile_qr_scan"}, "name": "43eb8a2dd5779485397bd995f1334601", "type": "electric_scooter", "lat": 38.832692333333334, "is_disabled": 0}, {"fusion_lat": 0.0, "lon": -77.03171916666666, "is_reserved": 0, "bike_id": "746500c0975b3f4c685b95525994ccf6", "fusion_lon": 0.0, "rental_uris": {"android": "https://dc.lft.to/lastmile_qr_scan", "ios": "https://dc.lft.to/lastmile_qr_scan"}, "name": "746500c0975b3f4c685b95525994ccf6", "type": "electric_scooter", "lat": 38.91802833333333, "is_disabled": 0}, {"fusion_lat": 0.0, "lon": -77.03484816666666, "is_reserved": 0, "bike_id": "1286d785770b508fa4a30402695d85c2", "fusion_lon": 0.0, "rental_uris": {"android": "https://dc.lft.to/lastmile_qr_scan", "ios": "https://dc.lft.to/lastmile_qr_scan"}, "name": "1286d785770b508fa4a30402695d85c2", "type": "electric_scooter", "lat": 38.90646983333333, "is_disabled": 0}, {"fusion_lat": 0.0, "lon": -76.9291795, "is_reserved": 0, "bike_id": "48888bfc9f779644750ddd5cdfe3b435", "fusion_lon": 0.0, "rental_uris": {"android": "https://dc.lft.to/lastmile_qr_scan", "ios": "https://dc.lft.to/lastmile_qr_scan"}, "name": "48888bfc9f779644750ddd5cdfe3b435", "type": "electric_scooter", "lat": 38.892938, "is_disabled": 0}, {"fusion_lat": 0.0, "lon": -77.07579783333334, "is_reserved": 0, "bike_id": "a211dbb02405b25da6c31d731489f96d", "fusion_lon": 0.0, "rental_uris": {"android": "https://dc.lft.to/lastmile_qr_scan", "ios": "https://dc.lft.to/lastmile_qr_scan"}, "name": "a211dbb02405b25da6c31d731489f96d", "type": "electric_scooter", "lat": 38.912671833333334, "is_disabled": 0}, {"fusion_lat": 0.0, "lon": -77.044992, "is_reserved": 0, "bike_id": "89a3248f7b3d85984a824e61c6565da7", "fusion_lon": 0.0, "rental_uris": {"android": "https://dc.lft.to/lastmile_qr_scan", "ios": "https://dc.lft.to/lastmile_qr_scan"}, "name": "89a3248f7b3d85984a824e61c6565da7", "type": "electric_scooter", "lat": 38.903745666666666, "is_disabled": 0}, {"fusion_lat": 0.0, "lon": -77.0373345, "is_reserved": 0, "bike_id": "f9128b8b76802fa94fd20929948adfa2", "fusion_lon": 0.0, "rental_uris": {"android": "https://dc.lft.to/lastmile_qr_scan", "ios": "https://dc.lft.to/lastmile_qr_scan"}, "name": "f9128b8b76802fa94fd20929948adfa2", "type": "electric_scooter", "lat": 38.9037505, "is_disabled": 0}, {"fusion_lat": 0.0, "lon": -77.00293266666667, "is_reserved": 0, "bike_id": "d912ff3300f4fed136c94b5b058ba6a7", "fusion_lon": 0.0, "rental_uris": {"android": "https://dc.lft.to/lastmile_qr_scan", "ios": "https://dc.lft.to/lastmile_qr_scan"}, "name": "d912ff3300f4fed136c94b5b058ba6a7", "type": "electric_scooter", "lat": 38.8949475, "is_disabled": 0}, {"fusion_lat": 0.0, "lon": -77.03085366666667, "is_reserved": 0, "bike_id": "e70465ea71b6b9526d1f278e528ddbf4", "fusion_lon": 0.0, "rental_uris": {"android": "https://dc.lft.to/lastmile_qr_scan", "ios": "https://dc.lft.to/lastmile_qr_scan"}, "name": "e70465ea71b6b9526d1f278e528ddbf4", "type": "electric_scooter", "lat": 38.89968866666667, "is_disabled": 0}, {"fusion_lat": 0.0, "lon": -76.919661, "is_reserved": 0, "bike_id": "17c36aae4e06fac7b9e5fbee489103bc", "fusion_lon": 0.0, "rental_uris": {"android": "https://dc.lft.to/lastmile_qr_scan", "ios": "https://dc.lft.to/lastmile_qr_scan"}, "name": "17c36aae4e06fac7b9e5fbee489103bc", "type": "electric_scooter", "lat": 38.900265, "is_disabled": 0}, {"fusion_lat": 0.0, "lon": -77.04657016666667, "is_reserved": 0, "bike_id": "eec823c101d5531c5c683c5cfd585c19", "fusion_lon": 0.0, "rental_uris": {"android": "https://dc.lft.to/lastmile_qr_scan", "ios": "https://dc.lft.to/lastmile_qr_scan"}, "name": "eec823c101d5531c5c683c5cfd585c19", "type": "electric_scooter", "lat": 38.90973433333333, "is_disabled": 0}, {"fusion_lat": 0.0, "lon": -76.983952, "is_reserved": 0, "bike_id": "3781714b57965adde3ab7fd5fd733693", "fusion_lon": 0.0, "rental_uris": {"android": "https://dc.lft.to/lastmile_qr_scan", "ios": "https://dc.lft.to/lastmile_qr_scan"}, "name": "3781714b57965adde3ab7fd5fd733693", "type": "electric_scooter", "lat": 38.8669595, "is_disabled": 0}, {"fusion_lat": 0.0, "lon": -77.0405495, "is_reserved": 0, "bike_id": "1b1d70790294cc0cb0fc6baaefb0aa41", "fusion_lon": 0.0, "rental_uris": {"android": "https://dc.lft.to/lastmile_qr_scan", "ios": "https://dc.lft.to/lastmile_qr_scan"}, "name": "1b1d70790294cc0cb0fc6baaefb0aa41", "type": "electric_scooter", "lat": 38.91867766666667, "is_disabled": 0}, {"fusion_lat": 0.0, "lon": -77.03597983333333, "is_reserved": 0, "bike_id": "a2a04f2ae4a9b5c7480f4a29b03b29e9", "fusion_lon": 0.0, "rental_uris": {"android": "https://dc.lft.to/lastmile_qr_scan", "ios": "https://dc.lft.to/lastmile_qr_scan"}, "name": "a2a04f2ae4a9b5c7480f4a29b03b29e9", "type": "electric_scooter", "lat": 38.93934383333333, "is_disabled": 0}, {"fusion_lat": 0.0, "lon": -77.03864383333334, "is_reserved": 0, "bike_id": "a98776d162f3473c5fefc672d7025a82", "fusion_lon": 0.0, "rental_uris": {"android": "https://dc.lft.to/lastmile_qr_scan", "ios": "https://dc.lft.to/lastmile_qr_scan"}, "name": "a98776d162f3473c5fefc672d7025a82", "type": "electric_scooter", "lat": 38.9066575, "is_disabled": 0}, {"fusion_lat": 0.0, "lon": -77.0301855, "is_reserved": 0, "bike_id": "156c8fe8ce8da01323f0475ed012987b", "fusion_lon": 0.0, "rental_uris": {"android": "https://dc.lft.to/lastmile_qr_scan", "ios": "https://dc.lft.to/lastmile_qr_scan"}, "name": "156c8fe8ce8da01323f0475ed012987b", "type": "electric_scooter", "lat": 38.9321455, "is_disabled": 0}, {"fusion_lat": 0.0, "lon": -77.031011, "is_reserved": 0, "bike_id": "01ff5802cdf6769652db1a93ebe366a8", "fusion_lon": 0.0, "rental_uris": {"android": "https://dc.lft.to/lastmile_qr_scan", "ios": "https://dc.lft.to/lastmile_qr_scan"}, "name": "01ff5802cdf6769652db1a93ebe366a8", "type": "electric_scooter", "lat": 38.9271235, "is_disabled": 0}, {"fusion_lat": 0.0, "lon": -77.07918316666667, "is_reserved": 0, "bike_id": "b70705028ab98a6e3b962247e8315cf8", "fusion_lon": 0.0, "rental_uris": {"android": "https://dc.lft.to/lastmile_qr_scan", "ios": "https://dc.lft.to/lastmile_qr_scan"}, "name": "b70705028ab98a6e3b962247e8315cf8", "type": "electric_scooter", "lat": 38.930773333333335, "is_disabled": 0}, {"fusion_lat": 0.0, "lon": -77.0556485, "is_reserved": 0, "bike_id": "6961c9b15024fa7696eebdd2112a98ca", "fusion_lon": 0.0, "rental_uris": {"android": "https://dc.lft.to/lastmile_qr_scan", "ios": "https://dc.lft.to/lastmile_qr_scan"}, "name": "6961c9b15024fa7696eebdd2112a98ca", "type": "electric_scooter", "lat": 38.90927666666666, "is_disabled": 0}, {"fusion_lat": 0.0, "lon": -76.981897, "is_reserved": 0, "bike_id": "d9f53a28107054ac924fd7ed28f58048", "fusion_lon": 0.0, "rental_uris": {"android": "https://dc.lft.to/lastmile_qr_scan", "ios": "https://dc.lft.to/lastmile_qr_scan"}, "name": "d9f53a28107054ac924fd7ed28f58048", "type": "electric_scooter", "lat": 38.90284416666667, "is_disabled": 0}, {"fusion_lat": 0.0, "lon": -77.02274716666666, "is_reserved": 0, "bike_id": "867b58d3984fab38e2e9a2050cd67d27", "fusion_lon": 0.0, "rental_uris": {"android": "https://dc.lft.to/lastmile_qr_scan", "ios": "https://dc.lft.to/lastmile_qr_scan"}, "name": "867b58d3984fab38e2e9a2050cd67d27", "type": "electric_scooter", "lat": 38.87883816666667, "is_disabled": 0}, {"fusion_lat": 0.0, "lon": -77.02999733333333, "is_reserved": 0, "bike_id": "5a34e12e15ab1290350f0370a441ad77", "fusion_lon": 0.0, "rental_uris": {"android": "https://dc.lft.to/lastmile_qr_scan", "ios": "https://dc.lft.to/lastmile_qr_scan"}, "name": "5a34e12e15ab1290350f0370a441ad77", "type": "electric_scooter", "lat": 38.92683666666667, "is_disabled": 0}, {"fusion_lat": 0.0, "lon": -77.02316233333333, "is_reserved": 0, "bike_id": "9e58e77acfb4c15f086c76798a9093fd", "fusion_lon": 0.0, "rental_uris": {"android": "https://dc.lft.to/lastmile_qr_scan", "ios": "https://dc.lft.to/lastmile_qr_scan"}, "name": "9e58e77acfb4c15f086c76798a9093fd", "type": "electric_scooter", "lat": 38.92067, "is_disabled": 0}, {"fusion_lat": 0.0, "lon": -77.00380583333333, "is_reserved": 0, "bike_id": "7f095fbf91270505a59bbeae4c7075b8", "fusion_lon": 0.0, "rental_uris": {"android": "https://dc.lft.to/lastmile_qr_scan", "ios": "https://dc.lft.to/lastmile_qr_scan"}, "name": "7f095fbf91270505a59bbeae4c7075b8", "type": "electric_bike", "lat": 38.836070166666666, "is_disabled": 0}, {"fusion_lat": 0.0, "lon": -76.97673466666667, "is_reserved": 0, "bike_id": "d2779a9eabbe1f9286862ba1bba48a21", "fusion_lon": 0.0, "rental_uris": {"android": "https://dc.lft.to/lastmile_qr_scan", "ios": "https://dc.lft.to/lastmile_qr_scan"}, "name": "d2779a9eabbe1f9286862ba1bba48a21", "type": "electric_bike", "lat": 38.95244683333333, "is_disabled": 0}, {"fusion_lat": 0.0, "lon": -77.03862616666666, "is_reserved": 0, "bike_id": "0143366159a09608e2ed847c13ab8225", "fusion_lon": 0.0, "rental_uris": {"android": "https://dc.lft.to/lastmile_qr_scan", "ios": "https://dc.lft.to/lastmile_qr_scan"}, "name": "0143366159a09608e2ed847c13ab8225", "type": "electric_scooter", "lat": 38.903658, "is_disabled": 0}, {"fusion_lat": 0.0, "lon": -77.001868, "is_reserved": 0, "bike_id": "58dce957e4c643bd73e2f05925c5d0f1", "fusion_lon": 0.0, "rental_uris": {"android": "https://dc.lft.to/lastmile_qr_scan", "ios": "https://dc.lft.to/lastmile_qr_scan"}, "name": "58dce957e4c643bd73e2f05925c5d0f1", "type": "electric_scooter", "lat": 38.894435666666666, "is_disabled": 0}, {"fusion_lat": 0.0, "lon": -76.98747583333333, "is_reserved": 0, "bike_id": "de77e7d8f852149adc6a0e8d0e24e5fe", "fusion_lon": 0.0, "rental_uris": {"android": "https://dc.lft.to/lastmile_qr_scan", "ios": "https://dc.lft.to/lastmile_qr_scan"}, "name": "de77e7d8f852149adc6a0e8d0e24e5fe", "type": "electric_scooter", "lat": 38.867135166666664, "is_disabled": 0}, {"fusion_lat": 0.0, "lon": -76.98301133333334, "is_reserved": 0, "bike_id": "e504d346c3775bd6a8b7ee25101b14b8", "fusion_lon": 0.0, "rental_uris": {"android": "https://dc.lft.to/lastmile_qr_scan", "ios": "https://dc.lft.to/lastmile_qr_scan"}, "name": "e504d346c3775bd6a8b7ee25101b14b8", "type": "electric_scooter", "lat": 38.9052315, "is_disabled": 0}, {"fusion_lat": 0.0, "lon": -77.0248275, "is_reserved": 0, "bike_id": "c303826f3d9107bb7e434e4e92268d4f", "fusion_lon": 0.0, "rental_uris": {"android": "https://dc.lft.to/lastmile_qr_scan", "ios": "https://dc.lft.to/lastmile_qr_scan"}, "name": "c303826f3d9107bb7e434e4e92268d4f", "type": "electric_scooter", "lat": 38.927469333333335, "is_disabled": 0}, {"fusion_lat": 0.0, "lon": -77.03994466666667, "is_reserved": 0, "bike_id": "819b755bebb564525453368c9bd67f11", "fusion_lon": 0.0, "rental_uris": {"android": "https://dc.lft.to/lastmile_qr_scan", "ios": "https://dc.lft.to/lastmile_qr_scan"}, "name": "819b755bebb564525453368c9bd67f11", "type": "electric_scooter", "lat": 38.91421166666667, "is_disabled": 0}, {"fusion_lat": 0.0, "lon": -77.03955466666666, "is_reserved": 0, "bike_id": "1948fe33537972c5b32889ed04cc5767", "fusion_lon": 0.0, "rental_uris": {"android": "https://dc.lft.to/lastmile_qr_scan", "ios": "https://dc.lft.to/lastmile_qr_scan"}, "name": "1948fe33537972c5b32889ed04cc5767", "type": "electric_scooter", "lat": 38.89723566666667, "is_disabled": 0}, {"fusion_lat": 0.0, "lon": -77.04477283333334, "is_reserved": 0, "bike_id": "bd463b92f41b154e7d92960cd34d372f", "fusion_lon": 0.0, "rental_uris": {"android": "https://dc.lft.to/lastmile_qr_scan", "ios": "https://dc.lft.to/lastmile_qr_scan"}, "name": "bd463b92f41b154e7d92960cd34d372f", "type": "electric_scooter", "lat": 38.91871616666667, "is_disabled": 0}, {"fusion_lat": 0.0, "lon": -77.03447766666666, "is_reserved": 0, "bike_id": "1aea6a1816b9b7f691e2eeef201dac18", "fusion_lon": 0.0, "rental_uris": {"android": "https://dc.lft.to/lastmile_qr_scan", "ios": "https://dc.lft.to/lastmile_qr_scan"}, "name": "1aea6a1816b9b7f691e2eeef201dac18", "type": "electric_scooter", "lat": 38.908042, "is_disabled": 0}, {"fusion_lat": 0.0, "lon": -76.93543566666666, "is_reserved": 0, "bike_id": "b42d67f4e467ee05e4fd81a7c3157519", "fusion_lon": 0.0, "rental_uris": {"android": "https://dc.lft.to/lastmile_qr_scan", "ios": "https://dc.lft.to/lastmile_qr_scan"}, "name": "b42d67f4e467ee05e4fd81a7c3157519", "type": "electric_bike", "lat": 38.95554333333333, "is_disabled": 0}, {"fusion_lat": 0.0, "lon": -77.03651816666667, "is_reserved": 0, "bike_id": "94ce7e25f04179d9619225102791a176", "fusion_lon": 0.0, "rental_uris": {"android": "https://dc.lft.to/lastmile_qr_scan", "ios": "https://dc.lft.to/lastmile_qr_scan"}, "name": "94ce7e25f04179d9619225102791a176", "type": "electric_bike", "lat": 38.923149, "is_disabled": 0}, {"fusion_lat": 0.0, "lon": -76.931953, "is_reserved": 0, "bike_id": "ae5c4f7b3eb869687b3a6660a0ae993c", "fusion_lon": 0.0, "rental_uris": {"android": "https://dc.lft.to/lastmile_qr_scan", "ios": "https://dc.lft.to/lastmile_qr_scan"}, "name": "ae5c4f7b3eb869687b3a6660a0ae993c", "type": "electric_scooter", "lat": 38.89878783333333, "is_disabled": 0}, {"fusion_lat": 0.0, "lon": -76.9237045, "is_reserved": 0, "bike_id": "5344c168992885b023013ebcc21d5e1f", "fusion_lon": 0.0, "rental_uris": {"android": "https://dc.lft.to/lastmile_qr_scan", "ios": "https://dc.lft.to/lastmile_qr_scan"}, "name": "5344c168992885b023013ebcc21d5e1f", "type": "electric_bike", "lat": 38.883748833333335, "is_disabled": 0}, {"fusion_lat": 0.0, "lon": -76.9851955, "is_reserved": 0, "bike_id": "2049f2bb9b15cd6a46391ed9c9f8bb82", "fusion_lon": 0.0, "rental_uris": {"android": "https://dc.lft.to/lastmile_qr_scan", "ios": "https://dc.lft.to/lastmile_qr_scan"}, "name": "2049f2bb9b15cd6a46391ed9c9f8bb82", "type": "electric_scooter", "lat": 38.8665965, "is_disabled": 0}, {"fusion_lat": 0.0, "lon": -77.05138366666667, "is_reserved": 0, "bike_id": "bd233a6f6b99e77a2d6caa4953145182", "fusion_lon": 0.0, "rental_uris": {"android": "https://dc.lft.to/lastmile_qr_scan", "ios": "https://dc.lft.to/lastmile_qr_scan"}, "name": "bd233a6f6b99e77a2d6caa4953145182", "type": "electric_scooter", "lat": 38.90531583333333, "is_disabled": 0}, {"fusion_lat": 0.0, "lon": -76.98557233333334, "is_reserved": 0, "bike_id": "7d2065f4860e30b81c079b2855557df1", "fusion_lon": 0.0, "rental_uris": {"android": "https://dc.lft.to/lastmile_qr_scan", "ios": "https://dc.lft.to/lastmile_qr_scan"}, "name": "7d2065f4860e30b81c079b2855557df1", "type": "electric_scooter", "lat": 38.910337166666665, "is_disabled": 0}, {"fusion_lat": 0.0, "lon": -77.045165, "is_reserved": 0, "bike_id": "3a46d452ca4efe72500a45e98002b5de", "fusion_lon": 0.0, "rental_uris": {"android": "https://dc.lft.to/lastmile_qr_scan", "ios": "https://dc.lft.to/lastmile_qr_scan"}, "name": "3a46d452ca4efe72500a45e98002b5de", "type": "electric_scooter", "lat": 38.912853, "is_disabled": 0}, {"fusion_lat": 0.0, "lon": -77.02722816666666, "is_reserved": 0, "bike_id": "4c8b6a301c6334e4cd227efec9314ce4", "fusion_lon": 0.0, "rental_uris": {"android": "https://dc.lft.to/lastmile_qr_scan", "ios": "https://dc.lft.to/lastmile_qr_scan"}, "name": "4c8b6a301c6334e4cd227efec9314ce4", "type": "electric_scooter", "lat": 38.94958716666667, "is_disabled": 0}, {"fusion_lat": 0.0, "lon": -77.02559166666667, "is_reserved": 0, "bike_id": "082ea01d2efc34516765378cf3c31bfd", "fusion_lon": 0.0, "rental_uris": {"android": "https://dc.lft.to/lastmile_qr_scan", "ios": "https://dc.lft.to/lastmile_qr_scan"}, "name": "082ea01d2efc34516765378cf3c31bfd", "type": "electric_scooter", "lat": 38.938686833333335, "is_disabled": 0}, {"fusion_lat": 0.0, "lon": -77.05224033333333, "is_reserved": 0, "bike_id": "81aa7d541a62b568f11936e524463fbb", "fusion_lon": 0.0, "rental_uris": {"android": "https://dc.lft.to/lastmile_qr_scan", "ios": "https://dc.lft.to/lastmile_qr_scan"}, "name": "81aa7d541a62b568f11936e524463fbb", "type": "electric_scooter", "lat": 38.915643333333335, "is_disabled": 0}, {"fusion_lat": 0.0, "lon": -76.93614283333334, "is_reserved": 0, "bike_id": "a107bbc81aeb7d0489bbbaead2a5c926", "fusion_lon": 0.0, "rental_uris": {"android": "https://dc.lft.to/lastmile_qr_scan", "ios": "https://dc.lft.to/lastmile_qr_scan"}, "name": "a107bbc81aeb7d0489bbbaead2a5c926", "type": "electric_scooter", "lat": 38.886727, "is_disabled": 0}, {"fusion_lat": 0.0, "lon": -77.04515516666666, "is_reserved": 0, "bike_id": "9e1dd984a37eddbb4281ebf9ab61ac71", "fusion_lon": 0.0, "rental_uris": {"android": "https://dc.lft.to/lastmile_qr_scan", "ios": "https://dc.lft.to/lastmile_qr_scan"}, "name": "9e1dd984a37eddbb4281ebf9ab61ac71", "type": "electric_scooter", "lat": 38.91289116666667, "is_disabled": 0}, {"fusion_lat": 0.0, "lon": -76.982573, "is_reserved": 0, "bike_id": "9fc830b64fc49e2acf9ac3188139ad5a", "fusion_lon": 0.0, "rental_uris": {"android": "https://dc.lft.to/lastmile_qr_scan", "ios": "https://dc.lft.to/lastmile_qr_scan"}, "name": "9fc830b64fc49e2acf9ac3188139ad5a", "type": "electric_scooter", "lat": 38.863071833333336, "is_disabled": 0}, {"fusion_lat": 0.0, "lon": -77.01158266666667, "is_reserved": 0, "bike_id": "79c6f655552aba48cd30cf7cd12c0e8a", "fusion_lon": 0.0, "rental_uris": {"android": "https://dc.lft.to/lastmile_qr_scan", "ios": "https://dc.lft.to/lastmile_qr_scan"}, "name": "79c6f655552aba48cd30cf7cd12c0e8a", "type": "electric_scooter", "lat": 38.96985133333333, "is_disabled": 0}, {"fusion_lat": 0.0, "lon": -77.0043975, "is_reserved": 0, "bike_id": "3e9ee4f8d9c8f0903d9b71352350cac6", "fusion_lon": 0.0, "rental_uris": {"android": "https://dc.lft.to/lastmile_qr_scan", "ios": "https://dc.lft.to/lastmile_qr_scan"}, "name": "3e9ee4f8d9c8f0903d9b71352350cac6", "type": "electric_scooter", "lat": 38.91335266666667, "is_disabled": 0}, {"fusion_lat": 0.0, "lon": -77.02837783333334, "is_reserved": 0, "bike_id": "ea59131a8a28ad38de69e7eef1813e74", "fusion_lon": 0.0, "rental_uris": {"android": "https://dc.lft.to/lastmile_qr_scan", "ios": "https://dc.lft.to/lastmile_qr_scan"}, "name": "ea59131a8a28ad38de69e7eef1813e74", "type": "electric_scooter", "lat": 38.90434066666667, "is_disabled": 0}, {"fusion_lat": 0.0, "lon": -77.04105183333333, "is_reserved": 0, "bike_id": "16f0bede6ac6f1d6e8e0240e9a5483f4", "fusion_lon": 0.0, "rental_uris": {"android": "https://dc.lft.to/lastmile_qr_scan", "ios": "https://dc.lft.to/lastmile_qr_scan"}, "name": "16f0bede6ac6f1d6e8e0240e9a5483f4", "type": "electric_scooter", "lat": 38.912676833333336, "is_disabled": 0}, {"fusion_lat": 0.0, "lon": -77.0270825, "is_reserved": 0, "bike_id": "c447c2677d8baacd11bcd936d56e6d66", "fusion_lon": 0.0, "rental_uris": {"android": "https://dc.lft.to/lastmile_qr_scan", "ios": "https://dc.lft.to/lastmile_qr_scan"}, "name": "c447c2677d8baacd11bcd936d56e6d66", "type": "electric_scooter", "lat": 38.924533, "is_disabled": 0}, {"fusion_lat": 0.0, "lon": -77.0453965, "is_reserved": 0, "bike_id": "4f3a506be8f0a966d5739737df0ebdf4", "fusion_lon": 0.0, "rental_uris": {"android": "https://dc.lft.to/lastmile_qr_scan", "ios": "https://dc.lft.to/lastmile_qr_scan"}, "name": "4f3a506be8f0a966d5739737df0ebdf4", "type": "electric_scooter", "lat": 38.9178775, "is_disabled": 0}, {"fusion_lat": 0.0, "lon": -77.03883483333334, "is_reserved": 0, "bike_id": "4006e2bf5fa8b487ce6b4c4c3105e72e", "fusion_lon": 0.0, "rental_uris": {"android": "https://dc.lft.to/lastmile_qr_scan", "ios": "https://dc.lft.to/lastmile_qr_scan"}, "name": "4006e2bf5fa8b487ce6b4c4c3105e72e", "type": "electric_scooter", "lat": 38.908146, "is_disabled": 0}, {"fusion_lat": 0.0, "lon": -77.015178, "is_reserved": 0, "bike_id": "159c4650ad6fda0e0ae09a7312062a95", "fusion_lon": 0.0, "rental_uris": {"android": "https://dc.lft.to/lastmile_qr_scan", "ios": "https://dc.lft.to/lastmile_qr_scan"}, "name": "159c4650ad6fda0e0ae09a7312062a95", "type": "electric_scooter", "lat": 38.89237216666667, "is_disabled": 0}, {"fusion_lat": 0.0, "lon": -77.053404, "is_reserved": 0, "bike_id": "d55d4eab0480ef650b94aac95354728b", "fusion_lon": 0.0, "rental_uris": {"android": "https://dc.lft.to/lastmile_qr_scan", "ios": "https://dc.lft.to/lastmile_qr_scan"}, "name": "d55d4eab0480ef650b94aac95354728b", "type": "electric_scooter", "lat": 38.910676333333335, "is_disabled": 0}, {"fusion_lat": 0.0, "lon": -77.01756116666667, "is_reserved": 0, "bike_id": "763adf6626b92fed3d8732ccc76eceb6", "fusion_lon": 0.0, "rental_uris": {"android": "https://dc.lft.to/lastmile_qr_scan", "ios": "https://dc.lft.to/lastmile_qr_scan"}, "name": "763adf6626b92fed3d8732ccc76eceb6", "type": "electric_scooter", "lat": 38.885803833333334, "is_disabled": 0}, {"fusion_lat": 0.0, "lon": -76.99793366666667, "is_reserved": 0, "bike_id": "f83eb392646c4453964e68674f4e6675", "fusion_lon": 0.0, "rental_uris": {"android": "https://dc.lft.to/lastmile_qr_scan", "ios": "https://dc.lft.to/lastmile_qr_scan"}, "name": "f83eb392646c4453964e68674f4e6675", "type": "electric_bike", "lat": 38.950868, "is_disabled": 0}, {"fusion_lat": 0.0, "lon": -77.04372283333333, "is_reserved": 0, "bike_id": "0ebc799a74187fbb5547f21f2bcee2dd", "fusion_lon": 0.0, "rental_uris": {"android": "https://dc.lft.to/lastmile_qr_scan", "ios": "https://dc.lft.to/lastmile_qr_scan"}, "name": "0ebc799a74187fbb5547f21f2bcee2dd", "type": "electric_scooter", "lat": 38.892222333333336, "is_disabled": 0}, {"fusion_lat": 0.0, "lon": -77.03422766666667, "is_reserved": 0, "bike_id": "3f4963ceda75309ac9a61b06be9703c5", "fusion_lon": 0.0, "rental_uris": {"android": "https://dc.lft.to/lastmile_qr_scan", "ios": "https://dc.lft.to/lastmile_qr_scan"}, "name": "3f4963ceda75309ac9a61b06be9703c5", "type": "electric_bike", "lat": 38.96531733333333, "is_disabled": 0}, {"fusion_lat": 0.0, "lon": -77.02218483333333, "is_reserved": 0, "bike_id": "7c7eb29e90bfb130f6e4ef8e2bdcc3ea", "fusion_lon": 0.0, "rental_uris": {"android": "https://dc.lft.to/lastmile_qr_scan", "ios": "https://dc.lft.to/lastmile_qr_scan"}, "name": "7c7eb29e90bfb130f6e4ef8e2bdcc3ea", "type": "electric_scooter", "lat": 38.9112, "is_disabled": 0}, {"fusion_lat": 0.0, "lon": -77.0790355, "is_reserved": 0, "bike_id": "ec385e5169f0bdab78ed458e8406768f", "fusion_lon": 0.0, "rental_uris": {"android": "https://dc.lft.to/lastmile_qr_scan", "ios": "https://dc.lft.to/lastmile_qr_scan"}, "name": "ec385e5169f0bdab78ed458e8406768f", "type": "electric_scooter", "lat": 38.94802833333333, "is_disabled": 0}, {"fusion_lat": 0.0, "lon": -77.00698983333334, "is_reserved": 0, "bike_id": "4e91dc01c0b29695c5239c0e5f774f84", "fusion_lon": 0.0, "rental_uris": {"android": "https://dc.lft.to/lastmile_qr_scan", "ios": "https://dc.lft.to/lastmile_qr_scan"}, "name": "4e91dc01c0b29695c5239c0e5f774f84", "type": "electric_scooter", "lat": 38.952467, "is_disabled": 0}, {"fusion_lat": 0.0, "lon": -77.05570783333333, "is_reserved": 0, "bike_id": "515643a82a0f1c776f619294dab47991", "fusion_lon": 0.0, "rental_uris": {"android": "https://dc.lft.to/lastmile_qr_scan", "ios": "https://dc.lft.to/lastmile_qr_scan"}, "name": "515643a82a0f1c776f619294dab47991", "type": "electric_scooter", "lat": 38.915961, "is_disabled": 0}, {"fusion_lat": 0.0, "lon": -77.0331425, "is_reserved": 0, "bike_id": "5bd2f599bb5084cc266b162a193d1a6f", "fusion_lon": 0.0, "rental_uris": {"android": "https://dc.lft.to/lastmile_qr_scan", "ios": "https://dc.lft.to/lastmile_qr_scan"}, "name": "5bd2f599bb5084cc266b162a193d1a6f", "type": "electric_scooter", "lat": 38.9015175, "is_disabled": 0}, {"fusion_lat": 0.0, "lon": -77.01693933333334, "is_reserved": 0, "bike_id": "470061f50c5305a95a24d5b714a268c3", "fusion_lon": 0.0, "rental_uris": {"android": "https://dc.lft.to/lastmile_qr_scan", "ios": "https://dc.lft.to/lastmile_qr_scan"}, "name": "470061f50c5305a95a24d5b714a268c3", "type": "electric_scooter", "lat": 38.905294833333336, "is_disabled": 0}, {"fusion_lat": 0.0, "lon": -77.031137, "is_reserved": 0, "bike_id": "973a2df86fe536599b6063f8a134dca9", "fusion_lon": 0.0, "rental_uris": {"android": "https://dc.lft.to/lastmile_qr_scan", "ios": "https://dc.lft.to/lastmile_qr_scan"}, "name": "973a2df86fe536599b6063f8a134dca9", "type": "electric_scooter", "lat": 38.9040755, "is_disabled": 0}, {"fusion_lat": 0.0, "lon": -77.02299, "is_reserved": 0, "bike_id": "d1ea5fbdf99d70d72049c9427169d780", "fusion_lon": 0.0, "rental_uris": {"android": "https://dc.lft.to/lastmile_qr_scan", "ios": "https://dc.lft.to/lastmile_qr_scan"}, "name": "d1ea5fbdf99d70d72049c9427169d780", "type": "electric_scooter", "lat": 38.917815, "is_disabled": 0}, {"fusion_lat": 0.0, "lon": -77.06595816666666, "is_reserved": 0, "bike_id": "7f631149d9a0668e9fc49e237ba320ec", "fusion_lon": 0.0, "rental_uris": {"android": "https://dc.lft.to/lastmile_qr_scan", "ios": "https://dc.lft.to/lastmile_qr_scan"}, "name": "7f631149d9a0668e9fc49e237ba320ec", "type": "electric_scooter", "lat": 38.9036825, "is_disabled": 0}, {"fusion_lat": 0.0, "lon": -77.03080666666666, "is_reserved": 0, "bike_id": "b72be82e6aebc1b749af6492ccc4e556", "fusion_lon": 0.0, "rental_uris": {"android": "https://dc.lft.to/lastmile_qr_scan", "ios": "https://dc.lft.to/lastmile_qr_scan"}, "name": "b72be82e6aebc1b749af6492ccc4e556", "type": "electric_scooter", "lat": 38.92246266666667, "is_disabled": 0}, {"fusion_lat": 0.0, "lon": -77.03178766666667, "is_reserved": 0, "bike_id": "9fa1c8dd9a6dd95f17c73b4e9b8d6a4e", "fusion_lon": 0.0, "rental_uris": {"android": "https://dc.lft.to/lastmile_qr_scan", "ios": "https://dc.lft.to/lastmile_qr_scan"}, "name": "9fa1c8dd9a6dd95f17c73b4e9b8d6a4e", "type": "electric_scooter", "lat": 38.9164975, "is_disabled": 0}, {"fusion_lat": 0.0, "lon": -77.02794766666666, "is_reserved": 0, "bike_id": "f7a45c9bee952972657a86bfd257ec03", "fusion_lon": 0.0, "rental_uris": {"android": "https://dc.lft.to/lastmile_qr_scan", "ios": "https://dc.lft.to/lastmile_qr_scan"}, "name": "f7a45c9bee952972657a86bfd257ec03", "type": "electric_scooter", "lat": 38.954062, "is_disabled": 0}, {"fusion_lat": 0.0, "lon": -76.998195, "is_reserved": 0, "bike_id": "96637eae950582666a6d7da5c46d0669", "fusion_lon": 0.0, "rental_uris": {"android": "https://dc.lft.to/lastmile_qr_scan", "ios": "https://dc.lft.to/lastmile_qr_scan"}, "name": "96637eae950582666a6d7da5c46d0669", "type": "electric_scooter", "lat": 38.90867333333333, "is_disabled": 0}, {"fusion_lat": 0.0, "lon": -77.01218566666667, "is_reserved": 0, "bike_id": "d511689d247577e28207cc676d50349b", "fusion_lon": 0.0, "rental_uris": {"android": "https://dc.lft.to/lastmile_qr_scan", "ios": "https://dc.lft.to/lastmile_qr_scan"}, "name": "d511689d247577e28207cc676d50349b", "type": "electric_scooter", "lat": 38.917552666666666, "is_disabled": 0}, {"fusion_lat": 0.0, "lon": -76.981156, "is_reserved": 0, "bike_id": "9e107086f82cafff469e9f5e2c00e71b", "fusion_lon": 0.0, "rental_uris": {"android": "https://dc.lft.to/lastmile_qr_scan", "ios": "https://dc.lft.to/lastmile_qr_scan"}, "name": "9e107086f82cafff469e9f5e2c00e71b", "type": "electric_scooter", "lat": 38.9040695, "is_disabled": 0}, {"fusion_lat": 0.0, "lon": -76.983501, "is_reserved": 0, "bike_id": "bb00e8a5957a248cd3ea97141c660a7e", "fusion_lon": 0.0, "rental_uris": {"android": "https://dc.lft.to/lastmile_qr_scan", "ios": "https://dc.lft.to/lastmile_qr_scan"}, "name": "bb00e8a5957a248cd3ea97141c660a7e", "type": "electric_scooter", "lat": 38.915384833333334, "is_disabled": 0}, {"fusion_lat": 0.0, "lon": -77.00587933333334, "is_reserved": 0, "bike_id": "447cb327b6960887996faab7a3590809", "fusion_lon": 0.0, "rental_uris": {"android": "https://dc.lft.to/lastmile_qr_scan", "ios": "https://dc.lft.to/lastmile_qr_scan"}, "name": "447cb327b6960887996faab7a3590809", "type": "electric_scooter", "lat": 38.90564916666666, "is_disabled": 0}, {"fusion_lat": 0.0, "lon": -77.034736, "is_reserved": 0, "bike_id": "8380089319270dd14590e0fdb4587f04", "fusion_lon": 0.0, "rental_uris": {"android": "https://dc.lft.to/lastmile_qr_scan", "ios": "https://dc.lft.to/lastmile_qr_scan"}, "name": "8380089319270dd14590e0fdb4587f04", "type": "electric_scooter", "lat": 38.925447166666665, "is_disabled": 0}, {"fusion_lat": 0.0, "lon": -76.97798916666666, "is_reserved": 0, "bike_id": "3ee755c8945edeaa8efd8e9d32f018fd", "fusion_lon": 0.0, "rental_uris": {"android": "https://dc.lft.to/lastmile_qr_scan", "ios": "https://dc.lft.to/lastmile_qr_scan"}, "name": "3ee755c8945edeaa8efd8e9d32f018fd", "type": "electric_scooter", "lat": 38.90310683333333, "is_disabled": 0}, {"fusion_lat": 0.0, "lon": -77.02114416666667, "is_reserved": 0, "bike_id": "4a8b0b3ab594809e632bc6ef76c05757", "fusion_lon": 0.0, "rental_uris": {"android": "https://dc.lft.to/lastmile_qr_scan", "ios": "https://dc.lft.to/lastmile_qr_scan"}, "name": "4a8b0b3ab594809e632bc6ef76c05757", "type": "electric_scooter", "lat": 38.894693, "is_disabled": 0}, {"fusion_lat": 0.0, "lon": -77.038516, "is_reserved": 0, "bike_id": "cb648a0d18ed4bb35472e12e0e23924d", "fusion_lon": 0.0, "rental_uris": {"android": "https://dc.lft.to/lastmile_qr_scan", "ios": "https://dc.lft.to/lastmile_qr_scan"}, "name": "cb648a0d18ed4bb35472e12e0e23924d", "type": "electric_scooter", "lat": 38.91279016666667, "is_disabled": 0}, {"fusion_lat": 0.0, "lon": -77.009249, "is_reserved": 0, "bike_id": "ab8eb05f6ce511a4ee72829f11a068dd", "fusion_lon": 0.0, "rental_uris": {"android": "https://dc.lft.to/lastmile_qr_scan", "ios": "https://dc.lft.to/lastmile_qr_scan"}, "name": "ab8eb05f6ce511a4ee72829f11a068dd", "type": "electric_scooter", "lat": 38.918055, "is_disabled": 0}, {"fusion_lat": 0.0, "lon": -77.03859383333334, "is_reserved": 0, "bike_id": "959c0119225fcb59fe5cd0becb7c89a5", "fusion_lon": 0.0, "rental_uris": {"android": "https://dc.lft.to/lastmile_qr_scan", "ios": "https://dc.lft.to/lastmile_qr_scan"}, "name": "959c0119225fcb59fe5cd0becb7c89a5", "type": "electric_scooter", "lat": 38.91556383333333, "is_disabled": 0}, {"fusion_lat": 0.0, "lon": -77.02509166666667, "is_reserved": 0, "bike_id": "96f7978b5b0a9534fbf3d21f22361b22", "fusion_lon": 0.0, "rental_uris": {"android": "https://dc.lft.to/lastmile_qr_scan", "ios": "https://dc.lft.to/lastmile_qr_scan"}, "name": "96f7978b5b0a9534fbf3d21f22361b22", "type": "electric_scooter", "lat": 38.920867333333334, "is_disabled": 0}, {"fusion_lat": 0.0, "lon": -76.99073916666667, "is_reserved": 0, "bike_id": "5824552f55c012998f0d5ed41df0a649", "fusion_lon": 0.0, "rental_uris": {"android": "https://dc.lft.to/lastmile_qr_scan", "ios": "https://dc.lft.to/lastmile_qr_scan"}, "name": "5824552f55c012998f0d5ed41df0a649", "type": "electric_bike", "lat": 38.86232016666666, "is_disabled": 0}, {"fusion_lat": 0.0, "lon": -77.00441816666667, "is_reserved": 0, "bike_id": "4f8ce57893b1933593c08e78debe6527", "fusion_lon": 0.0, "rental_uris": {"android": "https://dc.lft.to/lastmile_qr_scan", "ios": "https://dc.lft.to/lastmile_qr_scan"}, "name": "4f8ce57893b1933593c08e78debe6527", "type": "electric_scooter", "lat": 38.90559733333333, "is_disabled": 0}, {"fusion_lat": 0.0, "lon": -77.03302766666667, "is_reserved": 0, "bike_id": "35cf1ea9dead3f097ec24b9e928663ae", "fusion_lon": 0.0, "rental_uris": {"android": "https://dc.lft.to/lastmile_qr_scan", "ios": "https://dc.lft.to/lastmile_qr_scan"}, "name": "35cf1ea9dead3f097ec24b9e928663ae", "type": "electric_scooter", "lat": 38.9563415, "is_disabled": 0}, {"fusion_lat": 0.0, "lon": -77.04352083333333, "is_reserved": 0, "bike_id": "d338b5ea4d6d801849316c254fe9bc0d", "fusion_lon": 0.0, "rental_uris": {"android": "https://dc.lft.to/lastmile_qr_scan", "ios": "https://dc.lft.to/lastmile_qr_scan"}, "name": "d338b5ea4d6d801849316c254fe9bc0d", "type": "electric_scooter", "lat": 38.892297166666665, "is_disabled": 0}, {"fusion_lat": 0.0, "lon": -77.058918, "is_reserved": 0, "bike_id": "78d3c7074e3f5d5e2d08b2f63516dbfc", "fusion_lon": 0.0, "rental_uris": {"android": "https://dc.lft.to/lastmile_qr_scan", "ios": "https://dc.lft.to/lastmile_qr_scan"}, "name": "78d3c7074e3f5d5e2d08b2f63516dbfc", "type": "electric_scooter", "lat": 38.94301766666667, "is_disabled": 0}, {"fusion_lat": 0.0, "lon": -76.99340816666667, "is_reserved": 0, "bike_id": "6cbc8c51ea142da94bf5975ac298e2e8", "fusion_lon": 0.0, "rental_uris": {"android": "https://dc.lft.to/lastmile_qr_scan", "ios": "https://dc.lft.to/lastmile_qr_scan"}, "name": "6cbc8c51ea142da94bf5975ac298e2e8", "type": "electric_bike", "lat": 38.92281466666667, "is_disabled": 0}, {"fusion_lat": 0.0, "lon": -77.02763033333333, "is_reserved": 0, "bike_id": "60ed28a027f6bee5229591059ac2ab33", "fusion_lon": 0.0, "rental_uris": {"android": "https://dc.lft.to/lastmile_qr_scan", "ios": "https://dc.lft.to/lastmile_qr_scan"}, "name": "60ed28a027f6bee5229591059ac2ab33", "type": "electric_scooter", "lat": 38.95427866666667, "is_disabled": 0}, {"fusion_lat": 0.0, "lon": -77.03219066666666, "is_reserved": 0, "bike_id": "20442438da78b72ea3faf93e1b57a5ce", "fusion_lon": 0.0, "rental_uris": {"android": "https://dc.lft.to/lastmile_qr_scan", "ios": "https://dc.lft.to/lastmile_qr_scan"}, "name": "20442438da78b72ea3faf93e1b57a5ce", "type": "electric_scooter", "lat": 38.8921945, "is_disabled": 0}, {"fusion_lat": 0.0, "lon": -77.026559, "is_reserved": 0, "bike_id": "7cc830eb796735b5e8ae7178430f501e", "fusion_lon": 0.0, "rental_uris": {"android": "https://dc.lft.to/lastmile_qr_scan", "ios": "https://dc.lft.to/lastmile_qr_scan"}, "name": "7cc830eb796735b5e8ae7178430f501e", "type": "electric_scooter", "lat": 38.8921875, "is_disabled": 0}, {"fusion_lat": 0.0, "lon": -77.00118183333333, "is_reserved": 0, "bike_id": "0ebe3c498317412382f424b458bcb598", "fusion_lon": 0.0, "rental_uris": {"android": "https://dc.lft.to/lastmile_qr_scan", "ios": "https://dc.lft.to/lastmile_qr_scan"}, "name": "0ebe3c498317412382f424b458bcb598", "type": "electric_scooter", "lat": 38.905005333333335, "is_disabled": 0}, {"fusion_lat": 0.0, "lon": -77.02117166666666, "is_reserved": 0, "bike_id": "2d8d25f7ff75cb30b278a12f0e53e057", "fusion_lon": 0.0, "rental_uris": {"android": "https://dc.lft.to/lastmile_qr_scan", "ios": "https://dc.lft.to/lastmile_qr_scan"}, "name": "2d8d25f7ff75cb30b278a12f0e53e057", "type": "electric_scooter", "lat": 38.89489, "is_disabled": 0}, {"fusion_lat": 0.0, "lon": -77.04323633333334, "is_reserved": 0, "bike_id": "919ecaea0197f00045dfc24a88c331ff", "fusion_lon": 0.0, "rental_uris": {"android": "https://dc.lft.to/lastmile_qr_scan", "ios": "https://dc.lft.to/lastmile_qr_scan"}, "name": "919ecaea0197f00045dfc24a88c331ff", "type": "electric_scooter", "lat": 38.92318616666667, "is_disabled": 0}, {"fusion_lat": 0.0, "lon": -77.03261633333334, "is_reserved": 0, "bike_id": "2b41e325ea43560abe03a2c951a0e6ce", "fusion_lon": 0.0, "rental_uris": {"android": "https://dc.lft.to/lastmile_qr_scan", "ios": "https://dc.lft.to/lastmile_qr_scan"}, "name": "2b41e325ea43560abe03a2c951a0e6ce", "type": "electric_scooter", "lat": 38.92741, "is_disabled": 0}, {"fusion_lat": 0.0, "lon": -77.049745, "is_reserved": 0, "bike_id": "aca4102ba459ccded51a250285d396e1", "fusion_lon": 0.0, "rental_uris": {"android": "https://dc.lft.to/lastmile_qr_scan", "ios": "https://dc.lft.to/lastmile_qr_scan"}, "name": "aca4102ba459ccded51a250285d396e1", "type": "electric_bike", "lat": 39.06288216666667, "is_disabled": 0}, {"fusion_lat": 0.0, "lon": -77.02456033333333, "is_reserved": 0, "bike_id": "8750926678a5b7472b190ac6607cd661", "fusion_lon": 0.0, "rental_uris": {"android": "https://dc.lft.to/lastmile_qr_scan", "ios": "https://dc.lft.to/lastmile_qr_scan"}, "name": "8750926678a5b7472b190ac6607cd661", "type": "electric_scooter", "lat": 38.897272666666666, "is_disabled": 0}, {"fusion_lat": 0.0, "lon": -76.99145683333333, "is_reserved": 0, "bike_id": "421a770a9b0c7a829bc8f3c9061e2a25", "fusion_lon": 0.0, "rental_uris": {"android": "https://dc.lft.to/lastmile_qr_scan", "ios": "https://dc.lft.to/lastmile_qr_scan"}, "name": "421a770a9b0c7a829bc8f3c9061e2a25", "type": "electric_scooter", "lat": 38.893445666666665, "is_disabled": 0}, {"fusion_lat": 0.0, "lon": -77.03048366666667, "is_reserved": 0, "bike_id": "d88cd86f970bb047b6a3eaba6c764c6d", "fusion_lon": 0.0, "rental_uris": {"android": "https://dc.lft.to/lastmile_qr_scan", "ios": "https://dc.lft.to/lastmile_qr_scan"}, "name": "d88cd86f970bb047b6a3eaba6c764c6d", "type": "electric_scooter", "lat": 38.898380333333336, "is_disabled": 0}, {"fusion_lat": 0.0, "lon": -77.04322566666667, "is_reserved": 0, "bike_id": "f5aa98647f2e07c1ffb855b81577e093", "fusion_lon": 0.0, "rental_uris": {"android": "https://dc.lft.to/lastmile_qr_scan", "ios": "https://dc.lft.to/lastmile_qr_scan"}, "name": "f5aa98647f2e07c1ffb855b81577e093", "type": "electric_scooter", "lat": 38.892226, "is_disabled": 0}, {"fusion_lat": 0.0, "lon": -77.032987, "is_reserved": 0, "bike_id": "9a3be75d9b40175f4cf493cd78f20b88", "fusion_lon": 0.0, "rental_uris": {"android": "https://dc.lft.to/lastmile_qr_scan", "ios": "https://dc.lft.to/lastmile_qr_scan"}, "name": "9a3be75d9b40175f4cf493cd78f20b88", "type": "electric_scooter", "lat": 38.956301333333336, "is_disabled": 0}, {"fusion_lat": 0.0, "lon": -76.946189, "is_reserved": 0, "bike_id": "8452dc5923b5e2942d8770902e6fd446", "fusion_lon": 0.0, "rental_uris": {"android": "https://dc.lft.to/lastmile_qr_scan", "ios": "https://dc.lft.to/lastmile_qr_scan"}, "name": "8452dc5923b5e2942d8770902e6fd446", "type": "electric_bike", "lat": 38.832322166666664, "is_disabled": 0}, {"fusion_lat": 0.0, "lon": -77.0131095, "is_reserved": 0, "bike_id": "26b82e4a9d4efe53eedcba7acbcc22ff", "fusion_lon": 0.0, "rental_uris": {"android": "https://dc.lft.to/lastmile_qr_scan", "ios": "https://dc.lft.to/lastmile_qr_scan"}, "name": "26b82e4a9d4efe53eedcba7acbcc22ff", "type": "electric_scooter", "lat": 38.91042733333333, "is_disabled": 0}, {"fusion_lat": 0.0, "lon": -76.94245916666667, "is_reserved": 0, "bike_id": "88c23c70d7e6439925a8415a06d3e2ca", "fusion_lon": 0.0, "rental_uris": {"android": "https://dc.lft.to/lastmile_qr_scan", "ios": "https://dc.lft.to/lastmile_qr_scan"}, "name": "88c23c70d7e6439925a8415a06d3e2ca", "type": "electric_scooter", "lat": 38.89669416666667, "is_disabled": 0}, {"fusion_lat": 0.0, "lon": -77.01759883333334, "is_reserved": 0, "bike_id": "7d9254a73cc6310712e52fa5fe29c0b7", "fusion_lon": 0.0, "rental_uris": {"android": "https://dc.lft.to/lastmile_qr_scan", "ios": "https://dc.lft.to/lastmile_qr_scan"}, "name": "7d9254a73cc6310712e52fa5fe29c0b7", "type": "electric_scooter", "lat": 38.90388866666667, "is_disabled": 0}, {"fusion_lat": 0.0, "lon": -77.0369095, "is_reserved": 0, "bike_id": "e32dab1748856fcb6d31190e79f3dc4b", "fusion_lon": 0.0, "rental_uris": {"android": "https://dc.lft.to/lastmile_qr_scan", "ios": "https://dc.lft.to/lastmile_qr_scan"}, "name": "e32dab1748856fcb6d31190e79f3dc4b", "type": "electric_scooter", "lat": 38.916782166666664, "is_disabled": 0}, {"fusion_lat": 0.0, "lon": -77.055294, "is_reserved": 0, "bike_id": "16e5192f7866cd833c76c12650c208ed", "fusion_lon": 0.0, "rental_uris": {"android": "https://dc.lft.to/lastmile_qr_scan", "ios": "https://dc.lft.to/lastmile_qr_scan"}, "name": "16e5192f7866cd833c76c12650c208ed", "type": "electric_scooter", "lat": 38.927963, "is_disabled": 0}, {"fusion_lat": 0.0, "lon": -76.9463295, "is_reserved": 0, "bike_id": "d8df5c0520226428ed14c5ddcec3a659", "fusion_lon": 0.0, "rental_uris": {"android": "https://dc.lft.to/lastmile_qr_scan", "ios": "https://dc.lft.to/lastmile_qr_scan"}, "name": "d8df5c0520226428ed14c5ddcec3a659", "type": "electric_scooter", "lat": 38.898416166666664, "is_disabled": 0}, {"fusion_lat": 0.0, "lon": -76.94877316666667, "is_reserved": 0, "bike_id": "54dd395388f1752a3ef83621abf2d72b", "fusion_lon": 0.0, "rental_uris": {"android": "https://dc.lft.to/lastmile_qr_scan", "ios": "https://dc.lft.to/lastmile_qr_scan"}, "name": "54dd395388f1752a3ef83621abf2d72b", "type": "electric_scooter", "lat": 38.895520833333336, "is_disabled": 0}, {"fusion_lat": 0.0, "lon": -77.07474116666667, "is_reserved": 0, "bike_id": "b40051c81ef6394fe58b90102ac66ee7", "fusion_lon": 0.0, "rental_uris": {"android": "https://dc.lft.to/lastmile_qr_scan", "ios": "https://dc.lft.to/lastmile_qr_scan"}, "name": "b40051c81ef6394fe58b90102ac66ee7", "type": "electric_scooter", "lat": 38.963764833333336, "is_disabled": 0}, {"fusion_lat": 0.0, "lon": -77.024003, "is_reserved": 0, "bike_id": "859ee594281fe93702ff2936607137c4", "fusion_lon": 0.0, "rental_uris": {"android": "https://dc.lft.to/lastmile_qr_scan", "ios": "https://dc.lft.to/lastmile_qr_scan"}, "name": "859ee594281fe93702ff2936607137c4", "type": "electric_scooter", "lat": 38.957317333333336, "is_disabled": 0}, {"fusion_lat": 0.0, "lon": -77.02790216666666, "is_reserved": 0, "bike_id": "92420c59bb6c03cbff28e7d919fd6250", "fusion_lon": 0.0, "rental_uris": {"android": "https://dc.lft.to/lastmile_qr_scan", "ios": "https://dc.lft.to/lastmile_qr_scan"}, "name": "92420c59bb6c03cbff28e7d919fd6250", "type": "electric_scooter", "lat": 38.9276085, "is_disabled": 0}, {"fusion_lat": 0.0, "lon": -76.981008, "is_reserved": 0, "bike_id": "87567d9800eed4f390d1c0406657bc63", "fusion_lon": 0.0, "rental_uris": {"android": "https://dc.lft.to/lastmile_qr_scan", "ios": "https://dc.lft.to/lastmile_qr_scan"}, "name": "87567d9800eed4f390d1c0406657bc63", "type": "electric_scooter", "lat": 38.903909666666664, "is_disabled": 0}, {"fusion_lat": 0.0, "lon": -77.02529933333334, "is_reserved": 0, "bike_id": "00cdfc4c252bab270e9566afdb84aa41", "fusion_lon": 0.0, "rental_uris": {"android": "https://dc.lft.to/lastmile_qr_scan", "ios": "https://dc.lft.to/lastmile_qr_scan"}, "name": "00cdfc4c252bab270e9566afdb84aa41", "type": "electric_scooter", "lat": 38.920641333333336, "is_disabled": 0}, {"fusion_lat": 0.0, "lon": -77.007232, "is_reserved": 0, "bike_id": "de62a77f3ba9d6856376de3fec4b5369", "fusion_lon": 0.0, "rental_uris": {"android": "https://dc.lft.to/lastmile_qr_scan", "ios": "https://dc.lft.to/lastmile_qr_scan"}, "name": "de62a77f3ba9d6856376de3fec4b5369", "type": "electric_scooter", "lat": 38.88491633333334, "is_disabled": 0}, {"fusion_lat": 0.0, "lon": -77.03635516666667, "is_reserved": 0, "bike_id": "c70391f523814b6ece46b8e724c157b2", "fusion_lon": 0.0, "rental_uris": {"android": "https://dc.lft.to/lastmile_qr_scan", "ios": "https://dc.lft.to/lastmile_qr_scan"}, "name": "c70391f523814b6ece46b8e724c157b2", "type": "electric_scooter", "lat": 38.90275316666666, "is_disabled": 0}, {"fusion_lat": 0.0, "lon": -77.04312983333334, "is_reserved": 0, "bike_id": "8379fbb72fade2c666a5d1f5dd03db1d", "fusion_lon": 0.0, "rental_uris": {"android": "https://dc.lft.to/lastmile_qr_scan", "ios": "https://dc.lft.to/lastmile_qr_scan"}, "name": "8379fbb72fade2c666a5d1f5dd03db1d", "type": "electric_scooter", "lat": 38.8936355, "is_disabled": 0}, {"fusion_lat": 0.0, "lon": -77.03217666666667, "is_reserved": 0, "bike_id": "2c93f91f2987f66bf96a855f56e741dc", "fusion_lon": 0.0, "rental_uris": {"android": "https://dc.lft.to/lastmile_qr_scan", "ios": "https://dc.lft.to/lastmile_qr_scan"}, "name": "2c93f91f2987f66bf96a855f56e741dc", "type": "electric_scooter", "lat": 38.914065666666666, "is_disabled": 0}, {"fusion_lat": 0.0, "lon": -77.02941616666666, "is_reserved": 0, "bike_id": "7071059f38b3a60764ac95553ef5024c", "fusion_lon": 0.0, "rental_uris": {"android": "https://dc.lft.to/lastmile_qr_scan", "ios": "https://dc.lft.to/lastmile_qr_scan"}, "name": "7071059f38b3a60764ac95553ef5024c", "type": "electric_scooter", "lat": 38.89994566666667, "is_disabled": 0}, {"fusion_lat": 0.0, "lon": -76.95590466666667, "is_reserved": 0, "bike_id": "798afb82ce268897716a74057de3bd14", "fusion_lon": 0.0, "rental_uris": {"android": "https://dc.lft.to/lastmile_qr_scan", "ios": "https://dc.lft.to/lastmile_qr_scan"}, "name": "798afb82ce268897716a74057de3bd14", "type": "electric_scooter", "lat": 38.886124, "is_disabled": 0}, {"fusion_lat": 0.0, "lon": -77.00198733333333, "is_reserved": 0, "bike_id": "f86a20ca24448559d2a825fc5fc7928f", "fusion_lon": 0.0, "rental_uris": {"android": "https://dc.lft.to/lastmile_qr_scan", "ios": "https://dc.lft.to/lastmile_qr_scan"}, "name": "f86a20ca24448559d2a825fc5fc7928f", "type": "electric_scooter", "lat": 38.90236016666667, "is_disabled": 0}, {"fusion_lat": 0.0, "lon": -77.04448166666667, "is_reserved": 0, "bike_id": "124a53696fdbde367d7d6a9178bc7a1c", "fusion_lon": 0.0, "rental_uris": {"android": "https://dc.lft.to/lastmile_qr_scan", "ios": "https://dc.lft.to/lastmile_qr_scan"}, "name": "124a53696fdbde367d7d6a9178bc7a1c", "type": "electric_scooter", "lat": 38.92137433333333, "is_disabled": 0}, {"fusion_lat": 0.0, "lon": -76.99774066666667, "is_reserved": 0, "bike_id": "aa5c221f861f53065c636fdc3dbcf57b", "fusion_lon": 0.0, "rental_uris": {"android": "https://dc.lft.to/lastmile_qr_scan", "ios": "https://dc.lft.to/lastmile_qr_scan"}, "name": "aa5c221f861f53065c636fdc3dbcf57b", "type": "electric_scooter", "lat": 38.9106125, "is_disabled": 0}, {"fusion_lat": 0.0, "lon": -77.0119895, "is_reserved": 0, "bike_id": "0df3598e7b3ae6416c8aabb44bb063b7", "fusion_lon": 0.0, "rental_uris": {"android": "https://dc.lft.to/lastmile_qr_scan", "ios": "https://dc.lft.to/lastmile_qr_scan"}, "name": "0df3598e7b3ae6416c8aabb44bb063b7", "type": "electric_scooter", "lat": 38.893173, "is_disabled": 0}, {"fusion_lat": 0.0, "lon": -76.97731983333334, "is_reserved": 0, "bike_id": "0f9939c7226a5fe872fd42049bcb75b1", "fusion_lon": 0.0, "rental_uris": {"android": "https://dc.lft.to/lastmile_qr_scan", "ios": "https://dc.lft.to/lastmile_qr_scan"}, "name": "0f9939c7226a5fe872fd42049bcb75b1", "type": "electric_scooter", "lat": 38.872868, "is_disabled": 0}, {"fusion_lat": 0.0, "lon": -76.99527266666666, "is_reserved": 0, "bike_id": "f47f0f96794795f793fb0860d6bce215", "fusion_lon": 0.0, "rental_uris": {"android": "https://dc.lft.to/lastmile_qr_scan", "ios": "https://dc.lft.to/lastmile_qr_scan"}, "name": "f47f0f96794795f793fb0860d6bce215", "type": "electric_scooter", "lat": 38.862022, "is_disabled": 0}, {"fusion_lat": 0.0, "lon": -77.0386615, "is_reserved": 0, "bike_id": "768baabdbd89347de3d59b43d456042d", "fusion_lon": 0.0, "rental_uris": {"android": "https://dc.lft.to/lastmile_qr_scan", "ios": "https://dc.lft.to/lastmile_qr_scan"}, "name": "768baabdbd89347de3d59b43d456042d", "type": "electric_scooter", "lat": 38.912605166666665, "is_disabled": 0}, {"fusion_lat": 0.0, "lon": -77.01133083333333, "is_reserved": 0, "bike_id": "8681246b0e8ee187a5949e94f53c3ca8", "fusion_lon": 0.0, "rental_uris": {"android": "https://dc.lft.to/lastmile_qr_scan", "ios": "https://dc.lft.to/lastmile_qr_scan"}, "name": "8681246b0e8ee187a5949e94f53c3ca8", "type": "electric_scooter", "lat": 38.9159665, "is_disabled": 0}, {"fusion_lat": 0.0, "lon": -76.991612, "is_reserved": 0, "bike_id": "fb935dd680b10693445fdf69a7e99394", "fusion_lon": 0.0, "rental_uris": {"android": "https://dc.lft.to/lastmile_qr_scan", "ios": "https://dc.lft.to/lastmile_qr_scan"}, "name": "fb935dd680b10693445fdf69a7e99394", "type": "electric_scooter", "lat": 38.88335633333333, "is_disabled": 0}, {"fusion_lat": 0.0, "lon": -77.07793366666667, "is_reserved": 0, "bike_id": "a9c1825e93a381860496b6b2da86fe33", "fusion_lon": 0.0, "rental_uris": {"android": "https://dc.lft.to/lastmile_qr_scan", "ios": "https://dc.lft.to/lastmile_qr_scan"}, "name": "a9c1825e93a381860496b6b2da86fe33", "type": "electric_bike", "lat": 38.99601833333333, "is_disabled": 0}, {"fusion_lat": 0.0, "lon": -77.03448816666666, "is_reserved": 0, "bike_id": "56d01e06fa794fac3d624b24763313f9", "fusion_lon": 0.0, "rental_uris": {"android": "https://dc.lft.to/lastmile_qr_scan", "ios": "https://dc.lft.to/lastmile_qr_scan"}, "name": "56d01e06fa794fac3d624b24763313f9", "type": "electric_scooter", "lat": 38.92541333333333, "is_disabled": 0}, {"fusion_lat": 0.0, "lon": -76.97014066666667, "is_reserved": 0, "bike_id": "2ae4c55f33f2769b3b8c979942f16197", "fusion_lon": 0.0, "rental_uris": {"android": "https://dc.lft.to/lastmile_qr_scan", "ios": "https://dc.lft.to/lastmile_qr_scan"}, "name": "2ae4c55f33f2769b3b8c979942f16197", "type": "electric_bike", "lat": 38.86369416666667, "is_disabled": 0}, {"fusion_lat": 0.0, "lon": -77.0585135, "is_reserved": 0, "bike_id": "dd1137c0741331ff2a784936f6e73f8f", "fusion_lon": 0.0, "rental_uris": {"android": "https://dc.lft.to/lastmile_qr_scan", "ios": "https://dc.lft.to/lastmile_qr_scan"}, "name": "dd1137c0741331ff2a784936f6e73f8f", "type": "electric_bike", "lat": 38.936092, "is_disabled": 0}, {"fusion_lat": 0.0, "lon": -77.04043166666666, "is_reserved": 0, "bike_id": "62c1b11e87d3a4b5b3f418f18e670dd3", "fusion_lon": 0.0, "rental_uris": {"android": "https://dc.lft.to/lastmile_qr_scan", "ios": "https://dc.lft.to/lastmile_qr_scan"}, "name": "62c1b11e87d3a4b5b3f418f18e670dd3", "type": "electric_scooter", "lat": 38.9111735, "is_disabled": 0}, {"fusion_lat": 0.0, "lon": -77.0101905, "is_reserved": 0, "bike_id": "44b28f8fbb97031fcaee1eeb8e2c5008", "fusion_lon": 0.0, "rental_uris": {"android": "https://dc.lft.to/lastmile_qr_scan", "ios": "https://dc.lft.to/lastmile_qr_scan"}, "name": "44b28f8fbb97031fcaee1eeb8e2c5008", "type": "electric_scooter", "lat": 38.89615833333333, "is_disabled": 0}, {"fusion_lat": 0.0, "lon": -77.03958033333333, "is_reserved": 0, "bike_id": "b0a49d8d8fa1392dff2eeec6a3c094a0", "fusion_lon": 0.0, "rental_uris": {"android": "https://dc.lft.to/lastmile_qr_scan", "ios": "https://dc.lft.to/lastmile_qr_scan"}, "name": "b0a49d8d8fa1392dff2eeec6a3c094a0", "type": "electric_scooter", "lat": 38.89244633333333, "is_disabled": 0}, {"fusion_lat": 0.0, "lon": -77.0316775, "is_reserved": 0, "bike_id": "8d9931d9a50471f4da4f730e9025013c", "fusion_lon": 0.0, "rental_uris": {"android": "https://dc.lft.to/lastmile_qr_scan", "ios": "https://dc.lft.to/lastmile_qr_scan"}, "name": "8d9931d9a50471f4da4f730e9025013c", "type": "electric_scooter", "lat": 38.897778, "is_disabled": 0}, {"fusion_lat": 0.0, "lon": -77.01264266666666, "is_reserved": 0, "bike_id": "f56cb95898553fb6266e1755f154fa0e", "fusion_lon": 0.0, "rental_uris": {"android": "https://dc.lft.to/lastmile_qr_scan", "ios": "https://dc.lft.to/lastmile_qr_scan"},