{"data": {"bikes": [{"rental_uris": {"ios": "https://dc.lft.to/lastmile_qr_scan", "android": "https://dc.lft.to/lastmile_qr_scan"}, "type": "electric_scooter", "name": "26e2d43150ee01b1ac47c70dbc576c52", "is_reserved": 0, "lon": -77.043472, "is_disabled": 0, "fusion_lat": 0.0, "lat": 38.90731233333333, "bike_id": "26e2d43150ee01b1ac47c70dbc576c52", "fusion_lon": 0.0}, {"rental_uris": {"ios": "https://dc.lft.to/lastmile_qr_scan", "android": "https://dc.lft.to/lastmile_qr_scan"}, "type": "electric_scooter", "name": "38a3bc396ad2ccca1d3671b8c395abf3", "is_reserved": 0, "lon": -77.028075, "is_disabled": 0, "fusion_lat": 0.0, "lat": 38.9091325, "bike_id": "38a3bc396ad2ccca1d3671b8c395abf3", "fusion_lon": 0.0}, {"rental_uris": {"ios": "https://dc.lft.to/lastmile_qr_scan", "android": "https://dc.lft.to/lastmile_qr_scan"}, "type": "electric_scooter", "name": "c71b64c494ed641aa57d38ea831b4ea2", "is_reserved": 0, "lon": -77.0186295, "is_disabled": 0, "fusion_lat": 0.0, "lat": 38.97366016666667, "bike_id": "c71b64c494ed641aa57d38ea831b4ea2", "fusion_lon": 0.0}, {"rental_uris": {"ios": "https://dc.lft.to/lastmile_qr_scan", "android": "https://dc.lft.to/lastmile_qr_scan"}, "type": "electric_scooter", "name": "045b5b4b9a973c2a35021357b971c711", "is_reserved": 0, "lon": -77.03885783333334, "is_disabled": 0, "fusion_lat": 0.0, "lat": 38.92319633333334, "bike_id": "045b5b4b9a973c2a35021357b971c711", "fusion_lon": 0.0}, {"rental_uris": {"ios": "https://dc.lft.to/lastmile_qr_scan", "android": "https://dc.lft.to/lastmile_qr_scan"}, "type": "electric_scooter", "name": "69893f1f2f3e0e0efe10165258baff8f", "is_reserved": 0, "lon": -76.9975575, "is_disabled": 0, "fusion_lat": 0.0, "lat": 38.884984333333335, "bike_id": "69893f1f2f3e0e0efe10165258baff8f", "fusion_lon": 0.0}, {"rental_uris": {"ios": "https://dc.lft.to/lastmile_qr_scan", "android": "https://dc.lft.to/lastmile_qr_scan"}, "type": "electric_scooter", "name": "733ebfe0777b691574895d4135e06e1a", "is_reserved": 0, "lon": -77.01995916666667, "is_disabled": 0, "fusion_lat": 0.0, "lat": 38.96627466666666, "bike_id": "733ebfe0777b691574895d4135e06e1a", "fusion_lon": 0.0}, {"rental_uris": {"ios": "https://dc.lft.to/lastmile_qr_scan", "android": "https://dc.lft.to/lastmile_qr_scan"}, "type": "electric_scooter", "name": "621ed6e4931df03bc722552184375ce1", "is_reserved": 0, "lon": -77.0424105, "is_disabled": 0, "fusion_lat": 0.0, "lat": 38.903595, "bike_id": "621ed6e4931df03bc722552184375ce1", "fusion_lon": 0.0}, {"rental_uris": {"ios": "https://dc.lft.to/lastmile_qr_scan", "android": "https://dc.lft.to/lastmile_qr_scan"}, "type": "electric_scooter", "name": "a485fd86e10a95bd826ca02d7e467b2f", "is_reserved": 0, "lon": -77.04056416666667, "is_disabled": 0, "fusion_lat": 0.0, "lat": 38.917676, "bike_id": "a485fd86e10a95bd826ca02d7e467b2f", "fusion_lon": 0.0}, {"rental_uris": {"ios": "https://dc.lft.to/lastmile_qr_scan", "android": "https://dc.lft.to/lastmile_qr_scan"}, "type": "electric_scooter", "name": "8f7aa2a0b28dd32bc115c2a1ea118e51", "is_reserved": 0, "lon": -77.045574, "is_disabled": 0, "fusion_lat": 0.0, "lat": 38.903695, "bike_id": "8f7aa2a0b28dd32bc115c2a1ea118e51", "fusion_lon": 0.0}, {"rental_uris": {"ios": "https://dc.lft.to/lastmile_qr_scan", "android": "https://dc.lft.to/lastmile_qr_scan"}, "type": "electric_scooter", "name": "7fa70502f371c4fc28a342e6b6473445", "is_reserved": 0, "lon": -77.06130283333333, "is_disabled": 0, "fusion_lat": 0.0, "lat": 38.90270966666667, "bike_id": "7fa70502f371c4fc28a342e6b6473445", "fusion_lon": 0.0}, {"rental_uris": {"ios": "https://dc.lft.to/lastmile_qr_scan", "android": "https://dc.lft.to/lastmile_qr_scan"}, "type": "electric_scooter", "name": "0bb708316b7f480192147a189fdf972b", "is_reserved": 0, "lon": -77.03850833333334, "is_disabled": 0, "fusion_lat": 0.0, "lat": 38.91656866666667, "bike_id": "0bb708316b7f480192147a189fdf972b", "fusion_lon": 0.0}, {"rental_uris": {"ios": "https://dc.lft.to/lastmile_qr_scan", "android": "https://dc.lft.to/lastmile_qr_scan"}, "type": "electric_scooter", "name": "77d22b53039113eec126ba0a0e777929", "is_reserved": 0, "lon": -77.02884333333333, "is_disabled": 0, "fusion_lat": 0.0, "lat": 38.897186166666664, "bike_id": "77d22b53039113eec126ba0a0e777929", "fusion_lon": 0.0}, {"rental_uris": {"ios": "https://dc.lft.to/lastmile_qr_scan", "android": "https://dc.lft.to/lastmile_qr_scan"}, "type": "electric_bike", "name": "2afa54a0943fa822baa234321f80876b", "is_reserved": 0, "lon": -76.96151116666667, "is_disabled": 0, "fusion_lat": 0.0, "lat": 38.85614416666667, "bike_id": "2afa54a0943fa822baa234321f80876b", "fusion_lon": 0.0}, {"rental_uris": {"ios": "https://dc.lft.to/lastmile_qr_scan", "android": "https://dc.lft.to/lastmile_qr_scan"}, "type": "electric_scooter", "name": "ff91920208ec480e7fe721e80600ec58", "is_reserved": 0, "lon": -77.00732083333334, "is_disabled": 0, "fusion_lat": 0.0, "lat": 38.87667666666667, "bike_id": "ff91920208ec480e7fe721e80600ec58", "fusion_lon": 0.0}, {"rental_uris": {"ios": "https://dc.lft.to/lastmile_qr_scan", "android": "https://dc.lft.to/lastmile_qr_scan"}, "type": "electric_scooter", "name": "3af254257d7d876e3c54a175f1e65063", "is_reserved": 0, "lon": -77.05224466666667, "is_disabled": 0, "fusion_lat": 0.0, "lat": 38.9249475, "bike_id": "3af254257d7d876e3c54a175f1e65063", "fusion_lon": 0.0}, {"rental_uris": {"ios": "https://dc.lft.to/lastmile_qr_scan", "android": "https://dc.lft.to/lastmile_qr_scan"}, "type": "electric_scooter", "name": "6ef10db20f2ccadae3c386a1c6ed3d0f", "is_reserved": 0, "lon": -77.02405516666667, "is_disabled": 0, "fusion_lat": 0.0, "lat": 38.93810533333333, "bike_id": "6ef10db20f2ccadae3c386a1c6ed3d0f", "fusion_lon": 0.0}, {"rental_uris": {"ios": "https://dc.lft.to/lastmile_qr_scan", "android": "https://dc.lft.to/lastmile_qr_scan"}, "type": "electric_bike", "name": "55971862b2e3e58182ce23c160ee9f64", "is_reserved": 0, "lon": -76.9928205, "is_disabled": 0, "fusion_lat": 0.0, "lat": 38.97258433333333, "bike_id": "55971862b2e3e58182ce23c160ee9f64", "fusion_lon": 0.0}, {"rental_uris": {"ios": "https://dc.lft.to/lastmile_qr_scan", "android": "https://dc.lft.to/lastmile_qr_scan"}, "type": "electric_scooter", "name": "189250b96a71ce0e8d1be6a4188bf6f5", "is_reserved": 0, "lon": -77.02864183333334, "is_disabled": 0, "fusion_lat": 0.0, "lat": 38.91358366666667, "bike_id": "189250b96a71ce0e8d1be6a4188bf6f5", "fusion_lon": 0.0}, {"rental_uris": {"ios": "https://dc.lft.to/lastmile_qr_scan", "android": "https://dc.lft.to/lastmile_qr_scan"}, "type": "electric_scooter", "name": "9ff73003fff460fa2cae9e1c715c0fd1", "is_reserved": 0, "lon": -77.01789216666667, "is_disabled": 0, "fusion_lat": 0.0, "lat": 38.87679466666667, "bike_id": "9ff73003fff460fa2cae9e1c715c0fd1", "fusion_lon": 0.0}, {"rental_uris": {"ios": "https://dc.lft.to/lastmile_qr_scan", "android": "https://dc.lft.to/lastmile_qr_scan"}, "type": "electric_scooter", "name": "e18bb6e50b273ededb1ef9d21e02344e", "is_reserved": 0, "lon": -77.03579633333334, "is_disabled": 0, "fusion_lat": 0.0, "lat": 38.917794666666666, "bike_id": "e18bb6e50b273ededb1ef9d21e02344e", "fusion_lon": 0.0}, {"rental_uris": {"ios": "https://dc.lft.to/lastmile_qr_scan", "android": "https://dc.lft.to/lastmile_qr_scan"}, "type": "electric_scooter", "name": "c94bc02f81f7b31bd579ab66c490d827", "is_reserved": 0, "lon": -76.980767, "is_disabled": 0, "fusion_lat": 0.0, "lat": 38.9016595, "bike_id": "c94bc02f81f7b31bd579ab66c490d827", "fusion_lon": 0.0}, {"rental_uris": {"ios": "https://dc.lft.to/lastmile_qr_scan", "android": "https://dc.lft.to/lastmile_qr_scan"}, "type": "electric_bike", "name": "82d0ae34171b978600616b1a7c764ab1", "is_reserved": 0, "lon": -77.0797035, "is_disabled": 0, "fusion_lat": 0.0, "lat": 38.919449, "bike_id": "82d0ae34171b978600616b1a7c764ab1", "fusion_lon": 0.0}, {"rental_uris": {"ios": "https://dc.lft.to/lastmile_qr_scan", "android": "https://dc.lft.to/lastmile_qr_scan"}, "type": "electric_scooter", "name": "f246219159d6a1845ddb495a7b877f3c", "is_reserved": 0, "lon": -77.0403045, "is_disabled": 0, "fusion_lat": 0.0, "lat": 38.91186116666667, "bike_id": "f246219159d6a1845ddb495a7b877f3c", "fusion_lon": 0.0}, {"rental_uris": {"ios": "https://dc.lft.to/lastmile_qr_scan", "android": "https://dc.lft.to/lastmile_qr_scan"}, "type": "electric_scooter", "name": "bb6028e4d8cd085c356bda8bf1012357", "is_reserved": 0, "lon": -77.0026415, "is_disabled": 0, "fusion_lat": 0.0, "lat": 38.911728, "bike_id": "bb6028e4d8cd085c356bda8bf1012357", "fusion_lon": 0.0}, {"rental_uris": {"ios": "https://dc.lft.to/lastmile_qr_scan", "android": "https://dc.lft.to/lastmile_qr_scan"}, "type": "electric_scooter", "name": "5fc0171afaae78f3e2ba55ec8051b952", "is_reserved": 0, "lon": -77.0054165, "is_disabled": 0, "fusion_lat": 0.0, "lat": 38.87471683333333, "bike_id": "5fc0171afaae78f3e2ba55ec8051b952", "fusion_lon": 0.0}, {"rental_uris": {"ios": "https://dc.lft.to/lastmile_qr_scan", "android": "https://dc.lft.to/lastmile_qr_scan"}, "type": "electric_scooter", "name": "9675eb39e521d6bd6e29f26172215564", "is_reserved": 0, "lon": -77.0343575, "is_disabled": 0, "fusion_lat": 0.0, "lat": 38.91111516666667, "bike_id": "9675eb39e521d6bd6e29f26172215564", "fusion_lon": 0.0}, {"rental_uris": {"ios": "https://dc.lft.to/lastmile_qr_scan", "android": "https://dc.lft.to/lastmile_qr_scan"}, "type": "electric_scooter", "name": "0aa7f62e7f575be09197561e4aa630d7", "is_reserved": 0, "lon": -76.99413633333333, "is_disabled": 0, "fusion_lat": 0.0, "lat": 38.8778175, "bike_id": "0aa7f62e7f575be09197561e4aa630d7", "fusion_lon": 0.0}, {"rental_uris": {"ios": "https://dc.lft.to/lastmile_qr_scan", "android": "https://dc.lft.to/lastmile_qr_scan"}, "type": "electric_scooter", "name": "0a59384e4fc2a88a51be9fe37275dc2c", "is_reserved": 0, "lon": -77.03633783333333, "is_disabled": 0, "fusion_lat": 0.0, "lat": 38.933648166666664, "bike_id": "0a59384e4fc2a88a51be9fe37275dc2c", "fusion_lon": 0.0}, {"rental_uris": {"ios": "https://dc.lft.to/lastmile_qr_scan", "android": "https://dc.lft.to/lastmile_qr_scan"}, "type": "electric_scooter", "name": "966166a3493cbaa2cb23efd4172d73b9", "is_reserved": 0, "lon": -77.00211133333333, "is_disabled": 0, "fusion_lat": 0.0, "lat": 38.91459966666667, "bike_id": "966166a3493cbaa2cb23efd4172d73b9", "fusion_lon": 0.0}, {"rental_uris": {"ios": "https://dc.lft.to/lastmile_qr_scan", "android": "https://dc.lft.to/lastmile_qr_scan"}, "type": "electric_scooter", "name": "45fdf632abba181802c1ac54908e031e", "is_reserved": 0, "lon": -77.03660466666666, "is_disabled": 0, "fusion_lat": 0.0, "lat": 38.9211805, "bike_id": "45fdf632abba181802c1ac54908e031e", "fusion_lon": 0.0}, {"rental_uris": {"ios": "https://dc.lft.to/lastmile_qr_scan", "android": "https://dc.lft.to/lastmile_qr_scan"}, "type": "electric_scooter", "name": "ad0746af25c1c0741e1dfcafdd77d3de", "is_reserved": 0, "lon": -77.0465895, "is_disabled": 0, "fusion_lat": 0.0, "lat": 38.89741016666667, "bike_id": "ad0746af25c1c0741e1dfcafdd77d3de", "fusion_lon": 0.0}, {"rental_uris": {"ios": "https://dc.lft.to/lastmile_qr_scan", "android": "https://dc.lft.to/lastmile_qr_scan"}, "type": "electric_scooter", "name": "dcc22e7a1c4ef88fb8f9ea42ebb5a70e", "is_reserved": 0, "lon": -76.97712133333333, "is_disabled": 0, "fusion_lat": 0.0, "lat": 38.88819316666667, "bike_id": "dcc22e7a1c4ef88fb8f9ea42ebb5a70e", "fusion_lon": 0.0}, {"rental_uris": {"ios": "https://dc.lft.to/lastmile_qr_scan", "android": "https://dc.lft.to/lastmile_qr_scan"}, "type": "electric_bike", "name": "4aae9f840aede12d274c3660350c7320", "is_reserved": 0, "lon": -76.90304366666666, "is_disabled": 0, "fusion_lat": 0.0, "lat": 39.00293166666667, "bike_id": "4aae9f840aede12d274c3660350c7320", "fusion_lon": 0.0}, {"rental_uris": {"ios": "https://dc.lft.to/lastmile_qr_scan", "android": "https://dc.lft.to/lastmile_qr_scan"}, "type": "electric_scooter", "name": "929d3003377db94edabff40a6c1c2a37", "is_reserved": 0, "lon": -76.99840466666667, "is_disabled": 0, "fusion_lat": 0.0, "lat": 38.90297233333333, "bike_id": "929d3003377db94edabff40a6c1c2a37", "fusion_lon": 0.0}, {"rental_uris": {"ios": "https://dc.lft.to/lastmile_qr_scan", "android": "https://dc.lft.to/lastmile_qr_scan"}, "type": "electric_scooter", "name": "cc5ec2b5c848244f380600633d6012a7", "is_reserved": 0, "lon": -77.0059135, "is_disabled": 0, "fusion_lat": 0.0, "lat": 38.90037916666667, "bike_id": "cc5ec2b5c848244f380600633d6012a7", "fusion_lon": 0.0}, {"rental_uris": {"ios": "https://dc.lft.to/lastmile_qr_scan", "android": "https://dc.lft.to/lastmile_qr_scan"}, "type": "electric_scooter", "name": "80c1fbb8d0a6f48b0c5901ceb01dcdfa", "is_reserved": 0, "lon": -77.03184083333333, "is_disabled": 0, "fusion_lat": 0.0, "lat": 38.92482366666667, "bike_id": "80c1fbb8d0a6f48b0c5901ceb01dcdfa", "fusion_lon": 0.0}, {"rental_uris": {"ios": "https://dc.lft.to/lastmile_qr_scan", "android": "https://dc.lft.to/lastmile_qr_scan"}, "type": "electric_bike", "name": "5aaaa4af9b999e14a3dec5edc1a565a6", "is_reserved": 0, "lon": -76.98177416666667, "is_disabled": 0, "fusion_lat": 0.0, "lat": 38.884083833333335, "bike_id": "5aaaa4af9b999e14a3dec5edc1a565a6", "fusion_lon": 0.0}, {"rental_uris": {"ios": "https://dc.lft.to/lastmile_qr_scan", "android": "https://dc.lft.to/lastmile_qr_scan"}, "type": "electric_scooter", "name": "b1868e31fa669a02509afae28e566d3d", "is_reserved": 0, "lon": -77.02344483333333, "is_disabled": 0, "fusion_lat": 0.0, "lat": 38.881386166666665, "bike_id": "b1868e31fa669a02509afae28e566d3d", "fusion_lon": 0.0}, {"rental_uris": {"ios": "https://dc.lft.to/lastmile_qr_scan", "android": "https://dc.lft.to/lastmile_qr_scan"}, "type": "electric_scooter", "name": "75556b2e3795219241c5343424a8509d", "is_reserved": 0, "lon": -76.99033883333334, "is_disabled": 0, "fusion_lat": 0.0, "lat": 38.88870766666667, "bike_id": "75556b2e3795219241c5343424a8509d", "fusion_lon": 0.0}, {"rental_uris": {"ios": "https://dc.lft.to/lastmile_qr_scan", "android": "https://dc.lft.to/lastmile_qr_scan"}, "type": "electric_scooter", "name": "9cf398e2c83663911586e5506d7430ad", "is_reserved": 0, "lon": -77.06800616666666, "is_disabled": 0, "fusion_lat": 0.0, "lat": 38.905180666666666, "bike_id": "9cf398e2c83663911586e5506d7430ad", "fusion_lon": 0.0}, {"rental_uris": {"ios": "https://dc.lft.to/lastmile_qr_scan", "android": "https://dc.lft.to/lastmile_qr_scan"}, "type": "electric_scooter", "name": "f720e06a9c87f843087f6dfa689883ff", "is_reserved": 0, "lon": -77.00480816666666, "is_disabled": 0, "fusion_lat": 0.0, "lat": 38.874578666666665, "bike_id": "f720e06a9c87f843087f6dfa689883ff", "fusion_lon": 0.0}, {"rental_uris": {"ios": "https://dc.lft.to/lastmile_qr_scan", "android": "https://dc.lft.to/lastmile_qr_scan"}, "type": "electric_scooter", "name": "da5b7d93ab94c6ca5c52f9a43188dd2f", "is_reserved": 0, "lon": -77.00388083333333, "is_disabled": 0, "fusion_lat": 0.0, "lat": 38.87606816666667, "bike_id": "da5b7d93ab94c6ca5c52f9a43188dd2f", "fusion_lon": 0.0}, {"rental_uris": {"ios": "https://dc.lft.to/lastmile_qr_scan", "android": "https://dc.lft.to/lastmile_qr_scan"}, "type": "electric_scooter", "name": "81310ac3f2b6e01586a67179ad44d61d", "is_reserved": 0, "lon": -77.04788316666667, "is_disabled": 0, "fusion_lat": 0.0, "lat": 38.900813, "bike_id": "81310ac3f2b6e01586a67179ad44d61d", "fusion_lon": 0.0}, {"rental_uris": {"ios": "https://dc.lft.to/lastmile_qr_scan", "android": "https://dc.lft.to/lastmile_qr_scan"}, "type": "electric_scooter", "name": "d63fbc5bf484f31cc06b0a0f4d8fd249", "is_reserved": 0, "lon": -77.03850433333334, "is_disabled": 0, "fusion_lat": 0.0, "lat": 38.916549, "bike_id": "d63fbc5bf484f31cc06b0a0f4d8fd249", "fusion_lon": 0.0}, {"rental_uris": {"ios": "https://dc.lft.to/lastmile_qr_scan", "android": "https://dc.lft.to/lastmile_qr_scan"}, "type": "electric_scooter", "name": "8816d8f2bdb7afe3e08fb73cd64916c1", "is_reserved": 0, "lon": -77.041172, "is_disabled": 0, "fusion_lat": 0.0, "lat": 38.921093, "bike_id": "8816d8f2bdb7afe3e08fb73cd64916c1", "fusion_lon": 0.0}, {"rental_uris": {"ios": "https://dc.lft.to/lastmile_qr_scan", "android": "https://dc.lft.to/lastmile_qr_scan"}, "type": "electric_scooter", "name": "21d377d858b0152f7cab78fda185df7e", "is_reserved": 0, "lon": -77.0164095, "is_disabled": 0, "fusion_lat": 0.0, "lat": 38.9159485, "bike_id": "21d377d858b0152f7cab78fda185df7e", "fusion_lon": 0.0}, {"rental_uris": {"ios": "https://dc.lft.to/lastmile_qr_scan", "android": "https://dc.lft.to/lastmile_qr_scan"}, "type": "electric_scooter", "name": "334f72eac75d9d96e4f437f29a760e14", "is_reserved": 0, "lon": -77.08145916666666, "is_disabled": 0, "fusion_lat": 0.0, "lat": 38.891112666666665, "bike_id": "334f72eac75d9d96e4f437f29a760e14", "fusion_lon": 0.0}, {"rental_uris": {"ios": "https://dc.lft.to/lastmile_qr_scan", "android": "https://dc.lft.to/lastmile_qr_scan"}, "type": "electric_scooter", "name": "95b0ec2ecfd2978b52dfcc1f8138aff0", "is_reserved": 0, "lon": -77.00281516666666, "is_disabled": 0, "fusion_lat": 0.0, "lat": 38.8461175, "bike_id": "95b0ec2ecfd2978b52dfcc1f8138aff0", "fusion_lon": 0.0}, {"rental_uris": {"ios": "https://dc.lft.to/lastmile_qr_scan", "android": "https://dc.lft.to/lastmile_qr_scan"}, "type": "electric_scooter", "name": "a1e9b0ebbc0364d439e6324fd8779902", "is_reserved": 0, "lon": -77.05806216666667, "is_disabled": 0, "fusion_lat": 0.0, "lat": 38.929020333333334, "bike_id": "a1e9b0ebbc0364d439e6324fd8779902", "fusion_lon": 0.0}, {"rental_uris": {"ios": "https://dc.lft.to/lastmile_qr_scan", "android": "https://dc.lft.to/lastmile_qr_scan"}, "type": "electric_scooter", "name": "4002d0fae5f2ea9869a249a00d984b00", "is_reserved": 0, "lon": -77.03452416666667, "is_disabled": 0, "fusion_lat": 0.0, "lat": 38.92066416666667, "bike_id": "4002d0fae5f2ea9869a249a00d984b00", "fusion_lon": 0.0}, {"rental_uris": {"ios": "https://dc.lft.to/lastmile_qr_scan", "android": "https://dc.lft.to/lastmile_qr_scan"}, "type": "electric_scooter", "name": "cb1517212e411d16fc3263521ae639e1", "is_reserved": 0, "lon": -77.018164, "is_disabled": 0, "fusion_lat": 0.0, "lat": 38.921404333333335, "bike_id": "cb1517212e411d16fc3263521ae639e1", "fusion_lon": 0.0}, {"rental_uris": {"ios": "https://dc.lft.to/lastmile_qr_scan", "android": "https://dc.lft.to/lastmile_qr_scan"}, "type": "electric_scooter", "name": "c99aa6c6c3377e731c660aacd8b4564e", "is_reserved": 0, "lon": -77.03276566666666, "is_disabled": 0, "fusion_lat": 0.0, "lat": 38.946972833333334, "bike_id": "c99aa6c6c3377e731c660aacd8b4564e", "fusion_lon": 0.0}, {"rental_uris": {"ios": "https://dc.lft.to/lastmile_qr_scan", "android": "https://dc.lft.to/lastmile_qr_scan"}, "type": "electric_bike", "name": "723f1f6435cf3de054e84d3c8802a3b7", "is_reserved": 0, "lon": -77.0407665, "is_disabled": 0, "fusion_lat": 0.0, "lat": 38.83061583333333, "bike_id": "723f1f6435cf3de054e84d3c8802a3b7", "fusion_lon": 0.0}, {"rental_uris": {"ios": "https://dc.lft.to/lastmile_qr_scan", "android": "https://dc.lft.to/lastmile_qr_scan"}, "type": "electric_scooter", "name": "3d98405e8e02b615b28edb6b7ec835d7", "is_reserved": 0, "lon": -76.99290266666667, "is_disabled": 0, "fusion_lat": 0.0, "lat": 38.90257916666667, "bike_id": "3d98405e8e02b615b28edb6b7ec835d7", "fusion_lon": 0.0}, {"rental_uris": {"ios": "https://dc.lft.to/lastmile_qr_scan", "android": "https://dc.lft.to/lastmile_qr_scan"}, "type": "electric_scooter", "name": "304d0c9e3f3504ac948362d1e97c850e", "is_reserved": 0, "lon": -77.00321683333334, "is_disabled": 0, "fusion_lat": 0.0, "lat": 38.877143, "bike_id": "304d0c9e3f3504ac948362d1e97c850e", "fusion_lon": 0.0}, {"rental_uris": {"ios": "https://dc.lft.to/lastmile_qr_scan", "android": "https://dc.lft.to/lastmile_qr_scan"}, "type": "electric_scooter", "name": "58b4f2c809896f10b96211c4a4bac381", "is_reserved": 0, "lon": -77.02145916666667, "is_disabled": 0, "fusion_lat": 0.0, "lat": 38.925531666666664, "bike_id": "58b4f2c809896f10b96211c4a4bac381", "fusion_lon": 0.0}, {"rental_uris": {"ios": "https://dc.lft.to/lastmile_qr_scan", "android": "https://dc.lft.to/lastmile_qr_scan"}, "type": "electric_scooter", "name": "c3f12b5f37561f64fa8d9d849b550dc7", "is_reserved": 0, "lon": -77.02162883333334, "is_disabled": 0, "fusion_lat": 0.0, "lat": 38.919944, "bike_id": "c3f12b5f37561f64fa8d9d849b550dc7", "fusion_lon": 0.0}, {"rental_uris": {"ios": "https://dc.lft.to/lastmile_qr_scan", "android": "https://dc.lft.to/lastmile_qr_scan"}, "type": "electric_scooter", "name": "5408ddc50dd7a35ba556df08189eacf2", "is_reserved": 0, "lon": -77.02390833333334, "is_disabled": 0, "fusion_lat": 0.0, "lat": 38.916768166666664, "bike_id": "5408ddc50dd7a35ba556df08189eacf2", "fusion_lon": 0.0}, {"rental_uris": {"ios": "https://dc.lft.to/lastmile_qr_scan", "android": "https://dc.lft.to/lastmile_qr_scan"}, "type": "electric_scooter", "name": "8a019ef4c80eb14e11231904ad5627ab", "is_reserved": 0, "lon": -77.013006, "is_disabled": 0, "fusion_lat": 0.0, "lat": 38.877764666666664, "bike_id": "8a019ef4c80eb14e11231904ad5627ab", "fusion_lon": 0.0}, {"rental_uris": {"ios": "https://dc.lft.to/lastmile_qr_scan", "android": "https://dc.lft.to/lastmile_qr_scan"}, "type": "electric_scooter", "name": "d834d80d0e6592c3416b9a91820b63be", "is_reserved": 0, "lon": -77.017699, "is_disabled": 0, "fusion_lat": 0.0, "lat": 38.9003225, "bike_id": "d834d80d0e6592c3416b9a91820b63be", "fusion_lon": 0.0}, {"rental_uris": {"ios": "https://dc.lft.to/lastmile_qr_scan", "android": "https://dc.lft.to/lastmile_qr_scan"}, "type": "electric_scooter", "name": "bb6e74f06ac28c5247eadd3061a96390", "is_reserved": 0, "lon": -77.01884683333333, "is_disabled": 0, "fusion_lat": 0.0, "lat": 38.897490833333336, "bike_id": "bb6e74f06ac28c5247eadd3061a96390", "fusion_lon": 0.0}, {"rental_uris": {"ios": "https://dc.lft.to/lastmile_qr_scan", "android": "https://dc.lft.to/lastmile_qr_scan"}, "type": "electric_scooter", "name": "233cc5117b5d69c1940314d87ce61c5d", "is_reserved": 0, "lon": -77.03992266666667, "is_disabled": 0, "fusion_lat": 0.0, "lat": 38.902460833333336, "bike_id": "233cc5117b5d69c1940314d87ce61c5d", "fusion_lon": 0.0}, {"rental_uris": {"ios": "https://dc.lft.to/lastmile_qr_scan", "android": "https://dc.lft.to/lastmile_qr_scan"}, "type": "electric_bike", "name": "09f8062625c74674fd3f71d1a8226ed1", "is_reserved": 0, "lon": -76.99623, "is_disabled": 0, "fusion_lat": 0.0, "lat": 38.928503166666665, "bike_id": "09f8062625c74674fd3f71d1a8226ed1", "fusion_lon": 0.0}, {"rental_uris": {"ios": "https://dc.lft.to/lastmile_qr_scan", "android": "https://dc.lft.to/lastmile_qr_scan"}, "type": "electric_scooter", "name": "95ef44c49f00b90795ad6a61b8af0431", "is_reserved": 0, "lon": -77.0433965, "is_disabled": 0, "fusion_lat": 0.0, "lat": 38.9076085, "bike_id": "95ef44c49f00b90795ad6a61b8af0431", "fusion_lon": 0.0}, {"rental_uris": {"ios": "https://dc.lft.to/lastmile_qr_scan", "android": "https://dc.lft.to/lastmile_qr_scan"}, "type": "electric_scooter", "name": "291af3be8464613cb82fddd385f026e3", "is_reserved": 0, "lon": -77.0327085, "is_disabled": 0, "fusion_lat": 0.0, "lat": 38.9044425, "bike_id": "291af3be8464613cb82fddd385f026e3", "fusion_lon": 0.0}, {"rental_uris": {"ios": "https://dc.lft.to/lastmile_qr_scan", "android": "https://dc.lft.to/lastmile_qr_scan"}, "type": "electric_bike", "name": "bac8e14316b2b10e08993e7d172df297", "is_reserved": 0, "lon": -76.99728483333334, "is_disabled": 0, "fusion_lat": 0.0, "lat": 38.99841966666666, "bike_id": "bac8e14316b2b10e08993e7d172df297", "fusion_lon": 0.0}, {"rental_uris": {"ios": "https://dc.lft.to/lastmile_qr_scan", "android": "https://dc.lft.to/lastmile_qr_scan"}, "type": "electric_scooter", "name": "160542eb7c650f761b699a13d151000f", "is_reserved": 0, "lon": -77.04751133333333, "is_disabled": 0, "fusion_lat": 0.0, "lat": 38.8958795, "bike_id": "160542eb7c650f761b699a13d151000f", "fusion_lon": 0.0}, {"rental_uris": {"ios": "https://dc.lft.to/lastmile_qr_scan", "android": "https://dc.lft.to/lastmile_qr_scan"}, "type": "electric_scooter", "name": "73ddb37f54d293d5d43cf0ca20e05814", "is_reserved": 0, "lon": -77.0685815, "is_disabled": 0, "fusion_lat": 0.0, "lat": 38.9528955, "bike_id": "73ddb37f54d293d5d43cf0ca20e05814", "fusion_lon": 0.0}, {"rental_uris": {"ios": "https://dc.lft.to/lastmile_qr_scan", "android": "https://dc.lft.to/lastmile_qr_scan"}, "type": "electric_scooter", "name": "995e78860a26d6b3c08a4f5acd56ab02", "is_reserved": 0, "lon": -77.06605483333334, "is_disabled": 0, "fusion_lat": 0.0, "lat": 38.911033333333336, "bike_id": "995e78860a26d6b3c08a4f5acd56ab02", "fusion_lon": 0.0}, {"rental_uris": {"ios": "https://dc.lft.to/lastmile_qr_scan", "android": "https://dc.lft.to/lastmile_qr_scan"}, "type": "electric_scooter", "name": "13b3599c8e25f7c0255e67b4a45853f5", "is_reserved": 0, "lon": -77.03661233333334, "is_disabled": 0, "fusion_lat": 0.0, "lat": 38.920997, "bike_id": "13b3599c8e25f7c0255e67b4a45853f5", "fusion_lon": 0.0}, {"rental_uris": {"ios": "https://dc.lft.to/lastmile_qr_scan", "android": "https://dc.lft.to/lastmile_qr_scan"}, "type": "electric_scooter", "name": "c8e53d49defbc2ae578992b495f588bd", "is_reserved": 0, "lon": -77.0503695, "is_disabled": 0, "fusion_lat": 0.0, "lat": 38.92363433333333, "bike_id": "c8e53d49defbc2ae578992b495f588bd", "fusion_lon": 0.0}, {"rental_uris": {"ios": "https://dc.lft.to/lastmile_qr_scan", "android": "https://dc.lft.to/lastmile_qr_scan"}, "type": "electric_scooter", "name": "a9cdaf174f0d484ea9af340961a94f73", "is_reserved": 0, "lon": -77.00592733333333, "is_disabled": 0, "fusion_lat": 0.0, "lat": 38.906575333333336, "bike_id": "a9cdaf174f0d484ea9af340961a94f73", "fusion_lon": 0.0}, {"rental_uris": {"ios": "https://dc.lft.to/lastmile_qr_scan", "android": "https://dc.lft.to/lastmile_qr_scan"}, "type": "electric_scooter", "name": "1b2720583bb4b2ac4fb4bce84df27ddb", "is_reserved": 0, "lon": -77.005423, "is_disabled": 0, "fusion_lat": 0.0, "lat": 38.918162833333334, "bike_id": "1b2720583bb4b2ac4fb4bce84df27ddb", "fusion_lon": 0.0}, {"rental_uris": {"ios": "https://dc.lft.to/lastmile_qr_scan", "android": "https://dc.lft.to/lastmile_qr_scan"}, "type": "electric_scooter", "name": "541d2162ddbe26e743af93c072069bdd", "is_reserved": 0, "lon": -77.00074366666666, "is_disabled": 0, "fusion_lat": 0.0, "lat": 38.873635166666666, "bike_id": "541d2162ddbe26e743af93c072069bdd", "fusion_lon": 0.0}, {"rental_uris": {"ios": "https://dc.lft.to/lastmile_qr_scan", "android": "https://dc.lft.to/lastmile_qr_scan"}, "type": "electric_scooter", "name": "f12e2605b20590cef43179c0bbc4c8a9", "is_reserved": 0, "lon": -76.98370566666667, "is_disabled": 0, "fusion_lat": 0.0, "lat": 38.89263366666667, "bike_id": "f12e2605b20590cef43179c0bbc4c8a9", "fusion_lon": 0.0}, {"rental_uris": {"ios": "https://dc.lft.to/lastmile_qr_scan", "android": "https://dc.lft.to/lastmile_qr_scan"}, "type": "electric_scooter", "name": "aedbc3e1135cb7cb35a7b8706c4e7ac3", "is_reserved": 0, "lon": -77.00042633333334, "is_disabled": 0, "fusion_lat": 0.0, "lat": 38.900123, "bike_id": "aedbc3e1135cb7cb35a7b8706c4e7ac3", "fusion_lon": 0.0}, {"rental_uris": {"ios": "https://dc.lft.to/lastmile_qr_scan", "android": "https://dc.lft.to/lastmile_qr_scan"}, "type": "electric_scooter", "name": "87c9dd47240f493e69ccf3cab769c0c7", "is_reserved": 0, "lon": -77.02352366666666, "is_disabled": 0, "fusion_lat": 0.0, "lat": 38.941914, "bike_id": "87c9dd47240f493e69ccf3cab769c0c7", "fusion_lon": 0.0}, {"rental_uris": {"ios": "https://dc.lft.to/lastmile_qr_scan", "android": "https://dc.lft.to/lastmile_qr_scan"}, "type": "electric_scooter", "name": "039b1a0ff0e2b1c6bbed323915052049", "is_reserved": 0, "lon": -77.040587, "is_disabled": 0, "fusion_lat": 0.0, "lat": 38.904841833333336, "bike_id": "039b1a0ff0e2b1c6bbed323915052049", "fusion_lon": 0.0}, {"rental_uris": {"ios": "https://dc.lft.to/lastmile_qr_scan", "android": "https://dc.lft.to/lastmile_qr_scan"}, "type": "electric_scooter", "name": "a9e7847747669db5f8a8bf0a1d11d88a", "is_reserved": 0, "lon": -76.92891383333334, "is_disabled": 0, "fusion_lat": 0.0, "lat": 38.879382166666666, "bike_id": "a9e7847747669db5f8a8bf0a1d11d88a", "fusion_lon": 0.0}, {"rental_uris": {"ios": "https://dc.lft.to/lastmile_qr_scan", "android": "https://dc.lft.to/lastmile_qr_scan"}, "type": "electric_scooter", "name": "225dd31cbfc1a9f70a4bb43b5352a682", "is_reserved": 0, "lon": -76.9848815, "is_disabled": 0, "fusion_lat": 0.0, "lat": 38.903627, "bike_id": "225dd31cbfc1a9f70a4bb43b5352a682", "fusion_lon": 0.0}, {"rental_uris": {"ios": "https://dc.lft.to/lastmile_qr_scan", "android": "https://dc.lft.to/lastmile_qr_scan"}, "type": "electric_bike", "name": "f46892b7788ccef79293fa709f6fc189", "is_reserved": 0, "lon": -76.96059, "is_disabled": 0, "fusion_lat": 0.0, "lat": 38.88398183333334, "bike_id": "f46892b7788ccef79293fa709f6fc189", "fusion_lon": 0.0}, {"rental_uris": {"ios": "https://dc.lft.to/lastmile_qr_scan", "android": "https://dc.lft.to/lastmile_qr_scan"}, "type": "electric_scooter", "name": "4237783a9c85f1c6d0d23d767d1008a9", "is_reserved": 0, "lon": -77.02386933333334, "is_disabled": 0, "fusion_lat": 0.0, "lat": 38.905731333333335, "bike_id": "4237783a9c85f1c6d0d23d767d1008a9", "fusion_lon": 0.0}, {"rental_uris": {"ios": "https://dc.lft.to/lastmile_qr_scan", "android": "https://dc.lft.to/lastmile_qr_scan"}, "type": "electric_bike", "name": "2ce458110eea98f3b00b294095c98b59", "is_reserved": 0, "lon": -77.028693, "is_disabled": 0, "fusion_lat": 0.0, "lat": 38.92960083333333, "bike_id": "2ce458110eea98f3b00b294095c98b59", "fusion_lon": 0.0}, {"rental_uris": {"ios": "https://dc.lft.to/lastmile_qr_scan", "android": "https://dc.lft.to/lastmile_qr_scan"}, "type": "electric_scooter", "name": "7d2fdcf841b04d8d37a23bae2c015c9f", "is_reserved": 0, "lon": -77.00273766666666, "is_disabled": 0, "fusion_lat": 0.0, "lat": 38.89616816666667, "bike_id": "7d2fdcf841b04d8d37a23bae2c015c9f", "fusion_lon": 0.0}, {"rental_uris": {"ios": "https://dc.lft.to/lastmile_qr_scan", "android": "https://dc.lft.to/lastmile_qr_scan"}, "type": "electric_scooter", "name": "563d98b52a68ecd2cc44fc1c54d06b42", "is_reserved": 0, "lon": -77.016075, "is_disabled": 0, "fusion_lat": 0.0, "lat": 38.909583, "bike_id": "563d98b52a68ecd2cc44fc1c54d06b42", "fusion_lon": 0.0}, {"rental_uris": {"ios": "https://dc.lft.to/lastmile_qr_scan", "android": "https://dc.lft.to/lastmile_qr_scan"}, "type": "electric_scooter", "name": "9a54cfd6bc430c99ec54a8dde8daac0b", "is_reserved": 0, "lon": -77.0054935, "is_disabled": 0, "fusion_lat": 0.0, "lat": 38.87638716666667, "bike_id": "9a54cfd6bc430c99ec54a8dde8daac0b", "fusion_lon": 0.0}, {"rental_uris": {"ios": "https://dc.lft.to/lastmile_qr_scan", "android": "https://dc.lft.to/lastmile_qr_scan"}, "type": "electric_scooter", "name": "b6ba73ebf1cc90ba6ec75a1682ada12b", "is_reserved": 0, "lon": -77.032024, "is_disabled": 0, "fusion_lat": 0.0, "lat": 38.91309433333333, "bike_id": "b6ba73ebf1cc90ba6ec75a1682ada12b", "fusion_lon": 0.0}, {"rental_uris": {"ios": "https://dc.lft.to/lastmile_qr_scan", "android": "https://dc.lft.to/lastmile_qr_scan"}, "type": "electric_scooter", "name": "83bb55d424be933ff31a688c7728f877", "is_reserved": 0, "lon": -76.98503083333334, "is_disabled": 0, "fusion_lat": 0.0, "lat": 38.879937166666664, "bike_id": "83bb55d424be933ff31a688c7728f877", "fusion_lon": 0.0}, {"rental_uris": {"ios": "https://dc.lft.to/lastmile_qr_scan", "android": "https://dc.lft.to/lastmile_qr_scan"}, "type": "electric_bike", "name": "169428be143ad9023e89e7fa2299be29", "is_reserved": 0, "lon": -77.12376416666666, "is_disabled": 0, "fusion_lat": 0.0, "lat": 38.80754316666667, "bike_id": "169428be143ad9023e89e7fa2299be29", "fusion_lon": 0.0}, {"rental_uris": {"ios": "https://dc.lft.to/lastmile_qr_scan", "android": "https://dc.lft.to/lastmile_qr_scan"}, "type": "electric_scooter", "name": "8e7f26c0f1d6ba64377506f548814a89", "is_reserved": 0, "lon": -77.066284, "is_disabled": 0, "fusion_lat": 0.0, "lat": 38.9051835, "bike_id": "8e7f26c0f1d6ba64377506f548814a89", "fusion_lon": 0.0}, {"rental_uris": {"ios": "https://dc.lft.to/lastmile_qr_scan", "android": "https://dc.lft.to/lastmile_qr_scan"}, "type": "electric_scooter", "name": "d7ddd2e07944d6542b36ee62428791ad", "is_reserved": 0, "lon": -77.0230005, "is_disabled": 0, "fusion_lat": 0.0, "lat": 38.898539666666665, "bike_id": "d7ddd2e07944d6542b36ee62428791ad", "fusion_lon": 0.0}, {"rental_uris": {"ios": "https://dc.lft.to/lastmile_qr_scan", "android": "https://dc.lft.to/lastmile_qr_scan"}, "type": "electric_scooter", "name": "e6d8fe65fe59d2a7d44d9ee16f8c145c", "is_reserved": 0, "lon": -77.0250895, "is_disabled": 0, "fusion_lat": 0.0, "lat": 38.9355, "bike_id": "e6d8fe65fe59d2a7d44d9ee16f8c145c", "fusion_lon": 0.0}, {"rental_uris": {"ios": "https://dc.lft.to/lastmile_qr_scan", "android": "https://dc.lft.to/lastmile_qr_scan"}, "type": "electric_bike", "name": "a3f901906cc63cd061c93142df18dd0e", "is_reserved": 0, "lon": -77.08526483333333, "is_disabled": 0, "fusion_lat": 0.0, "lat": 38.8564505, "bike_id": "a3f901906cc63cd061c93142df18dd0e", "fusion_lon": 0.0}, {"rental_uris": {"ios": "https://dc.lft.to/lastmile_qr_scan", "android": "https://dc.lft.to/lastmile_qr_scan"}, "type": "electric_scooter", "name": "eba202f57963059cf41b9cf1f04a84ae", "is_reserved": 0, "lon": -77.05916783333333, "is_disabled": 0, "fusion_lat": 0.0, "lat": 38.9027035, "bike_id": "eba202f57963059cf41b9cf1f04a84ae", "fusion_lon": 0.0}, {"rental_uris": {"ios": "https://dc.lft.to/lastmile_qr_scan", "android": "https://dc.lft.to/lastmile_qr_scan"}, "type": "electric_scooter", "name": "99c2579b86f61735781f17f7b4d2be07", "is_reserved": 0, "lon": -77.00766733333333, "is_disabled": 0, "fusion_lat": 0.0, "lat": 38.899116666666664, "bike_id": "99c2579b86f61735781f17f7b4d2be07", "fusion_lon": 0.0}, {"rental_uris": {"ios": "https://dc.lft.to/lastmile_qr_scan", "android": "https://dc.lft.to/lastmile_qr_scan"}, "type": "electric_scooter", "name": "13b31dbc015efe5b45d4032fc2398ff1", "is_reserved": 0, "lon": -77.05762016666667, "is_disabled": 0, "fusion_lat": 0.0, "lat": 38.924977166666665, "bike_id": "13b31dbc015efe5b45d4032fc2398ff1", "fusion_lon": 0.0}, {"rental_uris": {"ios": "https://dc.lft.to/lastmile_qr_scan", "android": "https://dc.lft.to/lastmile_qr_scan"}, "type": "electric_scooter", "name": "90d28775c9500afff88ff8657a7a3302", "is_reserved": 0, "lon": -77.04344783333333, "is_disabled": 0, "fusion_lat": 0.0, "lat": 38.9062645, "bike_id": "90d28775c9500afff88ff8657a7a3302", "fusion_lon": 0.0}, {"rental_uris": {"ios": "https://dc.lft.to/lastmile_qr_scan", "android": "https://dc.lft.to/lastmile_qr_scan"}, "type": "electric_bike", "name": "42230fa8040f7ef2e05f6b09081b5dfa", "is_reserved": 0, "lon": -76.9954765, "is_disabled": 0, "fusion_lat": 0.0, "lat": 38.86218433333333, "bike_id": "42230fa8040f7ef2e05f6b09081b5dfa", "fusion_lon": 0.0}, {"rental_uris": {"ios": "https://dc.lft.to/lastmile_qr_scan", "android": "https://dc.lft.to/lastmile_qr_scan"}, "type": "electric_bike", "name": "a3f595c8c33d4b199a44b56419a70738", "is_reserved": 0, "lon": -76.90740233333334, "is_disabled": 0, "fusion_lat": 0.0, "lat": 38.896177, "bike_id": "a3f595c8c33d4b199a44b56419a70738", "fusion_lon": 0.0}, {"rental_uris": {"ios": "https://dc.lft.to/lastmile_qr_scan", "android": "https://dc.lft.to/lastmile_qr_scan"}, "type": "electric_scooter", "name": "43548b45b8598af2c3d20b9741cef771", "is_reserved": 0, "lon": -77.03019, "is_disabled": 0, "fusion_lat": 0.0, "lat": 38.878459, "bike_id": "43548b45b8598af2c3d20b9741cef771", "fusion_lon": 0.0}, {"rental_uris": {"ios": "https://dc.lft.to/lastmile_qr_scan", "android": "https://dc.lft.to/lastmile_qr_scan"}, "type": "electric_scooter", "name": "24df7b4799a389dcc5a018ea7550c452", "is_reserved": 0, "lon": -77.02993783333334, "is_disabled": 0, "fusion_lat": 0.0, "lat": 38.897620333333336, "bike_id": "24df7b4799a389dcc5a018ea7550c452", "fusion_lon": 0.0}, {"rental_uris": {"ios": "https://dc.lft.to/lastmile_qr_scan", "android": "https://dc.lft.to/lastmile_qr_scan"}, "type": "electric_scooter", "name": "51df30f4c02c7db2cc466f22573f854e", "is_reserved": 0, "lon": -77.03163083333334, "is_disabled": 0, "fusion_lat": 0.0, "lat": 38.91558533333333, "bike_id": "51df30f4c02c7db2cc466f22573f854e", "fusion_lon": 0.0}, {"rental_uris": {"ios": "https://dc.lft.to/lastmile_qr_scan", "android": "https://dc.lft.to/lastmile_qr_scan"}, "type": "electric_scooter", "name": "4677c102d5ef6cad1838dd389018d9ff", "is_reserved": 0, "lon": -77.03454666666667, "is_disabled": 0, "fusion_lat": 0.0, "lat": 38.908348, "bike_id": "4677c102d5ef6cad1838dd389018d9ff", "fusion_lon": 0.0}, {"rental_uris": {"ios": "https://dc.lft.to/lastmile_qr_scan", "android": "https://dc.lft.to/lastmile_qr_scan"}, "type": "electric_scooter", "name": "84305bd0b8347a69fbfdb17aec8e94e8", "is_reserved": 0, "lon": -77.05177633333334, "is_disabled": 0, "fusion_lat": 0.0, "lat": 38.90310816666667, "bike_id": "84305bd0b8347a69fbfdb17aec8e94e8", "fusion_lon": 0.0}, {"rental_uris": {"ios": "https://dc.lft.to/lastmile_qr_scan", "android": "https://dc.lft.to/lastmile_qr_scan"}, "type": "electric_scooter", "name": "86fa9cb1a7efe3367aca4f6242cce805", "is_reserved": 0, "lon": -77.0285375, "is_disabled": 0, "fusion_lat": 0.0, "lat": 38.90245633333333, "bike_id": "86fa9cb1a7efe3367aca4f6242cce805", "fusion_lon": 0.0}, {"rental_uris": {"ios": "https://dc.lft.to/lastmile_qr_scan", "android": "https://dc.lft.to/lastmile_qr_scan"}, "type": "electric_scooter", "name": "036a09b7e49041a6948e5f981ef23f90", "is_reserved": 0, "lon": -77.04224033333334, "is_disabled": 0, "fusion_lat": 0.0, "lat": 38.921655333333334, "bike_id": "036a09b7e49041a6948e5f981ef23f90", "fusion_lon": 0.0}, {"rental_uris": {"ios": "https://dc.lft.to/lastmile_qr_scan", "android": "https://dc.lft.to/lastmile_qr_scan"}, "type": "electric_scooter", "name": "262e50587cf2e2f4ca206715e51782fd", "is_reserved": 0, "lon": -77.04252183333334, "is_disabled": 0, "fusion_lat": 0.0, "lat": 38.922314166666666, "bike_id": "262e50587cf2e2f4ca206715e51782fd", "fusion_lon": 0.0}, {"rental_uris": {"ios": "https://dc.lft.to/lastmile_qr_scan", "android": "https://dc.lft.to/lastmile_qr_scan"}, "type": "electric_scooter", "name": "36380f9240a72112f6d1cb4537d7d1b4", "is_reserved": 0, "lon": -77.04753466666666, "is_disabled": 0, "fusion_lat": 0.0, "lat": 38.9123835, "bike_id": "36380f9240a72112f6d1cb4537d7d1b4", "fusion_lon": 0.0}, {"rental_uris": {"ios": "https://dc.lft.to/lastmile_qr_scan", "android": "https://dc.lft.to/lastmile_qr_scan"}, "type": "electric_scooter", "name": "8ce85c29fef18cbf26c49def97aa2f44", "is_reserved": 0, "lon": -77.03206583333333, "is_disabled": 0, "fusion_lat": 0.0, "lat": 38.9094125, "bike_id": "8ce85c29fef18cbf26c49def97aa2f44", "fusion_lon": 0.0}, {"rental_uris": {"ios": "https://dc.lft.to/lastmile_qr_scan", "android": "https://dc.lft.to/lastmile_qr_scan"}, "type": "electric_bike", "name": "ef30c20b932b24afadd5478f9f00e82c", "is_reserved": 0, "lon": -77.036277, "is_disabled": 0, "fusion_lat": 0.0, "lat": 38.9375915, "bike_id": "ef30c20b932b24afadd5478f9f00e82c", "fusion_lon": 0.0}, {"rental_uris": {"ios": "https://dc.lft.to/lastmile_qr_scan", "android": "https://dc.lft.to/lastmile_qr_scan"}, "type": "electric_scooter", "name": "e2841668ffcaddc9a6446e9fcdd6778a", "is_reserved": 0, "lon": -77.049056, "is_disabled": 0, "fusion_lat": 0.0, "lat": 38.888378333333335, "bike_id": "e2841668ffcaddc9a6446e9fcdd6778a", "fusion_lon": 0.0}, {"rental_uris": {"ios": "https://dc.lft.to/lastmile_qr_scan", "android": "https://dc.lft.to/lastmile_qr_scan"}, "type": "electric_scooter", "name": "5367275375a5b333c9bca2320caf38e5", "is_reserved": 0, "lon": -77.01474783333333, "is_disabled": 0, "fusion_lat": 0.0, "lat": 38.926643166666665, "bike_id": "5367275375a5b333c9bca2320caf38e5", "fusion_lon": 0.0}, {"rental_uris": {"ios": "https://dc.lft.to/lastmile_qr_scan", "android": "https://dc.lft.to/lastmile_qr_scan"}, "type": "electric_scooter", "name": "5838e9d8643ce11c2838019075f01a74", "is_reserved": 0, "lon": -77.0033385, "is_disabled": 0, "fusion_lat": 0.0, "lat": 38.91333783333333, "bike_id": "5838e9d8643ce11c2838019075f01a74", "fusion_lon": 0.0}, {"rental_uris": {"ios": "https://dc.lft.to/lastmile_qr_scan", "android": "https://dc.lft.to/lastmile_qr_scan"}, "type": "electric_bike", "name": "5936c391f9f2f5a878c2043fd524b827", "is_reserved": 0, "lon": -77.09031933333333, "is_disabled": 0, "fusion_lat": 0.0, "lat": 38.880885166666665, "bike_id": "5936c391f9f2f5a878c2043fd524b827", "fusion_lon": 0.0}, {"rental_uris": {"ios": "https://dc.lft.to/lastmile_qr_scan", "android": "https://dc.lft.to/lastmile_qr_scan"}, "type": "electric_scooter", "name": "f6b4a4c1896cfc5be3f5cbc6139bbd28", "is_reserved": 0, "lon": -77.0319455, "is_disabled": 0, "fusion_lat": 0.0, "lat": 38.921031166666666, "bike_id": "f6b4a4c1896cfc5be3f5cbc6139bbd28", "fusion_lon": 0.0}, {"rental_uris": {"ios": "https://dc.lft.to/lastmile_qr_scan", "android": "https://dc.lft.to/lastmile_qr_scan"}, "type": "electric_scooter", "name": "9d1bc726de343f4e46bb0139e4419259", "is_reserved": 0, "lon": -77.03665183333334, "is_disabled": 0, "fusion_lat": 0.0, "lat": 38.906293, "bike_id": "9d1bc726de343f4e46bb0139e4419259", "fusion_lon": 0.0}, {"rental_uris": {"ios": "https://dc.lft.to/lastmile_qr_scan", "android": "https://dc.lft.to/lastmile_qr_scan"}, "type": "electric_scooter", "name": "59748723804b04171f98d59bdcf6e8b5", "is_reserved": 0, "lon": -77.03834166666667, "is_disabled": 0, "fusion_lat": 0.0, "lat": 38.910335333333336, "bike_id": "59748723804b04171f98d59bdcf6e8b5", "fusion_lon": 0.0}, {"rental_uris": {"ios": "https://dc.lft.to/lastmile_qr_scan", "android": "https://dc.lft.to/lastmile_qr_scan"}, "type": "electric_scooter", "name": "94a5cf90312c324c74b879434535a43d", "is_reserved": 0, "lon": -77.01641433333333, "is_disabled": 0, "fusion_lat": 0.0, "lat": 38.929404166666664, "bike_id": "94a5cf90312c324c74b879434535a43d", "fusion_lon": 0.0}, {"rental_uris": {"ios": "https://dc.lft.to/lastmile_qr_scan", "android": "https://dc.lft.to/lastmile_qr_scan"}, "type": "electric_scooter", "name": "21924d216ff214c0016ff501dfcd3cf5", "is_reserved": 0, "lon": -77.00203233333333, "is_disabled": 0, "fusion_lat": 0.0, "lat": 38.900227666666666, "bike_id": "21924d216ff214c0016ff501dfcd3cf5", "fusion_lon": 0.0}, {"rental_uris": {"ios": "https://dc.lft.to/lastmile_qr_scan", "android": "https://dc.lft.to/lastmile_qr_scan"}, "type": "electric_scooter", "name": "32fc6fdb692a565c650a207f47d44a9c", "is_reserved": 0, "lon": -77.06695233333333, "is_disabled": 0, "fusion_lat": 0.0, "lat": 38.90973733333333, "bike_id": "32fc6fdb692a565c650a207f47d44a9c", "fusion_lon": 0.0}, {"rental_uris": {"ios": "https://dc.lft.to/lastmile_qr_scan", "android": "https://dc.lft.to/lastmile_qr_scan"}, "type": "electric_scooter", "name": "50f19a21fb6f7f8a891be18e1db2d8bd", "is_reserved": 0, "lon": -77.02911166666667, "is_disabled": 0, "fusion_lat": 0.0, "lat": 38.933269333333335, "bike_id": "50f19a21fb6f7f8a891be18e1db2d8bd", "fusion_lon": 0.0}, {"rental_uris": {"ios": "https://dc.lft.to/lastmile_qr_scan", "android": "https://dc.lft.to/lastmile_qr_scan"}, "type": "electric_scooter", "name": "82230560a43c90faefba84d3364042f6", "is_reserved": 0, "lon": -77.016329, "is_disabled": 0, "fusion_lat": 0.0, "lat": 38.90565766666667, "bike_id": "82230560a43c90faefba84d3364042f6", "fusion_lon": 0.0}, {"rental_uris": {"ios": "https://dc.lft.to/lastmile_qr_scan", "android": "https://dc.lft.to/lastmile_qr_scan"}, "type": "electric_scooter", "name": "9dbc769b134626039b13bf463f2d5f29", "is_reserved": 0, "lon": -77.01504466666667, "is_disabled": 0, "fusion_lat": 0.0, "lat": 38.91045166666667, "bike_id": "9dbc769b134626039b13bf463f2d5f29", "fusion_lon": 0.0}, {"rental_uris": {"ios": "https://dc.lft.to/lastmile_qr_scan", "android": "https://dc.lft.to/lastmile_qr_scan"}, "type": "electric_scooter", "name": "1e27ea746248c3071cb86733209ad435", "is_reserved": 0, "lon": -76.9869625, "is_disabled": 0, "fusion_lat": 0.0, "lat": 38.91292983333334, "bike_id": "1e27ea746248c3071cb86733209ad435", "fusion_lon": 0.0}, {"rental_uris": {"ios": "https://dc.lft.to/lastmile_qr_scan", "android": "https://dc.lft.to/lastmile_qr_scan"}, "type": "electric_scooter", "name": "3694ed49cfd3f83391f5ace4b4492cdb", "is_reserved": 0, "lon": -76.9947595, "is_disabled": 0, "fusion_lat": 0.0, "lat": 38.8621125, "bike_id": "3694ed49cfd3f83391f5ace4b4492cdb", "fusion_lon": 0.0}, {"rental_uris": {"ios": "https://dc.lft.to/lastmile_qr_scan", "android": "https://dc.lft.to/lastmile_qr_scan"}, "type": "electric_scooter", "name": "8c5226450a30bea229c8a2de75cc0aec", "is_reserved": 0, "lon": -76.9914035, "is_disabled": 0, "fusion_lat": 0.0, "lat": 38.84300566666667, "bike_id": "8c5226450a30bea229c8a2de75cc0aec", "fusion_lon": 0.0}, {"rental_uris": {"ios": "https://dc.lft.to/lastmile_qr_scan", "android": "https://dc.lft.to/lastmile_qr_scan"}, "type": "electric_scooter", "name": "15e8527be43d3ab8f58a84d4390abf94", "is_reserved": 0, "lon": -77.0466555, "is_disabled": 0, "fusion_lat": 0.0, "lat": 38.90939483333333, "bike_id": "15e8527be43d3ab8f58a84d4390abf94", "fusion_lon": 0.0}, {"rental_uris": {"ios": "https://dc.lft.to/lastmile_qr_scan", "android": "https://dc.lft.to/lastmile_qr_scan"}, "type": "electric_scooter", "name": "81b9a59326b6c11f9c2c0009808e2e19", "is_reserved": 0, "lon": -77.021107, "is_disabled": 0, "fusion_lat": 0.0, "lat": 38.906020166666664, "bike_id": "81b9a59326b6c11f9c2c0009808e2e19", "fusion_lon": 0.0}, {"rental_uris": {"ios": "https://dc.lft.to/lastmile_qr_scan", "android": "https://dc.lft.to/lastmile_qr_scan"}, "type": "electric_scooter", "name": "8aa4434a3ceddd320f5a8dd49839d67d", "is_reserved": 0, "lon": -77.02150066666667, "is_disabled": 0, "fusion_lat": 0.0, "lat": 38.8874585, "bike_id": "8aa4434a3ceddd320f5a8dd49839d67d", "fusion_lon": 0.0}, {"rental_uris": {"ios": "https://dc.lft.to/lastmile_qr_scan", "android": "https://dc.lft.to/lastmile_qr_scan"}, "type": "electric_scooter", "name": "3de9023b3ce9b6c10eec96de1cb52828", "is_reserved": 0, "lon": -77.024719, "is_disabled": 0, "fusion_lat": 0.0, "lat": 38.918134, "bike_id": "3de9023b3ce9b6c10eec96de1cb52828", "fusion_lon": 0.0}, {"rental_uris": {"ios": "https://dc.lft.to/lastmile_qr_scan", "android": "https://dc.lft.to/lastmile_qr_scan"}, "type": "electric_scooter", "name": "2f4f706138cc0a4f313f8fdc489cf31b", "is_reserved": 0, "lon": -76.9931405, "is_disabled": 0, "fusion_lat": 0.0, "lat": 38.920134166666664, "bike_id": "2f4f706138cc0a4f313f8fdc489cf31b", "fusion_lon": 0.0}, {"rental_uris": {"ios": "https://dc.lft.to/lastmile_qr_scan", "android": "https://dc.lft.to/lastmile_qr_scan"}, "type": "electric_bike", "name": "84ad9ede6171f8259687f98450d9bea4", "is_reserved": 0, "lon": -77.0343565, "is_disabled": 0, "fusion_lat": 0.0, "lat": 38.92860783333333, "bike_id": "84ad9ede6171f8259687f98450d9bea4", "fusion_lon": 0.0}, {"rental_uris": {"ios": "https://dc.lft.to/lastmile_qr_scan", "android": "https://dc.lft.to/lastmile_qr_scan"}, "type": "electric_scooter", "name": "b322a111f29758a79ecdce4fb79d67b4", "is_reserved": 0, "lon": -77.03144966666666, "is_disabled": 0, "fusion_lat": 0.0, "lat": 38.90962483333333, "bike_id": "b322a111f29758a79ecdce4fb79d67b4", "fusion_lon": 0.0}, {"rental_uris": {"ios": "https://dc.lft.to/lastmile_qr_scan", "android": "https://dc.lft.to/lastmile_qr_scan"}, "type": "electric_scooter", "name": "2d20eadc6db4bdb99b5db0df9b580abf", "is_reserved": 0, "lon": -76.99624466666667, "is_disabled": 0, "fusion_lat": 0.0, "lat": 38.900594166666664, "bike_id": "2d20eadc6db4bdb99b5db0df9b580abf", "fusion_lon": 0.0}, {"rental_uris": {"ios": "https://dc.lft.to/lastmile_qr_scan", "android": "https://dc.lft.to/lastmile_qr_scan"}, "type": "electric_scooter", "name": "36fdda00bd42fe8f94c007502265f3fa", "is_reserved": 0, "lon": -77.03223483333333, "is_disabled": 0, "fusion_lat": 0.0, "lat": 38.904771, "bike_id": "36fdda00bd42fe8f94c007502265f3fa", "fusion_lon": 0.0}, {"rental_uris": {"ios": "https://dc.lft.to/lastmile_qr_scan", "android": "https://dc.lft.to/lastmile_qr_scan"}, "type": "electric_scooter", "name": "e4078be622769b033716af0d29c46ffc", "is_reserved": 0, "lon": -77.02849916666666, "is_disabled": 0, "fusion_lat": 0.0, "lat": 38.93582466666667, "bike_id": "e4078be622769b033716af0d29c46ffc", "fusion_lon": 0.0}, {"rental_uris": {"ios": "https://dc.lft.to/lastmile_qr_scan", "android": "https://dc.lft.to/lastmile_qr_scan"}, "type": "electric_scooter", "name": "ef460cc30bb8c654cf3225962ade25bf", "is_reserved": 0, "lon": -77.031812, "is_disabled": 0, "fusion_lat": 0.0, "lat": 38.91349233333333, "bike_id": "ef460cc30bb8c654cf3225962ade25bf", "fusion_lon": 0.0}, {"rental_uris": {"ios": "https://dc.lft.to/lastmile_qr_scan", "android": "https://dc.lft.to/lastmile_qr_scan"}, "type": "electric_scooter", "name": "a041099c0ae266850607af93da7a2aa1", "is_reserved": 0, "lon": -77.0173755, "is_disabled": 0, "fusion_lat": 0.0, "lat": 38.902474, "bike_id": "a041099c0ae266850607af93da7a2aa1", "fusion_lon": 0.0}, {"rental_uris": {"ios": "https://dc.lft.to/lastmile_qr_scan", "android": "https://dc.lft.to/lastmile_qr_scan"}, "type": "electric_bike", "name": "35d8b0072bd6cce774fe4effd0955c17", "is_reserved": 0, "lon": -77.1074665, "is_disabled": 0, "fusion_lat": 0.0, "lat": 38.855544, "bike_id": "35d8b0072bd6cce774fe4effd0955c17", "fusion_lon": 0.0}, {"rental_uris": {"ios": "https://dc.lft.to/lastmile_qr_scan", "android": "https://dc.lft.to/lastmile_qr_scan"}, "type": "electric_scooter", "name": "f16dde8a3c2b8ff5f411a5dacd54414a", "is_reserved": 0, "lon": -77.02408016666666, "is_disabled": 0, "fusion_lat": 0.0, "lat": 38.900543166666665, "bike_id": "f16dde8a3c2b8ff5f411a5dacd54414a", "fusion_lon": 0.0}, {"rental_uris": {"ios": "https://dc.lft.to/lastmile_qr_scan", "android": "https://dc.lft.to/lastmile_qr_scan"}, "type": "electric_scooter", "name": "4f36f90aa22bcb6916fe96898e24a122", "is_reserved": 0, "lon": -77.01811483333333, "is_disabled": 0, "fusion_lat": 0.0, "lat": 38.922195333333335, "bike_id": "4f36f90aa22bcb6916fe96898e24a122", "fusion_lon": 0.0}, {"rental_uris": {"ios": "https://dc.lft.to/lastmile_qr_scan", "android": "https://dc.lft.to/lastmile_qr_scan"}, "type": "electric_scooter", "name": "e4914cc6bc462069a1ce5d71d1a49bff", "is_reserved": 0, "lon": -77.0186275, "is_disabled": 0, "fusion_lat": 0.0, "lat": 38.899485166666665, "bike_id": "e4914cc6bc462069a1ce5d71d1a49bff", "fusion_lon": 0.0}, {"rental_uris": {"ios": "https://dc.lft.to/lastmile_qr_scan", "android": "https://dc.lft.to/lastmile_qr_scan"}, "type": "electric_scooter", "name": "3f6a1f9f69910ea16d37a2de962c7838", "is_reserved": 0, "lon": -77.03584866666667, "is_disabled": 0, "fusion_lat": 0.0, "lat": 38.92772633333333, "bike_id": "3f6a1f9f69910ea16d37a2de962c7838", "fusion_lon": 0.0}, {"rental_uris": {"ios": "https://dc.lft.to/lastmile_qr_scan", "android": "https://dc.lft.to/lastmile_qr_scan"}, "type": "electric_scooter", "name": "d25a0803a3998a12358c882daa862e32", "is_reserved": 0, "lon": -77.01869716666667, "is_disabled": 0, "fusion_lat": 0.0, "lat": 38.951495666666666, "bike_id": "d25a0803a3998a12358c882daa862e32", "fusion_lon": 0.0}, {"rental_uris": {"ios": "https://dc.lft.to/lastmile_qr_scan", "android": "https://dc.lft.to/lastmile_qr_scan"}, "type": "electric_scooter", "name": "d3362e0cb0390b21bfdf74b7854d469e", "is_reserved": 0, "lon": -77.020973, "is_disabled": 0, "fusion_lat": 0.0, "lat": 38.916340166666664, "bike_id": "d3362e0cb0390b21bfdf74b7854d469e", "fusion_lon": 0.0}, {"rental_uris": {"ios": "https://dc.lft.to/lastmile_qr_scan", "android": "https://dc.lft.to/lastmile_qr_scan"}, "type": "electric_scooter", "name": "c4d7d60036da1d458ceb17f43c4548b7", "is_reserved": 0, "lon": -77.031797, "is_disabled": 0, "fusion_lat": 0.0, "lat": 38.916792, "bike_id": "c4d7d60036da1d458ceb17f43c4548b7", "fusion_lon": 0.0}, {"rental_uris": {"ios": "https://dc.lft.to/lastmile_qr_scan", "android": "https://dc.lft.to/lastmile_qr_scan"}, "type": "electric_scooter", "name": "ee267835deac3b3a5421c2319a1fd7a5", "is_reserved": 0, "lon": -77.0074815, "is_disabled": 0, "fusion_lat": 0.0, "lat": 38.90739633333333, "bike_id": "ee267835deac3b3a5421c2319a1fd7a5", "fusion_lon": 0.0}, {"rental_uris": {"ios": "https://dc.lft.to/lastmile_qr_scan", "android": "https://dc.lft.to/lastmile_qr_scan"}, "type": "electric_scooter", "name": "c6fc926ba3bf23a0fe840277b7504a97", "is_reserved": 0, "lon": -77.03131066666667, "is_disabled": 0, "fusion_lat": 0.0, "lat": 38.923712333333334, "bike_id": "c6fc926ba3bf23a0fe840277b7504a97", "fusion_lon": 0.0}, {"rental_uris": {"ios": "https://dc.lft.to/lastmile_qr_scan", "android": "https://dc.lft.to/lastmile_qr_scan"}, "type": "electric_scooter", "name": "336476356c488fe6ffa601a90d7ab889", "is_reserved": 0, "lon": -77.02101766666667, "is_disabled": 0, "fusion_lat": 0.0, "lat": 38.914121, "bike_id": "336476356c488fe6ffa601a90d7ab889", "fusion_lon": 0.0}, {"rental_uris": {"ios": "https://dc.lft.to/lastmile_qr_scan", "android": "https://dc.lft.to/lastmile_qr_scan"}, "type": "electric_scooter", "name": "154a36e3d2228fcfc297125dfe3cbb0d", "is_reserved": 0, "lon": -77.0082445, "is_disabled": 0, "fusion_lat": 0.0, "lat": 38.9136075, "bike_id": "154a36e3d2228fcfc297125dfe3cbb0d", "fusion_lon": 0.0}, {"rental_uris": {"ios": "https://dc.lft.to/lastmile_qr_scan", "android": "https://dc.lft.to/lastmile_qr_scan"}, "type": "electric_bike", "name": "3064062aa5bcd4ce7b2a14757785df46", "is_reserved": 0, "lon": -76.90737233333333, "is_disabled": 0, "fusion_lat": 0.0, "lat": 38.896181166666665, "bike_id": "3064062aa5bcd4ce7b2a14757785df46", "fusion_lon": 0.0}, {"rental_uris": {"ios": "https://dc.lft.to/lastmile_qr_scan", "android": "https://dc.lft.to/lastmile_qr_scan"}, "type": "electric_scooter", "name": "5ad784e0fea8787776e10772dbd15cd8", "is_reserved": 0, "lon": -77.00519683333333, "is_disabled": 0, "fusion_lat": 0.0, "lat": 38.874603, "bike_id": "5ad784e0fea8787776e10772dbd15cd8", "fusion_lon": 0.0}, {"rental_uris": {"ios": "https://dc.lft.to/lastmile_qr_scan", "android": "https://dc.lft.to/lastmile_qr_scan"}, "type": "electric_scooter", "name": "67d586f960dbf7f3f863dcc2ae7bf2ff", "is_reserved": 0, "lon": -76.99029683333333, "is_disabled": 0, "fusion_lat": 0.0, "lat": 38.884489333333335, "bike_id": "67d586f960dbf7f3f863dcc2ae7bf2ff", "fusion_lon": 0.0}, {"rental_uris": {"ios": "https://dc.lft.to/lastmile_qr_scan", "android": "https://dc.lft.to/lastmile_qr_scan"}, "type": "electric_scooter", "name": "7eaed7c471e75f6fdc3df41c7472a575", "is_reserved": 0, "lon": -77.048788, "is_disabled": 0, "fusion_lat": 0.0, "lat": 38.91611483333333, "bike_id": "7eaed7c471e75f6fdc3df41c7472a575", "fusion_lon": 0.0}, {"rental_uris": {"ios": "https://dc.lft.to/lastmile_qr_scan", "android": "https://dc.lft.to/lastmile_qr_scan"}, "type": "electric_scooter", "name": "fbca2a3d45594542330da2876694c285", "is_reserved": 0, "lon": -77.032113, "is_disabled": 0, "fusion_lat": 0.0, "lat": 38.914217666666666, "bike_id": "fbca2a3d45594542330da2876694c285", "fusion_lon": 0.0}, {"rental_uris": {"ios": "https://dc.lft.to/lastmile_qr_scan", "android": "https://dc.lft.to/lastmile_qr_scan"}, "type": "electric_scooter", "name": "97550aab3884739ae809e89865f01d63", "is_reserved": 0, "lon": -77.03838266666666, "is_disabled": 0, "fusion_lat": 0.0, "lat": 38.90716033333333, "bike_id": "97550aab3884739ae809e89865f01d63", "fusion_lon": 0.0}, {"rental_uris": {"ios": "https://dc.lft.to/lastmile_qr_scan", "android": "https://dc.lft.to/lastmile_qr_scan"}, "type": "electric_scooter", "name": "81599a0485c9fc458f715fffa28edc54", "is_reserved": 0, "lon": -77.0353105, "is_disabled": 0, "fusion_lat": 0.0, "lat": 38.92467283333333, "bike_id": "81599a0485c9fc458f715fffa28edc54", "fusion_lon": 0.0}, {"rental_uris": {"ios": "https://dc.lft.to/lastmile_qr_scan", "android": "https://dc.lft.to/lastmile_qr_scan"}, "type": "electric_scooter", "name": "7552502d163d2b84794236c9171c9382", "is_reserved": 0, "lon": -77.00743566666667, "is_disabled": 0, "fusion_lat": 0.0, "lat": 38.925217, "bike_id": "7552502d163d2b84794236c9171c9382", "fusion_lon": 0.0}, {"rental_uris": {"ios": "https://dc.lft.to/lastmile_qr_scan", "android": "https://dc.lft.to/lastmile_qr_scan"}, "type": "electric_scooter", "name": "04883a903c7dee54324ea04128b514c0", "is_reserved": 0, "lon": -77.03200016666666, "is_disabled": 0, "fusion_lat": 0.0, "lat": 38.884718166666666, "bike_id": "04883a903c7dee54324ea04128b514c0", "fusion_lon": 0.0}, {"rental_uris": {"ios": "https://dc.lft.to/lastmile_qr_scan", "android": "https://dc.lft.to/lastmile_qr_scan"}, "type": "electric_scooter", "name": "5b75eb79f66ef0b8c5467af3a6f345a0", "is_reserved": 0, "lon": -77.02973583333333, "is_disabled": 0, "fusion_lat": 0.0, "lat": 38.91680066666667, "bike_id": "5b75eb79f66ef0b8c5467af3a6f345a0", "fusion_lon": 0.0}, {"rental_uris": {"ios": "https://dc.lft.to/lastmile_qr_scan", "android": "https://dc.lft.to/lastmile_qr_scan"}, "type": "electric_scooter", "name": "5a8e8c343cf8b5619161a68220e58115", "is_reserved": 0, "lon": -76.9923345, "is_disabled": 0, "fusion_lat": 0.0, "lat": 38.887552666666664, "bike_id": "5a8e8c343cf8b5619161a68220e58115", "fusion_lon": 0.0}, {"rental_uris": {"ios": "https://dc.lft.to/lastmile_qr_scan", "android": "https://dc.lft.to/lastmile_qr_scan"}, "type": "electric_scooter", "name": "e5b700aac54b42705e567aee3956e64d", "is_reserved": 0, "lon": -77.02599633333334, "is_disabled": 0, "fusion_lat": 0.0, "lat": 38.899539833333336, "bike_id": "e5b700aac54b42705e567aee3956e64d", "fusion_lon": 0.0}, {"rental_uris": {"ios": "https://dc.lft.to/lastmile_qr_scan", "android": "https://dc.lft.to/lastmile_qr_scan"}, "type": "electric_bike", "name": "af78963b897ae0878af975c68c233d8a", "is_reserved": 0, "lon": -77.1061175, "is_disabled": 0, "fusion_lat": 0.0, "lat": 38.8372415, "bike_id": "af78963b897ae0878af975c68c233d8a", "fusion_lon": 0.0}, {"rental_uris": {"ios": "https://dc.lft.to/lastmile_qr_scan", "android": "https://dc.lft.to/lastmile_qr_scan"}, "type": "electric_bike", "name": "c91ecf41a6dbbe936ef8cf0a060074c6", "is_reserved": 0, "lon": -76.94160433333333, "is_disabled": 0, "fusion_lat": 0.0, "lat": 38.865490666666666, "bike_id": "c91ecf41a6dbbe936ef8cf0a060074c6", "fusion_lon": 0.0}, {"rental_uris": {"ios": "https://dc.lft.to/lastmile_qr_scan", "android": "https://dc.lft.to/lastmile_qr_scan"}, "type": "electric_bike", "name": "4138f419d0b3f699f32b5adad1d9e941", "is_reserved": 0, "lon": -77.03427266666667, "is_disabled": 0, "fusion_lat": 0.0, "lat": 38.9366265, "bike_id": "4138f419d0b3f699f32b5adad1d9e941", "fusion_lon": 0.0}, {"rental_uris": {"ios": "https://dc.lft.to/lastmile_qr_scan", "android": "https://dc.lft.to/lastmile_qr_scan"}, "type": "electric_scooter", "name": "48c2fbc7ec8adf3de9600d4d5df00325", "is_reserved": 0, "lon": -76.98033516666666, "is_disabled": 0, "fusion_lat": 0.0, "lat": 38.91679466666667, "bike_id": "48c2fbc7ec8adf3de9600d4d5df00325", "fusion_lon": 0.0}, {"rental_uris": {"ios": "https://dc.lft.to/lastmile_qr_scan", "android": "https://dc.lft.to/lastmile_qr_scan"}, "type": "electric_scooter", "name": "4207b485b0ceeb3faf1697f0b94d140f", "is_reserved": 0, "lon": -77.03448033333333, "is_disabled": 0, "fusion_lat": 0.0, "lat": 38.92221883333333, "bike_id": "4207b485b0ceeb3faf1697f0b94d140f", "fusion_lon": 0.0}, {"rental_uris": {"ios": "https://dc.lft.to/lastmile_qr_scan", "android": "https://dc.lft.to/lastmile_qr_scan"}, "type": "electric_scooter", "name": "771e9db7bdad62841862f8eb04626358", "is_reserved": 0, "lon": -77.038345, "is_disabled": 0, "fusion_lat": 0.0, "lat": 38.911917333333335, "bike_id": "771e9db7bdad62841862f8eb04626358", "fusion_lon": 0.0}, {"rental_uris": {"ios": "https://dc.lft.to/lastmile_qr_scan", "android": "https://dc.lft.to/lastmile_qr_scan"}, "type": "electric_scooter", "name": "1a382ad929fe6bb8e0740839e802dab2", "is_reserved": 0, "lon": -77.03866616666667, "is_disabled": 0, "fusion_lat": 0.0, "lat": 38.921483333333335, "bike_id": "1a382ad929fe6bb8e0740839e802dab2", "fusion_lon": 0.0}, {"rental_uris": {"ios": "https://dc.lft.to/lastmile_qr_scan", "android": "https://dc.lft.to/lastmile_qr_scan"}, "type": "electric_scooter", "name": "8c2850576f2cf0709557818721532115", "is_reserved": 0, "lon": -77.0098845, "is_disabled": 0, "fusion_lat": 0.0, "lat": 38.8729105, "bike_id": "8c2850576f2cf0709557818721532115", "fusion_lon": 0.0}, {"rental_uris": {"ios": "https://dc.lft.to/lastmile_qr_scan", "android": "https://dc.lft.to/lastmile_qr_scan"}, "type": "electric_scooter", "name": "3a1c187c60b39d3bf5db38e68922f2f3", "is_reserved": 0, "lon": -77.017381, "is_disabled": 0, "fusion_lat": 0.0, "lat": 38.912444, "bike_id": "3a1c187c60b39d3bf5db38e68922f2f3", "fusion_lon": 0.0}, {"rental_uris": {"ios": "https://dc.lft.to/lastmile_qr_scan", "android": "https://dc.lft.to/lastmile_qr_scan"}, "type": "electric_scooter", "name": "1335544fd7435afa22b0ccfb84f65496", "is_reserved": 0, "lon": -77.03290133333333, "is_disabled": 0, "fusion_lat": 0.0, "lat": 38.92878433333333, "bike_id": "1335544fd7435afa22b0ccfb84f65496", "fusion_lon": 0.0}, {"rental_uris": {"ios": "https://dc.lft.to/lastmile_qr_scan", "android": "https://dc.lft.to/lastmile_qr_scan"}, "type": "electric_scooter", "name": "0e92579dce601dd044c508f381202b90", "is_reserved": 0, "lon": -77.0489085, "is_disabled": 0, "fusion_lat": 0.0, "lat": 38.919414, "bike_id": "0e92579dce601dd044c508f381202b90", "fusion_lon": 0.0}, {"rental_uris": {"ios": "https://dc.lft.to/lastmile_qr_scan", "android": "https://dc.lft.to/lastmile_qr_scan"}, "type": "electric_scooter", "name": "fd823a5df9555a86c20fef00e9eb8c9e", "is_reserved": 0, "lon": -77.0396085, "is_disabled": 0, "fusion_lat": 0.0, "lat": 38.90730416666667, "bike_id": "fd823a5df9555a86c20fef00e9eb8c9e", "fusion_lon": 0.0}, {"rental_uris": {"ios": "https://dc.lft.to/lastmile_qr_scan", "android": "https://dc.lft.to/lastmile_qr_scan"}, "type": "electric_scooter", "name": "06bc355f4bb06ca9dd8e5ee1adcdd166", "is_reserved": 0, "lon": -77.0183975, "is_disabled": 0, "fusion_lat": 0.0, "lat": 38.909608, "bike_id": "06bc355f4bb06ca9dd8e5ee1adcdd166", "fusion_lon": 0.0}, {"rental_uris": {"ios": "https://dc.lft.to/lastmile_qr_scan", "android": "https://dc.lft.to/lastmile_qr_scan"}, "type": "electric_bike", "name": "83714964b15c5e864da67aecc45bd6c3", "is_reserved": 0, "lon": -77.00005433333334, "is_disabled": 0, "fusion_lat": 0.0, "lat": 38.92392366666667, "bike_id": "83714964b15c5e864da67aecc45bd6c3", "fusion_lon": 0.0}, {"rental_uris": {"ios": "https://dc.lft.to/lastmile_qr_scan", "android": "https://dc.lft.to/lastmile_qr_scan"}, "type": "electric_scooter", "name": "402438c06d8bef89b8e70e23b43a697c", "is_reserved": 0, "lon": -77.03956766666667, "is_disabled": 0, "fusion_lat": 0.0, "lat": 38.89306933333334, "bike_id": "402438c06d8bef89b8e70e23b43a697c", "fusion_lon": 0.0}, {"rental_uris": {"ios": "https://dc.lft.to/lastmile_qr_scan", "android": "https://dc.lft.to/lastmile_qr_scan"}, "type": "electric_scooter", "name": "0ea4cb7e7923dcfa67968d46908ccf65", "is_reserved": 0, "lon": -77.0320245, "is_disabled": 0, "fusion_lat": 0.0, "lat": 38.91824316666667, "bike_id": "0ea4cb7e7923dcfa67968d46908ccf65", "fusion_lon": 0.0}, {"rental_uris": {"ios": "https://dc.lft.to/lastmile_qr_scan", "android": "https://dc.lft.to/lastmile_qr_scan"}, "type": "electric_scooter", "name": "fb348102164f049f832072ebc16c60b0", "is_reserved": 0, "lon": -77.029703, "is_disabled": 0, "fusion_lat": 0.0, "lat": 38.90270316666667, "bike_id": "fb348102164f049f832072ebc16c60b0", "fusion_lon": 0.0}, {"rental_uris": {"ios": "https://dc.lft.to/lastmile_qr_scan", "android": "https://dc.lft.to/lastmile_qr_scan"}, "type": "electric_scooter", "name": "7fe8ac9af3f3351252b0dbb58e65e7ea", "is_reserved": 0, "lon": -77.02139716666667, "is_disabled": 0, "fusion_lat": 0.0, "lat": 38.924852, "bike_id": "7fe8ac9af3f3351252b0dbb58e65e7ea", "fusion_lon": 0.0}, {"rental_uris": {"ios": "https://dc.lft.to/lastmile_qr_scan", "android": "https://dc.lft.to/lastmile_qr_scan"}, "type": "electric_scooter", "name": "490e9ab03ed99655149a8d8b0a488fd4", "is_reserved": 0, "lon": -76.99149233333333, "is_disabled": 0, "fusion_lat": 0.0, "lat": 38.90896383333333, "bike_id": "490e9ab03ed99655149a8d8b0a488fd4", "fusion_lon": 0.0}, {"rental_uris": {"ios": "https://dc.lft.to/lastmile_qr_scan", "android": "https://dc.lft.to/lastmile_qr_scan"}, "type": "electric_scooter", "name": "90cc55173bd753c52c688f8a025a6bf3", "is_reserved": 0, "lon": -77.04304916666666, "is_disabled": 0, "fusion_lat": 0.0, "lat": 38.93176233333333, "bike_id": "90cc55173bd753c52c688f8a025a6bf3", "fusion_lon": 0.0}, {"rental_uris": {"ios": "https://dc.lft.to/lastmile_qr_scan", "android": "https://dc.lft.to/lastmile_qr_scan"}, "type": "electric_scooter", "name": "2333aff1c475e1e814cfea79be25dcb5", "is_reserved": 0, "lon": -77.02703266666667, "is_disabled": 0, "fusion_lat": 0.0, "lat": 38.90892616666667, "bike_id": "2333aff1c475e1e814cfea79be25dcb5", "fusion_lon": 0.0}, {"rental_uris": {"ios": "https://dc.lft.to/lastmile_qr_scan", "android": "https://dc.lft.to/lastmile_qr_scan"}, "type": "electric_scooter", "name": "450b55211f266baf886117a33de4a773", "is_reserved": 0, "lon": -77.01989933333333, "is_disabled": 0, "fusion_lat": 0.0, "lat": 38.876014, "bike_id": "450b55211f266baf886117a33de4a773", "fusion_lon": 0.0}, {"rental_uris": {"ios": "https://dc.lft.to/lastmile_qr_scan", "android": "https://dc.lft.to/lastmile_qr_scan"}, "type": "electric_scooter", "name": "e4a16df82e7a31b510694f670ad829ae", "is_reserved": 0, "lon": -77.0059485, "is_disabled": 0, "fusion_lat": 0.0, "lat": 38.90930816666667, "bike_id": "e4a16df82e7a31b510694f670ad829ae", "fusion_lon": 0.0}, {"rental_uris": {"ios": "https://dc.lft.to/lastmile_qr_scan", "android": "https://dc.lft.to/lastmile_qr_scan"}, "type": "electric_scooter", "name": "1fc469a7083af8f5833ec979edaf3d5b", "is_reserved": 0, "lon": -77.00465816666667, "is_disabled": 0, "fusion_lat": 0.0, "lat": 38.91186416666667, "bike_id": "1fc469a7083af8f5833ec979edaf3d5b", "fusion_lon": 0.0}, {"rental_uris": {"ios": "https://dc.lft.to/lastmile_qr_scan", "android": "https://dc.lft.to/lastmile_qr_scan"}, "type": "electric_bike", "name": "cfed1eca25f03a19d63d7a92e1521ec2", "is_reserved": 0, "lon": -77.1283935, "is_disabled": 0, "fusion_lat": 0.0, "lat": 38.800498166666664, "bike_id": "cfed1eca25f03a19d63d7a92e1521ec2", "fusion_lon": 0.0}, {"rental_uris": {"ios": "https://dc.lft.to/lastmile_qr_scan", "android": "https://dc.lft.to/lastmile_qr_scan"}, "type": "electric_scooter", "name": "ec55f7c6424be255d54ce5d08c89d55b", "is_reserved": 0, "lon": -77.04968, "is_disabled": 0, "fusion_lat": 0.0, "lat": 38.90520583333333, "bike_id": "ec55f7c6424be255d54ce5d08c89d55b", "fusion_lon": 0.0}, {"rental_uris": {"ios": "https://dc.lft.to/lastmile_qr_scan", "android": "https://dc.lft.to/lastmile_qr_scan"}, "type": "electric_scooter", "name": "e769fa0d8f7cac55bfa9f78097b7e03a", "is_reserved": 0, "lon": -77.01259683333333, "is_disabled": 0, "fusion_lat": 0.0, "lat": 38.89723083333333, "bike_id": "e769fa0d8f7cac55bfa9f78097b7e03a", "fusion_lon": 0.0}, {"rental_uris": {"ios": "https://dc.lft.to/lastmile_qr_scan", "android": "https://dc.lft.to/lastmile_qr_scan"}, "type": "electric_scooter", "name": "5db5beabc0b18eb8ef0d84fe20e787e8", "is_reserved": 0, "lon": -77.02694066666666, "is_disabled": 0, "fusion_lat": 0.0, "lat": 38.9062435, "bike_id": "5db5beabc0b18eb8ef0d84fe20e787e8", "fusion_lon": 0.0}, {"rental_uris": {"ios": "https://dc.lft.to/lastmile_qr_scan", "android": "https://dc.lft.to/lastmile_qr_scan"}, "type": "electric_scooter", "name": "e3ecd061b0e9d5059c68956e915da83d", "is_reserved": 0, "lon": -77.04437033333333, "is_disabled": 0, "fusion_lat": 0.0, "lat": 38.917950833333336, "bike_id": "e3ecd061b0e9d5059c68956e915da83d", "fusion_lon": 0.0}, {"rental_uris": {"ios": "https://dc.lft.to/lastmile_qr_scan", "android": "https://dc.lft.to/lastmile_qr_scan"}, "type": "electric_scooter", "name": "2849f32bcc8ba36ac541e7d5c47ac0b1", "is_reserved": 0, "lon": -77.006226, "is_disabled": 0, "fusion_lat": 0.0, "lat": 38.90566533333333, "bike_id": "2849f32bcc8ba36ac541e7d5c47ac0b1", "fusion_lon": 0.0}, {"rental_uris": {"ios": "https://dc.lft.to/lastmile_qr_scan", "android": "https://dc.lft.to/lastmile_qr_scan"}, "type": "electric_scooter", "name": "24b2a54c318d1092d2e26ff62fb068f8", "is_reserved": 0, "lon": -77.07275883333334, "is_disabled": 0, "fusion_lat": 0.0, "lat": 38.915881166666665, "bike_id": "24b2a54c318d1092d2e26ff62fb068f8", "fusion_lon": 0.0}, {"rental_uris": {"ios": "https://dc.lft.to/lastmile_qr_scan", "android": "https://dc.lft.to/lastmile_qr_scan"}, "type": "electric_scooter", "name": "ccad4ff6be6aff78991d306a8b07b839", "is_reserved": 0, "lon": -76.940594, "is_disabled": 0, "fusion_lat": 0.0, "lat": 38.88585666666667, "bike_id": "ccad4ff6be6aff78991d306a8b07b839", "fusion_lon": 0.0}, {"rental_uris": {"ios": "https://dc.lft.to/lastmile_qr_scan", "android": "https://dc.lft.to/lastmile_qr_scan"}, "type": "electric_scooter", "name": "a8b04c74b1bce2409ccb55e87e0210f4", "is_reserved": 0, "lon": -77.00472533333334, "is_disabled": 0, "fusion_lat": 0.0, "lat": 38.88508216666666, "bike_id": "a8b04c74b1bce2409ccb55e87e0210f4", "fusion_lon": 0.0}, {"rental_uris": {"ios": "https://dc.lft.to/lastmile_qr_scan", "android": "https://dc.lft.to/lastmile_qr_scan"}, "type": "electric_scooter", "name": "407135b16061a446a7a278867ff67f37", "is_reserved": 0, "lon": -77.030118, "is_disabled": 0, "fusion_lat": 0.0, "lat": 38.90893333333333, "bike_id": "407135b16061a446a7a278867ff67f37", "fusion_lon": 0.0}, {"rental_uris": {"ios": "https://dc.lft.to/lastmile_qr_scan", "android": "https://dc.lft.to/lastmile_qr_scan"}, "type": "electric_scooter", "name": "8fd290501cf83c6cae50a81ffc4d12d0", "is_reserved": 0, "lon": -76.933908, "is_disabled": 0, "fusion_lat": 0.0, "lat": 38.899104666666666, "bike_id": "8fd290501cf83c6cae50a81ffc4d12d0", "fusion_lon": 0.0}, {"rental_uris": {"ios": "https://dc.lft.to/lastmile_qr_scan", "android": "https://dc.lft.to/lastmile_qr_scan"}, "type": "electric_scooter", "name": "10a2e728c81f7d14441db0c30cb59a08", "is_reserved": 0, "lon": -76.9950605, "is_disabled": 0, "fusion_lat": 0.0, "lat": 38.90979733333333, "bike_id": "10a2e728c81f7d14441db0c30cb59a08", "fusion_lon": 0.0}, {"rental_uris": {"ios": "https://dc.lft.to/lastmile_qr_scan", "android": "https://dc.lft.to/lastmile_qr_scan"}, "type": "electric_scooter", "name": "83ede4c235ebc942a374ce13572e6a94", "is_reserved": 0, "lon": -77.02967866666667, "is_disabled": 0, "fusion_lat": 0.0, "lat": 38.92639, "bike_id": "83ede4c235ebc942a374ce13572e6a94", "fusion_lon": 0.0}, {"rental_uris": {"ios": "https://dc.lft.to/lastmile_qr_scan", "android": "https://dc.lft.to/lastmile_qr_scan"}, "type": "electric_scooter", "name": "852aab6482a2b11e2ed81b585215c53d", "is_reserved": 0, "lon": -77.03792566666667, "is_disabled": 0, "fusion_lat": 0.0, "lat": 38.926746333333334, "bike_id": "852aab6482a2b11e2ed81b585215c53d", "fusion_lon": 0.0}, {"rental_uris": {"ios": "https://dc.lft.to/lastmile_qr_scan", "android": "https://dc.lft.to/lastmile_qr_scan"}, "type": "electric_bike", "name": "9aeb544c97e65f8f2fab45b7152a01bd", "is_reserved": 0, "lon": -77.032751, "is_disabled": 0, "fusion_lat": 0.0, "lat": 38.880907, "bike_id": "9aeb544c97e65f8f2fab45b7152a01bd", "fusion_lon": 0.0}, {"rental_uris": {"ios": "https://dc.lft.to/lastmile_qr_scan", "android": "https://dc.lft.to/lastmile_qr_scan"}, "type": "electric_scooter", "name": "f1273df0d6afa62006dc727038389a9b", "is_reserved": 0, "lon": -77.01506816666667, "is_disabled": 0, "fusion_lat": 0.0, "lat": 38.89272116666667, "bike_id": "f1273df0d6afa62006dc727038389a9b", "fusion_lon": 0.0}, {"rental_uris": {"ios": "https://dc.lft.to/lastmile_qr_scan", "android": "https://dc.lft.to/lastmile_qr_scan"}, "type": "electric_scooter", "name": "9062e083d113acb89b914418e3808193", "is_reserved": 0, "lon": -76.97716366666667, "is_disabled": 0, "fusion_lat": 0.0, "lat": 38.888200499999996, "bike_id": "9062e083d113acb89b914418e3808193", "fusion_lon": 0.0}, {"rental_uris": {"ios": "https://dc.lft.to/lastmile_qr_scan", "android": "https://dc.lft.to/lastmile_qr_scan"}, "type": "electric_scooter", "name": "9da5e5e961c02595f699fbbe213638ef", "is_reserved": 0, "lon": -77.02399783333334, "is_disabled": 0, "fusion_lat": 0.0, "lat": 38.93106516666667, "bike_id": "9da5e5e961c02595f699fbbe213638ef", "fusion_lon": 0.0}, {"rental_uris": {"ios": "https://dc.lft.to/lastmile_qr_scan", "android": "https://dc.lft.to/lastmile_qr_scan"}, "type": "electric_scooter", "name": "8c55b9044cba87992997085ff34446fb", "is_reserved": 0, "lon": -77.01793533333333, "is_disabled": 0, "fusion_lat": 0.0, "lat": 38.89238666666667, "bike_id": "8c55b9044cba87992997085ff34446fb", "fusion_lon": 0.0}, {"rental_uris": {"ios": "https://dc.lft.to/lastmile_qr_scan", "android": "https://dc.lft.to/lastmile_qr_scan"}, "type": "electric_scooter", "name": "ceb73240940b5c7995565fe8ac7650d4", "is_reserved": 0, "lon": -77.01652766666666, "is_disabled": 0, "fusion_lat": 0.0, "lat": 38.942041333333336, "bike_id": "ceb73240940b5c7995565fe8ac7650d4", "fusion_lon": 0.0}, {"rental_uris": {"ios": "https://dc.lft.to/lastmile_qr_scan", "android": "https://dc.lft.to/lastmile_qr_scan"}, "type": "electric_scooter", "name": "11bbae114bf48168331696c529ef2630", "is_reserved": 0, "lon": -77.03205383333334, "is_disabled": 0, "fusion_lat": 0.0, "lat": 38.91427433333333, "bike_id": "11bbae114bf48168331696c529ef2630", "fusion_lon": 0.0}, {"rental_uris": {"ios": "https://dc.lft.to/lastmile_qr_scan", "android": "https://dc.lft.to/lastmile_qr_scan"}, "type": "electric_scooter", "name": "0fa32758d467e94478a3b2e303d54fce", "is_reserved": 0, "lon": -77.06983266666667, "is_disabled": 0, "fusion_lat": 0.0, "lat": 38.9522035, "bike_id": "0fa32758d467e94478a3b2e303d54fce", "fusion_lon": 0.0}, {"rental_uris": {"ios": "https://dc.lft.to/lastmile_qr_scan", "android": "https://dc.lft.to/lastmile_qr_scan"}, "type": "electric_scooter", "name": "ff577bb9d93b140bedb562d40e8c0004", "is_reserved": 0, "lon": -77.010991, "is_disabled": 0, "fusion_lat": 0.0, "lat": 38.88537216666667, "bike_id": "ff577bb9d93b140bedb562d40e8c0004", "fusion_lon": 0.0}, {"rental_uris": {"ios": "https://dc.lft.to/lastmile_qr_scan", "android": "https://dc.lft.to/lastmile_qr_scan"}, "type": "electric_scooter", "name": "740b32c5543de49309271f64a168d13b", "is_reserved": 0, "lon": -77.01613016666667, "is_disabled": 0, "fusion_lat": 0.0, "lat": 38.91071483333333, "bike_id": "740b32c5543de49309271f64a168d13b", "fusion_lon": 0.0}, {"rental_uris": {"ios": "https://dc.lft.to/lastmile_qr_scan", "android": "https://dc.lft.to/lastmile_qr_scan"}, "type": "electric_bike", "name": "7b1bb56073f61f4b4232cea7985ced6b", "is_reserved": 0, "lon": -76.96096333333334, "is_disabled": 0, "fusion_lat": 0.0, "lat": 38.94961333333333, "bike_id": "7b1bb56073f61f4b4232cea7985ced6b", "fusion_lon": 0.0}, {"rental_uris": {"ios": "https://dc.lft.to/lastmile_qr_scan", "android": "https://dc.lft.to/lastmile_qr_scan"}, "type": "electric_scooter", "name": "a993985b0a51b4cbe343702a234ffb37", "is_reserved": 0, "lon": -77.0296755, "is_disabled": 0, "fusion_lat": 0.0, "lat": 38.917184166666665, "bike_id": "a993985b0a51b4cbe343702a234ffb37", "fusion_lon": 0.0}, {"rental_uris": {"ios": "https://dc.lft.to/lastmile_qr_scan", "android": "https://dc.lft.to/lastmile_qr_scan"}, "type": "electric_scooter", "name": "b2568552ff512faa01b87c168715a755", "is_reserved": 0, "lon": -77.01207933333333, "is_disabled": 0, "fusion_lat": 0.0, "lat": 38.91600716666667, "bike_id": "b2568552ff512faa01b87c168715a755", "fusion_lon": 0.0}, {"rental_uris": {"ios": "https://dc.lft.to/lastmile_qr_scan", "android": "https://dc.lft.to/lastmile_qr_scan"}, "type": "electric_bike", "name": "25e4bbbfeade24914db66d102ae17717", "is_reserved": 0, "lon": -76.98135866666667, "is_disabled": 0, "fusion_lat": 0.0, "lat": 38.934885, "bike_id": "25e4bbbfeade24914db66d102ae17717", "fusion_lon": 0.0}, {"rental_uris": {"ios": "https://dc.lft.to/lastmile_qr_scan", "android": "https://dc.lft.to/lastmile_qr_scan"}, "type": "electric_scooter", "name": "96ff98d302232e42b02a04e5435877bc", "is_reserved": 0, "lon": -76.98611616666666, "is_disabled": 0, "fusion_lat": 0.0, "lat": 38.882814333333336, "bike_id": "96ff98d302232e42b02a04e5435877bc", "fusion_lon": 0.0}, {"rental_uris": {"ios": "https://dc.lft.to/lastmile_qr_scan", "android": "https://dc.lft.to/lastmile_qr_scan"}, "type": "electric_scooter", "name": "acf23c25356edc29ee18f2f4cf55054f", "is_reserved": 0, "lon": -77.04537033333334, "is_disabled": 0, "fusion_lat": 0.0, "lat": 38.90061433333333, "bike_id": "acf23c25356edc29ee18f2f4cf55054f", "fusion_lon": 0.0}, {"rental_uris": {"ios": "https://dc.lft.to/lastmile_qr_scan", "android": "https://dc.lft.to/lastmile_qr_scan"}, "type": "electric_scooter", "name": "b698681c1d42576d2026c086898b5b31", "is_reserved": 0, "lon": -77.03191716666667, "is_disabled": 0, "fusion_lat": 0.0, "lat": 38.90497166666667, "bike_id": "b698681c1d42576d2026c086898b5b31", "fusion_lon": 0.0}, {"rental_uris": {"ios": "https://dc.lft.to/lastmile_qr_scan", "android": "https://dc.lft.to/lastmile_qr_scan"}, "type": "electric_scooter", "name": "d27adcd23680015df033d72cb6b7efc8", "is_reserved": 0, "lon": -77.03419666666667, "is_disabled": 0, "fusion_lat": 0.0, "lat": 38.91923533333333, "bike_id": "d27adcd23680015df033d72cb6b7efc8", "fusion_lon": 0.0}, {"rental_uris": {"ios": "https://dc.lft.to/lastmile_qr_scan", "android": "https://dc.lft.to/lastmile_qr_scan"}, "type": "electric_scooter", "name": "d288211fb18f37ad8c46be37d9bed0b3", "is_reserved": 0, "lon": -77.03147416666667, "is_disabled": 0, "fusion_lat": 0.0, "lat": 38.88742583333333, "bike_id": "d288211fb18f37ad8c46be37d9bed0b3", "fusion_lon": 0.0}, {"rental_uris": {"ios": "https://dc.lft.to/lastmile_qr_scan", "android": "https://dc.lft.to/lastmile_qr_scan"}, "type": "electric_scooter", "name": "e67b962988567780c7bd9954092d1361", "is_reserved": 0, "lon": -77.03542183333333, "is_disabled": 0, "fusion_lat": 0.0, "lat": 38.923502166666665, "bike_id": "e67b962988567780c7bd9954092d1361", "fusion_lon": 0.0}, {"rental_uris": {"ios": "https://dc.lft.to/lastmile_qr_scan", "android": "https://dc.lft.to/lastmile_qr_scan"}, "type": "electric_scooter", "name": "39a0f108a55c0cae9e516cf7eee5f901", "is_reserved": 0, "lon": -77.04036133333334, "is_disabled": 0, "fusion_lat": 0.0, "lat": 38.89844933333333, "bike_id": "39a0f108a55c0cae9e516cf7eee5f901", "fusion_lon": 0.0}, {"rental_uris": {"ios": "https://dc.lft.to/lastmile_qr_scan", "android": "https://dc.lft.to/lastmile_qr_scan"}, "type": "electric_scooter", "name": "882861001908758e3ca705718340d2c3", "is_reserved": 0, "lon": -76.99027683333334, "is_disabled": 0, "fusion_lat": 0.0, "lat": 38.8913305, "bike_id": "882861001908758e3ca705718340d2c3", "fusion_lon": 0.0}, {"rental_uris": {"ios": "https://dc.lft.to/lastmile_qr_scan", "android": "https://dc.lft.to/lastmile_qr_scan"}, "type": "electric_scooter", "name": "6adcb84ed737e5f113ecf717fecdc5d7", "is_reserved": 0, "lon": -77.0048055, "is_disabled": 0, "fusion_lat": 0.0, "lat": 38.87459033333333, "bike_id": "6adcb84ed737e5f113ecf717fecdc5d7", "fusion_lon": 0.0}, {"rental_uris": {"ios": "https://dc.lft.to/lastmile_qr_scan", "android": "https://dc.lft.to/lastmile_qr_scan"}, "type": "electric_bike", "name": "d14c974b30652f1605ff2689cfcbd7fb", "is_reserved": 0, "lon": -77.02349966666667, "is_disabled": 0, "fusion_lat": 0.0, "lat": 38.93172966666667, "bike_id": "d14c974b30652f1605ff2689cfcbd7fb", "fusion_lon": 0.0}, {"rental_uris": {"ios": "https://dc.lft.to/lastmile_qr_scan", "android": "https://dc.lft.to/lastmile_qr_scan"}, "type": "electric_bike", "name": "2822b6633b8cf97c4647d5dacd114448", "is_reserved": 0, "lon": -77.02425116666667, "is_disabled": 0, "fusion_lat": 0.0, "lat": 38.94901216666667, "bike_id": "2822b6633b8cf97c4647d5dacd114448", "fusion_lon": 0.0}, {"rental_uris": {"ios": "https://dc.lft.to/lastmile_qr_scan", "android": "https://dc.lft.to/lastmile_qr_scan"}, "type": "electric_scooter", "name": "edc9a2c4d88490033f976df5dbadc9c8", "is_reserved": 0, "lon": -77.03677833333333, "is_disabled": 0, "fusion_lat": 0.0, "lat": 38.93924116666667, "bike_id": "edc9a2c4d88490033f976df5dbadc9c8", "fusion_lon": 0.0}, {"rental_uris": {"ios": "https://dc.lft.to/lastmile_qr_scan", "android": "https://dc.lft.to/lastmile_qr_scan"}, "type": "electric_scooter", "name": "a6e5300eed0964a19e67caf496d6906d", "is_reserved": 0, "lon": -77.00717666666667, "is_disabled": 0, "fusion_lat": 0.0, "lat": 38.905042333333334, "bike_id": "a6e5300eed0964a19e67caf496d6906d", "fusion_lon": 0.0}, {"rental_uris": {"ios": "https://dc.lft.to/lastmile_qr_scan", "android": "https://dc.lft.to/lastmile_qr_scan"}, "type": "electric_scooter", "name": "ba5a97790dac95ef29af2149fe7cbdb6", "is_reserved": 0, "lon": -77.03977033333334, "is_disabled": 0, "fusion_lat": 0.0, "lat": 38.892214333333335, "bike_id": "ba5a97790dac95ef29af2149fe7cbdb6", "fusion_lon": 0.0}, {"rental_uris": {"ios": "https://dc.lft.to/lastmile_qr_scan", "android": "https://dc.lft.to/lastmile_qr_scan"}, "type": "electric_bike", "name": "57557be6e16830212e5604cbe5f5bac8", "is_reserved": 0, "lon": -76.98059316666667, "is_disabled": 0, "fusion_lat": 0.0, "lat": 38.972502666666664, "bike_id": "57557be6e16830212e5604cbe5f5bac8", "fusion_lon": 0.0}, {"rental_uris": {"ios": "https://dc.lft.to/lastmile_qr_scan", "android": "https://dc.lft.to/lastmile_qr_scan"}, "type": "electric_scooter", "name": "f3390ab9bbf0417f52501617a83926a4", "is_reserved": 0, "lon": -77.03991166666667, "is_disabled": 0, "fusion_lat": 0.0, "lat": 38.93394416666667, "bike_id": "f3390ab9bbf0417f52501617a83926a4", "fusion_lon": 0.0}, {"rental_uris": {"ios": "https://dc.lft.to/lastmile_qr_scan", "android": "https://dc.lft.to/lastmile_qr_scan"}, "type": "electric_scooter", "name": "faaa6295e874cd542b6ab35520974972", "is_reserved": 0, "lon": -77.07404566666666, "is_disabled": 0, "fusion_lat": 0.0, "lat": 38.96213316666667, "bike_id": "faaa6295e874cd542b6ab35520974972", "fusion_lon": 0.0}, {"rental_uris": {"ios": "https://dc.lft.to/lastmile_qr_scan", "android": "https://dc.lft.to/lastmile_qr_scan"}, "type": "electric_scooter", "name": "0a7c3f94215241b273baf12bc744f8dc", "is_reserved": 0, "lon": -77.07350033333333, "is_disabled": 0, "fusion_lat": 0.0, "lat": 38.94320066666667, "bike_id": "0a7c3f94215241b273baf12bc744f8dc", "fusion_lon": 0.0}, {"rental_uris": {"ios": "https://dc.lft.to/lastmile_qr_scan", "android": "https://dc.lft.to/lastmile_qr_scan"}, "type": "electric_bike", "name": "4811bd89dfd1aefd50737fd7f523c75b", "is_reserved": 0, "lon": -77.23411583333333, "is_disabled": 0, "fusion_lat": 0.0, "lat": 38.87578233333333, "bike_id": "4811bd89dfd1aefd50737fd7f523c75b", "fusion_lon": 0.0}, {"rental_uris": {"ios": "https://dc.lft.to/lastmile_qr_scan", "android": "https://dc.lft.to/lastmile_qr_scan"}, "type": "electric_scooter", "name": "3f727527d36178bcdf14769ebc2af01b", "is_reserved": 0, "lon": -77.068476, "is_disabled": 0, "fusion_lat": 0.0, "lat": 38.91719883333333, "bike_id": "3f727527d36178bcdf14769ebc2af01b", "fusion_lon": 0.0}, {"rental_uris": {"ios": "https://dc.lft.to/lastmile_qr_scan", "android": "https://dc.lft.to/lastmile_qr_scan"}, "type": "electric_scooter", "name": "93d8bff4a4a7597e3ec91129d4212354", "is_reserved": 0, "lon": -77.03100766666667, "is_disabled": 0, "fusion_lat": 0.0, "lat": 38.92477366666667, "bike_id": "93d8bff4a4a7597e3ec91129d4212354", "fusion_lon": 0.0}, {"rental_uris": {"ios": "https://dc.lft.to/lastmile_qr_scan", "android": "https://dc.lft.to/lastmile_qr_scan"}, "type": "electric_bike", "name": "7e9f8bc85f8959ea35e88272cdc7e679", "is_reserved": 0, "lon": -77.0281495, "is_disabled": 0, "fusion_lat": 0.0, "lat": 38.897426, "bike_id": "7e9f8bc85f8959ea35e88272cdc7e679", "fusion_lon": 0.0}, {"rental_uris": {"ios": "https://dc.lft.to/lastmile_qr_scan", "android": "https://dc.lft.to/lastmile_qr_scan"}, "type": "electric_scooter", "name": "040fe8c71a0b3aceeadc82a741d9f840", "is_reserved": 0, "lon": -77.023166, "is_disabled": 0, "fusion_lat": 0.0, "lat": 38.927206166666664, "bike_id": "040fe8c71a0b3aceeadc82a741d9f840", "fusion_lon": 0.0}, {"rental_uris": {"ios": "https://dc.lft.to/lastmile_qr_scan", "android": "https://dc.lft.to/lastmile_qr_scan"}, "type": "electric_scooter", "name": "c0b1331b7d5110b0d3bf552a829be8cd", "is_reserved": 0, "lon": -77.03057633333333, "is_disabled": 0, "fusion_lat": 0.0, "lat": 38.9192835, "bike_id": "c0b1331b7d5110b0d3bf552a829be8cd", "fusion_lon": 0.0}, {"rental_uris": {"ios": "https://dc.lft.to/lastmile_qr_scan", "android": "https://dc.lft.to/lastmile_qr_scan"}, "type": "electric_scooter", "name": "3b003f99d3f9e3d8c04a796eadfc64f3", "is_reserved": 0, "lon": -76.9762675, "is_disabled": 0, "fusion_lat": 0.0, "lat": 38.905663, "bike_id": "3b003f99d3f9e3d8c04a796eadfc64f3", "fusion_lon": 0.0}, {"rental_uris": {"ios": "https://dc.lft.to/lastmile_qr_scan", "android": "https://dc.lft.to/lastmile_qr_scan"}, "type": "electric_scooter", "name": "d7c475f17dfef44d5579c9f7d3eb3f83", "is_reserved": 0, "lon": -77.03864333333334, "is_disabled": 0, "fusion_lat": 0.0, "lat": 38.91552316666667, "bike_id": "d7c475f17dfef44d5579c9f7d3eb3f83", "fusion_lon": 0.0}, {"rental_uris": {"ios": "https://dc.lft.to/lastmile_qr_scan", "android": "https://dc.lft.to/lastmile_qr_scan"}, "type": "electric_bike", "name": "55b222fe129cc727415c4d2fe691f0dd", "is_reserved": 0, "lon": -76.99177183333333, "is_disabled": 0, "fusion_lat": 0.0, "lat": 38.9607745, "bike_id": "55b222fe129cc727415c4d2fe691f0dd", "fusion_lon": 0.0}, {"rental_uris": {"ios": "https://dc.lft.to/lastmile_qr_scan", "android": "https://dc.lft.to/lastmile_qr_scan"}, "type": "electric_scooter", "name": "fd27776530ddf108ccfb73d5cdc77c85", "is_reserved": 0, "lon": -77.03184433333334, "is_disabled": 0, "fusion_lat": 0.0, "lat": 38.91096783333333, "bike_id": "fd27776530ddf108ccfb73d5cdc77c85", "fusion_lon": 0.0}, {"rental_uris": {"ios": "https://dc.lft.to/lastmile_qr_scan", "android": "https://dc.lft.to/lastmile_qr_scan"}, "type": "electric_scooter", "name": "ded00533c1c55a4d8f7274f97313b172", "is_reserved": 0, "lon": -77.05508016666667, "is_disabled": 0, "fusion_lat": 0.0, "lat": 38.92828683333333, "bike_id": "ded00533c1c55a4d8f7274f97313b172", "fusion_lon": 0.0}, {"rental_uris": {"ios": "https://dc.lft.to/lastmile_qr_scan", "android": "https://dc.lft.to/lastmile_qr_scan"}, "type": "electric_scooter", "name": "5f975e79b13da1f2bd6974dc8b62d55b", "is_reserved": 0, "lon": -77.07332616666666, "is_disabled": 0, "fusion_lat": 0.0, "lat": 38.9608975, "bike_id": "5f975e79b13da1f2bd6974dc8b62d55b", "fusion_lon": 0.0}, {"rental_uris": {"ios": "https://dc.lft.to/lastmile_qr_scan", "android": "https://dc.lft.to/lastmile_qr_scan"}, "type": "electric_scooter", "name": "39433c95d5931067f38cd956051d6e0f", "is_reserved": 0, "lon": -77.06090266666666, "is_disabled": 0, "fusion_lat": 0.0, "lat": 38.939933833333335, "bike_id": "39433c95d5931067f38cd956051d6e0f", "fusion_lon": 0.0}, {"rental_uris": {"ios": "https://dc.lft.to/lastmile_qr_scan", "android": "https://dc.lft.to/lastmile_qr_scan"}, "type": "electric_scooter", "name": "b09991d0d288fdc5b1e73644475bee11", "is_reserved": 0, "lon": -77.04974133333333, "is_disabled": 0, "fusion_lat": 0.0, "lat": 38.90523116666667, "bike_id": "b09991d0d288fdc5b1e73644475bee11", "fusion_lon": 0.0}, {"rental_uris": {"ios": "https://dc.lft.to/lastmile_qr_scan", "android": "https://dc.lft.to/lastmile_qr_scan"}, "type": "electric_bike", "name": "51f4e1a49da1e3ee915f9946d19f7caa", "is_reserved": 0, "lon": -77.00133833333334, "is_disabled": 0, "fusion_lat": 0.0, "lat": 38.994933, "bike_id": "51f4e1a49da1e3ee915f9946d19f7caa", "fusion_lon": 0.0}, {"rental_uris": {"ios": "https://dc.lft.to/lastmile_qr_scan", "android": "https://dc.lft.to/lastmile_qr_scan"}, "type": "electric_bike", "name": "7d7ca64edc9d1c90525e99699b5982ec", "is_reserved": 0, "lon": -76.95788616666667, "is_disabled": 0, "fusion_lat": 0.0, "lat": 38.9804265, "bike_id": "7d7ca64edc9d1c90525e99699b5982ec", "fusion_lon": 0.0}, {"rental_uris": {"ios": "https://dc.lft.to/lastmile_qr_scan", "android": "https://dc.lft.to/lastmile_qr_scan"}, "type": "electric_scooter", "name": "dba7f011a928e14e351399d5a0a93faf", "is_reserved": 0, "lon": -76.99793583333333, "is_disabled": 0, "fusion_lat": 0.0, "lat": 38.876328666666666, "bike_id": "dba7f011a928e14e351399d5a0a93faf", "fusion_lon": 0.0}, {"rental_uris": {"ios": "https://dc.lft.to/lastmile_qr_scan", "android": "https://dc.lft.to/lastmile_qr_scan"}, "type": "electric_scooter", "name": "95d5564d3a9407a58dc9efc77f02356a", "is_reserved": 0, "lon": -76.975709, "is_disabled": 0, "fusion_lat": 0.0, "lat": 38.9442265, "bike_id": "95d5564d3a9407a58dc9efc77f02356a", "fusion_lon": 0.0}, {"rental_uris": {"ios": "https://dc.lft.to/lastmile_qr_scan", "android": "https://dc.lft.to/lastmile_qr_scan"}, "type": "electric_scooter", "name": "c1d15fbc5a5f9c2792f5f8165042eef5", "is_reserved": 0, "lon": -76.9492815, "is_disabled": 0, "fusion_lat": 0.0, "lat": 38.8952795, "bike_id": "c1d15fbc5a5f9c2792f5f8165042eef5", "fusion_lon": 0.0}, {"rental_uris": {"ios": "https://dc.lft.to/lastmile_qr_scan", "android": "https://dc.lft.to/lastmile_qr_scan"}, "type": "electric_scooter", "name": "1d1b6dd0876360cc7cf2069d0556f2bc", "is_reserved": 0, "lon": -77.01988733333333, "is_disabled": 0, "fusion_lat": 0.0, "lat": 38.930501, "bike_id": "1d1b6dd0876360cc7cf2069d0556f2bc", "fusion_lon": 0.0}, {"rental_uris": {"ios": "https://dc.lft.to/lastmile_qr_scan", "android": "https://dc.lft.to/lastmile_qr_scan"}, "type": "electric_scooter", "name": "c25cf95a790293c27730a77995d5f846", "is_reserved": 0, "lon": -77.0156745, "is_disabled": 0, "fusion_lat": 0.0, "lat": 38.883215, "bike_id": "c25cf95a790293c27730a77995d5f846", "fusion_lon": 0.0}, {"rental_uris": {"ios": "https://dc.lft.to/lastmile_qr_scan", "android": "https://dc.lft.to/lastmile_qr_scan"}, "type": "electric_bike", "name": "f2d180049dc1d015226f519b34e5ffff", "is_reserved": 0, "lon": -76.95057533333333, "is_disabled": 0, "fusion_lat": 0.0, "lat": 39.085065, "bike_id": "f2d180049dc1d015226f519b34e5ffff", "fusion_lon": 0.0}, {"rental_uris": {"ios": "https://dc.lft.to/lastmile_qr_scan", "android": "https://dc.lft.to/lastmile_qr_scan"}, "type": "electric_scooter", "name": "f7c56219eae46ad13b4bb1b7024ebaae", "is_reserved": 0, "lon": -77.07400833333334, "is_disabled": 0, "fusion_lat": 0.0, "lat": 38.937486166666666, "bike_id": "f7c56219eae46ad13b4bb1b7024ebaae", "fusion_lon": 0.0}, {"rental_uris": {"ios": "https://dc.lft.to/lastmile_qr_scan", "android": "https://dc.lft.to/lastmile_qr_scan"}, "type": "electric_scooter", "name": "8a7fef5d714fb420f5012fad8424eb51", "is_reserved": 0, "lon": -77.0235365, "is_disabled": 0, "fusion_lat": 0.0, "lat": 38.94519233333333, "bike_id": "8a7fef5d714fb420f5012fad8424eb51", "fusion_lon": 0.0}, {"rental_uris": {"ios": "https://dc.lft.to/lastmile_qr_scan", "android": "https://dc.lft.to/lastmile_qr_scan"}, "type": "electric_scooter", "name": "1e4067158ae380fbc272ad9a85fd472c", "is_reserved": 0, "lon": -76.98186016666666, "is_disabled": 0, "fusion_lat": 0.0, "lat": 38.905773833333335, "bike_id": "1e4067158ae380fbc272ad9a85fd472c", "fusion_lon": 0.0}, {"rental_uris": {"ios": "https://dc.lft.to/lastmile_qr_scan", "android": "https://dc.lft.to/lastmile_qr_scan"}, "type": "electric_scooter", "name": "a8a7f4e1b3c91c2ba452084af985e34c", "is_reserved": 0, "lon": -76.99997483333334, "is_disabled": 0, "fusion_lat": 0.0, "lat": 38.90753933333333, "bike_id": "a8a7f4e1b3c91c2ba452084af985e34c", "fusion_lon": 0.0}, {"rental_uris": {"ios": "https://dc.lft.to/lastmile_qr_scan", "android": "https://dc.lft.to/lastmile_qr_scan"}, "type": "electric_scooter", "name": "31ff7cac63d0671d88b3c0203572bae1", "is_reserved": 0, "lon": -77.0313205, "is_disabled": 0, "fusion_lat": 0.0, "lat": 38.92369083333333, "bike_id": "31ff7cac63d0671d88b3c0203572bae1", "fusion_lon": 0.0}, {"rental_uris": {"ios": "https://dc.lft.to/lastmile_qr_scan", "android": "https://dc.lft.to/lastmile_qr_scan"}, "type": "electric_scooter", "name": "436cbc7f8a085173ee09fa2a15928f81", "is_reserved": 0, "lon": -77.00195083333334, "is_disabled": 0, "fusion_lat": 0.0, "lat": 38.900306, "bike_id": "436cbc7f8a085173ee09fa2a15928f81", "fusion_lon": 0.0}, {"rental_uris": {"ios": "https://dc.lft.to/lastmile_qr_scan", "android": "https://dc.lft.to/lastmile_qr_scan"}, "type": "electric_scooter", "name": "dfdb0bcc21d9a3d9a9e83cd3f1cfccdf", "is_reserved": 0, "lon": -77.03443916666667, "is_disabled": 0, "fusion_lat": 0.0, "lat": 38.917964833333336, "bike_id": "dfdb0bcc21d9a3d9a9e83cd3f1cfccdf", "fusion_lon": 0.0}, {"rental_uris": {"ios": "https://dc.lft.to/lastmile_qr_scan", "android": "https://dc.lft.to/lastmile_qr_scan"}, "type": "electric_scooter", "name": "e4203f1c053b2c7bfe4a2688f1d0481b", "is_reserved": 0, "lon": -76.9835705, "is_disabled": 0, "fusion_lat": 0.0, "lat": 38.88728483333333, "bike_id": "e4203f1c053b2c7bfe4a2688f1d0481b", "fusion_lon": 0.0}, {"rental_uris": {"ios": "https://dc.lft.to/lastmile_qr_scan", "android": "https://dc.lft.to/lastmile_qr_scan"}, "type": "electric_scooter", "name": "3cd4317733130d6d4dced8ca260b27eb", "is_reserved": 0, "lon": -76.93223783333333, "is_disabled": 0, "fusion_lat": 0.0, "lat": 38.8805385, "bike_id": "3cd4317733130d6d4dced8ca260b27eb", "fusion_lon": 0.0}, {"rental_uris": {"ios": "https://dc.lft.to/lastmile_qr_scan", "android": "https://dc.lft.to/lastmile_qr_scan"}, "type": "electric_scooter", "name": "241ef7cf39b1b3c71a7b43e49a40c556", "is_reserved": 0, "lon": -77.04131266666667, "is_disabled": 0, "fusion_lat": 0.0, "lat": 38.89348533333333, "bike_id": "241ef7cf39b1b3c71a7b43e49a40c556", "fusion_lon": 0.0}, {"rental_uris": {"ios": "https://dc.lft.to/lastmile_qr_scan", "android": "https://dc.lft.to/lastmile_qr_scan"}, "type": "electric_scooter", "name": "0daccd321e6133ce9d65365338fa7969", "is_reserved": 0, "lon": -77.03445783333333, "is_disabled": 0, "fusion_lat": 0.0, "lat": 38.907279833333334, "bike_id": "0daccd321e6133ce9d65365338fa7969", "fusion_lon": 0.0}, {"rental_uris": {"ios": "https://dc.lft.to/lastmile_qr_scan", "android": "https://dc.lft.to/lastmile_qr_scan"}, "type": "electric_scooter", "name": "dc18bf92167607dfad8cc19b24c9996b", "is_reserved": 0, "lon": -77.05721116666666, "is_disabled": 0, "fusion_lat": 0.0, "lat": 38.933560166666666, "bike_id": "dc18bf92167607dfad8cc19b24c9996b", "fusion_lon": 0.0}, {"rental_uris": {"ios": "https://dc.lft.to/lastmile_qr_scan", "android": "https://dc.lft.to/lastmile_qr_scan"}, "type": "electric_scooter", "name": "4067668485b095d93cc8973add840799", "is_reserved": 0, "lon": -77.02733983333333, "is_disabled": 0, "fusion_lat": 0.0, "lat": 38.91715133333334, "bike_id": "4067668485b095d93cc8973add840799", "fusion_lon": 0.0}, {"rental_uris": {"ios": "https://dc.lft.to/lastmile_qr_scan", "android": "https://dc.lft.to/lastmile_qr_scan"}, "type": "electric_scooter", "name": "23066ade1ec02b74de9d37863d122c15", "is_reserved": 0, "lon": -77.02774916666667, "is_disabled": 0, "fusion_lat": 0.0, "lat": 38.965800333333334, "bike_id": "23066ade1ec02b74de9d37863d122c15", "fusion_lon": 0.0}, {"rental_uris": {"ios": "https://dc.lft.to/lastmile_qr_scan", "android": "https://dc.lft.to/lastmile_qr_scan"}, "type": "electric_scooter", "name": "df7149f03e2bf8eb540fd2f79584cb51", "is_reserved": 0, "lon": -77.035, "is_disabled": 0, "fusion_lat": 0.0, "lat": 38.91709133333333, "bike_id": "df7149f03e2bf8eb540fd2f79584cb51", "fusion_lon": 0.0}, {"rental_uris": {"ios": "https://dc.lft.to/lastmile_qr_scan", "android": "https://dc.lft.to/lastmile_qr_scan"}, "type": "electric_scooter", "name": "3ee11c1da4de949dcdb722638f0fdae2", "is_reserved": 0, "lon": -77.04289216666666, "is_disabled": 0, "fusion_lat": 0.0, "lat": 38.91104816666667, "bike_id": "3ee11c1da4de949dcdb722638f0fdae2", "fusion_lon": 0.0}, {"rental_uris": {"ios": "https://dc.lft.to/lastmile_qr_scan", "android": "https://dc.lft.to/lastmile_qr_scan"}, "type": "electric_scooter", "name": "8e74f51d5d8d2739a69303635f91889f", "is_reserved": 0, "lon": -77.00646066666667, "is_disabled": 0, "fusion_lat": 0.0, "lat": 38.911891833333335, "bike_id": "8e74f51d5d8d2739a69303635f91889f", "fusion_lon": 0.0}, {"rental_uris": {"ios": "https://dc.lft.to/lastmile_qr_scan", "android": "https://dc.lft.to/lastmile_qr_scan"}, "type": "electric_scooter", "name": "69db12c286cbacbe08e8bcbf4bbe89f3", "is_reserved": 0, "lon": -77.04091666666666, "is_disabled": 0, "fusion_lat": 0.0, "lat": 38.92072483333333, "bike_id": "69db12c286cbacbe08e8bcbf4bbe89f3", "fusion_lon": 0.0}, {"rental_uris": {"ios": "https://dc.lft.to/lastmile_qr_scan", "android": "https://dc.lft.to/lastmile_qr_scan"}, "type": "electric_bike", "name": "76af3832108cd50c1c597affe19e08bb", "is_reserved": 0, "lon": -77.09536916666667, "is_disabled": 0, "fusion_lat": 0.0, "lat": 38.8589445, "bike_id": "76af3832108cd50c1c597affe19e08bb", "fusion_lon": 0.0}, {"rental_uris": {"ios": "https://dc.lft.to/lastmile_qr_scan", "android": "https://dc.lft.to/lastmile_qr_scan"}, "type": "electric_scooter", "name": "c21239ea036e5c2d6bb4d0b2085f8086", "is_reserved": 0, "lon": -76.976536, "is_disabled": 0, "fusion_lat": 0.0, "lat": 38.9036155, "bike_id": "c21239ea036e5c2d6bb4d0b2085f8086", "fusion_lon": 0.0}, {"rental_uris": {"ios": "https://dc.lft.to/lastmile_qr_scan", "android": "https://dc.lft.to/lastmile_qr_scan"}, "type": "electric_scooter", "name": "053c4711266f7ed3e4af484cbd57dc33", "is_reserved": 0, "lon": -77.0384145, "is_disabled": 0, "fusion_lat": 0.0, "lat": 38.903881, "bike_id": "053c4711266f7ed3e4af484cbd57dc33", "fusion_lon": 0.0}, {"rental_uris": {"ios": "https://dc.lft.to/lastmile_qr_scan", "android": "https://dc.lft.to/lastmile_qr_scan"}, "type": "electric_scooter", "name": "4cebf0b389db0f8a7fda3831243f6bdd", "is_reserved": 0, "lon": -77.01336966666666, "is_disabled": 0, "fusion_lat": 0.0, "lat": 38.8812395, "bike_id": "4cebf0b389db0f8a7fda3831243f6bdd", "fusion_lon": 0.0}, {"rental_uris": {"ios": "https://dc.lft.to/lastmile_qr_scan", "android": "https://dc.lft.to/lastmile_qr_scan"}, "type": "electric_scooter", "name": "16cdb7a0a1af6c812f7a0b151c2691c4", "is_reserved": 0, "lon": -77.03439516666667, "is_disabled": 0, "fusion_lat": 0.0, "lat": 38.920477166666664, "bike_id": "16cdb7a0a1af6c812f7a0b151c2691c4", "fusion_lon": 0.0}, {"rental_uris": {"ios": "https://dc.lft.to/lastmile_qr_scan", "android": "https://dc.lft.to/lastmile_qr_scan"}, "type": "electric_scooter", "name": "d0191608ae5648a4a44e5aba6880629d", "is_reserved": 0, "lon": -77.00212433333333, "is_disabled": 0, "fusion_lat": 0.0, "lat": 38.89811516666666, "bike_id": "d0191608ae5648a4a44e5aba6880629d", "fusion_lon": 0.0}, {"rental_uris": {"ios": "https://dc.lft.to/lastmile_qr_scan", "android": "https://dc.lft.to/lastmile_qr_scan"}, "type": "electric_scooter", "name": "159dd88b07d2c182fdadb96a092e22d0", "is_reserved": 0, "lon": -77.03840466666666, "is_disabled": 0, "fusion_lat": 0.0, "lat": 38.90988333333333, "bike_id": "159dd88b07d2c182fdadb96a092e22d0", "fusion_lon": 0.0}, {"rental_uris": {"ios": "https://dc.lft.to/lastmile_qr_scan", "android": "https://dc.lft.to/lastmile_qr_scan"}, "type": "electric_scooter", "name": "04cb50d9f8a41e23ad47f601aa485ac2", "is_reserved": 0, "lon": -77.05074, "is_disabled": 0, "fusion_lat": 0.0, "lat": 38.8975635, "bike_id": "04cb50d9f8a41e23ad47f601aa485ac2", "fusion_lon": 0.0}, {"rental_uris": {"ios": "https://dc.lft.to/lastmile_qr_scan", "android": "https://dc.lft.to/lastmile_qr_scan"}, "type": "electric_scooter", "name": "71800b13bb547988bda8ae0cd77a1ab7", "is_reserved": 0, "lon": -77.042707, "is_disabled": 0, "fusion_lat": 0.0, "lat": 38.9229625, "bike_id": "71800b13bb547988bda8ae0cd77a1ab7", "fusion_lon": 0.0}, {"rental_uris": {"ios": "https://dc.lft.to/lastmile_qr_scan", "android": "https://dc.lft.to/lastmile_qr_scan"}, "type": "electric_scooter", "name": "6ae19e8f3bd7d6bc089568e6664c4ad1", "is_reserved": 0, "lon": -77.01688833333333, "is_disabled": 0, "fusion_lat": 0.0, "lat": 38.900447166666666, "bike_id": "6ae19e8f3bd7d6bc089568e6664c4ad1", "fusion_lon": 0.0}, {"rental_uris": {"ios": "https://dc.lft.to/lastmile_qr_scan", "android": "https://dc.lft.to/lastmile_qr_scan"},