{"data": {"bikes": [{"type": "electric_scooter", "rental_uris": {"ios": "https://dc.lft.to/lastmile_qr_scan", "android": "https://dc.lft.to/lastmile_qr_scan"}, "lon": -77.03527733333334, "fusion_lon": 0.0, "is_disabled": 0, "lat": 38.91826533333333, "bike_id": "93be565924268530f3fc7b24a9e1d460", "name": "93be565924268530f3fc7b24a9e1d460", "is_reserved": 0, "fusion_lat": 0.0}, {"type": "electric_scooter", "rental_uris": {"ios": "https://dc.lft.to/lastmile_qr_scan", "android": "https://dc.lft.to/lastmile_qr_scan"}, "lon": -77.03206483333334, "fusion_lon": 0.0, "is_disabled": 0, "lat": 38.908931333333335, "bike_id": "d9804877d2c9f98d7990545bcae0b676", "name": "d9804877d2c9f98d7990545bcae0b676", "is_reserved": 0, "fusion_lat": 0.0}, {"type": "electric_scooter", "rental_uris": {"ios": "https://dc.lft.to/lastmile_qr_scan", "android": "https://dc.lft.to/lastmile_qr_scan"}, "lon": -77.03334483333333, "fusion_lon": 0.0, "is_disabled": 0, "lat": 38.928822, "bike_id": "13778482aa504b11d3801d3b4a1ce669", "name": "13778482aa504b11d3801d3b4a1ce669", "is_reserved": 0, "fusion_lat": 0.0}, {"type": "electric_bike", "rental_uris": {"ios": "https://dc.lft.to/lastmile_qr_scan", "android": "https://dc.lft.to/lastmile_qr_scan"}, "lon": -77.09519833333333, "fusion_lon": 0.0, "is_disabled": 0, "lat": 38.838106333333336, "bike_id": "6f82f350cee27d4a45e8b4150a81cf03", "name": "6f82f350cee27d4a45e8b4150a81cf03", "is_reserved": 0, "fusion_lat": 0.0}, {"type": "electric_scooter", "rental_uris": {"ios": "https://dc.lft.to/lastmile_qr_scan", "android": "https://dc.lft.to/lastmile_qr_scan"}, "lon": -77.032523, "fusion_lon": 0.0, "is_disabled": 0, "lat": 38.927983, "bike_id": "2988ac3d463cf1e02647f9fc98c938b4", "name": "2988ac3d463cf1e02647f9fc98c938b4", "is_reserved": 0, "fusion_lat": 0.0}, {"type": "electric_scooter", "rental_uris": {"ios": "https://dc.lft.to/lastmile_qr_scan", "android": "https://dc.lft.to/lastmile_qr_scan"}, "lon": -77.031909, "fusion_lon": 0.0, "is_disabled": 0, "lat": 38.9211615, "bike_id": "5e19650155b2c33e936872e7a744e75f", "name": "5e19650155b2c33e936872e7a744e75f", "is_reserved": 0, "fusion_lat": 0.0}, {"type": "electric_scooter", "rental_uris": {"ios": "https://dc.lft.to/lastmile_qr_scan", "android": "https://dc.lft.to/lastmile_qr_scan"}, "lon": -77.01757283333333, "fusion_lon": 0.0, "is_disabled": 0, "lat": 38.90277783333333, "bike_id": "a91157ec482e06421da2ccf8d51d4d81", "name": "a91157ec482e06421da2ccf8d51d4d81", "is_reserved": 0, "fusion_lat": 0.0}, {"type": "electric_scooter", "rental_uris": {"ios": "https://dc.lft.to/lastmile_qr_scan", "android": "https://dc.lft.to/lastmile_qr_scan"}, "lon": -77.01927766666667, "fusion_lon": 0.0, "is_disabled": 0, "lat": 38.920162833333336, "bike_id": "109d405c5181dcce8addb276c05c2129", "name": "109d405c5181dcce8addb276c05c2129", "is_reserved": 0, "fusion_lat": 0.0}, {"type": "electric_scooter", "rental_uris": {"ios": "https://dc.lft.to/lastmile_qr_scan", "android": "https://dc.lft.to/lastmile_qr_scan"}, "lon": -77.03441433333333, "fusion_lon": 0.0, "is_disabled": 0, "lat": 38.91873783333333, "bike_id": "2156e419d706f1eb0b47a181673e759b", "name": "2156e419d706f1eb0b47a181673e759b", "is_reserved": 0, "fusion_lat": 0.0}, {"type": "electric_bike", "rental_uris": {"ios": "https://dc.lft.to/lastmile_qr_scan", "android": "https://dc.lft.to/lastmile_qr_scan"}, "lon": -77.2233565, "fusion_lon": 0.0, "is_disabled": 0, "lat": 38.9180725, "bike_id": "ebad5bdc32eba25c60b40751544e36d1", "name": "ebad5bdc32eba25c60b40751544e36d1", "is_reserved": 0, "fusion_lat": 0.0}, {"type": "electric_scooter", "rental_uris": {"ios": "https://dc.lft.to/lastmile_qr_scan", "android": "https://dc.lft.to/lastmile_qr_scan"}, "lon": -77.03141333333333, "fusion_lon": 0.0, "is_disabled": 0, "lat": 38.916934, "bike_id": "3d0afc9b088ae08eb380e2f43f45b163", "name": "3d0afc9b088ae08eb380e2f43f45b163", "is_reserved": 0, "fusion_lat": 0.0}, {"type": "electric_scooter", "rental_uris": {"ios": "https://dc.lft.to/lastmile_qr_scan", "android": "https://dc.lft.to/lastmile_qr_scan"}, "lon": -77.04167433333333, "fusion_lon": 0.0, "is_disabled": 0, "lat": 38.91415883333333, "bike_id": "223914d35667cf9552d83ae6ff43d185", "name": "223914d35667cf9552d83ae6ff43d185", "is_reserved": 0, "fusion_lat": 0.0}, {"type": "electric_scooter", "rental_uris": {"ios": "https://dc.lft.to/lastmile_qr_scan", "android": "https://dc.lft.to/lastmile_qr_scan"}, "lon": -77.03217566666666, "fusion_lon": 0.0, "is_disabled": 0, "lat": 38.89227183333333, "bike_id": "f855f93c60a498676b089a259169146a", "name": "f855f93c60a498676b089a259169146a", "is_reserved": 0, "fusion_lat": 0.0}, {"type": "electric_scooter", "rental_uris": {"ios": "https://dc.lft.to/lastmile_qr_scan", "android": "https://dc.lft.to/lastmile_qr_scan"}, "lon": -77.000553, "fusion_lon": 0.0, "is_disabled": 0, "lat": 38.874039833333335, "bike_id": "8f7edfb07ffb9acac28483e5f6502c1b", "name": "8f7edfb07ffb9acac28483e5f6502c1b", "is_reserved": 0, "fusion_lat": 0.0}, {"type": "electric_scooter", "rental_uris": {"ios": "https://dc.lft.to/lastmile_qr_scan", "android": "https://dc.lft.to/lastmile_qr_scan"}, "lon": -77.0265395, "fusion_lon": 0.0, "is_disabled": 0, "lat": 38.916910666666666, "bike_id": "4443d93094786ce7e9dbec0d52ff43a9", "name": "4443d93094786ce7e9dbec0d52ff43a9", "is_reserved": 0, "fusion_lat": 0.0}, {"type": "electric_scooter", "rental_uris": {"ios": "https://dc.lft.to/lastmile_qr_scan", "android": "https://dc.lft.to/lastmile_qr_scan"}, "lon": -77.01115833333333, "fusion_lon": 0.0, "is_disabled": 0, "lat": 38.92026933333333, "bike_id": "63fea29633c786bc2c7131de1593b4b2", "name": "63fea29633c786bc2c7131de1593b4b2", "is_reserved": 0, "fusion_lat": 0.0}, {"type": "electric_scooter", "rental_uris": {"ios": "https://dc.lft.to/lastmile_qr_scan", "android": "https://dc.lft.to/lastmile_qr_scan"}, "lon": -77.01956066666666, "fusion_lon": 0.0, "is_disabled": 0, "lat": 38.902394666666666, "bike_id": "9867c55a50900b876fcc2cfde1d89144", "name": "9867c55a50900b876fcc2cfde1d89144", "is_reserved": 0, "fusion_lat": 0.0}, {"type": "electric_scooter", "rental_uris": {"ios": "https://dc.lft.to/lastmile_qr_scan", "android": "https://dc.lft.to/lastmile_qr_scan"}, "lon": -77.05135933333334, "fusion_lon": 0.0, "is_disabled": 0, "lat": 38.90050266666667, "bike_id": "c3eba2ed7de8d58c322c3e72071be304", "name": "c3eba2ed7de8d58c322c3e72071be304", "is_reserved": 0, "fusion_lat": 0.0}, {"type": "electric_scooter", "rental_uris": {"ios": "https://dc.lft.to/lastmile_qr_scan", "android": "https://dc.lft.to/lastmile_qr_scan"}, "lon": -76.9360905, "fusion_lon": 0.0, "is_disabled": 0, "lat": 38.886665666666666, "bike_id": "d95da515579266e0f052445bd2ece2ed", "name": "d95da515579266e0f052445bd2ece2ed", "is_reserved": 0, "fusion_lat": 0.0}, {"type": "electric_scooter", "rental_uris": {"ios": "https://dc.lft.to/lastmile_qr_scan", "android": "https://dc.lft.to/lastmile_qr_scan"}, "lon": -77.0137225, "fusion_lon": 0.0, "is_disabled": 0, "lat": 38.892200833333334, "bike_id": "b16d5ae43ca617f9962597d086d898e3", "name": "b16d5ae43ca617f9962597d086d898e3", "is_reserved": 0, "fusion_lat": 0.0}, {"type": "electric_scooter", "rental_uris": {"ios": "https://dc.lft.to/lastmile_qr_scan", "android": "https://dc.lft.to/lastmile_qr_scan"}, "lon": -77.067881, "fusion_lon": 0.0, "is_disabled": 0, "lat": 38.9052935, "bike_id": "1b520589cfefed2b47011244b76c93f1", "name": "1b520589cfefed2b47011244b76c93f1", "is_reserved": 0, "fusion_lat": 0.0}, {"type": "electric_scooter", "rental_uris": {"ios": "https://dc.lft.to/lastmile_qr_scan", "android": "https://dc.lft.to/lastmile_qr_scan"}, "lon": -76.9701345, "fusion_lon": 0.0, "is_disabled": 0, "lat": 38.920346, "bike_id": "7488583d6166c2fbfcca7576ddd799b0", "name": "7488583d6166c2fbfcca7576ddd799b0", "is_reserved": 0, "fusion_lat": 0.0}, {"type": "electric_scooter", "rental_uris": {"ios": "https://dc.lft.to/lastmile_qr_scan", "android": "https://dc.lft.to/lastmile_qr_scan"}, "lon": -77.03625733333334, "fusion_lon": 0.0, "is_disabled": 0, "lat": 38.93685166666667, "bike_id": "c55fd2b23d8766d51fe449aceab84534", "name": "c55fd2b23d8766d51fe449aceab84534", "is_reserved": 0, "fusion_lat": 0.0}, {"type": "electric_bike", "rental_uris": {"ios": "https://dc.lft.to/lastmile_qr_scan", "android": "https://dc.lft.to/lastmile_qr_scan"}, "lon": -77.027168, "fusion_lon": 0.0, "is_disabled": 0, "lat": 38.922970666666664, "bike_id": "736144b7831c5771ffd805b26e49cdac", "name": "736144b7831c5771ffd805b26e49cdac", "is_reserved": 0, "fusion_lat": 0.0}, {"type": "electric_scooter", "rental_uris": {"ios": "https://dc.lft.to/lastmile_qr_scan", "android": "https://dc.lft.to/lastmile_qr_scan"}, "lon": -77.02221516666667, "fusion_lon": 0.0, "is_disabled": 0, "lat": 38.8922115, "bike_id": "13e5fceecbefa9a194c62a6c81925522", "name": "13e5fceecbefa9a194c62a6c81925522", "is_reserved": 0, "fusion_lat": 0.0}, {"type": "electric_scooter", "rental_uris": {"ios": "https://dc.lft.to/lastmile_qr_scan", "android": "https://dc.lft.to/lastmile_qr_scan"}, "lon": -77.0505375, "fusion_lon": 0.0, "is_disabled": 0, "lat": 38.923687, "bike_id": "87202caa53640465749193bfebce086f", "name": "87202caa53640465749193bfebce086f", "is_reserved": 0, "fusion_lat": 0.0}, {"type": "electric_scooter", "rental_uris": {"ios": "https://dc.lft.to/lastmile_qr_scan", "android": "https://dc.lft.to/lastmile_qr_scan"}, "lon": -77.03098366666667, "fusion_lon": 0.0, "is_disabled": 0, "lat": 38.90124683333333, "bike_id": "ff7f83bae906769ded6e8d9229834efd", "name": "ff7f83bae906769ded6e8d9229834efd", "is_reserved": 0, "fusion_lat": 0.0}, {"type": "electric_scooter", "rental_uris": {"ios": "https://dc.lft.to/lastmile_qr_scan", "android": "https://dc.lft.to/lastmile_qr_scan"}, "lon": -77.03035616666666, "fusion_lon": 0.0, "is_disabled": 0, "lat": 38.9268005, "bike_id": "304ffd441f366a398c23971ca2e5a741", "name": "304ffd441f366a398c23971ca2e5a741", "is_reserved": 0, "fusion_lat": 0.0}, {"type": "electric_scooter", "rental_uris": {"ios": "https://dc.lft.to/lastmile_qr_scan", "android": "https://dc.lft.to/lastmile_qr_scan"}, "lon": -77.05145533333334, "fusion_lon": 0.0, "is_disabled": 0, "lat": 38.902607833333334, "bike_id": "32c9d2a529634c1c467478ca990ddda9", "name": "32c9d2a529634c1c467478ca990ddda9", "is_reserved": 0, "fusion_lat": 0.0}, {"type": "electric_scooter", "rental_uris": {"ios": "https://dc.lft.to/lastmile_qr_scan", "android": "https://dc.lft.to/lastmile_qr_scan"}, "lon": -77.03074733333334, "fusion_lon": 0.0, "is_disabled": 0, "lat": 38.91754683333333, "bike_id": "51e8bb6e8b7a813a3cbf783bdf27ddd8", "name": "51e8bb6e8b7a813a3cbf783bdf27ddd8", "is_reserved": 0, "fusion_lat": 0.0}, {"type": "electric_scooter", "rental_uris": {"ios": "https://dc.lft.to/lastmile_qr_scan", "android": "https://dc.lft.to/lastmile_qr_scan"}, "lon": -77.0242245, "fusion_lon": 0.0, "is_disabled": 0, "lat": 38.92657916666667, "bike_id": "464ef632ab10160e01418cac72dc6a9d", "name": "464ef632ab10160e01418cac72dc6a9d", "is_reserved": 0, "fusion_lat": 0.0}, {"type": "electric_scooter", "rental_uris": {"ios": "https://dc.lft.to/lastmile_qr_scan", "android": "https://dc.lft.to/lastmile_qr_scan"}, "lon": -77.03347733333334, "fusion_lon": 0.0, "is_disabled": 0, "lat": 38.9170825, "bike_id": "e5fd3ef8043b2726e6764d7e9ea4c97e", "name": "e5fd3ef8043b2726e6764d7e9ea4c97e", "is_reserved": 0, "fusion_lat": 0.0}, {"type": "electric_scooter", "rental_uris": {"ios": "https://dc.lft.to/lastmile_qr_scan", "android": "https://dc.lft.to/lastmile_qr_scan"}, "lon": -77.0240135, "fusion_lon": 0.0, "is_disabled": 0, "lat": 38.89738033333333, "bike_id": "32353eaa1b49f3d6cd9f22c353f6e71e", "name": "32353eaa1b49f3d6cd9f22c353f6e71e", "is_reserved": 0, "fusion_lat": 0.0}, {"type": "electric_scooter", "rental_uris": {"ios": "https://dc.lft.to/lastmile_qr_scan", "android": "https://dc.lft.to/lastmile_qr_scan"}, "lon": -77.034535, "fusion_lon": 0.0, "is_disabled": 0, "lat": 38.93748883333333, "bike_id": "9f7b7ca2da0affd177a24c8fe71282e4", "name": "9f7b7ca2da0affd177a24c8fe71282e4", "is_reserved": 0, "fusion_lat": 0.0}, {"type": "electric_scooter", "rental_uris": {"ios": "https://dc.lft.to/lastmile_qr_scan", "android": "https://dc.lft.to/lastmile_qr_scan"}, "lon": -77.04329883333334, "fusion_lon": 0.0, "is_disabled": 0, "lat": 38.8922155, "bike_id": "43f0f5d438b171f4fbffc2669f8c36c1", "name": "43f0f5d438b171f4fbffc2669f8c36c1", "is_reserved": 0, "fusion_lat": 0.0}, {"type": "electric_scooter", "rental_uris": {"ios": "https://dc.lft.to/lastmile_qr_scan", "android": "https://dc.lft.to/lastmile_qr_scan"}, "lon": -77.0625605, "fusion_lon": 0.0, "is_disabled": 0, "lat": 38.94418783333333, "bike_id": "b9d548a7b93ed80c88c0a464f23e47d5", "name": "b9d548a7b93ed80c88c0a464f23e47d5", "is_reserved": 0, "fusion_lat": 0.0}, {"type": "electric_scooter", "rental_uris": {"ios": "https://dc.lft.to/lastmile_qr_scan", "android": "https://dc.lft.to/lastmile_qr_scan"}, "lon": -77.03484666666667, "fusion_lon": 0.0, "is_disabled": 0, "lat": 38.931035333333334, "bike_id": "24d546de6f8989817259a277d2087531", "name": "24d546de6f8989817259a277d2087531", "is_reserved": 0, "fusion_lat": 0.0}, {"type": "electric_scooter", "rental_uris": {"ios": "https://dc.lft.to/lastmile_qr_scan", "android": "https://dc.lft.to/lastmile_qr_scan"}, "lon": -77.03336666666667, "fusion_lon": 0.0, "is_disabled": 0, "lat": 38.91707433333333, "bike_id": "08b8b6cd6146a7434e141e9052e5d0ca", "name": "08b8b6cd6146a7434e141e9052e5d0ca", "is_reserved": 0, "fusion_lat": 0.0}, {"type": "electric_scooter", "rental_uris": {"ios": "https://dc.lft.to/lastmile_qr_scan", "android": "https://dc.lft.to/lastmile_qr_scan"}, "lon": -77.03390133333333, "fusion_lon": 0.0, "is_disabled": 0, "lat": 38.920434166666666, "bike_id": "cfa53d8a3c0261d0bfedc6d933c87671", "name": "cfa53d8a3c0261d0bfedc6d933c87671", "is_reserved": 0, "fusion_lat": 0.0}, {"type": "electric_scooter", "rental_uris": {"ios": "https://dc.lft.to/lastmile_qr_scan", "android": "https://dc.lft.to/lastmile_qr_scan"}, "lon": -77.01214883333333, "fusion_lon": 0.0, "is_disabled": 0, "lat": 38.919783833333334, "bike_id": "e428e1893c53c7db1f5c7e76bc4b1661", "name": "e428e1893c53c7db1f5c7e76bc4b1661", "is_reserved": 0, "fusion_lat": 0.0}, {"type": "electric_scooter", "rental_uris": {"ios": "https://dc.lft.to/lastmile_qr_scan", "android": "https://dc.lft.to/lastmile_qr_scan"}, "lon": -77.02392616666667, "fusion_lon": 0.0, "is_disabled": 0, "lat": 38.91674316666667, "bike_id": "061f9a6bb2679291a354507da5035712", "name": "061f9a6bb2679291a354507da5035712", "is_reserved": 0, "fusion_lat": 0.0}, {"type": "electric_scooter", "rental_uris": {"ios": "https://dc.lft.to/lastmile_qr_scan", "android": "https://dc.lft.to/lastmile_qr_scan"}, "lon": -77.026952, "fusion_lon": 0.0, "is_disabled": 0, "lat": 38.90677866666667, "bike_id": "7ad2352e3ecaebc8a8a72249d7a0f0fb", "name": "7ad2352e3ecaebc8a8a72249d7a0f0fb", "is_reserved": 0, "fusion_lat": 0.0}, {"type": "electric_scooter", "rental_uris": {"ios": "https://dc.lft.to/lastmile_qr_scan", "android": "https://dc.lft.to/lastmile_qr_scan"}, "lon": -77.0765175, "fusion_lon": 0.0, "is_disabled": 0, "lat": 38.939175, "bike_id": "10c6ad7b8402687dce151547e444a670", "name": "10c6ad7b8402687dce151547e444a670", "is_reserved": 0, "fusion_lat": 0.0}, {"type": "electric_scooter", "rental_uris": {"ios": "https://dc.lft.to/lastmile_qr_scan", "android": "https://dc.lft.to/lastmile_qr_scan"}, "lon": -77.00096816666667, "fusion_lon": 0.0, "is_disabled": 0, "lat": 38.9124235, "bike_id": "8b458944ba4104ae3a1c4d3537b04eca", "name": "8b458944ba4104ae3a1c4d3537b04eca", "is_reserved": 0, "fusion_lat": 0.0}, {"type": "electric_scooter", "rental_uris": {"ios": "https://dc.lft.to/lastmile_qr_scan", "android": "https://dc.lft.to/lastmile_qr_scan"}, "lon": -77.03136533333333, "fusion_lon": 0.0, "is_disabled": 0, "lat": 38.88745483333334, "bike_id": "01c5b3a1308100ae5474d613426e9e66", "name": "01c5b3a1308100ae5474d613426e9e66", "is_reserved": 0, "fusion_lat": 0.0}, {"type": "electric_scooter", "rental_uris": {"ios": "https://dc.lft.to/lastmile_qr_scan", "android": "https://dc.lft.to/lastmile_qr_scan"}, "lon": -77.052349, "fusion_lon": 0.0, "is_disabled": 0, "lat": 38.924681666666665, "bike_id": "86059505cc522dee39fe203d99f54572", "name": "86059505cc522dee39fe203d99f54572", "is_reserved": 0, "fusion_lat": 0.0}, {"type": "electric_scooter", "rental_uris": {"ios": "https://dc.lft.to/lastmile_qr_scan", "android": "https://dc.lft.to/lastmile_qr_scan"}, "lon": -77.0225895, "fusion_lon": 0.0, "is_disabled": 0, "lat": 38.8785735, "bike_id": "4958a603fc3c545525a10da67acc39d0", "name": "4958a603fc3c545525a10da67acc39d0", "is_reserved": 0, "fusion_lat": 0.0}, {"type": "electric_scooter", "rental_uris": {"ios": "https://dc.lft.to/lastmile_qr_scan", "android": "https://dc.lft.to/lastmile_qr_scan"}, "lon": -77.02496416666666, "fusion_lon": 0.0, "is_disabled": 0, "lat": 38.919469166666666, "bike_id": "52045da10a954e21ffb8376d8aee952d", "name": "52045da10a954e21ffb8376d8aee952d", "is_reserved": 0, "fusion_lat": 0.0}, {"type": "electric_scooter", "rental_uris": {"ios": "https://dc.lft.to/lastmile_qr_scan", "android": "https://dc.lft.to/lastmile_qr_scan"}, "lon": -77.02838916666667, "fusion_lon": 0.0, "is_disabled": 0, "lat": 38.892307333333335, "bike_id": "7763211a6c62b718eaf7a8235f508539", "name": "7763211a6c62b718eaf7a8235f508539", "is_reserved": 0, "fusion_lat": 0.0}, {"type": "electric_scooter", "rental_uris": {"ios": "https://dc.lft.to/lastmile_qr_scan", "android": "https://dc.lft.to/lastmile_qr_scan"}, "lon": -77.038298, "fusion_lon": 0.0, "is_disabled": 0, "lat": 38.91266816666667, "bike_id": "2eb04d52ff3b4e88a0a6f072b7c9347e", "name": "2eb04d52ff3b4e88a0a6f072b7c9347e", "is_reserved": 0, "fusion_lat": 0.0}, {"type": "electric_scooter", "rental_uris": {"ios": "https://dc.lft.to/lastmile_qr_scan", "android": "https://dc.lft.to/lastmile_qr_scan"}, "lon": -76.99515783333334, "fusion_lon": 0.0, "is_disabled": 0, "lat": 38.862571333333335, "bike_id": "e9c3cf57acd80c653806e32542120dfa", "name": "e9c3cf57acd80c653806e32542120dfa", "is_reserved": 0, "fusion_lat": 0.0}, {"type": "electric_scooter", "rental_uris": {"ios": "https://dc.lft.to/lastmile_qr_scan", "android": "https://dc.lft.to/lastmile_qr_scan"}, "lon": -77.02780366666667, "fusion_lon": 0.0, "is_disabled": 0, "lat": 38.897021333333335, "bike_id": "c4d7cd1805e868d596ef6dbad1f60338", "name": "c4d7cd1805e868d596ef6dbad1f60338", "is_reserved": 0, "fusion_lat": 0.0}, {"type": "electric_scooter", "rental_uris": {"ios": "https://dc.lft.to/lastmile_qr_scan", "android": "https://dc.lft.to/lastmile_qr_scan"}, "lon": -77.04507516666666, "fusion_lon": 0.0, "is_disabled": 0, "lat": 38.91968333333333, "bike_id": "ecbef3adc88f7325d2080dec050f93b6", "name": "ecbef3adc88f7325d2080dec050f93b6", "is_reserved": 0, "fusion_lat": 0.0}, {"type": "electric_bike", "rental_uris": {"ios": "https://dc.lft.to/lastmile_qr_scan", "android": "https://dc.lft.to/lastmile_qr_scan"}, "lon": -77.034261, "fusion_lon": 0.0, "is_disabled": 0, "lat": 38.96621233333333, "bike_id": "b0112c1d0ac6460e8c9eb3f090648fff", "name": "b0112c1d0ac6460e8c9eb3f090648fff", "is_reserved": 0, "fusion_lat": 0.0}, {"type": "electric_scooter", "rental_uris": {"ios": "https://dc.lft.to/lastmile_qr_scan", "android": "https://dc.lft.to/lastmile_qr_scan"}, "lon": -76.98986133333334, "fusion_lon": 0.0, "is_disabled": 0, "lat": 38.86499283333333, "bike_id": "65b11acc88a5004b12f29432cadbe626", "name": "65b11acc88a5004b12f29432cadbe626", "is_reserved": 0, "fusion_lat": 0.0}, {"type": "electric_bike", "rental_uris": {"ios": "https://dc.lft.to/lastmile_qr_scan", "android": "https://dc.lft.to/lastmile_qr_scan"}, "lon": -77.0496835, "fusion_lon": 0.0, "is_disabled": 0, "lat": 38.832200666666665, "bike_id": "e52d7aa757c37581cdf52e97a5ac4995", "name": "e52d7aa757c37581cdf52e97a5ac4995", "is_reserved": 0, "fusion_lat": 0.0}, {"type": "electric_scooter", "rental_uris": {"ios": "https://dc.lft.to/lastmile_qr_scan", "android": "https://dc.lft.to/lastmile_qr_scan"}, "lon": -77.04478716666667, "fusion_lon": 0.0, "is_disabled": 0, "lat": 38.909421, "bike_id": "758ac72159dae0431284e53eb5e98f59", "name": "758ac72159dae0431284e53eb5e98f59", "is_reserved": 0, "fusion_lat": 0.0}, {"type": "electric_scooter", "rental_uris": {"ios": "https://dc.lft.to/lastmile_qr_scan", "android": "https://dc.lft.to/lastmile_qr_scan"}, "lon": -77.03576333333334, "fusion_lon": 0.0, "is_disabled": 0, "lat": 38.9347655, "bike_id": "a6878229f98894c2d88b3646f6f46eaa", "name": "a6878229f98894c2d88b3646f6f46eaa", "is_reserved": 0, "fusion_lat": 0.0}, {"type": "electric_scooter", "rental_uris": {"ios": "https://dc.lft.to/lastmile_qr_scan", "android": "https://dc.lft.to/lastmile_qr_scan"}, "lon": -77.02611016666667, "fusion_lon": 0.0, "is_disabled": 0, "lat": 38.9014885, "bike_id": "db62f0e78e4e15083582b8b8898b4c76", "name": "db62f0e78e4e15083582b8b8898b4c76", "is_reserved": 0, "fusion_lat": 0.0}, {"type": "electric_bike", "rental_uris": {"ios": "https://dc.lft.to/lastmile_qr_scan", "android": "https://dc.lft.to/lastmile_qr_scan"}, "lon": -77.01283483333333, "fusion_lon": 0.0, "is_disabled": 0, "lat": 38.95668283333333, "bike_id": "6ff05b7a2523208a71c51428c91335f7", "name": "6ff05b7a2523208a71c51428c91335f7", "is_reserved": 0, "fusion_lat": 0.0}, {"type": "electric_scooter", "rental_uris": {"ios": "https://dc.lft.to/lastmile_qr_scan", "android": "https://dc.lft.to/lastmile_qr_scan"}, "lon": -76.99909966666667, "fusion_lon": 0.0, "is_disabled": 0, "lat": 38.94817916666667, "bike_id": "3c5139e2b381ac60b52f816fbd849923", "name": "3c5139e2b381ac60b52f816fbd849923", "is_reserved": 0, "fusion_lat": 0.0}, {"type": "electric_scooter", "rental_uris": {"ios": "https://dc.lft.to/lastmile_qr_scan", "android": "https://dc.lft.to/lastmile_qr_scan"}, "lon": -77.0161905, "fusion_lon": 0.0, "is_disabled": 0, "lat": 38.91593816666666, "bike_id": "79c7c67994c008fee3cefa6d0580d416", "name": "79c7c67994c008fee3cefa6d0580d416", "is_reserved": 0, "fusion_lat": 0.0}, {"type": "electric_bike", "rental_uris": {"ios": "https://dc.lft.to/lastmile_qr_scan", "android": "https://dc.lft.to/lastmile_qr_scan"}, "lon": -77.11056183333334, "fusion_lon": 0.0, "is_disabled": 0, "lat": 38.8707825, "bike_id": "a708bed2442a8d76f7198defdbb444b2", "name": "a708bed2442a8d76f7198defdbb444b2", "is_reserved": 0, "fusion_lat": 0.0}, {"type": "electric_scooter", "rental_uris": {"ios": "https://dc.lft.to/lastmile_qr_scan", "android": "https://dc.lft.to/lastmile_qr_scan"}, "lon": -76.97948766666667, "fusion_lon": 0.0, "is_disabled": 0, "lat": 38.9169215, "bike_id": "c6d161a6f1e42586f1ffb879489ddd96", "name": "c6d161a6f1e42586f1ffb879489ddd96", "is_reserved": 0, "fusion_lat": 0.0}, {"type": "electric_scooter", "rental_uris": {"ios": "https://dc.lft.to/lastmile_qr_scan", "android": "https://dc.lft.to/lastmile_qr_scan"}, "lon": -77.05073783333333, "fusion_lon": 0.0, "is_disabled": 0, "lat": 38.90409016666667, "bike_id": "63ee4fe866baadc3d74154909a376e62", "name": "63ee4fe866baadc3d74154909a376e62", "is_reserved": 0, "fusion_lat": 0.0}, {"type": "electric_scooter", "rental_uris": {"ios": "https://dc.lft.to/lastmile_qr_scan", "android": "https://dc.lft.to/lastmile_qr_scan"}, "lon": -77.02005, "fusion_lon": 0.0, "is_disabled": 0, "lat": 38.90822716666667, "bike_id": "a9294f453ae5b8f2e48d41736a55eb90", "name": "a9294f453ae5b8f2e48d41736a55eb90", "is_reserved": 0, "fusion_lat": 0.0}, {"type": "electric_scooter", "rental_uris": {"ios": "https://dc.lft.to/lastmile_qr_scan", "android": "https://dc.lft.to/lastmile_qr_scan"}, "lon": -77.02127216666666, "fusion_lon": 0.0, "is_disabled": 0, "lat": 38.887436666666666, "bike_id": "673ab1d19635ca72aef49aec26291125", "name": "673ab1d19635ca72aef49aec26291125", "is_reserved": 0, "fusion_lat": 0.0}, {"type": "electric_scooter", "rental_uris": {"ios": "https://dc.lft.to/lastmile_qr_scan", "android": "https://dc.lft.to/lastmile_qr_scan"}, "lon": -77.02170933333333, "fusion_lon": 0.0, "is_disabled": 0, "lat": 38.91478566666667, "bike_id": "b96e4559acd1fccc246688a08dadf68f", "name": "b96e4559acd1fccc246688a08dadf68f", "is_reserved": 0, "fusion_lat": 0.0}, {"type": "electric_scooter", "rental_uris": {"ios": "https://dc.lft.to/lastmile_qr_scan", "android": "https://dc.lft.to/lastmile_qr_scan"}, "lon": -77.06038266666667, "fusion_lon": 0.0, "is_disabled": 0, "lat": 38.94460816666667, "bike_id": "e151f46baafc3874c877bfadf32c232e", "name": "e151f46baafc3874c877bfadf32c232e", "is_reserved": 0, "fusion_lat": 0.0}, {"type": "electric_scooter", "rental_uris": {"ios": "https://dc.lft.to/lastmile_qr_scan", "android": "https://dc.lft.to/lastmile_qr_scan"}, "lon": -77.06057433333334, "fusion_lon": 0.0, "is_disabled": 0, "lat": 38.902316, "bike_id": "a831e04bc4d97249482ccc7fcd0686ca", "name": "a831e04bc4d97249482ccc7fcd0686ca", "is_reserved": 0, "fusion_lat": 0.0}, {"type": "electric_scooter", "rental_uris": {"ios": "https://dc.lft.to/lastmile_qr_scan", "android": "https://dc.lft.to/lastmile_qr_scan"}, "lon": -77.04678983333334, "fusion_lon": 0.0, "is_disabled": 0, "lat": 38.897324166666664, "bike_id": "a422258d48c6d62f6318eb8b59d3b27d", "name": "a422258d48c6d62f6318eb8b59d3b27d", "is_reserved": 0, "fusion_lat": 0.0}, {"type": "electric_scooter", "rental_uris": {"ios": "https://dc.lft.to/lastmile_qr_scan", "android": "https://dc.lft.to/lastmile_qr_scan"}, "lon": -77.03243433333333, "fusion_lon": 0.0, "is_disabled": 0, "lat": 38.908737, "bike_id": "bbbd346b773fca8891e2922da9a96e23", "name": "bbbd346b773fca8891e2922da9a96e23", "is_reserved": 0, "fusion_lat": 0.0}, {"type": "electric_scooter", "rental_uris": {"ios": "https://dc.lft.to/lastmile_qr_scan", "android": "https://dc.lft.to/lastmile_qr_scan"}, "lon": -77.04842783333334, "fusion_lon": 0.0, "is_disabled": 0, "lat": 38.904645, "bike_id": "2eff33898e48409baa9c7b85a2278d1a", "name": "2eff33898e48409baa9c7b85a2278d1a", "is_reserved": 0, "fusion_lat": 0.0}, {"type": "electric_scooter", "rental_uris": {"ios": "https://dc.lft.to/lastmile_qr_scan", "android": "https://dc.lft.to/lastmile_qr_scan"}, "lon": -77.02701283333333, "fusion_lon": 0.0, "is_disabled": 0, "lat": 38.90153083333333, "bike_id": "536cf9e695d55b0768ec8ff2938a53b2", "name": "536cf9e695d55b0768ec8ff2938a53b2", "is_reserved": 0, "fusion_lat": 0.0}, {"type": "electric_scooter", "rental_uris": {"ios": "https://dc.lft.to/lastmile_qr_scan", "android": "https://dc.lft.to/lastmile_qr_scan"}, "lon": -77.03218533333333, "fusion_lon": 0.0, "is_disabled": 0, "lat": 38.90974583333333, "bike_id": "8c5e06eafcdebb0da7eea555211e9ea3", "name": "8c5e06eafcdebb0da7eea555211e9ea3", "is_reserved": 0, "fusion_lat": 0.0}, {"type": "electric_scooter", "rental_uris": {"ios": "https://dc.lft.to/lastmile_qr_scan", "android": "https://dc.lft.to/lastmile_qr_scan"}, "lon": -76.99904233333334, "fusion_lon": 0.0, "is_disabled": 0, "lat": 38.948250333333334, "bike_id": "f42dc986c81b2ac8683934cf5f908cf9", "name": "f42dc986c81b2ac8683934cf5f908cf9", "is_reserved": 0, "fusion_lat": 0.0}, {"type": "electric_scooter", "rental_uris": {"ios": "https://dc.lft.to/lastmile_qr_scan", "android": "https://dc.lft.to/lastmile_qr_scan"}, "lon": -77.0522285, "fusion_lon": 0.0, "is_disabled": 0, "lat": 38.924980166666664, "bike_id": "af470255166e30129f22829528796829", "name": "af470255166e30129f22829528796829", "is_reserved": 0, "fusion_lat": 0.0}, {"type": "electric_scooter", "rental_uris": {"ios": "https://dc.lft.to/lastmile_qr_scan", "android": "https://dc.lft.to/lastmile_qr_scan"}, "lon": -77.03190316666667, "fusion_lon": 0.0, "is_disabled": 0, "lat": 38.91741666666667, "bike_id": "db1d95646aca2a7405b9728cc11e24ec", "name": "db1d95646aca2a7405b9728cc11e24ec", "is_reserved": 0, "fusion_lat": 0.0}, {"type": "electric_scooter", "rental_uris": {"ios": "https://dc.lft.to/lastmile_qr_scan", "android": "https://dc.lft.to/lastmile_qr_scan"}, "lon": -76.936076, "fusion_lon": 0.0, "is_disabled": 0, "lat": 38.896807833333334, "bike_id": "d904b901492c57471e085b93b4b729ef", "name": "d904b901492c57471e085b93b4b729ef", "is_reserved": 0, "fusion_lat": 0.0}, {"type": "electric_bike", "rental_uris": {"ios": "https://dc.lft.to/lastmile_qr_scan", "android": "https://dc.lft.to/lastmile_qr_scan"}, "lon": -77.073799, "fusion_lon": 0.0, "is_disabled": 0, "lat": 38.961808833333336, "bike_id": "4c0e7046b21721aa16c5ec224081c9a2", "name": "4c0e7046b21721aa16c5ec224081c9a2", "is_reserved": 0, "fusion_lat": 0.0}, {"type": "electric_scooter", "rental_uris": {"ios": "https://dc.lft.to/lastmile_qr_scan", "android": "https://dc.lft.to/lastmile_qr_scan"}, "lon": -76.93176583333333, "fusion_lon": 0.0, "is_disabled": 0, "lat": 38.898859333333334, "bike_id": "caa49bda281278580ac98cc53cb912c8", "name": "caa49bda281278580ac98cc53cb912c8", "is_reserved": 0, "fusion_lat": 0.0}, {"type": "electric_bike", "rental_uris": {"ios": "https://dc.lft.to/lastmile_qr_scan", "android": "https://dc.lft.to/lastmile_qr_scan"}, "lon": -77.36093633333333, "fusion_lon": 0.0, "is_disabled": 0, "lat": 38.93949816666667, "bike_id": "8e44a277cf8231933c816187fb35cda5", "name": "8e44a277cf8231933c816187fb35cda5", "is_reserved": 0, "fusion_lat": 0.0}, {"type": "electric_scooter", "rental_uris": {"ios": "https://dc.lft.to/lastmile_qr_scan", "android": "https://dc.lft.to/lastmile_qr_scan"}, "lon": -77.031761, "fusion_lon": 0.0, "is_disabled": 0, "lat": 38.92102216666667, "bike_id": "887d65cdee2d9a92ff508a1642a5900a", "name": "887d65cdee2d9a92ff508a1642a5900a", "is_reserved": 0, "fusion_lat": 0.0}, {"type": "electric_bike", "rental_uris": {"ios": "https://dc.lft.to/lastmile_qr_scan", "android": "https://dc.lft.to/lastmile_qr_scan"}, "lon": -76.88371116666667, "fusion_lon": 0.0, "is_disabled": 0, "lat": 38.99817016666667, "bike_id": "fabd6b3d58827ab917ef62d23190c653", "name": "fabd6b3d58827ab917ef62d23190c653", "is_reserved": 0, "fusion_lat": 0.0}, {"type": "electric_scooter", "rental_uris": {"ios": "https://dc.lft.to/lastmile_qr_scan", "android": "https://dc.lft.to/lastmile_qr_scan"}, "lon": -77.05716633333333, "fusion_lon": 0.0, "is_disabled": 0, "lat": 38.933696166666664, "bike_id": "722dc9da2cba5f34fee4e801e2d05e41", "name": "722dc9da2cba5f34fee4e801e2d05e41", "is_reserved": 0, "fusion_lat": 0.0}, {"type": "electric_scooter", "rental_uris": {"ios": "https://dc.lft.to/lastmile_qr_scan", "android": "https://dc.lft.to/lastmile_qr_scan"}, "lon": -77.0376765, "fusion_lon": 0.0, "is_disabled": 0, "lat": 38.92969466666667, "bike_id": "cd6ea987e8d04c1bd2e2bc99402aff0d", "name": "cd6ea987e8d04c1bd2e2bc99402aff0d", "is_reserved": 0, "fusion_lat": 0.0}, {"type": "electric_scooter", "rental_uris": {"ios": "https://dc.lft.to/lastmile_qr_scan", "android": "https://dc.lft.to/lastmile_qr_scan"}, "lon": -77.03695983333333, "fusion_lon": 0.0, "is_disabled": 0, "lat": 38.92643366666667, "bike_id": "671571d01ffdcfdae23f09af57043312", "name": "671571d01ffdcfdae23f09af57043312", "is_reserved": 0, "fusion_lat": 0.0}, {"type": "electric_scooter", "rental_uris": {"ios": "https://dc.lft.to/lastmile_qr_scan", "android": "https://dc.lft.to/lastmile_qr_scan"}, "lon": -77.02978416666667, "fusion_lon": 0.0, "is_disabled": 0, "lat": 38.90780266666667, "bike_id": "087d41a0d54db895e581ed3c9e7dfa77", "name": "087d41a0d54db895e581ed3c9e7dfa77", "is_reserved": 0, "fusion_lat": 0.0}, {"type": "electric_bike", "rental_uris": {"ios": "https://dc.lft.to/lastmile_qr_scan", "android": "https://dc.lft.to/lastmile_qr_scan"}, "lon": -76.94578633333333, "fusion_lon": 0.0, "is_disabled": 0, "lat": 38.95333866666667, "bike_id": "11ea35b45f0f560d330a86b0c6156c8a", "name": "11ea35b45f0f560d330a86b0c6156c8a", "is_reserved": 0, "fusion_lat": 0.0}, {"type": "electric_bike", "rental_uris": {"ios": "https://dc.lft.to/lastmile_qr_scan", "android": "https://dc.lft.to/lastmile_qr_scan"}, "lon": -76.9899685, "fusion_lon": 0.0, "is_disabled": 0, "lat": 38.9548885, "bike_id": "dd767df6ee9608d356ec7c55ffab025c", "name": "dd767df6ee9608d356ec7c55ffab025c", "is_reserved": 0, "fusion_lat": 0.0}, {"type": "electric_scooter", "rental_uris": {"ios": "https://dc.lft.to/lastmile_qr_scan", "android": "https://dc.lft.to/lastmile_qr_scan"}, "lon": -76.95135133333333, "fusion_lon": 0.0, "is_disabled": 0, "lat": 38.89035916666667, "bike_id": "08e7810c647cd76849f9be8235a52e6a", "name": "08e7810c647cd76849f9be8235a52e6a", "is_reserved": 0, "fusion_lat": 0.0}, {"type": "electric_scooter", "rental_uris": {"ios": "https://dc.lft.to/lastmile_qr_scan", "android": "https://dc.lft.to/lastmile_qr_scan"}, "lon": -77.04644383333333, "fusion_lon": 0.0, "is_disabled": 0, "lat": 38.892226666666666, "bike_id": "03199d297084b8931f4a69243df40029", "name": "03199d297084b8931f4a69243df40029", "is_reserved": 0, "fusion_lat": 0.0}, {"type": "electric_scooter", "rental_uris": {"ios": "https://dc.lft.to/lastmile_qr_scan", "android": "https://dc.lft.to/lastmile_qr_scan"}, "lon": -77.0327655, "fusion_lon": 0.0, "is_disabled": 0, "lat": 38.92745333333333, "bike_id": "6fc2c90bf962c12e8f66e4d2d3f6de14", "name": "6fc2c90bf962c12e8f66e4d2d3f6de14", "is_reserved": 0, "fusion_lat": 0.0}, {"type": "electric_scooter", "rental_uris": {"ios": "https://dc.lft.to/lastmile_qr_scan", "android": "https://dc.lft.to/lastmile_qr_scan"}, "lon": -77.03179766666666, "fusion_lon": 0.0, "is_disabled": 0, "lat": 38.9210685, "bike_id": "42f442b22f348c4fedc21726630a822e", "name": "42f442b22f348c4fedc21726630a822e", "is_reserved": 0, "fusion_lat": 0.0}, {"type": "electric_scooter", "rental_uris": {"ios": "https://dc.lft.to/lastmile_qr_scan", "android": "https://dc.lft.to/lastmile_qr_scan"}, "lon": -76.93040033333334, "fusion_lon": 0.0, "is_disabled": 0, "lat": 38.895696, "bike_id": "1f38ca64a53f6eb1b33b9bc1c5b3e03b", "name": "1f38ca64a53f6eb1b33b9bc1c5b3e03b", "is_reserved": 0, "fusion_lat": 0.0}, {"type": "electric_bike", "rental_uris": {"ios": "https://dc.lft.to/lastmile_qr_scan", "android": "https://dc.lft.to/lastmile_qr_scan"}, "lon": -77.02628083333333, "fusion_lon": 0.0, "is_disabled": 0, "lat": 38.962283, "bike_id": "e4d861faa1ef5566eb42b7544a8fee65", "name": "e4d861faa1ef5566eb42b7544a8fee65", "is_reserved": 0, "fusion_lat": 0.0}, {"type": "electric_scooter", "rental_uris": {"ios": "https://dc.lft.to/lastmile_qr_scan", "android": "https://dc.lft.to/lastmile_qr_scan"}, "lon": -77.03219116666666, "fusion_lon": 0.0, "is_disabled": 0, "lat": 38.8922145, "bike_id": "4aba5c11b3c9ec0bdab5e748c14301fc", "name": "4aba5c11b3c9ec0bdab5e748c14301fc", "is_reserved": 0, "fusion_lat": 0.0}, {"type": "electric_scooter", "rental_uris": {"ios": "https://dc.lft.to/lastmile_qr_scan", "android": "https://dc.lft.to/lastmile_qr_scan"}, "lon": -77.04502666666667, "fusion_lon": 0.0, "is_disabled": 0, "lat": 38.90796516666666, "bike_id": "f2faa8f4dbe7905dceac625b206cc528", "name": "f2faa8f4dbe7905dceac625b206cc528", "is_reserved": 0, "fusion_lat": 0.0}, {"type": "electric_scooter", "rental_uris": {"ios": "https://dc.lft.to/lastmile_qr_scan", "android": "https://dc.lft.to/lastmile_qr_scan"}, "lon": -77.034091, "fusion_lon": 0.0, "is_disabled": 0, "lat": 38.92744483333333, "bike_id": "2fbd0c106671a9aab8d064c58e0ecac4", "name": "2fbd0c106671a9aab8d064c58e0ecac4", "is_reserved": 0, "fusion_lat": 0.0}, {"type": "electric_scooter", "rental_uris": {"ios": "https://dc.lft.to/lastmile_qr_scan", "android": "https://dc.lft.to/lastmile_qr_scan"}, "lon": -77.03473816666667, "fusion_lon": 0.0, "is_disabled": 0, "lat": 38.9298785, "bike_id": "529deaaf605b62b33940c757fa8a9766", "name": "529deaaf605b62b33940c757fa8a9766", "is_reserved": 0, "fusion_lat": 0.0}, {"type": "electric_scooter", "rental_uris": {"ios": "https://dc.lft.to/lastmile_qr_scan", "android": "https://dc.lft.to/lastmile_qr_scan"}, "lon": -77.03163366666666, "fusion_lon": 0.0, "is_disabled": 0, "lat": 38.89223233333333, "bike_id": "0bf0c48f238db8dd166dc66e9478d963", "name": "0bf0c48f238db8dd166dc66e9478d963", "is_reserved": 0, "fusion_lat": 0.0}, {"type": "electric_scooter", "rental_uris": {"ios": "https://dc.lft.to/lastmile_qr_scan", "android": "https://dc.lft.to/lastmile_qr_scan"}, "lon": -77.04268616666667, "fusion_lon": 0.0, "is_disabled": 0, "lat": 38.91335433333333, "bike_id": "42198d186b060ffdd4ccc2740e6a8162", "name": "42198d186b060ffdd4ccc2740e6a8162", "is_reserved": 0, "fusion_lat": 0.0}, {"type": "electric_scooter", "rental_uris": {"ios": "https://dc.lft.to/lastmile_qr_scan", "android": "https://dc.lft.to/lastmile_qr_scan"}, "lon": -77.03187766666667, "fusion_lon": 0.0, "is_disabled": 0, "lat": 38.9211885, "bike_id": "6eafb00c841ef1824cda59dba55c29b7", "name": "6eafb00c841ef1824cda59dba55c29b7", "is_reserved": 0, "fusion_lat": 0.0}, {"type": "electric_scooter", "rental_uris": {"ios": "https://dc.lft.to/lastmile_qr_scan", "android": "https://dc.lft.to/lastmile_qr_scan"}, "lon": -77.04666833333333, "fusion_lon": 0.0, "is_disabled": 0, "lat": 38.90944266666666, "bike_id": "b8ae20a082a5fddb21f47e2d5740417d", "name": "b8ae20a082a5fddb21f47e2d5740417d", "is_reserved": 0, "fusion_lat": 0.0}, {"type": "electric_scooter", "rental_uris": {"ios": "https://dc.lft.to/lastmile_qr_scan", "android": "https://dc.lft.to/lastmile_qr_scan"}, "lon": -77.03731766666667, "fusion_lon": 0.0, "is_disabled": 0, "lat": 38.9309555, "bike_id": "670ed41ccc1503bf6fb9e55076350983", "name": "670ed41ccc1503bf6fb9e55076350983", "is_reserved": 0, "fusion_lat": 0.0}, {"type": "electric_scooter", "rental_uris": {"ios": "https://dc.lft.to/lastmile_qr_scan", "android": "https://dc.lft.to/lastmile_qr_scan"}, "lon": -76.97921766666667, "fusion_lon": 0.0, "is_disabled": 0, "lat": 38.90500866666667, "bike_id": "638a480986329688d48afbf3e606dd92", "name": "638a480986329688d48afbf3e606dd92", "is_reserved": 0, "fusion_lat": 0.0}, {"type": "electric_scooter", "rental_uris": {"ios": "https://dc.lft.to/lastmile_qr_scan", "android": "https://dc.lft.to/lastmile_qr_scan"}, "lon": -77.03175466666667, "fusion_lon": 0.0, "is_disabled": 0, "lat": 38.918692666666665, "bike_id": "73980930e3cef092da7012ed8a655d6c", "name": "73980930e3cef092da7012ed8a655d6c", "is_reserved": 0, "fusion_lat": 0.0}, {"type": "electric_scooter", "rental_uris": {"ios": "https://dc.lft.to/lastmile_qr_scan", "android": "https://dc.lft.to/lastmile_qr_scan"}, "lon": -77.03220016666667, "fusion_lon": 0.0, "is_disabled": 0, "lat": 38.89222483333333, "bike_id": "53f9cd787ae8416c3a68b3266c998b01", "name": "53f9cd787ae8416c3a68b3266c998b01", "is_reserved": 0, "fusion_lat": 0.0}, {"type": "electric_scooter", "rental_uris": {"ios": "https://dc.lft.to/lastmile_qr_scan", "android": "https://dc.lft.to/lastmile_qr_scan"}, "lon": -77.00912416666667, "fusion_lon": 0.0, "is_disabled": 0, "lat": 38.89546416666666, "bike_id": "348d59fda247c0a41c48294a9f8e456a", "name": "348d59fda247c0a41c48294a9f8e456a", "is_reserved": 0, "fusion_lat": 0.0}, {"type": "electric_scooter", "rental_uris": {"ios": "https://dc.lft.to/lastmile_qr_scan", "android": "https://dc.lft.to/lastmile_qr_scan"}, "lon": -77.0216375, "fusion_lon": 0.0, "is_disabled": 0, "lat": 38.9307745, "bike_id": "cc265cea92911d2d8cc61692245c10cd", "name": "cc265cea92911d2d8cc61692245c10cd", "is_reserved": 0, "fusion_lat": 0.0}, {"type": "electric_scooter", "rental_uris": {"ios": "https://dc.lft.to/lastmile_qr_scan", "android": "https://dc.lft.to/lastmile_qr_scan"}, "lon": -77.07515183333334, "fusion_lon": 0.0, "is_disabled": 0, "lat": 38.9394495, "bike_id": "07d5b0c6fb40ce6abb5995f17d47f67c", "name": "07d5b0c6fb40ce6abb5995f17d47f67c", "is_reserved": 0, "fusion_lat": 0.0}, {"type": "electric_scooter", "rental_uris": {"ios": "https://dc.lft.to/lastmile_qr_scan", "android": "https://dc.lft.to/lastmile_qr_scan"}, "lon": -77.02689083333334, "fusion_lon": 0.0, "is_disabled": 0, "lat": 38.92588816666667, "bike_id": "21d527db1b83d4da69e1fe3df3c9c5af", "name": "21d527db1b83d4da69e1fe3df3c9c5af", "is_reserved": 0, "fusion_lat": 0.0}, {"type": "electric_scooter", "rental_uris": {"ios": "https://dc.lft.to/lastmile_qr_scan", "android": "https://dc.lft.to/lastmile_qr_scan"}, "lon": -77.04449916666667, "fusion_lon": 0.0, "is_disabled": 0, "lat": 38.924188, "bike_id": "e8d1a0198b0579fb12fe8f0bf698c889", "name": "e8d1a0198b0579fb12fe8f0bf698c889", "is_reserved": 0, "fusion_lat": 0.0}, {"type": "electric_scooter", "rental_uris": {"ios": "https://dc.lft.to/lastmile_qr_scan", "android": "https://dc.lft.to/lastmile_qr_scan"}, "lon": -76.99209383333333, "fusion_lon": 0.0, "is_disabled": 0, "lat": 38.903656, "bike_id": "7e5344f25cbf94a3d195032ec8f2f800", "name": "7e5344f25cbf94a3d195032ec8f2f800", "is_reserved": 0, "fusion_lat": 0.0}, {"type": "electric_bike", "rental_uris": {"ios": "https://dc.lft.to/lastmile_qr_scan", "android": "https://dc.lft.to/lastmile_qr_scan"}, "lon": -77.09473283333334, "fusion_lon": 0.0, "is_disabled": 0, "lat": 39.03047816666667, "bike_id": "731adcfa91a80d5a2b03bb8f37b15bc8", "name": "731adcfa91a80d5a2b03bb8f37b15bc8", "is_reserved": 0, "fusion_lat": 0.0}, {"type": "electric_scooter", "rental_uris": {"ios": "https://dc.lft.to/lastmile_qr_scan", "android": "https://dc.lft.to/lastmile_qr_scan"}, "lon": -76.94890583333333, "fusion_lon": 0.0, "is_disabled": 0, "lat": 38.8952905, "bike_id": "f0446f9bef7a5f575452bd2f8d7a36aa", "name": "f0446f9bef7a5f575452bd2f8d7a36aa", "is_reserved": 0, "fusion_lat": 0.0}, {"type": "electric_scooter", "rental_uris": {"ios": "https://dc.lft.to/lastmile_qr_scan", "android": "https://dc.lft.to/lastmile_qr_scan"}, "lon": -77.02841233333334, "fusion_lon": 0.0, "is_disabled": 0, "lat": 38.961105, "bike_id": "cf70b4e9c33efb93f24a73b0428dc0ff", "name": "cf70b4e9c33efb93f24a73b0428dc0ff", "is_reserved": 0, "fusion_lat": 0.0}, {"type": "electric_scooter", "rental_uris": {"ios": "https://dc.lft.to/lastmile_qr_scan", "android": "https://dc.lft.to/lastmile_qr_scan"}, "lon": -76.98480483333333, "fusion_lon": 0.0, "is_disabled": 0, "lat": 38.913085, "bike_id": "8e2ec6f437aa61978b55bf730145cf3c", "name": "8e2ec6f437aa61978b55bf730145cf3c", "is_reserved": 0, "fusion_lat": 0.0}, {"type": "electric_scooter", "rental_uris": {"ios": "https://dc.lft.to/lastmile_qr_scan", "android": "https://dc.lft.to/lastmile_qr_scan"}, "lon": -77.02490833333333, "fusion_lon": 0.0, "is_disabled": 0, "lat": 38.919466166666666, "bike_id": "20f9aa51f0fdcd5dc2195290e093658b", "name": "20f9aa51f0fdcd5dc2195290e093658b", "is_reserved": 0, "fusion_lat": 0.0}, {"type": "electric_scooter", "rental_uris": {"ios": "https://dc.lft.to/lastmile_qr_scan", "android": "https://dc.lft.to/lastmile_qr_scan"}, "lon": -77.03092766666667, "fusion_lon": 0.0, "is_disabled": 0, "lat": 38.9385705, "bike_id": "519a499cec3fb568e6e6e6dcbba479b9", "name": "519a499cec3fb568e6e6e6dcbba479b9", "is_reserved": 0, "fusion_lat": 0.0}, {"type": "electric_scooter", "rental_uris": {"ios": "https://dc.lft.to/lastmile_qr_scan", "android": "https://dc.lft.to/lastmile_qr_scan"}, "lon": -77.0116185, "fusion_lon": 0.0, "is_disabled": 0, "lat": 38.90033116666667, "bike_id": "ea7bb8a6e916b6a68353a71f42672a3e", "name": "ea7bb8a6e916b6a68353a71f42672a3e", "is_reserved": 0, "fusion_lat": 0.0}, {"type": "electric_bike", "rental_uris": {"ios": "https://dc.lft.to/lastmile_qr_scan", "android": "https://dc.lft.to/lastmile_qr_scan"}, "lon": -77.06077383333333, "fusion_lon": 0.0, "is_disabled": 0, "lat": 38.8857895, "bike_id": "ecc6436ffa3b194bc8bbdd8edcf75edc", "name": "ecc6436ffa3b194bc8bbdd8edcf75edc", "is_reserved": 0, "fusion_lat": 0.0}, {"type": "electric_scooter", "rental_uris": {"ios": "https://dc.lft.to/lastmile_qr_scan", "android": "https://dc.lft.to/lastmile_qr_scan"}, "lon": -77.0219695, "fusion_lon": 0.0, "is_disabled": 0, "lat": 38.911288166666665, "bike_id": "85263167ca84a938d013c58e4b3e6b85", "name": "85263167ca84a938d013c58e4b3e6b85", "is_reserved": 0, "fusion_lat": 0.0}, {"type": "electric_bike", "rental_uris": {"ios": "https://dc.lft.to/lastmile_qr_scan", "android": "https://dc.lft.to/lastmile_qr_scan"}, "lon": -77.13096433333334, "fusion_lon": 0.0, "is_disabled": 0, "lat": 39.02432366666667, "bike_id": "21b1b0106e56007905f47de323ef978f", "name": "21b1b0106e56007905f47de323ef978f", "is_reserved": 0, "fusion_lat": 0.0}, {"type": "electric_scooter", "rental_uris": {"ios": "https://dc.lft.to/lastmile_qr_scan", "android": "https://dc.lft.to/lastmile_qr_scan"}, "lon": -77.004627, "fusion_lon": 0.0, "is_disabled": 0, "lat": 38.91105116666667, "bike_id": "f5a9bc037ea285e2e04659d818b97c5d", "name": "f5a9bc037ea285e2e04659d818b97c5d", "is_reserved": 0, "fusion_lat": 0.0}, {"type": "electric_scooter", "rental_uris": {"ios": "https://dc.lft.to/lastmile_qr_scan", "android": "https://dc.lft.to/lastmile_qr_scan"}, "lon": -77.02649033333333, "fusion_lon": 0.0, "is_disabled": 0, "lat": 38.892215, "bike_id": "c075085f105f056b7472b1dc09d3b8c0", "name": "c075085f105f056b7472b1dc09d3b8c0", "is_reserved": 0, "fusion_lat": 0.0}, {"type": "electric_scooter", "rental_uris": {"ios": "https://dc.lft.to/lastmile_qr_scan", "android": "https://dc.lft.to/lastmile_qr_scan"}, "lon": -77.03284816666667, "fusion_lon": 0.0, "is_disabled": 0, "lat": 38.9077425, "bike_id": "0f5bf3ef5d22d78ce18e233042086188", "name": "0f5bf3ef5d22d78ce18e233042086188", "is_reserved": 0, "fusion_lat": 0.0}, {"type": "electric_scooter", "rental_uris": {"ios": "https://dc.lft.to/lastmile_qr_scan", "android": "https://dc.lft.to/lastmile_qr_scan"}, "lon": -77.025145, "fusion_lon": 0.0, "is_disabled": 0, "lat": 38.9462055, "bike_id": "26505de4d762a3a2f901d730df76a1b6", "name": "26505de4d762a3a2f901d730df76a1b6", "is_reserved": 0, "fusion_lat": 0.0}, {"type": "electric_scooter", "rental_uris": {"ios": "https://dc.lft.to/lastmile_qr_scan", "android": "https://dc.lft.to/lastmile_qr_scan"}, "lon": -77.03336916666666, "fusion_lon": 0.0, "is_disabled": 0, "lat": 38.917032, "bike_id": "a0c4a79487e85a33207fcaa185b073fc", "name": "a0c4a79487e85a33207fcaa185b073fc", "is_reserved": 0, "fusion_lat": 0.0}, {"type": "electric_scooter", "rental_uris": {"ios": "https://dc.lft.to/lastmile_qr_scan", "android": "https://dc.lft.to/lastmile_qr_scan"}, "lon": -77.03538633333334, "fusion_lon": 0.0, "is_disabled": 0, "lat": 38.92384916666666, "bike_id": "5d7b4765c3cb653804afb0ef3a0a674f", "name": "5d7b4765c3cb653804afb0ef3a0a674f", "is_reserved": 0, "fusion_lat": 0.0}, {"type": "electric_bike", "rental_uris": {"ios": "https://dc.lft.to/lastmile_qr_scan", "android": "https://dc.lft.to/lastmile_qr_scan"}, "lon": -77.05636216666667, "fusion_lon": 0.0, "is_disabled": 0, "lat": 38.986473333333336, "bike_id": "34a29c942fa20d45f0cd2726185861b3", "name": "34a29c942fa20d45f0cd2726185861b3", "is_reserved": 0, "fusion_lat": 0.0}, {"type": "electric_scooter", "rental_uris": {"ios": "https://dc.lft.to/lastmile_qr_scan", "android": "https://dc.lft.to/lastmile_qr_scan"}, "lon": -77.040094, "fusion_lon": 0.0, "is_disabled": 0, "lat": 38.917933, "bike_id": "35b03abf26901141b2d903ffd3619f10", "name": "35b03abf26901141b2d903ffd3619f10", "is_reserved": 0, "fusion_lat": 0.0}, {"type": "electric_scooter", "rental_uris": {"ios": "https://dc.lft.to/lastmile_qr_scan", "android": "https://dc.lft.to/lastmile_qr_scan"}, "lon": -77.0375325, "fusion_lon": 0.0, "is_disabled": 0, "lat": 38.92590333333333, "bike_id": "4d2f0f222c816d7c56c8260480d4fa7b", "name": "4d2f0f222c816d7c56c8260480d4fa7b", "is_reserved": 0, "fusion_lat": 0.0}, {"type": "electric_scooter", "rental_uris": {"ios": "https://dc.lft.to/lastmile_qr_scan", "android": "https://dc.lft.to/lastmile_qr_scan"}, "lon": -77.0531195, "fusion_lon": 0.0, "is_disabled": 0, "lat": 38.927853166666665, "bike_id": "be1d181f0c5cdf4d0320d1e579e21d14", "name": "be1d181f0c5cdf4d0320d1e579e21d14", "is_reserved": 0, "fusion_lat": 0.0}, {"type": "electric_scooter", "rental_uris": {"ios": "https://dc.lft.to/lastmile_qr_scan", "android": "https://dc.lft.to/lastmile_qr_scan"}, "lon": -77.02533983333333, "fusion_lon": 0.0, "is_disabled": 0, "lat": 38.9237185, "bike_id": "8e104d9ea27592075176212054e73682", "name": "8e104d9ea27592075176212054e73682", "is_reserved": 0, "fusion_lat": 0.0}, {"type": "electric_scooter", "rental_uris": {"ios": "https://dc.lft.to/lastmile_qr_scan", "android": "https://dc.lft.to/lastmile_qr_scan"}, "lon": -77.02333, "fusion_lon": 0.0, "is_disabled": 0, "lat": 38.922987166666665, "bike_id": "87469034c0a133060ce91d4b9720fbf3", "name": "87469034c0a133060ce91d4b9720fbf3", "is_reserved": 0, "fusion_lat": 0.0}, {"type": "electric_scooter", "rental_uris": {"ios": "https://dc.lft.to/lastmile_qr_scan", "android": "https://dc.lft.to/lastmile_qr_scan"}, "lon": -77.05027316666667, "fusion_lon": 0.0, "is_disabled": 0, "lat": 38.9236285, "bike_id": "6eb62c1d1914bf0bd590e20e165f2f5a", "name": "6eb62c1d1914bf0bd590e20e165f2f5a", "is_reserved": 0, "fusion_lat": 0.0}, {"type": "electric_scooter", "rental_uris": {"ios": "https://dc.lft.to/lastmile_qr_scan", "android": "https://dc.lft.to/lastmile_qr_scan"}, "lon": -77.0219695, "fusion_lon": 0.0, "is_disabled": 0, "lat": 38.932944, "bike_id": "f28869d344df18f1404265694de51068", "name": "f28869d344df18f1404265694de51068", "is_reserved": 0, "fusion_lat": 0.0}, {"type": "electric_scooter", "rental_uris": {"ios": "https://dc.lft.to/lastmile_qr_scan", "android": "https://dc.lft.to/lastmile_qr_scan"}, "lon": -77.03762366666666, "fusion_lon": 0.0, "is_disabled": 0, "lat": 38.916914, "bike_id": "0e71071dbe487df66b8f3e9c4fd4bce6", "name": "0e71071dbe487df66b8f3e9c4fd4bce6", "is_reserved": 0, "fusion_lat": 0.0}, {"type": "electric_scooter", "rental_uris": {"ios": "https://dc.lft.to/lastmile_qr_scan", "android": "https://dc.lft.to/lastmile_qr_scan"}, "lon": -77.0376415, "fusion_lon": 0.0, "is_disabled": 0, "lat": 38.91117783333333, "bike_id": "860e7de3f0921b2223021ae51c6691c3", "name": "860e7de3f0921b2223021ae51c6691c3", "is_reserved": 0, "fusion_lat": 0.0}, {"type": "electric_scooter", "rental_uris": {"ios": "https://dc.lft.to/lastmile_qr_scan", "android": "https://dc.lft.to/lastmile_qr_scan"}, "lon": -77.02178766666667, "fusion_lon": 0.0, "is_disabled": 0, "lat": 38.91479183333333, "bike_id": "015853260854718bef1eb9e3015cf94c", "name": "015853260854718bef1eb9e3015cf94c", "is_reserved": 0, "fusion_lat": 0.0}, {"type": "electric_scooter", "rental_uris": {"ios": "https://dc.lft.to/lastmile_qr_scan", "android": "https://dc.lft.to/lastmile_qr_scan"}, "lon": -76.98983733333333, "fusion_lon": 0.0, "is_disabled": 0, "lat": 38.86495816666667, "bike_id": "03c8b60b8758632552e08a7460ddd819", "name": "03c8b60b8758632552e08a7460ddd819", "is_reserved": 0, "fusion_lat": 0.0}, {"type": "electric_scooter", "rental_uris": {"ios": "https://dc.lft.to/lastmile_qr_scan", "android": "https://dc.lft.to/lastmile_qr_scan"}, "lon": -77.01540666666666, "fusion_lon": 0.0, "is_disabled": 0, "lat": 38.8916605, "bike_id": "a1eeebee475ca0beadc0c609ce003e6b", "name": "a1eeebee475ca0beadc0c609ce003e6b", "is_reserved": 0, "fusion_lat": 0.0}, {"type": "electric_scooter", "rental_uris": {"ios": "https://dc.lft.to/lastmile_qr_scan", "android": "https://dc.lft.to/lastmile_qr_scan"}, "lon": -77.0137425, "fusion_lon": 0.0, "is_disabled": 0, "lat": 38.89227666666667, "bike_id": "6e83b808ebb8baba04e75d6b37102514", "name": "6e83b808ebb8baba04e75d6b37102514", "is_reserved": 0, "fusion_lat": 0.0}, {"type": "electric_scooter", "rental_uris": {"ios": "https://dc.lft.to/lastmile_qr_scan", "android": "https://dc.lft.to/lastmile_qr_scan"}, "lon": -77.03712216666666, "fusion_lon": 0.0, "is_disabled": 0, "lat": 38.928256833333336, "bike_id": "6cf89ef8c7398dadaafc7c276fed8c93", "name": "6cf89ef8c7398dadaafc7c276fed8c93", "is_reserved": 0, "fusion_lat": 0.0}, {"type": "electric_scooter", "rental_uris": {"ios": "https://dc.lft.to/lastmile_qr_scan", "android": "https://dc.lft.to/lastmile_qr_scan"}, "lon": -76.99247883333334, "fusion_lon": 0.0, "is_disabled": 0, "lat": 38.86383516666667, "bike_id": "5f2636eca38b7fd2f2074c2504f910dc", "name": "5f2636eca38b7fd2f2074c2504f910dc", "is_reserved": 0, "fusion_lat": 0.0}, {"type": "electric_scooter", "rental_uris": {"ios": "https://dc.lft.to/lastmile_qr_scan", "android": "https://dc.lft.to/lastmile_qr_scan"}, "lon": -77.03255933333334, "fusion_lon": 0.0, "is_disabled": 0, "lat": 38.939715666666665, "bike_id": "922ffa82b4c8fc10f37d9c15598e89a6", "name": "922ffa82b4c8fc10f37d9c15598e89a6", "is_reserved": 0, "fusion_lat": 0.0}, {"type": "electric_scooter", "rental_uris": {"ios": "https://dc.lft.to/lastmile_qr_scan", "android": "https://dc.lft.to/lastmile_qr_scan"}, "lon": -77.01756583333334, "fusion_lon": 0.0, "is_disabled": 0, "lat": 38.877109833333336, "bike_id": "2bed78fc8283c394f28bed8706adf8b4", "name": "2bed78fc8283c394f28bed8706adf8b4", "is_reserved": 0, "fusion_lat": 0.0}, {"type": "electric_scooter", "rental_uris": {"ios": "https://dc.lft.to/lastmile_qr_scan", "android": "https://dc.lft.to/lastmile_qr_scan"}, "lon": -77.028013, "fusion_lon": 0.0, "is_disabled": 0, "lat": 38.93097133333333, "bike_id": "10434afefe5a6e06314a6049f9185329", "name": "10434afefe5a6e06314a6049f9185329", "is_reserved": 0, "fusion_lat": 0.0}, {"type": "electric_scooter", "rental_uris": {"ios": "https://dc.lft.to/lastmile_qr_scan", "android": "https://dc.lft.to/lastmile_qr_scan"}, "lon": -77.03469466666667, "fusion_lon": 0.0, "is_disabled": 0, "lat": 38.90956966666667, "bike_id": "dd5f84fe5e9d903d13674b8e7cc78658", "name": "dd5f84fe5e9d903d13674b8e7cc78658", "is_reserved": 0, "fusion_lat": 0.0}, {"type": "electric_scooter", "rental_uris": {"ios": "https://dc.lft.to/lastmile_qr_scan", "android": "https://dc.lft.to/lastmile_qr_scan"}, "lon": -76.98375433333334, "fusion_lon": 0.0, "is_disabled": 0, "lat": 38.8611165, "bike_id": "77cb8f0b67a5b45cb1017b1eca01ea76", "name": "77cb8f0b67a5b45cb1017b1eca01ea76", "is_reserved": 0, "fusion_lat": 0.0}, {"type": "electric_scooter", "rental_uris": {"ios": "https://dc.lft.to/lastmile_qr_scan", "android": "https://dc.lft.to/lastmile_qr_scan"}, "lon": -77.03453516666667, "fusion_lon": 0.0, "is_disabled": 0, "lat": 38.906283333333334, "bike_id": "1f44dd7bf0cf2d1591dbe8cc52cef7b8", "name": "1f44dd7bf0cf2d1591dbe8cc52cef7b8", "is_reserved": 0, "fusion_lat": 0.0}, {"type": "electric_scooter", "rental_uris": {"ios": "https://dc.lft.to/lastmile_qr_scan", "android": "https://dc.lft.to/lastmile_qr_scan"}, "lon": -77.02635216666667, "fusion_lon": 0.0, "is_disabled": 0, "lat": 38.91065, "bike_id": "c1bfb1da169c7a14ea8844287285aba5", "name": "c1bfb1da169c7a14ea8844287285aba5", "is_reserved": 0, "fusion_lat": 0.0}, {"type": "electric_scooter", "rental_uris": {"ios": "https://dc.lft.to/lastmile_qr_scan", "android": "https://dc.lft.to/lastmile_qr_scan"}, "lon": -77.04398716666667, "fusion_lon": 0.0, "is_disabled": 0, "lat": 38.924484666666665, "bike_id": "abf260cd8d07b24091d9ebb155bbf0ae", "name": "abf260cd8d07b24091d9ebb155bbf0ae", "is_reserved": 0, "fusion_lat": 0.0}, {"type": "electric_scooter", "rental_uris": {"ios": "https://dc.lft.to/lastmile_qr_scan", "android": "https://dc.lft.to/lastmile_qr_scan"}, "lon": -76.97232233333334, "fusion_lon": 0.0, "is_disabled": 0, "lat": 38.854525, "bike_id": "f48370d10f1f642f0bdfb8b3a00e7476", "name": "f48370d10f1f642f0bdfb8b3a00e7476", "is_reserved": 0, "fusion_lat": 0.0}, {"type": "electric_scooter", "rental_uris": {"ios": "https://dc.lft.to/lastmile_qr_scan", "android": "https://dc.lft.to/lastmile_qr_scan"}, "lon": -77.02175116666666, "fusion_lon": 0.0, "is_disabled": 0, "lat": 38.916630166666664, "bike_id": "2db033374c8bd589c914e89956af04cb", "name": "2db033374c8bd589c914e89956af04cb", "is_reserved": 0, "fusion_lat": 0.0}, {"type": "electric_scooter", "rental_uris": {"ios": "https://dc.lft.to/lastmile_qr_scan", "android": "https://dc.lft.to/lastmile_qr_scan"}, "lon": -77.040374, "fusion_lon": 0.0, "is_disabled": 0, "lat": 38.918558833333336, "bike_id": "3b3b908e6c2d7aa36c7ffbc8b91c6132", "name": "3b3b908e6c2d7aa36c7ffbc8b91c6132", "is_reserved": 0, "fusion_lat": 0.0}, {"type": "electric_scooter", "rental_uris": {"ios": "https://dc.lft.to/lastmile_qr_scan", "android": "https://dc.lft.to/lastmile_qr_scan"}, "lon": -77.02383733333333, "fusion_lon": 0.0, "is_disabled": 0, "lat": 38.906256166666665, "bike_id": "cd2194c297d6bc2e6f1ca74b245adca2", "name": "cd2194c297d6bc2e6f1ca74b245adca2", "is_reserved": 0, "fusion_lat": 0.0}, {"type": "electric_scooter", "rental_uris": {"ios": "https://dc.lft.to/lastmile_qr_scan", "android": "https://dc.lft.to/lastmile_qr_scan"}, "lon": -77.017058, "fusion_lon": 0.0, "is_disabled": 0, "lat": 38.9138395, "bike_id": "b21cd3e246b56c0b0c5e3443cc70931a", "name": "b21cd3e246b56c0b0c5e3443cc70931a", "is_reserved": 0, "fusion_lat": 0.0}, {"type": "electric_scooter", "rental_uris": {"ios": "https://dc.lft.to/lastmile_qr_scan", "android": "https://dc.lft.to/lastmile_qr_scan"}, "lon": -77.0248905, "fusion_lon": 0.0, "is_disabled": 0, "lat": 38.9418345, "bike_id": "2218618bb77491071fc6a597e33dcd05", "name": "2218618bb77491071fc6a597e33dcd05", "is_reserved": 0, "fusion_lat": 0.0}, {"type": "electric_scooter", "rental_uris": {"ios": "https://dc.lft.to/lastmile_qr_scan", "android": "https://dc.lft.to/lastmile_qr_scan"}, "lon": -77.0585675, "fusion_lon": 0.0, "is_disabled": 0, "lat": 38.93550716666667, "bike_id": "ea70b84834de4920047880dfd3ba47d3", "name": "ea70b84834de4920047880dfd3ba47d3", "is_reserved": 0, "fusion_lat": 0.0}, {"type": "electric_scooter", "rental_uris": {"ios": "https://dc.lft.to/lastmile_qr_scan", "android": "https://dc.lft.to/lastmile_qr_scan"}, "lon": -77.036903, "fusion_lon": 0.0, "is_disabled": 0, "lat": 38.926156, "bike_id": "c4c6d7102fcef80c585d3339967724e7", "name": "c4c6d7102fcef80c585d3339967724e7", "is_reserved": 0, "fusion_lat": 0.0}, {"type": "electric_scooter", "rental_uris": {"ios": "https://dc.lft.to/lastmile_qr_scan", "android": "https://dc.lft.to/lastmile_qr_scan"}, "lon": -77.03259083333333, "fusion_lon": 0.0, "is_disabled": 0, "lat": 38.9156395, "bike_id": "acced67b7f2e9a1ed3817f9a1c4f72eb", "name": "acced67b7f2e9a1ed3817f9a1c4f72eb", "is_reserved": 0, "fusion_lat": 0.0}, {"type": "electric_scooter", "rental_uris": {"ios": "https://dc.lft.to/lastmile_qr_scan", "android": "https://dc.lft.to/lastmile_qr_scan"}, "lon": -77.03840966666667, "fusion_lon": 0.0, "is_disabled": 0, "lat": 38.90835366666667, "bike_id": "18fcbc3d73ef9c2a5f2523f33e81664d", "name": "18fcbc3d73ef9c2a5f2523f33e81664d", "is_reserved": 0, "fusion_lat": 0.0}, {"type": "electric_scooter", "rental_uris": {"ios": "https://dc.lft.to/lastmile_qr_scan", "android": "https://dc.lft.to/lastmile_qr_scan"}, "lon": -77.03151016666666, "fusion_lon": 0.0, "is_disabled": 0, "lat": 38.91564566666667, "bike_id": "66ed2a7fa8129cfe622136a21337f09d", "name": "66ed2a7fa8129cfe622136a21337f09d", "is_reserved": 0, "fusion_lat": 0.0}, {"type": "electric_scooter", "rental_uris": {"ios": "https://dc.lft.to/lastmile_qr_scan", "android": "https://dc.lft.to/lastmile_qr_scan"}, "lon": -76.99852516666667, "fusion_lon": 0.0, "is_disabled": 0, "lat": 38.901615, "bike_id": "9d40e49bad5015b749b00d07e5d1d82e", "name": "9d40e49bad5015b749b00d07e5d1d82e", "is_reserved": 0, "fusion_lat": 0.0}, {"type": "electric_scooter", "rental_uris": {"ios": "https://dc.lft.to/lastmile_qr_scan", "android": "https://dc.lft.to/lastmile_qr_scan"}, "lon": -77.043366, "fusion_lon": 0.0, "is_disabled": 0, "lat": 38.89225833333333, "bike_id": "c46ae3212c6511c9cb75cf2b1317cbbb", "name": "c46ae3212c6511c9cb75cf2b1317cbbb", "is_reserved": 0, "fusion_lat": 0.0}, {"type": "electric_scooter", "rental_uris": {"ios": "https://dc.lft.to/lastmile_qr_scan", "android": "https://dc.lft.to/lastmile_qr_scan"}, "lon": -76.99013166666667, "fusion_lon": 0.0, "is_disabled": 0, "lat": 38.83373983333333, "bike_id": "0f55b46fe459ffd90f2e2adfe16329a7", "name": "0f55b46fe459ffd90f2e2adfe16329a7", "is_reserved": 0, "fusion_lat": 0.0}, {"type": "electric_scooter", "rental_uris": {"ios": "https://dc.lft.to/lastmile_qr_scan", "android": "https://dc.lft.to/lastmile_qr_scan"}, "lon": -77.03151, "fusion_lon": 0.0, "is_disabled": 0, "lat": 38.927973, "bike_id": "f27ae6b89613151252833f854d0ae480", "name": "f27ae6b89613151252833f854d0ae480", "is_reserved": 0, "fusion_lat": 0.0}, {"type": "electric_scooter", "rental_uris": {"ios": "https://dc.lft.to/lastmile_qr_scan", "android": "https://dc.lft.to/lastmile_qr_scan"}, "lon": -76.99165016666667, "fusion_lon": 0.0, "is_disabled": 0, "lat": 38.8595485, "bike_id": "89aac52098d2d165c93e14f2feefc6af", "name": "89aac52098d2d165c93e14f2feefc6af", "is_reserved": 0, "fusion_lat": 0.0}, {"type": "electric_scooter", "rental_uris": {"ios": "https://dc.lft.to/lastmile_qr_scan", "android": "https://dc.lft.to/lastmile_qr_scan"}, "lon": -77.0470215, "fusion_lon": 0.0, "is_disabled": 0, "lat": 38.92229783333333, "bike_id": "ff893d81df6897f8a0d9bc08d8f3f470", "name": "ff893d81df6897f8a0d9bc08d8f3f470", "is_reserved": 0, "fusion_lat": 0.0}, {"type": "electric_bike", "rental_uris": {"ios": "https://dc.lft.to/lastmile_qr_scan", "android": "https://dc.lft.to/lastmile_qr_scan"}, "lon": -77.071351, "fusion_lon": 0.0, "is_disabled": 0, "lat": 38.93001916666667, "bike_id": "1b58ddf3267bace1fab80e925bb8e327", "name": "1b58ddf3267bace1fab80e925bb8e327", "is_reserved": 0, "fusion_lat": 0.0}, {"type": "electric_scooter", "rental_uris": {"ios": "https://dc.lft.to/lastmile_qr_scan", "android": "https://dc.lft.to/lastmile_qr_scan"}, "lon": -77.036603, "fusion_lon": 0.0, "is_disabled": 0, "lat": 38.917236, "bike_id": "4b616985d504b583867e2fbf93d821be", "name": "4b616985d504b583867e2fbf93d821be", "is_reserved": 0, "fusion_lat": 0.0}, {"type": "electric_scooter", "rental_uris": {"ios": "https://dc.lft.to/lastmile_qr_scan", "android": "https://dc.lft.to/lastmile_qr_scan"}, "lon": -77.026541, "fusion_lon": 0.0, "is_disabled": 0, "lat": 38.892191, "bike_id": "034227f98feec8aaa0f3288740322bac", "name": "034227f98feec8aaa0f3288740322bac", "is_reserved": 0, "fusion_lat": 0.0}, {"type": "electric_scooter", "rental_uris": {"ios": "https://dc.lft.to/lastmile_qr_scan", "android": "https://dc.lft.to/lastmile_qr_scan"}, "lon": -77.03768733333334, "fusion_lon": 0.0, "is_disabled": 0, "lat": 38.929682166666666, "bike_id": "28c0de94a2d7a584d27a2514fc2523a5", "name": "28c0de94a2d7a584d27a2514fc2523a5", "is_reserved": 0, "fusion_lat": 0.0}, {"type": "electric_bike", "rental_uris": {"ios": "https://dc.lft.to/lastmile_qr_scan", "android": "https://dc.lft.to/lastmile_qr_scan"}, "lon": -76.98950666666667, "fusion_lon": 0.0, "is_disabled": 0, "lat": 38.867043833333334, "bike_id": "1506b5f319b64dbbf24cbbcccb8d4d11", "name": "1506b5f319b64dbbf24cbbcccb8d4d11", "is_reserved": 0, "fusion_lat": 0.0}, {"type": "electric_scooter", "rental_uris": {"ios": "https://dc.lft.to/lastmile_qr_scan", "android": "https://dc.lft.to/lastmile_qr_scan"}, "lon": -77.017489, "fusion_lon": 0.0, "is_disabled": 0, "lat": 38.902557, "bike_id": "7efb02a218a34e05fd178fac0d963aea", "name": "7efb02a218a34e05fd178fac0d963aea", "is_reserved": 0, "fusion_lat": 0.0}, {"type": "electric_scooter", "rental_uris": {"ios": "https://dc.lft.to/lastmile_qr_scan", "android": "https://dc.lft.to/lastmile_qr_scan"}, "lon": -77.05946783333333, "fusion_lon": 0.0, "is_disabled": 0, "lat": 38.9023425, "bike_id": "b2ca508362678cc3a83bd6730dca382e", "name": "b2ca508362678cc3a83bd6730dca382e", "is_reserved": 0, "fusion_lat": 0.0}, {"type": "electric_scooter", "rental_uris": {"ios": "https://dc.lft.to/lastmile_qr_scan", "android": "https://dc.lft.to/lastmile_qr_scan"}, "lon": -77.03262883333333, "fusion_lon": 0.0, "is_disabled": 0, "lat": 38.9132765, "bike_id": "a06ef15b506fdb8f383e547d57929ed9", "name": "a06ef15b506fdb8f383e547d57929ed9", "is_reserved": 0, "fusion_lat": 0.0}, {"type": "electric_scooter", "rental_uris": {"ios": "https://dc.lft.to/lastmile_qr_scan", "android": "https://dc.lft.to/lastmile_qr_scan"}, "lon": -77.03863516666667, "fusion_lon": 0.0, "is_disabled": 0, "lat": 38.912574666666664, "bike_id": "fb6640ccdcc8e865724e1153bd23a2e5", "name": "fb6640ccdcc8e865724e1153bd23a2e5", "is_reserved": 0, "fusion_lat": 0.0}, {"type": "electric_scooter", "rental_uris": {"ios": "https://dc.lft.to/lastmile_qr_scan", "android": "https://dc.lft.to/lastmile_qr_scan"}, "lon": -77.04678333333334, "fusion_lon": 0.0, "is_disabled": 0, "lat": 38.89220516666666, "bike_id": "14f2a5a2288b719ff5243d9c6d909fed", "name": "14f2a5a2288b719ff5243d9c6d909fed", "is_reserved": 0, "fusion_lat": 0.0}, {"type": "electric_scooter", "rental_uris": {"ios": "https://dc.lft.to/lastmile_qr_scan", "android": "https://dc.lft.to/lastmile_qr_scan"}, "lon": -77.036223, "fusion_lon": 0.0, "is_disabled": 0, "lat": 38.9368535, "bike_id": "766bdacffbe72245e51c133ed1905af1", "name": "766bdacffbe72245e51c133ed1905af1", "is_reserved": 0, "fusion_lat": 0.0}, {"type": "electric_scooter", "rental_uris": {"ios": "https://dc.lft.to/lastmile_qr_scan", "android": "https://dc.lft.to/lastmile_qr_scan"}, "lon": -77.04257916666667, "fusion_lon": 0.0, "is_disabled": 0, "lat": 38.91693183333334, "bike_id": "7be01a3d825ec5573f8391b94feef495", "name": "7be01a3d825ec5573f8391b94feef495", "is_reserved": 0, "fusion_lat": 0.0}, {"type": "electric_bike", "rental_uris": {"ios": "https://dc.lft.to/lastmile_qr_scan", "android": "https://dc.lft.to/lastmile_qr_scan"}, "lon": -77.021242, "fusion_lon": 0.0, "is_disabled": 0, "lat": 38.93579716666667, "bike_id": "e7ef7ca7b99b01af93529c69fbca5402", "name": "e7ef7ca7b99b01af93529c69fbca5402", "is_reserved": 0, "fusion_lat": 0.0}, {"type": "electric_bike", "rental_uris": {"ios": "https://dc.lft.to/lastmile_qr_scan", "android": "https://dc.lft.to/lastmile_qr_scan"}, "lon": -77.10082933333334, "fusion_lon": 0.0, "is_disabled": 0, "lat": 38.95958066666667, "bike_id": "9b41652902519e1ad11373ffe0eb7d2e", "name": "9b41652902519e1ad11373ffe0eb7d2e", "is_reserved": 0, "fusion_lat": 0.0}, {"type": "electric_scooter", "rental_uris": {"ios": "https://dc.lft.to/lastmile_qr_scan", "android": "https://dc.lft.to/lastmile_qr_scan"}, "lon": -77.0061675, "fusion_lon": 0.0, "is_disabled": 0, "lat": 38.906384333333335, "bike_id": "fef184c398b0353282f1577c5505f75e", "name": "fef184c398b0353282f1577c5505f75e", "is_reserved": 0, "fusion_lat": 0.0}, {"type": "electric_scooter", "rental_uris": {"ios": "https://dc.lft.to/lastmile_qr_scan", "android": "https://dc.lft.to/lastmile_qr_scan"}, "lon": -77.038689, "fusion_lon": 0.0, "is_disabled": 0, "lat": 38.93460183333333, "bike_id": "889f35797c6785efc60abe4b85d98b2c", "name": "889f35797c6785efc60abe4b85d98b2c", "is_reserved": 0, "fusion_lat": 0.0}, {"type": "electric_bike", "rental_uris": {"ios": "https://dc.lft.to/lastmile_qr_scan", "android": "https://dc.lft.to/lastmile_qr_scan"}, "lon": -77.03893783333334, "fusion_lon": 0.0, "is_disabled": 0, "lat": 38.923266166666664, "bike_id": "a909c3d23660a85097dfc3ae28e5203f", "name": "a909c3d23660a85097dfc3ae28e5203f", "is_reserved": 0, "fusion_lat": 0.0}, {"type": "electric_scooter", "rental_uris": {"ios": "https://dc.lft.to/lastmile_qr_scan", "android": "https://dc.lft.to/lastmile_qr_scan"}, "lon": -77.04423266666667, "fusion_lon": 0.0, "is_disabled": 0, "lat": 38.92132483333334, "bike_id": "f73356c0e94597d49f66c314f44c732c", "name": "f73356c0e94597d49f66c314f44c732c", "is_reserved": 0, "fusion_lat": 0.0}, {"type": "electric_scooter", "rental_uris": {"ios": "https://dc.lft.to/lastmile_qr_scan", "android": "https://dc.lft.to/lastmile_qr_scan"}, "lon": -77.03503833333333, "fusion_lon": 0.0, "is_disabled": 0, "lat": 38.92146266666666, "bike_id": "b081eaf98bffeed961db3d0fdb75073c", "name": "b081eaf98bffeed961db3d0fdb75073c", "is_reserved": 0, "fusion_lat": 0.0}, {"type": "electric_scooter", "rental_uris": {"ios": "https://dc.lft.to/lastmile_qr_scan", "android": "https://dc.lft.to/lastmile_qr_scan"}, "lon": -77.0387655, "fusion_lon": 0.0, "is_disabled": 0, "lat": 38.902631166666666, "bike_id": "6492d3f0112ed00938612e408c247dde", "name": "6492d3f0112ed00938612e408c247dde", "is_reserved": 0, "fusion_lat": 0.0}, {"type": "electric_scooter", "rental_uris": {"ios": "https://dc.lft.to/lastmile_qr_scan", "android": "https://dc.lft.to/lastmile_qr_scan"}, "lon": -77.02696333333333, "fusion_lon": 0.0, "is_disabled": 0, "lat": 38.906012833333335, "bike_id": "8c904c07332f57b959388041b9d23192", "name": "8c904c07332f57b959388041b9d23192", "is_reserved": 0, "fusion_lat": 0.0}, {"type": "electric_bike", "rental_uris": {"ios": "https://dc.lft.to/lastmile_qr_scan", "android": "https://dc.lft.to/lastmile_qr_scan"}, "lon": -77.04926766666667, "fusion_lon": 0.0, "is_disabled": 0, "lat": 39.029335, "bike_id": "db3568fca41f69e71e1a2db65758f3c9", "name": "db3568fca41f69e71e1a2db65758f3c9", "is_reserved": 0, "fusion_lat": 0.0}, {"type": "electric_scooter", "rental_uris": {"ios": "https://dc.lft.to/lastmile_qr_scan", "android": "https://dc.lft.to/lastmile_qr_scan"}, "lon": -77.07708, "fusion_lon": 0.0, "is_disabled": 0, "lat": 38.94387666666667, "bike_id": "2625342d290b96baf9c5b048321ade30", "name": "2625342d290b96baf9c5b048321ade30", "is_reserved": 0, "fusion_lat": 0.0}, {"type": "electric_scooter", "rental_uris": {"ios": "https://dc.lft.to/lastmile_qr_scan", "android": "https://dc.lft.to/lastmile_qr_scan"}, "lon": -77.04345916666666, "fusion_lon": 0.0, "is_disabled": 0, "lat": 38.9134425, "bike_id": "c5a6f8689a759a03fc116a8a6617be39", "name": "c5a6f8689a759a03fc116a8a6617be39", "is_reserved": 0, "fusion_lat": 0.0}, {"type": "electric_bike", "rental_uris": {"ios": "https://dc.lft.to/lastmile_qr_scan", "android": "https://dc.lft.to/lastmile_qr_scan"}, "lon": -77.02774216666667, "fusion_lon": 0.0, "is_disabled": 0, "lat": 38.9290495, "bike_id": "72d5f5413bdb69f5087f52b6375caf0d", "name": "72d5f5413bdb69f5087f52b6375caf0d", "is_reserved": 0, "fusion_lat": 0.0}, {"type": "electric_scooter", "rental_uris": {"ios": "https://dc.lft.to/lastmile_qr_scan", "android": "https://dc.lft.to/lastmile_qr_scan"}, "lon": -77.038727, "fusion_lon": 0.0, "is_disabled": 0, "lat": 38.9333375, "bike_id": "4e3b2171234b53bb29e8cee9f9050834", "name": "4e3b2171234b53bb29e8cee9f9050834", "is_reserved": 0, "fusion_lat": 0.0}, {"type": "electric_scooter", "rental_uris": {"ios": "https://dc.lft.to/lastmile_qr_scan", "android": "https://dc.lft.to/lastmile_qr_scan"}, "lon": -77.01576416666667, "fusion_lon": 0.0, "is_disabled": 0, "lat": 38.916777, "bike_id": "881e051b5318d7253dc2c021bbe22792", "name": "881e051b5318d7253dc2c021bbe22792", "is_reserved": 0, "fusion_lat": 0.0}, {"type": "electric_scooter", "rental_uris": {"ios": "https://dc.lft.to/lastmile_qr_scan", "android": "https://dc.lft.to/lastmile_qr_scan"}, "lon": -76.92735516666667, "fusion_lon": 0.0, "is_disabled": 0, "lat": 38.899703, "bike_id": "8fcacd6ee128cdbcc2a115bb0678b889", "name": "8fcacd6ee128cdbcc2a115bb0678b889", "is_reserved": 0, "fusion_lat": 0.0}, {"type": "electric_scooter", "rental_uris": {"ios": "https://dc.lft.to/lastmile_qr_scan", "android": "https://dc.lft.to/lastmile_qr_scan"}, "lon": -77.01140883333333, "fusion_lon": 0.0, "is_disabled": 0, "lat": 38.917064333333336, "bike_id": "c12252a3b8e2a3c2790b5b2ba8e22431", "name": "c12252a3b8e2a3c2790b5b2ba8e22431", "is_reserved": 0, "fusion_lat": 0.0}, {"type": "electric_scooter", "rental_uris": {"ios": "https://dc.lft.to/lastmile_qr_scan", "android": "https://dc.lft.to/lastmile_qr_scan"}, "lon": -77.03210583333333, "fusion_lon": 0.0, "is_disabled": 0, "lat": 38.90272216666666, "bike_id": "cbc4094b5533e448247ab9323a18555e", "name": "cbc4094b5533e448247ab9323a18555e", "is_reserved": 0, "fusion_lat": 0.0}, {"type": "electric_scooter", "rental_uris": {"ios": "https://dc.lft.to/lastmile_qr_scan", "android": "https://dc.lft.to/lastmile_qr_scan"}, "lon": -77.04030683333333, "fusion_lon": 0.0, "is_disabled": 0, "lat": 38.924422166666666, "bike_id": "524b9d330428c6c8eb2cb2ff16f78824", "name": "524b9d330428c6c8eb2cb2ff16f78824", "is_reserved": 0, "fusion_lat": 0.0}, {"type": "electric_scooter", "rental_uris": {"ios": "https://dc.lft.to/lastmile_qr_scan", "android": "https://dc.lft.to/lastmile_qr_scan"}, "lon": -77.01330516666667, "fusion_lon": 0.0, "is_disabled": 0, "lat": 38.90602033333333, "bike_id": "126b07126146ca6aacb5b4f4ff2ab285", "name": "126b07126146ca6aacb5b4f4ff2ab285", "is_reserved": 0, "fusion_lat": 0.0}, {"type": "electric_scooter", "rental_uris": {"ios": "https://dc.lft.to/lastmile_qr_scan", "android": "https://dc.lft.to/lastmile_qr_scan"}, "lon": -76.98830683333334, "fusion_lon": 0.0, "is_disabled": 0, "lat": 38.89253183333334, "bike_id": "4edc1f9ec5f6eb4df6545c4de25b1b37", "name": "4edc1f9ec5f6eb4df6545c4de25b1b37", "is_reserved": 0, "fusion_lat": 0.0}, {"type": "electric_scooter", "rental_uris": {"ios": "https://dc.lft.to/lastmile_qr_scan", "android": "https://dc.lft.to/lastmile_qr_scan"}, "lon": -77.03185283333333, "fusion_lon": 0.0, "is_disabled": 0, "lat": 38.899769666666664, "bike_id": "37bea76343344a3902e6645bc3118e40", "name": "37bea76343344a3902e6645bc3118e40", "is_reserved": 0, "fusion_lat": 0.0}, {"type": "electric_scooter", "rental_uris": {"ios": "https://dc.lft.to/lastmile_qr_scan", "android": "https://dc.lft.to/lastmile_qr_scan"}, "lon": -77.04480466666666, "fusion_lon": 0.0, "is_disabled": 0, "lat": 38.9116545, "bike_id": "2cf41bb4b6e26e0cbb2a299fc05bc358", "name": "2cf41bb4b6e26e0cbb2a299fc05bc358", "is_reserved": 0, "fusion_lat": 0.0}, {"type": "electric_scooter", "rental_uris": {"ios": "https://dc.lft.to/lastmile_qr_scan", "android": "https://dc.lft.to/lastmile_qr_scan"}, "lon": -77.032847, "fusion_lon": 0.0, "is_disabled": 0, "lat": 38.92551066666667, "bike_id": "dc41cf5a1b612f5e4b43f1566a11e54b", "name": "dc41cf5a1b612f5e4b43f1566a11e54b", "is_reserved": 0, "fusion_lat": 0.0}, {"type": "electric_scooter", "rental_uris": {"ios": "https://dc.lft.to/lastmile_qr_scan", "android": "https://dc.lft.to/lastmile_qr_scan"}, "lon": -77.011914, "fusion_lon": 0.0, "is_disabled": 0, "lat": 38.902944833333336, "bike_id": "38b8afcf9c0af80fb9f8104556f678fd", "name": "38b8afcf9c0af80fb9f8104556f678fd", "is_reserved": 0, "fusion_lat": 0.0}, {"type": "electric_scooter", "rental_uris": {"ios": "https://dc.lft.to/lastmile_qr_scan", "android": "https://dc.lft.to/lastmile_qr_scan"}, "lon": -76.99777066666667, "fusion_lon": 0.0, "is_disabled": 0, "lat": 38.84424966666667, "bike_id": "42fbbb5bfec2ca259b4598a2949840ca", "name": "42fbbb5bfec2ca259b4598a2949840ca", "is_reserved": 0, "fusion_lat": 0.0}, {"type": "electric_scooter", "rental_uris": {"ios": "https://dc.lft.to/lastmile_qr_scan", "android": "https://dc.lft.to/lastmile_qr_scan"}, "lon": -77.040454, "fusion_lon": 0.0, "is_disabled": 0, "lat": 38.91407733333333, "bike_id": "ef52832e7b4490982f2e445d2e93eb8c", "name": "ef52832e7b4490982f2e445d2e93eb8c", "is_reserved": 0, "fusion_lat": 0.0}, {"type": "electric_scooter", "rental_uris": {"ios": "https://dc.lft.to/lastmile_qr_scan", "android": "https://dc.lft.to/lastmile_qr_scan"}, "lon": -77.04022533333334, "fusion_lon": 0.0, "is_disabled": 0, "lat": 38.92362116666666, "bike_id": "778fc8aad9bc5c6ccaa8c278781fd6e8", "name": "778fc8aad9bc5c6ccaa8c278781fd6e8", "is_reserved": 0, "fusion_lat": 0.0}, {"type": "electric_bike", "rental_uris": {"ios": "https://dc.lft.to/lastmile_qr_scan", "android": "https://dc.lft.to/lastmile_qr_scan"}, "lon": -77.1059685, "fusion_lon": 0.0, "is_disabled": 0, "lat": 38.92895083333333, "bike_id": "cb7fc9ec0f69e7493e77e1b90a4b81e0", "name": "cb7fc9ec0f69e7493e77e1b90a4b81e0", "is_reserved": 0, "fusion_lat": 0.0}, {"type": "electric_scooter", "rental_uris": {"ios": "https://dc.lft.to/lastmile_qr_scan", "android": "https://dc.lft.to/lastmile_qr_scan"}, "lon": -76.95754933333333, "fusion_lon": 0.0, "is_disabled": 0, "lat": 38.88431216666667, "bike_id": "2c1cb6166a0ebc6078ea5f2dee494c6c", "name": "2c1cb6166a0ebc6078ea5f2dee494c6c", "is_reserved": 0, "fusion_lat": 0.0}, {"type": "electric_scooter", "rental_uris": {"ios": "https://dc.lft.to/lastmile_qr_scan", "android": "https://dc.lft.to/lastmile_qr_scan"}, "lon": -77.0271045, "fusion_lon": 0.0, "is_disabled": 0, "lat": 38.906727833333335, "bike_id": "fb59532e7df99f8746fba5e2a319cf5a", "name": "fb59532e7df99f8746fba5e2a319cf5a", "is_reserved": 0, "fusion_lat": 0.0}, {"type": "electric_scooter", "rental_uris": {"ios": "https://dc.lft.to/lastmile_qr_scan", "android": "https://dc.lft.to/lastmile_qr_scan"}, "lon": -77.02123633333333, "fusion_lon": 0.0, "is_disabled": 0, "lat": 38.887390833333335, "bike_id": "de71e3a7cdf0ce9d19418af5b132fa02", "name": "de71e3a7cdf0ce9d19418af5b132fa02", "is_reserved": 0, "fusion_lat": 0.0}, {"type": "electric_scooter", "rental_uris": {"ios": "https://dc.lft.to/lastmile_qr_scan", "android": "https://dc.lft.to/lastmile_qr_scan"}, "lon": -77.01372716666667, "fusion_lon": 0.0, "is_disabled": 0, "lat": 38.892212, "bike_id": "d26f927387365880ff66f3560f8c8095", "name": "d26f927387365880ff66f3560f8c8095", "is_reserved": 0, "fusion_lat": 0.0}, {"type": "electric_scooter", "rental_uris": {"ios": "https://dc.lft.to/lastmile_qr_scan", "android": "https://dc.lft.to/lastmile_qr_scan"}, "lon": -77.02811783333334, "fusion_lon": 0.0, "is_disabled": 0, "lat": 38.898115833333335, "bike_id": "01fc5b8b3039a4190734788b0e8c4b2b", "name": "01fc5b8b3039a4190734788b0e8c4b2b", "is_reserved": 0, "fusion_lat": 0.0}, {"type": "electric_scooter", "rental_uris": {"ios": "https://dc.lft.to/lastmile_qr_scan", "android": "https://dc.lft.to/lastmile_qr_scan"}, "lon": -77.03365183333334, "fusion_lon": 0.0, "is_disabled": 0, "lat": 38.91357766666667, "bike_id": "903ca174d1d7aa49b73c70207a85f6f1", "name": "903ca174d1d7aa49b73c70207a85f6f1", "is_reserved": 0, "fusion_lat": 0.0}, {"type": "electric_scooter", "rental_uris": {"ios": "https://dc.lft.to/lastmile_qr_scan", "android": "https://dc.lft.to/lastmile_qr_scan"}, "lon": -77.02641816666667, "fusion_lon": 0.0, "is_disabled": 0, "lat": 38.89983933333333, "bike_id": "d20b62ff10625cff55fffb25388da98a", "name": "d20b62ff10625cff55fffb25388da98a", "is_reserved": 0, "fusion_lat": 0.0}, {"type": "electric_scooter", "rental_uris": {"ios": "https://dc.lft.to/lastmile_qr_scan", "android": "https://dc.lft.to/lastmile_qr_scan"}, "lon": -77.00688566666666, "fusion_lon": 0.0, "is_disabled": 0, "lat": 38.90011, "bike_id": "87e0044ca2bbd780c45ac656e755bcef", "name": "87e0044ca2bbd780c45ac656e755bcef", "is_reserved": 0, "fusion_lat": 0.0}, {"type": "electric_scooter", "rental_uris": {"ios": "https://dc.lft.to/lastmile_qr_scan", "android": "https://dc.lft.to/lastmile_qr_scan"}, "lon": -77.056016, "fusion_lon": 0.0, "is_disabled": 0, "lat": 38.90088216666667, "bike_id": "ed4313a0083ba96dce81f93fd4f9007f", "name": "ed4313a0083ba96dce81f93fd4f9007f", "is_reserved": 0, "fusion_lat": 0.0}, {"type": "electric_scooter", "rental_uris": {"ios": "https://dc.lft.to/lastmile_qr_scan", "android": "https://dc.lft.to/lastmile_qr_scan"}, "lon": -77.009974, "fusion_lon": 0.0, "is_disabled": 0, "lat": 38.902595, "bike_id": "d515fa890ba2b78d9a19e33be8bef340", "name": "d515fa890ba2b78d9a19e33be8bef340", "is_reserved": 0, "fusion_lat": 0.0}, {"type": "electric_scooter", "rental_uris": {"ios": "https://dc.lft.to/lastmile_qr_scan", "android": "https://dc.lft.to/lastmile_qr_scan"}, "lon": -76.93292833333334, "fusion_lon": 0.0, "is_disabled": 0, "lat": 38.89218283333334, "bike_id": "cac1a583a4af60572271c7140e718755", "name": "cac1a583a4af60572271c7140e718755", "is_reserved": 0, "fusion_lat": 0.0}, {"type": "electric_scooter", "rental_uris": {"ios": "https://dc.lft.to/lastmile_qr_scan", "android": "https://dc.lft.to/lastmile_qr_scan"}, "lon": -77.04181066666666, "fusion_lon": 0.0, "is_disabled": 0, "lat": 38.892891, "bike_id": "f94169fdd32806500e6e85a65fc3c782", "name": "f94169fdd32806500e6e85a65fc3c782", "is_reserved": 0, "fusion_lat": 0.0}, {"type": "electric_scooter", "rental_uris": {"ios": "https://dc.lft.to/lastmile_qr_scan", "android": "https://dc.lft.to/lastmile_qr_scan"}, "lon": -77.02209366666666, "fusion_lon": 0.0, "is_disabled": 0, "lat": 38.887455333333335, "bike_id": "9d8fdd6810a0f56f7a1acdf98c0f4583", "name": "9d8fdd6810a0f56f7a1acdf98c0f4583", "is_reserved": 0, "fusion_lat": 0.0}, {"type": "electric_scooter", "rental_uris": {"ios": "https://dc.lft.to/lastmile_qr_scan", "android": "https://dc.lft.to/lastmile_qr_scan"}, "lon": -77.03410216666667, "fusion_lon": 0.0, "is_disabled": 0, "lat": 38.91925783333333, "bike_id": "f95f031c417bdc7fa967b5f40afdf98e", "name": "f95f031c417bdc7fa967b5f40afdf98e", "is_reserved": 0, "fusion_lat": 0.0}, {"type": "electric_scooter", "rental_uris": {"ios": "https://dc.lft.to/lastmile_qr_scan", "android": "https://dc.lft.to/lastmile_qr_scan"}, "lon": -77.0248855, "fusion_lon": 0.0, "is_disabled": 0, "lat": 38.9418385, "bike_id": "b5a8ed85ed245305e183efaff852d0e6", "name": "b5a8ed85ed245305e183efaff852d0e6", "is_reserved": 0, "fusion_lat": 0.0}, {"type": "electric_scooter", "rental_uris": {"ios": "https://dc.lft.to/lastmile_qr_scan", "android": "https://dc.lft.to/lastmile_qr_scan"}, "lon": -77.022983, "fusion_lon": 0.0, "is_disabled": 0, "lat": 38.926101333333335, "bike_id": "2440bea5996f1288c3aad3479d911e59", "name": "2440bea5996f1288c3aad3479d911e59", "is_reserved": 0, "fusion_lat": 0.0}, {"type": "electric_scooter", "rental_uris": {"ios": "https://dc.lft.to/lastmile_qr_scan", "android": "https://dc.lft.to/lastmile_qr_scan"}, "lon": -77.04295433333333, "fusion_lon": 0.0, "is_disabled": 0, "lat": 38.920643166666665, "bike_id": "26e6df4b9155fea438fca8e2d1b1e696", "name": "26e6df4b9155fea438fca8e2d1b1e696", "is_reserved": 0, "fusion_lat": 0.0}, {"type": "electric_scooter", "rental_uris": {"ios": "https://dc.lft.to/lastmile_qr_scan", "android": "https://dc.lft.to/lastmile_qr_scan"}, "lon": -77.00606, "fusion_lon": 0.0, "is_disabled": 0, "lat": 38.871811, "bike_id": "9ff734f1c60ccbeafe1fb9157b2e98b1", "name": "9ff734f1c60ccbeafe1fb9157b2e98b1", "is_reserved": 0, "fusion_lat": 0.0}, {"type": "electric_scooter", "rental_uris": {"ios": "https://dc.lft.to/lastmile_qr_scan", "android": "https://dc.lft.to/lastmile_qr_scan"}, "lon": -77.03295016666667, "fusion_lon": 0.0, "is_disabled": 0, "lat": 38.94715733333334, "bike_id": "429f6a4cb33e8ed44cd32bb98e0aa580", "name": "429f6a4cb33e8ed44cd32bb98e0aa580", "is_reserved": 0, "fusion_lat": 0.0}, {"type": "electric_scooter", "rental_uris": {"ios": "https://dc.lft.to/lastmile_qr_scan", "android": "https://dc.lft.to/lastmile_qr_scan"}, "lon": -77.05095383333334, "fusion_lon": 0.0, "is_disabled": 0, "lat": 38.896346333333334, "bike_id": "3db6a978d0d70b58bba77e708e9a2c40", "name": "3db6a978d0d70b58bba77e708e9a2c40", "is_reserved": 0, "fusion_lat": 0.0}, {"type": "electric_scooter", "rental_uris": {"ios": "https://dc.lft.to/lastmile_qr_scan", "android": "https://dc.lft.to/lastmile_qr_scan"}, "lon": -77.04171116666667, "fusion_lon": 0.0, "is_disabled": 0, "lat": 38.915507, "bike_id": "f0b8f6849b8e9a321385a90c64461ff2", "name": "f0b8f6849b8e9a321385a90c64461ff2", "is_reserved": 0, "fusion_lat": 0.0}, {"type": "electric_scooter", "rental_uris": {"ios": "https://dc.lft.to/lastmile_qr_scan", "android": "https://dc.lft.to/lastmile_qr_scan"}, "lon": -76.9869445, "fusion_lon": 0.0, "is_disabled": 0, "lat": 38.866275333333334, "bike_id": "96640e163df099b007136d9a97559e41", "name": "96640e163df099b007136d9a97559e41", "is_reserved": 0, "fusion_lat": 0.0}, {"type": "electric_scooter", "rental_uris": {"ios": "https://dc.lft.to/lastmile_qr_scan", "android": "https://dc.lft.to/lastmile_qr_scan"}, "lon": -77.02400683333333, "fusion_lon": 0.0, "is_disabled": 0, "lat": 38.957097, "bike_id": "5bed825aea217eb87aef90a61cc83b49", "name": "5bed825aea217eb87aef90a61cc83b49", "is_reserved": 0, "fusion_lat": 0.0}, {"type": "electric_scooter", "rental_uris": {"ios": "https://dc.lft.to/lastmile_qr_scan", "android": "https://dc.lft.to/lastmile_qr_scan"}, "lon": -77.0385505, "fusion_lon": 0.0, "is_disabled": 0, "lat": 38.912362, "bike_id": "d44bb76a24cf9148ed82f5168beed237", "name": "d44bb76a24cf9148ed82f5168beed237", "is_reserved": 0, "fusion_lat": 0.0}, {"type": "electric_scooter", "rental_uris": {"ios": "https://dc.lft.to/lastmile_qr_scan", "android": "https://dc.lft.to/lastmile_qr_scan"}, "lon": -77.03671, "fusion_lon": 0.0, "is_disabled": 0, "lat": 38.917077666666664, "bike_id": "7aa58fa688f205d7f6a53c53c66fcdde", "name": "7aa58fa688f205d7f6a53c53c66fcdde", "is_reserved": 0, "fusion_lat": 0.0}, {"type": "electric_scooter", "rental_uris": {"ios": "https://dc.lft.to/lastmile_qr_scan", "android": "https://dc.lft.to/lastmile_qr_scan"}, "lon": -77.02787733333334, "fusion_lon": 0.0, "is_disabled": 0, "lat": 38.89935666666667, "bike_id": "6f166b4662d6545cad64872720885fd1", "name": "6f166b4662d6545cad64872720885fd1", "is_reserved": 0, "fusion_lat": 0.0}, {"type": "electric_scooter", "rental_uris": {"ios": "https://dc.lft.to/lastmile_qr_scan", "android": "https://dc.lft.to/lastmile_qr_scan"}, "lon": -76.995099, "fusion_lon": 0.0, "is_disabled": 0, "lat": 38.92668833333333, "bike_id": "80ba2afdf46dcb229939504530343ba0", "name": "80ba2afdf46dcb229939504530343ba0", "is_reserved": 0, "fusion_lat": 0.0}, {"type": "electric_scooter", "rental_uris": {"ios": "https://dc.lft.to/lastmile_qr_scan", "android": "https://dc.lft.to/lastmile_qr_scan"}, "lon": -77.04350683333334, "fusion_lon": 0.0, "is_disabled": 0, "lat": 38.90532016666667, "bike_id": "8fe6446990745a1679311d1a68720610", "name": "8fe6446990745a1679311d1a68720610", "is_reserved": 0, "fusion_lat": 0.0}, {"type": "electric_scooter", "rental_uris": {"ios": "https://dc.lft.to/lastmile_qr_scan", "android": "https://dc.lft.to/lastmile_qr_scan"}, "lon": -77.04181183333333, "fusion_lon": 0.0, "is_disabled": 0, "lat": 38.905342166666664, "bike_id": "886f94be555c09157013c638dc1faa80", "name": "886f94be555c09157013c638dc1faa80", "is_reserved": 0, "fusion_lat": 0.0}, {"type": "electric_scooter", "rental_uris": {"ios": "https://dc.lft.to/lastmile_qr_scan", "android": "https://dc.lft.to/lastmile_qr_scan"}, "lon": -77.0036745, "fusion_lon": 0.0, "is_disabled": 0, "lat": 38.882644, "bike_id": "e868350c8af4dbc1147684bf967c1467", "name": "e868350c8af4dbc1147684bf967c1467", "is_reserved": 0, "fusion_lat": 0.0}, {"type": "electric_scooter", "rental_uris": {"ios": "https://dc.lft.to/lastmile_qr_scan", "android": "https://dc.lft.to/lastmile_qr_scan"}, "lon": -77.03647366666667, "fusion_lon": 0.0, "is_disabled": 0, "lat": 38.91854683333333, "bike_id": "fd15abeeb379e690e56e137c761b573d", "name": "fd15abeeb379e690e56e137c761b573d", "is_reserved": 0, "fusion_lat": 0.0}, {"type": "electric_scooter", "rental_uris": {"ios": "https://dc.lft.to/lastmile_qr_scan", "android": "https://dc.lft.to/lastmile_qr_scan"}, "lon": -77.04175683333334, "fusion_lon": 0.0, "is_disabled": 0, "lat": 38.905341, "bike_id": "65163b31a69f46172f4f921ea8a9511f", "name": "65163b31a69f46172f4f921ea8a9511f", "is_reserved": 0, "fusion_lat": 0.0}, {"type": "electric_scooter", "rental_uris": {"ios": "https://dc.lft.to/lastmile_qr_scan", "android": "https://dc.lft.to/lastmile_qr_scan"}, "lon": -77.02977433333334, "fusion_lon": 0.0, "is_disabled": 0, "lat": 38.93065683333333, "bike_id": "031f7b2755f90100c54763ffa7f7c764", "name": "031f7b2755f90100c54763ffa7f7c764", "is_reserved": 0, "fusion_lat": 0.0}, {"type": "electric_scooter", "rental_uris": {"ios": "https://dc.lft.to/lastmile_qr_scan", "android": "https://dc.lft.to/lastmile_qr_scan"}, "lon": -77.01068883333333, "fusion_lon": 0.0, "is_disabled": 0, "lat": 38.90730533333333, "bike_id": "e4f1a09b57600693a5d3df54345b22c4", "name": "e4f1a09b57600693a5d3df54345b22c4", "is_reserved": 0, "fusion_lat": 0.0}, {"type": "electric_scooter", "rental_uris": {"ios": "https://dc.lft.to/lastmile_qr_scan", "android": "https://dc.lft.to/lastmile_qr_scan"}, "lon": -76.9541505, "fusion_lon": 0.0, "is_disabled": 0, "lat": 38.89001566666666, "bike_id": "85103e215454b87110c62241b02aa2a1", "name": "85103e215454b87110c62241b02aa2a1", "is_reserved": 0, "fusion_lat": 0.0}, {"type": "electric_bike", "rental_uris": {"ios": "https://dc.lft.to/lastmile_qr_scan", "android": "https://dc.lft.to/lastmile_qr_scan"}, "lon": -77.03586566666667, "fusion_lon": 0.0, "is_disabled": 0, "lat": 38.90693016666667, "bike_id": "c109e44bbf83a55717eaf205d8bc0535", "name": "c109e44bbf83a55717eaf205d8bc0535", "is_reserved": 0, "fusion_lat": 0.0}, {"type": "electric_scooter", "rental_uris": {"ios": "https://dc.lft.to/lastmile_qr_scan", "android": "https://dc.lft.to/lastmile_qr_scan"}, "lon": -77.04202733333334, "fusion_lon": 0.0, "is_disabled": 0, "lat": 38.906614166666664, "bike_id": "7a90f548a3d1287279a26d04273fb1ff", "name": "7a90f548a3d1287279a26d04273fb1ff", "is_reserved": 0, "fusion_lat": 0.0}, {"type": "electric_scooter", "rental_uris": {"ios": "https://dc.lft.to/lastmile_qr_scan", "android": "https://dc.lft.to/lastmile_qr_scan"}, "lon": -77.02796383333333, "fusion_lon": 0.0, "is_disabled": 0, "lat": 38.930815333333335, "bike_id": "7bee7ccc9c2be82c0aad027d951cb4bb", "name": "7bee7ccc9c2be82c0aad027d951cb4bb", "is_reserved": 0, "fusion_lat": 0.0}, {"type": "electric_scooter", "rental_uris": {"ios": "https://dc.lft.to/lastmile_qr_scan", "android": "https://dc.lft.to/lastmile_qr_scan"}, "lon": -77.033524, "fusion_lon": 0.0, "is_disabled": 0, "lat": 38.89250783333333, "bike_id": "4111675cfc58852ce620e4c3c2dd8662", "name": "4111675cfc58852ce620e4c3c2dd8662", "is_reserved": 0, "fusion_lat": 0.0}, {"type": "electric_scooter", "rental_uris": {"ios": "https://dc.lft.to/lastmile_qr_scan", "android": "https://dc.lft.to/lastmile_qr_scan"}, "lon": -77.01910883333333, "fusion_lon": 0.0, "is_disabled": 0, "lat": 38.902436333333334, "bike_id": "79839d8b5a17d9f185c88ce7262c5f11", "name": "79839d8b5a17d9f185c88ce7262c5f11", "is_reserved": 0, "fusion_lat": 0.0}, {"type": "electric_scooter", "rental_uris": {"ios": "https://dc.lft.to/lastmile_qr_scan", "android": "https://dc.lft.to/lastmile_qr_scan"}, "lon": -77.03129916666667, "fusion_lon": 0.0, "is_disabled": 0, "lat": 38.918175166666664, "bike_id": "9e13695f74a55ff0b75ac46460111f09", "name": "9e13695f74a55ff0b75ac46460111f09", "is_reserved": 0, "fusion_lat": 0.0}, {"type": "electric_scooter", "rental_uris": {"ios": "https://dc.lft.to/lastmile_qr_scan", "android": "https://dc.lft.to/lastmile_qr_scan"}, "lon": -77.02081666666666, "fusion_lon": 0.0, "is_disabled": 0, "lat": 38.91115933333333, "bike_id": "77055737882a79d508acfecf280561f0", "name": "77055737882a79d508acfecf280561f0", "is_reserved": 0, "fusion_lat": 0.0}, {"type": "electric_scooter", "rental_uris": {"ios": "https://dc.lft.to/lastmile_qr_scan", "android": "https://dc.lft.to/lastmile_qr_scan"}, "lon": -77.02032716666666, "fusion_lon": 0.0, "is_disabled": 0, "lat": 38.93188083333333, "bike_id": "5ad81d6bb879f54b246b0ac0f2540419", "name": "5ad81d6bb879f54b246b0ac0f2540419", "is_reserved": 0, "fusion_lat": 0.0}, {"type": "electric_scooter", "rental_uris": {"ios": "https://dc.lft.to/lastmile_qr_scan", "android": "https://dc.lft.to/lastmile_qr_scan"}, "lon": -77.0593775, "fusion_lon": 0.0, "is_disabled": 0, "lat": 38.909405166666666, "bike_id": "28baa311a8625518511ba1eca762ffe8", "name": "28baa311a8625518511ba1eca762ffe8", "is_reserved": 0, "fusion_lat": 0.0}, {"type": "electric_bike", "rental_uris": {"ios": "https://dc.lft.to/lastmile_qr_scan", "android": "https://dc.lft.to/lastmile_qr_scan"}, "lon": -76.92497066666667, "fusion_lon": 0.0, "is_disabled": 0, "lat": 38.999915666666666, "bike_id": "c336aaa4c9f56c64c07887eae0fb20d3", "name": "c336aaa4c9f56c64c07887eae0fb20d3", "is_reserved": 0, "fusion_lat": 0.0}, {"type": "electric_scooter", "rental_uris": {"ios": "https://dc.lft.to/lastmile_qr_scan", "android": "https://dc.lft.to/lastmile_qr_scan"}, "lon": -77.0321395, "fusion_lon": 0.0, "is_disabled": 0, "lat": 38.909741833333335, "bike_id": "f6fe6f4e90fad8d5f76d424fded5e5f0", "name": "f6fe6f4e90fad8d5f76d424fded5e5f0", "is_reserved": 0, "fusion_lat": 0.0}, {"type": "electric_scooter", "rental_uris": {"ios": "https://dc.lft.to/lastmile_qr_scan", "android": "https://dc.lft.to/lastmile_qr_scan"}, "lon": -77.07052133333333, "fusion_lon": 0.0, "is_disabled": 0, "lat": 38.919222166666664, "bike_id": "dfaa1de2bf8556508e9e20b418d3cf6e", "name": "dfaa1de2bf8556508e9e20b418d3cf6e", "is_reserved": 0, "fusion_lat": 0.0}, {"type": "electric_scooter", "rental_uris": {"ios": "https://dc.lft.to/lastmile_qr_scan", "android": "https://dc.lft.to/lastmile_qr_scan"}, "lon": -77.05019316666667, "fusion_lon": 0.0, "is_disabled": 0, "lat": 38.92354183333333, "bike_id": "bcd291c390788882686baf283cc2bac7", "name": "bcd291c390788882686baf283cc2bac7", "is_reserved": 0, "fusion_lat": 0.0}, {"type": "electric_scooter", "rental_uris": {"ios": "https://dc.lft.to/lastmile_qr_scan", "android": "https://dc.lft.to/lastmile_qr_scan"}, "lon": -77.034623, "fusion_lon": 0.0, "is_disabled": 0, "lat": 38.922544333333335, "bike_id": "964cd1f74c57de87f13920cd70d5e230", "name": "964cd1f74c57de87f13920cd70d5e230", "is_reserved": 0, "fusion_lat": 0.0}, {"type": "electric_bike", "rental_uris": {"ios": "https://dc.lft.to/lastmile_qr_scan", "android": "https://dc.lft.to/lastmile_qr_scan"}, "lon": -77.09959533333334, "fusion_lon": 0.0, "is_disabled": 0, "lat": 38.857897666666666, "bike_id": "d4b4c51be2da3eb45d0f48a8c54ba9c1", "name": "d4b4c51be2da3eb45d0f48a8c54ba9c1", "is_reserved": 0, "fusion_lat": 0.0}, {"type": "electric_scooter", "rental_uris": {"ios": "https://dc.lft.to/lastmile_qr_scan", "android": "https://dc.lft.to/lastmile_qr_scan"}, "lon": -77.041576, "fusion_lon": 0.0, "is_disabled": 0, "lat": 38.90291916666666, "bike_id": "194a454e874e8378d99efdf8c0b04670", "name": "194a454e874e8378d99efdf8c0b04670", "is_reserved": 0, "fusion_lat": 0.0}, {"type": "electric_scooter", "rental_uris": {"ios": "https://dc.lft.to/lastmile_qr_scan", "android": "https://dc.lft.to/lastmile_qr_scan"}, "lon": -77.03284033333334, "fusion_lon": 0.0, "is_disabled": 0, "lat": 38.956489166666664, "bike_id": "5b87550d6989b5852c85faf9e11253b7", "name": "5b87550d6989b5852c85faf9e11253b7", "is_reserved": 0, "fusion_lat": 0.0}, {"type": "electric_scooter", "rental_uris": {"ios": "https://dc.lft.to/lastmile_qr_scan", "android": "https://dc.lft.to/lastmile_qr_scan"}, "lon": -77.02279983333334, "fusion_lon": 0.0, "is_disabled": 0, "lat": 38.916428, "bike_id": "2a62580946d0c92f0c8c033bf9972d1b", "name": "2a62580946d0c92f0c8c033bf9972d1b", "is_reserved": 0, "fusion_lat": 0.0}, {"type": "electric_scooter", "rental_uris": {"ios": "https://dc.lft.to/lastmile_qr_scan", "android": "https://dc.lft.to/lastmile_qr_scan"}, "lon": -77.03407533333333, "fusion_lon": 0.0, "is_disabled": 0, "lat": 38.919248, "bike_id": "1d36199785ac1e5e0a85068025ec2cf0", "name": "1d36199785ac1e5e0a85068025ec2cf0", "is_reserved": 0, "fusion_lat": 0.0}, {"type": "electric_scooter", "rental_uris": {"ios": "https://dc.lft.to/lastmile_qr_scan", "android": "https://dc.lft.to/lastmile_qr_scan"}, "lon": -77.03357866666667, "fusion_lon": 0.0, "is_disabled": 0, "lat": 38.887586166666665, "bike_id": "a20f8d3fe77879d6b2826a47a74ee190", "name": "a20f8d3fe77879d6b2826a47a74ee190", "is_reserved": 0, "fusion_lat": 0.0}, {"type": "electric_bike", "rental_uris": {"ios": "https://dc.lft.to/lastmile_qr_scan", "android": "https://dc.lft.to/lastmile_qr_scan"}, "lon": -76.92482216666667, "fusion_lon": 0.0, "is_disabled": 0, "lat": 38.95887483333333, "bike_id": "421e26cc61316efd0b694b0fa9269c8b", "name": "421e26cc61316efd0b694b0fa9269c8b", "is_reserved": 0, "fusion_lat": 0.0}, {"type": "electric_scooter", "rental_uris": {"ios": "https://dc.lft.to/lastmile_qr_scan", "android": "https://dc.lft.to/lastmile_qr_scan"}, "lon": -77.02491983333333, "fusion_lon": 0.0, "is_disabled": 0, "lat": 38.91806916666667, "bike_id": "a4bcfe0fabf384a08dfe34a0375c2876", "name": "a4bcfe0fabf384a08dfe34a0375c2876", "is_reserved": 0, "fusion_lat": 0.0}, {"type": "electric_bike", "rental_uris": {"ios": "https://dc.lft.to/lastmile_qr_scan", "android": "https://dc.lft.to/lastmile_qr_scan"}, "lon": -76.9802165, "fusion_lon": 0.0, "is_disabled": 0, "lat": 38.9575395, "bike_id": "a80d8b3ff0e380b22e1ef5d1f730806f", "name": "a80d8b3ff0e380b22e1ef5d1f730806f", "is_reserved": 0, "fusion_lat": 0.0}, {"type": "electric_scooter", "rental_uris": {"ios": "https://dc.lft.to/lastmile_qr_scan", "android": "https://dc.lft.to/lastmile_qr_scan"}, "lon": -77.027169, "fusion_lon": 0.0, "is_disabled": 0, "lat": 38.90477216666667, "bike_id": "ab8b8027e68320c18bb6c5fe9987940f", "name": "ab8b8027e68320c18bb6c5fe9987940f", "is_reserved": 0, "fusion_lat": 0.0}, {"type": "electric_scooter", "rental_uris": {"ios": "https://dc.lft.to/lastmile_qr_scan", "android": "https://dc.lft.to/lastmile_qr_scan"}, "lon": -77.03207583333334, "fusion_lon": 0.0, "is_disabled": 0, "lat": 38.908939, "bike_id": "0d0eedc4bfefda9a08e9b1bad9e9fa26", "name": "0d0eedc4bfefda9a08e9b1bad9e9fa26", "is_reserved": 0, "fusion_lat": 0.0}, {"type": "electric_scooter", "rental_uris": {"ios": "https://dc.lft.to/lastmile_qr_scan", "android": "https://dc.lft.to/lastmile_qr_scan"}, "lon": -77.03257316666667, "fusion_lon": 0.0, "is_disabled": 0, "lat": 38.90708983333333, "bike_id": "03cfd5b0d74a67618c48cc8191c81bd6", "name": "03cfd5b0d74a67618c48cc8191c81bd6", "is_reserved": 0, "fusion_lat": 0.0}, {"type": "electric_scooter", "rental_uris": {"ios": "https://dc.lft.to/lastmile_qr_scan", "android": "https://dc.lft.to/lastmile_qr_scan"}, "lon": -77.01648883333333, "fusion_lon": 0.0, "is_disabled": 0, "lat": 38.91052616666666, "bike_id": "6ebfa47a6083d0ed86a7effa4a6ee1ae", "name": "6ebfa47a6083d0ed86a7effa4a6ee1ae", "is_reserved": 0, "fusion_lat": 0.0}, {"type": "electric_scooter", "rental_uris": {"ios": "https://dc.lft.to/lastmile_qr_scan", "android": "https://dc.lft.to/lastmile_qr_scan"}, "lon": -76.93174016666667, "fusion_lon": 0.0, "is_disabled": 0, "lat": 38.898855166666664, "bike_id": "1344faae628fcf31f28e7429d590c1f2", "name": "1344faae628fcf31f28e7429d590c1f2", "is_reserved": 0, "fusion_lat": 0.0}, {"type": "electric_scooter", "rental_uris": {"ios": "https://dc.lft.to/lastmile_qr_scan", "android": "https://dc.lft.to/lastmile_qr_scan"}, "lon": -76.98695983333333, "fusion_lon": 0.0, "is_disabled": 0, "lat": 38.902579333333335, "bike_id": "024d48f9b540aa797ebc74f14a7a48a7", "name": "024d48f9b540aa797ebc74f14a7a48a7", "is_reserved": 0, "fusion_lat": 0.0}, {"type": "electric_scooter", "rental_uris": {"ios": "https://dc.lft.to/lastmile_qr_scan", "android": "https://dc.lft.to/lastmile_qr_scan"}, "lon": -77.01226816666667, "fusion_lon": 0.0, "is_disabled": 0, "lat": 38.91500833333333, "bike_id": "fd78a701d13bce3387f7abd8e0e85823", "name": "fd78a701d13bce3387f7abd8e0e85823", "is_reserved": 0, "fusion_lat": 0.0}, {"type": "electric_scooter", "rental_uris": {"ios": "https://dc.lft.to/lastmile_qr_scan", "android": "https://dc.lft.to/lastmile_qr_scan"}, "lon": -77.03403883333333, "fusion_lon": 0.0, "is_disabled": 0, "lat": 38.93127, "bike_id": "0c349734f8a998e32f99462d77c90d69", "name": "0c349734f8a998e32f99462d77c90d69", "is_reserved": 0, "fusion_lat": 0.0}, {"type": "electric_scooter", "rental_uris": {"ios": "https://dc.lft.to/lastmile_qr_scan", "android": "https://dc.lft.to/lastmile_qr_scan"}, "lon": -77.00720516666667, "fusion_lon": 0.0, "is_disabled": 0, "lat": 38.89982783333333, "bike_id": "84835e52fdb471e9ba2fa5ef23e9fdb2", "name": "84835e52fdb471e9ba2fa5ef23e9fdb2", "is_reserved": 0, "fusion_lat": 0.0}, {"type": "electric_scooter", "rental_uris": {"ios": "https://dc.lft.to/lastmile_qr_scan", "android": "https://dc.lft.to/lastmile_qr_scan"}, "lon": -77.03472933333333, "fusion_lon": 0.0, "is_disabled": 0, "lat": 38.9096125, "bike_id": "9f13982b840995cba3001f05103797a3", "name": "9f13982b840995cba3001f05103797a3", "is_reserved": 0, "fusion_lat": 0.0}, {"type": "electric_scooter", "rental_uris": {"ios": "https://dc.lft.to/lastmile_qr_scan", "android": "https://dc.lft.to/lastmile_qr_scan"}, "lon": -77.040057, "fusion_lon": 0.0, "is_disabled": 0, "lat": 38.907618166666666, "bike_id": "d28df4134c94b7d49ef57a43d60bb0d3", "name": "d28df4134c94b7d49ef57a43d60bb0d3", "is_reserved": 0, "fusion_lat": 0.0}, {"type": "electric_scooter", "rental_uris": {"ios": "https://dc.lft.to/lastmile_qr_scan", "android": "https://dc.lft.to/lastmile_qr_scan"}, "lon": -77.001162, "fusion_lon": 0.0, "is_disabled": 0, "lat": 38.91707733333333, "bike_id": "7ee855ad74e49820476ea8e84ab8b233", "name": "7ee855ad74e49820476ea8e84ab8b233", "is_reserved": 0, "fusion_lat": 0.0},