{"data": {"bikes": [{"fusion_lon": 0.0, "is_reserved": 0, "lat": 38.8419175, "is_disabled": 0, "type": "electric_bike", "lon": -77.077498, "fusion_lat": 0.0, "name": "4e44ff3e83a013832054f66c3b10904b", "rental_uris": {"android": "https://dc.lft.to/lastmile_qr_scan", "ios": "https://dc.lft.to/lastmile_qr_scan"}, "bike_id": "4e44ff3e83a013832054f66c3b10904b"}, {"fusion_lon": 0.0, "is_reserved": 0, "lat": 38.919186333333336, "is_disabled": 0, "type": "electric_scooter", "lon": -77.032977, "fusion_lat": 0.0, "name": "32ce6494eff91516cc5cf46b1b5e7b1e", "rental_uris": {"android": "https://dc.lft.to/lastmile_qr_scan", "ios": "https://dc.lft.to/lastmile_qr_scan"}, "bike_id": "32ce6494eff91516cc5cf46b1b5e7b1e"}, {"fusion_lon": 0.0, "is_reserved": 0, "lat": 38.91857316666667, "is_disabled": 0, "type": "electric_bike", "lon": -76.96089316666666, "fusion_lat": 0.0, "name": "265ec75103ae249d7c07d099eb764727", "rental_uris": {"android": "https://dc.lft.to/lastmile_qr_scan", "ios": "https://dc.lft.to/lastmile_qr_scan"}, "bike_id": "265ec75103ae249d7c07d099eb764727"}, {"fusion_lon": 0.0, "is_reserved": 0, "lat": 38.921090166666666, "is_disabled": 0, "type": "electric_scooter", "lon": -77.01763083333333, "fusion_lat": 0.0, "name": "acb94738ce8e20b109e623456f1494c7", "rental_uris": {"android": "https://dc.lft.to/lastmile_qr_scan", "ios": "https://dc.lft.to/lastmile_qr_scan"}, "bike_id": "acb94738ce8e20b109e623456f1494c7"}, {"fusion_lon": 0.0, "is_reserved": 0, "lat": 38.87625333333333, "is_disabled": 0, "type": "electric_scooter", "lon": -76.96514916666666, "fusion_lat": 0.0, "name": "1c9ce31ab25030496c9025231fe78ba2", "rental_uris": {"android": "https://dc.lft.to/lastmile_qr_scan", "ios": "https://dc.lft.to/lastmile_qr_scan"}, "bike_id": "1c9ce31ab25030496c9025231fe78ba2"}, {"fusion_lon": 0.0, "is_reserved": 0, "lat": 38.90390633333333, "is_disabled": 0, "type": "electric_scooter", "lon": -77.04677066666666, "fusion_lat": 0.0, "name": "a3a16c26f60195814e86dadfeab8b123", "rental_uris": {"android": "https://dc.lft.to/lastmile_qr_scan", "ios": "https://dc.lft.to/lastmile_qr_scan"}, "bike_id": "a3a16c26f60195814e86dadfeab8b123"}, {"fusion_lon": 0.0, "is_reserved": 0, "lat": 38.920486, "is_disabled": 0, "type": "electric_scooter", "lon": -77.04190266666667, "fusion_lat": 0.0, "name": "22e63b29191f1d82900e9c63af72d1fc", "rental_uris": {"android": "https://dc.lft.to/lastmile_qr_scan", "ios": "https://dc.lft.to/lastmile_qr_scan"}, "bike_id": "22e63b29191f1d82900e9c63af72d1fc"}, {"fusion_lon": 0.0, "is_reserved": 0, "lat": 38.902577, "is_disabled": 0, "type": "electric_scooter", "lon": -77.03458133333334, "fusion_lat": 0.0, "name": "ac33550ae2a6053b1d5338033b53b660", "rental_uris": {"android": "https://dc.lft.to/lastmile_qr_scan", "ios": "https://dc.lft.to/lastmile_qr_scan"}, "bike_id": "ac33550ae2a6053b1d5338033b53b660"}, {"fusion_lon": 0.0, "is_reserved": 0, "lat": 38.917556, "is_disabled": 0, "type": "electric_bike", "lon": -76.973099, "fusion_lat": 0.0, "name": "c0f16aebb0288f3b6ac9da1eb6c7d55c", "rental_uris": {"android": "https://dc.lft.to/lastmile_qr_scan", "ios": "https://dc.lft.to/lastmile_qr_scan"}, "bike_id": "c0f16aebb0288f3b6ac9da1eb6c7d55c"}, {"fusion_lon": 0.0, "is_reserved": 0, "lat": 38.904518333333336, "is_disabled": 0, "type": "electric_scooter", "lon": -77.01724916666667, "fusion_lat": 0.0, "name": "5031824ddacd71989220be417c2a7dbc", "rental_uris": {"android": "https://dc.lft.to/lastmile_qr_scan", "ios": "https://dc.lft.to/lastmile_qr_scan"}, "bike_id": "5031824ddacd71989220be417c2a7dbc"}, {"fusion_lon": 0.0, "is_reserved": 0, "lat": 38.953958, "is_disabled": 0, "type": "electric_scooter", "lon": -77.02558683333334, "fusion_lat": 0.0, "name": "d3e14fb108af04466c40efa9460b407b", "rental_uris": {"android": "https://dc.lft.to/lastmile_qr_scan", "ios": "https://dc.lft.to/lastmile_qr_scan"}, "bike_id": "d3e14fb108af04466c40efa9460b407b"}, {"fusion_lon": 0.0, "is_reserved": 0, "lat": 38.9034845, "is_disabled": 0, "type": "electric_scooter", "lon": -76.929414, "fusion_lat": 0.0, "name": "b46ce79116e5716a8ae701c8373adc62", "rental_uris": {"android": "https://dc.lft.to/lastmile_qr_scan", "ios": "https://dc.lft.to/lastmile_qr_scan"}, "bike_id": "b46ce79116e5716a8ae701c8373adc62"}, {"fusion_lon": 0.0, "is_reserved": 0, "lat": 38.907631333333335, "is_disabled": 0, "type": "electric_scooter", "lon": -77.07170983333333, "fusion_lat": 0.0, "name": "5041f40f007a81b1ccb230aad826b961", "rental_uris": {"android": "https://dc.lft.to/lastmile_qr_scan", "ios": "https://dc.lft.to/lastmile_qr_scan"}, "bike_id": "5041f40f007a81b1ccb230aad826b961"}, {"fusion_lon": 0.0, "is_reserved": 0, "lat": 38.92340316666667, "is_disabled": 0, "type": "electric_scooter", "lon": -77.01908433333334, "fusion_lat": 0.0, "name": "eabcd9c17d9915f26334a61a1784d73c", "rental_uris": {"android": "https://dc.lft.to/lastmile_qr_scan", "ios": "https://dc.lft.to/lastmile_qr_scan"}, "bike_id": "eabcd9c17d9915f26334a61a1784d73c"}, {"fusion_lon": 0.0, "is_reserved": 0, "lat": 38.922967666666665, "is_disabled": 0, "type": "electric_scooter", "lon": -76.99776933333334, "fusion_lat": 0.0, "name": "fe89328c05089eca67890c157c79e27d", "rental_uris": {"android": "https://dc.lft.to/lastmile_qr_scan", "ios": "https://dc.lft.to/lastmile_qr_scan"}, "bike_id": "fe89328c05089eca67890c157c79e27d"}, {"fusion_lon": 0.0, "is_reserved": 0, "lat": 38.87574016666667, "is_disabled": 0, "type": "electric_scooter", "lon": -77.00825533333334, "fusion_lat": 0.0, "name": "7d8b9c17fb4d7580145e78fb9e00da86", "rental_uris": {"android": "https://dc.lft.to/lastmile_qr_scan", "ios": "https://dc.lft.to/lastmile_qr_scan"}, "bike_id": "7d8b9c17fb4d7580145e78fb9e00da86"}, {"fusion_lon": 0.0, "is_reserved": 0, "lat": 38.883467, "is_disabled": 0, "type": "electric_scooter", "lon": -76.93627683333334, "fusion_lat": 0.0, "name": "7e2c5e0381afbab039584fd1ba676796", "rental_uris": {"android": "https://dc.lft.to/lastmile_qr_scan", "ios": "https://dc.lft.to/lastmile_qr_scan"}, "bike_id": "7e2c5e0381afbab039584fd1ba676796"}, {"fusion_lon": 0.0, "is_reserved": 0, "lat": 38.9028205, "is_disabled": 0, "type": "electric_scooter", "lon": -77.03841333333334, "fusion_lat": 0.0, "name": "dac13881409d5323692f679bb22031e1", "rental_uris": {"android": "https://dc.lft.to/lastmile_qr_scan", "ios": "https://dc.lft.to/lastmile_qr_scan"}, "bike_id": "dac13881409d5323692f679bb22031e1"}, {"fusion_lon": 0.0, "is_reserved": 0, "lat": 38.920475333333336, "is_disabled": 0, "type": "electric_scooter", "lon": -77.0418145, "fusion_lat": 0.0, "name": "a645539f25de02d4222c2bb3705aa42f", "rental_uris": {"android": "https://dc.lft.to/lastmile_qr_scan", "ios": "https://dc.lft.to/lastmile_qr_scan"}, "bike_id": "a645539f25de02d4222c2bb3705aa42f"}, {"fusion_lon": 0.0, "is_reserved": 0, "lat": 38.92080833333333, "is_disabled": 0, "type": "electric_scooter", "lon": -77.02303316666666, "fusion_lat": 0.0, "name": "4e2ec8c75db4383c75324592c3c11b1d", "rental_uris": {"android": "https://dc.lft.to/lastmile_qr_scan", "ios": "https://dc.lft.to/lastmile_qr_scan"}, "bike_id": "4e2ec8c75db4383c75324592c3c11b1d"}, {"fusion_lon": 0.0, "is_reserved": 0, "lat": 38.902389166666666, "is_disabled": 0, "type": "electric_scooter", "lon": -77.0019695, "fusion_lat": 0.0, "name": "b11cbe32f5dc60103850c4e2d2122c7d", "rental_uris": {"android": "https://dc.lft.to/lastmile_qr_scan", "ios": "https://dc.lft.to/lastmile_qr_scan"}, "bike_id": "b11cbe32f5dc60103850c4e2d2122c7d"}, {"fusion_lon": 0.0, "is_reserved": 0, "lat": 38.89749583333333, "is_disabled": 0, "type": "electric_scooter", "lon": -77.02160216666667, "fusion_lat": 0.0, "name": "52806c22032be5156a89a2072050d2e3", "rental_uris": {"android": "https://dc.lft.to/lastmile_qr_scan", "ios": "https://dc.lft.to/lastmile_qr_scan"}, "bike_id": "52806c22032be5156a89a2072050d2e3"}, {"fusion_lon": 0.0, "is_reserved": 0, "lat": 38.92884316666667, "is_disabled": 0, "type": "electric_scooter", "lon": -77.03281566666666, "fusion_lat": 0.0, "name": "5646b9533b5e90dd602a16c0a6e37d1f", "rental_uris": {"android": "https://dc.lft.to/lastmile_qr_scan", "ios": "https://dc.lft.to/lastmile_qr_scan"}, "bike_id": "5646b9533b5e90dd602a16c0a6e37d1f"}, {"fusion_lon": 0.0, "is_reserved": 0, "lat": 38.990935, "is_disabled": 0, "type": "electric_bike", "lon": -76.99364866666667, "fusion_lat": 0.0, "name": "325f7ddd7bfd582b54ba71501058daf8", "rental_uris": {"android": "https://dc.lft.to/lastmile_qr_scan", "ios": "https://dc.lft.to/lastmile_qr_scan"}, "bike_id": "325f7ddd7bfd582b54ba71501058daf8"}, {"fusion_lon": 0.0, "is_reserved": 0, "lat": 38.90963983333333, "is_disabled": 0, "type": "electric_scooter", "lon": -77.01444983333333, "fusion_lat": 0.0, "name": "3bbbbd8e983e4b43e1407ef35f449a54", "rental_uris": {"android": "https://dc.lft.to/lastmile_qr_scan", "ios": "https://dc.lft.to/lastmile_qr_scan"}, "bike_id": "3bbbbd8e983e4b43e1407ef35f449a54"}, {"fusion_lon": 0.0, "is_reserved": 0, "lat": 38.8731645, "is_disabled": 0, "type": "electric_scooter", "lon": -76.97035433333333, "fusion_lat": 0.0, "name": "135eda8f636c11008e36365e05fd794e", "rental_uris": {"android": "https://dc.lft.to/lastmile_qr_scan", "ios": "https://dc.lft.to/lastmile_qr_scan"}, "bike_id": "135eda8f636c11008e36365e05fd794e"}, {"fusion_lon": 0.0, "is_reserved": 0, "lat": 38.877707666666666, "is_disabled": 0, "type": "electric_scooter", "lon": -77.00352683333334, "fusion_lat": 0.0, "name": "fbc6495388813687985fbce43140410e", "rental_uris": {"android": "https://dc.lft.to/lastmile_qr_scan", "ios": "https://dc.lft.to/lastmile_qr_scan"}, "bike_id": "fbc6495388813687985fbce43140410e"}, {"fusion_lon": 0.0, "is_reserved": 0, "lat": 38.93060883333333, "is_disabled": 0, "type": "electric_scooter", "lon": -77.03638316666667, "fusion_lat": 0.0, "name": "a378d74b6b1466f2af11c56a0b4ac294", "rental_uris": {"android": "https://dc.lft.to/lastmile_qr_scan", "ios": "https://dc.lft.to/lastmile_qr_scan"}, "bike_id": "a378d74b6b1466f2af11c56a0b4ac294"}, {"fusion_lon": 0.0, "is_reserved": 0, "lat": 38.89057716666667, "is_disabled": 0, "type": "electric_bike", "lon": -76.9422665, "fusion_lat": 0.0, "name": "b323eed904722ade11cd657dd3997cec", "rental_uris": {"android": "https://dc.lft.to/lastmile_qr_scan", "ios": "https://dc.lft.to/lastmile_qr_scan"}, "bike_id": "b323eed904722ade11cd657dd3997cec"}, {"fusion_lon": 0.0, "is_reserved": 0, "lat": 38.881833666666665, "is_disabled": 0, "type": "electric_scooter", "lon": -77.02085, "fusion_lat": 0.0, "name": "e81683eff47ae19252bab5fe1d5964b3", "rental_uris": {"android": "https://dc.lft.to/lastmile_qr_scan", "ios": "https://dc.lft.to/lastmile_qr_scan"}, "bike_id": "e81683eff47ae19252bab5fe1d5964b3"}, {"fusion_lon": 0.0, "is_reserved": 0, "lat": 38.83168633333333, "is_disabled": 0, "type": "electric_bike", "lon": -77.06693583333333, "fusion_lat": 0.0, "name": "b63757e3368ad074e2a0b2464f68ad70", "rental_uris": {"android": "https://dc.lft.to/lastmile_qr_scan", "ios": "https://dc.lft.to/lastmile_qr_scan"}, "bike_id": "b63757e3368ad074e2a0b2464f68ad70"}, {"fusion_lon": 0.0, "is_reserved": 0, "lat": 38.93099, "is_disabled": 0, "type": "electric_scooter", "lon": -77.03806883333333, "fusion_lat": 0.0, "name": "b36d47cde374b976e4d6bdfe6554d4c5", "rental_uris": {"android": "https://dc.lft.to/lastmile_qr_scan", "ios": "https://dc.lft.to/lastmile_qr_scan"}, "bike_id": "b36d47cde374b976e4d6bdfe6554d4c5"}, {"fusion_lon": 0.0, "is_reserved": 0, "lat": 38.92843516666667, "is_disabled": 0, "type": "electric_scooter", "lon": -77.0551345, "fusion_lat": 0.0, "name": "2f0697dff8b6d30f8464b51f7b4ed06e", "rental_uris": {"android": "https://dc.lft.to/lastmile_qr_scan", "ios": "https://dc.lft.to/lastmile_qr_scan"}, "bike_id": "2f0697dff8b6d30f8464b51f7b4ed06e"}, {"fusion_lon": 0.0, "is_reserved": 0, "lat": 38.85967433333333, "is_disabled": 0, "type": "electric_scooter", "lon": -76.96707566666667, "fusion_lat": 0.0, "name": "18e2a0cb037c2f40a66241bad9b30a85", "rental_uris": {"android": "https://dc.lft.to/lastmile_qr_scan", "ios": "https://dc.lft.to/lastmile_qr_scan"}, "bike_id": "18e2a0cb037c2f40a66241bad9b30a85"}, {"fusion_lon": 0.0, "is_reserved": 0, "lat": 38.895382, "is_disabled": 0, "type": "electric_scooter", "lon": -77.03087366666666, "fusion_lat": 0.0, "name": "40393fe553cd53536ae474ede796fa09", "rental_uris": {"android": "https://dc.lft.to/lastmile_qr_scan", "ios": "https://dc.lft.to/lastmile_qr_scan"}, "bike_id": "40393fe553cd53536ae474ede796fa09"}, {"fusion_lon": 0.0, "is_reserved": 0, "lat": 38.924117333333335, "is_disabled": 0, "type": "electric_scooter", "lon": -77.02146716666667, "fusion_lat": 0.0, "name": "aed047b9b7e54bfddcb5f3868954cbef", "rental_uris": {"android": "https://dc.lft.to/lastmile_qr_scan", "ios": "https://dc.lft.to/lastmile_qr_scan"}, "bike_id": "aed047b9b7e54bfddcb5f3868954cbef"}, {"fusion_lon": 0.0, "is_reserved": 0, "lat": 38.92947016666667, "is_disabled": 0, "type": "electric_scooter", "lon": -77.00436233333333, "fusion_lat": 0.0, "name": "6472462ce64d668fbdb2f4d50dbc699a", "rental_uris": {"android": "https://dc.lft.to/lastmile_qr_scan", "ios": "https://dc.lft.to/lastmile_qr_scan"}, "bike_id": "6472462ce64d668fbdb2f4d50dbc699a"}, {"fusion_lon": 0.0, "is_reserved": 0, "lat": 38.912781333333335, "is_disabled": 0, "type": "electric_scooter", "lon": -76.98376883333333, "fusion_lat": 0.0, "name": "3545aab74876adc4289e3761649dd1fa", "rental_uris": {"android": "https://dc.lft.to/lastmile_qr_scan", "ios": "https://dc.lft.to/lastmile_qr_scan"}, "bike_id": "3545aab74876adc4289e3761649dd1fa"}, {"fusion_lon": 0.0, "is_reserved": 0, "lat": 38.990235, "is_disabled": 0, "type": "electric_scooter", "lon": -77.03061833333334, "fusion_lat": 0.0, "name": "32401891dade93e1f53321e3f8f404ee", "rental_uris": {"android": "https://dc.lft.to/lastmile_qr_scan", "ios": "https://dc.lft.to/lastmile_qr_scan"}, "bike_id": "32401891dade93e1f53321e3f8f404ee"}, {"fusion_lon": 0.0, "is_reserved": 0, "lat": 38.94163866666667, "is_disabled": 0, "type": "electric_scooter", "lon": -77.03148933333334, "fusion_lat": 0.0, "name": "0d8641dfc0abf4413d9b57b671a7cc6a", "rental_uris": {"android": "https://dc.lft.to/lastmile_qr_scan", "ios": "https://dc.lft.to/lastmile_qr_scan"}, "bike_id": "0d8641dfc0abf4413d9b57b671a7cc6a"}, {"fusion_lon": 0.0, "is_reserved": 0, "lat": 38.912546, "is_disabled": 0, "type": "electric_scooter", "lon": -77.02568866666667, "fusion_lat": 0.0, "name": "4647163290af7cfb9c2c2b0c748c7fcb", "rental_uris": {"android": "https://dc.lft.to/lastmile_qr_scan", "ios": "https://dc.lft.to/lastmile_qr_scan"}, "bike_id": "4647163290af7cfb9c2c2b0c748c7fcb"}, {"fusion_lon": 0.0, "is_reserved": 0, "lat": 38.90267433333333, "is_disabled": 0, "type": "electric_scooter", "lon": -77.02996683333333, "fusion_lat": 0.0, "name": "24fa0bd63c88920b951f5e6d6b269fff", "rental_uris": {"android": "https://dc.lft.to/lastmile_qr_scan", "ios": "https://dc.lft.to/lastmile_qr_scan"}, "bike_id": "24fa0bd63c88920b951f5e6d6b269fff"}, {"fusion_lon": 0.0, "is_reserved": 0, "lat": 38.914160833333334, "is_disabled": 0, "type": "electric_scooter", "lon": -77.03280333333333, "fusion_lat": 0.0, "name": "73b2e24d09a3f6b810c2e554d892e6e9", "rental_uris": {"android": "https://dc.lft.to/lastmile_qr_scan", "ios": "https://dc.lft.to/lastmile_qr_scan"}, "bike_id": "73b2e24d09a3f6b810c2e554d892e6e9"}, {"fusion_lon": 0.0, "is_reserved": 0, "lat": 38.93520083333333, "is_disabled": 0, "type": "electric_scooter", "lon": -77.02545333333333, "fusion_lat": 0.0, "name": "0d6f97103d1d4c90473c1d3090113850", "rental_uris": {"android": "https://dc.lft.to/lastmile_qr_scan", "ios": "https://dc.lft.to/lastmile_qr_scan"}, "bike_id": "0d6f97103d1d4c90473c1d3090113850"}, {"fusion_lon": 0.0, "is_reserved": 0, "lat": 38.895752333333334, "is_disabled": 0, "type": "electric_bike", "lon": -77.127044, "fusion_lat": 0.0, "name": "4b246de2c17b610364903893ee1065b2", "rental_uris": {"android": "https://dc.lft.to/lastmile_qr_scan", "ios": "https://dc.lft.to/lastmile_qr_scan"}, "bike_id": "4b246de2c17b610364903893ee1065b2"}, {"fusion_lon": 0.0, "is_reserved": 0, "lat": 38.919647499999996, "is_disabled": 0, "type": "electric_scooter", "lon": -77.03854716666666, "fusion_lat": 0.0, "name": "470f1085ba23e6406d87f467ebb9aa54", "rental_uris": {"android": "https://dc.lft.to/lastmile_qr_scan", "ios": "https://dc.lft.to/lastmile_qr_scan"}, "bike_id": "470f1085ba23e6406d87f467ebb9aa54"}, {"fusion_lon": 0.0, "is_reserved": 0, "lat": 38.91046766666667, "is_disabled": 0, "type": "electric_scooter", "lon": -77.03799716666667, "fusion_lat": 0.0, "name": "0fbc803ccb950e2981e7628608e4f64a", "rental_uris": {"android": "https://dc.lft.to/lastmile_qr_scan", "ios": "https://dc.lft.to/lastmile_qr_scan"}, "bike_id": "0fbc803ccb950e2981e7628608e4f64a"}, {"fusion_lon": 0.0, "is_reserved": 0, "lat": 38.89728933333333, "is_disabled": 0, "type": "electric_scooter", "lon": -76.94703433333333, "fusion_lat": 0.0, "name": "a301de9815a3a54233ed16345f59513a", "rental_uris": {"android": "https://dc.lft.to/lastmile_qr_scan", "ios": "https://dc.lft.to/lastmile_qr_scan"}, "bike_id": "a301de9815a3a54233ed16345f59513a"}, {"fusion_lon": 0.0, "is_reserved": 0, "lat": 38.91816166666667, "is_disabled": 0, "type": "electric_scooter", "lon": -77.03183566666667, "fusion_lat": 0.0, "name": "937ec86b7224b1e406c2b1f0d5d0bbe8", "rental_uris": {"android": "https://dc.lft.to/lastmile_qr_scan", "ios": "https://dc.lft.to/lastmile_qr_scan"}, "bike_id": "937ec86b7224b1e406c2b1f0d5d0bbe8"}, {"fusion_lon": 0.0, "is_reserved": 0, "lat": 38.918263333333336, "is_disabled": 0, "type": "electric_scooter", "lon": -77.03212666666667, "fusion_lat": 0.0, "name": "73fca9fc87eefd137879e42fb5702cee", "rental_uris": {"android": "https://dc.lft.to/lastmile_qr_scan", "ios": "https://dc.lft.to/lastmile_qr_scan"}, "bike_id": "73fca9fc87eefd137879e42fb5702cee"}, {"fusion_lon": 0.0, "is_reserved": 0, "lat": 38.900720666666665, "is_disabled": 0, "type": "electric_scooter", "lon": -77.0487055, "fusion_lat": 0.0, "name": "f8bfbbb5b77e15bf9ace6b79e9684ef5", "rental_uris": {"android": "https://dc.lft.to/lastmile_qr_scan", "ios": "https://dc.lft.to/lastmile_qr_scan"}, "bike_id": "f8bfbbb5b77e15bf9ace6b79e9684ef5"}, {"fusion_lon": 0.0, "is_reserved": 0, "lat": 38.897805, "is_disabled": 0, "type": "electric_scooter", "lon": -77.02196466666666, "fusion_lat": 0.0, "name": "add01962d2c8776e4259a43259c6c8e3", "rental_uris": {"android": "https://dc.lft.to/lastmile_qr_scan", "ios": "https://dc.lft.to/lastmile_qr_scan"}, "bike_id": "add01962d2c8776e4259a43259c6c8e3"}, {"fusion_lon": 0.0, "is_reserved": 0, "lat": 38.894972333333335, "is_disabled": 0, "type": "electric_scooter", "lon": -77.02182216666667, "fusion_lat": 0.0, "name": "da7e3015712176c0bc7101c8cc62d51c", "rental_uris": {"android": "https://dc.lft.to/lastmile_qr_scan", "ios": "https://dc.lft.to/lastmile_qr_scan"}, "bike_id": "da7e3015712176c0bc7101c8cc62d51c"}, {"fusion_lon": 0.0, "is_reserved": 0, "lat": 38.92701533333333, "is_disabled": 0, "type": "electric_scooter", "lon": -76.99545533333334, "fusion_lat": 0.0, "name": "f311136710253be7e95d9d88ee9c2eb5", "rental_uris": {"android": "https://dc.lft.to/lastmile_qr_scan", "ios": "https://dc.lft.to/lastmile_qr_scan"}, "bike_id": "f311136710253be7e95d9d88ee9c2eb5"}, {"fusion_lon": 0.0, "is_reserved": 0, "lat": 38.896243, "is_disabled": 0, "type": "electric_scooter", "lon": -77.0241905, "fusion_lat": 0.0, "name": "4cb4e843ab28fcf5b4028550dea551b8", "rental_uris": {"android": "https://dc.lft.to/lastmile_qr_scan", "ios": "https://dc.lft.to/lastmile_qr_scan"}, "bike_id": "4cb4e843ab28fcf5b4028550dea551b8"}, {"fusion_lon": 0.0, "is_reserved": 0, "lat": 38.910960333333335, "is_disabled": 0, "type": "electric_bike", "lon": -77.07351066666666, "fusion_lat": 0.0, "name": "65e4b64976aed4c0ef6cab6b14bab0a4", "rental_uris": {"android": "https://dc.lft.to/lastmile_qr_scan", "ios": "https://dc.lft.to/lastmile_qr_scan"}, "bike_id": "65e4b64976aed4c0ef6cab6b14bab0a4"}, {"fusion_lon": 0.0, "is_reserved": 0, "lat": 38.91705433333333, "is_disabled": 0, "type": "electric_scooter", "lon": -77.0096345, "fusion_lat": 0.0, "name": "edc810d3c9ce3f23a69d48a1880f5eb6", "rental_uris": {"android": "https://dc.lft.to/lastmile_qr_scan", "ios": "https://dc.lft.to/lastmile_qr_scan"}, "bike_id": "edc810d3c9ce3f23a69d48a1880f5eb6"}, {"fusion_lon": 0.0, "is_reserved": 0, "lat": 38.912735833333336, "is_disabled": 0, "type": "electric_scooter", "lon": -77.07671066666667, "fusion_lat": 0.0, "name": "13dbfd13980b29b4ee031bdff1411ec1", "rental_uris": {"android": "https://dc.lft.to/lastmile_qr_scan", "ios": "https://dc.lft.to/lastmile_qr_scan"}, "bike_id": "13dbfd13980b29b4ee031bdff1411ec1"}, {"fusion_lon": 0.0, "is_reserved": 0, "lat": 38.88388466666667, "is_disabled": 0, "type": "electric_scooter", "lon": -76.9544685, "fusion_lat": 0.0, "name": "268b63cb9ce9567d78f2bb45a837095f", "rental_uris": {"android": "https://dc.lft.to/lastmile_qr_scan", "ios": "https://dc.lft.to/lastmile_qr_scan"}, "bike_id": "268b63cb9ce9567d78f2bb45a837095f"}, {"fusion_lon": 0.0, "is_reserved": 0, "lat": 38.8501815, "is_disabled": 0, "type": "electric_scooter", "lon": -76.9735215, "fusion_lat": 0.0, "name": "3805461104d4ec4b0f8e3fb85647a45d", "rental_uris": {"android": "https://dc.lft.to/lastmile_qr_scan", "ios": "https://dc.lft.to/lastmile_qr_scan"}, "bike_id": "3805461104d4ec4b0f8e3fb85647a45d"}, {"fusion_lon": 0.0, "is_reserved": 0, "lat": 38.907308666666665, "is_disabled": 0, "type": "electric_scooter", "lon": -77.04242133333334, "fusion_lat": 0.0, "name": "64d41faec1ebe0ff26ad8e22e332547e", "rental_uris": {"android": "https://dc.lft.to/lastmile_qr_scan", "ios": "https://dc.lft.to/lastmile_qr_scan"}, "bike_id": "64d41faec1ebe0ff26ad8e22e332547e"}, {"fusion_lon": 0.0, "is_reserved": 0, "lat": 38.90267033333333, "is_disabled": 0, "type": "electric_scooter", "lon": -77.045871, "fusion_lat": 0.0, "name": "f4cca82b87a95f003e6c3053223dfbec", "rental_uris": {"android": "https://dc.lft.to/lastmile_qr_scan", "ios": "https://dc.lft.to/lastmile_qr_scan"}, "bike_id": "f4cca82b87a95f003e6c3053223dfbec"}, {"fusion_lon": 0.0, "is_reserved": 0, "lat": 38.90136783333333, "is_disabled": 0, "type": "electric_scooter", "lon": -77.02977683333333, "fusion_lat": 0.0, "name": "661ee338cf45aba1ec59d81f0c89978f", "rental_uris": {"android": "https://dc.lft.to/lastmile_qr_scan", "ios": "https://dc.lft.to/lastmile_qr_scan"}, "bike_id": "661ee338cf45aba1ec59d81f0c89978f"}, {"fusion_lon": 0.0, "is_reserved": 0, "lat": 38.90545, "is_disabled": 0, "type": "electric_scooter", "lon": -77.0219705, "fusion_lat": 0.0, "name": "b52c2ac627731831363f24911f4dfdae", "rental_uris": {"android": "https://dc.lft.to/lastmile_qr_scan", "ios": "https://dc.lft.to/lastmile_qr_scan"}, "bike_id": "b52c2ac627731831363f24911f4dfdae"}, {"fusion_lon": 0.0, "is_reserved": 0, "lat": 38.88988, "is_disabled": 0, "type": "electric_scooter", "lon": -76.99846383333333, "fusion_lat": 0.0, "name": "c892e1795b4d69e0d035e93c19e2e0c7", "rental_uris": {"android": "https://dc.lft.to/lastmile_qr_scan", "ios": "https://dc.lft.to/lastmile_qr_scan"}, "bike_id": "c892e1795b4d69e0d035e93c19e2e0c7"}, {"fusion_lon": 0.0, "is_reserved": 0, "lat": 38.85961783333333, "is_disabled": 0, "type": "electric_scooter", "lon": -76.98702683333333, "fusion_lat": 0.0, "name": "80e99e4b75d735b1d4b76f9d098b0bbb", "rental_uris": {"android": "https://dc.lft.to/lastmile_qr_scan", "ios": "https://dc.lft.to/lastmile_qr_scan"}, "bike_id": "80e99e4b75d735b1d4b76f9d098b0bbb"}, {"fusion_lon": 0.0, "is_reserved": 0, "lat": 38.90501966666667, "is_disabled": 0, "type": "electric_scooter", "lon": -77.058014, "fusion_lat": 0.0, "name": "87ebcb70ba8bedd62d0a4a547f9271c9", "rental_uris": {"android": "https://dc.lft.to/lastmile_qr_scan", "ios": "https://dc.lft.to/lastmile_qr_scan"}, "bike_id": "87ebcb70ba8bedd62d0a4a547f9271c9"}, {"fusion_lon": 0.0, "is_reserved": 0, "lat": 38.89918483333334, "is_disabled": 0, "type": "electric_scooter", "lon": -77.0400495, "fusion_lat": 0.0, "name": "fd99ccffee605f356a68666ac7baac3d", "rental_uris": {"android": "https://dc.lft.to/lastmile_qr_scan", "ios": "https://dc.lft.to/lastmile_qr_scan"}, "bike_id": "fd99ccffee605f356a68666ac7baac3d"}, {"fusion_lon": 0.0, "is_reserved": 0, "lat": 38.9181455, "is_disabled": 0, "type": "electric_scooter", "lon": -77.02476783333333, "fusion_lat": 0.0, "name": "768b5f3c964d23575e6d47a003c39ff5", "rental_uris": {"android": "https://dc.lft.to/lastmile_qr_scan", "ios": "https://dc.lft.to/lastmile_qr_scan"}, "bike_id": "768b5f3c964d23575e6d47a003c39ff5"}, {"fusion_lon": 0.0, "is_reserved": 0, "lat": 38.90845266666667, "is_disabled": 0, "type": "electric_scooter", "lon": -77.03943883333334, "fusion_lat": 0.0, "name": "af195045022d26bb52d048fa7592ed39", "rental_uris": {"android": "https://dc.lft.to/lastmile_qr_scan", "ios": "https://dc.lft.to/lastmile_qr_scan"}, "bike_id": "af195045022d26bb52d048fa7592ed39"}, {"fusion_lon": 0.0, "is_reserved": 0, "lat": 38.87628016666667, "is_disabled": 0, "type": "electric_scooter", "lon": -76.9652585, "fusion_lat": 0.0, "name": "1a579cf80475cff7fe487dbe38ee614b", "rental_uris": {"android": "https://dc.lft.to/lastmile_qr_scan", "ios": "https://dc.lft.to/lastmile_qr_scan"}, "bike_id": "1a579cf80475cff7fe487dbe38ee614b"}, {"fusion_lon": 0.0, "is_reserved": 0, "lat": 38.949775333333335, "is_disabled": 0, "type": "electric_scooter", "lon": -77.02445083333333, "fusion_lat": 0.0, "name": "c534518fca381e459f0cdefa2d42a26e", "rental_uris": {"android": "https://dc.lft.to/lastmile_qr_scan", "ios": "https://dc.lft.to/lastmile_qr_scan"}, "bike_id": "c534518fca381e459f0cdefa2d42a26e"}, {"fusion_lon": 0.0, "is_reserved": 0, "lat": 38.86431016666667, "is_disabled": 0, "type": "electric_scooter", "lon": -76.98999116666667, "fusion_lat": 0.0, "name": "92ce52ca7afc72dd9ea0eb6a55791861", "rental_uris": {"android": "https://dc.lft.to/lastmile_qr_scan", "ios": "https://dc.lft.to/lastmile_qr_scan"}, "bike_id": "92ce52ca7afc72dd9ea0eb6a55791861"}, {"fusion_lon": 0.0, "is_reserved": 0, "lat": 38.90601733333333, "is_disabled": 0, "type": "electric_scooter", "lon": -77.01610683333334, "fusion_lat": 0.0, "name": "95511507f1b5900057cb88e49f514460", "rental_uris": {"android": "https://dc.lft.to/lastmile_qr_scan", "ios": "https://dc.lft.to/lastmile_qr_scan"}, "bike_id": "95511507f1b5900057cb88e49f514460"}, {"fusion_lon": 0.0, "is_reserved": 0, "lat": 38.907922666666664, "is_disabled": 0, "type": "electric_bike", "lon": -77.07169683333333, "fusion_lat": 0.0, "name": "923ac67b1fbd6e6c96706a1c0f981bbb", "rental_uris": {"android": "https://dc.lft.to/lastmile_qr_scan", "ios": "https://dc.lft.to/lastmile_qr_scan"}, "bike_id": "923ac67b1fbd6e6c96706a1c0f981bbb"}, {"fusion_lon": 0.0, "is_reserved": 0, "lat": 38.905376833333335, "is_disabled": 0, "type": "electric_scooter", "lon": -77.0513555, "fusion_lat": 0.0, "name": "a7539037db690165c1a45e008d462efb", "rental_uris": {"android": "https://dc.lft.to/lastmile_qr_scan", "ios": "https://dc.lft.to/lastmile_qr_scan"}, "bike_id": "a7539037db690165c1a45e008d462efb"}, {"fusion_lon": 0.0, "is_reserved": 0, "lat": 38.91125383333333, "is_disabled": 0, "type": "electric_scooter", "lon": -77.0385295, "fusion_lat": 0.0, "name": "3224549370ceb33433be2f7d305c07bc", "rental_uris": {"android": "https://dc.lft.to/lastmile_qr_scan", "ios": "https://dc.lft.to/lastmile_qr_scan"}, "bike_id": "3224549370ceb33433be2f7d305c07bc"}, {"fusion_lon": 0.0, "is_reserved": 0, "lat": 38.86881366666667, "is_disabled": 0, "type": "electric_scooter", "lon": -76.98304733333333, "fusion_lat": 0.0, "name": "443cfec79babc8e298b88cbea4cada2e", "rental_uris": {"android": "https://dc.lft.to/lastmile_qr_scan", "ios": "https://dc.lft.to/lastmile_qr_scan"}, "bike_id": "443cfec79babc8e298b88cbea4cada2e"}, {"fusion_lon": 0.0, "is_reserved": 0, "lat": 38.887982, "is_disabled": 0, "type": "electric_scooter", "lon": -76.99512633333333, "fusion_lat": 0.0, "name": "f996e8a818ed20f71684b3f703d811d0", "rental_uris": {"android": "https://dc.lft.to/lastmile_qr_scan", "ios": "https://dc.lft.to/lastmile_qr_scan"}, "bike_id": "f996e8a818ed20f71684b3f703d811d0"}, {"fusion_lon": 0.0, "is_reserved": 0, "lat": 38.90410266666667, "is_disabled": 0, "type": "electric_scooter", "lon": -77.04353866666666, "fusion_lat": 0.0, "name": "8cca539badd000f99f8e762bc5c46490", "rental_uris": {"android": "https://dc.lft.to/lastmile_qr_scan", "ios": "https://dc.lft.to/lastmile_qr_scan"}, "bike_id": "8cca539badd000f99f8e762bc5c46490"}, {"fusion_lon": 0.0, "is_reserved": 0, "lat": 38.92314016666667, "is_disabled": 0, "type": "electric_scooter", "lon": -77.04512216666667, "fusion_lat": 0.0, "name": "f7066e6dfa9c0a55bf7dfc30c75b25ca", "rental_uris": {"android": "https://dc.lft.to/lastmile_qr_scan", "ios": "https://dc.lft.to/lastmile_qr_scan"}, "bike_id": "f7066e6dfa9c0a55bf7dfc30c75b25ca"}, {"fusion_lon": 0.0, "is_reserved": 0, "lat": 38.92043783333333, "is_disabled": 0, "type": "electric_scooter", "lon": -77.01671283333333, "fusion_lat": 0.0, "name": "49402b4211f07dfdbd0a781935e7ffc3", "rental_uris": {"android": "https://dc.lft.to/lastmile_qr_scan", "ios": "https://dc.lft.to/lastmile_qr_scan"}, "bike_id": "49402b4211f07dfdbd0a781935e7ffc3"}, {"fusion_lon": 0.0, "is_reserved": 0, "lat": 38.924333833333336, "is_disabled": 0, "type": "electric_scooter", "lon": -77.02020683333333, "fusion_lat": 0.0, "name": "bf7c9509b20126a0e0dcd4aea2b9f9c5", "rental_uris": {"android": "https://dc.lft.to/lastmile_qr_scan", "ios": "https://dc.lft.to/lastmile_qr_scan"}, "bike_id": "bf7c9509b20126a0e0dcd4aea2b9f9c5"}, {"fusion_lon": 0.0, "is_reserved": 0, "lat": 38.91570383333333, "is_disabled": 0, "type": "electric_scooter", "lon": -77.0318335, "fusion_lat": 0.0, "name": "0cdfe0a82d5106acf3c3252463de6995", "rental_uris": {"android": "https://dc.lft.to/lastmile_qr_scan", "ios": "https://dc.lft.to/lastmile_qr_scan"}, "bike_id": "0cdfe0a82d5106acf3c3252463de6995"}, {"fusion_lon": 0.0, "is_reserved": 0, "lat": 38.894839166666664, "is_disabled": 0, "type": "electric_scooter", "lon": -77.01090833333333, "fusion_lat": 0.0, "name": "63a487d7fe18be3ac6db2a9800dbdfb5", "rental_uris": {"android": "https://dc.lft.to/lastmile_qr_scan", "ios": "https://dc.lft.to/lastmile_qr_scan"}, "bike_id": "63a487d7fe18be3ac6db2a9800dbdfb5"}, {"fusion_lon": 0.0, "is_reserved": 0, "lat": 38.89468983333333, "is_disabled": 0, "type": "electric_bike", "lon": -77.0465865, "fusion_lat": 0.0, "name": "252cebf1e58fd1190aadc52a840193f9", "rental_uris": {"android": "https://dc.lft.to/lastmile_qr_scan", "ios": "https://dc.lft.to/lastmile_qr_scan"}, "bike_id": "252cebf1e58fd1190aadc52a840193f9"}, {"fusion_lon": 0.0, "is_reserved": 0, "lat": 38.902706333333334, "is_disabled": 0, "type": "electric_scooter", "lon": -77.0385445, "fusion_lat": 0.0, "name": "55d2a51bdec3719c148e50edf2683d67", "rental_uris": {"android": "https://dc.lft.to/lastmile_qr_scan", "ios": "https://dc.lft.to/lastmile_qr_scan"}, "bike_id": "55d2a51bdec3719c148e50edf2683d67"}, {"fusion_lon": 0.0, "is_reserved": 0, "lat": 38.89801033333333, "is_disabled": 0, "type": "electric_bike", "lon": -77.024754, "fusion_lat": 0.0, "name": "6bb278249b647ec965e305d21df3d8f1", "rental_uris": {"android": "https://dc.lft.to/lastmile_qr_scan", "ios": "https://dc.lft.to/lastmile_qr_scan"}, "bike_id": "6bb278249b647ec965e305d21df3d8f1"}, {"fusion_lon": 0.0, "is_reserved": 0, "lat": 38.799849333333334, "is_disabled": 0, "type": "electric_bike", "lon": -77.1297925, "fusion_lat": 0.0, "name": "108ca0addf10b930fcd91811319c1753", "rental_uris": {"android": "https://dc.lft.to/lastmile_qr_scan", "ios": "https://dc.lft.to/lastmile_qr_scan"}, "bike_id": "108ca0addf10b930fcd91811319c1753"}, {"fusion_lon": 0.0, "is_reserved": 0, "lat": 38.905598, "is_disabled": 0, "type": "electric_scooter", "lon": -76.99801716666667, "fusion_lat": 0.0, "name": "758d6bede74df2045e78a1aea7b0a169", "rental_uris": {"android": "https://dc.lft.to/lastmile_qr_scan", "ios": "https://dc.lft.to/lastmile_qr_scan"}, "bike_id": "758d6bede74df2045e78a1aea7b0a169"}, {"fusion_lon": 0.0, "is_reserved": 0, "lat": 38.87847933333333, "is_disabled": 0, "type": "electric_scooter", "lon": -77.03022133333333, "fusion_lat": 0.0, "name": "ced133ad3287b96e1e1ce810678e5087", "rental_uris": {"android": "https://dc.lft.to/lastmile_qr_scan", "ios": "https://dc.lft.to/lastmile_qr_scan"}, "bike_id": "ced133ad3287b96e1e1ce810678e5087"}, {"fusion_lon": 0.0, "is_reserved": 0, "lat": 38.92267, "is_disabled": 0, "type": "electric_scooter", "lon": -77.04283733333334, "fusion_lat": 0.0, "name": "b833146daeb38069b8cac24098fc5f1a", "rental_uris": {"android": "https://dc.lft.to/lastmile_qr_scan", "ios": "https://dc.lft.to/lastmile_qr_scan"}, "bike_id": "b833146daeb38069b8cac24098fc5f1a"}, {"fusion_lon": 0.0, "is_reserved": 0, "lat": 38.91407516666666, "is_disabled": 0, "type": "electric_scooter", "lon": -77.03336516666667, "fusion_lat": 0.0, "name": "a0762f65217b1399d007ac672fb0f7ea", "rental_uris": {"android": "https://dc.lft.to/lastmile_qr_scan", "ios": "https://dc.lft.to/lastmile_qr_scan"}, "bike_id": "a0762f65217b1399d007ac672fb0f7ea"}, {"fusion_lon": 0.0, "is_reserved": 0, "lat": 38.895562166666664, "is_disabled": 0, "type": "electric_scooter", "lon": -77.04671, "fusion_lat": 0.0, "name": "d8ac5fcb1ece5d698f3a4ef734e5ce5e", "rental_uris": {"android": "https://dc.lft.to/lastmile_qr_scan", "ios": "https://dc.lft.to/lastmile_qr_scan"}, "bike_id": "d8ac5fcb1ece5d698f3a4ef734e5ce5e"}, {"fusion_lon": 0.0, "is_reserved": 0, "lat": 38.91173533333333, "is_disabled": 0, "type": "electric_scooter", "lon": -77.00868283333334, "fusion_lat": 0.0, "name": "08ac6f38b297b1cf4480529d693407bc", "rental_uris": {"android": "https://dc.lft.to/lastmile_qr_scan", "ios": "https://dc.lft.to/lastmile_qr_scan"}, "bike_id": "08ac6f38b297b1cf4480529d693407bc"}, {"fusion_lon": 0.0, "is_reserved": 0, "lat": 38.881815833333334, "is_disabled": 0, "type": "electric_scooter", "lon": -77.02824983333333, "fusion_lat": 0.0, "name": "a32d0949c13dc2939b6dba16311a7bd0", "rental_uris": {"android": "https://dc.lft.to/lastmile_qr_scan", "ios": "https://dc.lft.to/lastmile_qr_scan"}, "bike_id": "a32d0949c13dc2939b6dba16311a7bd0"}, {"fusion_lon": 0.0, "is_reserved": 0, "lat": 38.89122066666667, "is_disabled": 0, "type": "electric_scooter", "lon": -76.9408535, "fusion_lat": 0.0, "name": "de307cd0010bf04a301671328c4b1e94", "rental_uris": {"android": "https://dc.lft.to/lastmile_qr_scan", "ios": "https://dc.lft.to/lastmile_qr_scan"}, "bike_id": "de307cd0010bf04a301671328c4b1e94"}, {"fusion_lon": 0.0, "is_reserved": 0, "lat": 38.909759333333334, "is_disabled": 0, "type": "electric_scooter", "lon": -77.05192483333333, "fusion_lat": 0.0, "name": "8e8b06ab9c8a90d7a616b3a81cbaf9e5", "rental_uris": {"android": "https://dc.lft.to/lastmile_qr_scan", "ios": "https://dc.lft.to/lastmile_qr_scan"}, "bike_id": "8e8b06ab9c8a90d7a616b3a81cbaf9e5"}, {"fusion_lon": 0.0, "is_reserved": 0, "lat": 38.91423483333333, "is_disabled": 0, "type": "electric_scooter", "lon": -77.0318425, "fusion_lat": 0.0, "name": "441b7d2068ea6ef7ffaa99f31692bddc", "rental_uris": {"android": "https://dc.lft.to/lastmile_qr_scan", "ios": "https://dc.lft.to/lastmile_qr_scan"}, "bike_id": "441b7d2068ea6ef7ffaa99f31692bddc"}, {"fusion_lon": 0.0, "is_reserved": 0, "lat": 38.905877333333336, "is_disabled": 0, "type": "electric_scooter", "lon": -77.04485116666666, "fusion_lat": 0.0, "name": "c8a67e8ef3e3b7280e015be6212ac476", "rental_uris": {"android": "https://dc.lft.to/lastmile_qr_scan", "ios": "https://dc.lft.to/lastmile_qr_scan"}, "bike_id": "c8a67e8ef3e3b7280e015be6212ac476"}, {"fusion_lon": 0.0, "is_reserved": 0, "lat": 38.90275916666667, "is_disabled": 0, "type": "electric_scooter", "lon": -77.03436366666666, "fusion_lat": 0.0, "name": "89b68560e1d21e38084a316432dde6c0", "rental_uris": {"android": "https://dc.lft.to/lastmile_qr_scan", "ios": "https://dc.lft.to/lastmile_qr_scan"}, "bike_id": "89b68560e1d21e38084a316432dde6c0"}, {"fusion_lon": 0.0, "is_reserved": 0, "lat": 38.897507833333336, "is_disabled": 0, "type": "electric_scooter", "lon": -77.03186266666667, "fusion_lat": 0.0, "name": "552707a2baa77fec1efde904f0a65c1f", "rental_uris": {"android": "https://dc.lft.to/lastmile_qr_scan", "ios": "https://dc.lft.to/lastmile_qr_scan"}, "bike_id": "552707a2baa77fec1efde904f0a65c1f"}, {"fusion_lon": 0.0, "is_reserved": 0, "lat": 38.952746166666664, "is_disabled": 0, "type": "electric_scooter", "lon": -77.02377416666667, "fusion_lat": 0.0, "name": "16b3b1615c9c74baad67ca45ee2b9370", "rental_uris": {"android": "https://dc.lft.to/lastmile_qr_scan", "ios": "https://dc.lft.to/lastmile_qr_scan"}, "bike_id": "16b3b1615c9c74baad67ca45ee2b9370"}, {"fusion_lon": 0.0, "is_reserved": 0, "lat": 38.95293133333333, "is_disabled": 0, "type": "electric_scooter", "lon": -76.99895616666667, "fusion_lat": 0.0, "name": "956ef97a392e7c6c9d015d3feb4d9ef0", "rental_uris": {"android": "https://dc.lft.to/lastmile_qr_scan", "ios": "https://dc.lft.to/lastmile_qr_scan"}, "bike_id": "956ef97a392e7c6c9d015d3feb4d9ef0"}, {"fusion_lon": 0.0, "is_reserved": 0, "lat": 38.9036025, "is_disabled": 0, "type": "electric_scooter", "lon": -77.04050483333333, "fusion_lat": 0.0, "name": "004839586bc220c9d88e8707bb2cbd8e", "rental_uris": {"android": "https://dc.lft.to/lastmile_qr_scan", "ios": "https://dc.lft.to/lastmile_qr_scan"}, "bike_id": "004839586bc220c9d88e8707bb2cbd8e"}, {"fusion_lon": 0.0, "is_reserved": 0, "lat": 38.937372833333335, "is_disabled": 0, "type": "electric_scooter", "lon": -77.03260833333333, "fusion_lat": 0.0, "name": "15e908a96ac00ea0dcdeff87d3e25de8", "rental_uris": {"android": "https://dc.lft.to/lastmile_qr_scan", "ios": "https://dc.lft.to/lastmile_qr_scan"}, "bike_id": "15e908a96ac00ea0dcdeff87d3e25de8"}, {"fusion_lon": 0.0, "is_reserved": 0, "lat": 38.9095305, "is_disabled": 0, "type": "electric_scooter", "lon": -77.0218325, "fusion_lat": 0.0, "name": "78c7bd7be9993da867d4d78d5f6d7ac5", "rental_uris": {"android": "https://dc.lft.to/lastmile_qr_scan", "ios": "https://dc.lft.to/lastmile_qr_scan"}, "bike_id": "78c7bd7be9993da867d4d78d5f6d7ac5"}, {"fusion_lon": 0.0, "is_reserved": 0, "lat": 38.90940716666667, "is_disabled": 0, "type": "electric_scooter", "lon": -77.04160383333334, "fusion_lat": 0.0, "name": "701eb95b67202cc1ea1565ca8c8c1cb9", "rental_uris": {"android": "https://dc.lft.to/lastmile_qr_scan", "ios": "https://dc.lft.to/lastmile_qr_scan"}, "bike_id": "701eb95b67202cc1ea1565ca8c8c1cb9"}, {"fusion_lon": 0.0, "is_reserved": 0, "lat": 38.9028585, "is_disabled": 0, "type": "electric_scooter", "lon": -77.03663966666667, "fusion_lat": 0.0, "name": "ee029b17f46625efd58a459f848b86b4", "rental_uris": {"android": "https://dc.lft.to/lastmile_qr_scan", "ios": "https://dc.lft.to/lastmile_qr_scan"}, "bike_id": "ee029b17f46625efd58a459f848b86b4"}, {"fusion_lon": 0.0, "is_reserved": 0, "lat": 38.878795333333336, "is_disabled": 0, "type": "electric_scooter", "lon": -77.0005865, "fusion_lat": 0.0, "name": "67a5f297e23c9f00b418d27fb7a66b2b", "rental_uris": {"android": "https://dc.lft.to/lastmile_qr_scan", "ios": "https://dc.lft.to/lastmile_qr_scan"}, "bike_id": "67a5f297e23c9f00b418d27fb7a66b2b"}, {"fusion_lon": 0.0, "is_reserved": 0, "lat": 38.938648, "is_disabled": 0, "type": "electric_scooter", "lon": -77.0262665, "fusion_lat": 0.0, "name": "e39fa6eec0974053e18af02a41435c8c", "rental_uris": {"android": "https://dc.lft.to/lastmile_qr_scan", "ios": "https://dc.lft.to/lastmile_qr_scan"}, "bike_id": "e39fa6eec0974053e18af02a41435c8c"}, {"fusion_lon": 0.0, "is_reserved": 0, "lat": 38.9058775, "is_disabled": 0, "type": "electric_scooter", "lon": -77.00257, "fusion_lat": 0.0, "name": "ec37a3cbc6d8a036eecac76d6836f2da", "rental_uris": {"android": "https://dc.lft.to/lastmile_qr_scan", "ios": "https://dc.lft.to/lastmile_qr_scan"}, "bike_id": "ec37a3cbc6d8a036eecac76d6836f2da"}, {"fusion_lon": 0.0, "is_reserved": 0, "lat": 38.924728333333334, "is_disabled": 0, "type": "electric_scooter", "lon": -77.02221133333333, "fusion_lat": 0.0, "name": "30f8ea949aa72b9292a385c3c79342fd", "rental_uris": {"android": "https://dc.lft.to/lastmile_qr_scan", "ios": "https://dc.lft.to/lastmile_qr_scan"}, "bike_id": "30f8ea949aa72b9292a385c3c79342fd"}, {"fusion_lon": 0.0, "is_reserved": 0, "lat": 38.80527133333333, "is_disabled": 0, "type": "electric_bike", "lon": -77.0499245, "fusion_lat": 0.0, "name": "0195ca6880365cfc4a8bc4c876168290", "rental_uris": {"android": "https://dc.lft.to/lastmile_qr_scan", "ios": "https://dc.lft.to/lastmile_qr_scan"}, "bike_id": "0195ca6880365cfc4a8bc4c876168290"}, {"fusion_lon": 0.0, "is_reserved": 0, "lat": 38.91113433333334, "is_disabled": 0, "type": "electric_scooter", "lon": -76.997695, "fusion_lat": 0.0, "name": "e08af478ff1ad71ab98bdcac0c5c03ba", "rental_uris": {"android": "https://dc.lft.to/lastmile_qr_scan", "ios": "https://dc.lft.to/lastmile_qr_scan"}, "bike_id": "e08af478ff1ad71ab98bdcac0c5c03ba"}, {"fusion_lon": 0.0, "is_reserved": 0, "lat": 38.9066245, "is_disabled": 0, "type": "electric_scooter", "lon": -77.04614483333333, "fusion_lat": 0.0, "name": "a29e31b7139827a69a5c651bee54183c", "rental_uris": {"android": "https://dc.lft.to/lastmile_qr_scan", "ios": "https://dc.lft.to/lastmile_qr_scan"}, "bike_id": "a29e31b7139827a69a5c651bee54183c"}, {"fusion_lon": 0.0, "is_reserved": 0, "lat": 38.903833166666665, "is_disabled": 0, "type": "electric_scooter", "lon": -77.04553033333333, "fusion_lat": 0.0, "name": "ad2facc85a5f6990e9c029d37b396c21", "rental_uris": {"android": "https://dc.lft.to/lastmile_qr_scan", "ios": "https://dc.lft.to/lastmile_qr_scan"}, "bike_id": "ad2facc85a5f6990e9c029d37b396c21"}, {"fusion_lon": 0.0, "is_reserved": 0, "lat": 38.895850333333335, "is_disabled": 0, "type": "electric_scooter", "lon": -77.02101516666667, "fusion_lat": 0.0, "name": "fe3a4114755343d722ceaeddfea63e41", "rental_uris": {"android": "https://dc.lft.to/lastmile_qr_scan", "ios": "https://dc.lft.to/lastmile_qr_scan"}, "bike_id": "fe3a4114755343d722ceaeddfea63e41"}, {"fusion_lon": 0.0, "is_reserved": 0, "lat": 38.904461833333336, "is_disabled": 0, "type": "electric_scooter", "lon": -77.0534685, "fusion_lat": 0.0, "name": "fcc53fff01879e19c2a262544f441a10", "rental_uris": {"android": "https://dc.lft.to/lastmile_qr_scan", "ios": "https://dc.lft.to/lastmile_qr_scan"}, "bike_id": "fcc53fff01879e19c2a262544f441a10"}, {"fusion_lon": 0.0, "is_reserved": 0, "lat": 38.9225635, "is_disabled": 0, "type": "electric_scooter", "lon": -77.019503, "fusion_lat": 0.0, "name": "b29f44f3554e028c98d9963b73629ee6", "rental_uris": {"android": "https://dc.lft.to/lastmile_qr_scan", "ios": "https://dc.lft.to/lastmile_qr_scan"}, "bike_id": "b29f44f3554e028c98d9963b73629ee6"}, {"fusion_lon": 0.0, "is_reserved": 0, "lat": 38.91514016666667, "is_disabled": 0, "type": "electric_scooter", "lon": -77.0245415, "fusion_lat": 0.0, "name": "47158874b417d4cc34968439e1672e68", "rental_uris": {"android": "https://dc.lft.to/lastmile_qr_scan", "ios": "https://dc.lft.to/lastmile_qr_scan"}, "bike_id": "47158874b417d4cc34968439e1672e68"}, {"fusion_lon": 0.0, "is_reserved": 0, "lat": 38.90027216666667, "is_disabled": 0, "type": "electric_scooter", "lon": -76.99870416666667, "fusion_lat": 0.0, "name": "a49c769272ae407c0dcdaaaf2c90f42f", "rental_uris": {"android": "https://dc.lft.to/lastmile_qr_scan", "ios": "https://dc.lft.to/lastmile_qr_scan"}, "bike_id": "a49c769272ae407c0dcdaaaf2c90f42f"}, {"fusion_lon": 0.0, "is_reserved": 0, "lat": 38.95228733333333, "is_disabled": 0, "type": "electric_bike", "lon": -77.00716316666667, "fusion_lat": 0.0, "name": "b7767e4c13148d230199ab3ae1ce1f6a", "rental_uris": {"android": "https://dc.lft.to/lastmile_qr_scan", "ios": "https://dc.lft.to/lastmile_qr_scan"}, "bike_id": "b7767e4c13148d230199ab3ae1ce1f6a"}, {"fusion_lon": 0.0, "is_reserved": 0, "lat": 38.91392583333333, "is_disabled": 0, "type": "electric_scooter", "lon": -77.03447983333334, "fusion_lat": 0.0, "name": "d6ad71604647e9dd30738f0443865edb", "rental_uris": {"android": "https://dc.lft.to/lastmile_qr_scan", "ios": "https://dc.lft.to/lastmile_qr_scan"}, "bike_id": "d6ad71604647e9dd30738f0443865edb"}, {"fusion_lon": 0.0, "is_reserved": 0, "lat": 38.9050815, "is_disabled": 0, "type": "electric_bike", "lon": -77.06651216666667, "fusion_lat": 0.0, "name": "e05d61d0a06cef006da1cc8ff82487f8", "rental_uris": {"android": "https://dc.lft.to/lastmile_qr_scan", "ios": "https://dc.lft.to/lastmile_qr_scan"}, "bike_id": "e05d61d0a06cef006da1cc8ff82487f8"}, {"fusion_lon": 0.0, "is_reserved": 0, "lat": 38.84422816666667, "is_disabled": 0, "type": "electric_scooter", "lon": -76.98859, "fusion_lat": 0.0, "name": "f82f33a756cd3d089cb8e9cdf5790673", "rental_uris": {"android": "https://dc.lft.to/lastmile_qr_scan", "ios": "https://dc.lft.to/lastmile_qr_scan"}, "bike_id": "f82f33a756cd3d089cb8e9cdf5790673"}, {"fusion_lon": 0.0, "is_reserved": 0, "lat": 38.9210655, "is_disabled": 0, "type": "electric_scooter", "lon": -77.01764416666667, "fusion_lat": 0.0, "name": "546adfe514d80add3265afc457160159", "rental_uris": {"android": "https://dc.lft.to/lastmile_qr_scan", "ios": "https://dc.lft.to/lastmile_qr_scan"}, "bike_id": "546adfe514d80add3265afc457160159"}, {"fusion_lon": 0.0, "is_reserved": 0, "lat": 38.91926983333333, "is_disabled": 0, "type": "electric_scooter", "lon": -77.03420533333333, "fusion_lat": 0.0, "name": "7f88c5eb85ec132200af504decb2b100", "rental_uris": {"android": "https://dc.lft.to/lastmile_qr_scan", "ios": "https://dc.lft.to/lastmile_qr_scan"}, "bike_id": "7f88c5eb85ec132200af504decb2b100"}, {"fusion_lon": 0.0, "is_reserved": 0, "lat": 38.887452333333336, "is_disabled": 0, "type": "electric_scooter", "lon": -77.02559183333334, "fusion_lat": 0.0, "name": "9d88f2877e9e127364f54ed9951d6fa0", "rental_uris": {"android": "https://dc.lft.to/lastmile_qr_scan", "ios": "https://dc.lft.to/lastmile_qr_scan"}, "bike_id": "9d88f2877e9e127364f54ed9951d6fa0"}, {"fusion_lon": 0.0, "is_reserved": 0, "lat": 38.928687, "is_disabled": 0, "type": "electric_scooter", "lon": -77.03166333333333, "fusion_lat": 0.0, "name": "96b2d78b13e09107aed07f94aacd1135", "rental_uris": {"android": "https://dc.lft.to/lastmile_qr_scan", "ios": "https://dc.lft.to/lastmile_qr_scan"}, "bike_id": "96b2d78b13e09107aed07f94aacd1135"}, {"fusion_lon": 0.0, "is_reserved": 0, "lat": 38.904794333333335, "is_disabled": 0, "type": "electric_scooter", "lon": -77.0170915, "fusion_lat": 0.0, "name": "087c8e58c59e948c2165606ada75d743", "rental_uris": {"android": "https://dc.lft.to/lastmile_qr_scan", "ios": "https://dc.lft.to/lastmile_qr_scan"}, "bike_id": "087c8e58c59e948c2165606ada75d743"}, {"fusion_lon": 0.0, "is_reserved": 0, "lat": 38.900296166666664, "is_disabled": 0, "type": "electric_bike", "lon": -76.97220916666667, "fusion_lat": 0.0, "name": "875e9790654378e47e4d04f962d7c9b8", "rental_uris": {"android": "https://dc.lft.to/lastmile_qr_scan", "ios": "https://dc.lft.to/lastmile_qr_scan"}, "bike_id": "875e9790654378e47e4d04f962d7c9b8"}, {"fusion_lon": 0.0, "is_reserved": 0, "lat": 38.835849833333334, "is_disabled": 0, "type": "electric_bike", "lon": -76.99026633333334, "fusion_lat": 0.0, "name": "ae7c28c748d087ab62af1fd6af576041", "rental_uris": {"android": "https://dc.lft.to/lastmile_qr_scan", "ios": "https://dc.lft.to/lastmile_qr_scan"}, "bike_id": "ae7c28c748d087ab62af1fd6af576041"}, {"fusion_lon": 0.0, "is_reserved": 0, "lat": 38.91852316666667, "is_disabled": 0, "type": "electric_bike", "lon": -76.96089316666666, "fusion_lat": 0.0, "name": "e9e0871fa9a37b7ea4da85b0a469bdce", "rental_uris": {"android": "https://dc.lft.to/lastmile_qr_scan", "ios": "https://dc.lft.to/lastmile_qr_scan"}, "bike_id": "e9e0871fa9a37b7ea4da85b0a469bdce"}, {"fusion_lon": 0.0, "is_reserved": 0, "lat": 38.90681416666666, "is_disabled": 0, "type": "electric_bike", "lon": -77.037593, "fusion_lat": 0.0, "name": "8e6a632889ab3260506113c553259739", "rental_uris": {"android": "https://dc.lft.to/lastmile_qr_scan", "ios": "https://dc.lft.to/lastmile_qr_scan"}, "bike_id": "8e6a632889ab3260506113c553259739"}, {"fusion_lon": 0.0, "is_reserved": 0, "lat": 38.899547166666665, "is_disabled": 0, "type": "electric_scooter", "lon": -77.0339025, "fusion_lat": 0.0, "name": "8ba63aa794f4e8a0f450c5bd1aeec09f", "rental_uris": {"android": "https://dc.lft.to/lastmile_qr_scan", "ios": "https://dc.lft.to/lastmile_qr_scan"}, "bike_id": "8ba63aa794f4e8a0f450c5bd1aeec09f"}, {"fusion_lon": 0.0, "is_reserved": 0, "lat": 38.8983135, "is_disabled": 0, "type": "electric_scooter", "lon": -77.0467465, "fusion_lat": 0.0, "name": "58d8bd8db9cd2c4d7741c71b161f4535", "rental_uris": {"android": "https://dc.lft.to/lastmile_qr_scan", "ios": "https://dc.lft.to/lastmile_qr_scan"}, "bike_id": "58d8bd8db9cd2c4d7741c71b161f4535"}, {"fusion_lon": 0.0, "is_reserved": 0, "lat": 38.88371816666667, "is_disabled": 0, "type": "electric_scooter", "lon": -76.9262475, "fusion_lat": 0.0, "name": "3b2a51260d4bf9edb2365faf11aaba13", "rental_uris": {"android": "https://dc.lft.to/lastmile_qr_scan", "ios": "https://dc.lft.to/lastmile_qr_scan"}, "bike_id": "3b2a51260d4bf9edb2365faf11aaba13"}, {"fusion_lon": 0.0, "is_reserved": 0, "lat": 38.93307016666667, "is_disabled": 0, "type": "electric_scooter", "lon": -77.03634133333334, "fusion_lat": 0.0, "name": "366de5e8160cd0e5e04245799be41fee", "rental_uris": {"android": "https://dc.lft.to/lastmile_qr_scan", "ios": "https://dc.lft.to/lastmile_qr_scan"}, "bike_id": "366de5e8160cd0e5e04245799be41fee"}, {"fusion_lon": 0.0, "is_reserved": 0, "lat": 38.90875666666667, "is_disabled": 0, "type": "electric_scooter", "lon": -77.04330933333334, "fusion_lat": 0.0, "name": "40b8a91ad6655cd3937a158b667a2bc9", "rental_uris": {"android": "https://dc.lft.to/lastmile_qr_scan", "ios": "https://dc.lft.to/lastmile_qr_scan"}, "bike_id": "40b8a91ad6655cd3937a158b667a2bc9"}, {"fusion_lon": 0.0, "is_reserved": 0, "lat": 38.902086833333335, "is_disabled": 0, "type": "electric_scooter", "lon": -77.03774033333333, "fusion_lat": 0.0, "name": "be85cbf2f3b8cd92ec2cd377aed8f14a", "rental_uris": {"android": "https://dc.lft.to/lastmile_qr_scan", "ios": "https://dc.lft.to/lastmile_qr_scan"}, "bike_id": "be85cbf2f3b8cd92ec2cd377aed8f14a"}, {"fusion_lon": 0.0, "is_reserved": 0, "lat": 38.87292733333334, "is_disabled": 0, "type": "electric_scooter", "lon": -77.01703166666667, "fusion_lat": 0.0, "name": "27880a1f6bfb7ea91b1da1d5b352bacd", "rental_uris": {"android": "https://dc.lft.to/lastmile_qr_scan", "ios": "https://dc.lft.to/lastmile_qr_scan"}, "bike_id": "27880a1f6bfb7ea91b1da1d5b352bacd"}, {"fusion_lon": 0.0, "is_reserved": 0, "lat": 38.876817333333335, "is_disabled": 0, "type": "electric_scooter", "lon": -77.01752983333333, "fusion_lat": 0.0, "name": "1354b4247ed4a14c62fa2486533de6f0", "rental_uris": {"android": "https://dc.lft.to/lastmile_qr_scan", "ios": "https://dc.lft.to/lastmile_qr_scan"}, "bike_id": "1354b4247ed4a14c62fa2486533de6f0"}, {"fusion_lon": 0.0, "is_reserved": 0, "lat": 38.903862333333336, "is_disabled": 0, "type": "electric_scooter", "lon": -77.03619816666667, "fusion_lat": 0.0, "name": "fff6c4b8e3fc55a455c6e9a0652e988d", "rental_uris": {"android": "https://dc.lft.to/lastmile_qr_scan", "ios": "https://dc.lft.to/lastmile_qr_scan"}, "bike_id": "fff6c4b8e3fc55a455c6e9a0652e988d"}, {"fusion_lon": 0.0, "is_reserved": 0, "lat": 38.886017333333335, "is_disabled": 0, "type": "electric_scooter", "lon": -76.92504816666667, "fusion_lat": 0.0, "name": "4827938007deefec2ab7c061d020fdc9", "rental_uris": {"android": "https://dc.lft.to/lastmile_qr_scan", "ios": "https://dc.lft.to/lastmile_qr_scan"}, "bike_id": "4827938007deefec2ab7c061d020fdc9"}, {"fusion_lon": 0.0, "is_reserved": 0, "lat": 38.90566066666667, "is_disabled": 0, "type": "electric_scooter", "lon": -77.04689933333333, "fusion_lat": 0.0, "name": "522d524b5cc207f894122ff1c85f9c8f", "rental_uris": {"android": "https://dc.lft.to/lastmile_qr_scan", "ios": "https://dc.lft.to/lastmile_qr_scan"}, "bike_id": "522d524b5cc207f894122ff1c85f9c8f"}, {"fusion_lon": 0.0, "is_reserved": 0, "lat": 38.90466033333333, "is_disabled": 0, "type": "electric_scooter", "lon": -77.02810966666667, "fusion_lat": 0.0, "name": "9422bd371de1cd0163d248e4c7eafaf0", "rental_uris": {"android": "https://dc.lft.to/lastmile_qr_scan", "ios": "https://dc.lft.to/lastmile_qr_scan"}, "bike_id": "9422bd371de1cd0163d248e4c7eafaf0"}, {"fusion_lon": 0.0, "is_reserved": 0, "lat": 38.857899833333335, "is_disabled": 0, "type": "electric_bike", "lon": -77.09947866666667, "fusion_lat": 0.0, "name": "336008c4db3a6a33075c11ea45e2c75e", "rental_uris": {"android": "https://dc.lft.to/lastmile_qr_scan", "ios": "https://dc.lft.to/lastmile_qr_scan"}, "bike_id": "336008c4db3a6a33075c11ea45e2c75e"}, {"fusion_lon": 0.0, "is_reserved": 0, "lat": 38.944505166666666, "is_disabled": 0, "type": "electric_bike", "lon": -77.06385366666666, "fusion_lat": 0.0, "name": "53eae3079dbc38a9fdb00c9981f6516d", "rental_uris": {"android": "https://dc.lft.to/lastmile_qr_scan", "ios": "https://dc.lft.to/lastmile_qr_scan"}, "bike_id": "53eae3079dbc38a9fdb00c9981f6516d"}, {"fusion_lon": 0.0, "is_reserved": 0, "lat": 38.9277475, "is_disabled": 0, "type": "electric_scooter", "lon": -77.01569316666667, "fusion_lat": 0.0, "name": "8963d65e7b69cb9aa0ca0e7a111c5243", "rental_uris": {"android": "https://dc.lft.to/lastmile_qr_scan", "ios": "https://dc.lft.to/lastmile_qr_scan"}, "bike_id": "8963d65e7b69cb9aa0ca0e7a111c5243"}, {"fusion_lon": 0.0, "is_reserved": 0, "lat": 38.92091083333333, "is_disabled": 0, "type": "electric_scooter", "lon": -77.0231655, "fusion_lat": 0.0, "name": "bbee09facbe7ec727552adf9f89107a2", "rental_uris": {"android": "https://dc.lft.to/lastmile_qr_scan", "ios": "https://dc.lft.to/lastmile_qr_scan"}, "bike_id": "bbee09facbe7ec727552adf9f89107a2"}, {"fusion_lon": 0.0, "is_reserved": 0, "lat": 38.917009, "is_disabled": 0, "type": "electric_scooter", "lon": -77.02893616666667, "fusion_lat": 0.0, "name": "8d54a57a05ce4a3a5ccab5f7c737dacf", "rental_uris": {"android": "https://dc.lft.to/lastmile_qr_scan", "ios": "https://dc.lft.to/lastmile_qr_scan"}, "bike_id": "8d54a57a05ce4a3a5ccab5f7c737dacf"}, {"fusion_lon": 0.0, "is_reserved": 0, "lat": 38.900296166666664, "is_disabled": 0, "type": "electric_scooter", "lon": -77.03374083333334, "fusion_lat": 0.0, "name": "b7a82921ca2a3cc316bfd8b81823db23", "rental_uris": {"android": "https://dc.lft.to/lastmile_qr_scan", "ios": "https://dc.lft.to/lastmile_qr_scan"}, "bike_id": "b7a82921ca2a3cc316bfd8b81823db23"}, {"fusion_lon": 0.0, "is_reserved": 0, "lat": 38.8883275, "is_disabled": 0, "type": "electric_scooter", "lon": -76.98694016666667, "fusion_lat": 0.0, "name": "544d311f530361c48eed0d7299496af2", "rental_uris": {"android": "https://dc.lft.to/lastmile_qr_scan", "ios": "https://dc.lft.to/lastmile_qr_scan"}, "bike_id": "544d311f530361c48eed0d7299496af2"}, {"fusion_lon": 0.0, "is_reserved": 0, "lat": 38.902579833333334, "is_disabled": 0, "type": "electric_scooter", "lon": -77.03419183333334, "fusion_lat": 0.0, "name": "1e4a9ca008790debe1886655e3a7ef35", "rental_uris": {"android": "https://dc.lft.to/lastmile_qr_scan", "ios": "https://dc.lft.to/lastmile_qr_scan"}, "bike_id": "1e4a9ca008790debe1886655e3a7ef35"}, {"fusion_lon": 0.0, "is_reserved": 0, "lat": 38.90622183333333, "is_disabled": 0, "type": "electric_scooter", "lon": -77.038867, "fusion_lat": 0.0, "name": "2629026ab73dea2f7fcdc9966634bcc4", "rental_uris": {"android": "https://dc.lft.to/lastmile_qr_scan", "ios": "https://dc.lft.to/lastmile_qr_scan"}, "bike_id": "2629026ab73dea2f7fcdc9966634bcc4"}, {"fusion_lon": 0.0, "is_reserved": 0, "lat": 38.926725166666664, "is_disabled": 0, "type": "electric_scooter", "lon": -77.01496133333333, "fusion_lat": 0.0, "name": "9426aed57d7b02dab464ee9cfa2adcc0", "rental_uris": {"android": "https://dc.lft.to/lastmile_qr_scan", "ios": "https://dc.lft.to/lastmile_qr_scan"}, "bike_id": "9426aed57d7b02dab464ee9cfa2adcc0"}, {"fusion_lon": 0.0, "is_reserved": 0, "lat": 38.911140833333334, "is_disabled": 0, "type": "electric_scooter", "lon": -76.99772266666666, "fusion_lat": 0.0, "name": "e00a6d74dacc9b14a3c80fbd7fa3421c", "rental_uris": {"android": "https://dc.lft.to/lastmile_qr_scan", "ios": "https://dc.lft.to/lastmile_qr_scan"}, "bike_id": "e00a6d74dacc9b14a3c80fbd7fa3421c"}, {"fusion_lon": 0.0, "is_reserved": 0, "lat": 38.89266966666667, "is_disabled": 0, "type": "electric_scooter", "lon": -77.03191166666667, "fusion_lat": 0.0, "name": "c12d321fa1c1655872ca11e7f04b5332", "rental_uris": {"android": "https://dc.lft.to/lastmile_qr_scan", "ios": "https://dc.lft.to/lastmile_qr_scan"}, "bike_id": "c12d321fa1c1655872ca11e7f04b5332"}, {"fusion_lon": 0.0, "is_reserved": 0, "lat": 38.91107316666667, "is_disabled": 0, "type": "electric_scooter", "lon": -77.04227566666667, "fusion_lat": 0.0, "name": "f937ffa08b0cc645b205163957b53d5e", "rental_uris": {"android": "https://dc.lft.to/lastmile_qr_scan", "ios": "https://dc.lft.to/lastmile_qr_scan"}, "bike_id": "f937ffa08b0cc645b205163957b53d5e"}, {"fusion_lon": 0.0, "is_reserved": 0, "lat": 38.90041433333333, "is_disabled": 0, "type": "electric_scooter", "lon": -77.03502733333333, "fusion_lat": 0.0, "name": "6ce285701a4396d2bccd890b60d9f9e8", "rental_uris": {"android": "https://dc.lft.to/lastmile_qr_scan", "ios": "https://dc.lft.to/lastmile_qr_scan"}, "bike_id": "6ce285701a4396d2bccd890b60d9f9e8"}, {"fusion_lon": 0.0, "is_reserved": 0, "lat": 38.91290633333333, "is_disabled": 0, "type": "electric_bike", "lon": -76.985395, "fusion_lat": 0.0, "name": "32b859a899e83051317723630c274b3f", "rental_uris": {"android": "https://dc.lft.to/lastmile_qr_scan", "ios": "https://dc.lft.to/lastmile_qr_scan"}, "bike_id": "32b859a899e83051317723630c274b3f"}, {"fusion_lon": 0.0, "is_reserved": 0, "lat": 38.892004166666666, "is_disabled": 0, "type": "electric_scooter", "lon": -77.00296083333333, "fusion_lat": 0.0, "name": "4f74e0f88e67b08215d5ed6c0adbd4bb", "rental_uris": {"android": "https://dc.lft.to/lastmile_qr_scan", "ios": "https://dc.lft.to/lastmile_qr_scan"}, "bike_id": "4f74e0f88e67b08215d5ed6c0adbd4bb"}, {"fusion_lon": 0.0, "is_reserved": 0, "lat": 38.92231, "is_disabled": 0, "type": "electric_scooter", "lon": -77.02333566666667, "fusion_lat": 0.0, "name": "6b814b2d7311d0aca1b8f555a6022282", "rental_uris": {"android": "https://dc.lft.to/lastmile_qr_scan", "ios": "https://dc.lft.to/lastmile_qr_scan"}, "bike_id": "6b814b2d7311d0aca1b8f555a6022282"}, {"fusion_lon": 0.0, "is_reserved": 0, "lat": 38.88764616666667, "is_disabled": 0, "type": "electric_scooter", "lon": -77.031543, "fusion_lat": 0.0, "name": "8f498c0e962f9be35dd9f3b300757aa7", "rental_uris": {"android": "https://dc.lft.to/lastmile_qr_scan", "ios": "https://dc.lft.to/lastmile_qr_scan"}, "bike_id": "8f498c0e962f9be35dd9f3b300757aa7"}, {"fusion_lon": 0.0, "is_reserved": 0, "lat": 38.896948, "is_disabled": 0, "type": "electric_scooter", "lon": -77.043468, "fusion_lat": 0.0, "name": "afd15c22344808fed531e427c2e21268", "rental_uris": {"android": "https://dc.lft.to/lastmile_qr_scan", "ios": "https://dc.lft.to/lastmile_qr_scan"}, "bike_id": "afd15c22344808fed531e427c2e21268"}, {"fusion_lon": 0.0, "is_reserved": 0, "lat": 38.916747, "is_disabled": 0, "type": "electric_scooter", "lon": -77.03208566666666, "fusion_lat": 0.0, "name": "b8c750d9084bfa8c6438a75d6ff40ccc", "rental_uris": {"android": "https://dc.lft.to/lastmile_qr_scan", "ios": "https://dc.lft.to/lastmile_qr_scan"}, "bike_id": "b8c750d9084bfa8c6438a75d6ff40ccc"}, {"fusion_lon": 0.0, "is_reserved": 0, "lat": 38.904361, "is_disabled": 0, "type": "electric_scooter", "lon": -77.034731, "fusion_lat": 0.0, "name": "9da4249eb96244fa34ebbc96fc2ba7d5", "rental_uris": {"android": "https://dc.lft.to/lastmile_qr_scan", "ios": "https://dc.lft.to/lastmile_qr_scan"}, "bike_id": "9da4249eb96244fa34ebbc96fc2ba7d5"}, {"fusion_lon": 0.0, "is_reserved": 0, "lat": 38.90903433333333, "is_disabled": 0, "type": "electric_scooter", "lon": -77.07268016666667, "fusion_lat": 0.0, "name": "e10f3e4d1fe81930b7d4bf8634feffc4", "rental_uris": {"android": "https://dc.lft.to/lastmile_qr_scan", "ios": "https://dc.lft.to/lastmile_qr_scan"}, "bike_id": "e10f3e4d1fe81930b7d4bf8634feffc4"}, {"fusion_lon": 0.0, "is_reserved": 0, "lat": 38.91679366666666, "is_disabled": 0, "type": "electric_scooter", "lon": -77.02395816666667, "fusion_lat": 0.0, "name": "44dd784faa72141d76f5355f0f5030ac", "rental_uris": {"android": "https://dc.lft.to/lastmile_qr_scan", "ios": "https://dc.lft.to/lastmile_qr_scan"}, "bike_id": "44dd784faa72141d76f5355f0f5030ac"}, {"fusion_lon": 0.0, "is_reserved": 0, "lat": 38.89770716666666, "is_disabled": 0, "type": "electric_scooter", "lon": -77.01224783333333, "fusion_lat": 0.0, "name": "fa97982ae38a1a85dcae60341a3018d1", "rental_uris": {"android": "https://dc.lft.to/lastmile_qr_scan", "ios": "https://dc.lft.to/lastmile_qr_scan"}, "bike_id": "fa97982ae38a1a85dcae60341a3018d1"}, {"fusion_lon": 0.0, "is_reserved": 0, "lat": 38.9005205, "is_disabled": 0, "type": "electric_scooter", "lon": -77.007551, "fusion_lat": 0.0, "name": "51c37201527186df67abeca6ca3c64fa", "rental_uris": {"android": "https://dc.lft.to/lastmile_qr_scan", "ios": "https://dc.lft.to/lastmile_qr_scan"}, "bike_id": "51c37201527186df67abeca6ca3c64fa"}, {"fusion_lon": 0.0, "is_reserved": 0, "lat": 38.92033266666667, "is_disabled": 0, "type": "electric_scooter", "lon": -77.025862, "fusion_lat": 0.0, "name": "9a6462e4730220301730f91b39a86084", "rental_uris": {"android": "https://dc.lft.to/lastmile_qr_scan", "ios": "https://dc.lft.to/lastmile_qr_scan"}, "bike_id": "9a6462e4730220301730f91b39a86084"}, {"fusion_lon": 0.0, "is_reserved": 0, "lat": 38.89896733333333, "is_disabled": 0, "type": "electric_scooter", "lon": -77.03983883333333, "fusion_lat": 0.0, "name": "14705488899407e88c691228cc1a4da0", "rental_uris": {"android": "https://dc.lft.to/lastmile_qr_scan", "ios": "https://dc.lft.to/lastmile_qr_scan"}, "bike_id": "14705488899407e88c691228cc1a4da0"}, {"fusion_lon": 0.0, "is_reserved": 0, "lat": 38.90380416666667, "is_disabled": 0, "type": "electric_scooter", "lon": -77.04653516666667, "fusion_lat": 0.0, "name": "c850f52fb42b3d5edcabe1a38dfe3eea", "rental_uris": {"android": "https://dc.lft.to/lastmile_qr_scan", "ios": "https://dc.lft.to/lastmile_qr_scan"}, "bike_id": "c850f52fb42b3d5edcabe1a38dfe3eea"}, {"fusion_lon": 0.0, "is_reserved": 0, "lat": 38.92278066666667, "is_disabled": 0, "type": "electric_scooter", "lon": -77.07298366666667, "fusion_lat": 0.0, "name": "accc23e4249a85b8d90f6f7fdb5775d7", "rental_uris": {"android": "https://dc.lft.to/lastmile_qr_scan", "ios": "https://dc.lft.to/lastmile_qr_scan"}, "bike_id": "accc23e4249a85b8d90f6f7fdb5775d7"}, {"fusion_lon": 0.0, "is_reserved": 0, "lat": 38.89741633333333, "is_disabled": 0, "type": "electric_scooter", "lon": -77.0126135, "fusion_lat": 0.0, "name": "5b2b07de37b07ce3db3b64ef99bf1bc0", "rental_uris": {"android": "https://dc.lft.to/lastmile_qr_scan", "ios": "https://dc.lft.to/lastmile_qr_scan"}, "bike_id": "5b2b07de37b07ce3db3b64ef99bf1bc0"}, {"fusion_lon": 0.0, "is_reserved": 0, "lat": 38.902650333333334, "is_disabled": 0, "type": "electric_scooter", "lon": -77.02819783333334, "fusion_lat": 0.0, "name": "b1ef25eca8f3d68ee9c24060877d9fe4", "rental_uris": {"android": "https://dc.lft.to/lastmile_qr_scan", "ios": "https://dc.lft.to/lastmile_qr_scan"}, "bike_id": "b1ef25eca8f3d68ee9c24060877d9fe4"}, {"fusion_lon": 0.0, "is_reserved": 0, "lat": 38.934725666666665, "is_disabled": 0, "type": "electric_scooter", "lon": -76.98886116666667, "fusion_lat": 0.0, "name": "68e5d2c251f1d949053aec4b95691aac", "rental_uris": {"android": "https://dc.lft.to/lastmile_qr_scan", "ios": "https://dc.lft.to/lastmile_qr_scan"}, "bike_id": "68e5d2c251f1d949053aec4b95691aac"}, {"fusion_lon": 0.0, "is_reserved": 0, "lat": 38.98526, "is_disabled": 0, "type": "electric_bike", "lon": -77.00408916666666, "fusion_lat": 0.0, "name": "56503344d614a2b4d81a8e8a76e1f8a6", "rental_uris": {"android": "https://dc.lft.to/lastmile_qr_scan", "ios": "https://dc.lft.to/lastmile_qr_scan"}, "bike_id": "56503344d614a2b4d81a8e8a76e1f8a6"}, {"fusion_lon": 0.0, "is_reserved": 0, "lat": 38.91155, "is_disabled": 0, "type": "electric_scooter", "lon": -77.06230533333333, "fusion_lat": 0.0, "name": "d6acbc9e016ed2e6a926a422b036410d", "rental_uris": {"android": "https://dc.lft.to/lastmile_qr_scan", "ios": "https://dc.lft.to/lastmile_qr_scan"}, "bike_id": "d6acbc9e016ed2e6a926a422b036410d"}, {"fusion_lon": 0.0, "is_reserved": 0, "lat": 38.90268783333333, "is_disabled": 0, "type": "electric_scooter", "lon": -76.93631366666666, "fusion_lat": 0.0, "name": "379d3b228fa0810ccfefdca8e0ded1ed", "rental_uris": {"android": "https://dc.lft.to/lastmile_qr_scan", "ios": "https://dc.lft.to/lastmile_qr_scan"}, "bike_id": "379d3b228fa0810ccfefdca8e0ded1ed"}, {"fusion_lon": 0.0, "is_reserved": 0, "lat": 38.864447, "is_disabled": 0, "type": "electric_bike", "lon": -76.99916583333334, "fusion_lat": 0.0, "name": "cf5cd246dd0d1aa4b424ad3fed60ff89", "rental_uris": {"android": "https://dc.lft.to/lastmile_qr_scan", "ios": "https://dc.lft.to/lastmile_qr_scan"}, "bike_id": "cf5cd246dd0d1aa4b424ad3fed60ff89"}, {"fusion_lon": 0.0, "is_reserved": 0, "lat": 38.876674333333334, "is_disabled": 0, "type": "electric_scooter", "lon": -76.9982325, "fusion_lat": 0.0, "name": "6e440a27b3afc9ad7836820f3ddf0a8a", "rental_uris": {"android": "https://dc.lft.to/lastmile_qr_scan", "ios": "https://dc.lft.to/lastmile_qr_scan"}, "bike_id": "6e440a27b3afc9ad7836820f3ddf0a8a"}, {"fusion_lon": 0.0, "is_reserved": 0, "lat": 38.9284115, "is_disabled": 0, "type": "electric_scooter", "lon": -77.05963066666666, "fusion_lat": 0.0, "name": "a7907b38c592c83b2e7333f15694e21f", "rental_uris": {"android": "https://dc.lft.to/lastmile_qr_scan", "ios": "https://dc.lft.to/lastmile_qr_scan"}, "bike_id": "a7907b38c592c83b2e7333f15694e21f"}, {"fusion_lon": 0.0, "is_reserved": 0, "lat": 38.905598166666664, "is_disabled": 0, "type": "electric_scooter", "lon": -77.04159216666666, "fusion_lat": 0.0, "name": "26be53f68c40cc8a7f17c46cec15713d", "rental_uris": {"android": "https://dc.lft.to/lastmile_qr_scan", "ios": "https://dc.lft.to/lastmile_qr_scan"}, "bike_id": "26be53f68c40cc8a7f17c46cec15713d"}, {"fusion_lon": 0.0, "is_reserved": 0, "lat": 38.9286885, "is_disabled": 0, "type": "electric_scooter", "lon": -77.0316965, "fusion_lat": 0.0, "name": "97ed9ea8579cd9b38554364ee9b07fb6", "rental_uris": {"android": "https://dc.lft.to/lastmile_qr_scan", "ios": "https://dc.lft.to/lastmile_qr_scan"}, "bike_id": "97ed9ea8579cd9b38554364ee9b07fb6"}, {"fusion_lon": 0.0, "is_reserved": 0, "lat": 38.900367, "is_disabled": 0, "type": "electric_scooter", "lon": -77.00006766666667, "fusion_lat": 0.0, "name": "6a0473ae6017da539e2f1eada3274bec", "rental_uris": {"android": "https://dc.lft.to/lastmile_qr_scan", "ios": "https://dc.lft.to/lastmile_qr_scan"}, "bike_id": "6a0473ae6017da539e2f1eada3274bec"}, {"fusion_lon": 0.0, "is_reserved": 0, "lat": 38.92343533333333, "is_disabled": 0, "type": "electric_scooter", "lon": -77.0346905, "fusion_lat": 0.0, "name": "c79a0b8a1e5031d97f1cf162d469356c", "rental_uris": {"android": "https://dc.lft.to/lastmile_qr_scan", "ios": "https://dc.lft.to/lastmile_qr_scan"}, "bike_id": "c79a0b8a1e5031d97f1cf162d469356c"}, {"fusion_lon": 0.0, "is_reserved": 0, "lat": 38.923312, "is_disabled": 0, "type": "electric_scooter", "lon": -77.01958366666666, "fusion_lat": 0.0, "name": "67324955ee035143e5848b7917f789e3", "rental_uris": {"android": "https://dc.lft.to/lastmile_qr_scan", "ios": "https://dc.lft.to/lastmile_qr_scan"}, "bike_id": "67324955ee035143e5848b7917f789e3"}, {"fusion_lon": 0.0, "is_reserved": 0, "lat": 38.934183833333336, "is_disabled": 0, "type": "electric_scooter", "lon": -77.02026966666666, "fusion_lat": 0.0, "name": "db9cd085e7599d781da59f7236f12a9b", "rental_uris": {"android": "https://dc.lft.to/lastmile_qr_scan", "ios": "https://dc.lft.to/lastmile_qr_scan"}, "bike_id": "db9cd085e7599d781da59f7236f12a9b"}, {"fusion_lon": 0.0, "is_reserved": 0, "lat": 38.89218733333333, "is_disabled": 0, "type": "electric_scooter", "lon": -77.01390516666666, "fusion_lat": 0.0, "name": "08c88cdabc053036cf3d4bc8e0264ef0", "rental_uris": {"android": "https://dc.lft.to/lastmile_qr_scan", "ios": "https://dc.lft.to/lastmile_qr_scan"}, "bike_id": "08c88cdabc053036cf3d4bc8e0264ef0"}, {"fusion_lon": 0.0, "is_reserved": 0, "lat": 38.927761833333335, "is_disabled": 0, "type": "electric_scooter", "lon": -77.02310083333333, "fusion_lat": 0.0, "name": "5adb486372188c0cc6864b935e391906", "rental_uris": {"android": "https://dc.lft.to/lastmile_qr_scan", "ios": "https://dc.lft.to/lastmile_qr_scan"}, "bike_id": "5adb486372188c0cc6864b935e391906"}, {"fusion_lon": 0.0, "is_reserved": 0, "lat": 38.838281, "is_disabled": 0, "type": "electric_bike", "lon": -77.07914016666666, "fusion_lat": 0.0, "name": "c063efcaf1531ef4be5f3b4493279ecb", "rental_uris": {"android": "https://dc.lft.to/lastmile_qr_scan", "ios": "https://dc.lft.to/lastmile_qr_scan"}, "bike_id": "c063efcaf1531ef4be5f3b4493279ecb"}, {"fusion_lon": 0.0, "is_reserved": 0, "lat": 38.9497375, "is_disabled": 0, "type": "electric_scooter", "lon": -77.02448433333333, "fusion_lat": 0.0, "name": "7f06f7cc11903498f5627079c6149633", "rental_uris": {"android": "https://dc.lft.to/lastmile_qr_scan", "ios": "https://dc.lft.to/lastmile_qr_scan"}, "bike_id": "7f06f7cc11903498f5627079c6149633"}, {"fusion_lon": 0.0, "is_reserved": 0, "lat": 38.8525175, "is_disabled": 0, "type": "electric_bike", "lon": -77.102911, "fusion_lat": 0.0, "name": "35afb3400cbe514da97c8df81848a0c1", "rental_uris": {"android": "https://dc.lft.to/lastmile_qr_scan", "ios": "https://dc.lft.to/lastmile_qr_scan"}, "bike_id": "35afb3400cbe514da97c8df81848a0c1"}, {"fusion_lon": 0.0, "is_reserved": 0, "lat": 38.89043016666667, "is_disabled": 0, "type": "electric_scooter", "lon": -76.93756066666667, "fusion_lat": 0.0, "name": "b71e3031e7f2e0eaaebd56be790e0af2", "rental_uris": {"android": "https://dc.lft.to/lastmile_qr_scan", "ios": "https://dc.lft.to/lastmile_qr_scan"}, "bike_id": "b71e3031e7f2e0eaaebd56be790e0af2"}, {"fusion_lon": 0.0, "is_reserved": 0, "lat": 38.90531766666667, "is_disabled": 0, "type": "electric_scooter", "lon": -77.06383483333333, "fusion_lat": 0.0, "name": "632dc95c4d9721e33de12aa5479404de", "rental_uris": {"android": "https://dc.lft.to/lastmile_qr_scan", "ios": "https://dc.lft.to/lastmile_qr_scan"}, "bike_id": "632dc95c4d9721e33de12aa5479404de"}, {"fusion_lon": 0.0, "is_reserved": 0, "lat": 38.9289295, "is_disabled": 0, "type": "electric_bike", "lon": -77.231734, "fusion_lat": 0.0, "name": "c8a92e04922a0c74b4af70d6e79e0be3", "rental_uris": {"android": "https://dc.lft.to/lastmile_qr_scan", "ios": "https://dc.lft.to/lastmile_qr_scan"}, "bike_id": "c8a92e04922a0c74b4af70d6e79e0be3"}, {"fusion_lon": 0.0, "is_reserved": 0, "lat": 38.923329, "is_disabled": 0, "type": "electric_scooter", "lon": -77.01949833333333, "fusion_lat": 0.0, "name": "9d692c1310ddebb97bbae25c311b7b53", "rental_uris": {"android": "https://dc.lft.to/lastmile_qr_scan", "ios": "https://dc.lft.to/lastmile_qr_scan"}, "bike_id": "9d692c1310ddebb97bbae25c311b7b53"}, {"fusion_lon": 0.0, "is_reserved": 0, "lat": 38.92853866666667, "is_disabled": 0, "type": "electric_scooter", "lon": -77.03244333333333, "fusion_lat": 0.0, "name": "e0f3950a145eb32570ba8ce3c03d2ccc", "rental_uris": {"android": "https://dc.lft.to/lastmile_qr_scan", "ios": "https://dc.lft.to/lastmile_qr_scan"}, "bike_id": "e0f3950a145eb32570ba8ce3c03d2ccc"}, {"fusion_lon": 0.0, "is_reserved": 0, "lat": 38.8766765, "is_disabled": 0, "type": "electric_scooter", "lon": -77.00564916666667, "fusion_lat": 0.0, "name": "859878b4925e25abbe564065f55fc04c", "rental_uris": {"android": "https://dc.lft.to/lastmile_qr_scan", "ios": "https://dc.lft.to/lastmile_qr_scan"}, "bike_id": "859878b4925e25abbe564065f55fc04c"}, {"fusion_lon": 0.0, "is_reserved": 0, "lat": 38.920045, "is_disabled": 0, "type": "electric_scooter", "lon": -77.03242333333333, "fusion_lat": 0.0, "name": "d281ca941d5101b8a8c6647cdb41e283", "rental_uris": {"android": "https://dc.lft.to/lastmile_qr_scan", "ios": "https://dc.lft.to/lastmile_qr_scan"}, "bike_id": "d281ca941d5101b8a8c6647cdb41e283"}, {"fusion_lon": 0.0, "is_reserved": 0, "lat": 38.88731933333333, "is_disabled": 0, "type": "electric_scooter", "lon": -76.983572, "fusion_lat": 0.0, "name": "88d69f92c07bafb4afbcb82d8569c71b", "rental_uris": {"android": "https://dc.lft.to/lastmile_qr_scan", "ios": "https://dc.lft.to/lastmile_qr_scan"}, "bike_id": "88d69f92c07bafb4afbcb82d8569c71b"}, {"fusion_lon": 0.0, "is_reserved": 0, "lat": 38.901404, "is_disabled": 0, "type": "electric_scooter", "lon": -77.03397516666666, "fusion_lat": 0.0, "name": "7b0a69c79e232743df80ffbda7276d4b", "rental_uris": {"android": "https://dc.lft.to/lastmile_qr_scan", "ios": "https://dc.lft.to/lastmile_qr_scan"}, "bike_id": "7b0a69c79e232743df80ffbda7276d4b"}, {"fusion_lon": 0.0, "is_reserved": 0, "lat": 38.916313833333334, "is_disabled": 0, "type": "electric_scooter", "lon": -77.03157866666666, "fusion_lat": 0.0, "name": "dbb3452a280b8c77c0ee2432b91675b3", "rental_uris": {"android": "https://dc.lft.to/lastmile_qr_scan", "ios": "https://dc.lft.to/lastmile_qr_scan"}, "bike_id": "dbb3452a280b8c77c0ee2432b91675b3"}, {"fusion_lon": 0.0, "is_reserved": 0, "lat": 38.91352716666667, "is_disabled": 0, "type": "electric_scooter", "lon": -77.044834, "fusion_lat": 0.0, "name": "9cd7cf10f597adf62895a2cf95139323", "rental_uris": {"android": "https://dc.lft.to/lastmile_qr_scan", "ios": "https://dc.lft.to/lastmile_qr_scan"}, "bike_id": "9cd7cf10f597adf62895a2cf95139323"}, {"fusion_lon": 0.0, "is_reserved": 0, "lat": 38.898665333333334, "is_disabled": 0, "type": "electric_scooter", "lon": -76.94634933333333, "fusion_lat": 0.0, "name": "aefd86054f2755f8fdce2eab897fd066", "rental_uris": {"android": "https://dc.lft.to/lastmile_qr_scan", "ios": "https://dc.lft.to/lastmile_qr_scan"}, "bike_id": "aefd86054f2755f8fdce2eab897fd066"}, {"fusion_lon": 0.0, "is_reserved": 0, "lat": 38.9111655, "is_disabled": 0, "type": "electric_scooter", "lon": -77.00603866666667, "fusion_lat": 0.0, "name": "1955aafb4ad34674aa143d6f2cf55c2d", "rental_uris": {"android": "https://dc.lft.to/lastmile_qr_scan", "ios": "https://dc.lft.to/lastmile_qr_scan"}, "bike_id": "1955aafb4ad34674aa143d6f2cf55c2d"}, {"fusion_lon": 0.0, "is_reserved": 0, "lat": 38.948472, "is_disabled": 0, "type": "electric_scooter", "lon": -77.02570666666666, "fusion_lat": 0.0, "name": "494d40c00c67474068064c5a00ec7ecc", "rental_uris": {"android": "https://dc.lft.to/lastmile_qr_scan", "ios": "https://dc.lft.to/lastmile_qr_scan"}, "bike_id": "494d40c00c67474068064c5a00ec7ecc"}, {"fusion_lon": 0.0, "is_reserved": 0, "lat": 38.90744383333333, "is_disabled": 0, "type": "electric_scooter", "lon": -77.00759783333334, "fusion_lat": 0.0, "name": "757d76633c0dd09afb8880ec99ecda2e", "rental_uris": {"android": "https://dc.lft.to/lastmile_qr_scan", "ios": "https://dc.lft.to/lastmile_qr_scan"}, "bike_id": "757d76633c0dd09afb8880ec99ecda2e"}, {"fusion_lon": 0.0, "is_reserved": 0, "lat": 38.83864533333333, "is_disabled": 0, "type": "electric_bike", "lon": -76.99698183333334, "fusion_lat": 0.0, "name": "150a03d652c1e0481a245d2db4b39f76", "rental_uris": {"android": "https://dc.lft.to/lastmile_qr_scan", "ios": "https://dc.lft.to/lastmile_qr_scan"}, "bike_id": "150a03d652c1e0481a245d2db4b39f76"}, {"fusion_lon": 0.0, "is_reserved": 0, "lat": 38.9119325, "is_disabled": 0, "type": "electric_scooter", "lon": -77.0402565, "fusion_lat": 0.0, "name": "c90808f8688180151a44d652e35731a6", "rental_uris": {"android": "https://dc.lft.to/lastmile_qr_scan", "ios": "https://dc.lft.to/lastmile_qr_scan"}, "bike_id": "c90808f8688180151a44d652e35731a6"}, {"fusion_lon": 0.0, "is_reserved": 0, "lat": 38.913584166666666, "is_disabled": 0, "type": "electric_scooter", "lon": -77.02864833333334, "fusion_lat": 0.0, "name": "3547e05f0674e980f9058c579bb2bf4b", "rental_uris": {"android": "https://dc.lft.to/lastmile_qr_scan", "ios": "https://dc.lft.to/lastmile_qr_scan"}, "bike_id": "3547e05f0674e980f9058c579bb2bf4b"}, {"fusion_lon": 0.0, "is_reserved": 0, "lat": 38.972557, "is_disabled": 0, "type": "electric_bike", "lon": -76.9927565, "fusion_lat": 0.0, "name": "17d3ec0687b499f64fe6ef6f487d09b9", "rental_uris": {"android": "https://dc.lft.to/lastmile_qr_scan", "ios": "https://dc.lft.to/lastmile_qr_scan"}, "bike_id": "17d3ec0687b499f64fe6ef6f487d09b9"}, {"fusion_lon": 0.0, "is_reserved": 0, "lat": 38.92465083333333, "is_disabled": 0, "type": "electric_scooter", "lon": -77.0519805, "fusion_lat": 0.0, "name": "3e07c61d59273024ade64af3050da465", "rental_uris": {"android": "https://dc.lft.to/lastmile_qr_scan", "ios": "https://dc.lft.to/lastmile_qr_scan"}, "bike_id": "3e07c61d59273024ade64af3050da465"}, {"fusion_lon": 0.0, "is_reserved": 0, "lat": 38.918163666666665, "is_disabled": 0, "type": "electric_scooter", "lon": -77.04182883333333, "fusion_lat": 0.0, "name": "21f88f194a633a8bbf2915123b0ab9bc", "rental_uris": {"android": "https://dc.lft.to/lastmile_qr_scan", "ios": "https://dc.lft.to/lastmile_qr_scan"}, "bike_id": "21f88f194a633a8bbf2915123b0ab9bc"}, {"fusion_lon": 0.0, "is_reserved": 0, "lat": 38.87657316666667, "is_disabled": 0, "type": "electric_scooter", "lon": -77.00430683333333, "fusion_lat": 0.0, "name": "ebd1f23f0f69cf67144742804205c2b3", "rental_uris": {"android": "https://dc.lft.to/lastmile_qr_scan", "ios": "https://dc.lft.to/lastmile_qr_scan"}, "bike_id": "ebd1f23f0f69cf67144742804205c2b3"}, {"fusion_lon": 0.0, "is_reserved": 0, "lat": 38.90551516666667, "is_disabled": 0, "type": "electric_scooter", "lon": -77.034806, "fusion_lat": 0.0, "name": "6e38637798b2f3fb20bb740b8415db22", "rental_uris": {"android": "https://dc.lft.to/lastmile_qr_scan", "ios": "https://dc.lft.to/lastmile_qr_scan"}, "bike_id": "6e38637798b2f3fb20bb740b8415db22"}, {"fusion_lon": 0.0, "is_reserved": 0, "lat": 38.90383416666667, "is_disabled": 0, "type": "electric_scooter", "lon": -77.03824283333333, "fusion_lat": 0.0, "name": "c10b812064a81f4de59b67d81956ff2d", "rental_uris": {"android": "https://dc.lft.to/lastmile_qr_scan", "ios": "https://dc.lft.to/lastmile_qr_scan"}, "bike_id": "c10b812064a81f4de59b67d81956ff2d"}, {"fusion_lon": 0.0, "is_reserved": 0, "lat": 38.8811405, "is_disabled": 0, "type": "electric_scooter", "lon": -77.00065766666667, "fusion_lat": 0.0, "name": "e714614c98a2cbbb50011a669c6a178f", "rental_uris": {"android": "https://dc.lft.to/lastmile_qr_scan", "ios": "https://dc.lft.to/lastmile_qr_scan"}, "bike_id": "e714614c98a2cbbb50011a669c6a178f"}, {"fusion_lon": 0.0, "is_reserved": 0, "lat": 38.9305635, "is_disabled": 0, "type": "electric_scooter", "lon": -77.023302, "fusion_lat": 0.0, "name": "16f8424c28a62eb0072771337ba4b1ef", "rental_uris": {"android": "https://dc.lft.to/lastmile_qr_scan", "ios": "https://dc.lft.to/lastmile_qr_scan"}, "bike_id": "16f8424c28a62eb0072771337ba4b1ef"}, {"fusion_lon": 0.0, "is_reserved": 0, "lat": 38.905015666666664, "is_disabled": 0, "type": "electric_scooter", "lon": -77.03436433333333, "fusion_lat": 0.0, "name": "184b20a01690d7142302886ab7c7e5a6", "rental_uris": {"android": "https://dc.lft.to/lastmile_qr_scan", "ios": "https://dc.lft.to/lastmile_qr_scan"}, "bike_id": "184b20a01690d7142302886ab7c7e5a6"}, {"fusion_lon": 0.0, "is_reserved": 0, "lat": 38.92050116666667, "is_disabled": 0, "type": "electric_scooter", "lon": -77.03442833333334, "fusion_lat": 0.0, "name": "28b147b631272ab7588a291a45917257", "rental_uris": {"android": "https://dc.lft.to/lastmile_qr_scan", "ios": "https://dc.lft.to/lastmile_qr_scan"}, "bike_id": "28b147b631272ab7588a291a45917257"}, {"fusion_lon": 0.0, "is_reserved": 0, "lat": 38.930699833333335, "is_disabled": 0, "type": "electric_scooter", "lon": -77.041287, "fusion_lat": 0.0, "name": "057f71fedd519049e111fb830320e945", "rental_uris": {"android": "https://dc.lft.to/lastmile_qr_scan", "ios": "https://dc.lft.to/lastmile_qr_scan"}, "bike_id": "057f71fedd519049e111fb830320e945"}, {"fusion_lon": 0.0, "is_reserved": 0, "lat": 38.865427833333335, "is_disabled": 0, "type": "electric_bike", "lon": -76.9734605, "fusion_lat": 0.0, "name": "f289e60bc95c79e1ee215340e4656423", "rental_uris": {"android": "https://dc.lft.to/lastmile_qr_scan", "ios": "https://dc.lft.to/lastmile_qr_scan"}, "bike_id": "f289e60bc95c79e1ee215340e4656423"}, {"fusion_lon": 0.0, "is_reserved": 0, "lat": 38.902697333333336, "is_disabled": 0, "type": "electric_scooter", "lon": -77.0351125, "fusion_lat": 0.0, "name": "4134e59ed4e0b6fdcf9f352dfaba818e", "rental_uris": {"android": "https://dc.lft.to/lastmile_qr_scan", "ios": "https://dc.lft.to/lastmile_qr_scan"}, "bike_id": "4134e59ed4e0b6fdcf9f352dfaba818e"}, {"fusion_lon": 0.0, "is_reserved": 0, "lat": 38.91350683333334, "is_disabled": 0, "type": "electric_scooter", "lon": -77.03180616666667, "fusion_lat": 0.0, "name": "a903fbc244ea170d0b9635f7d1766cae", "rental_uris": {"android": "https://dc.lft.to/lastmile_qr_scan", "ios": "https://dc.lft.to/lastmile_qr_scan"}, "bike_id": "a903fbc244ea170d0b9635f7d1766cae"}, {"fusion_lon": 0.0, "is_reserved": 0, "lat": 38.896158666666665, "is_disabled": 0, "type": "electric_scooter", "lon": -76.98568516666667, "fusion_lat": 0.0, "name": "b9e326ba8e5ddd8fbae1ca5b14cef208", "rental_uris": {"android": "https://dc.lft.to/lastmile_qr_scan", "ios": "https://dc.lft.to/lastmile_qr_scan"}, "bike_id": "b9e326ba8e5ddd8fbae1ca5b14cef208"}, {"fusion_lon": 0.0, "is_reserved": 0, "lat": 38.900360166666665, "is_disabled": 0, "type": "electric_scooter", "lon": -77.0020255, "fusion_lat": 0.0, "name": "140a2d893aef9209a3000d48d77fb68c", "rental_uris": {"android": "https://dc.lft.to/lastmile_qr_scan", "ios": "https://dc.lft.to/lastmile_qr_scan"}, "bike_id": "140a2d893aef9209a3000d48d77fb68c"}, {"fusion_lon": 0.0, "is_reserved": 0, "lat": 38.95296483333333, "is_disabled": 0, "type": "electric_scooter", "lon": -77.0290645, "fusion_lat": 0.0, "name": "5c98b37a86c0d1ee0a31e07df3202e5f", "rental_uris": {"android": "https://dc.lft.to/lastmile_qr_scan", "ios": "https://dc.lft.to/lastmile_qr_scan"}, "bike_id": "5c98b37a86c0d1ee0a31e07df3202e5f"}, {"fusion_lon": 0.0, "is_reserved": 0, "lat": 38.89596216666666, "is_disabled": 0, "type": "electric_scooter", "lon": -77.07366766666667, "fusion_lat": 0.0, "name": "4b2e5cdebc33127f93d12346d6285aca", "rental_uris": {"android": "https://dc.lft.to/lastmile_qr_scan", "ios": "https://dc.lft.to/lastmile_qr_scan"}, "bike_id": "4b2e5cdebc33127f93d12346d6285aca"}, {"fusion_lon": 0.0, "is_reserved": 0, "lat": 38.920742, "is_disabled": 0, "type": "electric_scooter", "lon": -77.025157, "fusion_lat": 0.0, "name": "a3dd59c1250489aae444cb88a5414b5f", "rental_uris": {"android": "https://dc.lft.to/lastmile_qr_scan", "ios": "https://dc.lft.to/lastmile_qr_scan"}, "bike_id": "a3dd59c1250489aae444cb88a5414b5f"}, {"fusion_lon": 0.0, "is_reserved": 0, "lat": 38.880634666666666, "is_disabled": 0, "type": "electric_scooter", "lon": -76.932123, "fusion_lat": 0.0, "name": "94de22f8f1ef20ddd0d9871b9680e241", "rental_uris": {"android": "https://dc.lft.to/lastmile_qr_scan", "ios": "https://dc.lft.to/lastmile_qr_scan"}, "bike_id": "94de22f8f1ef20ddd0d9871b9680e241"}, {"fusion_lon": 0.0, "is_reserved": 0, "lat": 38.8785175, "is_disabled": 0, "type": "electric_bike", "lon": -77.00774733333333, "fusion_lat": 0.0, "name": "8371297e7366ca562dd8ac568131cc2c", "rental_uris": {"android": "https://dc.lft.to/lastmile_qr_scan", "ios": "https://dc.lft.to/lastmile_qr_scan"}, "bike_id": "8371297e7366ca562dd8ac568131cc2c"}, {"fusion_lon": 0.0, "is_reserved": 0, "lat": 38.89264433333334, "is_disabled": 0, "type": "electric_scooter", "lon": -76.98369166666667, "fusion_lat": 0.0, "name": "878c5f756cd2f15e4c82f6b6c03eba34", "rental_uris": {"android": "https://dc.lft.to/lastmile_qr_scan", "ios": "https://dc.lft.to/lastmile_qr_scan"}, "bike_id": "878c5f756cd2f15e4c82f6b6c03eba34"}, {"fusion_lon": 0.0, "is_reserved": 0, "lat": 38.90378416666667, "is_disabled": 0, "type": "electric_scooter", "lon": -77.036301, "fusion_lat": 0.0, "name": "a75e78fd2cec8974aa7230ae5088ce80", "rental_uris": {"android": "https://dc.lft.to/lastmile_qr_scan", "ios": "https://dc.lft.to/lastmile_qr_scan"}, "bike_id": "a75e78fd2cec8974aa7230ae5088ce80"}, {"fusion_lon": 0.0, "is_reserved": 0, "lat": 38.89981683333333, "is_disabled": 0, "type": "electric_scooter", "lon": -77.02681283333334, "fusion_lat": 0.0, "name": "f61cd123a2960367b1ec17d9b5e6384c", "rental_uris": {"android": "https://dc.lft.to/lastmile_qr_scan", "ios": "https://dc.lft.to/lastmile_qr_scan"}, "bike_id": "f61cd123a2960367b1ec17d9b5e6384c"}, {"fusion_lon": 0.0, "is_reserved": 0, "lat": 38.8823125, "is_disabled": 0, "type": "electric_bike", "lon": -77.1144225, "fusion_lat": 0.0, "name": "63f1ebd6c1f3098a2bac286568e353e9", "rental_uris": {"android": "https://dc.lft.to/lastmile_qr_scan", "ios": "https://dc.lft.to/lastmile_qr_scan"}, "bike_id": "63f1ebd6c1f3098a2bac286568e353e9"}, {"fusion_lon": 0.0, "is_reserved": 0, "lat": 38.914001166666665, "is_disabled": 0, "type": "electric_scooter", "lon": -77.0181525, "fusion_lat": 0.0, "name": "bc00795d9ef7d7a826a541fa1ece17ed", "rental_uris": {"android": "https://dc.lft.to/lastmile_qr_scan", "ios": "https://dc.lft.to/lastmile_qr_scan"}, "bike_id": "bc00795d9ef7d7a826a541fa1ece17ed"}, {"fusion_lon": 0.0, "is_reserved": 0, "lat": 38.933485833333336, "is_disabled": 0, "type": "electric_bike", "lon": -77.08322133333333, "fusion_lat": 0.0, "name": "7f17055047aa3ccc13f3c705fb07f53f", "rental_uris": {"android": "https://dc.lft.to/lastmile_qr_scan", "ios": "https://dc.lft.to/lastmile_qr_scan"}, "bike_id": "7f17055047aa3ccc13f3c705fb07f53f"}, {"fusion_lon": 0.0, "is_reserved": 0, "lat": 38.900353, "is_disabled": 0, "type": "electric_scooter", "lon": -76.98819416666667, "fusion_lat": 0.0, "name": "26df8d238f801acfe43aeabc5392a157", "rental_uris": {"android": "https://dc.lft.to/lastmile_qr_scan", "ios": "https://dc.lft.to/lastmile_qr_scan"}, "bike_id": "26df8d238f801acfe43aeabc5392a157"}, {"fusion_lon": 0.0, "is_reserved": 0, "lat": 38.881244833333334, "is_disabled": 0, "type": "electric_scooter", "lon": -77.01337533333333, "fusion_lat": 0.0, "name": "c43e6310a1c6772a1a79a5dc611729a5", "rental_uris": {"android": "https://dc.lft.to/lastmile_qr_scan", "ios": "https://dc.lft.to/lastmile_qr_scan"}, "bike_id": "c43e6310a1c6772a1a79a5dc611729a5"}, {"fusion_lon": 0.0, "is_reserved": 0, "lat": 38.9234075, "is_disabled": 0, "type": "electric_scooter", "lon": -77.01905483333333, "fusion_lat": 0.0, "name": "6ba59383e9d4b93c4ae753b5dfa70f3e", "rental_uris": {"android": "https://dc.lft.to/lastmile_qr_scan", "ios": "https://dc.lft.to/lastmile_qr_scan"}, "bike_id": "6ba59383e9d4b93c4ae753b5dfa70f3e"}, {"fusion_lon": 0.0, "is_reserved": 0, "lat": 38.9181475, "is_disabled": 0, "type": "electric_scooter", "lon": -77.02475366666667, "fusion_lat": 0.0, "name": "1c871198d710d0dca8d8419d95472967", "rental_uris": {"android": "https://dc.lft.to/lastmile_qr_scan", "ios": "https://dc.lft.to/lastmile_qr_scan"}, "bike_id": "1c871198d710d0dca8d8419d95472967"}, {"fusion_lon": 0.0, "is_reserved": 0, "lat": 38.893649, "is_disabled": 0, "type": "electric_scooter", "lon": -77.02256516666667, "fusion_lat": 0.0, "name": "d235cbdcf251b811115f418d271c3298", "rental_uris": {"android": "https://dc.lft.to/lastmile_qr_scan", "ios": "https://dc.lft.to/lastmile_qr_scan"}, "bike_id": "d235cbdcf251b811115f418d271c3298"}, {"fusion_lon": 0.0, "is_reserved": 0, "lat": 38.924570333333335, "is_disabled": 0, "type": "electric_scooter", "lon": -77.0328665, "fusion_lat": 0.0, "name": "a4314e42a6741b476db10af1eae1395e", "rental_uris": {"android": "https://dc.lft.to/lastmile_qr_scan", "ios": "https://dc.lft.to/lastmile_qr_scan"}, "bike_id": "a4314e42a6741b476db10af1eae1395e"}, {"fusion_lon": 0.0, "is_reserved": 0, "lat": 38.909696833333335, "is_disabled": 0, "type": "electric_scooter", "lon": -77.03861716666667, "fusion_lat": 0.0, "name": "5f68423592c4c44f286e8c2ad0941a8e", "rental_uris": {"android": "https://dc.lft.to/lastmile_qr_scan", "ios": "https://dc.lft.to/lastmile_qr_scan"}, "bike_id": "5f68423592c4c44f286e8c2ad0941a8e"}, {"fusion_lon": 0.0, "is_reserved": 0, "lat": 38.926829, "is_disabled": 0, "type": "electric_scooter", "lon": -77.02284466666667, "fusion_lat": 0.0, "name": "66fbbf1723d17bf5041916c2537e1fde", "rental_uris": {"android": "https://dc.lft.to/lastmile_qr_scan", "ios": "https://dc.lft.to/lastmile_qr_scan"}, "bike_id": "66fbbf1723d17bf5041916c2537e1fde"}, {"fusion_lon": 0.0, "is_reserved": 0, "lat": 38.90725183333333, "is_disabled": 0, "type": "electric_scooter", "lon": -77.03763716666667, "fusion_lat": 0.0, "name": "a5c7caf230ddd275f361e54688afb84d", "rental_uris": {"android": "https://dc.lft.to/lastmile_qr_scan", "ios": "https://dc.lft.to/lastmile_qr_scan"}, "bike_id": "a5c7caf230ddd275f361e54688afb84d"}, {"fusion_lon": 0.0, "is_reserved": 0, "lat": 38.918076666666664, "is_disabled": 0, "type": "electric_scooter", "lon": -77.02500316666666, "fusion_lat": 0.0, "name": "f977d31b3c5dbd7f51514da5547a0d2f", "rental_uris": {"android": "https://dc.lft.to/lastmile_qr_scan", "ios": "https://dc.lft.to/lastmile_qr_scan"}, "bike_id": "f977d31b3c5dbd7f51514da5547a0d2f"}, {"fusion_lon": 0.0, "is_reserved": 0, "lat": 38.91847333333333, "is_disabled": 0, "type": "electric_scooter", "lon": -76.96544166666666, "fusion_lat": 0.0, "name": "dffe2ab587c04cac017783dfccf967c0", "rental_uris": {"android": "https://dc.lft.to/lastmile_qr_scan", "ios": "https://dc.lft.to/lastmile_qr_scan"}, "bike_id": "dffe2ab587c04cac017783dfccf967c0"}, {"fusion_lon": 0.0, "is_reserved": 0, "lat": 38.89423683333333, "is_disabled": 0, "type": "electric_scooter", "lon": -77.05600783333334, "fusion_lat": 0.0, "name": "3d9e068d72c761e683abbf3b0483f97c", "rental_uris": {"android": "https://dc.lft.to/lastmile_qr_scan", "ios": "https://dc.lft.to/lastmile_qr_scan"}, "bike_id": "3d9e068d72c761e683abbf3b0483f97c"}, {"fusion_lon": 0.0, "is_reserved": 0, "lat": 38.8987425, "is_disabled": 0, "type": "electric_scooter", "lon": -77.01993916666666, "fusion_lat": 0.0, "name": "09e42e7f71770b6a7feb52970c011b1e", "rental_uris": {"android": "https://dc.lft.to/lastmile_qr_scan", "ios": "https://dc.lft.to/lastmile_qr_scan"}, "bike_id": "09e42e7f71770b6a7feb52970c011b1e"}, {"fusion_lon": 0.0, "is_reserved": 0, "lat": 38.9154525, "is_disabled": 0, "type": "electric_scooter", "lon": -77.041582, "fusion_lat": 0.0, "name": "673839d983577a9317f199f0b23f9ff9", "rental_uris": {"android": "https://dc.lft.to/lastmile_qr_scan", "ios": "https://dc.lft.to/lastmile_qr_scan"}, "bike_id": "673839d983577a9317f199f0b23f9ff9"}, {"fusion_lon": 0.0, "is_reserved": 0, "lat": 38.928543, "is_disabled": 0, "type": "electric_scooter", "lon": -77.014102, "fusion_lat": 0.0, "name": "6cf2bebed746e5b57590fa37b2aefff8", "rental_uris": {"android": "https://dc.lft.to/lastmile_qr_scan", "ios": "https://dc.lft.to/lastmile_qr_scan"}, "bike_id": "6cf2bebed746e5b57590fa37b2aefff8"}, {"fusion_lon": 0.0, "is_reserved": 0, "lat": 38.9002335, "is_disabled": 0, "type": "electric_scooter", "lon": -77.01184133333334, "fusion_lat": 0.0, "name": "45c823eb454857d0bf57acc399bae238", "rental_uris": {"android": "https://dc.lft.to/lastmile_qr_scan", "ios": "https://dc.lft.to/lastmile_qr_scan"}, "bike_id": "45c823eb454857d0bf57acc399bae238"}, {"fusion_lon": 0.0, "is_reserved": 0, "lat": 38.90685383333334, "is_disabled": 0, "type": "electric_scooter", "lon": -77.03775516666667, "fusion_lat": 0.0, "name": "4e406477968a3564a65a5de24278be6e", "rental_uris": {"android": "https://dc.lft.to/lastmile_qr_scan", "ios": "https://dc.lft.to/lastmile_qr_scan"}, "bike_id": "4e406477968a3564a65a5de24278be6e"}, {"fusion_lon": 0.0, "is_reserved": 0, "lat": 38.892300166666665, "is_disabled": 0, "type": "electric_scooter", "lon": -77.02204583333334, "fusion_lat": 0.0, "name": "cb8f74c963ed734aa19e314bc0b6552b", "rental_uris": {"android": "https://dc.lft.to/lastmile_qr_scan", "ios": "https://dc.lft.to/lastmile_qr_scan"}, "bike_id": "cb8f74c963ed734aa19e314bc0b6552b"}, {"fusion_lon": 0.0, "is_reserved": 0, "lat": 38.96160833333333, "is_disabled": 0, "type": "electric_bike", "lon": -77.0135935, "fusion_lat": 0.0, "name": "8666cf912cb08b661ae5dd1d27894a3c", "rental_uris": {"android": "https://dc.lft.to/lastmile_qr_scan", "ios": "https://dc.lft.to/lastmile_qr_scan"}, "bike_id": "8666cf912cb08b661ae5dd1d27894a3c"}, {"fusion_lon": 0.0, "is_reserved": 0, "lat": 38.89953766666667, "is_disabled": 0, "type": "electric_scooter", "lon": -77.0454665, "fusion_lat": 0.0, "name": "dd743a8f797e57b3d586e3a5f0550711", "rental_uris": {"android": "https://dc.lft.to/lastmile_qr_scan", "ios": "https://dc.lft.to/lastmile_qr_scan"}, "bike_id": "dd743a8f797e57b3d586e3a5f0550711"}, {"fusion_lon": 0.0, "is_reserved": 0, "lat": 38.935355, "is_disabled": 0, "type": "electric_scooter", "lon": -77.02351633333333, "fusion_lat": 0.0, "name": "8cb9c1aede9b9d360b44e92abe939ce5", "rental_uris": {"android": "https://dc.lft.to/lastmile_qr_scan", "ios": "https://dc.lft.to/lastmile_qr_scan"}, "bike_id": "8cb9c1aede9b9d360b44e92abe939ce5"}, {"fusion_lon": 0.0, "is_reserved": 0, "lat": 38.90545683333333, "is_disabled": 0, "type": "electric_scooter", "lon": -77.047524, "fusion_lat": 0.0, "name": "e1177b41a236e94f6319aca940dfbe37", "rental_uris": {"android": "https://dc.lft.to/lastmile_qr_scan", "ios": "https://dc.lft.to/lastmile_qr_scan"}, "bike_id": "e1177b41a236e94f6319aca940dfbe37"}, {"fusion_lon": 0.0, "is_reserved": 0, "lat": 38.90074883333333, "is_disabled": 0, "type": "electric_scooter", "lon": -77.04557916666667, "fusion_lat": 0.0, "name": "d92e8e2d31ec54c9045677d43d55eb8d", "rental_uris": {"android": "https://dc.lft.to/lastmile_qr_scan", "ios": "https://dc.lft.to/lastmile_qr_scan"}, "bike_id": "d92e8e2d31ec54c9045677d43d55eb8d"}, {"fusion_lon": 0.0, "is_reserved": 0, "lat": 38.925140166666665, "is_disabled": 0, "type": "electric_scooter", "lon": -77.02571766666667, "fusion_lat": 0.0, "name": "4b65788f5237defac28d333935c82ab1", "rental_uris": {"android": "https://dc.lft.to/lastmile_qr_scan", "ios": "https://dc.lft.to/lastmile_qr_scan"}, "bike_id": "4b65788f5237defac28d333935c82ab1"}, {"fusion_lon": 0.0, "is_reserved": 0, "lat": 38.90383116666667, "is_disabled": 0, "type": "electric_scooter", "lon": -77.03632733333333, "fusion_lat": 0.0, "name": "217243361c5aa69bc4174edf58f82a3e", "rental_uris": {"android": "https://dc.lft.to/lastmile_qr_scan", "ios": "https://dc.lft.to/lastmile_qr_scan"}, "bike_id": "217243361c5aa69bc4174edf58f82a3e"}, {"fusion_lon": 0.0, "is_reserved": 0, "lat": 38.94129783333333, "is_disabled": 0, "type": "electric_scooter", "lon": -77.0617265, "fusion_lat": 0.0, "name": "21f17713b8530abc9e511761b0bce7ad", "rental_uris": {"android": "https://dc.lft.to/lastmile_qr_scan", "ios": "https://dc.lft.to/lastmile_qr_scan"}, "bike_id": "21f17713b8530abc9e511761b0bce7ad"}, {"fusion_lon": 0.0, "is_reserved": 0, "lat": 38.92102283333333, "is_disabled": 0, "type": "electric_scooter", "lon": -77.0131165, "fusion_lat": 0.0, "name": "2b23cf86c6dcc266b172927550f96dc7", "rental_uris": {"android": "https://dc.lft.to/lastmile_qr_scan", "ios": "https://dc.lft.to/lastmile_qr_scan"}, "bike_id": "2b23cf86c6dcc266b172927550f96dc7"}, {"fusion_lon": 0.0, "is_reserved": 0, "lat": 38.87267166666667, "is_disabled": 0, "type": "electric_scooter", "lon": -77.01518633333333, "fusion_lat": 0.0, "name": "3cfbba86a8566ad31e61d16e5aa8942b", "rental_uris": {"android": "https://dc.lft.to/lastmile_qr_scan", "ios": "https://dc.lft.to/lastmile_qr_scan"}, "bike_id": "3cfbba86a8566ad31e61d16e5aa8942b"}, {"fusion_lon": 0.0, "is_reserved": 0, "lat": 38.9057205, "is_disabled": 0, "type": "electric_scooter", "lon": -77.0397325, "fusion_lat": 0.0, "name": "a50d67c767a4bcc85d9c28454fe5df47", "rental_uris": {"android": "https://dc.lft.to/lastmile_qr_scan", "ios": "https://dc.lft.to/lastmile_qr_scan"}, "bike_id": "a50d67c767a4bcc85d9c28454fe5df47"}, {"fusion_lon": 0.0, "is_reserved": 0, "lat": 38.90030733333333, "is_disabled": 0, "type": "electric_scooter", "lon": -76.9886085, "fusion_lat": 0.0, "name": "0e142924aaa04a6aa3b41c7f621e6ec8", "rental_uris": {"android": "https://dc.lft.to/lastmile_qr_scan", "ios": "https://dc.lft.to/lastmile_qr_scan"}, "bike_id": "0e142924aaa04a6aa3b41c7f621e6ec8"}, {"fusion_lon": 0.0, "is_reserved": 0, "lat": 38.930987, "is_disabled": 0, "type": "electric_scooter", "lon": -77.02646783333333, "fusion_lat": 0.0, "name": "76a56c2b866915f91509148a505b09a7", "rental_uris": {"android": "https://dc.lft.to/lastmile_qr_scan", "ios": "https://dc.lft.to/lastmile_qr_scan"}, "bike_id": "76a56c2b866915f91509148a505b09a7"}, {"fusion_lon": 0.0, "is_reserved": 0, "lat": 38.92251433333333, "is_disabled": 0, "type": "electric_scooter", "lon": -77.04361216666666, "fusion_lat": 0.0, "name": "ed60838f4918681edfbccdbcc8011e17", "rental_uris": {"android": "https://dc.lft.to/lastmile_qr_scan", "ios": "https://dc.lft.to/lastmile_qr_scan"}, "bike_id": "ed60838f4918681edfbccdbcc8011e17"}, {"fusion_lon": 0.0, "is_reserved": 0, "lat": 38.908406666666664, "is_disabled": 0, "type": "electric_scooter", "lon": -77.04452416666666, "fusion_lat": 0.0, "name": "0cdb478f2aff03f545de6ae88cd15751", "rental_uris": {"android": "https://dc.lft.to/lastmile_qr_scan", "ios": "https://dc.lft.to/lastmile_qr_scan"}, "bike_id": "0cdb478f2aff03f545de6ae88cd15751"}, {"fusion_lon": 0.0, "is_reserved": 0, "lat": 38.8822955, "is_disabled": 0, "type": "electric_scooter", "lon": -76.994868, "fusion_lat": 0.0, "name": "66e1279cb9b9f4413d84d225d0a5d8bc", "rental_uris": {"android": "https://dc.lft.to/lastmile_qr_scan", "ios": "https://dc.lft.to/lastmile_qr_scan"}, "bike_id": "66e1279cb9b9f4413d84d225d0a5d8bc"}, {"fusion_lon": 0.0, "is_reserved": 0, "lat": 38.9058745, "is_disabled": 0, "type": "electric_scooter", "lon": -77.03975233333334, "fusion_lat": 0.0, "name": "e0596d292d46188f1af02f275cdc5963", "rental_uris": {"android": "https://dc.lft.to/lastmile_qr_scan", "ios": "https://dc.lft.to/lastmile_qr_scan"}, "bike_id": "e0596d292d46188f1af02f275cdc5963"}, {"fusion_lon": 0.0, "is_reserved": 0, "lat": 38.90462016666667, "is_disabled": 0, "type": "electric_scooter", "lon": -77.028115, "fusion_lat": 0.0, "name": "1bf5a773a688ada4f9a0525d9e9febdd", "rental_uris": {"android": "https://dc.lft.to/lastmile_qr_scan", "ios": "https://dc.lft.to/lastmile_qr_scan"}, "bike_id": "1bf5a773a688ada4f9a0525d9e9febdd"}, {"fusion_lon": 0.0, "is_reserved": 0, "lat": 38.944714833333336, "is_disabled": 0, "type": "electric_bike", "lon": -76.98688066666666, "fusion_lat": 0.0, "name": "ab45d4107b902ecf0b27c7c1a26e4539", "rental_uris": {"android": "https://dc.lft.to/lastmile_qr_scan", "ios": "https://dc.lft.to/lastmile_qr_scan"}, "bike_id": "ab45d4107b902ecf0b27c7c1a26e4539"}, {"fusion_lon": 0.0, "is_reserved": 0, "lat": 38.967817833333335, "is_disabled": 0, "type": "electric_bike", "lon": -76.9625875, "fusion_lat": 0.0, "name": "d9aa487c76bf624de1f9ef6c9434aa7b", "rental_uris": {"android": "https://dc.lft.to/lastmile_qr_scan", "ios": "https://dc.lft.to/lastmile_qr_scan"}, "bike_id": "d9aa487c76bf624de1f9ef6c9434aa7b"}, {"fusion_lon": 0.0, "is_reserved": 0, "lat": 38.9388495, "is_disabled": 0, "type": "electric_scooter", "lon": -77.033272, "fusion_lat": 0.0, "name": "a854ae12546f3c4cfadde3f070a0d52d", "rental_uris": {"android": "https://dc.lft.to/lastmile_qr_scan", "ios": "https://dc.lft.to/lastmile_qr_scan"}, "bike_id": "a854ae12546f3c4cfadde3f070a0d52d"}, {"fusion_lon": 0.0, "is_reserved": 0, "lat": 38.900030666666666, "is_disabled": 0, "type": "electric_scooter", "lon": -77.00680183333333, "fusion_lat": 0.0, "name": "d1f9e394cb9c6bca35994058d3033b94", "rental_uris": {"android": "https://dc.lft.to/lastmile_qr_scan", "ios": "https://dc.lft.to/lastmile_qr_scan"}, "bike_id": "d1f9e394cb9c6bca35994058d3033b94"}, {"fusion_lon": 0.0, "is_reserved": 0, "lat": 38.9072445, "is_disabled": 0, "type": "electric_scooter", "lon": -77.04510266666666, "fusion_lat": 0.0, "name": "d0e99075e9b6c3b8842e9affb2ee48f1", "rental_uris": {"android": "https://dc.lft.to/lastmile_qr_scan", "ios": "https://dc.lft.to/lastmile_qr_scan"}, "bike_id": "d0e99075e9b6c3b8842e9affb2ee48f1"},