{"data": {"bikes": [{"bike_id": "4b9fe2066bbce1b256e8033c55ddcb02", "fusion_lon": 0.0, "name": "4b9fe2066bbce1b256e8033c55ddcb02", "lat": 38.9040765, "is_disabled": 0, "is_reserved": 0, "lon": -76.973325, "type": "electric_scooter", "fusion_lat": 0.0, "rental_uris": {"android": "https://dc.lft.to/lastmile_qr_scan", "ios": "https://dc.lft.to/lastmile_qr_scan"}}, {"bike_id": "8c34e649d97e08b8932aba1bfcc5be89", "fusion_lon": 0.0, "name": "8c34e649d97e08b8932aba1bfcc5be89", "lat": 38.90724516666667, "is_disabled": 0, "is_reserved": 0, "lon": -77.04328583333333, "type": "electric_scooter", "fusion_lat": 0.0, "rental_uris": {"android": "https://dc.lft.to/lastmile_qr_scan", "ios": "https://dc.lft.to/lastmile_qr_scan"}}, {"bike_id": "95b1437906b1b6aa42b410f242e4a2cf", "fusion_lon": 0.0, "name": "95b1437906b1b6aa42b410f242e4a2cf", "lat": 38.9078235, "is_disabled": 0, "is_reserved": 0, "lon": -77.04008716666667, "type": "electric_scooter", "fusion_lat": 0.0, "rental_uris": {"android": "https://dc.lft.to/lastmile_qr_scan", "ios": "https://dc.lft.to/lastmile_qr_scan"}}, {"bike_id": "71d25c6ca56116e20a77017674f42f4e", "fusion_lon": 0.0, "name": "71d25c6ca56116e20a77017674f42f4e", "lat": 38.90258166666667, "is_disabled": 0, "is_reserved": 0, "lon": -76.97458566666667, "type": "electric_scooter", "fusion_lat": 0.0, "rental_uris": {"android": "https://dc.lft.to/lastmile_qr_scan", "ios": "https://dc.lft.to/lastmile_qr_scan"}}, {"bike_id": "3db706ec29f70ec5f7d611d5c067296e", "fusion_lon": 0.0, "name": "3db706ec29f70ec5f7d611d5c067296e", "lat": 38.90201233333333, "is_disabled": 0, "is_reserved": 0, "lon": -77.0213725, "type": "electric_scooter", "fusion_lat": 0.0, "rental_uris": {"android": "https://dc.lft.to/lastmile_qr_scan", "ios": "https://dc.lft.to/lastmile_qr_scan"}}, {"bike_id": "adc1f56c47fa747113fb858d70d4f057", "fusion_lon": 0.0, "name": "adc1f56c47fa747113fb858d70d4f057", "lat": 38.90852366666667, "is_disabled": 0, "is_reserved": 0, "lon": -76.99796133333334, "type": "electric_scooter", "fusion_lat": 0.0, "rental_uris": {"android": "https://dc.lft.to/lastmile_qr_scan", "ios": "https://dc.lft.to/lastmile_qr_scan"}}, {"bike_id": "1880721087ad6173eba36f264c01c5df", "fusion_lon": 0.0, "name": "1880721087ad6173eba36f264c01c5df", "lat": 38.91563216666667, "is_disabled": 0, "is_reserved": 0, "lon": -77.038546, "type": "electric_scooter", "fusion_lat": 0.0, "rental_uris": {"android": "https://dc.lft.to/lastmile_qr_scan", "ios": "https://dc.lft.to/lastmile_qr_scan"}}, {"bike_id": "73483957d4a6e34ca9503ad293fc8c9a", "fusion_lon": 0.0, "name": "73483957d4a6e34ca9503ad293fc8c9a", "lat": 38.91707683333333, "is_disabled": 0, "is_reserved": 0, "lon": -77.03472166666667, "type": "electric_scooter", "fusion_lat": 0.0, "rental_uris": {"android": "https://dc.lft.to/lastmile_qr_scan", "ios": "https://dc.lft.to/lastmile_qr_scan"}}, {"bike_id": "8851baf8f76926c498c72e7679d6d18b", "fusion_lon": 0.0, "name": "8851baf8f76926c498c72e7679d6d18b", "lat": 38.93022283333333, "is_disabled": 0, "is_reserved": 0, "lon": -77.03293333333333, "type": "electric_scooter", "fusion_lat": 0.0, "rental_uris": {"android": "https://dc.lft.to/lastmile_qr_scan", "ios": "https://dc.lft.to/lastmile_qr_scan"}}, {"bike_id": "78a10fd337d1f35192fc35271b97a721", "fusion_lon": 0.0, "name": "78a10fd337d1f35192fc35271b97a721", "lat": 38.92883716666667, "is_disabled": 0, "is_reserved": 0, "lon": -77.02713916666667, "type": "electric_scooter", "fusion_lat": 0.0, "rental_uris": {"android": "https://dc.lft.to/lastmile_qr_scan", "ios": "https://dc.lft.to/lastmile_qr_scan"}}, {"bike_id": "2a726ae06de950d826cc3dc1f6fa8d02", "fusion_lon": 0.0, "name": "2a726ae06de950d826cc3dc1f6fa8d02", "lat": 38.91315383333333, "is_disabled": 0, "is_reserved": 0, "lon": -77.01512083333333, "type": "electric_scooter", "fusion_lat": 0.0, "rental_uris": {"android": "https://dc.lft.to/lastmile_qr_scan", "ios": "https://dc.lft.to/lastmile_qr_scan"}}, {"bike_id": "4258f5839c6b6ee265233bf446c8bb9e", "fusion_lon": 0.0, "name": "4258f5839c6b6ee265233bf446c8bb9e", "lat": 38.892436333333336, "is_disabled": 0, "is_reserved": 0, "lon": -77.03351466666666, "type": "electric_scooter", "fusion_lat": 0.0, "rental_uris": {"android": "https://dc.lft.to/lastmile_qr_scan", "ios": "https://dc.lft.to/lastmile_qr_scan"}}, {"bike_id": "77935afdb23ef8ee45eda1e1dbf11c34", "fusion_lon": 0.0, "name": "77935afdb23ef8ee45eda1e1dbf11c34", "lat": 38.88734816666667, "is_disabled": 0, "is_reserved": 0, "lon": -77.01528433333333, "type": "electric_scooter", "fusion_lat": 0.0, "rental_uris": {"android": "https://dc.lft.to/lastmile_qr_scan", "ios": "https://dc.lft.to/lastmile_qr_scan"}}, {"bike_id": "e42f70581e2b307ecef23878431b7a5b", "fusion_lon": 0.0, "name": "e42f70581e2b307ecef23878431b7a5b", "lat": 38.894509666666664, "is_disabled": 0, "is_reserved": 0, "lon": -77.02689233333334, "type": "electric_scooter", "fusion_lat": 0.0, "rental_uris": {"android": "https://dc.lft.to/lastmile_qr_scan", "ios": "https://dc.lft.to/lastmile_qr_scan"}}, {"bike_id": "569aa2521ce90b2092102615625151ed", "fusion_lon": 0.0, "name": "569aa2521ce90b2092102615625151ed", "lat": 38.9019025, "is_disabled": 0, "is_reserved": 0, "lon": -77.00565533333334, "type": "electric_scooter", "fusion_lat": 0.0, "rental_uris": {"android": "https://dc.lft.to/lastmile_qr_scan", "ios": "https://dc.lft.to/lastmile_qr_scan"}}, {"bike_id": "23a2e8409d46374e88f177c5bcec49cd", "fusion_lon": 0.0, "name": "23a2e8409d46374e88f177c5bcec49cd", "lat": 38.892215, "is_disabled": 0, "is_reserved": 0, "lon": -77.02509533333334, "type": "electric_scooter", "fusion_lat": 0.0, "rental_uris": {"android": "https://dc.lft.to/lastmile_qr_scan", "ios": "https://dc.lft.to/lastmile_qr_scan"}}, {"bike_id": "fa7f15b796333b7cfd5f4b08c3e101c8", "fusion_lon": 0.0, "name": "fa7f15b796333b7cfd5f4b08c3e101c8", "lat": 38.92150483333333, "is_disabled": 0, "is_reserved": 0, "lon": -77.03321783333334, "type": "electric_scooter", "fusion_lat": 0.0, "rental_uris": {"android": "https://dc.lft.to/lastmile_qr_scan", "ios": "https://dc.lft.to/lastmile_qr_scan"}}, {"bike_id": "c9d06b2ff461f5023c721188b6a2908e", "fusion_lon": 0.0, "name": "c9d06b2ff461f5023c721188b6a2908e", "lat": 38.91205016666667, "is_disabled": 0, "is_reserved": 0, "lon": -77.03848483333333, "type": "electric_scooter", "fusion_lat": 0.0, "rental_uris": {"android": "https://dc.lft.to/lastmile_qr_scan", "ios": "https://dc.lft.to/lastmile_qr_scan"}}, {"bike_id": "d894224f9e2bf18d11d4813a4ec3ad49", "fusion_lon": 0.0, "name": "d894224f9e2bf18d11d4813a4ec3ad49", "lat": 38.89965883333333, "is_disabled": 0, "is_reserved": 0, "lon": -77.05555133333333, "type": "electric_scooter", "fusion_lat": 0.0, "rental_uris": {"android": "https://dc.lft.to/lastmile_qr_scan", "ios": "https://dc.lft.to/lastmile_qr_scan"}}, {"bike_id": "c5c1030722fce120728baa7342abb360", "fusion_lon": 0.0, "name": "c5c1030722fce120728baa7342abb360", "lat": 38.861373666666665, "is_disabled": 0, "is_reserved": 0, "lon": -76.97171983333334, "type": "electric_bike", "fusion_lat": 0.0, "rental_uris": {"android": "https://dc.lft.to/lastmile_qr_scan", "ios": "https://dc.lft.to/lastmile_qr_scan"}}, {"bike_id": "a7960ac3440e082260885eae848f5e08", "fusion_lon": 0.0, "name": "a7960ac3440e082260885eae848f5e08", "lat": 38.92982116666667, "is_disabled": 0, "is_reserved": 0, "lon": -77.0325715, "type": "electric_scooter", "fusion_lat": 0.0, "rental_uris": {"android": "https://dc.lft.to/lastmile_qr_scan", "ios": "https://dc.lft.to/lastmile_qr_scan"}}, {"bike_id": "a3a64fa0c644695d85a87ae82b91dcb5", "fusion_lon": 0.0, "name": "a3a64fa0c644695d85a87ae82b91dcb5", "lat": 38.9120185, "is_disabled": 0, "is_reserved": 0, "lon": -77.03836783333334, "type": "electric_scooter", "fusion_lat": 0.0, "rental_uris": {"android": "https://dc.lft.to/lastmile_qr_scan", "ios": "https://dc.lft.to/lastmile_qr_scan"}}, {"bike_id": "b7ccf078b788acd399c46bbf83109bd6", "fusion_lon": 0.0, "name": "b7ccf078b788acd399c46bbf83109bd6", "lat": 38.899505166666664, "is_disabled": 0, "is_reserved": 0, "lon": -76.9753275, "type": "electric_scooter", "fusion_lat": 0.0, "rental_uris": {"android": "https://dc.lft.to/lastmile_qr_scan", "ios": "https://dc.lft.to/lastmile_qr_scan"}}, {"bike_id": "d0601fe94d07a8e9e60505e7921984f8", "fusion_lon": 0.0, "name": "d0601fe94d07a8e9e60505e7921984f8", "lat": 38.926534, "is_disabled": 0, "is_reserved": 0, "lon": -77.02424416666666, "type": "electric_scooter", "fusion_lat": 0.0, "rental_uris": {"android": "https://dc.lft.to/lastmile_qr_scan", "ios": "https://dc.lft.to/lastmile_qr_scan"}}, {"bike_id": "72bb8ada63fed8f051a2ec1468a69471", "fusion_lon": 0.0, "name": "72bb8ada63fed8f051a2ec1468a69471", "lat": 38.88063916666667, "is_disabled": 0, "is_reserved": 0, "lon": -77.01670116666666, "type": "electric_bike", "fusion_lat": 0.0, "rental_uris": {"android": "https://dc.lft.to/lastmile_qr_scan", "ios": "https://dc.lft.to/lastmile_qr_scan"}}, {"bike_id": "98a7d0b9974ecd3da3427f2fc094de03", "fusion_lon": 0.0, "name": "98a7d0b9974ecd3da3427f2fc094de03", "lat": 38.906352, "is_disabled": 0, "is_reserved": 0, "lon": -77.0346295, "type": "electric_scooter", "fusion_lat": 0.0, "rental_uris": {"android": "https://dc.lft.to/lastmile_qr_scan", "ios": "https://dc.lft.to/lastmile_qr_scan"}}, {"bike_id": "c608d398145efed0d8cc6e982c8c6663", "fusion_lon": 0.0, "name": "c608d398145efed0d8cc6e982c8c6663", "lat": 38.9447075, "is_disabled": 0, "is_reserved": 0, "lon": -77.02356133333333, "type": "electric_scooter", "fusion_lat": 0.0, "rental_uris": {"android": "https://dc.lft.to/lastmile_qr_scan", "ios": "https://dc.lft.to/lastmile_qr_scan"}}, {"bike_id": "19b771791d9bdf2c9b7aef7bc1675471", "fusion_lon": 0.0, "name": "19b771791d9bdf2c9b7aef7bc1675471", "lat": 38.916898333333336, "is_disabled": 0, "is_reserved": 0, "lon": -77.0259345, "type": "electric_scooter", "fusion_lat": 0.0, "rental_uris": {"android": "https://dc.lft.to/lastmile_qr_scan", "ios": "https://dc.lft.to/lastmile_qr_scan"}}, {"bike_id": "b849a74a4f1cdc2dd560b412c43b1ad4", "fusion_lon": 0.0, "name": "b849a74a4f1cdc2dd560b412c43b1ad4", "lat": 38.9332095, "is_disabled": 0, "is_reserved": 0, "lon": -77.03443116666666, "type": "electric_scooter", "fusion_lat": 0.0, "rental_uris": {"android": "https://dc.lft.to/lastmile_qr_scan", "ios": "https://dc.lft.to/lastmile_qr_scan"}}, {"bike_id": "2ea19e3e5864aff7cba7cb65c61b7ef1", "fusion_lon": 0.0, "name": "2ea19e3e5864aff7cba7cb65c61b7ef1", "lat": 38.89219716666667, "is_disabled": 0, "is_reserved": 0, "lon": -77.02222633333334, "type": "electric_scooter", "fusion_lat": 0.0, "rental_uris": {"android": "https://dc.lft.to/lastmile_qr_scan", "ios": "https://dc.lft.to/lastmile_qr_scan"}}, {"bike_id": "8458ca946dbc081b386d9e0a2aa0f316", "fusion_lon": 0.0, "name": "8458ca946dbc081b386d9e0a2aa0f316", "lat": 38.94818133333333, "is_disabled": 0, "is_reserved": 0, "lon": -77.02945983333333, "type": "electric_bike", "fusion_lat": 0.0, "rental_uris": {"android": "https://dc.lft.to/lastmile_qr_scan", "ios": "https://dc.lft.to/lastmile_qr_scan"}}, {"bike_id": "2ed1806201306cdc59296294c96ebe6d", "fusion_lon": 0.0, "name": "2ed1806201306cdc59296294c96ebe6d", "lat": 38.923269, "is_disabled": 0, "is_reserved": 0, "lon": -77.01958833333333, "type": "electric_scooter", "fusion_lat": 0.0, "rental_uris": {"android": "https://dc.lft.to/lastmile_qr_scan", "ios": "https://dc.lft.to/lastmile_qr_scan"}}, {"bike_id": "1209cec473b9e78be2587d76ac01be7d", "fusion_lon": 0.0, "name": "1209cec473b9e78be2587d76ac01be7d", "lat": 38.93248033333333, "is_disabled": 0, "is_reserved": 0, "lon": -76.99587566666666, "type": "electric_scooter", "fusion_lat": 0.0, "rental_uris": {"android": "https://dc.lft.to/lastmile_qr_scan", "ios": "https://dc.lft.to/lastmile_qr_scan"}}, {"bike_id": "12e16312d7778e9c5285a783e45610ec", "fusion_lon": 0.0, "name": "12e16312d7778e9c5285a783e45610ec", "lat": 38.911233, "is_disabled": 0, "is_reserved": 0, "lon": -77.03313133333333, "type": "electric_scooter", "fusion_lat": 0.0, "rental_uris": {"android": "https://dc.lft.to/lastmile_qr_scan", "ios": "https://dc.lft.to/lastmile_qr_scan"}}, {"bike_id": "64cc02bd0d68e0347067bbc6da9c7b74", "fusion_lon": 0.0, "name": "64cc02bd0d68e0347067bbc6da9c7b74", "lat": 38.89844466666667, "is_disabled": 0, "is_reserved": 0, "lon": -77.01887966666666, "type": "electric_scooter", "fusion_lat": 0.0, "rental_uris": {"android": "https://dc.lft.to/lastmile_qr_scan", "ios": "https://dc.lft.to/lastmile_qr_scan"}}, {"bike_id": "848a77c64084a566395c245ad75ef985", "fusion_lon": 0.0, "name": "848a77c64084a566395c245ad75ef985", "lat": 38.914138333333334, "is_disabled": 0, "is_reserved": 0, "lon": -77.02231183333333, "type": "electric_scooter", "fusion_lat": 0.0, "rental_uris": {"android": "https://dc.lft.to/lastmile_qr_scan", "ios": "https://dc.lft.to/lastmile_qr_scan"}}, {"bike_id": "673270f490c0a37f19768bbd1f777897", "fusion_lon": 0.0, "name": "673270f490c0a37f19768bbd1f777897", "lat": 39.0029095, "is_disabled": 0, "is_reserved": 0, "lon": -76.90301366666667, "type": "electric_bike", "fusion_lat": 0.0, "rental_uris": {"android": "https://dc.lft.to/lastmile_qr_scan", "ios": "https://dc.lft.to/lastmile_qr_scan"}}, {"bike_id": "0d6e9355c00aeb84bb620478dd659501", "fusion_lon": 0.0, "name": "0d6e9355c00aeb84bb620478dd659501", "lat": 38.928666166666666, "is_disabled": 0, "is_reserved": 0, "lon": -77.03283883333333, "type": "electric_scooter", "fusion_lat": 0.0, "rental_uris": {"android": "https://dc.lft.to/lastmile_qr_scan", "ios": "https://dc.lft.to/lastmile_qr_scan"}}, {"bike_id": "512f564f59960fe3decfa399e477fa63", "fusion_lon": 0.0, "name": "512f564f59960fe3decfa399e477fa63", "lat": 38.902258333333336, "is_disabled": 0, "is_reserved": 0, "lon": -77.0223575, "type": "electric_scooter", "fusion_lat": 0.0, "rental_uris": {"android": "https://dc.lft.to/lastmile_qr_scan", "ios": "https://dc.lft.to/lastmile_qr_scan"}}, {"bike_id": "006ccf8bae640066ae512650c0c44686", "fusion_lon": 0.0, "name": "006ccf8bae640066ae512650c0c44686", "lat": 38.935044, "is_disabled": 0, "is_reserved": 0, "lon": -77.05832783333334, "type": "electric_scooter", "fusion_lat": 0.0, "rental_uris": {"android": "https://dc.lft.to/lastmile_qr_scan", "ios": "https://dc.lft.to/lastmile_qr_scan"}}, {"bike_id": "d8abb88674af8ca6d120400d544b14b7", "fusion_lon": 0.0, "name": "d8abb88674af8ca6d120400d544b14b7", "lat": 38.898394833333334, "is_disabled": 0, "is_reserved": 0, "lon": -77.0127285, "type": "electric_scooter", "fusion_lat": 0.0, "rental_uris": {"android": "https://dc.lft.to/lastmile_qr_scan", "ios": "https://dc.lft.to/lastmile_qr_scan"}}, {"bike_id": "a1334340f2917fc7f814d8966fea1c7a", "fusion_lon": 0.0, "name": "a1334340f2917fc7f814d8966fea1c7a", "lat": 38.8750075, "is_disabled": 0, "is_reserved": 0, "lon": -77.00150916666666, "type": "electric_scooter", "fusion_lat": 0.0, "rental_uris": {"android": "https://dc.lft.to/lastmile_qr_scan", "ios": "https://dc.lft.to/lastmile_qr_scan"}}, {"bike_id": "12d8029f12723ba8738bcef5c18e1130", "fusion_lon": 0.0, "name": "12d8029f12723ba8738bcef5c18e1130", "lat": 38.89603116666667, "is_disabled": 0, "is_reserved": 0, "lon": -77.0543595, "type": "electric_scooter", "fusion_lat": 0.0, "rental_uris": {"android": "https://dc.lft.to/lastmile_qr_scan", "ios": "https://dc.lft.to/lastmile_qr_scan"}}, {"bike_id": "0aa7aad55c0bdf7840b6ed38aa533871", "fusion_lon": 0.0, "name": "0aa7aad55c0bdf7840b6ed38aa533871", "lat": 38.892232, "is_disabled": 0, "is_reserved": 0, "lon": -77.03378533333333, "type": "electric_scooter", "fusion_lat": 0.0, "rental_uris": {"android": "https://dc.lft.to/lastmile_qr_scan", "ios": "https://dc.lft.to/lastmile_qr_scan"}}, {"bike_id": "77813a68423d348eb4ff4f6250f54530", "fusion_lon": 0.0, "name": "77813a68423d348eb4ff4f6250f54530", "lat": 38.89224166666666, "is_disabled": 0, "is_reserved": 0, "lon": -77.04773516666667, "type": "electric_scooter", "fusion_lat": 0.0, "rental_uris": {"android": "https://dc.lft.to/lastmile_qr_scan", "ios": "https://dc.lft.to/lastmile_qr_scan"}}, {"bike_id": "efcbac0251891e1120e869657831cfc5", "fusion_lon": 0.0, "name": "efcbac0251891e1120e869657831cfc5", "lat": 38.8994485, "is_disabled": 0, "is_reserved": 0, "lon": -77.04165333333333, "type": "electric_scooter", "fusion_lat": 0.0, "rental_uris": {"android": "https://dc.lft.to/lastmile_qr_scan", "ios": "https://dc.lft.to/lastmile_qr_scan"}}, {"bike_id": "5900eae962bf3f050f22284c924bc67c", "fusion_lon": 0.0, "name": "5900eae962bf3f050f22284c924bc67c", "lat": 38.923226, "is_disabled": 0, "is_reserved": 0, "lon": -77.0419855, "type": "electric_scooter", "fusion_lat": 0.0, "rental_uris": {"android": "https://dc.lft.to/lastmile_qr_scan", "ios": "https://dc.lft.to/lastmile_qr_scan"}}, {"bike_id": "2f03672b5060df9505e2f27f35af2cea", "fusion_lon": 0.0, "name": "2f03672b5060df9505e2f27f35af2cea", "lat": 38.865559166666664, "is_disabled": 0, "is_reserved": 0, "lon": -76.983534, "type": "electric_scooter", "fusion_lat": 0.0, "rental_uris": {"android": "https://dc.lft.to/lastmile_qr_scan", "ios": "https://dc.lft.to/lastmile_qr_scan"}}, {"bike_id": "928ea8b9b55682a6a89fabff8c6aa2f7", "fusion_lon": 0.0, "name": "928ea8b9b55682a6a89fabff8c6aa2f7", "lat": 38.88257316666667, "is_disabled": 0, "is_reserved": 0, "lon": -76.99487533333334, "type": "electric_scooter", "fusion_lat": 0.0, "rental_uris": {"android": "https://dc.lft.to/lastmile_qr_scan", "ios": "https://dc.lft.to/lastmile_qr_scan"}}, {"bike_id": "3a825df91f4d67f1bee98786aed5bc71", "fusion_lon": 0.0, "name": "3a825df91f4d67f1bee98786aed5bc71", "lat": 38.9202635, "is_disabled": 0, "is_reserved": 0, "lon": -77.0129045, "type": "electric_scooter", "fusion_lat": 0.0, "rental_uris": {"android": "https://dc.lft.to/lastmile_qr_scan", "ios": "https://dc.lft.to/lastmile_qr_scan"}}, {"bike_id": "7f31ad125de4319ad07ec8bac4ca5c2c", "fusion_lon": 0.0, "name": "7f31ad125de4319ad07ec8bac4ca5c2c", "lat": 38.907359666666665, "is_disabled": 0, "is_reserved": 0, "lon": -77.04335183333333, "type": "electric_scooter", "fusion_lat": 0.0, "rental_uris": {"android": "https://dc.lft.to/lastmile_qr_scan", "ios": "https://dc.lft.to/lastmile_qr_scan"}}, {"bike_id": "ed598a93584f58f8971155114179d6b5", "fusion_lon": 0.0, "name": "ed598a93584f58f8971155114179d6b5", "lat": 38.87722, "is_disabled": 0, "is_reserved": 0, "lon": -77.00722233333333, "type": "electric_scooter", "fusion_lat": 0.0, "rental_uris": {"android": "https://dc.lft.to/lastmile_qr_scan", "ios": "https://dc.lft.to/lastmile_qr_scan"}}, {"bike_id": "5ca9db4a9c4054043beed8e227cf990d", "fusion_lon": 0.0, "name": "5ca9db4a9c4054043beed8e227cf990d", "lat": 38.87134566666667, "is_disabled": 0, "is_reserved": 0, "lon": -77.10028333333334, "type": "electric_bike", "fusion_lat": 0.0, "rental_uris": {"android": "https://dc.lft.to/lastmile_qr_scan", "ios": "https://dc.lft.to/lastmile_qr_scan"}}, {"bike_id": "fa40bee6297b2705a566ab632342b75e", "fusion_lon": 0.0, "name": "fa40bee6297b2705a566ab632342b75e", "lat": 38.88705866666667, "is_disabled": 0, "is_reserved": 0, "lon": -77.00243833333333, "type": "electric_scooter", "fusion_lat": 0.0, "rental_uris": {"android": "https://dc.lft.to/lastmile_qr_scan", "ios": "https://dc.lft.to/lastmile_qr_scan"}}, {"bike_id": "fe480b543b2895cada0795e43de7ff0a", "fusion_lon": 0.0, "name": "fe480b543b2895cada0795e43de7ff0a", "lat": 38.82175766666667, "is_disabled": 0, "is_reserved": 0, "lon": -76.99514883333333, "type": "electric_bike", "fusion_lat": 0.0, "rental_uris": {"android": "https://dc.lft.to/lastmile_qr_scan", "ios": "https://dc.lft.to/lastmile_qr_scan"}}, {"bike_id": "3626f9cc0782efa460822bcf262e907d", "fusion_lon": 0.0, "name": "3626f9cc0782efa460822bcf262e907d", "lat": 38.89924333333333, "is_disabled": 0, "is_reserved": 0, "lon": -77.03309633333333, "type": "electric_scooter", "fusion_lat": 0.0, "rental_uris": {"android": "https://dc.lft.to/lastmile_qr_scan", "ios": "https://dc.lft.to/lastmile_qr_scan"}}, {"bike_id": "8f2776c77ba42dd0c2250537c8d251be", "fusion_lon": 0.0, "name": "8f2776c77ba42dd0c2250537c8d251be", "lat": 38.9073625, "is_disabled": 0, "is_reserved": 0, "lon": -77.04340283333333, "type": "electric_scooter", "fusion_lat": 0.0, "rental_uris": {"android": "https://dc.lft.to/lastmile_qr_scan", "ios": "https://dc.lft.to/lastmile_qr_scan"}}, {"bike_id": "a0052933d665ea6b6c02b8fbec6ccdd0", "fusion_lon": 0.0, "name": "a0052933d665ea6b6c02b8fbec6ccdd0", "lat": 38.9142125, "is_disabled": 0, "is_reserved": 0, "lon": -77.0692695, "type": "electric_bike", "fusion_lat": 0.0, "rental_uris": {"android": "https://dc.lft.to/lastmile_qr_scan", "ios": "https://dc.lft.to/lastmile_qr_scan"}}, {"bike_id": "7d7f4591659908116c12ac0bff5f92e8", "fusion_lon": 0.0, "name": "7d7f4591659908116c12ac0bff5f92e8", "lat": 38.93455566666667, "is_disabled": 0, "is_reserved": 0, "lon": -77.03637483333333, "type": "electric_scooter", "fusion_lat": 0.0, "rental_uris": {"android": "https://dc.lft.to/lastmile_qr_scan", "ios": "https://dc.lft.to/lastmile_qr_scan"}}, {"bike_id": "07641fc34130c97370d35b8d7af60a62", "fusion_lon": 0.0, "name": "07641fc34130c97370d35b8d7af60a62", "lat": 38.85245783333333, "is_disabled": 0, "is_reserved": 0, "lon": -77.107919, "type": "electric_bike", "fusion_lat": 0.0, "rental_uris": {"android": "https://dc.lft.to/lastmile_qr_scan", "ios": "https://dc.lft.to/lastmile_qr_scan"}}, {"bike_id": "839b78d2785d272ae4a291a16ddb42c7", "fusion_lon": 0.0, "name": "839b78d2785d272ae4a291a16ddb42c7", "lat": 38.87951183333333, "is_disabled": 0, "is_reserved": 0, "lon": -76.99016616666667, "type": "electric_scooter", "fusion_lat": 0.0, "rental_uris": {"android": "https://dc.lft.to/lastmile_qr_scan", "ios": "https://dc.lft.to/lastmile_qr_scan"}}, {"bike_id": "d7d7400d7ddc6d2b023e79b4d8fddee7", "fusion_lon": 0.0, "name": "d7d7400d7ddc6d2b023e79b4d8fddee7", "lat": 38.92456816666667, "is_disabled": 0, "is_reserved": 0, "lon": -76.983642, "type": "electric_scooter", "fusion_lat": 0.0, "rental_uris": {"android": "https://dc.lft.to/lastmile_qr_scan", "ios": "https://dc.lft.to/lastmile_qr_scan"}}, {"bike_id": "0cbdd6100948bfea4c4227554238bba5", "fusion_lon": 0.0, "name": "0cbdd6100948bfea4c4227554238bba5", "lat": 38.804476, "is_disabled": 0, "is_reserved": 0, "lon": -77.05385783333334, "type": "electric_bike", "fusion_lat": 0.0, "rental_uris": {"android": "https://dc.lft.to/lastmile_qr_scan", "ios": "https://dc.lft.to/lastmile_qr_scan"}}, {"bike_id": "e74a562e8a0e6c2dd8d99b13a2ceaeef", "fusion_lon": 0.0, "name": "e74a562e8a0e6c2dd8d99b13a2ceaeef", "lat": 38.9029995, "is_disabled": 0, "is_reserved": 0, "lon": -77.0432855, "type": "electric_scooter", "fusion_lat": 0.0, "rental_uris": {"android": "https://dc.lft.to/lastmile_qr_scan", "ios": "https://dc.lft.to/lastmile_qr_scan"}}, {"bike_id": "643f12b5cbedcc45f1078b18ade7351c", "fusion_lon": 0.0, "name": "643f12b5cbedcc45f1078b18ade7351c", "lat": 38.9231975, "is_disabled": 0, "is_reserved": 0, "lon": -77.03922816666666, "type": "electric_scooter", "fusion_lat": 0.0, "rental_uris": {"android": "https://dc.lft.to/lastmile_qr_scan", "ios": "https://dc.lft.to/lastmile_qr_scan"}}, {"bike_id": "3e7ecb274acc660ea9fd89f95dd4dbd0", "fusion_lon": 0.0, "name": "3e7ecb274acc660ea9fd89f95dd4dbd0", "lat": 38.914750833333336, "is_disabled": 0, "is_reserved": 0, "lon": -77.04552916666667, "type": "electric_scooter", "fusion_lat": 0.0, "rental_uris": {"android": "https://dc.lft.to/lastmile_qr_scan", "ios": "https://dc.lft.to/lastmile_qr_scan"}}, {"bike_id": "92bb40667aa1c0cf2cfc58fa51643770", "fusion_lon": 0.0, "name": "92bb40667aa1c0cf2cfc58fa51643770", "lat": 38.924214666666664, "is_disabled": 0, "is_reserved": 0, "lon": -77.02013, "type": "electric_scooter", "fusion_lat": 0.0, "rental_uris": {"android": "https://dc.lft.to/lastmile_qr_scan", "ios": "https://dc.lft.to/lastmile_qr_scan"}}, {"bike_id": "faca34ab00985d54352a04844966b2a1", "fusion_lon": 0.0, "name": "faca34ab00985d54352a04844966b2a1", "lat": 38.88327616666667, "is_disabled": 0, "is_reserved": 0, "lon": -77.01771083333334, "type": "electric_scooter", "fusion_lat": 0.0, "rental_uris": {"android": "https://dc.lft.to/lastmile_qr_scan", "ios": "https://dc.lft.to/lastmile_qr_scan"}}, {"bike_id": "7fc8845af619d2014434926923a0146f", "fusion_lon": 0.0, "name": "7fc8845af619d2014434926923a0146f", "lat": 38.9072365, "is_disabled": 0, "is_reserved": 0, "lon": -77.03438083333333, "type": "electric_scooter", "fusion_lat": 0.0, "rental_uris": {"android": "https://dc.lft.to/lastmile_qr_scan", "ios": "https://dc.lft.to/lastmile_qr_scan"}}, {"bike_id": "f4386a6c20626697c0c90da91cfd15e1", "fusion_lon": 0.0, "name": "f4386a6c20626697c0c90da91cfd15e1", "lat": 38.876787666666665, "is_disabled": 0, "is_reserved": 0, "lon": -77.01790266666667, "type": "electric_scooter", "fusion_lat": 0.0, "rental_uris": {"android": "https://dc.lft.to/lastmile_qr_scan", "ios": "https://dc.lft.to/lastmile_qr_scan"}}, {"bike_id": "20e3693d9af979d013d354d775972b7b", "fusion_lon": 0.0, "name": "20e3693d9af979d013d354d775972b7b", "lat": 38.90379933333333, "is_disabled": 0, "is_reserved": 0, "lon": -77.03830166666667, "type": "electric_scooter", "fusion_lat": 0.0, "rental_uris": {"android": "https://dc.lft.to/lastmile_qr_scan", "ios": "https://dc.lft.to/lastmile_qr_scan"}}, {"bike_id": "70da5ab1b7a81e12264445b6a03bd1ec", "fusion_lon": 0.0, "name": "70da5ab1b7a81e12264445b6a03bd1ec", "lat": 38.9260065, "is_disabled": 0, "is_reserved": 0, "lon": -77.02155066666667, "type": "electric_scooter", "fusion_lat": 0.0, "rental_uris": {"android": "https://dc.lft.to/lastmile_qr_scan", "ios": "https://dc.lft.to/lastmile_qr_scan"}}, {"bike_id": "b81cfd1729659d3338c70acb0ebcea1e", "fusion_lon": 0.0, "name": "b81cfd1729659d3338c70acb0ebcea1e", "lat": 38.892311666666664, "is_disabled": 0, "is_reserved": 0, "lon": -77.03356633333334, "type": "electric_scooter", "fusion_lat": 0.0, "rental_uris": {"android": "https://dc.lft.to/lastmile_qr_scan", "ios": "https://dc.lft.to/lastmile_qr_scan"}}, {"bike_id": "1ed29f6c734eb7251127170268782746", "fusion_lon": 0.0, "name": "1ed29f6c734eb7251127170268782746", "lat": 38.960798, "is_disabled": 0, "is_reserved": 0, "lon": -77.02894016666667, "type": "electric_scooter", "fusion_lat": 0.0, "rental_uris": {"android": "https://dc.lft.to/lastmile_qr_scan", "ios": "https://dc.lft.to/lastmile_qr_scan"}}, {"bike_id": "7ee308040b9f31e7c511aa81a5b24a21", "fusion_lon": 0.0, "name": "7ee308040b9f31e7c511aa81a5b24a21", "lat": 38.89861716666667, "is_disabled": 0, "is_reserved": 0, "lon": -76.94643383333333, "type": "electric_scooter", "fusion_lat": 0.0, "rental_uris": {"android": "https://dc.lft.to/lastmile_qr_scan", "ios": "https://dc.lft.to/lastmile_qr_scan"}}, {"bike_id": "c7350358fa80c04420ba1de7d213df22", "fusion_lon": 0.0, "name": "c7350358fa80c04420ba1de7d213df22", "lat": 38.899892, "is_disabled": 0, "is_reserved": 0, "lon": -77.00666233333334, "type": "electric_scooter", "fusion_lat": 0.0, "rental_uris": {"android": "https://dc.lft.to/lastmile_qr_scan", "ios": "https://dc.lft.to/lastmile_qr_scan"}}, {"bike_id": "ae263def4f67269770ac5a9f8305b06b", "fusion_lon": 0.0, "name": "ae263def4f67269770ac5a9f8305b06b", "lat": 38.911153166666665, "is_disabled": 0, "is_reserved": 0, "lon": -77.0446225, "type": "electric_scooter", "fusion_lat": 0.0, "rental_uris": {"android": "https://dc.lft.to/lastmile_qr_scan", "ios": "https://dc.lft.to/lastmile_qr_scan"}}, {"bike_id": "7d945a5b270fb4afa71592a86aa5c429", "fusion_lon": 0.0, "name": "7d945a5b270fb4afa71592a86aa5c429", "lat": 38.93457933333333, "is_disabled": 0, "is_reserved": 0, "lon": -77.04120016666667, "type": "electric_scooter", "fusion_lat": 0.0, "rental_uris": {"android": "https://dc.lft.to/lastmile_qr_scan", "ios": "https://dc.lft.to/lastmile_qr_scan"}}, {"bike_id": "692dde1b94c64647ec8d47a120addb27", "fusion_lon": 0.0, "name": "692dde1b94c64647ec8d47a120addb27", "lat": 38.9558935, "is_disabled": 0, "is_reserved": 0, "lon": -77.00635266666667, "type": "electric_scooter", "fusion_lat": 0.0, "rental_uris": {"android": "https://dc.lft.to/lastmile_qr_scan", "ios": "https://dc.lft.to/lastmile_qr_scan"}}, {"bike_id": "9905d1fbc8adbc9a1fdad5995c2d4cc5", "fusion_lon": 0.0, "name": "9905d1fbc8adbc9a1fdad5995c2d4cc5", "lat": 38.88484166666667, "is_disabled": 0, "is_reserved": 0, "lon": -77.00710283333333, "type": "electric_scooter", "fusion_lat": 0.0, "rental_uris": {"android": "https://dc.lft.to/lastmile_qr_scan", "ios": "https://dc.lft.to/lastmile_qr_scan"}}, {"bike_id": "03415a5a2ae13e42cada2f22fa4f1098", "fusion_lon": 0.0, "name": "03415a5a2ae13e42cada2f22fa4f1098", "lat": 38.8428075, "is_disabled": 0, "is_reserved": 0, "lon": -77.04498866666667, "type": "electric_bike", "fusion_lat": 0.0, "rental_uris": {"android": "https://dc.lft.to/lastmile_qr_scan", "ios": "https://dc.lft.to/lastmile_qr_scan"}}, {"bike_id": "19c0d5ef7191a0356d5ef7cb93fcc441", "fusion_lon": 0.0, "name": "19c0d5ef7191a0356d5ef7cb93fcc441", "lat": 38.928298166666664, "is_disabled": 0, "is_reserved": 0, "lon": -77.03277866666667, "type": "electric_scooter", "fusion_lat": 0.0, "rental_uris": {"android": "https://dc.lft.to/lastmile_qr_scan", "ios": "https://dc.lft.to/lastmile_qr_scan"}}, {"bike_id": "96e554d0e32bf894f029b156fe4d30fa", "fusion_lon": 0.0, "name": "96e554d0e32bf894f029b156fe4d30fa", "lat": 38.91085233333333, "is_disabled": 0, "is_reserved": 0, "lon": -77.03837116666666, "type": "electric_scooter", "fusion_lat": 0.0, "rental_uris": {"android": "https://dc.lft.to/lastmile_qr_scan", "ios": "https://dc.lft.to/lastmile_qr_scan"}}, {"bike_id": "d66a7561b835411b137b3f9a74270ac3", "fusion_lon": 0.0, "name": "d66a7561b835411b137b3f9a74270ac3", "lat": 38.903755333333336, "is_disabled": 0, "is_reserved": 0, "lon": -77.0164015, "type": "electric_scooter", "fusion_lat": 0.0, "rental_uris": {"android": "https://dc.lft.to/lastmile_qr_scan", "ios": "https://dc.lft.to/lastmile_qr_scan"}}, {"bike_id": "28163ceab087c1d26d1ffa3ecab2ded8", "fusion_lon": 0.0, "name": "28163ceab087c1d26d1ffa3ecab2ded8", "lat": 38.902247333333335, "is_disabled": 0, "is_reserved": 0, "lon": -77.0344565, "type": "electric_scooter", "fusion_lat": 0.0, "rental_uris": {"android": "https://dc.lft.to/lastmile_qr_scan", "ios": "https://dc.lft.to/lastmile_qr_scan"}}, {"bike_id": "a4873bfbae55f9e5cdf489af80bb4a15", "fusion_lon": 0.0, "name": "a4873bfbae55f9e5cdf489af80bb4a15", "lat": 38.92883966666667, "is_disabled": 0, "is_reserved": 0, "lon": -77.0337895, "type": "electric_scooter", "fusion_lat": 0.0, "rental_uris": {"android": "https://dc.lft.to/lastmile_qr_scan", "ios": "https://dc.lft.to/lastmile_qr_scan"}}, {"bike_id": "76fab2aa0f382bd3436a09a348b29441", "fusion_lon": 0.0, "name": "76fab2aa0f382bd3436a09a348b29441", "lat": 38.86681566666667, "is_disabled": 0, "is_reserved": 0, "lon": -76.985667, "type": "electric_scooter", "fusion_lat": 0.0, "rental_uris": {"android": "https://dc.lft.to/lastmile_qr_scan", "ios": "https://dc.lft.to/lastmile_qr_scan"}}, {"bike_id": "ab591f23a5632a90608d6bb91c3ad807", "fusion_lon": 0.0, "name": "ab591f23a5632a90608d6bb91c3ad807", "lat": 38.926697833333336, "is_disabled": 0, "is_reserved": 0, "lon": -77.01511833333333, "type": "electric_scooter", "fusion_lat": 0.0, "rental_uris": {"android": "https://dc.lft.to/lastmile_qr_scan", "ios": "https://dc.lft.to/lastmile_qr_scan"}}, {"bike_id": "beca7a7f67e391971b1e5d05c4f5fd2b", "fusion_lon": 0.0, "name": "beca7a7f67e391971b1e5d05c4f5fd2b", "lat": 38.86201066666667, "is_disabled": 0, "is_reserved": 0, "lon": -77.0598935, "type": "electric_bike", "fusion_lat": 0.0, "rental_uris": {"android": "https://dc.lft.to/lastmile_qr_scan", "ios": "https://dc.lft.to/lastmile_qr_scan"}}, {"bike_id": "45b9be57cf9999ac0f4437cf3f3ed6cd", "fusion_lon": 0.0, "name": "45b9be57cf9999ac0f4437cf3f3ed6cd", "lat": 38.907181333333334, "is_disabled": 0, "is_reserved": 0, "lon": -77.03438166666666, "type": "electric_scooter", "fusion_lat": 0.0, "rental_uris": {"android": "https://dc.lft.to/lastmile_qr_scan", "ios": "https://dc.lft.to/lastmile_qr_scan"}}, {"bike_id": "c9546d4b70f6aa41271d21d237a61672", "fusion_lon": 0.0, "name": "c9546d4b70f6aa41271d21d237a61672", "lat": 38.903713, "is_disabled": 0, "is_reserved": 0, "lon": -77.0320185, "type": "electric_scooter", "fusion_lat": 0.0, "rental_uris": {"android": "https://dc.lft.to/lastmile_qr_scan", "ios": "https://dc.lft.to/lastmile_qr_scan"}}, {"bike_id": "75a8ed24aa29b47f4a3ea699b3ed4e09", "fusion_lon": 0.0, "name": "75a8ed24aa29b47f4a3ea699b3ed4e09", "lat": 38.90566033333333, "is_disabled": 0, "is_reserved": 0, "lon": -77.02417583333333, "type": "electric_scooter", "fusion_lat": 0.0, "rental_uris": {"android": "https://dc.lft.to/lastmile_qr_scan", "ios": "https://dc.lft.to/lastmile_qr_scan"}}, {"bike_id": "5a59e53412a3f10353f633cc8a08f682", "fusion_lon": 0.0, "name": "5a59e53412a3f10353f633cc8a08f682", "lat": 38.9124845, "is_disabled": 0, "is_reserved": 0, "lon": -77.03209366666667, "type": "electric_scooter", "fusion_lat": 0.0, "rental_uris": {"android": "https://dc.lft.to/lastmile_qr_scan", "ios": "https://dc.lft.to/lastmile_qr_scan"}}, {"bike_id": "10f237d3bc68e1e24e44a3a1a0550f97", "fusion_lon": 0.0, "name": "10f237d3bc68e1e24e44a3a1a0550f97", "lat": 38.91115033333333, "is_disabled": 0, "is_reserved": 0, "lon": -77.04234566666666, "type": "electric_scooter", "fusion_lat": 0.0, "rental_uris": {"android": "https://dc.lft.to/lastmile_qr_scan", "ios": "https://dc.lft.to/lastmile_qr_scan"}}, {"bike_id": "8fc3ec7b100fedd3ccf060a2c3ec9245", "fusion_lon": 0.0, "name": "8fc3ec7b100fedd3ccf060a2c3ec9245", "lat": 38.886849, "is_disabled": 0, "is_reserved": 0, "lon": -76.97636016666667, "type": "electric_scooter", "fusion_lat": 0.0, "rental_uris": {"android": "https://dc.lft.to/lastmile_qr_scan", "ios": "https://dc.lft.to/lastmile_qr_scan"}}, {"bike_id": "776a429b3e8172c5b53b06222de6b31f", "fusion_lon": 0.0, "name": "776a429b3e8172c5b53b06222de6b31f", "lat": 38.92470316666667, "is_disabled": 0, "is_reserved": 0, "lon": -77.0220525, "type": "electric_scooter", "fusion_lat": 0.0, "rental_uris": {"android": "https://dc.lft.to/lastmile_qr_scan", "ios": "https://dc.lft.to/lastmile_qr_scan"}}, {"bike_id": "86dfa18e88b4066df8ca895c56fecae0", "fusion_lon": 0.0, "name": "86dfa18e88b4066df8ca895c56fecae0", "lat": 38.85768983333333, "is_disabled": 0, "is_reserved": 0, "lon": -76.987706, "type": "electric_bike", "fusion_lat": 0.0, "rental_uris": {"android": "https://dc.lft.to/lastmile_qr_scan", "ios": "https://dc.lft.to/lastmile_qr_scan"}}, {"bike_id": "383ad2f661cdae7d32bf9a0ff7a907f2", "fusion_lon": 0.0, "name": "383ad2f661cdae7d32bf9a0ff7a907f2", "lat": 38.907243, "is_disabled": 0, "is_reserved": 0, "lon": -77.02981516666667, "type": "electric_scooter", "fusion_lat": 0.0, "rental_uris": {"android": "https://dc.lft.to/lastmile_qr_scan", "ios": "https://dc.lft.to/lastmile_qr_scan"}}, {"bike_id": "8cff41ce37634fc86687629a1c77c081", "fusion_lon": 0.0, "name": "8cff41ce37634fc86687629a1c77c081", "lat": 38.91229416666667, "is_disabled": 0, "is_reserved": 0, "lon": -77.048712, "type": "electric_scooter", "fusion_lat": 0.0, "rental_uris": {"android": "https://dc.lft.to/lastmile_qr_scan", "ios": "https://dc.lft.to/lastmile_qr_scan"}}, {"bike_id": "264420e9cd998459dbba93dc1e1ee3b1", "fusion_lon": 0.0, "name": "264420e9cd998459dbba93dc1e1ee3b1", "lat": 38.89723433333333, "is_disabled": 0, "is_reserved": 0, "lon": -77.03965466666666, "type": "electric_scooter", "fusion_lat": 0.0, "rental_uris": {"android": "https://dc.lft.to/lastmile_qr_scan", "ios": "https://dc.lft.to/lastmile_qr_scan"}}, {"bike_id": "bb3d4680f712281083629b7de9dfb67b", "fusion_lon": 0.0, "name": "bb3d4680f712281083629b7de9dfb67b", "lat": 38.92488316666667, "is_disabled": 0, "is_reserved": 0, "lon": -77.02140283333334, "type": "electric_scooter", "fusion_lat": 0.0, "rental_uris": {"android": "https://dc.lft.to/lastmile_qr_scan", "ios": "https://dc.lft.to/lastmile_qr_scan"}}, {"bike_id": "860e47b62465a86db9a55708a0d8addb", "fusion_lon": 0.0, "name": "860e47b62465a86db9a55708a0d8addb", "lat": 38.887157, "is_disabled": 0, "is_reserved": 0, "lon": -76.99681433333333, "type": "electric_scooter", "fusion_lat": 0.0, "rental_uris": {"android": "https://dc.lft.to/lastmile_qr_scan", "ios": "https://dc.lft.to/lastmile_qr_scan"}}, {"bike_id": "5d50b8fe861584dbf0ee912fd2e51aec", "fusion_lon": 0.0, "name": "5d50b8fe861584dbf0ee912fd2e51aec", "lat": 38.883957333333335, "is_disabled": 0, "is_reserved": 0, "lon": -76.98614916666666, "type": "electric_scooter", "fusion_lat": 0.0, "rental_uris": {"android": "https://dc.lft.to/lastmile_qr_scan", "ios": "https://dc.lft.to/lastmile_qr_scan"}}, {"bike_id": "1f5155a97e4597bce7adbb37f1dadb67", "fusion_lon": 0.0, "name": "1f5155a97e4597bce7adbb37f1dadb67", "lat": 38.89222616666667, "is_disabled": 0, "is_reserved": 0, "lon": -77.0313995, "type": "electric_scooter", "fusion_lat": 0.0, "rental_uris": {"android": "https://dc.lft.to/lastmile_qr_scan", "ios": "https://dc.lft.to/lastmile_qr_scan"}}, {"bike_id": "3880ed146ca3502aa1967713d31b30ee", "fusion_lon": 0.0, "name": "3880ed146ca3502aa1967713d31b30ee", "lat": 38.918503, "is_disabled": 0, "is_reserved": 0, "lon": -77.02595183333334, "type": "electric_scooter", "fusion_lat": 0.0, "rental_uris": {"android": "https://dc.lft.to/lastmile_qr_scan", "ios": "https://dc.lft.to/lastmile_qr_scan"}}, {"bike_id": "0432eb2f5612fb5331239539fca78108", "fusion_lon": 0.0, "name": "0432eb2f5612fb5331239539fca78108", "lat": 38.924398333333336, "is_disabled": 0, "is_reserved": 0, "lon": -77.03407083333333, "type": "electric_scooter", "fusion_lat": 0.0, "rental_uris": {"android": "https://dc.lft.to/lastmile_qr_scan", "ios": "https://dc.lft.to/lastmile_qr_scan"}}, {"bike_id": "63e82557f600d349421a7448ba71983a", "fusion_lon": 0.0, "name": "63e82557f600d349421a7448ba71983a", "lat": 38.79697566666667, "is_disabled": 0, "is_reserved": 0, "lon": -77.00371183333333, "type": "electric_bike", "fusion_lat": 0.0, "rental_uris": {"android": "https://dc.lft.to/lastmile_qr_scan", "ios": "https://dc.lft.to/lastmile_qr_scan"}}, {"bike_id": "6ff0d6398e3fefea7478a49ef4c9d2c7", "fusion_lon": 0.0, "name": "6ff0d6398e3fefea7478a49ef4c9d2c7", "lat": 38.899438333333336, "is_disabled": 0, "is_reserved": 0, "lon": -76.98161033333334, "type": "electric_scooter", "fusion_lat": 0.0, "rental_uris": {"android": "https://dc.lft.to/lastmile_qr_scan", "ios": "https://dc.lft.to/lastmile_qr_scan"}}, {"bike_id": "94a7750a3cf649f5750d55cf044f10ef", "fusion_lon": 0.0, "name": "94a7750a3cf649f5750d55cf044f10ef", "lat": 38.92187, "is_disabled": 0, "is_reserved": 0, "lon": -77.0183675, "type": "electric_scooter", "fusion_lat": 0.0, "rental_uris": {"android": "https://dc.lft.to/lastmile_qr_scan", "ios": "https://dc.lft.to/lastmile_qr_scan"}}, {"bike_id": "0562e3f2e6edc88a71a1e88aa32b1c63", "fusion_lon": 0.0, "name": "0562e3f2e6edc88a71a1e88aa32b1c63", "lat": 38.892188833333336, "is_disabled": 0, "is_reserved": 0, "lon": -77.03145166666667, "type": "electric_scooter", "fusion_lat": 0.0, "rental_uris": {"android": "https://dc.lft.to/lastmile_qr_scan", "ios": "https://dc.lft.to/lastmile_qr_scan"}}, {"bike_id": "bc712bf2ec71a35b09e69e51694da243", "fusion_lon": 0.0, "name": "bc712bf2ec71a35b09e69e51694da243", "lat": 38.92421916666667, "is_disabled": 0, "is_reserved": 0, "lon": -77.0195405, "type": "electric_scooter", "fusion_lat": 0.0, "rental_uris": {"android": "https://dc.lft.to/lastmile_qr_scan", "ios": "https://dc.lft.to/lastmile_qr_scan"}}, {"bike_id": "0ac596805e8c4bee5e1d13aecc768e81", "fusion_lon": 0.0, "name": "0ac596805e8c4bee5e1d13aecc768e81", "lat": 38.91116483333333, "is_disabled": 0, "is_reserved": 0, "lon": -77.03835766666667, "type": "electric_scooter", "fusion_lat": 0.0, "rental_uris": {"android": "https://dc.lft.to/lastmile_qr_scan", "ios": "https://dc.lft.to/lastmile_qr_scan"}}, {"bike_id": "a97117f2b1657457bd8d5157b5f7397b", "fusion_lon": 0.0, "name": "a97117f2b1657457bd8d5157b5f7397b", "lat": 38.865508, "is_disabled": 0, "is_reserved": 0, "lon": -76.97859266666667, "type": "electric_scooter", "fusion_lat": 0.0, "rental_uris": {"android": "https://dc.lft.to/lastmile_qr_scan", "ios": "https://dc.lft.to/lastmile_qr_scan"}}, {"bike_id": "9590901f847d50f4819c5247c7878993", "fusion_lon": 0.0, "name": "9590901f847d50f4819c5247c7878993", "lat": 38.92032433333333, "is_disabled": 0, "is_reserved": 0, "lon": -77.02587133333333, "type": "electric_scooter", "fusion_lat": 0.0, "rental_uris": {"android": "https://dc.lft.to/lastmile_qr_scan", "ios": "https://dc.lft.to/lastmile_qr_scan"}}, {"bike_id": "dd6c120f55b79a617ed99f69df08ce85", "fusion_lon": 0.0, "name": "dd6c120f55b79a617ed99f69df08ce85", "lat": 38.92454216666667, "is_disabled": 0, "is_reserved": 0, "lon": -77.05239316666666, "type": "electric_scooter", "fusion_lat": 0.0, "rental_uris": {"android": "https://dc.lft.to/lastmile_qr_scan", "ios": "https://dc.lft.to/lastmile_qr_scan"}}, {"bike_id": "639852f86779407ba05a8d5c732eb54d", "fusion_lon": 0.0, "name": "639852f86779407ba05a8d5c732eb54d", "lat": 38.91357566666667, "is_disabled": 0, "is_reserved": 0, "lon": -77.04487216666666, "type": "electric_scooter", "fusion_lat": 0.0, "rental_uris": {"android": "https://dc.lft.to/lastmile_qr_scan", "ios": "https://dc.lft.to/lastmile_qr_scan"}}, {"bike_id": "e77a976f251e681788e16a01b2248505", "fusion_lon": 0.0, "name": "e77a976f251e681788e16a01b2248505", "lat": 38.922234333333336, "is_disabled": 0, "is_reserved": 0, "lon": -77.0464505, "type": "electric_scooter", "fusion_lat": 0.0, "rental_uris": {"android": "https://dc.lft.to/lastmile_qr_scan", "ios": "https://dc.lft.to/lastmile_qr_scan"}}, {"bike_id": "fd0e0cf0a6527165caf96eb3596e95c8", "fusion_lon": 0.0, "name": "fd0e0cf0a6527165caf96eb3596e95c8", "lat": 38.90323133333333, "is_disabled": 0, "is_reserved": 0, "lon": -77.05012233333333, "type": "electric_scooter", "fusion_lat": 0.0, "rental_uris": {"android": "https://dc.lft.to/lastmile_qr_scan", "ios": "https://dc.lft.to/lastmile_qr_scan"}}, {"bike_id": "1ea9331f08be29f67580dfcee71225f5", "fusion_lon": 0.0, "name": "1ea9331f08be29f67580dfcee71225f5", "lat": 38.981119166666666, "is_disabled": 0, "is_reserved": 0, "lon": -77.0266735, "type": "electric_scooter", "fusion_lat": 0.0, "rental_uris": {"android": "https://dc.lft.to/lastmile_qr_scan", "ios": "https://dc.lft.to/lastmile_qr_scan"}}, {"bike_id": "5beb0e9bca20877382b5e9b314276fd0", "fusion_lon": 0.0, "name": "5beb0e9bca20877382b5e9b314276fd0", "lat": 38.91402816666667, "is_disabled": 0, "is_reserved": 0, "lon": -77.03264, "type": "electric_scooter", "fusion_lat": 0.0, "rental_uris": {"android": "https://dc.lft.to/lastmile_qr_scan", "ios": "https://dc.lft.to/lastmile_qr_scan"}}, {"bike_id": "92f4ab5df46c2fd9e810d213e179e4b9", "fusion_lon": 0.0, "name": "92f4ab5df46c2fd9e810d213e179e4b9", "lat": 38.89098766666667, "is_disabled": 0, "is_reserved": 0, "lon": -76.9348275, "type": "electric_bike", "fusion_lat": 0.0, "rental_uris": {"android": "https://dc.lft.to/lastmile_qr_scan", "ios": "https://dc.lft.to/lastmile_qr_scan"}}, {"bike_id": "0fdb7994397d4c331114b673e834e089", "fusion_lon": 0.0, "name": "0fdb7994397d4c331114b673e834e089", "lat": 38.89219416666667, "is_disabled": 0, "is_reserved": 0, "lon": -77.02223233333333, "type": "electric_scooter", "fusion_lat": 0.0, "rental_uris": {"android": "https://dc.lft.to/lastmile_qr_scan", "ios": "https://dc.lft.to/lastmile_qr_scan"}}, {"bike_id": "da6838b65485b5d034835ad931159e51", "fusion_lon": 0.0, "name": "da6838b65485b5d034835ad931159e51", "lat": 38.889020333333335, "is_disabled": 0, "is_reserved": 0, "lon": -76.992055, "type": "electric_scooter", "fusion_lat": 0.0, "rental_uris": {"android": "https://dc.lft.to/lastmile_qr_scan", "ios": "https://dc.lft.to/lastmile_qr_scan"}}, {"bike_id": "cc431dab2aebb1f865f11f5056459f3c", "fusion_lon": 0.0, "name": "cc431dab2aebb1f865f11f5056459f3c", "lat": 38.883616333333336, "is_disabled": 0, "is_reserved": 0, "lon": -76.99486833333333, "type": "electric_scooter", "fusion_lat": 0.0, "rental_uris": {"android": "https://dc.lft.to/lastmile_qr_scan", "ios": "https://dc.lft.to/lastmile_qr_scan"}}, {"bike_id": "b3f8c21ff2601e5d2a6a1818dda3b5d1", "fusion_lon": 0.0, "name": "b3f8c21ff2601e5d2a6a1818dda3b5d1", "lat": 38.92478366666667, "is_disabled": 0, "is_reserved": 0, "lon": -77.05207833333333, "type": "electric_scooter", "fusion_lat": 0.0, "rental_uris": {"android": "https://dc.lft.to/lastmile_qr_scan", "ios": "https://dc.lft.to/lastmile_qr_scan"}}, {"bike_id": "99b14a6c868515b86f0276bc83389a25", "fusion_lon": 0.0, "name": "99b14a6c868515b86f0276bc83389a25", "lat": 38.87683916666667, "is_disabled": 0, "is_reserved": 0, "lon": -76.99432316666666, "type": "electric_scooter", "fusion_lat": 0.0, "rental_uris": {"android": "https://dc.lft.to/lastmile_qr_scan", "ios": "https://dc.lft.to/lastmile_qr_scan"}}, {"bike_id": "9358cc0c314e9d70f9e465278f555877", "fusion_lon": 0.0, "name": "9358cc0c314e9d70f9e465278f555877", "lat": 38.927366666666664, "is_disabled": 0, "is_reserved": 0, "lon": -77.0227785, "type": "electric_scooter", "fusion_lat": 0.0, "rental_uris": {"android": "https://dc.lft.to/lastmile_qr_scan", "ios": "https://dc.lft.to/lastmile_qr_scan"}}, {"bike_id": "fbc46e09477396efa07c10a2d9c7dbae", "fusion_lon": 0.0, "name": "fbc46e09477396efa07c10a2d9c7dbae", "lat": 38.894251833333335, "is_disabled": 0, "is_reserved": 0, "lon": -77.00103816666666, "type": "electric_scooter", "fusion_lat": 0.0, "rental_uris": {"android": "https://dc.lft.to/lastmile_qr_scan", "ios": "https://dc.lft.to/lastmile_qr_scan"}}, {"bike_id": "46515deff45779bfc5ec59cf375557d2", "fusion_lon": 0.0, "name": "46515deff45779bfc5ec59cf375557d2", "lat": 38.894828, "is_disabled": 0, "is_reserved": 0, "lon": -77.00970383333333, "type": "electric_scooter", "fusion_lat": 0.0, "rental_uris": {"android": "https://dc.lft.to/lastmile_qr_scan", "ios": "https://dc.lft.to/lastmile_qr_scan"}}, {"bike_id": "f25c5e875fc6156afe11a694f48c9fee", "fusion_lon": 0.0, "name": "f25c5e875fc6156afe11a694f48c9fee", "lat": 38.819387, "is_disabled": 0, "is_reserved": 0, "lon": -77.00205883333334, "type": "electric_bike", "fusion_lat": 0.0, "rental_uris": {"android": "https://dc.lft.to/lastmile_qr_scan", "ios": "https://dc.lft.to/lastmile_qr_scan"}}, {"bike_id": "e78d74b2820be365abc3fbe4cf490334", "fusion_lon": 0.0, "name": "e78d74b2820be365abc3fbe4cf490334", "lat": 38.89223633333334, "is_disabled": 0, "is_reserved": 0, "lon": -77.03132416666666, "type": "electric_scooter", "fusion_lat": 0.0, "rental_uris": {"android": "https://dc.lft.to/lastmile_qr_scan", "ios": "https://dc.lft.to/lastmile_qr_scan"}}, {"bike_id": "cb3f1274232fc4ce3c5e5bb690db2022", "fusion_lon": 0.0, "name": "cb3f1274232fc4ce3c5e5bb690db2022", "lat": 38.893528333333336, "is_disabled": 0, "is_reserved": 0, "lon": -77.1874405, "type": "electric_bike", "fusion_lat": 0.0, "rental_uris": {"android": "https://dc.lft.to/lastmile_qr_scan", "ios": "https://dc.lft.to/lastmile_qr_scan"}}, {"bike_id": "e1bcca2218a60be10ee4f546263d4d1c", "fusion_lon": 0.0, "name": "e1bcca2218a60be10ee4f546263d4d1c", "lat": 38.91400933333333, "is_disabled": 0, "is_reserved": 0, "lon": -77.02422983333334, "type": "electric_scooter", "fusion_lat": 0.0, "rental_uris": {"android": "https://dc.lft.to/lastmile_qr_scan", "ios": "https://dc.lft.to/lastmile_qr_scan"}}, {"bike_id": "8dbd44d40bafd80268ad92a4208c7f84", "fusion_lon": 0.0, "name": "8dbd44d40bafd80268ad92a4208c7f84", "lat": 38.904922666666664, "is_disabled": 0, "is_reserved": 0, "lon": -76.9758155, "type": "electric_bike", "fusion_lat": 0.0, "rental_uris": {"android": "https://dc.lft.to/lastmile_qr_scan", "ios": "https://dc.lft.to/lastmile_qr_scan"}}, {"bike_id": "30d7d81f1681c5613e105770a95db7d3", "fusion_lon": 0.0, "name": "30d7d81f1681c5613e105770a95db7d3", "lat": 38.91119466666667, "is_disabled": 0, "is_reserved": 0, "lon": -77.041634, "type": "electric_scooter", "fusion_lat": 0.0, "rental_uris": {"android": "https://dc.lft.to/lastmile_qr_scan", "ios": "https://dc.lft.to/lastmile_qr_scan"}}, {"bike_id": "b15943a64d662e4fd2384bab9ecc8ff8", "fusion_lon": 0.0, "name": "b15943a64d662e4fd2384bab9ecc8ff8", "lat": 38.903918166666664, "is_disabled": 0, "is_reserved": 0, "lon": -77.06316166666667, "type": "electric_scooter", "fusion_lat": 0.0, "rental_uris": {"android": "https://dc.lft.to/lastmile_qr_scan", "ios": "https://dc.lft.to/lastmile_qr_scan"}}, {"bike_id": "e55696f09dc0f9c91bccf2a2606992aa", "fusion_lon": 0.0, "name": "e55696f09dc0f9c91bccf2a2606992aa", "lat": 38.865074, "is_disabled": 0, "is_reserved": 0, "lon": -76.99006716666666, "type": "electric_scooter", "fusion_lat": 0.0, "rental_uris": {"android": "https://dc.lft.to/lastmile_qr_scan", "ios": "https://dc.lft.to/lastmile_qr_scan"}}, {"bike_id": "593cffcef39a30cf4bb0de2d4fc83886", "fusion_lon": 0.0, "name": "593cffcef39a30cf4bb0de2d4fc83886", "lat": 38.92422083333334, "is_disabled": 0, "is_reserved": 0, "lon": -77.01952716666666, "type": "electric_scooter", "fusion_lat": 0.0, "rental_uris": {"android": "https://dc.lft.to/lastmile_qr_scan", "ios": "https://dc.lft.to/lastmile_qr_scan"}}, {"bike_id": "5a0aab053b5aafd17e7cf57d63af6c7c", "fusion_lon": 0.0, "name": "5a0aab053b5aafd17e7cf57d63af6c7c", "lat": 38.87792733333333, "is_disabled": 0, "is_reserved": 0, "lon": -77.00122083333333, "type": "electric_scooter", "fusion_lat": 0.0, "rental_uris": {"android": "https://dc.lft.to/lastmile_qr_scan", "ios": "https://dc.lft.to/lastmile_qr_scan"}}, {"bike_id": "1c86110c9d9e81f47c8284f0ea8dfc20", "fusion_lon": 0.0, "name": "1c86110c9d9e81f47c8284f0ea8dfc20", "lat": 38.935126, "is_disabled": 0, "is_reserved": 0, "lon": -77.05843016666667, "type": "electric_scooter", "fusion_lat": 0.0, "rental_uris": {"android": "https://dc.lft.to/lastmile_qr_scan", "ios": "https://dc.lft.to/lastmile_qr_scan"}}, {"bike_id": "8482b6bc7bb4c08a185289fe6f86a370", "fusion_lon": 0.0, "name": "8482b6bc7bb4c08a185289fe6f86a370", "lat": 38.8873665, "is_disabled": 0, "is_reserved": 0, "lon": -77.02122416666667, "type": "electric_scooter", "fusion_lat": 0.0, "rental_uris": {"android": "https://dc.lft.to/lastmile_qr_scan", "ios": "https://dc.lft.to/lastmile_qr_scan"}}, {"bike_id": "26be0c0e311baf11f9ec2105b2127487", "fusion_lon": 0.0, "name": "26be0c0e311baf11f9ec2105b2127487", "lat": 38.90675266666667, "is_disabled": 0, "is_reserved": 0, "lon": -77.07194916666667, "type": "electric_scooter", "fusion_lat": 0.0, "rental_uris": {"android": "https://dc.lft.to/lastmile_qr_scan", "ios": "https://dc.lft.to/lastmile_qr_scan"}}, {"bike_id": "9ad3ade52d4e2dc022e1a700c4647d24", "fusion_lon": 0.0, "name": "9ad3ade52d4e2dc022e1a700c4647d24", "lat": 38.91822483333333, "is_disabled": 0, "is_reserved": 0, "lon": -77.041715, "type": "electric_scooter", "fusion_lat": 0.0, "rental_uris": {"android": "https://dc.lft.to/lastmile_qr_scan", "ios": "https://dc.lft.to/lastmile_qr_scan"}}, {"bike_id": "949215ec7355524285a84fbe63b22114", "fusion_lon": 0.0, "name": "949215ec7355524285a84fbe63b22114", "lat": 38.901357833333336, "is_disabled": 0, "is_reserved": 0, "lon": -77.06074683333334, "type": "electric_scooter", "fusion_lat": 0.0, "rental_uris": {"android": "https://dc.lft.to/lastmile_qr_scan", "ios": "https://dc.lft.to/lastmile_qr_scan"}}, {"bike_id": "d2a9caec7b56005868545fa2bc396b1d", "fusion_lon": 0.0, "name": "d2a9caec7b56005868545fa2bc396b1d", "lat": 38.922465, "is_disabled": 0, "is_reserved": 0, "lon": -77.01950333333333, "type": "electric_scooter", "fusion_lat": 0.0, "rental_uris": {"android": "https://dc.lft.to/lastmile_qr_scan", "ios": "https://dc.lft.to/lastmile_qr_scan"}}, {"bike_id": "a4e90ed3509a62901b1e0529cd57d3d2", "fusion_lon": 0.0, "name": "a4e90ed3509a62901b1e0529cd57d3d2", "lat": 38.90046316666667, "is_disabled": 0, "is_reserved": 0, "lon": -77.00070616666666, "type": "electric_scooter", "fusion_lat": 0.0, "rental_uris": {"android": "https://dc.lft.to/lastmile_qr_scan", "ios": "https://dc.lft.to/lastmile_qr_scan"}}, {"bike_id": "54ef230811ee1f4995f88057f527b44a", "fusion_lon": 0.0, "name": "54ef230811ee1f4995f88057f527b44a", "lat": 38.903688833333334, "is_disabled": 0, "is_reserved": 0, "lon": -77.03205333333334, "type": "electric_scooter", "fusion_lat": 0.0, "rental_uris": {"android": "https://dc.lft.to/lastmile_qr_scan", "ios": "https://dc.lft.to/lastmile_qr_scan"}}, {"bike_id": "7b3d66b27e019091c681e329665f0098", "fusion_lon": 0.0, "name": "7b3d66b27e019091c681e329665f0098", "lat": 38.902701666666665, "is_disabled": 0, "is_reserved": 0, "lon": -77.05319833333333, "type": "electric_scooter", "fusion_lat": 0.0, "rental_uris": {"android": "https://dc.lft.to/lastmile_qr_scan", "ios": "https://dc.lft.to/lastmile_qr_scan"}}, {"bike_id": "a05389676c80221ab09d6044bec23664", "fusion_lon": 0.0, "name": "a05389676c80221ab09d6044bec23664", "lat": 38.90574183333333, "is_disabled": 0, "is_reserved": 0, "lon": -77.00305716666666, "type": "electric_bike", "fusion_lat": 0.0, "rental_uris": {"android": "https://dc.lft.to/lastmile_qr_scan", "ios": "https://dc.lft.to/lastmile_qr_scan"}}, {"bike_id": "491995a387c906c7b30f02f5affb82b6", "fusion_lon": 0.0, "name": "491995a387c906c7b30f02f5affb82b6", "lat": 38.908484333333334, "is_disabled": 0, "is_reserved": 0, "lon": -76.99801033333334, "type": "electric_scooter", "fusion_lat": 0.0, "rental_uris": {"android": "https://dc.lft.to/lastmile_qr_scan", "ios": "https://dc.lft.to/lastmile_qr_scan"}}, {"bike_id": "2486e97e3b9a4acfa8361942d09a0972", "fusion_lon": 0.0, "name": "2486e97e3b9a4acfa8361942d09a0972", "lat": 38.913053, "is_disabled": 0, "is_reserved": 0, "lon": -77.0319395, "type": "electric_scooter", "fusion_lat": 0.0, "rental_uris": {"android": "https://dc.lft.to/lastmile_qr_scan", "ios": "https://dc.lft.to/lastmile_qr_scan"}}, {"bike_id": "e7b6ace77f242e45e26885f9bfb9938d", "fusion_lon": 0.0, "name": "e7b6ace77f242e45e26885f9bfb9938d", "lat": 38.911083833333336, "is_disabled": 0, "is_reserved": 0, "lon": -77.0383305, "type": "electric_scooter", "fusion_lat": 0.0, "rental_uris": {"android": "https://dc.lft.to/lastmile_qr_scan", "ios": "https://dc.lft.to/lastmile_qr_scan"}}, {"bike_id": "100bed8e8a7a3a7863d37968947f1f6c", "fusion_lon": 0.0, "name": "100bed8e8a7a3a7863d37968947f1f6c", "lat": 38.911163, "is_disabled": 0, "is_reserved": 0, "lon": -77.00603066666666, "type": "electric_scooter", "fusion_lat": 0.0, "rental_uris": {"android": "https://dc.lft.to/lastmile_qr_scan", "ios": "https://dc.lft.to/lastmile_qr_scan"}}, {"bike_id": "98d056dc3f4a20925875f4457747987c", "fusion_lon": 0.0, "name": "98d056dc3f4a20925875f4457747987c", "lat": 38.884224, "is_disabled": 0, "is_reserved": 0, "lon": -76.954128, "type": "electric_bike", "fusion_lat": 0.0, "rental_uris": {"android": "https://dc.lft.to/lastmile_qr_scan", "ios": "https://dc.lft.to/lastmile_qr_scan"}}, {"bike_id": "17181eef255b2c46a3128876d946d142", "fusion_lon": 0.0, "name": "17181eef255b2c46a3128876d946d142", "lat": 38.898975666666665, "is_disabled": 0, "is_reserved": 0, "lon": -77.0022925, "type": "electric_scooter", "fusion_lat": 0.0, "rental_uris": {"android": "https://dc.lft.to/lastmile_qr_scan", "ios": "https://dc.lft.to/lastmile_qr_scan"}}, {"bike_id": "cbf942a5924d407ff18b50681a88b5b8", "fusion_lon": 0.0, "name": "cbf942a5924d407ff18b50681a88b5b8", "lat": 38.92321233333333, "is_disabled": 0, "is_reserved": 0, "lon": -77.03918866666666, "type": "electric_scooter", "fusion_lat": 0.0, "rental_uris": {"android": "https://dc.lft.to/lastmile_qr_scan", "ios": "https://dc.lft.to/lastmile_qr_scan"}}, {"bike_id": "fa42ebb5966252c9439c2e5fac2d72e9", "fusion_lon": 0.0, "name": "fa42ebb5966252c9439c2e5fac2d72e9", "lat": 38.895893, "is_disabled": 0, "is_reserved": 0, "lon": -77.02319566666667, "type": "electric_scooter", "fusion_lat": 0.0, "rental_uris": {"android": "https://dc.lft.to/lastmile_qr_scan", "ios": "https://dc.lft.to/lastmile_qr_scan"}}, {"bike_id": "1b648aa0d463ae134ca53976dbdf2c62", "fusion_lon": 0.0, "name": "1b648aa0d463ae134ca53976dbdf2c62", "lat": 38.876636833333336, "is_disabled": 0, "is_reserved": 0, "lon": -77.00923616666667, "type": "electric_scooter", "fusion_lat": 0.0, "rental_uris": {"android": "https://dc.lft.to/lastmile_qr_scan", "ios": "https://dc.lft.to/lastmile_qr_scan"}}, {"bike_id": "90394b17f7d883f913252798b35c12f4", "fusion_lon": 0.0, "name": "90394b17f7d883f913252798b35c12f4", "lat": 38.917834, "is_disabled": 0, "is_reserved": 0, "lon": -77.02219183333334, "type": "electric_scooter", "fusion_lat": 0.0, "rental_uris": {"android": "https://dc.lft.to/lastmile_qr_scan", "ios": "https://dc.lft.to/lastmile_qr_scan"}}, {"bike_id": "ae4336bfc253b3bf15d96f9bde41a956", "fusion_lon": 0.0, "name": "ae4336bfc253b3bf15d96f9bde41a956", "lat": 38.90533333333333, "is_disabled": 0, "is_reserved": 0, "lon": -77.02203883333334, "type": "electric_scooter", "fusion_lat": 0.0, "rental_uris": {"android": "https://dc.lft.to/lastmile_qr_scan", "ios": "https://dc.lft.to/lastmile_qr_scan"}}, {"bike_id": "f504e61374526624339db04c6d593bf5", "fusion_lon": 0.0, "name": "f504e61374526624339db04c6d593bf5", "lat": 38.902678333333334, "is_disabled": 0, "is_reserved": 0, "lon": -77.05317183333334, "type": "electric_scooter", "fusion_lat": 0.0, "rental_uris": {"android": "https://dc.lft.to/lastmile_qr_scan", "ios": "https://dc.lft.to/lastmile_qr_scan"}}, {"bike_id": "209d1ff1d51ab0952920abcbe6150a28", "fusion_lon": 0.0, "name": "209d1ff1d51ab0952920abcbe6150a28", "lat": 38.958786833333335, "is_disabled": 0, "is_reserved": 0, "lon": -77.01169583333333, "type": "electric_scooter", "fusion_lat": 0.0, "rental_uris": {"android": "https://dc.lft.to/lastmile_qr_scan", "ios": "https://dc.lft.to/lastmile_qr_scan"}}, {"bike_id": "c2ab3c27f0db0ac43dee6e1e6e8c4fa5", "fusion_lon": 0.0, "name": "c2ab3c27f0db0ac43dee6e1e6e8c4fa5", "lat": 38.911807333333336, "is_disabled": 0, "is_reserved": 0, "lon": -77.0037245, "type": "electric_scooter", "fusion_lat": 0.0, "rental_uris": {"android": "https://dc.lft.to/lastmile_qr_scan", "ios": "https://dc.lft.to/lastmile_qr_scan"}}, {"bike_id": "cab2bf0efaa563851778d61f8d5e6318", "fusion_lon": 0.0, "name": "cab2bf0efaa563851778d61f8d5e6318", "lat": 38.898619333333336, "is_disabled": 0, "is_reserved": 0, "lon": -76.9464385, "type": "electric_scooter", "fusion_lat": 0.0, "rental_uris": {"android": "https://dc.lft.to/lastmile_qr_scan", "ios": "https://dc.lft.to/lastmile_qr_scan"}}, {"bike_id": "df7f35cd5a494a0bd8f69491820a3b6c", "fusion_lon": 0.0, "name": "df7f35cd5a494a0bd8f69491820a3b6c", "lat": 38.8934125, "is_disabled": 0, "is_reserved": 0, "lon": -76.93968016666666, "type": "electric_scooter", "fusion_lat": 0.0, "rental_uris": {"android": "https://dc.lft.to/lastmile_qr_scan", "ios": "https://dc.lft.to/lastmile_qr_scan"}}, {"bike_id": "641d7a858fb29174b861e4c6187419cf", "fusion_lon": 0.0, "name": "641d7a858fb29174b861e4c6187419cf", "lat": 38.887264333333334, "is_disabled": 0, "is_reserved": 0, "lon": -77.02577616666666, "type": "electric_scooter", "fusion_lat": 0.0, "rental_uris": {"android": "https://dc.lft.to/lastmile_qr_scan", "ios": "https://dc.lft.to/lastmile_qr_scan"}}, {"bike_id": "567211cc33ef1599db26c98d36a2a40b", "fusion_lon": 0.0, "name": "567211cc33ef1599db26c98d36a2a40b", "lat": 38.9352215, "is_disabled": 0, "is_reserved": 0, "lon": -77.07657883333333, "type": "electric_scooter", "fusion_lat": 0.0, "rental_uris": {"android": "https://dc.lft.to/lastmile_qr_scan", "ios": "https://dc.lft.to/lastmile_qr_scan"}}, {"bike_id": "4a3e728f64114c12563e71f81cf18d93", "fusion_lon": 0.0, "name": "4a3e728f64114c12563e71f81cf18d93", "lat": 38.926851166666665, "is_disabled": 0, "is_reserved": 0, "lon": -77.02307866666666, "type": "electric_scooter", "fusion_lat": 0.0, "rental_uris": {"android": "https://dc.lft.to/lastmile_qr_scan", "ios": "https://dc.lft.to/lastmile_qr_scan"}}, {"bike_id": "c8d7c711be2b89a609d87cf9e6f1f973", "fusion_lon": 0.0, "name": "c8d7c711be2b89a609d87cf9e6f1f973", "lat": 38.8918155, "is_disabled": 0, "is_reserved": 0, "lon": -76.9281505, "type": "electric_bike", "fusion_lat": 0.0, "rental_uris": {"android": "https://dc.lft.to/lastmile_qr_scan", "ios": "https://dc.lft.to/lastmile_qr_scan"}}, {"bike_id": "edc5d1eef3b82532e004420ba1b6bacb", "fusion_lon": 0.0, "name": "edc5d1eef3b82532e004420ba1b6bacb", "lat": 38.92295633333333, "is_disabled": 0, "is_reserved": 0, "lon": -77.04273166666667, "type": "electric_scooter", "fusion_lat": 0.0, "rental_uris": {"android": "https://dc.lft.to/lastmile_qr_scan", "ios": "https://dc.lft.to/lastmile_qr_scan"}}, {"bike_id": "b243a898cb9bb32e743918a7b9d13a7b", "fusion_lon": 0.0, "name": "b243a898cb9bb32e743918a7b9d13a7b", "lat": 38.9031345, "is_disabled": 0, "is_reserved": 0, "lon": -77.04967916666666, "type": "electric_scooter", "fusion_lat": 0.0, "rental_uris": {"android": "https://dc.lft.to/lastmile_qr_scan", "ios": "https://dc.lft.to/lastmile_qr_scan"}}, {"bike_id": "8094f1be5d980968b2066b398bb7061c", "fusion_lon": 0.0, "name": "8094f1be5d980968b2066b398bb7061c", "lat": 39.01416283333333, "is_disabled": 0, "is_reserved": 0, "lon": -77.04499883333334, "type": "electric_bike", "fusion_lat": 0.0, "rental_uris": {"android": "https://dc.lft.to/lastmile_qr_scan", "ios": "https://dc.lft.to/lastmile_qr_scan"}}, {"bike_id": "afc4d63ff1981f845b6b6467bab6aba7", "fusion_lon": 0.0, "name": "afc4d63ff1981f845b6b6467bab6aba7", "lat": 38.885362, "is_disabled": 0, "is_reserved": 0, "lon": -76.99722083333333, "type": "electric_bike", "fusion_lat": 0.0, "rental_uris": {"android": "https://dc.lft.to/lastmile_qr_scan", "ios": "https://dc.lft.to/lastmile_qr_scan"}}, {"bike_id": "f7d545e3dace31d05b9a42be2e1f36f8", "fusion_lon": 0.0, "name": "f7d545e3dace31d05b9a42be2e1f36f8", "lat": 38.914235166666664, "is_disabled": 0, "is_reserved": 0, "lon": -77.03925083333333, "type": "electric_scooter", "fusion_lat": 0.0, "rental_uris": {"android": "https://dc.lft.to/lastmile_qr_scan", "ios": "https://dc.lft.to/lastmile_qr_scan"}}, {"bike_id": "4e0b3bdd2c5fa8c7585c6794c3a82629", "fusion_lon": 0.0, "name": "4e0b3bdd2c5fa8c7585c6794c3a82629", "lat": 38.885011, "is_disabled": 0, "is_reserved": 0, "lon": -76.9975575, "type": "electric_scooter", "fusion_lat": 0.0, "rental_uris": {"android": "https://dc.lft.to/lastmile_qr_scan", "ios": "https://dc.lft.to/lastmile_qr_scan"}}, {"bike_id": "127af8b667850cb94c96ceb5e30afc4a", "fusion_lon": 0.0, "name": "127af8b667850cb94c96ceb5e30afc4a", "lat": 38.917663, "is_disabled": 0, "is_reserved": 0, "lon": -77.01919283333334, "type": "electric_scooter", "fusion_lat": 0.0, "rental_uris": {"android": "https://dc.lft.to/lastmile_qr_scan", "ios": "https://dc.lft.to/lastmile_qr_scan"}}, {"bike_id": "712cb1481f0f8ce46fabfc06fac72cf8", "fusion_lon": 0.0, "name": "712cb1481f0f8ce46fabfc06fac72cf8", "lat": 38.816077166666666, "is_disabled": 0, "is_reserved": 0, "lon": -76.99654533333333, "type": "electric_bike", "fusion_lat": 0.0, "rental_uris": {"android": "https://dc.lft.to/lastmile_qr_scan", "ios": "https://dc.lft.to/lastmile_qr_scan"}}, {"bike_id": "5d4998c3cf01e0c6383d66dfd33c6a43", "fusion_lon": 0.0, "name": "5d4998c3cf01e0c6383d66dfd33c6a43", "lat": 38.930425666666665, "is_disabled": 0, "is_reserved": 0, "lon": -77.03276133333334, "type": "electric_scooter", "fusion_lat": 0.0, "rental_uris": {"android": "https://dc.lft.to/lastmile_qr_scan", "ios": "https://dc.lft.to/lastmile_qr_scan"}}, {"bike_id": "173cdcf4bc9ebc708717933131663613", "fusion_lon": 0.0, "name": "173cdcf4bc9ebc708717933131663613", "lat": 38.857873, "is_disabled": 0, "is_reserved": 0, "lon": -77.09965566666666, "type": "electric_bike", "fusion_lat": 0.0, "rental_uris": {"android": "https://dc.lft.to/lastmile_qr_scan", "ios": "https://dc.lft.to/lastmile_qr_scan"}}, {"bike_id": "4c8eff538a7f627529c315a21d8a6bf5", "fusion_lon": 0.0, "name": "4c8eff538a7f627529c315a21d8a6bf5", "lat": 38.92044666666666, "is_disabled": 0, "is_reserved": 0, "lon": -77.01791516666667, "type": "electric_scooter", "fusion_lat": 0.0, "rental_uris": {"android": "https://dc.lft.to/lastmile_qr_scan", "ios": "https://dc.lft.to/lastmile_qr_scan"}}, {"bike_id": "08249bb14743a578473f4088b7ad9957", "fusion_lon": 0.0, "name": "08249bb14743a578473f4088b7ad9957", "lat": 38.930439, "is_disabled": 0, "is_reserved": 0, "lon": -76.95834366666666, "type": "electric_bike", "fusion_lat": 0.0, "rental_uris": {"android": "https://dc.lft.to/lastmile_qr_scan", "ios": "https://dc.lft.to/lastmile_qr_scan"}}, {"bike_id": "5d2841a8a706ef7e650665bf2dd0890e", "fusion_lon": 0.0, "name": "5d2841a8a706ef7e650665bf2dd0890e", "lat": 38.8921935, "is_disabled": 0, "is_reserved": 0, "lon": -77.02230766666666, "type": "electric_scooter", "fusion_lat": 0.0, "rental_uris": {"android": "https://dc.lft.to/lastmile_qr_scan", "ios": "https://dc.lft.to/lastmile_qr_scan"}}, {"bike_id": "ef4259cfc94fb08db5e32d1dd2e2b0dd", "fusion_lon": 0.0, "name": "ef4259cfc94fb08db5e32d1dd2e2b0dd", "lat": 38.90905766666667, "is_disabled": 0, "is_reserved": 0, "lon": -77.038301, "type": "electric_scooter", "fusion_lat": 0.0, "rental_uris": {"android": "https://dc.lft.to/lastmile_qr_scan", "ios": "https://dc.lft.to/lastmile_qr_scan"}}, {"bike_id": "7af9a8df92f3a043c8ae287334678136", "fusion_lon": 0.0, "name": "7af9a8df92f3a043c8ae287334678136", "lat": 38.97528883333333, "is_disabled": 0, "is_reserved": 0, "lon": -77.01458383333333, "type": "electric_scooter", "fusion_lat": 0.0, "rental_uris": {"android": "https://dc.lft.to/lastmile_qr_scan", "ios": "https://dc.lft.to/lastmile_qr_scan"}}, {"bike_id": "a7559ae92eee51dd2105a7395cecf1b6", "fusion_lon": 0.0, "name": "a7559ae92eee51dd2105a7395cecf1b6", "lat": 38.8789535, "is_disabled": 0, "is_reserved": 0, "lon": -77.01361283333334, "type": "electric_scooter", "fusion_lat": 0.0, "rental_uris": {"android": "https://dc.lft.to/lastmile_qr_scan", "ios": "https://dc.lft.to/lastmile_qr_scan"}}, {"bike_id": "a73d5371dc9f85e1d974816deae5608e", "fusion_lon": 0.0, "name": "a73d5371dc9f85e1d974816deae5608e", "lat": 38.929604166666664, "is_disabled": 0, "is_reserved": 0, "lon": -77.03101766666667, "type": "electric_scooter", "fusion_lat": 0.0, "rental_uris": {"android": "https://dc.lft.to/lastmile_qr_scan", "ios": "https://dc.lft.to/lastmile_qr_scan"}}, {"bike_id": "a282173740a69289b1710b6da699d363", "fusion_lon": 0.0, "name": "a282173740a69289b1710b6da699d363", "lat": 38.90461066666667, "is_disabled": 0, "is_reserved": 0, "lon": -77.04864116666667, "type": "electric_scooter", "fusion_lat": 0.0, "rental_uris": {"android": "https://dc.lft.to/lastmile_qr_scan", "ios": "https://dc.lft.to/lastmile_qr_scan"}}, {"bike_id": "c2e3bc9216edd3fb088597dc40d526f6", "fusion_lon": 0.0, "name": "c2e3bc9216edd3fb088597dc40d526f6", "lat": 38.95528216666666, "is_disabled": 0, "is_reserved": 0, "lon": -76.96102783333333, "type": "electric_bike", "fusion_lat": 0.0, "rental_uris": {"android": "https://dc.lft.to/lastmile_qr_scan", "ios": "https://dc.lft.to/lastmile_qr_scan"}}, {"bike_id": "6e8957c9ee763de9039292a4db339436", "fusion_lon": 0.0, "name": "6e8957c9ee763de9039292a4db339436", "lat": 38.929861833333334, "is_disabled": 0, "is_reserved": 0, "lon": -77.03269366666666, "type": "electric_scooter", "fusion_lat": 0.0, "rental_uris": {"android": "https://dc.lft.to/lastmile_qr_scan", "ios": "https://dc.lft.to/lastmile_qr_scan"}}, {"bike_id": "2e069b1c23e17ef1b4e956399e42c1f8", "fusion_lon": 0.0, "name": "2e069b1c23e17ef1b4e956399e42c1f8", "lat": 38.897183, "is_disabled": 0, "is_reserved": 0, "lon": -77.00803, "type": "electric_scooter", "fusion_lat": 0.0, "rental_uris": {"android": "https://dc.lft.to/lastmile_qr_scan", "ios": "https://dc.lft.to/lastmile_qr_scan"}}, {"bike_id": "2a8b371ebddaaf18398d00c6894541cc", "fusion_lon": 0.0, "name": "2a8b371ebddaaf18398d00c6894541cc", "lat": 38.913929833333334, "is_disabled": 0, "is_reserved": 0, "lon": -77.04170466666666, "type": "electric_scooter", "fusion_lat": 0.0, "rental_uris": {"android": "https://dc.lft.to/lastmile_qr_scan", "ios": "https://dc.lft.to/lastmile_qr_scan"}}, {"bike_id": "ad27908a1b50dc6e1ee515b59a8f3d0b", "fusion_lon": 0.0, "name": "ad27908a1b50dc6e1ee515b59a8f3d0b", "lat": 38.939179, "is_disabled": 0, "is_reserved": 0, "lon": -77.06047183333334, "type": "electric_scooter", "fusion_lat": 0.0, "rental_uris": {"android": "https://dc.lft.to/lastmile_qr_scan", "ios": "https://dc.lft.to/lastmile_qr_scan"}}, {"bike_id": "083dc78087b1b9575eaadf1d9f474491", "fusion_lon": 0.0, "name": "083dc78087b1b9575eaadf1d9f474491", "lat": 38.919379666666664, "is_disabled": 0, "is_reserved": 0, "lon": -77.0184695, "type": "electric_scooter", "fusion_lat": 0.0, "rental_uris": {"android": "https://dc.lft.to/lastmile_qr_scan", "ios": "https://dc.lft.to/lastmile_qr_scan"}}, {"bike_id": "0479f2b0f3f9f8e4d9b5f8aec4ee8076", "fusion_lon": 0.0, "name": "0479f2b0f3f9f8e4d9b5f8aec4ee8076", "lat": 38.90560983333334, "is_disabled": 0, "is_reserved": 0, "lon": -76.98137183333333, "type": "electric_scooter", "fusion_lat": 0.0, "rental_uris": {"android": "https://dc.lft.to/lastmile_qr_scan", "ios": "https://dc.lft.to/lastmile_qr_scan"}}, {"bike_id": "b11e089d0827b285f27ff12adf295309", "fusion_lon": 0.0, "name": "b11e089d0827b285f27ff12adf295309", "lat": 38.883979, "is_disabled": 0, "is_reserved": 0, "lon": -76.9304465, "type": "electric_scooter", "fusion_lat": 0.0, "rental_uris": {"android": "https://dc.lft.to/lastmile_qr_scan", "ios": "https://dc.lft.to/lastmile_qr_scan"}}, {"bike_id": "3375dcef1435287cd73449738ee0c1b8", "fusion_lon": 0.0, "name": "3375dcef1435287cd73449738ee0c1b8", "lat": 38.8923085, "is_disabled": 0, "is_reserved": 0, "lon": -77.021861, "type": "electric_scooter", "fusion_lat": 0.0, "rental_uris": {"android": "https://dc.lft.to/lastmile_qr_scan", "ios": "https://dc.lft.to/lastmile_qr_scan"}}, {"bike_id": "cea6999da8b8a54a7f4e573881c716e6", "fusion_lon": 0.0, "name": "cea6999da8b8a54a7f4e573881c716e6", "lat": 38.9298455, "is_disabled": 0, "is_reserved": 0, "lon": -77.03260783333333, "type": "electric_scooter", "fusion_lat": 0.0, "rental_uris": {"android": "https://dc.lft.to/lastmile_qr_scan", "ios": "https://dc.lft.to/lastmile_qr_scan"}}, {"bike_id": "9a732e87f17a5f69b3fd143c666669be", "fusion_lon": 0.0, "name": "9a732e87f17a5f69b3fd143c666669be", "lat": 38.89554866666667, "is_disabled": 0, "is_reserved": 0, "lon": -77.04675166666667, "type": "electric_scooter", "fusion_lat": 0.0, "rental_uris": {"android": "https://dc.lft.to/lastmile_qr_scan", "ios": "https://dc.lft.to/lastmile_qr_scan"}}, {"bike_id": "5733139d0deb27cff4584a4dd2ce1a5e", "fusion_lon": 0.0, "name": "5733139d0deb27cff4584a4dd2ce1a5e", "lat": 38.920492333333335, "is_disabled": 0, "is_reserved": 0, "lon": -77.04209366666667, "type": "electric_scooter", "fusion_lat": 0.0, "rental_uris": {"android": "https://dc.lft.to/lastmile_qr_scan", "ios": "https://dc.lft.to/lastmile_qr_scan"}}, {"bike_id": "b4ffb2669cbbeb7c029bea46e148d163", "fusion_lon": 0.0, "name": "b4ffb2669cbbeb7c029bea46e148d163", "lat": 38.905325, "is_disabled": 0, "is_reserved": 0, "lon": -77.05832083333334, "type": "electric_scooter", "fusion_lat": 0.0, "rental_uris": {"android": "https://dc.lft.to/lastmile_qr_scan", "ios": "https://dc.lft.to/lastmile_qr_scan"}}, {"bike_id": "ae050f32416a000b5feb017f7e9d16ed", "fusion_lon": 0.0, "name": "ae050f32416a000b5feb017f7e9d16ed", "lat": 38.90975666666667, "is_disabled": 0, "is_reserved": 0, "lon": -77.034606, "type": "electric_scooter", "fusion_lat": 0.0, "rental_uris": {"android": "https://dc.lft.to/lastmile_qr_scan", "ios": "https://dc.lft.to/lastmile_qr_scan"}}, {"bike_id": "230d5b4eeed353ed4e0b61cd42795825", "fusion_lon": 0.0, "name": "230d5b4eeed353ed4e0b61cd42795825", "lat": 38.90025716666667, "is_disabled": 0, "is_reserved": 0, "lon": -77.01312283333333, "type": "electric_scooter", "fusion_lat": 0.0, "rental_uris": {"android": "https://dc.lft.to/lastmile_qr_scan", "ios": "https://dc.lft.to/lastmile_qr_scan"}}, {"bike_id": "15148faf88887795a7e0908cae8905de", "fusion_lon": 0.0, "name": "15148faf88887795a7e0908cae8905de", "lat": 38.87685666666667, "is_disabled": 0, "is_reserved": 0, "lon": -77.0075295, "type": "electric_scooter", "fusion_lat": 0.0, "rental_uris": {"android": "https://dc.lft.to/lastmile_qr_scan", "ios": "https://dc.lft.to/lastmile_qr_scan"}}, {"bike_id": "f54cda1b2b9baae7d740bc48f95e61d7", "fusion_lon": 0.0, "name": "f54cda1b2b9baae7d740bc48f95e61d7", "lat": 38.89478533333333, "is_disabled": 0, "is_reserved": 0, "lon": -77.0232655, "type": "electric_bike", "fusion_lat": 0.0, "rental_uris": {"android": "https://dc.lft.to/lastmile_qr_scan", "ios": "https://dc.lft.to/lastmile_qr_scan"}}, {"bike_id": "30df1742d6054dac019b76da250e8f09", "fusion_lon": 0.0, "name": "30df1742d6054dac019b76da250e8f09", "lat": 38.88765716666666, "is_disabled": 0, "is_reserved": 0, "lon": -76.97754633333334, "type": "electric_scooter", "fusion_lat": 0.0, "rental_uris": {"android": "https://dc.lft.to/lastmile_qr_scan", "ios": "https://dc.lft.to/lastmile_qr_scan"}}, {"bike_id": "f7bc4a7b00c458a1db0c22b128e6ad01", "fusion_lon": 0.0, "name": "f7bc4a7b00c458a1db0c22b128e6ad01", "lat": 38.90018116666667, "is_disabled": 0, "is_reserved": 0, "lon": -77.0068315, "type": "electric_scooter", "fusion_lat": 0.0, "rental_uris": {"android": "https://dc.lft.to/lastmile_qr_scan", "ios": "https://dc.lft.to/lastmile_qr_scan"}}, {"bike_id": "fd5281a1bb8859421273dc35eae6ce11", "fusion_lon": 0.0, "name": "fd5281a1bb8859421273dc35eae6ce11", "lat": 38.90566283333333, "is_disabled": 0, "is_reserved": 0, "lon": -77.04366116666667, "type": "electric_scooter", "fusion_lat": 0.0, "rental_uris": {"android": "https://dc.lft.to/lastmile_qr_scan", "ios": "https://dc.lft.to/lastmile_qr_scan"}}, {"bike_id": "1cf24c25f484a120a97bcdf109217ddb", "fusion_lon": 0.0, "name": "1cf24c25f484a120a97bcdf109217ddb", "lat": 38.92318066666667, "is_disabled": 0, "is_reserved": 0, "lon": -77.04110466666667, "type": "electric_scooter", "fusion_lat": 0.0, "rental_uris": {"android": "https://dc.lft.to/lastmile_qr_scan", "ios": "https://dc.lft.to/lastmile_qr_scan"}}, {"bike_id": "b9edd47e8b805533707606781ccbfd26", "fusion_lon": 0.0, "name": "b9edd47e8b805533707606781ccbfd26", "lat": 38.91488416666667, "is_disabled": 0, "is_reserved": 0, "lon": -77.04842366666666, "type": "electric_scooter", "fusion_lat": 0.0, "rental_uris": {"android": "https://dc.lft.to/lastmile_qr_scan", "ios": "https://dc.lft.to/lastmile_qr_scan"}}, {"bike_id": "8f502dedff3fe1bc5917f8a02daf5cb4", "fusion_lon": 0.0, "name": "8f502dedff3fe1bc5917f8a02daf5cb4", "lat": 38.949078666666665, "is_disabled": 0, "is_reserved": 0, "lon": -77.066239, "type": "electric_scooter", "fusion_lat": 0.0, "rental_uris": {"android": "https://dc.lft.to/lastmile_qr_scan", "ios": "https://dc.lft.to/lastmile_qr_scan"}}, {"bike_id": "88d80172b8908e58dffca8304e33c81b", "fusion_lon": 0.0, "name": "88d80172b8908e58dffca8304e33c81b", "lat": 38.9126415, "is_disabled": 0, "is_reserved": 0, "lon": -77.04843866666667, "type": "electric_scooter", "fusion_lat": 0.0, "rental_uris": {"android": "https://dc.lft.to/lastmile_qr_scan", "ios": "https://dc.lft.to/lastmile_qr_scan"}}, {"bike_id": "e4cc5dc732fca0aa63fec33b0e026c91", "fusion_lon": 0.0, "name": "e4cc5dc732fca0aa63fec33b0e026c91", "lat": 38.893634666666664, "is_disabled": 0, "is_reserved": 0, "lon": -76.92589266666667, "type": "electric_scooter", "fusion_lat": 0.0, "rental_uris": {"android": "https://dc.lft.to/lastmile_qr_scan", "ios": "https://dc.lft.to/lastmile_qr_scan"}}, {"bike_id": "70c015d8e5b754b5579b7520d2243de1", "fusion_lon": 0.0, "name": "70c015d8e5b754b5579b7520d2243de1", "lat": 38.865139666666664, "is_disabled": 0, "is_reserved": 0, "lon": -77.12937316666667, "type": "electric_bike", "fusion_lat": 0.0, "rental_uris": {"android": "https://dc.lft.to/lastmile_qr_scan", "ios": "https://dc.lft.to/lastmile_qr_scan"}}, {"bike_id": "2ff16f0477f8b32b508fb33b6a07564c", "fusion_lon": 0.0, "name": "2ff16f0477f8b32b508fb33b6a07564c", "lat": 38.82454766666667, "is_disabled": 0, "is_reserved": 0, "lon": -77.00793316666666, "type": "electric_bike", "fusion_lat": 0.0, "rental_uris": {"android": "https://dc.lft.to/lastmile_qr_scan", "ios": "https://dc.lft.to/lastmile_qr_scan"}}, {"bike_id": "aa8a45accdffbcc13d86ea2b13fff255", "fusion_lon": 0.0, "name": "aa8a45accdffbcc13d86ea2b13fff255", "lat": 38.9094955, "is_disabled": 0, "is_reserved": 0, "lon": -76.985403, "type": "electric_scooter", "fusion_lat": 0.0, "rental_uris": {"android": "https://dc.lft.to/lastmile_qr_scan", "ios": "https://dc.lft.to/lastmile_qr_scan"}}, {"bike_id": "c372dab660ee0882ca0a941517b24906", "fusion_lon": 0.0, "name": "c372dab660ee0882ca0a941517b24906", "lat": 38.9187215, "is_disabled": 0, "is_reserved": 0, "lon": -77.043139, "type": "electric_scooter", "fusion_lat": 0.0, "rental_uris": {"android": "https://dc.lft.to/lastmile_qr_scan", "ios": "https://dc.lft.to/lastmile_qr_scan"}}, {"bike_id": "965cdb78bf55672eb448621e24938c3a", "fusion_lon": 0.0, "name": "965cdb78bf55672eb448621e24938c3a", "lat": 38.90572933333333, "is_disabled": 0, "is_reserved": 0, "lon": -77.04074716666666, "type": "electric_scooter", "fusion_lat": 0.0, "rental_uris": {"android": "https://dc.lft.to/lastmile_qr_scan", "ios": "https://dc.lft.to/lastmile_qr_scan"}}, {"bike_id": "aa5f763bbbb8e47d52efd15f0a88e636", "fusion_lon": 0.0, "name": "aa5f763bbbb8e47d52efd15f0a88e636", "lat": 38.923601833333336, "is_disabled": 0, "is_reserved": 0, "lon": -77.050534, "type": "electric_scooter", "fusion_lat": 0.0, "rental_uris": {"android": "https://dc.lft.to/lastmile_qr_scan", "ios": "https://dc.lft.to/lastmile_qr_scan"}}, {"bike_id": "f74753bbeee6832a487e4f5f011aae6e", "fusion_lon": 0.0, "name": "f74753bbeee6832a487e4f5f011aae6e", "lat": 38.916951166666664, "is_disabled": 0, "is_reserved": 0, "lon": -77.04217333333334, "type": "electric_scooter", "fusion_lat": 0.0, "rental_uris": {"android": "https://dc.lft.to/lastmile_qr_scan", "ios": "https://dc.lft.to/lastmile_qr_scan"}}, {"bike_id": "140059bbd939e0f867080c5d586dab49", "fusion_lon": 0.0, "name": "140059bbd939e0f867080c5d586dab49", "lat": 38.89327566666667, "is_disabled": 0, "is_reserved": 0, "lon": -77.02257316666666, "type": "electric_scooter", "fusion_lat": 0.0, "rental_uris": {"android": "https://dc.lft.to/lastmile_qr_scan", "ios": "https://dc.lft.to/lastmile_qr_scan"}}, {"bike_id": "113ce5b8d45528f494a96ddc4e9f1d7f", "fusion_lon": 0.0, "name": "113ce5b8d45528f494a96ddc4e9f1d7f", "lat": 38.91296766666667, "is_disabled": 0, "is_reserved": 0, "lon": -76.98469683333333, "type": "electric_scooter", "fusion_lat": 0.0, "rental_uris": {"android": "https://dc.lft.to/lastmile_qr_scan", "ios": "https://dc.lft.to/lastmile_qr_scan"}}, {"bike_id": "8c2bb3d4aacbcac7e7a3935d41859002", "fusion_lon": 0.0, "name": "8c2bb3d4aacbcac7e7a3935d41859002", "lat": 38.895739166666665, "is_disabled": 0, "is_reserved": 0, "lon": -77.02571716666667, "type": "electric_scooter", "fusion_lat": 0.0, "rental_uris": {"android": "https://dc.lft.to/lastmile_qr_scan", "ios": "https://dc.lft.to/lastmile_qr_scan"}}, {"bike_id": "f65b81d7f27b5fd0734137d3c4476c2a", "fusion_lon": 0.0, "name": "f65b81d7f27b5fd0734137d3c4476c2a", "lat": 38.885239166666665, "is_disabled": 0, "is_reserved": 0, "lon": -76.92924866666667, "type": "electric_scooter", "fusion_lat": 0.0, "rental_uris": {"android": "https://dc.lft.to/lastmile_qr_scan", "ios": "https://dc.lft.to/lastmile_qr_scan"}}, {"bike_id": "0a1c02d3d07a6f9ec5791b8561366916", "fusion_lon": 0.0, "name": "0a1c02d3d07a6f9ec5791b8561366916", "lat": 38.9073185, "is_disabled": 0, "is_reserved": 0, "lon": -77.02365816666666, "type": "electric_scooter", "fusion_lat": 0.0, "rental_uris": {"android": "https://dc.lft.to/lastmile_qr_scan", "ios": "https://dc.lft.to/lastmile_qr_scan"}}, {"bike_id": "4526f0b29748be8dfe4b6da6e0107e48", "fusion_lon": 0.0, "name": "4526f0b29748be8dfe4b6da6e0107e48", "lat": 38.905396, "is_disabled": 0, "is_reserved": 0, "lon": -77.03225283333333, "type": "electric_scooter", "fusion_lat": 0.0, "rental_uris": {"android": "https://dc.lft.to/lastmile_qr_scan", "ios": "https://dc.lft.to/lastmile_qr_scan"}}, {"bike_id": "d29814686863b0a200a4c12cc2686e43", "fusion_lon": 0.0, "name": "d29814686863b0a200a4c12cc2686e43", "lat": 38.892769333333334, "is_disabled": 0, "is_reserved": 0, "lon": -77.050375, "type": "electric_scooter", "fusion_lat": 0.0, "rental_uris": {"android": "https://dc.lft.to/lastmile_qr_scan", "ios": "https://dc.lft.to/lastmile_qr_scan"}}, {"bike_id": "2dad8e54a46634c79d5eed466e0a2577", "fusion_lon": 0.0, "name": "2dad8e54a46634c79d5eed466e0a2577", "lat": 38.897286, "is_disabled": 0, "is_reserved": 0, "lon": -77.02461816666667, "type": "electric_scooter", "fusion_lat": 0.0, "rental_uris": {"android": "https://dc.lft.to/lastmile_qr_scan", "ios": "https://dc.lft.to/lastmile_qr_scan"}}, {"bike_id": "feb2e4cb09fc5c9b3ccf0fcdb9b7ffef", "fusion_lon": 0.0, "name": "feb2e4cb09fc5c9b3ccf0fcdb9b7ffef", "lat": 38.9003985, "is_disabled": 0, "is_reserved": 0, "lon": -77.00776233333333, "type": "electric_bike", "fusion_lat": 0.0, "rental_uris": {"android": "https://dc.lft.to/lastmile_qr_scan", "ios": "https://dc.lft.to/lastmile_qr_scan"}}, {"bike_id": "bbfcaaff8f0b09a5608731c9912aeb08", "fusion_lon": 0.0, "name": "bbfcaaff8f0b09a5608731c9912aeb08", "lat": 38.9174735, "is_disabled": 0, "is_reserved": 0, "lon": -77.02819083333333, "type": "electric_scooter", "fusion_lat": 0.0, "rental_uris": {"android": "https://dc.lft.to/lastmile_qr_scan", "ios": "https://dc.lft.to/lastmile_qr_scan"}}, {"bike_id": "e28694ff3aa2246476f77b991a98f370", "fusion_lon": 0.0, "name": "e28694ff3aa2246476f77b991a98f370", "lat": 38.892379, "is_disabled": 0, "is_reserved": 0, "lon": -77.02614, "type": "electric_scooter", "fusion_lat": 0.0, "rental_uris": {"android": "https://dc.lft.to/lastmile_qr_scan", "ios": "https://dc.lft.to/lastmile_qr_scan"}}, {"bike_id": "eedace59963c8393099c38b626d24b33", "fusion_lon": 0.0, "name": "eedace59963c8393099c38b626d24b33", "lat": 38.89237683333333, "is_disabled": 0, "is_reserved": 0, "lon": -77.02608483333333, "type": "electric_scooter", "fusion_lat": 0.0, "rental_uris": {"android": "https://dc.lft.to/lastmile_qr_scan", "ios": "https://dc.lft.to/lastmile_qr_scan"}}, {"bike_id": "10c5e72801fda52702f4458799b98f6c", "fusion_lon": 0.0, "name": "10c5e72801fda52702f4458799b98f6c", "lat": 38.907848666666666, "is_disabled": 0, "is_reserved": 0, "lon": -77.04341083333334, "type": "electric_scooter", "fusion_lat": 0.0, "rental_uris": {"android": "https://dc.lft.to/lastmile_qr_scan", "ios": "https://dc.lft.to/lastmile_qr_scan"}}, {"bike_id": "0be6a7625da5c47db119b1b65cd91a8a", "fusion_lon": 0.0, "name": "0be6a7625da5c47db119b1b65cd91a8a", "lat": 38.89222866666667, "is_disabled": 0, "is_reserved": 0, "lon": -77.0398395, "type": "electric_scooter", "fusion_lat": 0.0, "rental_uris": {"android": "https://dc.lft.to/lastmile_qr_scan", "ios": "https://dc.lft.to/lastmile_qr_scan"}}, {"bike_id": "1d9f8f7c704da1c8d88af0c411f4d103", "fusion_lon": 0.0, "name": "1d9f8f7c704da1c8d88af0c411f4d103", "lat": 38.932509333333336, "is_disabled": 0, "is_reserved": 0, "lon": -77.0327695, "type": "electric_scooter", "fusion_lat": 0.0, "rental_uris": {"android": "https://dc.lft.to/lastmile_qr_scan", "ios": "https://dc.lft.to/lastmile_qr_scan"}}, {"bike_id": "8ebaddc44735f2c28807acfc33a69873", "fusion_lon": 0.0, "name": "8ebaddc44735f2c28807acfc33a69873", "lat": 38.8758005, "is_disabled": 0, "is_reserved": 0, "lon": -77.2341215, "type": "electric_bike", "fusion_lat": 0.0, "rental_uris": {"android": "https://dc.lft.to/lastmile_qr_scan", "ios": "https://dc.lft.to/lastmile_qr_scan"}}, {"bike_id": "2ff68122a14361ce37064a8e146ac64a", "fusion_lon": 0.0, "name": "2ff68122a14361ce37064a8e146ac64a", "lat": 38.916033, "is_disabled": 0, "is_reserved": 0, "lon": -77.0313355, "type": "electric_scooter", "fusion_lat": 0.0, "rental_uris": {"android": "https://dc.lft.to/lastmile_qr_scan", "ios": "https://dc.lft.to/lastmile_qr_scan"}}, {"bike_id": "86c687a74cde8830f79007eda14e3fbe", "fusion_lon": 0.0, "name": "86c687a74cde8830f79007eda14e3fbe", "lat": 38.929999333333335, "is_disabled": 0, "is_reserved": 0, "lon": -77.03802416666667, "type": "electric_scooter", "fusion_lat": 0.0, "rental_uris": {"android": "https://dc.lft.to/lastmile_qr_scan", "ios": "https://dc.lft.to/lastmile_qr_scan"}}, {"bike_id": "e872fd40e28cc19b784044029f39cc29", "fusion_lon": 0.0, "name": "e872fd40e28cc19b784044029f39cc29", "lat": 38.9160655, "is_disabled": 0, "is_reserved": 0, "lon": -77.03181916666666, "type": "electric_scooter", "fusion_lat": 0.0, "rental_uris": {"android": "https://dc.lft.to/lastmile_qr_scan", "ios": "https://dc.lft.to/lastmile_qr_scan"}}, {"bike_id": "7c8c7a1702a847e23bcc4b02aa42c2ea", "fusion_lon": 0.0, "name": "7c8c7a1702a847e23bcc4b02aa42c2ea", "lat": 38.94659, "is_disabled": 0, "is_reserved": 0, "lon": -77.00697233333334, "type": "electric_bike", "fusion_lat": 0.0, "rental_uris": {"android": "https://dc.lft.to/lastmile_qr_scan", "ios": "https://dc.lft.to/lastmile_qr_scan"}}, {"bike_id": "61f9acb1d275190aba54e1913540d752", "fusion_lon": 0.0, "name": "61f9acb1d275190aba54e1913540d752", "lat": 38.922448833333334, "is_disabled": 0, "is_reserved": 0, "lon": -77.02996933333333, "type": "electric_scooter", "fusion_lat": 0.0, "rental_uris": {"android": "https://dc.lft.to/lastmile_qr_scan", "ios": "https://dc.lft.to/lastmile_qr_scan"}}, {"bike_id": "050f14745e9aebe696b777eb734ba906", "fusion_lon": 0.0, "name": "050f14745e9aebe696b777eb734ba906", "lat": 38.842726166666665, "is_disabled": 0, "is_reserved": 0, "lon": -76.9884415, "type": "electric_bike", "fusion_lat": 0.0, "rental_uris": {"android": "https://dc.lft.to/lastmile_qr_scan", "ios": "https://dc.lft.to/lastmile_qr_scan"}}, {"bike_id": "246f5bbb1ffb51fefaf5cd54df555f10", "fusion_lon": 0.0, "name": "246f5bbb1ffb51fefaf5cd54df555f10", "lat": 38.917717833333334, "is_disabled": 0, "is_reserved": 0, "lon": -77.022868, "type": "electric_scooter", "fusion_lat": 0.0, "rental_uris": {"android": "https://dc.lft.to/lastmile_qr_scan", "ios": "https://dc.lft.to/lastmile_qr_scan"}}, {"bike_id": "44352c8ea1c5271811832e358890f132", "fusion_lon": 0.0, "name": "44352c8ea1c5271811832e358890f132", "lat": 38.89917583333333, "is_disabled": 0, "is_reserved": 0, "lon": -77.02718966666667, "type": "electric_scooter", "fusion_lat": 0.0, "rental_uris": {"android": "https://dc.lft.to/lastmile_qr_scan", "ios": "https://dc.lft.to/lastmile_qr_scan"}}, {"bike_id": "8ff79e69b9558d11ff40147682f01c4b", "fusion_lon": 0.0, "name": "8ff79e69b9558d11ff40147682f01c4b", "lat": 38.865052, "is_disabled": 0, "is_reserved": 0, "lon": -76.99004016666666, "type": "electric_scooter", "fusion_lat": 0.0, "rental_uris": {"android": "https://dc.lft.to/lastmile_qr_scan", "ios": "https://dc.lft.to/lastmile_qr_scan"}}, {"bike_id": "45f667e701fbdf6edf4cf9565fa438bf", "fusion_lon": 0.0, "name": "45f667e701fbdf6edf4cf9565fa438bf", "lat": 38.9367325, "is_disabled": 0, "is_reserved": 0, "lon": -77.0359465, "type": "electric_scooter", "fusion_lat": 0.0, "rental_uris": {"android": "https://dc.lft.to/lastmile_qr_scan", "ios": "https://dc.lft.to/lastmile_qr_scan"}}, {"bike_id": "bc451f51d4a5fccd2bbfb04c732bebaa", "fusion_lon": 0.0, "name": "bc451f51d4a5fccd2bbfb04c732bebaa", "lat": 38.916873, "is_disabled": 0, "is_reserved": 0, "lon": -77.03769383333334, "type": "electric_scooter", "fusion_lat": 0.0, "rental_uris": {"android": "https://dc.lft.to/lastmile_qr_scan", "ios": "https://dc.lft.to/lastmile_qr_scan"}}, {"bike_id": "2f8aa4dc004e415b2ac99674f69958c4", "fusion_lon": 0.0, "name": "2f8aa4dc004e415b2ac99674f69958c4", "lat": 38.91812, "is_disabled": 0, "is_reserved": 0, "lon": -77.02714466666667, "type": "electric_scooter", "fusion_lat": 0.0, "rental_uris": {"android": "https://dc.lft.to/lastmile_qr_scan", "ios": "https://dc.lft.to/lastmile_qr_scan"}}, {"bike_id": "130d16437d814e4bc77f82ac9fcc8d5d", "fusion_lon": 0.0, "name": "130d16437d814e4bc77f82ac9fcc8d5d", "lat": 38.9048945, "is_disabled": 0, "is_reserved": 0, "lon": -76.9742745, "type": "electric_bike", "fusion_lat": 0.0, "rental_uris": {"android": "https://dc.lft.to/lastmile_qr_scan", "ios": "https://dc.lft.to/lastmile_qr_scan"}}, {"bike_id": "803941a91de688e0527e368ed3452101", "fusion_lon": 0.0, "name": "803941a91de688e0527e368ed3452101", "lat": 38.88354266666666, "is_disabled": 0, "is_reserved": 0, "lon": -76.98220266666667, "type": "electric_scooter", "fusion_lat": 0.0, "rental_uris": {"android": "https://dc.lft.to/lastmile_qr_scan", "ios": "https://dc.lft.to/lastmile_qr_scan"}}, {"bike_id": "6435637f75f2795f6b913746d597edb1", "fusion_lon": 0.0, "name": "6435637f75f2795f6b913746d597edb1", "lat": 38.90027666666667, "is_disabled": 0, "is_reserved": 0, "lon": -77.0117765, "type": "electric_scooter", "fusion_lat": 0.0, "rental_uris": {"android": "https://dc.lft.to/lastmile_qr_scan", "ios": "https://dc.lft.to/lastmile_qr_scan"}}, {"bike_id": "65f3b7439b69595bbb24a68db2a4388d", "fusion_lon": 0.0, "name": "65f3b7439b69595bbb24a68db2a4388d", "lat": 38.862634166666666, "is_disabled": 0, "is_reserved": 0, "lon": -76.98352683333333, "type": "electric_bike", "fusion_lat": 0.0, "rental_uris": {"android": "https://dc.lft.to/lastmile_qr_scan", "ios": "https://dc.lft.to/lastmile_qr_scan"}}, {"bike_id": "e743343e30fc6cbc99e79c26ce0a714e", "fusion_lon": 0.0, "name": "e743343e30fc6cbc99e79c26ce0a714e", "lat": 38.9960745, "is_disabled": 0, "is_reserved": 0, "lon": -77.07807516666666, "type": "electric_bike", "fusion_lat": 0.0, "rental_uris": {"android": "https://dc.lft.to/lastmile_qr_scan", "ios": "https://dc.lft.to/lastmile_qr_scan"}}, {"bike_id": "ddc8e5598d4f491497c1ff4b2fc52e61", "fusion_lon": 0.0, "name": "ddc8e5598d4f491497c1ff4b2fc52e61", "lat": 38.91928433333333, "is_disabled": 0, "is_reserved": 0, "lon": -77.0317935, "type": "electric_scooter", "fusion_lat": 0.0, "rental_uris": {"android": "https://dc.lft.to/lastmile_qr_scan", "ios": "https://dc.lft.to/lastmile_qr_scan"}}, {"bike_id": "6c86792c285aae7d2706da75a20baa9f", "fusion_lon": 0.0, "name": "6c86792c285aae7d2706da75a20baa9f", "lat": 38.90031283333333, "is_disabled": 0, "is_reserved": 0, "lon": -76.97231816666667, "type": "electric_bike", "fusion_lat": 0.0, "rental_uris": {"android": "https://dc.lft.to/lastmile_qr_scan", "ios": "https://dc.lft.to/lastmile_qr_scan"}}, {"bike_id": "762975f69d25cff41987a131f5bf80be", "fusion_lon": 0.0, "name": "762975f69d25cff41987a131f5bf80be", "lat": 38.877000833333334, "is_disabled": 0, "is_reserved": 0, "lon": -77.00431366666666, "type": "electric_scooter", "fusion_lat": 0.0, "rental_uris": {"android": "https://dc.lft.to/lastmile_qr_scan", "ios": "https://dc.lft.to/lastmile_qr_scan"}}, {"bike_id": "f57c14ea2098c3fe5d43b2eaa0f476ab", "fusion_lon": 0.0, "name": "f57c14ea2098c3fe5d43b2eaa0f476ab", "lat": 38.90498216666667, "is_disabled": 0, "is_reserved": 0, "lon": -77.06125583333333, "type": "electric_scooter", "fusion_lat": 0.0, "rental_uris": {"android": "https://dc.lft.to/lastmile_qr_scan", "ios": "https://dc.lft.to/lastmile_qr_scan"}}, {"bike_id": "5707be2542d46035138ce9f42a51f455", "fusion_lon": 0.0, "name": "5707be2542d46035138ce9f42a51f455", "lat": 38.903927833333334, "is_disabled": 0, "is_reserved": 0, "lon": -77.04025933333334, "type": "electric_scooter", "fusion_lat": 0.0, "rental_uris": {"android": "https://dc.lft.to/lastmile_qr_scan", "ios": "https://dc.lft.to/lastmile_qr_scan"}}, {"bike_id": "57ece86a81d80758c7364f0be7724e8a", "fusion_lon": 0.0, "name": "57ece86a81d80758c7364f0be7724e8a", "lat": 38.901345, "is_disabled": 0, "is_reserved": 0, "lon": -77.03274466666667, "type": "electric_scooter", "fusion_lat": 0.0, "rental_uris": {"android": "https://dc.lft.to/lastmile_qr_scan", "ios": "https://dc.lft.to/lastmile_qr_scan"}}, {"bike_id": "f9c80bfcf2e2378e07616e10d94f3061", "fusion_lon": 0.0, "name": "f9c80bfcf2e2378e07616e10d94f3061", "lat": 38.90479883333333, "is_disabled": 0, "is_reserved": 0, "lon": -77.0347805, "type": "electric_scooter", "fusion_lat": 0.0, "rental_uris": {"android": "https://dc.lft.to/lastmile_qr_scan", "ios": "https://dc.lft.to/lastmile_qr_scan"}}, {"bike_id": "c31951f6059a92b7aa0e2011b084408f", "fusion_lon": 0.0, "name": "c31951f6059a92b7aa0e2011b084408f", "lat": 38.89573683333333, "is_disabled": 0, "is_reserved": 0, "lon": -77.02805, "type": "electric_scooter", "fusion_lat": 0.0, "rental_uris": {"android": "https://dc.lft.to/lastmile_qr_scan", "ios": "https://dc.lft.to/lastmile_qr_scan"}}, {"bike_id": "f3acdc69e8819395ac3c7890e2aace54", "fusion_lon": 0.0, "name": "f3acdc69e8819395ac3c7890e2aace54", "lat": 38.93654083333333, "is_disabled": 0, "is_reserved": 0, "lon": -77.03684116666666, "type": "electric_scooter", "fusion_lat": 0.0, "rental_uris": {"android": "https://dc.lft.to/lastmile_qr_scan", "ios": "https://dc.lft.to/lastmile_qr_scan"}}, {"bike_id": "a1c986cc16b8a7a0cbba639fd6e24e17", "fusion_lon": 0.0, "name": "a1c986cc16b8a7a0cbba639fd6e24e17", "lat": 38.931852666666664, "is_disabled": 0, "is_reserved": 0, "lon": -77.04304333333333, "type": "electric_scooter", "fusion_lat": 0.0, "rental_uris": {"android": "https://dc.lft.to/lastmile_qr_scan", "ios": "https://dc.lft.to/lastmile_qr_scan"}}, {"bike_id": "b388666f993b92039587d326712d0fcf", "fusion_lon": 0.0, "name": "b388666f993b92039587d326712d0fcf", "lat": 38.89691966666667, "is_disabled": 0, "is_reserved": 0, "lon": -77.04662983333333, "type": "electric_scooter", "fusion_lat": 0.0, "rental_uris": {"android": "https://dc.lft.to/lastmile_qr_scan", "ios": "https://dc.lft.to/lastmile_qr_scan"}}, {"bike_id": "aedc1fcd733e91d9eaa188fa31cc1f5c", "fusion_lon": 0.0, "name": "aedc1fcd733e91d9eaa188fa31cc1f5c", "lat": 38.90559366666667, "is_disabled": 0, "is_reserved": 0, "lon": -77.0131355, "type": "electric_scooter", "fusion_lat": 0.0, "rental_uris": {"android": "https://dc.lft.to/lastmile_qr_scan", "ios": "https://dc.lft.to/lastmile_qr_scan"}}, {"bike_id": "dd5a9be554e97c88ccc0db7c4cd72a9c", "fusion_lon": 0.0, "name": "dd5a9be554e97c88ccc0db7c4cd72a9c", "lat": 38.911637666666664, "is_disabled": 0, "is_reserved": 0, "lon": -77.00302683333334, "type": "electric_bike", "fusion_lat": 0.0, "rental_uris": {"android": "https://dc.lft.to/lastmile_qr_scan", "ios": "https://dc.lft.to/lastmile_qr_scan"}}, {"bike_id": "9b8e7ea9cda0e5d608b6b27604ce1ae2", "fusion_lon": 0.0, "name": "9b8e7ea9cda0e5d608b6b27604ce1ae2", "lat": 38.91684383333333, "is_disabled": 0, "is_reserved": 0, "lon": -77.03766016666667, "type": "electric_scooter", "fusion_lat": 0.0, "rental_uris": {"android": "https://dc.lft.to/lastmile_qr_scan", "ios": "https://dc.lft.to/lastmile_qr_scan"}}, {"bike_id": "395a6b54812bf5225f5943b59d0645b0", "fusion_lon": 0.0, "name": "395a6b54812bf5225f5943b59d0645b0", "lat": 38.8922235, "is_disabled": 0, "is_reserved": 0, "lon": -77.04311066666666, "type": "electric_scooter", "fusion_lat": 0.0, "rental_uris": {"android": "https://dc.lft.to/lastmile_qr_scan", "ios": "https://dc.lft.to/lastmile_qr_scan"}}, {"bike_id": "026f47e74d8bfbf9af15863f3342c88a", "fusion_lon": 0.0, "name": "026f47e74d8bfbf9af15863f3342c88a", "lat": 38.917809, "is_disabled": 0, "is_reserved": 0, "lon": -77.02285066666667, "type": "electric_scooter", "fusion_lat": 0.0, "rental_uris": {"android": "https://dc.lft.to/lastmile_qr_scan", "ios": "https://dc.lft.to/lastmile_qr_scan"}}, {"bike_id": "da590e1ab8452cb39fb1f7be2183a492", "fusion_lon": 0.0, "name": "da590e1ab8452cb39fb1f7be2183a492", "lat": 38.92337283333333, "is_disabled": 0, "is_reserved": 0, "lon": -77.035201, "type": "electric_scooter", "fusion_lat": 0.0, "rental_uris": {"android": "https://dc.lft.to/lastmile_qr_scan", "ios": "https://dc.lft.to/lastmile_qr_scan"}}, {"bike_id": "c30d32f807a9af2a5e9103b7ce6591b2", "fusion_lon": 0.0, "name": "c30d32f807a9af2a5e9103b7ce6591b2", "lat": 38.892232166666666, "is_disabled": 0, "is_reserved": 0, "lon": -77.04327316666667, "type": "electric_scooter", "fusion_lat": 0.0, "rental_uris": {"android": "https://dc.lft.to/lastmile_qr_scan", "ios": "https://dc.lft.to/lastmile_qr_scan"}}, {"bike_id": "e581d3fde3948cd8ec3e333542d5d39c", "fusion_lon": 0.0, "name": "e581d3fde3948cd8ec3e333542d5d39c", "lat": 38.89890366666667, "is_disabled": 0, "is_reserved": 0, "lon": -77.03282483333334, "type": "electric_scooter", "fusion_lat": 0.0, "rental_uris": {"android": "https://dc.lft.to/lastmile_qr_scan", "ios": "https://dc.lft.to/lastmile_qr_scan"}}, {"bike_id": "6b6c9b639a9f73b685fb879726a35a53", "fusion_lon": 0.0, "name": "6b6c9b639a9f73b685fb879726a35a53", "lat": 38.9133505, "is_disabled": 0, "is_reserved": 0, "lon": -77.04869783333334, "type": "electric_scooter", "fusion_lat": 0.0, "rental_uris": {"android": "https://dc.lft.to/lastmile_qr_scan", "ios": "https://dc.lft.to/lastmile_qr_scan"}}, {"bike_id": "977636ed4a88e791c146edb363b017a1", "fusion_lon": 0.0, "name": "977636ed4a88e791c146edb363b017a1", "lat": 38.95766283333333, "is_disabled": 0, "is_reserved": 0, "lon": -76.980936, "type": "electric_bike", "fusion_lat": 0.0, "rental_uris": {"android": "https://dc.lft.to/lastmile_qr_scan", "ios": "https://dc.lft.to/lastmile_qr_scan"}}, {"bike_id": "305317cb814515fa6f36f90340c073b9", "fusion_lon": 0.0, "name": "305317cb814515fa6f36f90340c073b9", "lat": 38.900194, "is_disabled": 0, "is_reserved": 0, "lon": -77.04374133333333, "type": "electric_scooter", "fusion_lat": 0.0, "rental_uris": {"android": "https://dc.lft.to/lastmile_qr_scan", "ios": "https://dc.lft.to/lastmile_qr_scan"}}, {"bike_id": "16f0474d87181133bdaaa88ea82882bb", "fusion_lon": 0.0, "name": "16f0474d87181133bdaaa88ea82882bb", "lat": 38.900349, "is_disabled": 0, "is_reserved": 0, "lon": -77.04684216666666, "type": "electric_scooter", "fusion_lat": 0.0, "rental_uris": {"android": "https://dc.lft.to/lastmile_qr_scan", "ios": "https://dc.lft.to/lastmile_qr_scan"}}, {"bike_id": "77d8f8bde04d66b8f99a446933a9fadf", "fusion_lon": 0.0, "name": "77d8f8bde04d66b8f99a446933a9fadf", "lat": 38.95958133333333, "is_disabled": 0, "is_reserved": 0, "lon": -76.98162633333334, "type": "electric_bike", "fusion_lat": 0.0, "rental_uris": {"android": "https://dc.lft.to/lastmile_qr_scan", "ios": "https://dc.lft.to/lastmile_qr_scan"}}, {"bike_id": "daf710a415756876b1571149bb2c0c9a", "fusion_lon": 0.0, "name": "daf710a415756876b1571149bb2c0c9a", "lat": 38.89841583333333, "is_disabled": 0, "is_reserved": 0, "lon": -77.03267316666667, "type": "electric_scooter", "fusion_lat": 0.0, "rental_uris": {"android": "https://dc.lft.to/lastmile_qr_scan", "ios": "https://dc.lft.to/lastmile_qr_scan"}}, {"bike_id": "0cb059d74da2f95485b1912a29b16cbb", "fusion_lon": 0.0, "name": "0cb059d74da2f95485b1912a29b16cbb", "lat": 38.92081833333334, "is_disabled": 0, "is_reserved": 0, "lon": -77.02726466666667, "type": "electric_scooter", "fusion_lat": 0.0, "rental_uris": {"android": "https://dc.lft.to/lastmile_qr_scan", "ios": "https://dc.lft.to/lastmile_qr_scan"}}, {"bike_id": "4ad7bb094503bf00e75fadfcb8aae9de", "fusion_lon": 0.0, "name": "4ad7bb094503bf00e75fadfcb8aae9de", "lat": 38.92484666666667, "is_disabled": 0, "is_reserved": 0, "lon": -77.0318355, "type": "electric_scooter", "fusion_lat": 0.0, "rental_uris": {"android": "https://dc.lft.to/lastmile_qr_scan", "ios": "https://dc.lft.to/lastmile_qr_scan"}}, {"bike_id": "cbe9d7abdff4da341916d439c38a3ac3", "fusion_lon": 0.0, "name": "cbe9d7abdff4da341916d439c38a3ac3", "lat": 38.93225833333333, "is_disabled": 0, "is_reserved": 0, "lon": -76.99543366666667, "type": "electric_scooter", "fusion_lat": 0.0, "rental_uris": {"android": "https://dc.lft.to/lastmile_qr_scan", "ios": "https://dc.lft.to/lastmile_qr_scan"}}, {"bike_id": "82240058770552f31b704f3504f47414", "fusion_lon": 0.0, "name": "82240058770552f31b704f3504f47414", "lat": 38.91933516666667, "is_disabled": 0, "is_reserved": 0, "lon": -77.04496066666667, "type": "electric_scooter", "fusion_lat": 0.0, "rental_uris": {"android": "https://dc.lft.to/lastmile_qr_scan", "ios": "https://dc.lft.to/lastmile_qr_scan"}}, {"bike_id": "b525f3fba792b98412e96aeba59f0acf", "fusion_lon": 0.0, "name": "b525f3fba792b98412e96aeba59f0acf", "lat": 39.00380466666667, "is_disabled": 0, "is_reserved": 0, "lon": -77.01305566666667, "type": "electric_bike", "fusion_lat": 0.0, "rental_uris": {"android": "https://dc.lft.to/lastmile_qr_scan", "ios": "https://dc.lft.to/lastmile_qr_scan"}},