{"data": {"bikes": [{"type": "electric_scooter", "rental_uris": {"android": "https://dc.lft.to/lastmile_qr_scan", "ios": "https://dc.lft.to/lastmile_qr_scan"}, "name": "c65c776c124843742c7facf5cdae8fff", "lat": 38.921568, "is_reserved": 0, "fusion_lon": 0.0, "fusion_lat": 0.0, "is_disabled": 0, "bike_id": "c65c776c124843742c7facf5cdae8fff", "lon": -77.04231966666667}, {"type": "electric_scooter", "rental_uris": {"android": "https://dc.lft.to/lastmile_qr_scan", "ios": "https://dc.lft.to/lastmile_qr_scan"}, "name": "c863f7e3e99820a8118b9eabf414f8de", "lat": 38.92873266666667, "is_reserved": 0, "fusion_lon": 0.0, "fusion_lat": 0.0, "is_disabled": 0, "bike_id": "c863f7e3e99820a8118b9eabf414f8de", "lon": -77.0137965}, {"type": "electric_scooter", "rental_uris": {"android": "https://dc.lft.to/lastmile_qr_scan", "ios": "https://dc.lft.to/lastmile_qr_scan"}, "name": "39e597a6f15ae55a3bd03ba028028acf", "lat": 38.902883, "is_reserved": 0, "fusion_lon": 0.0, "fusion_lat": 0.0, "is_disabled": 0, "bike_id": "39e597a6f15ae55a3bd03ba028028acf", "lon": -77.05815016666666}, {"type": "electric_scooter", "rental_uris": {"android": "https://dc.lft.to/lastmile_qr_scan", "ios": "https://dc.lft.to/lastmile_qr_scan"}, "name": "9d4b48a5a3e68d806616490f37dc4291", "lat": 38.88494566666667, "is_reserved": 0, "fusion_lon": 0.0, "fusion_lat": 0.0, "is_disabled": 0, "bike_id": "9d4b48a5a3e68d806616490f37dc4291", "lon": -77.0071135}, {"type": "electric_scooter", "rental_uris": {"android": "https://dc.lft.to/lastmile_qr_scan", "ios": "https://dc.lft.to/lastmile_qr_scan"}, "name": "23ef6b58999db76d1a9afc244d71b9c5", "lat": 38.903967333333334, "is_reserved": 0, "fusion_lon": 0.0, "fusion_lat": 0.0, "is_disabled": 0, "bike_id": "23ef6b58999db76d1a9afc244d71b9c5", "lon": -77.04193983333333}, {"type": "electric_scooter", "rental_uris": {"android": "https://dc.lft.to/lastmile_qr_scan", "ios": "https://dc.lft.to/lastmile_qr_scan"}, "name": "be75e3027a064d8253a82851448f4d94", "lat": 38.9185005, "is_reserved": 0, "fusion_lon": 0.0, "fusion_lat": 0.0, "is_disabled": 0, "bike_id": "be75e3027a064d8253a82851448f4d94", "lon": -76.9654575}, {"type": "electric_bike", "rental_uris": {"android": "https://dc.lft.to/lastmile_qr_scan", "ios": "https://dc.lft.to/lastmile_qr_scan"}, "name": "3a97633da7a0cc1dc65b29dd1460a499", "lat": 38.95601, "is_reserved": 0, "fusion_lon": 0.0, "fusion_lat": 0.0, "is_disabled": 0, "bike_id": "3a97633da7a0cc1dc65b29dd1460a499", "lon": -76.96474516666666}, {"type": "electric_scooter", "rental_uris": {"android": "https://dc.lft.to/lastmile_qr_scan", "ios": "https://dc.lft.to/lastmile_qr_scan"}, "name": "82630419557c0ec99a258d749b5759de", "lat": 38.898695833333335, "is_reserved": 0, "fusion_lon": 0.0, "fusion_lat": 0.0, "is_disabled": 0, "bike_id": "82630419557c0ec99a258d749b5759de", "lon": -76.9467885}, {"type": "electric_scooter", "rental_uris": {"android": "https://dc.lft.to/lastmile_qr_scan", "ios": "https://dc.lft.to/lastmile_qr_scan"}, "name": "6004b9066571bc5764596bc9f2bfc331", "lat": 38.91553866666667, "is_reserved": 0, "fusion_lon": 0.0, "fusion_lat": 0.0, "is_disabled": 0, "bike_id": "6004b9066571bc5764596bc9f2bfc331", "lon": -77.03508466666666}, {"type": "electric_scooter", "rental_uris": {"android": "https://dc.lft.to/lastmile_qr_scan", "ios": "https://dc.lft.to/lastmile_qr_scan"}, "name": "97bdb42740dcee8b879c078909d2aea1", "lat": 38.865692833333334, "is_reserved": 0, "fusion_lon": 0.0, "fusion_lat": 0.0, "is_disabled": 0, "bike_id": "97bdb42740dcee8b879c078909d2aea1", "lon": -76.978442}, {"type": "electric_scooter", "rental_uris": {"android": "https://dc.lft.to/lastmile_qr_scan", "ios": "https://dc.lft.to/lastmile_qr_scan"}, "name": "9903be31591e1e99f580fc23b49c6f12", "lat": 38.88615216666667, "is_reserved": 0, "fusion_lon": 0.0, "fusion_lat": 0.0, "is_disabled": 0, "bike_id": "9903be31591e1e99f580fc23b49c6f12", "lon": -77.03210916666667}, {"type": "electric_scooter", "rental_uris": {"android": "https://dc.lft.to/lastmile_qr_scan", "ios": "https://dc.lft.to/lastmile_qr_scan"}, "name": "e4c6396b4b5baae9db29627cd0e873b7", "lat": 38.920329333333335, "is_reserved": 0, "fusion_lon": 0.0, "fusion_lat": 0.0, "is_disabled": 0, "bike_id": "e4c6396b4b5baae9db29627cd0e873b7", "lon": -77.048193}, {"type": "electric_scooter", "rental_uris": {"android": "https://dc.lft.to/lastmile_qr_scan", "ios": "https://dc.lft.to/lastmile_qr_scan"}, "name": "ad21fbc2ad4d2bc9aeb0cab4c90b5017", "lat": 38.897317666666666, "is_reserved": 0, "fusion_lon": 0.0, "fusion_lat": 0.0, "is_disabled": 0, "bike_id": "ad21fbc2ad4d2bc9aeb0cab4c90b5017", "lon": -77.02495883333333}, {"type": "electric_scooter", "rental_uris": {"android": "https://dc.lft.to/lastmile_qr_scan", "ios": "https://dc.lft.to/lastmile_qr_scan"}, "name": "13114bdaf73920072dd736e3ea7180f6", "lat": 38.90743466666667, "is_reserved": 0, "fusion_lon": 0.0, "fusion_lat": 0.0, "is_disabled": 0, "bike_id": "13114bdaf73920072dd736e3ea7180f6", "lon": -76.98343866666667}, {"type": "electric_scooter", "rental_uris": {"android": "https://dc.lft.to/lastmile_qr_scan", "ios": "https://dc.lft.to/lastmile_qr_scan"}, "name": "c0a6241dd5ebbdb66d0a9c02eba97727", "lat": 38.957799333333334, "is_reserved": 0, "fusion_lon": 0.0, "fusion_lat": 0.0, "is_disabled": 0, "bike_id": "c0a6241dd5ebbdb66d0a9c02eba97727", "lon": -77.024664}, {"type": "electric_scooter", "rental_uris": {"android": "https://dc.lft.to/lastmile_qr_scan", "ios": "https://dc.lft.to/lastmile_qr_scan"}, "name": "944ae804855648df2d949bed68747197", "lat": 38.9247085, "is_reserved": 0, "fusion_lon": 0.0, "fusion_lat": 0.0, "is_disabled": 0, "bike_id": "944ae804855648df2d949bed68747197", "lon": -77.05238283333334}, {"type": "electric_scooter", "rental_uris": {"android": "https://dc.lft.to/lastmile_qr_scan", "ios": "https://dc.lft.to/lastmile_qr_scan"}, "name": "1ef9c7cb4a77b408c548e4c79e8faed2", "lat": 38.92444483333333, "is_reserved": 0, "fusion_lon": 0.0, "fusion_lat": 0.0, "is_disabled": 0, "bike_id": "1ef9c7cb4a77b408c548e4c79e8faed2", "lon": -77.0202175}, {"type": "electric_scooter", "rental_uris": {"android": "https://dc.lft.to/lastmile_qr_scan", "ios": "https://dc.lft.to/lastmile_qr_scan"}, "name": "f1315401ae36916709490626649091d3", "lat": 38.93300116666666, "is_reserved": 0, "fusion_lon": 0.0, "fusion_lat": 0.0, "is_disabled": 0, "bike_id": "f1315401ae36916709490626649091d3", "lon": -77.08531233333333}, {"type": "electric_scooter", "rental_uris": {"android": "https://dc.lft.to/lastmile_qr_scan", "ios": "https://dc.lft.to/lastmile_qr_scan"}, "name": "5ca712aad4091a43787dd904b152c455", "lat": 38.89452566666667, "is_reserved": 0, "fusion_lon": 0.0, "fusion_lat": 0.0, "is_disabled": 0, "bike_id": "5ca712aad4091a43787dd904b152c455", "lon": -77.020996}, {"type": "electric_scooter", "rental_uris": {"android": "https://dc.lft.to/lastmile_qr_scan", "ios": "https://dc.lft.to/lastmile_qr_scan"}, "name": "a6d3c081a8c1319fd008af2032f4cd5a", "lat": 38.92518366666667, "is_reserved": 0, "fusion_lon": 0.0, "fusion_lat": 0.0, "is_disabled": 0, "bike_id": "a6d3c081a8c1319fd008af2032f4cd5a", "lon": -76.995679}, {"type": "electric_scooter", "rental_uris": {"android": "https://dc.lft.to/lastmile_qr_scan", "ios": "https://dc.lft.to/lastmile_qr_scan"}, "name": "937d1f2e7071d02b6306490f54a5eef6", "lat": 38.876631333333336, "is_reserved": 0, "fusion_lon": 0.0, "fusion_lat": 0.0, "is_disabled": 0, "bike_id": "937d1f2e7071d02b6306490f54a5eef6", "lon": -76.99371166666667}, {"type": "electric_scooter", "rental_uris": {"android": "https://dc.lft.to/lastmile_qr_scan", "ios": "https://dc.lft.to/lastmile_qr_scan"}, "name": "b00d1efab722b82be3d646033801ea90", "lat": 38.90697866666667, "is_reserved": 0, "fusion_lon": 0.0, "fusion_lat": 0.0, "is_disabled": 0, "bike_id": "b00d1efab722b82be3d646033801ea90", "lon": -77.02701166666667}, {"type": "electric_scooter", "rental_uris": {"android": "https://dc.lft.to/lastmile_qr_scan", "ios": "https://dc.lft.to/lastmile_qr_scan"}, "name": "46da3b157ce309947b183184f7381e24", "lat": 38.92854233333333, "is_reserved": 0, "fusion_lon": 0.0, "fusion_lat": 0.0, "is_disabled": 0, "bike_id": "46da3b157ce309947b183184f7381e24", "lon": -77.05436016666667}, {"type": "electric_scooter", "rental_uris": {"android": "https://dc.lft.to/lastmile_qr_scan", "ios": "https://dc.lft.to/lastmile_qr_scan"}, "name": "25a5e397f39617aaa1038bc0c365aaa6", "lat": 38.902577, "is_reserved": 0, "fusion_lon": 0.0, "fusion_lat": 0.0, "is_disabled": 0, "bike_id": "25a5e397f39617aaa1038bc0c365aaa6", "lon": -77.03193383333333}, {"type": "electric_scooter", "rental_uris": {"android": "https://dc.lft.to/lastmile_qr_scan", "ios": "https://dc.lft.to/lastmile_qr_scan"}, "name": "b3de2cc455f8245955dcf42b61cef7aa", "lat": 38.8860355, "is_reserved": 0, "fusion_lon": 0.0, "fusion_lat": 0.0, "is_disabled": 0, "bike_id": "b3de2cc455f8245955dcf42b61cef7aa", "lon": -77.04511883333333}, {"type": "electric_scooter", "rental_uris": {"android": "https://dc.lft.to/lastmile_qr_scan", "ios": "https://dc.lft.to/lastmile_qr_scan"}, "name": "ff5dfa6d3702ffd520873bd5b77dfdef", "lat": 38.9261185, "is_reserved": 0, "fusion_lon": 0.0, "fusion_lat": 0.0, "is_disabled": 0, "bike_id": "ff5dfa6d3702ffd520873bd5b77dfdef", "lon": -77.02160833333333}, {"type": "electric_scooter", "rental_uris": {"android": "https://dc.lft.to/lastmile_qr_scan", "ios": "https://dc.lft.to/lastmile_qr_scan"}, "name": "35017e53b103968d758966d87a420ff9", "lat": 38.8968935, "is_reserved": 0, "fusion_lon": 0.0, "fusion_lat": 0.0, "is_disabled": 0, "bike_id": "35017e53b103968d758966d87a420ff9", "lon": -77.021203}, {"type": "electric_scooter", "rental_uris": {"android": "https://dc.lft.to/lastmile_qr_scan", "ios": "https://dc.lft.to/lastmile_qr_scan"}, "name": "a43d4aedf15fba361d62cb690626b313", "lat": 38.91971566666667, "is_reserved": 0, "fusion_lon": 0.0, "fusion_lat": 0.0, "is_disabled": 0, "bike_id": "a43d4aedf15fba361d62cb690626b313", "lon": -77.01815883333333}, {"type": "electric_scooter", "rental_uris": {"android": "https://dc.lft.to/lastmile_qr_scan", "ios": "https://dc.lft.to/lastmile_qr_scan"}, "name": "a56e782591a15f6c00bd96ec5d43e475", "lat": 38.87672233333333, "is_reserved": 0, "fusion_lon": 0.0, "fusion_lat": 0.0, "is_disabled": 0, "bike_id": "a56e782591a15f6c00bd96ec5d43e475", "lon": -76.99604033333334}, {"type": "electric_bike", "rental_uris": {"android": "https://dc.lft.to/lastmile_qr_scan", "ios": "https://dc.lft.to/lastmile_qr_scan"}, "name": "2c3248c834700418fde767ff2f50dac6", "lat": 38.805633, "is_reserved": 0, "fusion_lon": 0.0, "fusion_lat": 0.0, "is_disabled": 0, "bike_id": "2c3248c834700418fde767ff2f50dac6", "lon": -77.13225833333334}, {"type": "electric_scooter", "rental_uris": {"android": "https://dc.lft.to/lastmile_qr_scan", "ios": "https://dc.lft.to/lastmile_qr_scan"}, "name": "8506cb1de502db6d5baab1149b84e03d", "lat": 38.88059483333333, "is_reserved": 0, "fusion_lon": 0.0, "fusion_lat": 0.0, "is_disabled": 0, "bike_id": "8506cb1de502db6d5baab1149b84e03d", "lon": -77.02556466666667}, {"type": "electric_scooter", "rental_uris": {"android": "https://dc.lft.to/lastmile_qr_scan", "ios": "https://dc.lft.to/lastmile_qr_scan"}, "name": "b01361fa77d50981e505ab19b730d758", "lat": 38.90275333333334, "is_reserved": 0, "fusion_lon": 0.0, "fusion_lat": 0.0, "is_disabled": 0, "bike_id": "b01361fa77d50981e505ab19b730d758", "lon": -77.03353583333333}, {"type": "electric_bike", "rental_uris": {"android": "https://dc.lft.to/lastmile_qr_scan", "ios": "https://dc.lft.to/lastmile_qr_scan"}, "name": "dd97d7f0a930984918ff98ff28f07c0c", "lat": 38.8708235, "is_reserved": 0, "fusion_lon": 0.0, "fusion_lat": 0.0, "is_disabled": 0, "bike_id": "dd97d7f0a930984918ff98ff28f07c0c", "lon": -77.01194383333333}, {"type": "electric_scooter", "rental_uris": {"android": "https://dc.lft.to/lastmile_qr_scan", "ios": "https://dc.lft.to/lastmile_qr_scan"}, "name": "d0249c6d97b7b684bbbab72110c59ae6", "lat": 38.9164415, "is_reserved": 0, "fusion_lon": 0.0, "fusion_lat": 0.0, "is_disabled": 0, "bike_id": "d0249c6d97b7b684bbbab72110c59ae6", "lon": -77.02255216666667}, {"type": "electric_scooter", "rental_uris": {"android": "https://dc.lft.to/lastmile_qr_scan", "ios": "https://dc.lft.to/lastmile_qr_scan"}, "name": "19a04d601dd6a5ae7be41415d498c7a6", "lat": 38.895490833333334, "is_reserved": 0, "fusion_lon": 0.0, "fusion_lat": 0.0, "is_disabled": 0, "bike_id": "19a04d601dd6a5ae7be41415d498c7a6", "lon": -76.98337483333333}, {"type": "electric_bike", "rental_uris": {"android": "https://dc.lft.to/lastmile_qr_scan", "ios": "https://dc.lft.to/lastmile_qr_scan"}, "name": "d729fb48bad75a32b3d1d77e756e978a", "lat": 38.9479905, "is_reserved": 0, "fusion_lon": 0.0, "fusion_lat": 0.0, "is_disabled": 0, "bike_id": "d729fb48bad75a32b3d1d77e756e978a", "lon": -76.94248466666667}, {"type": "electric_scooter", "rental_uris": {"android": "https://dc.lft.to/lastmile_qr_scan", "ios": "https://dc.lft.to/lastmile_qr_scan"}, "name": "e151be8d216b9e66f32b52fcab426af8", "lat": 38.916995, "is_reserved": 0, "fusion_lon": 0.0, "fusion_lat": 0.0, "is_disabled": 0, "bike_id": "e151be8d216b9e66f32b52fcab426af8", "lon": -77.03132883333333}, {"type": "electric_scooter", "rental_uris": {"android": "https://dc.lft.to/lastmile_qr_scan", "ios": "https://dc.lft.to/lastmile_qr_scan"}, "name": "dfc16f275ab3fe8befc4e01fba630503", "lat": 38.883414, "is_reserved": 0, "fusion_lon": 0.0, "fusion_lat": 0.0, "is_disabled": 0, "bike_id": "dfc16f275ab3fe8befc4e01fba630503", "lon": -76.9428685}, {"type": "electric_bike", "rental_uris": {"android": "https://dc.lft.to/lastmile_qr_scan", "ios": "https://dc.lft.to/lastmile_qr_scan"}, "name": "bb4143e7ff7ccda86ec3dfa535a13cad", "lat": 38.8987845, "is_reserved": 0, "fusion_lon": 0.0, "fusion_lat": 0.0, "is_disabled": 0, "bike_id": "bb4143e7ff7ccda86ec3dfa535a13cad", "lon": -76.93185166666666}, {"type": "electric_scooter", "rental_uris": {"android": "https://dc.lft.to/lastmile_qr_scan", "ios": "https://dc.lft.to/lastmile_qr_scan"}, "name": "d535d4d3673502baefabf7aef2b6d834", "lat": 38.90273116666667, "is_reserved": 0, "fusion_lon": 0.0, "fusion_lat": 0.0, "is_disabled": 0, "bike_id": "d535d4d3673502baefabf7aef2b6d834", "lon": -77.02761666666666}, {"type": "electric_scooter", "rental_uris": {"android": "https://dc.lft.to/lastmile_qr_scan", "ios": "https://dc.lft.to/lastmile_qr_scan"}, "name": "1d3907b8ba8e7d67f068c14df19c5db2", "lat": 38.884276666666665, "is_reserved": 0, "fusion_lon": 0.0, "fusion_lat": 0.0, "is_disabled": 0, "bike_id": "1d3907b8ba8e7d67f068c14df19c5db2", "lon": -77.02558166666667}, {"type": "electric_scooter", "rental_uris": {"android": "https://dc.lft.to/lastmile_qr_scan", "ios": "https://dc.lft.to/lastmile_qr_scan"}, "name": "4d008438aba175586810f243d2e2fd7a", "lat": 38.8793565, "is_reserved": 0, "fusion_lon": 0.0, "fusion_lat": 0.0, "is_disabled": 0, "bike_id": "4d008438aba175586810f243d2e2fd7a", "lon": -77.003757}, {"type": "electric_scooter", "rental_uris": {"android": "https://dc.lft.to/lastmile_qr_scan", "ios": "https://dc.lft.to/lastmile_qr_scan"}, "name": "8db1bd9097db0325bfa2afbe6b68e421", "lat": 38.90355066666667, "is_reserved": 0, "fusion_lon": 0.0, "fusion_lat": 0.0, "is_disabled": 0, "bike_id": "8db1bd9097db0325bfa2afbe6b68e421", "lon": -77.032034}, {"type": "electric_scooter", "rental_uris": {"android": "https://dc.lft.to/lastmile_qr_scan", "ios": "https://dc.lft.to/lastmile_qr_scan"}, "name": "c968a7c34335143bef17df6147c06a58", "lat": 38.9087855, "is_reserved": 0, "fusion_lon": 0.0, "fusion_lat": 0.0, "is_disabled": 0, "bike_id": "c968a7c34335143bef17df6147c06a58", "lon": -77.07524516666666}, {"type": "electric_bike", "rental_uris": {"android": "https://dc.lft.to/lastmile_qr_scan", "ios": "https://dc.lft.to/lastmile_qr_scan"}, "name": "ada7da43cb6f1ba3bc11478860929e42", "lat": 38.90031483333333, "is_reserved": 0, "fusion_lon": 0.0, "fusion_lat": 0.0, "is_disabled": 0, "bike_id": "ada7da43cb6f1ba3bc11478860929e42", "lon": -76.97224116666666}, {"type": "electric_scooter", "rental_uris": {"android": "https://dc.lft.to/lastmile_qr_scan", "ios": "https://dc.lft.to/lastmile_qr_scan"}, "name": "7b6ebf464dac5e04d61f5a17c6656cc8", "lat": 38.902788, "is_reserved": 0, "fusion_lon": 0.0, "fusion_lat": 0.0, "is_disabled": 0, "bike_id": "7b6ebf464dac5e04d61f5a17c6656cc8", "lon": -77.0346975}, {"type": "electric_scooter", "rental_uris": {"android": "https://dc.lft.to/lastmile_qr_scan", "ios": "https://dc.lft.to/lastmile_qr_scan"}, "name": "0f1b35e1106cbcb7a50e565fe9595291", "lat": 38.91518283333333, "is_reserved": 0, "fusion_lon": 0.0, "fusion_lat": 0.0, "is_disabled": 0, "bike_id": "0f1b35e1106cbcb7a50e565fe9595291", "lon": -77.0122515}, {"type": "electric_scooter", "rental_uris": {"android": "https://dc.lft.to/lastmile_qr_scan", "ios": "https://dc.lft.to/lastmile_qr_scan"}, "name": "bdd4c04dd35bd434df28a3d1902a3d5b", "lat": 38.965021666666665, "is_reserved": 0, "fusion_lon": 0.0, "fusion_lat": 0.0, "is_disabled": 0, "bike_id": "bdd4c04dd35bd434df28a3d1902a3d5b", "lon": -77.00260616666667}, {"type": "electric_scooter", "rental_uris": {"android": "https://dc.lft.to/lastmile_qr_scan", "ios": "https://dc.lft.to/lastmile_qr_scan"}, "name": "32bcee4544bc9265ac316c956b8c3ff5", "lat": 38.92022766666667, "is_reserved": 0, "fusion_lon": 0.0, "fusion_lat": 0.0, "is_disabled": 0, "bike_id": "32bcee4544bc9265ac316c956b8c3ff5", "lon": -77.02804633333334}, {"type": "electric_scooter", "rental_uris": {"android": "https://dc.lft.to/lastmile_qr_scan", "ios": "https://dc.lft.to/lastmile_qr_scan"}, "name": "c605511eabc36d8668467a145ad0b125", "lat": 38.898845333333334, "is_reserved": 0, "fusion_lon": 0.0, "fusion_lat": 0.0, "is_disabled": 0, "bike_id": "c605511eabc36d8668467a145ad0b125", "lon": -77.033177}, {"type": "electric_bike", "rental_uris": {"android": "https://dc.lft.to/lastmile_qr_scan", "ios": "https://dc.lft.to/lastmile_qr_scan"}, "name": "b8602fba584026e986bdc94d25c97ba7", "lat": 38.898879666666666, "is_reserved": 0, "fusion_lon": 0.0, "fusion_lat": 0.0, "is_disabled": 0, "bike_id": "b8602fba584026e986bdc94d25c97ba7", "lon": -76.98569633333334}, {"type": "electric_scooter", "rental_uris": {"android": "https://dc.lft.to/lastmile_qr_scan", "ios": "https://dc.lft.to/lastmile_qr_scan"}, "name": "bd95482755bc69a513c762fa05926f03", "lat": 38.91978316666667, "is_reserved": 0, "fusion_lon": 0.0, "fusion_lat": 0.0, "is_disabled": 0, "bike_id": "bd95482755bc69a513c762fa05926f03", "lon": -77.02180483333333}, {"type": "electric_scooter", "rental_uris": {"android": "https://dc.lft.to/lastmile_qr_scan", "ios": "https://dc.lft.to/lastmile_qr_scan"}, "name": "c30434e91d5eb726719ef66c2cdae4b4", "lat": 38.8839475, "is_reserved": 0, "fusion_lon": 0.0, "fusion_lat": 0.0, "is_disabled": 0, "bike_id": "c30434e91d5eb726719ef66c2cdae4b4", "lon": -76.98839783333334}, {"type": "electric_scooter", "rental_uris": {"android": "https://dc.lft.to/lastmile_qr_scan", "ios": "https://dc.lft.to/lastmile_qr_scan"}, "name": "06d5b76a6e63049d9897c0880f7f84eb", "lat": 38.92659733333333, "is_reserved": 0, "fusion_lon": 0.0, "fusion_lat": 0.0, "is_disabled": 0, "bike_id": "06d5b76a6e63049d9897c0880f7f84eb", "lon": -77.03728066666666}, {"type": "electric_scooter", "rental_uris": {"android": "https://dc.lft.to/lastmile_qr_scan", "ios": "https://dc.lft.to/lastmile_qr_scan"}, "name": "a9e9d5c523e7cb5888f34da8de240073", "lat": 38.916988833333335, "is_reserved": 0, "fusion_lon": 0.0, "fusion_lat": 0.0, "is_disabled": 0, "bike_id": "a9e9d5c523e7cb5888f34da8de240073", "lon": -77.04335666666667}, {"type": "electric_scooter", "rental_uris": {"android": "https://dc.lft.to/lastmile_qr_scan", "ios": "https://dc.lft.to/lastmile_qr_scan"}, "name": "1ad149cff2ae9e1d2620a0fe69bdf75c", "lat": 38.91007483333333, "is_reserved": 0, "fusion_lon": 0.0, "fusion_lat": 0.0, "is_disabled": 0, "bike_id": "1ad149cff2ae9e1d2620a0fe69bdf75c", "lon": -76.99396383333334}, {"type": "electric_scooter", "rental_uris": {"android": "https://dc.lft.to/lastmile_qr_scan", "ios": "https://dc.lft.to/lastmile_qr_scan"}, "name": "21d729121456236ad2c2a660212215b2", "lat": 38.9050815, "is_reserved": 0, "fusion_lon": 0.0, "fusion_lat": 0.0, "is_disabled": 0, "bike_id": "21d729121456236ad2c2a660212215b2", "lon": -77.0450955}, {"type": "electric_scooter", "rental_uris": {"android": "https://dc.lft.to/lastmile_qr_scan", "ios": "https://dc.lft.to/lastmile_qr_scan"}, "name": "9267f742c09f577ff64eb3a2f82f40e0", "lat": 38.890471833333336, "is_reserved": 0, "fusion_lon": 0.0, "fusion_lat": 0.0, "is_disabled": 0, "bike_id": "9267f742c09f577ff64eb3a2f82f40e0", "lon": -76.93756483333334}, {"type": "electric_scooter", "rental_uris": {"android": "https://dc.lft.to/lastmile_qr_scan", "ios": "https://dc.lft.to/lastmile_qr_scan"}, "name": "b061be67ae3339e3dc72251f2eca96f9", "lat": 38.91180416666667, "is_reserved": 0, "fusion_lon": 0.0, "fusion_lat": 0.0, "is_disabled": 0, "bike_id": "b061be67ae3339e3dc72251f2eca96f9", "lon": -77.02959266666667}, {"type": "electric_scooter", "rental_uris": {"android": "https://dc.lft.to/lastmile_qr_scan", "ios": "https://dc.lft.to/lastmile_qr_scan"}, "name": "9fcdac67a77caa653d93a7f5ff6b5417", "lat": 38.888329166666665, "is_reserved": 0, "fusion_lon": 0.0, "fusion_lat": 0.0, "is_disabled": 0, "bike_id": "9fcdac67a77caa653d93a7f5ff6b5417", "lon": -76.98691566666666}, {"type": "electric_bike", "rental_uris": {"android": "https://dc.lft.to/lastmile_qr_scan", "ios": "https://dc.lft.to/lastmile_qr_scan"}, "name": "99350121ee3f84734f57c8786b7397d3", "lat": 39.0843155, "is_reserved": 0, "fusion_lon": 0.0, "fusion_lat": 0.0, "is_disabled": 0, "bike_id": "99350121ee3f84734f57c8786b7397d3", "lon": -76.95145666666667}, {"type": "electric_scooter", "rental_uris": {"android": "https://dc.lft.to/lastmile_qr_scan", "ios": "https://dc.lft.to/lastmile_qr_scan"}, "name": "78607a952033fc8e758bb1a292b86130", "lat": 38.900196333333334, "is_reserved": 0, "fusion_lon": 0.0, "fusion_lat": 0.0, "is_disabled": 0, "bike_id": "78607a952033fc8e758bb1a292b86130", "lon": -77.03336066666667}, {"type": "electric_scooter", "rental_uris": {"android": "https://dc.lft.to/lastmile_qr_scan", "ios": "https://dc.lft.to/lastmile_qr_scan"}, "name": "9b36ce89a7644498fad501493ce5a8fb", "lat": 38.91854433333334, "is_reserved": 0, "fusion_lon": 0.0, "fusion_lat": 0.0, "is_disabled": 0, "bike_id": "9b36ce89a7644498fad501493ce5a8fb", "lon": -77.02534383333334}, {"type": "electric_scooter", "rental_uris": {"android": "https://dc.lft.to/lastmile_qr_scan", "ios": "https://dc.lft.to/lastmile_qr_scan"}, "name": "6bbedc636e3782f63cdce7883b6f5992", "lat": 38.90281916666667, "is_reserved": 0, "fusion_lon": 0.0, "fusion_lat": 0.0, "is_disabled": 0, "bike_id": "6bbedc636e3782f63cdce7883b6f5992", "lon": -77.04610116666667}, {"type": "electric_scooter", "rental_uris": {"android": "https://dc.lft.to/lastmile_qr_scan", "ios": "https://dc.lft.to/lastmile_qr_scan"}, "name": "affd747b37778d95358b0a371acb84f8", "lat": 38.902778, "is_reserved": 0, "fusion_lon": 0.0, "fusion_lat": 0.0, "is_disabled": 0, "bike_id": "affd747b37778d95358b0a371acb84f8", "lon": -77.02408816666667}, {"type": "electric_scooter", "rental_uris": {"android": "https://dc.lft.to/lastmile_qr_scan", "ios": "https://dc.lft.to/lastmile_qr_scan"}, "name": "10ab19cbd2f70901aa7229e63d408d3a", "lat": 38.892662, "is_reserved": 0, "fusion_lon": 0.0, "fusion_lat": 0.0, "is_disabled": 0, "bike_id": "10ab19cbd2f70901aa7229e63d408d3a", "lon": -77.04206616666667}, {"type": "electric_scooter", "rental_uris": {"android": "https://dc.lft.to/lastmile_qr_scan", "ios": "https://dc.lft.to/lastmile_qr_scan"}, "name": "f00c8944c614aebf8a6c96c6a58ee7ac", "lat": 38.919277666666666, "is_reserved": 0, "fusion_lon": 0.0, "fusion_lat": 0.0, "is_disabled": 0, "bike_id": "f00c8944c614aebf8a6c96c6a58ee7ac", "lon": -77.00994783333333}, {"type": "electric_scooter", "rental_uris": {"android": "https://dc.lft.to/lastmile_qr_scan", "ios": "https://dc.lft.to/lastmile_qr_scan"}, "name": "93d1a3ab9e09d56298412f2aea87428e", "lat": 38.92453316666667, "is_reserved": 0, "fusion_lon": 0.0, "fusion_lat": 0.0, "is_disabled": 0, "bike_id": "93d1a3ab9e09d56298412f2aea87428e", "lon": -77.02159333333333}, {"type": "electric_bike", "rental_uris": {"android": "https://dc.lft.to/lastmile_qr_scan", "ios": "https://dc.lft.to/lastmile_qr_scan"}, "name": "5f1010c931a813d75209d49ba544fef9", "lat": 38.94538266666667, "is_reserved": 0, "fusion_lon": 0.0, "fusion_lat": 0.0, "is_disabled": 0, "bike_id": "5f1010c931a813d75209d49ba544fef9", "lon": -77.34461633333333}, {"type": "electric_scooter", "rental_uris": {"android": "https://dc.lft.to/lastmile_qr_scan", "ios": "https://dc.lft.to/lastmile_qr_scan"}, "name": "f1291e52bdf66f772432ceb03a0ec777", "lat": 38.91991983333333, "is_reserved": 0, "fusion_lon": 0.0, "fusion_lat": 0.0, "is_disabled": 0, "bike_id": "f1291e52bdf66f772432ceb03a0ec777", "lon": -77.01785583333333}, {"type": "electric_scooter", "rental_uris": {"android": "https://dc.lft.to/lastmile_qr_scan", "ios": "https://dc.lft.to/lastmile_qr_scan"}, "name": "d3161f51ac30f42e6d5d24f43fb0ef29", "lat": 38.90848883333334, "is_reserved": 0, "fusion_lon": 0.0, "fusion_lat": 0.0, "is_disabled": 0, "bike_id": "d3161f51ac30f42e6d5d24f43fb0ef29", "lon": -76.99803733333333}, {"type": "electric_scooter", "rental_uris": {"android": "https://dc.lft.to/lastmile_qr_scan", "ios": "https://dc.lft.to/lastmile_qr_scan"}, "name": "b15efc61ebe4d5a34aa8d8a8186b7a3d", "lat": 38.90395616666667, "is_reserved": 0, "fusion_lon": 0.0, "fusion_lat": 0.0, "is_disabled": 0, "bike_id": "b15efc61ebe4d5a34aa8d8a8186b7a3d", "lon": -77.043342}, {"type": "electric_scooter", "rental_uris": {"android": "https://dc.lft.to/lastmile_qr_scan", "ios": "https://dc.lft.to/lastmile_qr_scan"}, "name": "807c0671de4d48bfaf5153805e910ce1", "lat": 38.91994183333333, "is_reserved": 0, "fusion_lon": 0.0, "fusion_lat": 0.0, "is_disabled": 0, "bike_id": "807c0671de4d48bfaf5153805e910ce1", "lon": -77.01798083333334}, {"type": "electric_scooter", "rental_uris": {"android": "https://dc.lft.to/lastmile_qr_scan", "ios": "https://dc.lft.to/lastmile_qr_scan"}, "name": "0a1527d83c329cc69793e91e743b442f", "lat": 38.921398333333336, "is_reserved": 0, "fusion_lon": 0.0, "fusion_lat": 0.0, "is_disabled": 0, "bike_id": "0a1527d83c329cc69793e91e743b442f", "lon": -77.0180035}, {"type": "electric_scooter", "rental_uris": {"android": "https://dc.lft.to/lastmile_qr_scan", "ios": "https://dc.lft.to/lastmile_qr_scan"}, "name": "05cb191424cb6c7f92fb114cf6a88fb5", "lat": 38.91666, "is_reserved": 0, "fusion_lon": 0.0, "fusion_lat": 0.0, "is_disabled": 0, "bike_id": "05cb191424cb6c7f92fb114cf6a88fb5", "lon": -77.03855133333333}, {"type": "electric_scooter", "rental_uris": {"android": "https://dc.lft.to/lastmile_qr_scan", "ios": "https://dc.lft.to/lastmile_qr_scan"}, "name": "904d9ac1b809550d310689b05d395aae", "lat": 38.886593833333336, "is_reserved": 0, "fusion_lon": 0.0, "fusion_lat": 0.0, "is_disabled": 0, "bike_id": "904d9ac1b809550d310689b05d395aae", "lon": -76.9367625}, {"type": "electric_scooter", "rental_uris": {"android": "https://dc.lft.to/lastmile_qr_scan", "ios": "https://dc.lft.to/lastmile_qr_scan"}, "name": "bfe148b755732113badb921f02d53e71", "lat": 38.91927783333333, "is_reserved": 0, "fusion_lon": 0.0, "fusion_lat": 0.0, "is_disabled": 0, "bike_id": "bfe148b755732113badb921f02d53e71", "lon": -77.04638516666667}, {"type": "electric_bike", "rental_uris": {"android": "https://dc.lft.to/lastmile_qr_scan", "ios": "https://dc.lft.to/lastmile_qr_scan"}, "name": "afee0403a7cd5d4b44e6cf34b5a9ab64", "lat": 39.00715983333333, "is_reserved": 0, "fusion_lon": 0.0, "fusion_lat": 0.0, "is_disabled": 0, "bike_id": "afee0403a7cd5d4b44e6cf34b5a9ab64", "lon": -76.98137566666666}, {"type": "electric_scooter", "rental_uris": {"android": "https://dc.lft.to/lastmile_qr_scan", "ios": "https://dc.lft.to/lastmile_qr_scan"}, "name": "2fd9b4aaebc44db6ea64560fbac9686c", "lat": 38.9170905, "is_reserved": 0, "fusion_lon": 0.0, "fusion_lat": 0.0, "is_disabled": 0, "bike_id": "2fd9b4aaebc44db6ea64560fbac9686c", "lon": -77.04145583333333}, {"type": "electric_scooter", "rental_uris": {"android": "https://dc.lft.to/lastmile_qr_scan", "ios": "https://dc.lft.to/lastmile_qr_scan"}, "name": "01c90aa21eb86b77ec792e27197639c8", "lat": 38.94305633333333, "is_reserved": 0, "fusion_lon": 0.0, "fusion_lat": 0.0, "is_disabled": 0, "bike_id": "01c90aa21eb86b77ec792e27197639c8", "lon": -77.05931416666667}, {"type": "electric_scooter", "rental_uris": {"android": "https://dc.lft.to/lastmile_qr_scan", "ios": "https://dc.lft.to/lastmile_qr_scan"}, "name": "5eb568507c93c511cd3b58ce369b7b72", "lat": 38.923469, "is_reserved": 0, "fusion_lon": 0.0, "fusion_lat": 0.0, "is_disabled": 0, "bike_id": "5eb568507c93c511cd3b58ce369b7b72", "lon": -77.03636533333334}, {"type": "electric_scooter", "rental_uris": {"android": "https://dc.lft.to/lastmile_qr_scan", "ios": "https://dc.lft.to/lastmile_qr_scan"}, "name": "6feaf9eda9b6537a4a6752832c576742", "lat": 38.90274616666667, "is_reserved": 0, "fusion_lon": 0.0, "fusion_lat": 0.0, "is_disabled": 0, "bike_id": "6feaf9eda9b6537a4a6752832c576742", "lon": -77.01783466666667}, {"type": "electric_scooter", "rental_uris": {"android": "https://dc.lft.to/lastmile_qr_scan", "ios": "https://dc.lft.to/lastmile_qr_scan"}, "name": "535cad21111acc9d32a8c9c10a63d2ee", "lat": 38.89632983333333, "is_reserved": 0, "fusion_lon": 0.0, "fusion_lat": 0.0, "is_disabled": 0, "bike_id": "535cad21111acc9d32a8c9c10a63d2ee", "lon": -77.02678566666667}, {"type": "electric_scooter", "rental_uris": {"android": "https://dc.lft.to/lastmile_qr_scan", "ios": "https://dc.lft.to/lastmile_qr_scan"}, "name": "84c5a1f2e89c6c00626500ac7bacbf8d", "lat": 38.91818716666667, "is_reserved": 0, "fusion_lon": 0.0, "fusion_lat": 0.0, "is_disabled": 0, "bike_id": "84c5a1f2e89c6c00626500ac7bacbf8d", "lon": -77.02474416666666}, {"type": "electric_scooter", "rental_uris": {"android": "https://dc.lft.to/lastmile_qr_scan", "ios": "https://dc.lft.to/lastmile_qr_scan"}, "name": "3c2f981449058319d2b6b7f0766d32af", "lat": 38.928375333333335, "is_reserved": 0, "fusion_lon": 0.0, "fusion_lat": 0.0, "is_disabled": 0, "bike_id": "3c2f981449058319d2b6b7f0766d32af", "lon": -77.0328355}, {"type": "electric_scooter", "rental_uris": {"android": "https://dc.lft.to/lastmile_qr_scan", "ios": "https://dc.lft.to/lastmile_qr_scan"}, "name": "3fb826de213264e63e2c9b68f49b1972", "lat": 38.90269466666667, "is_reserved": 0, "fusion_lon": 0.0, "fusion_lat": 0.0, "is_disabled": 0, "bike_id": "3fb826de213264e63e2c9b68f49b1972", "lon": -77.02941716666666}, {"type": "electric_bike", "rental_uris": {"android": "https://dc.lft.to/lastmile_qr_scan", "ios": "https://dc.lft.to/lastmile_qr_scan"}, "name": "39e3de24024bc556b0e7a4e03f75f6be", "lat": 38.84894966666667, "is_reserved": 0, "fusion_lon": 0.0, "fusion_lat": 0.0, "is_disabled": 0, "bike_id": "39e3de24024bc556b0e7a4e03f75f6be", "lon": -77.07795366666667}, {"type": "electric_scooter", "rental_uris": {"android": "https://dc.lft.to/lastmile_qr_scan", "ios": "https://dc.lft.to/lastmile_qr_scan"}, "name": "c3b352978de9bac5bbfc8214cd2d2c20", "lat": 38.92479483333334, "is_reserved": 0, "fusion_lon": 0.0, "fusion_lat": 0.0, "is_disabled": 0, "bike_id": "c3b352978de9bac5bbfc8214cd2d2c20", "lon": -77.00886966666667}, {"type": "electric_scooter", "rental_uris": {"android": "https://dc.lft.to/lastmile_qr_scan", "ios": "https://dc.lft.to/lastmile_qr_scan"}, "name": "4725aaf3703c48607903d36ebee098af", "lat": 38.900293833333336, "is_reserved": 0, "fusion_lon": 0.0, "fusion_lat": 0.0, "is_disabled": 0, "bike_id": "4725aaf3703c48607903d36ebee098af", "lon": -77.017714}, {"type": "electric_scooter", "rental_uris": {"android": "https://dc.lft.to/lastmile_qr_scan", "ios": "https://dc.lft.to/lastmile_qr_scan"}, "name": "ff26ab625a29c1c80dcd6512e4b22080", "lat": 38.90789383333333, "is_reserved": 0, "fusion_lon": 0.0, "fusion_lat": 0.0, "is_disabled": 0, "bike_id": "ff26ab625a29c1c80dcd6512e4b22080", "lon": -76.9942075}, {"type": "electric_scooter", "rental_uris": {"android": "https://dc.lft.to/lastmile_qr_scan", "ios": "https://dc.lft.to/lastmile_qr_scan"}, "name": "7255a003922241ea1dd3730ddb1ca3f2", "lat": 38.903894, "is_reserved": 0, "fusion_lon": 0.0, "fusion_lat": 0.0, "is_disabled": 0, "bike_id": "7255a003922241ea1dd3730ddb1ca3f2", "lon": -77.028249}, {"type": "electric_scooter", "rental_uris": {"android": "https://dc.lft.to/lastmile_qr_scan", "ios": "https://dc.lft.to/lastmile_qr_scan"}, "name": "961216f3b493b0e33f9d0fabaaa928b0", "lat": 38.88501816666667, "is_reserved": 0, "fusion_lon": 0.0, "fusion_lat": 0.0, "is_disabled": 0, "bike_id": "961216f3b493b0e33f9d0fabaaa928b0", "lon": -77.00222066666667}, {"type": "electric_scooter", "rental_uris": {"android": "https://dc.lft.to/lastmile_qr_scan", "ios": "https://dc.lft.to/lastmile_qr_scan"}, "name": "ba87f077cdab8a18306b74c5ed55d875", "lat": 38.926022833333334, "is_reserved": 0, "fusion_lon": 0.0, "fusion_lat": 0.0, "is_disabled": 0, "bike_id": "ba87f077cdab8a18306b74c5ed55d875", "lon": -77.02155983333333}, {"type": "electric_scooter", "rental_uris": {"android": "https://dc.lft.to/lastmile_qr_scan", "ios": "https://dc.lft.to/lastmile_qr_scan"}, "name": "b71dacefd40e8e3d54597aa804670f0f", "lat": 38.913592666666666, "is_reserved": 0, "fusion_lon": 0.0, "fusion_lat": 0.0, "is_disabled": 0, "bike_id": "b71dacefd40e8e3d54597aa804670f0f", "lon": -77.01997616666667}, {"type": "electric_bike", "rental_uris": {"android": "https://dc.lft.to/lastmile_qr_scan", "ios": "https://dc.lft.to/lastmile_qr_scan"}, "name": "abb27b9925921bb73c8fac91f075af6d", "lat": 39.0109735, "is_reserved": 0, "fusion_lon": 0.0, "fusion_lat": 0.0, "is_disabled": 0, "bike_id": "abb27b9925921bb73c8fac91f075af6d", "lon": -77.049538}, {"type": "electric_bike", "rental_uris": {"android": "https://dc.lft.to/lastmile_qr_scan", "ios": "https://dc.lft.to/lastmile_qr_scan"}, "name": "59a9e7abb2411d154417e207b707d5bf", "lat": 38.8133265, "is_reserved": 0, "fusion_lon": 0.0, "fusion_lat": 0.0, "is_disabled": 0, "bike_id": "59a9e7abb2411d154417e207b707d5bf", "lon": -77.0509}, {"type": "electric_bike", "rental_uris": {"android": "https://dc.lft.to/lastmile_qr_scan", "ios": "https://dc.lft.to/lastmile_qr_scan"}, "name": "565bdbf6eee944cbeeec8c8bb05d9afd", "lat": 38.9148185, "is_reserved": 0, "fusion_lon": 0.0, "fusion_lat": 0.0, "is_disabled": 0, "bike_id": "565bdbf6eee944cbeeec8c8bb05d9afd", "lon": -77.02199716666667}, {"type": "electric_scooter", "rental_uris": {"android": "https://dc.lft.to/lastmile_qr_scan", "ios": "https://dc.lft.to/lastmile_qr_scan"}, "name": "dbfffd6b3427ea7c8f9ea89d7e6ffb26", "lat": 38.9149475, "is_reserved": 0, "fusion_lon": 0.0, "fusion_lat": 0.0, "is_disabled": 0, "bike_id": "dbfffd6b3427ea7c8f9ea89d7e6ffb26", "lon": -77.0324225}, {"type": "electric_scooter", "rental_uris": {"android": "https://dc.lft.to/lastmile_qr_scan", "ios": "https://dc.lft.to/lastmile_qr_scan"}, "name": "3634039ae66725ac02ff7ee6559aa00b", "lat": 38.912607333333334, "is_reserved": 0, "fusion_lon": 0.0, "fusion_lat": 0.0, "is_disabled": 0, "bike_id": "3634039ae66725ac02ff7ee6559aa00b", "lon": -77.03933516666666}, {"type": "electric_scooter", "rental_uris": {"android": "https://dc.lft.to/lastmile_qr_scan", "ios": "https://dc.lft.to/lastmile_qr_scan"}, "name": "53a8a264ba307eb5873a2b576cdd075a", "lat": 38.92506566666667, "is_reserved": 0, "fusion_lon": 0.0, "fusion_lat": 0.0, "is_disabled": 0, "bike_id": "53a8a264ba307eb5873a2b576cdd075a", "lon": -77.03795916666667}, {"type": "electric_scooter", "rental_uris": {"android": "https://dc.lft.to/lastmile_qr_scan", "ios": "https://dc.lft.to/lastmile_qr_scan"}, "name": "a345d05c3fc98fdb3b46ad065003e506", "lat": 38.87659683333333, "is_reserved": 0, "fusion_lon": 0.0, "fusion_lat": 0.0, "is_disabled": 0, "bike_id": "a345d05c3fc98fdb3b46ad065003e506", "lon": -76.9931845}, {"type": "electric_scooter", "rental_uris": {"android": "https://dc.lft.to/lastmile_qr_scan", "ios": "https://dc.lft.to/lastmile_qr_scan"}, "name": "2e2dba67ac20a6ad190bca89ddde493f", "lat": 38.92168733333333, "is_reserved": 0, "fusion_lon": 0.0, "fusion_lat": 0.0, "is_disabled": 0, "bike_id": "2e2dba67ac20a6ad190bca89ddde493f", "lon": -77.02665666666667}, {"type": "electric_scooter", "rental_uris": {"android": "https://dc.lft.to/lastmile_qr_scan", "ios": "https://dc.lft.to/lastmile_qr_scan"}, "name": "feaf57eaeff7d4ac47cfa07c16e86da5", "lat": 38.913233166666664, "is_reserved": 0, "fusion_lon": 0.0, "fusion_lat": 0.0, "is_disabled": 0, "bike_id": "feaf57eaeff7d4ac47cfa07c16e86da5", "lon": -77.04029933333334}, {"type": "electric_scooter", "rental_uris": {"android": "https://dc.lft.to/lastmile_qr_scan", "ios": "https://dc.lft.to/lastmile_qr_scan"}, "name": "bcaf7a511286c73c14dc5a78ad8fb80f", "lat": 38.88511866666666, "is_reserved": 0, "fusion_lon": 0.0, "fusion_lat": 0.0, "is_disabled": 0, "bike_id": "bcaf7a511286c73c14dc5a78ad8fb80f", "lon": -76.99673466666667}, {"type": "electric_scooter", "rental_uris": {"android": "https://dc.lft.to/lastmile_qr_scan", "ios": "https://dc.lft.to/lastmile_qr_scan"}, "name": "73d5f3870abffc147f29c56b4ccb9d3b", "lat": 38.926126, "is_reserved": 0, "fusion_lon": 0.0, "fusion_lat": 0.0, "is_disabled": 0, "bike_id": "73d5f3870abffc147f29c56b4ccb9d3b", "lon": -77.0216375}, {"type": "electric_scooter", "rental_uris": {"android": "https://dc.lft.to/lastmile_qr_scan", "ios": "https://dc.lft.to/lastmile_qr_scan"}, "name": "be71c7ed20ea160121509f924f8276eb", "lat": 38.9200315, "is_reserved": 0, "fusion_lon": 0.0, "fusion_lat": 0.0, "is_disabled": 0, "bike_id": "be71c7ed20ea160121509f924f8276eb", "lon": -77.0377505}, {"type": "electric_scooter", "rental_uris": {"android": "https://dc.lft.to/lastmile_qr_scan", "ios": "https://dc.lft.to/lastmile_qr_scan"}, "name": "dc727023a38a4ac175611990cd1c7f54", "lat": 38.9199285, "is_reserved": 0, "fusion_lon": 0.0, "fusion_lat": 0.0, "is_disabled": 0, "bike_id": "dc727023a38a4ac175611990cd1c7f54", "lon": -77.01786116666666}, {"type": "electric_scooter", "rental_uris": {"android": "https://dc.lft.to/lastmile_qr_scan", "ios": "https://dc.lft.to/lastmile_qr_scan"}, "name": "a0659136e472914f25779a9717e01fae", "lat": 38.8962925, "is_reserved": 0, "fusion_lon": 0.0, "fusion_lat": 0.0, "is_disabled": 0, "bike_id": "a0659136e472914f25779a9717e01fae", "lon": -77.02373333333334}, {"type": "electric_scooter", "rental_uris": {"android": "https://dc.lft.to/lastmile_qr_scan", "ios": "https://dc.lft.to/lastmile_qr_scan"}, "name": "a2376562182856bcdb551cce4671ce00", "lat": 38.892318833333334, "is_reserved": 0, "fusion_lon": 0.0, "fusion_lat": 0.0, "is_disabled": 0, "bike_id": "a2376562182856bcdb551cce4671ce00", "lon": -77.02382533333333}, {"type": "electric_scooter", "rental_uris": {"android": "https://dc.lft.to/lastmile_qr_scan", "ios": "https://dc.lft.to/lastmile_qr_scan"}, "name": "e75c3bb11cd0c7c485fc543d79df8d77", "lat": 38.95758033333333, "is_reserved": 0, "fusion_lon": 0.0, "fusion_lat": 0.0, "is_disabled": 0, "bike_id": "e75c3bb11cd0c7c485fc543d79df8d77", "lon": -77.0091175}, {"type": "electric_scooter", "rental_uris": {"android": "https://dc.lft.to/lastmile_qr_scan", "ios": "https://dc.lft.to/lastmile_qr_scan"}, "name": "4bb183f5d71d184bb3315a3e64c39ff5", "lat": 38.91956416666667, "is_reserved": 0, "fusion_lon": 0.0, "fusion_lat": 0.0, "is_disabled": 0, "bike_id": "4bb183f5d71d184bb3315a3e64c39ff5", "lon": -77.02470283333334}, {"type": "electric_bike", "rental_uris": {"android": "https://dc.lft.to/lastmile_qr_scan", "ios": "https://dc.lft.to/lastmile_qr_scan"}, "name": "36ba044f127eabadd0620b319202efa1", "lat": 38.92043133333333, "is_reserved": 0, "fusion_lon": 0.0, "fusion_lat": 0.0, "is_disabled": 0, "bike_id": "36ba044f127eabadd0620b319202efa1", "lon": -76.99115083333334}, {"type": "electric_scooter", "rental_uris": {"android": "https://dc.lft.to/lastmile_qr_scan", "ios": "https://dc.lft.to/lastmile_qr_scan"}, "name": "f0d55441b5418dee31e39e107f8eac44", "lat": 38.9260335, "is_reserved": 0, "fusion_lon": 0.0, "fusion_lat": 0.0, "is_disabled": 0, "bike_id": "f0d55441b5418dee31e39e107f8eac44", "lon": -77.0215505}, {"type": "electric_scooter", "rental_uris": {"android": "https://dc.lft.to/lastmile_qr_scan", "ios": "https://dc.lft.to/lastmile_qr_scan"}, "name": "49b7662fd8e7f65d968da1654be843d0", "lat": 38.9234055, "is_reserved": 0, "fusion_lon": 0.0, "fusion_lat": 0.0, "is_disabled": 0, "bike_id": "49b7662fd8e7f65d968da1654be843d0", "lon": -77.0190085}, {"type": "electric_scooter", "rental_uris": {"android": "https://dc.lft.to/lastmile_qr_scan", "ios": "https://dc.lft.to/lastmile_qr_scan"}, "name": "17a586cc36b51cf2c1f4523a55cef3c2", "lat": 38.9435935, "is_reserved": 0, "fusion_lon": 0.0, "fusion_lat": 0.0, "is_disabled": 0, "bike_id": "17a586cc36b51cf2c1f4523a55cef3c2", "lon": -77.06138566666667}, {"type": "electric_scooter", "rental_uris": {"android": "https://dc.lft.to/lastmile_qr_scan", "ios": "https://dc.lft.to/lastmile_qr_scan"}, "name": "6ffbe2085e1c3f5f238ee377cee805c9", "lat": 38.9226735, "is_reserved": 0, "fusion_lon": 0.0, "fusion_lat": 0.0, "is_disabled": 0, "bike_id": "6ffbe2085e1c3f5f238ee377cee805c9", "lon": -77.03396016666666}, {"type": "electric_scooter", "rental_uris": {"android": "https://dc.lft.to/lastmile_qr_scan", "ios": "https://dc.lft.to/lastmile_qr_scan"}, "name": "974e407142262be200feaaa9147a8d13", "lat": 38.954231, "is_reserved": 0, "fusion_lon": 0.0, "fusion_lat": 0.0, "is_disabled": 0, "bike_id": "974e407142262be200feaaa9147a8d13", "lon": -77.0072775}, {"type": "electric_scooter", "rental_uris": {"android": "https://dc.lft.to/lastmile_qr_scan", "ios": "https://dc.lft.to/lastmile_qr_scan"}, "name": "a9a176ec3a2ce05b8521d80611e2b4b4", "lat": 38.91539483333333, "is_reserved": 0, "fusion_lon": 0.0, "fusion_lat": 0.0, "is_disabled": 0, "bike_id": "a9a176ec3a2ce05b8521d80611e2b4b4", "lon": -77.04476983333333}, {"type": "electric_scooter", "rental_uris": {"android": "https://dc.lft.to/lastmile_qr_scan", "ios": "https://dc.lft.to/lastmile_qr_scan"}, "name": "963453b6ddd7a0f45cb18eada6d60247", "lat": 38.90420316666667, "is_reserved": 0, "fusion_lon": 0.0, "fusion_lat": 0.0, "is_disabled": 0, "bike_id": "963453b6ddd7a0f45cb18eada6d60247", "lon": -77.05349566666666}, {"type": "electric_scooter", "rental_uris": {"android": "https://dc.lft.to/lastmile_qr_scan", "ios": "https://dc.lft.to/lastmile_qr_scan"}, "name": "1288f330bb2ed139c5c1821d8925c484", "lat": 38.926396, "is_reserved": 0, "fusion_lon": 0.0, "fusion_lat": 0.0, "is_disabled": 0, "bike_id": "1288f330bb2ed139c5c1821d8925c484", "lon": -77.02505066666667}, {"type": "electric_scooter", "rental_uris": {"android": "https://dc.lft.to/lastmile_qr_scan", "ios": "https://dc.lft.to/lastmile_qr_scan"}, "name": "22c16f8b291bf4de6c25a166868d182f", "lat": 38.93034183333333, "is_reserved": 0, "fusion_lon": 0.0, "fusion_lat": 0.0, "is_disabled": 0, "bike_id": "22c16f8b291bf4de6c25a166868d182f", "lon": -77.01296816666667}, {"type": "electric_scooter", "rental_uris": {"android": "https://dc.lft.to/lastmile_qr_scan", "ios": "https://dc.lft.to/lastmile_qr_scan"}, "name": "4e40d78cf83563d2aa60c4e87a626639", "lat": 38.90034766666667, "is_reserved": 0, "fusion_lon": 0.0, "fusion_lat": 0.0, "is_disabled": 0, "bike_id": "4e40d78cf83563d2aa60c4e87a626639", "lon": -77.04100866666667}, {"type": "electric_scooter", "rental_uris": {"android": "https://dc.lft.to/lastmile_qr_scan", "ios": "https://dc.lft.to/lastmile_qr_scan"}, "name": "2bb8e894a081efe7aefb29194a05f8bf", "lat": 38.930370333333336, "is_reserved": 0, "fusion_lon": 0.0, "fusion_lat": 0.0, "is_disabled": 0, "bike_id": "2bb8e894a081efe7aefb29194a05f8bf", "lon": -77.02967933333333}, {"type": "electric_scooter", "rental_uris": {"android": "https://dc.lft.to/lastmile_qr_scan", "ios": "https://dc.lft.to/lastmile_qr_scan"}, "name": "0a7b5cd6e4cadba41730b17c1c6e32d3", "lat": 38.923472, "is_reserved": 0, "fusion_lon": 0.0, "fusion_lat": 0.0, "is_disabled": 0, "bike_id": "0a7b5cd6e4cadba41730b17c1c6e32d3", "lon": -77.03638283333333}, {"type": "electric_scooter", "rental_uris": {"android": "https://dc.lft.to/lastmile_qr_scan", "ios": "https://dc.lft.to/lastmile_qr_scan"}, "name": "5cef265c01df3b225653da5738c0c227", "lat": 38.92602883333333, "is_reserved": 0, "fusion_lon": 0.0, "fusion_lat": 0.0, "is_disabled": 0, "bike_id": "5cef265c01df3b225653da5738c0c227", "lon": -77.02156216666667}, {"type": "electric_scooter", "rental_uris": {"android": "https://dc.lft.to/lastmile_qr_scan", "ios": "https://dc.lft.to/lastmile_qr_scan"}, "name": "1d862a63eb7615d1ee70fe005d1a4cfa", "lat": 38.91663, "is_reserved": 0, "fusion_lon": 0.0, "fusion_lat": 0.0, "is_disabled": 0, "bike_id": "1d862a63eb7615d1ee70fe005d1a4cfa", "lon": -77.03853866666667}, {"type": "electric_scooter", "rental_uris": {"android": "https://dc.lft.to/lastmile_qr_scan", "ios": "https://dc.lft.to/lastmile_qr_scan"}, "name": "77f96a3f3ee396a04da746a7620e79a3", "lat": 38.9368685, "is_reserved": 0, "fusion_lon": 0.0, "fusion_lat": 0.0, "is_disabled": 0, "bike_id": "77f96a3f3ee396a04da746a7620e79a3", "lon": -77.0599375}, {"type": "electric_scooter", "rental_uris": {"android": "https://dc.lft.to/lastmile_qr_scan", "ios": "https://dc.lft.to/lastmile_qr_scan"}, "name": "fd1a721897945c306ee9cb7f27163371", "lat": 38.90159533333333, "is_reserved": 0, "fusion_lon": 0.0, "fusion_lat": 0.0, "is_disabled": 0, "bike_id": "fd1a721897945c306ee9cb7f27163371", "lon": -77.031757}, {"type": "electric_scooter", "rental_uris": {"android": "https://dc.lft.to/lastmile_qr_scan", "ios": "https://dc.lft.to/lastmile_qr_scan"}, "name": "2471c1f04c84ee487fb255b645a61ac1", "lat": 38.907571, "is_reserved": 0, "fusion_lon": 0.0, "fusion_lat": 0.0, "is_disabled": 0, "bike_id": "2471c1f04c84ee487fb255b645a61ac1", "lon": -77.03087233333333}, {"type": "electric_scooter", "rental_uris": {"android": "https://dc.lft.to/lastmile_qr_scan", "ios": "https://dc.lft.to/lastmile_qr_scan"}, "name": "b037e3b518e7e7b3725a8a96b84b817d", "lat": 38.92967466666666, "is_reserved": 0, "fusion_lon": 0.0, "fusion_lat": 0.0, "is_disabled": 0, "bike_id": "b037e3b518e7e7b3725a8a96b84b817d", "lon": -77.04204383333334}, {"type": "electric_bike", "rental_uris": {"android": "https://dc.lft.to/lastmile_qr_scan", "ios": "https://dc.lft.to/lastmile_qr_scan"}, "name": "0583ce617b753f4848d6c51a2fa5fb96", "lat": 38.863290166666665, "is_reserved": 0, "fusion_lon": 0.0, "fusion_lat": 0.0, "is_disabled": 0, "bike_id": "0583ce617b753f4848d6c51a2fa5fb96", "lon": -76.987198}, {"type": "electric_scooter", "rental_uris": {"android": "https://dc.lft.to/lastmile_qr_scan", "ios": "https://dc.lft.to/lastmile_qr_scan"}, "name": "9a0972bd05eb64b580c33eaadcd32524", "lat": 38.89709716666667, "is_reserved": 0, "fusion_lon": 0.0, "fusion_lat": 0.0, "is_disabled": 0, "bike_id": "9a0972bd05eb64b580c33eaadcd32524", "lon": -77.03136166666667}, {"type": "electric_scooter", "rental_uris": {"android": "https://dc.lft.to/lastmile_qr_scan", "ios": "https://dc.lft.to/lastmile_qr_scan"}, "name": "1fdf09fe94e8c15e92fcc7a746bec8ae", "lat": 38.89836183333333, "is_reserved": 0, "fusion_lon": 0.0, "fusion_lat": 0.0, "is_disabled": 0, "bike_id": "1fdf09fe94e8c15e92fcc7a746bec8ae", "lon": -77.02217833333333}, {"type": "electric_scooter", "rental_uris": {"android": "https://dc.lft.to/lastmile_qr_scan", "ios": "https://dc.lft.to/lastmile_qr_scan"}, "name": "f87cb65d42acdea80da09cb3cbab958f", "lat": 38.9238865, "is_reserved": 0, "fusion_lon": 0.0, "fusion_lat": 0.0, "is_disabled": 0, "bike_id": "f87cb65d42acdea80da09cb3cbab958f", "lon": -77.02139683333333}, {"type": "electric_bike", "rental_uris": {"android": "https://dc.lft.to/lastmile_qr_scan", "ios": "https://dc.lft.to/lastmile_qr_scan"}, "name": "78d629e44a4316cc1fa940ada6a33952", "lat": 38.9725925, "is_reserved": 0, "fusion_lon": 0.0, "fusion_lat": 0.0, "is_disabled": 0, "bike_id": "78d629e44a4316cc1fa940ada6a33952", "lon": -76.992752}, {"type": "electric_scooter", "rental_uris": {"android": "https://dc.lft.to/lastmile_qr_scan", "ios": "https://dc.lft.to/lastmile_qr_scan"}, "name": "086d84e83a9e3afc81bef41da9990d84", "lat": 38.88724066666666, "is_reserved": 0, "fusion_lon": 0.0, "fusion_lat": 0.0, "is_disabled": 0, "bike_id": "086d84e83a9e3afc81bef41da9990d84", "lon": -76.98378183333334}, {"type": "electric_scooter", "rental_uris": {"android": "https://dc.lft.to/lastmile_qr_scan", "ios": "https://dc.lft.to/lastmile_qr_scan"}, "name": "d626d3d1ea4e8a5965ad55ac319c468d", "lat": 38.894806833333334, "is_reserved": 0, "fusion_lon": 0.0, "fusion_lat": 0.0, "is_disabled": 0, "bike_id": "d626d3d1ea4e8a5965ad55ac319c468d", "lon": -77.01902416666667}, {"type": "electric_scooter", "rental_uris": {"android": "https://dc.lft.to/lastmile_qr_scan", "ios": "https://dc.lft.to/lastmile_qr_scan"}, "name": "a8a06014c1b0b24d17ad2d591f51edf9", "lat": 38.920809, "is_reserved": 0, "fusion_lon": 0.0, "fusion_lat": 0.0, "is_disabled": 0, "bike_id": "a8a06014c1b0b24d17ad2d591f51edf9", "lon": -77.02538216666666}, {"type": "electric_scooter", "rental_uris": {"android": "https://dc.lft.to/lastmile_qr_scan", "ios": "https://dc.lft.to/lastmile_qr_scan"}, "name": "b5ffb93fa47a727de4a1280510ecba4d", "lat": 38.900863666666666, "is_reserved": 0, "fusion_lon": 0.0, "fusion_lat": 0.0, "is_disabled": 0, "bike_id": "b5ffb93fa47a727de4a1280510ecba4d", "lon": -77.049087}, {"type": "electric_scooter", "rental_uris": {"android": "https://dc.lft.to/lastmile_qr_scan", "ios": "https://dc.lft.to/lastmile_qr_scan"}, "name": "52d89986e62937df03e206a9ef39ed6c", "lat": 38.92441683333333, "is_reserved": 0, "fusion_lon": 0.0, "fusion_lat": 0.0, "is_disabled": 0, "bike_id": "52d89986e62937df03e206a9ef39ed6c", "lon": -77.021489}, {"type": "electric_scooter", "rental_uris": {"android": "https://dc.lft.to/lastmile_qr_scan", "ios": "https://dc.lft.to/lastmile_qr_scan"}, "name": "7d408225bc60c46e414d2fed21103e0d", "lat": 38.908871500000004, "is_reserved": 0, "fusion_lon": 0.0, "fusion_lat": 0.0, "is_disabled": 0, "bike_id": "7d408225bc60c46e414d2fed21103e0d", "lon": -77.072682}, {"type": "electric_scooter", "rental_uris": {"android": "https://dc.lft.to/lastmile_qr_scan", "ios": "https://dc.lft.to/lastmile_qr_scan"}, "name": "c84e112b5b0ed43d51e669367cf7df90", "lat": 38.9391065, "is_reserved": 0, "fusion_lon": 0.0, "fusion_lat": 0.0, "is_disabled": 0, "bike_id": "c84e112b5b0ed43d51e669367cf7df90", "lon": -77.060396}, {"type": "electric_scooter", "rental_uris": {"android": "https://dc.lft.to/lastmile_qr_scan", "ios": "https://dc.lft.to/lastmile_qr_scan"}, "name": "e2eaf4dd89e4e7e4218571e434e13ab0", "lat": 38.897105333333336, "is_reserved": 0, "fusion_lon": 0.0, "fusion_lat": 0.0, "is_disabled": 0, "bike_id": "e2eaf4dd89e4e7e4218571e434e13ab0", "lon": -77.02728233333333}, {"type": "electric_scooter", "rental_uris": {"android": "https://dc.lft.to/lastmile_qr_scan", "ios": "https://dc.lft.to/lastmile_qr_scan"}, "name": "43932a0a641152e4888f8cfd87706669", "lat": 38.918198333333336, "is_reserved": 0, "fusion_lon": 0.0, "fusion_lat": 0.0, "is_disabled": 0, "bike_id": "43932a0a641152e4888f8cfd87706669", "lon": -77.03439616666667}, {"type": "electric_scooter", "rental_uris": {"android": "https://dc.lft.to/lastmile_qr_scan", "ios": "https://dc.lft.to/lastmile_qr_scan"}, "name": "c10e5e6dea85311525ee260947b02eaf", "lat": 38.92788133333333, "is_reserved": 0, "fusion_lon": 0.0, "fusion_lat": 0.0, "is_disabled": 0, "bike_id": "c10e5e6dea85311525ee260947b02eaf", "lon": -77.03085983333334}, {"type": "electric_bike", "rental_uris": {"android": "https://dc.lft.to/lastmile_qr_scan", "ios": "https://dc.lft.to/lastmile_qr_scan"}, "name": "6ff331322fc623a0a904b9400ac25a5d", "lat": 38.92036516666667, "is_reserved": 0, "fusion_lon": 0.0, "fusion_lat": 0.0, "is_disabled": 0, "bike_id": "6ff331322fc623a0a904b9400ac25a5d", "lon": -76.979563}, {"type": "electric_scooter", "rental_uris": {"android": "https://dc.lft.to/lastmile_qr_scan", "ios": "https://dc.lft.to/lastmile_qr_scan"}, "name": "24ccd95bb08fee37352e735e5ff8dac6", "lat": 38.925656833333335, "is_reserved": 0, "fusion_lon": 0.0, "fusion_lat": 0.0, "is_disabled": 0, "bike_id": "24ccd95bb08fee37352e735e5ff8dac6", "lon": -77.0228175}, {"type": "electric_scooter", "rental_uris": {"android": "https://dc.lft.to/lastmile_qr_scan", "ios": "https://dc.lft.to/lastmile_qr_scan"}, "name": "f5323df64ea2e9c6564a208cd2353931", "lat": 38.902303833333335, "is_reserved": 0, "fusion_lon": 0.0, "fusion_lat": 0.0, "is_disabled": 0, "bike_id": "f5323df64ea2e9c6564a208cd2353931", "lon": -77.0464455}, {"type": "electric_scooter", "rental_uris": {"android": "https://dc.lft.to/lastmile_qr_scan", "ios": "https://dc.lft.to/lastmile_qr_scan"}, "name": "c76adb867b65f8b21f91d9c159f24232", "lat": 38.900247, "is_reserved": 0, "fusion_lon": 0.0, "fusion_lat": 0.0, "is_disabled": 0, "bike_id": "c76adb867b65f8b21f91d9c159f24232", "lon": -77.0409545}, {"type": "electric_scooter", "rental_uris": {"android": "https://dc.lft.to/lastmile_qr_scan", "ios": "https://dc.lft.to/lastmile_qr_scan"}, "name": "0e77a82654d2a50c7490b94e3e76832c", "lat": 38.928931666666664, "is_reserved": 0, "fusion_lon": 0.0, "fusion_lat": 0.0, "is_disabled": 0, "bike_id": "0e77a82654d2a50c7490b94e3e76832c", "lon": -77.0325875}, {"type": "electric_bike", "rental_uris": {"android": "https://dc.lft.to/lastmile_qr_scan", "ios": "https://dc.lft.to/lastmile_qr_scan"}, "name": "ab18f5ad53b05739c39ea5fb15caa88d", "lat": 38.890500833333334, "is_reserved": 0, "fusion_lon": 0.0, "fusion_lat": 0.0, "is_disabled": 0, "bike_id": "ab18f5ad53b05739c39ea5fb15caa88d", "lon": -77.01414766666667}, {"type": "electric_scooter", "rental_uris": {"android": "https://dc.lft.to/lastmile_qr_scan", "ios": "https://dc.lft.to/lastmile_qr_scan"}, "name": "72d4219691fd9d4c57303771685d4b8b", "lat": 38.91553966666667, "is_reserved": 0, "fusion_lon": 0.0, "fusion_lat": 0.0, "is_disabled": 0, "bike_id": "72d4219691fd9d4c57303771685d4b8b", "lon": -77.00721716666666}, {"type": "electric_scooter", "rental_uris": {"android": "https://dc.lft.to/lastmile_qr_scan", "ios": "https://dc.lft.to/lastmile_qr_scan"}, "name": "f196faa708e25bd9b84e1f2bd3486af6", "lat": 38.900375833333335, "is_reserved": 0, "fusion_lon": 0.0, "fusion_lat": 0.0, "is_disabled": 0, "bike_id": "f196faa708e25bd9b84e1f2bd3486af6", "lon": -77.002021}, {"type": "electric_scooter", "rental_uris": {"android": "https://dc.lft.to/lastmile_qr_scan", "ios": "https://dc.lft.to/lastmile_qr_scan"}, "name": "7c1372777dafbf1258d878f10044dd49", "lat": 38.916722166666666, "is_reserved": 0, "fusion_lon": 0.0, "fusion_lat": 0.0, "is_disabled": 0, "bike_id": "7c1372777dafbf1258d878f10044dd49", "lon": -77.02964516666667}, {"type": "electric_scooter", "rental_uris": {"android": "https://dc.lft.to/lastmile_qr_scan", "ios": "https://dc.lft.to/lastmile_qr_scan"}, "name": "2fd3c0c84331c8f28312522b3d0d5308", "lat": 38.899614, "is_reserved": 0, "fusion_lon": 0.0, "fusion_lat": 0.0, "is_disabled": 0, "bike_id": "2fd3c0c84331c8f28312522b3d0d5308", "lon": -77.02818816666667}, {"type": "electric_scooter", "rental_uris": {"android": "https://dc.lft.to/lastmile_qr_scan", "ios": "https://dc.lft.to/lastmile_qr_scan"}, "name": "e1eeb8c841f5e753fb3cab2b89301259", "lat": 38.913265833333334, "is_reserved": 0, "fusion_lon": 0.0, "fusion_lat": 0.0, "is_disabled": 0, "bike_id": "e1eeb8c841f5e753fb3cab2b89301259", "lon": -77.022623}, {"type": "electric_scooter", "rental_uris": {"android": "https://dc.lft.to/lastmile_qr_scan", "ios": "https://dc.lft.to/lastmile_qr_scan"}, "name": "5042d5f9e58a6214cf18e3af7fe37bc8", "lat": 38.939039666666666, "is_reserved": 0, "fusion_lon": 0.0, "fusion_lat": 0.0, "is_disabled": 0, "bike_id": "5042d5f9e58a6214cf18e3af7fe37bc8", "lon": -77.03265333333333}, {"type": "electric_scooter", "rental_uris": {"android": "https://dc.lft.to/lastmile_qr_scan", "ios": "https://dc.lft.to/lastmile_qr_scan"}, "name": "fc8d0490aea2945a61bf46cdc6bf77ad", "lat": 38.92791966666667, "is_reserved": 0, "fusion_lon": 0.0, "fusion_lat": 0.0, "is_disabled": 0, "bike_id": "fc8d0490aea2945a61bf46cdc6bf77ad", "lon": -77.05330183333334}, {"type": "electric_scooter", "rental_uris": {"android": "https://dc.lft.to/lastmile_qr_scan", "ios": "https://dc.lft.to/lastmile_qr_scan"}, "name": "9069a869c75c388795875f73fe064229", "lat": 38.90958283333333, "is_reserved": 0, "fusion_lon": 0.0, "fusion_lat": 0.0, "is_disabled": 0, "bike_id": "9069a869c75c388795875f73fe064229", "lon": -77.03436}, {"type": "electric_scooter", "rental_uris": {"android": "https://dc.lft.to/lastmile_qr_scan", "ios": "https://dc.lft.to/lastmile_qr_scan"}, "name": "7fc1b9089093e1cf52ba643ec8c745ef", "lat": 38.90971366666667, "is_reserved": 0, "fusion_lon": 0.0, "fusion_lat": 0.0, "is_disabled": 0, "bike_id": "7fc1b9089093e1cf52ba643ec8c745ef", "lon": -77.0322095}, {"type": "electric_scooter", "rental_uris": {"android": "https://dc.lft.to/lastmile_qr_scan", "ios": "https://dc.lft.to/lastmile_qr_scan"}, "name": "32ead1b861dfd3590b358659d079ea05", "lat": 38.90032133333333, "is_reserved": 0, "fusion_lon": 0.0, "fusion_lat": 0.0, "is_disabled": 0, "bike_id": "32ead1b861dfd3590b358659d079ea05", "lon": -77.03624183333334}, {"type": "electric_scooter", "rental_uris": {"android": "https://dc.lft.to/lastmile_qr_scan", "ios": "https://dc.lft.to/lastmile_qr_scan"}, "name": "c8519a9b40a91406dd3b3f24b0d389e1", "lat": 38.8952, "is_reserved": 0, "fusion_lon": 0.0, "fusion_lat": 0.0, "is_disabled": 0, "bike_id": "c8519a9b40a91406dd3b3f24b0d389e1", "lon": -76.99211716666667}, {"type": "electric_scooter", "rental_uris": {"android": "https://dc.lft.to/lastmile_qr_scan", "ios": "https://dc.lft.to/lastmile_qr_scan"}, "name": "08d5559ddac8643e9c246c132925e17c", "lat": 38.9557815, "is_reserved": 0, "fusion_lon": 0.0, "fusion_lat": 0.0, "is_disabled": 0, "bike_id": "08d5559ddac8643e9c246c132925e17c", "lon": -77.070107}, {"type": "electric_scooter", "rental_uris": {"android": "https://dc.lft.to/lastmile_qr_scan", "ios": "https://dc.lft.to/lastmile_qr_scan"}, "name": "db461905363408a019ac4b0fdf1a4ce2", "lat": 38.886906833333335, "is_reserved": 0, "fusion_lon": 0.0, "fusion_lat": 0.0, "is_disabled": 0, "bike_id": "db461905363408a019ac4b0fdf1a4ce2", "lon": -76.97639816666667}, {"type": "electric_scooter", "rental_uris": {"android": "https://dc.lft.to/lastmile_qr_scan", "ios": "https://dc.lft.to/lastmile_qr_scan"}, "name": "e8cc955de4e9924d1f4caeabb643a7b1", "lat": 38.91542883333334, "is_reserved": 0, "fusion_lon": 0.0, "fusion_lat": 0.0, "is_disabled": 0, "bike_id": "e8cc955de4e9924d1f4caeabb643a7b1", "lon": -77.04455433333334}, {"type": "electric_scooter", "rental_uris": {"android": "https://dc.lft.to/lastmile_qr_scan", "ios": "https://dc.lft.to/lastmile_qr_scan"}, "name": "47006c38d5150c0bfa69f6b51d77bb3c", "lat": 38.90043333333333, "is_reserved": 0, "fusion_lon": 0.0, "fusion_lat": 0.0, "is_disabled": 0, "bike_id": "47006c38d5150c0bfa69f6b51d77bb3c", "lon": -76.988197}, {"type": "electric_scooter", "rental_uris": {"android": "https://dc.lft.to/lastmile_qr_scan", "ios": "https://dc.lft.to/lastmile_qr_scan"}, "name": "6984e26c986d0651761e976f4bc18024", "lat": 38.9199655, "is_reserved": 0, "fusion_lon": 0.0, "fusion_lat": 0.0, "is_disabled": 0, "bike_id": "6984e26c986d0651761e976f4bc18024", "lon": -76.98396866666667}, {"type": "electric_scooter", "rental_uris": {"android": "https://dc.lft.to/lastmile_qr_scan", "ios": "https://dc.lft.to/lastmile_qr_scan"}, "name": "9e9d31d267aab010fb3caec8f86cc093", "lat": 38.899628, "is_reserved": 0, "fusion_lon": 0.0, "fusion_lat": 0.0, "is_disabled": 0, "bike_id": "9e9d31d267aab010fb3caec8f86cc093", "lon": -77.0151}, {"type": "electric_scooter", "rental_uris": {"android": "https://dc.lft.to/lastmile_qr_scan", "ios": "https://dc.lft.to/lastmile_qr_scan"}, "name": "844a78c404a28d3dd31b21e1affac266", "lat": 38.90416233333333, "is_reserved": 0, "fusion_lon": 0.0, "fusion_lat": 0.0, "is_disabled": 0, "bike_id": "844a78c404a28d3dd31b21e1affac266", "lon": -77.05005383333334}, {"type": "electric_scooter", "rental_uris": {"android": "https://dc.lft.to/lastmile_qr_scan", "ios": "https://dc.lft.to/lastmile_qr_scan"}, "name": "9759e5a95da4ec3f5820ae5aae272ec2", "lat": 38.90660733333333, "is_reserved": 0, "fusion_lon": 0.0, "fusion_lat": 0.0, "is_disabled": 0, "bike_id": "9759e5a95da4ec3f5820ae5aae272ec2", "lon": -77.07121966666666}, {"type": "electric_bike", "rental_uris": {"android": "https://dc.lft.to/lastmile_qr_scan", "ios": "https://dc.lft.to/lastmile_qr_scan"}, "name": "8ab1f441588fb47985138db50d301ef0", "lat": 38.901744, "is_reserved": 0, "fusion_lon": 0.0, "fusion_lat": 0.0, "is_disabled": 0, "bike_id": "8ab1f441588fb47985138db50d301ef0", "lon": -76.9769375}, {"type": "electric_scooter", "rental_uris": {"android": "https://dc.lft.to/lastmile_qr_scan", "ios": "https://dc.lft.to/lastmile_qr_scan"}, "name": "a97db6b5a45d4d20c7425c970979b4ee", "lat": 38.83116033333334, "is_reserved": 0, "fusion_lon": 0.0, "fusion_lat": 0.0, "is_disabled": 0, "bike_id": "a97db6b5a45d4d20c7425c970979b4ee", "lon": -77.00144383333334}, {"type": "electric_scooter", "rental_uris": {"android": "https://dc.lft.to/lastmile_qr_scan", "ios": "https://dc.lft.to/lastmile_qr_scan"}, "name": "713546a9514e38ef2fd710360587177f", "lat": 38.846258166666665, "is_reserved": 0, "fusion_lon": 0.0, "fusion_lat": 0.0, "is_disabled": 0, "bike_id": "713546a9514e38ef2fd710360587177f", "lon": -76.98124133333333}, {"type": "electric_scooter", "rental_uris": {"android": "https://dc.lft.to/lastmile_qr_scan", "ios": "https://dc.lft.to/lastmile_qr_scan"}, "name": "58d6e4b2e1e0b5a0b46ea7f6048159a2", "lat": 38.896748, "is_reserved": 0, "fusion_lon": 0.0, "fusion_lat": 0.0, "is_disabled": 0, "bike_id": "58d6e4b2e1e0b5a0b46ea7f6048159a2", "lon": -77.044759}, {"type": "electric_scooter", "rental_uris": {"android": "https://dc.lft.to/lastmile_qr_scan", "ios": "https://dc.lft.to/lastmile_qr_scan"}, "name": "14142d70850b2b26015c7b4af804274f", "lat": 38.914973, "is_reserved": 0, "fusion_lon": 0.0, "fusion_lat": 0.0, "is_disabled": 0, "bike_id": "14142d70850b2b26015c7b4af804274f", "lon": -76.98373516666666}, {"type": "electric_scooter", "rental_uris": {"android": "https://dc.lft.to/lastmile_qr_scan", "ios": "https://dc.lft.to/lastmile_qr_scan"}, "name": "74b88e1e7db1eb6d94740a22188df64f", "lat": 38.877179, "is_reserved": 0, "fusion_lon": 0.0, "fusion_lat": 0.0, "is_disabled": 0, "bike_id": "74b88e1e7db1eb6d94740a22188df64f", "lon": -77.01758133333334}, {"type": "electric_scooter", "rental_uris": {"android": "https://dc.lft.to/lastmile_qr_scan", "ios": "https://dc.lft.to/lastmile_qr_scan"}, "name": "31fb0d7c5ab0fccb2cbaa3a6da400109", "lat": 38.940636166666664, "is_reserved": 0, "fusion_lon": 0.0, "fusion_lat": 0.0, "is_disabled": 0, "bike_id": "31fb0d7c5ab0fccb2cbaa3a6da400109", "lon": -77.02122766666666}, {"type": "electric_scooter", "rental_uris": {"android": "https://dc.lft.to/lastmile_qr_scan", "ios": "https://dc.lft.to/lastmile_qr_scan"}, "name": "3c29c3397947db8aec3677df0946b911", "lat": 38.876021, "is_reserved": 0, "fusion_lon": 0.0, "fusion_lat": 0.0, "is_disabled": 0, "bike_id": "3c29c3397947db8aec3677df0946b911", "lon": -77.00582866666667}, {"type": "electric_scooter", "rental_uris": {"android": "https://dc.lft.to/lastmile_qr_scan", "ios": "https://dc.lft.to/lastmile_qr_scan"}, "name": "cb560417a1a9479ed6ff9f8151e4e0c9", "lat": 38.90592183333333, "is_reserved": 0, "fusion_lon": 0.0, "fusion_lat": 0.0, "is_disabled": 0, "bike_id": "cb560417a1a9479ed6ff9f8151e4e0c9", "lon": -76.99313166666667}, {"type": "electric_scooter", "rental_uris": {"android": "https://dc.lft.to/lastmile_qr_scan", "ios": "https://dc.lft.to/lastmile_qr_scan"}, "name": "b47f9c4023e4ec5048431e4c8ac96c3f", "lat": 38.873955333333335, "is_reserved": 0, "fusion_lon": 0.0, "fusion_lat": 0.0, "is_disabled": 0, "bike_id": "b47f9c4023e4ec5048431e4c8ac96c3f", "lon": -77.00025}, {"type": "electric_scooter", "rental_uris": {"android": "https://dc.lft.to/lastmile_qr_scan", "ios": "https://dc.lft.to/lastmile_qr_scan"}, "name": "4642cd6b0d24698dd414985978527f42", "lat": 38.888199666666665, "is_reserved": 0, "fusion_lon": 0.0, "fusion_lat": 0.0, "is_disabled": 0, "bike_id": "4642cd6b0d24698dd414985978527f42", "lon": -76.97700466666667}, {"type": "electric_scooter", "rental_uris": {"android": "https://dc.lft.to/lastmile_qr_scan", "ios": "https://dc.lft.to/lastmile_qr_scan"}, "name": "68d7cd1bcb5a848ac2c1459d5507308c", "lat": 38.926695333333335, "is_reserved": 0, "fusion_lon": 0.0, "fusion_lat": 0.0, "is_disabled": 0, "bike_id": "68d7cd1bcb5a848ac2c1459d5507308c", "lon": -77.030281}, {"type": "electric_scooter", "rental_uris": {"android": "https://dc.lft.to/lastmile_qr_scan", "ios": "https://dc.lft.to/lastmile_qr_scan"}, "name": "9f9ee221612072b606b8a47dbf81cac0", "lat": 38.926133666666665, "is_reserved": 0, "fusion_lon": 0.0, "fusion_lat": 0.0, "is_disabled": 0, "bike_id": "9f9ee221612072b606b8a47dbf81cac0", "lon": -77.0216215}, {"type": "electric_scooter", "rental_uris": {"android": "https://dc.lft.to/lastmile_qr_scan", "ios": "https://dc.lft.to/lastmile_qr_scan"}, "name": "0e7b704ee82029023940353c17d84b01", "lat": 38.90832316666667, "is_reserved": 0, "fusion_lon": 0.0, "fusion_lat": 0.0, "is_disabled": 0, "bike_id": "0e7b704ee82029023940353c17d84b01", "lon": -76.99696183333333}, {"type": "electric_scooter", "rental_uris": {"android": "https://dc.lft.to/lastmile_qr_scan", "ios": "https://dc.lft.to/lastmile_qr_scan"}, "name": "aef9a38a6b6e2f6fa9dbc79f8e598bbb", "lat": 38.916962833333336, "is_reserved": 0, "fusion_lon": 0.0, "fusion_lat": 0.0, "is_disabled": 0, "bike_id": "aef9a38a6b6e2f6fa9dbc79f8e598bbb", "lon": -77.0310835}, {"type": "electric_scooter", "rental_uris": {"android": "https://dc.lft.to/lastmile_qr_scan", "ios": "https://dc.lft.to/lastmile_qr_scan"}, "name": "a8880aaf65f416b269f7599ea77c0389", "lat": 38.901629166666666, "is_reserved": 0, "fusion_lon": 0.0, "fusion_lat": 0.0, "is_disabled": 0, "bike_id": "a8880aaf65f416b269f7599ea77c0389", "lon": -77.03439}, {"type": "electric_scooter", "rental_uris": {"android": "https://dc.lft.to/lastmile_qr_scan", "ios": "https://dc.lft.to/lastmile_qr_scan"}, "name": "fd0e2121c7c63823c1ae8d0016347e51", "lat": 38.898295166666664, "is_reserved": 0, "fusion_lon": 0.0, "fusion_lat": 0.0, "is_disabled": 0, "bike_id": "fd0e2121c7c63823c1ae8d0016347e51", "lon": -77.0075305}, {"type": "electric_scooter", "rental_uris": {"android": "https://dc.lft.to/lastmile_qr_scan", "ios": "https://dc.lft.to/lastmile_qr_scan"}, "name": "9b288a3f643f3d1713c7ac9271f37e85", "lat": 38.891995, "is_reserved": 0, "fusion_lon": 0.0, "fusion_lat": 0.0, "is_disabled": 0, "bike_id": "9b288a3f643f3d1713c7ac9271f37e85", "lon": -77.00292983333334}, {"type": "electric_scooter", "rental_uris": {"android": "https://dc.lft.to/lastmile_qr_scan", "ios": "https://dc.lft.to/lastmile_qr_scan"}, "name": "fca43712a5761d354d7e7c8d2d8a07b4", "lat": 38.900143166666666, "is_reserved": 0, "fusion_lon": 0.0, "fusion_lat": 0.0, "is_disabled": 0, "bike_id": "fca43712a5761d354d7e7c8d2d8a07b4", "lon": -76.93026916666666}, {"type": "electric_scooter", "rental_uris": {"android": "https://dc.lft.to/lastmile_qr_scan", "ios": "https://dc.lft.to/lastmile_qr_scan"}, "name": "61608dec9cd1fe6749ee1a42be82726e", "lat": 38.8930235, "is_reserved": 0, "fusion_lon": 0.0, "fusion_lat": 0.0, "is_disabled": 0, "bike_id": "61608dec9cd1fe6749ee1a42be82726e", "lon": -76.92986016666667}, {"type": "electric_scooter", "rental_uris": {"android": "https://dc.lft.to/lastmile_qr_scan", "ios": "https://dc.lft.to/lastmile_qr_scan"}, "name": "409040ee526f48e6a1e3a7686b1774be", "lat": 38.90059816666667, "is_reserved": 0, "fusion_lon": 0.0, "fusion_lat": 0.0, "is_disabled": 0, "bike_id": "409040ee526f48e6a1e3a7686b1774be", "lon": -77.00197533333333}, {"type": "electric_scooter", "rental_uris": {"android": "https://dc.lft.to/lastmile_qr_scan", "ios": "https://dc.lft.to/lastmile_qr_scan"}, "name": "8f6b519a7d2dccaf61cb1af91bc50f37", "lat": 38.926491166666665, "is_reserved": 0, "fusion_lon": 0.0, "fusion_lat": 0.0, "is_disabled": 0, "bike_id": "8f6b519a7d2dccaf61cb1af91bc50f37", "lon": -77.04061133333333}, {"type": "electric_scooter", "rental_uris": {"android": "https://dc.lft.to/lastmile_qr_scan", "ios": "https://dc.lft.to/lastmile_qr_scan"}, "name": "542cc568553df57cccc6264859845d81", "lat": 38.91625116666667, "is_reserved": 0, "fusion_lon": 0.0, "fusion_lat": 0.0, "is_disabled": 0, "bike_id": "542cc568553df57cccc6264859845d81", "lon": -77.00189166666667}, {"type": "electric_scooter", "rental_uris": {"android": "https://dc.lft.to/lastmile_qr_scan", "ios": "https://dc.lft.to/lastmile_qr_scan"}, "name": "0e8b7e528415eab330ffa4b649fb5e57", "lat": 38.926015666666665, "is_reserved": 0, "fusion_lon": 0.0, "fusion_lat": 0.0, "is_disabled": 0, "bike_id": "0e8b7e528415eab330ffa4b649fb5e57", "lon": -77.02154183333333}, {"type": "electric_scooter", "rental_uris": {"android": "https://dc.lft.to/lastmile_qr_scan", "ios": "https://dc.lft.to/lastmile_qr_scan"}, "name": "69816838136d4b1609bc184ac278ec2a", "lat": 38.890194666666666, "is_reserved": 0, "fusion_lon": 0.0, "fusion_lat": 0.0, "is_disabled": 0, "bike_id": "69816838136d4b1609bc184ac278ec2a", "lon": -76.93715133333333}, {"type": "electric_scooter", "rental_uris": {"android": "https://dc.lft.to/lastmile_qr_scan", "ios": "https://dc.lft.to/lastmile_qr_scan"}, "name": "255478746651c40168689a7a81bfd6be", "lat": 38.90568866666667, "is_reserved": 0, "fusion_lon": 0.0, "fusion_lat": 0.0, "is_disabled": 0, "bike_id": "255478746651c40168689a7a81bfd6be", "lon": -77.00552333333333}, {"type": "electric_scooter", "rental_uris": {"android": "https://dc.lft.to/lastmile_qr_scan", "ios": "https://dc.lft.to/lastmile_qr_scan"}, "name": "d1fc0448c32bbafea29c6bca30e19d9d", "lat": 38.9370435, "is_reserved": 0, "fusion_lon": 0.0, "fusion_lat": 0.0, "is_disabled": 0, "bike_id": "d1fc0448c32bbafea29c6bca30e19d9d", "lon": -77.0559685}, {"type": "electric_scooter", "rental_uris": {"android": "https://dc.lft.to/lastmile_qr_scan", "ios": "https://dc.lft.to/lastmile_qr_scan"}, "name": "1463cfed3c6ff56ef0b10e67a997a10e", "lat": 38.887728833333334, "is_reserved": 0, "fusion_lon": 0.0, "fusion_lat": 0.0, "is_disabled": 0, "bike_id": "1463cfed3c6ff56ef0b10e67a997a10e", "lon": -76.93264566666667}, {"type": "electric_scooter", "rental_uris": {"android": "https://dc.lft.to/lastmile_qr_scan", "ios": "https://dc.lft.to/lastmile_qr_scan"}, "name": "84b0ee4d8fdb66a2cb835788219332f4", "lat": 38.92466683333333, "is_reserved": 0, "fusion_lon": 0.0, "fusion_lat": 0.0, "is_disabled": 0, "bike_id": "84b0ee4d8fdb66a2cb835788219332f4", "lon": -77.02699833333334}, {"type": "electric_scooter", "rental_uris": {"android": "https://dc.lft.to/lastmile_qr_scan", "ios": "https://dc.lft.to/lastmile_qr_scan"}, "name": "e93467b6d86002c94236b51d1146b289", "lat": 38.92020616666667, "is_reserved": 0, "fusion_lon": 0.0, "fusion_lat": 0.0, "is_disabled": 0, "bike_id": "e93467b6d86002c94236b51d1146b289", "lon": -77.01910116666667}, {"type": "electric_scooter", "rental_uris": {"android": "https://dc.lft.to/lastmile_qr_scan", "ios": "https://dc.lft.to/lastmile_qr_scan"}, "name": "279c452858fc18928ecb710882c5f538", "lat": 38.92987, "is_reserved": 0, "fusion_lon": 0.0, "fusion_lat": 0.0, "is_disabled": 0, "bike_id": "279c452858fc18928ecb710882c5f538", "lon": -77.0276655}, {"type": "electric_scooter", "rental_uris": {"android": "https://dc.lft.to/lastmile_qr_scan", "ios": "https://dc.lft.to/lastmile_qr_scan"}, "name": "05212e62dca1aece67409f050243f59a", "lat": 38.92469916666667, "is_reserved": 0, "fusion_lon": 0.0, "fusion_lat": 0.0, "is_disabled": 0, "bike_id": "05212e62dca1aece67409f050243f59a", "lon": -77.021171}, {"type": "electric_bike", "rental_uris": {"android": "https://dc.lft.to/lastmile_qr_scan", "ios": "https://dc.lft.to/lastmile_qr_scan"}, "name": "fdca2e6251067112a3fdb46988489b74", "lat": 38.905274166666665, "is_reserved": 0, "fusion_lon": 0.0, "fusion_lat": 0.0, "is_disabled": 0, "bike_id": "fdca2e6251067112a3fdb46988489b74", "lon": -77.05306966666667}, {"type": "electric_scooter", "rental_uris": {"android": "https://dc.lft.to/lastmile_qr_scan", "ios": "https://dc.lft.to/lastmile_qr_scan"}, "name": "c2e8e4d15457bd01ebe8384037abf939", "lat": 38.92671416666666, "is_reserved": 0, "fusion_lon": 0.0, "fusion_lat": 0.0, "is_disabled": 0, "bike_id": "c2e8e4d15457bd01ebe8384037abf939", "lon": -77.03661166666667}, {"type": "electric_scooter", "rental_uris": {"android": "https://dc.lft.to/lastmile_qr_scan", "ios": "https://dc.lft.to/lastmile_qr_scan"}, "name": "d1f9389fa687edd2da326593806155a8", "lat": 38.924694333333335, "is_reserved": 0, "fusion_lon": 0.0, "fusion_lat": 0.0, "is_disabled": 0, "bike_id": "d1f9389fa687edd2da326593806155a8", "lon": -77.02220816666667}, {"type": "electric_scooter", "rental_uris": {"android": "https://dc.lft.to/lastmile_qr_scan", "ios": "https://dc.lft.to/lastmile_qr_scan"}, "name": "dadd79d5a8e2c7e3894329a927e8208b", "lat": 38.90105166666667, "is_reserved": 0, "fusion_lon": 0.0, "fusion_lat": 0.0, "is_disabled": 0, "bike_id": "dadd79d5a8e2c7e3894329a927e8208b", "lon": -77.04783716666667}, {"type": "electric_scooter", "rental_uris": {"android": "https://dc.lft.to/lastmile_qr_scan", "ios": "https://dc.lft.to/lastmile_qr_scan"}, "name": "d8788b3eec8c962f76ed1b9886c2076c", "lat": 38.896141666666665, "is_reserved": 0, "fusion_lon": 0.0, "fusion_lat": 0.0, "is_disabled": 0, "bike_id": "d8788b3eec8c962f76ed1b9886c2076c", "lon": -77.029577}, {"type": "electric_bike", "rental_uris": {"android": "https://dc.lft.to/lastmile_qr_scan", "ios": "https://dc.lft.to/lastmile_qr_scan"}, "name": "f319eff8aa0c1e60bf2e4d6daacd5ea1", "lat": 38.78462283333333, "is_reserved": 0, "fusion_lon": 0.0, "fusion_lat": 0.0, "is_disabled": 0, "bike_id": "f319eff8aa0c1e60bf2e4d6daacd5ea1", "lon": -77.05437466666666}, {"type": "electric_scooter", "rental_uris": {"android": "https://dc.lft.to/lastmile_qr_scan", "ios": "https://dc.lft.to/lastmile_qr_scan"}, "name": "b1dcf451c6233cb8ad8baca5318dd722", "lat": 38.87295966666667, "is_reserved": 0, "fusion_lon": 0.0, "fusion_lat": 0.0, "is_disabled": 0, "bike_id": "b1dcf451c6233cb8ad8baca5318dd722", "lon": -77.00228683333333}, {"type": "electric_scooter", "rental_uris": {"android": "https://dc.lft.to/lastmile_qr_scan", "ios": "https://dc.lft.to/lastmile_qr_scan"}, "name": "17f5e63661d92d2ac69ee6f857a8b320", "lat": 38.928578, "is_reserved": 0, "fusion_lon": 0.0, "fusion_lat": 0.0, "is_disabled": 0, "bike_id": "17f5e63661d92d2ac69ee6f857a8b320", "lon": -77.03655483333333}, {"type": "electric_scooter", "rental_uris": {"android": "https://dc.lft.to/lastmile_qr_scan", "ios": "https://dc.lft.to/lastmile_qr_scan"}, "name": "f00817b2f27b8f0bcf477a27bf8b1171", "lat": 38.8784225, "is_reserved": 0, "fusion_lon": 0.0, "fusion_lat": 0.0, "is_disabled": 0, "bike_id": "f00817b2f27b8f0bcf477a27bf8b1171", "lon": -77.0226765}, {"type": "electric_scooter", "rental_uris": {"android": "https://dc.lft.to/lastmile_qr_scan", "ios": "https://dc.lft.to/lastmile_qr_scan"}, "name": "2ea52921a1981e13ad48c85c80b1210f", "lat": 38.892228833333334, "is_reserved": 0, "fusion_lon": 0.0, "fusion_lat": 0.0, "is_disabled": 0, "bike_id": "2ea52921a1981e13ad48c85c80b1210f", "lon": -77.02631266666667}, {"type": "electric_scooter", "rental_uris": {"android": "https://dc.lft.to/lastmile_qr_scan", "ios": "https://dc.lft.to/lastmile_qr_scan"}, "name": "aa6acc850ede74ed40c6d7bda5069835", "lat": 38.897137, "is_reserved": 0, "fusion_lon": 0.0, "fusion_lat": 0.0, "is_disabled": 0, "bike_id": "aa6acc850ede74ed40c6d7bda5069835", "lon": -77.0324955}, {"type": "electric_scooter", "rental_uris": {"android": "https://dc.lft.to/lastmile_qr_scan", "ios": "https://dc.lft.to/lastmile_qr_scan"}, "name": "9261ad3cfc7794ca889a9798f67d9872", "lat": 38.89218866666667, "is_reserved": 0, "fusion_lon": 0.0, "fusion_lat": 0.0, "is_disabled": 0, "bike_id": "9261ad3cfc7794ca889a9798f67d9872", "lon": -77.0436425}, {"type": "electric_scooter", "rental_uris": {"android": "https://dc.lft.to/lastmile_qr_scan", "ios": "https://dc.lft.to/lastmile_qr_scan"}, "name": "b39c3e3b18874980105d38afcf9d4b93", "lat": 38.897611833333336, "is_reserved": 0, "fusion_lon": 0.0, "fusion_lat": 0.0, "is_disabled": 0, "bike_id": "b39c3e3b18874980105d38afcf9d4b93", "lon": -77.02723383333333}, {"type": "electric_scooter", "rental_uris": {"android": "https://dc.lft.to/lastmile_qr_scan", "ios": "https://dc.lft.to/lastmile_qr_scan"}, "name": "2d6a0c95a85fcc32756862a5a6e73508", "lat": 38.89638733333334, "is_reserved": 0, "fusion_lon": 0.0, "fusion_lat": 0.0, "is_disabled": 0, "bike_id": "2d6a0c95a85fcc32756862a5a6e73508", "lon": -77.02296666666666}, {"type": "electric_scooter", "rental_uris": {"android": "https://dc.lft.to/lastmile_qr_scan", "ios": "https://dc.lft.to/lastmile_qr_scan"}, "name": "b659110f82db6f02876eb98289ae1889", "lat": 38.895702166666666, "is_reserved": 0, "fusion_lon": 0.0, "fusion_lat": 0.0, "is_disabled": 0, "bike_id": "b659110f82db6f02876eb98289ae1889", "lon": -77.01129816666666}, {"type": "electric_scooter", "rental_uris": {"android": "https://dc.lft.to/lastmile_qr_scan", "ios": "https://dc.lft.to/lastmile_qr_scan"}, "name": "e0276bb7fe2302b7df767335a61c7439", "lat": 38.91973183333333, "is_reserved": 0, "fusion_lon": 0.0, "fusion_lat": 0.0, "is_disabled": 0, "bike_id": "e0276bb7fe2302b7df767335a61c7439", "lon": -77.0712055}, {"type": "electric_scooter", "rental_uris": {"android": "https://dc.lft.to/lastmile_qr_scan", "ios": "https://dc.lft.to/lastmile_qr_scan"}, "name": "c40f388ebc57f9c1120ca4a9869b2191", "lat": 38.895005166666664, "is_reserved": 0, "fusion_lon": 0.0, "fusion_lat": 0.0, "is_disabled": 0, "bike_id": "c40f388ebc57f9c1120ca4a9869b2191", "lon": -77.04636833333333}, {"type": "electric_scooter", "rental_uris": {"android": "https://dc.lft.to/lastmile_qr_scan", "ios": "https://dc.lft.to/lastmile_qr_scan"}, "name": "a825972fa374269e458b2dd357ee9c0a", "lat": 38.923154, "is_reserved": 0, "fusion_lon": 0.0, "fusion_lat": 0.0, "is_disabled": 0, "bike_id": "a825972fa374269e458b2dd357ee9c0a", "lon": -77.042027}, {"type": "electric_scooter", "rental_uris": {"android": "https://dc.lft.to/lastmile_qr_scan", "ios": "https://dc.lft.to/lastmile_qr_scan"}, "name": "d03aadaf34fa48e49570d0d3a181f17e", "lat": 38.9178795, "is_reserved": 0, "fusion_lon": 0.0, "fusion_lat": 0.0, "is_disabled": 0, "bike_id": "d03aadaf34fa48e49570d0d3a181f17e", "lon": -77.040215}, {"type": "electric_scooter", "rental_uris": {"android": "https://dc.lft.to/lastmile_qr_scan", "ios": "https://dc.lft.to/lastmile_qr_scan"}, "name": "32b9cf7336ade4e0d0f2f4a6b680cae6", "lat": 38.92664833333333, "is_reserved": 0, "fusion_lon": 0.0, "fusion_lat": 0.0, "is_disabled": 0, "bike_id": "32b9cf7336ade4e0d0f2f4a6b680cae6", "lon": -76.9975025}, {"type": "electric_scooter", "rental_uris": {"android": "https://dc.lft.to/lastmile_qr_scan", "ios": "https://dc.lft.to/lastmile_qr_scan"}, "name": "e84b843a103ebaf7bf1bb2e80f446e61", "lat": 38.900590666666666, "is_reserved": 0, "fusion_lon": 0.0, "fusion_lat": 0.0, "is_disabled": 0, "bike_id": "e84b843a103ebaf7bf1bb2e80f446e61", "lon": -77.03350516666667}, {"type": "electric_bike", "rental_uris": {"android": "https://dc.lft.to/lastmile_qr_scan", "ios": "https://dc.lft.to/lastmile_qr_scan"}, "name": "7c4c12c29b049962936785681180c3bb", "lat": 38.88401183333333, "is_reserved": 0, "fusion_lon": 0.0, "fusion_lat": 0.0, "is_disabled": 0, "bike_id": "7c4c12c29b049962936785681180c3bb", "lon": -76.960605}, {"type": "electric_scooter", "rental_uris": {"android": "https://dc.lft.to/lastmile_qr_scan", "ios": "https://dc.lft.to/lastmile_qr_scan"}, "name": "8b8b467a44d09f4c8c315680e8dbd379", "lat": 38.911302666666664, "is_reserved": 0, "fusion_lon": 0.0, "fusion_lat": 0.0, "is_disabled": 0, "bike_id": "8b8b467a44d09f4c8c315680e8dbd379", "lon": -77.02198333333334}, {"type": "electric_scooter", "rental_uris": {"android": "https://dc.lft.to/lastmile_qr_scan", "ios": "https://dc.lft.to/lastmile_qr_scan"}, "name": "a71c849d496d0bd5fb17c1d01fa513b8", "lat": 38.900431, "is_reserved": 0, "fusion_lon": 0.0, "fusion_lat": 0.0, "is_disabled": 0, "bike_id": "a71c849d496d0bd5fb17c1d01fa513b8", "lon": -76.988267}, {"type": "electric_scooter", "rental_uris": {"android": "https://dc.lft.to/lastmile_qr_scan", "ios": "https://dc.lft.to/lastmile_qr_scan"}, "name": "5b7379ec559de9b66dd6e8a875fd4132", "lat": 38.9251435, "is_reserved": 0, "fusion_lon": 0.0, "fusion_lat": 0.0, "is_disabled": 0, "bike_id": "5b7379ec559de9b66dd6e8a875fd4132", "lon": -77.0214165}, {"type": "electric_scooter", "rental_uris": {"android": "https://dc.lft.to/lastmile_qr_scan", "ios": "https://dc.lft.to/lastmile_qr_scan"}, "name": "8607575279df7599e8e00452aaa5ca27", "lat": 38.89346166666667, "is_reserved": 0, "fusion_lon": 0.0, "fusion_lat": 0.0, "is_disabled": 0, "bike_id": "8607575279df7599e8e00452aaa5ca27", "lon": -76.952442}, {"type": "electric_scooter", "rental_uris": {"android": "https://dc.lft.to/lastmile_qr_scan", "ios": "https://dc.lft.to/lastmile_qr_scan"}, "name": "58138e671aaad4f4c0fa1a53c995ac38", "lat": 38.90304916666667, "is_reserved": 0, "fusion_lon": 0.0, "fusion_lat": 0.0, "is_disabled": 0, "bike_id": "58138e671aaad4f4c0fa1a53c995ac38", "lon": -77.03316133333334}, {"type": "electric_scooter", "rental_uris": {"android": "https://dc.lft.to/lastmile_qr_scan", "ios": "https://dc.lft.to/lastmile_qr_scan"}, "name": "11314a13ca1dc00ed184d964a3ef02bf", "lat": 38.9038685, "is_reserved": 0, "fusion_lon": 0.0, "fusion_lat": 0.0, "is_disabled": 0, "bike_id": "11314a13ca1dc00ed184d964a3ef02bf", "lon": -77.06846433333334}, {"type": "electric_scooter", "rental_uris": {"android": "https://dc.lft.to/lastmile_qr_scan", "ios": "https://dc.lft.to/lastmile_qr_scan"}, "name": "48b8b3144bca7aecba40cdea5ed9ea83", "lat": 38.926123833333335, "is_reserved": 0, "fusion_lon": 0.0, "fusion_lat": 0.0, "is_disabled": 0, "bike_id": "48b8b3144bca7aecba40cdea5ed9ea83", "lon": -77.02161416666667}, {"type": "electric_scooter", "rental_uris": {"android": "https://dc.lft.to/lastmile_qr_scan", "ios": "https://dc.lft.to/lastmile_qr_scan"}, "name": "bc2b9a31da45bb50c7afb2d255615ee2", "lat": 38.89836833333333, "is_reserved": 0, "fusion_lon": 0.0, "fusion_lat": 0.0, "is_disabled": 0, "bike_id": "bc2b9a31da45bb50c7afb2d255615ee2", "lon": -77.01251016666667}, {"type": "electric_scooter", "rental_uris": {"android": "https://dc.lft.to/lastmile_qr_scan", "ios": "https://dc.lft.to/lastmile_qr_scan"}, "name": "3d72bf7f615f2339facdbd704d1dcc11", "lat": 38.90014266666667, "is_reserved": 0, "fusion_lon": 0.0, "fusion_lat": 0.0, "is_disabled": 0, "bike_id": "3d72bf7f615f2339facdbd704d1dcc11", "lon": -77.01197683333334}, {"type": "electric_bike", "rental_uris": {"android": "https://dc.lft.to/lastmile_qr_scan", "ios": "https://dc.lft.to/lastmile_qr_scan"}, "name": "496fd42508eef973a2332235f931b769", "lat": 38.905583166666666, "is_reserved": 0, "fusion_lon": 0.0, "fusion_lat": 0.0, "is_disabled": 0, "bike_id": "496fd42508eef973a2332235f931b769", "lon": -77.04501466666666}, {"type": "electric_scooter", "rental_uris": {"android": "https://dc.lft.to/lastmile_qr_scan", "ios": "https://dc.lft.to/lastmile_qr_scan"}, "name": "86c9fb0a6a2c31901720046aa49ec822", "lat": 38.924356, "is_reserved": 0, "fusion_lon": 0.0, "fusion_lat": 0.0, "is_disabled": 0, "bike_id": "86c9fb0a6a2c31901720046aa49ec822", "lon": -77.03779833333333}, {"type": "electric_scooter", "rental_uris": {"android": "https://dc.lft.to/lastmile_qr_scan", "ios": "https://dc.lft.to/lastmile_qr_scan"}, "name": "53b8e62be4eb438b8b13000bf0d747a9", "lat": 38.896313666666664, "is_reserved": 0, "fusion_lon": 0.0, "fusion_lat": 0.0, "is_disabled": 0, "bike_id": "53b8e62be4eb438b8b13000bf0d747a9", "lon": -77.03217116666667}, {"type": "electric_scooter", "rental_uris": {"android": "https://dc.lft.to/lastmile_qr_scan", "ios": "https://dc.lft.to/lastmile_qr_scan"}, "name": "505d6db4d20ae0f9f38bf8a2aef721b8", "lat": 38.8996235, "is_reserved": 0, "fusion_lon": 0.0, "fusion_lat": 0.0, "is_disabled": 0, "bike_id": "505d6db4d20ae0f9f38bf8a2aef721b8", "lon": -77.03085133333333}, {"type": "electric_bike", "rental_uris": {"android": "https://dc.lft.to/lastmile_qr_scan", "ios": "https://dc.lft.to/lastmile_qr_scan"}, "name": "fde7bcbd3acf2224788606089285ea27", "lat": 38.906015833333335, "is_reserved": 0, "fusion_lon": 0.0, "fusion_lat": 0.0, "is_disabled": 0, "bike_id": "fde7bcbd3acf2224788606089285ea27", "lon": -77.12892233333334}, {"type": "electric_scooter", "rental_uris": {"android": "https://dc.lft.to/lastmile_qr_scan", "ios": "https://dc.lft.to/lastmile_qr_scan"}, "name": "96be8e57cdd3b2e547a30ca6dd0e343e", "lat": 38.88078816666667, "is_reserved": 0, "fusion_lon": 0.0, "fusion_lat": 0.0, "is_disabled": 0, "bike_id": "96be8e57cdd3b2e547a30ca6dd0e343e", "lon": -77.01184716666667}, {"type": "electric_scooter", "rental_uris": {"android": "https://dc.lft.to/lastmile_qr_scan", "ios": "https://dc.lft.to/lastmile_qr_scan"}, "name": "692337b4bdd3ee17235af527fe8f775a", "lat": 38.908502666666664, "is_reserved": 0, "fusion_lon": 0.0, "fusion_lat": 0.0, "is_disabled": 0, "bike_id": "692337b4bdd3ee17235af527fe8f775a", "lon": -77.04010683333334}, {"type": "electric_scooter", "rental_uris": {"android": "https://dc.lft.to/lastmile_qr_scan", "ios": "https://dc.lft.to/lastmile_qr_scan"}, "name": "4a28a9140c3ccc97ea8896cd90b8d0f5", "lat": 38.90175633333333, "is_reserved": 0, "fusion_lon": 0.0, "fusion_lat": 0.0, "is_disabled": 0, "bike_id": "4a28a9140c3ccc97ea8896cd90b8d0f5", "lon": -77.05895733333334}, {"type": "electric_scooter", "rental_uris": {"android": "https://dc.lft.to/lastmile_qr_scan", "ios": "https://dc.lft.to/lastmile_qr_scan"}, "name": "8b54a468dfb3409b7bdbdd6f61bea385", "lat": 38.924915666666664, "is_reserved": 0, "fusion_lon": 0.0, "fusion_lat": 0.0, "is_disabled": 0, "bike_id": "8b54a468dfb3409b7bdbdd6f61bea385", "lon": -77.021565}, {"type": "electric_scooter", "rental_uris": {"android": "https://dc.lft.to/lastmile_qr_scan", "ios": "https://dc.lft.to/lastmile_qr_scan"}, "name": "5933b06a66dd534a7a4a043ed9f9be16", "lat": 38.862846, "is_reserved": 0, "fusion_lon": 0.0, "fusion_lat": 0.0, "is_disabled": 0, "bike_id": "5933b06a66dd534a7a4a043ed9f9be16", "lon": -76.994018}, {"type": "electric_scooter", "rental_uris": {"android": "https://dc.lft.to/lastmile_qr_scan", "ios": "https://dc.lft.to/lastmile_qr_scan"}, "name": "b532d3f518e62542105e8575b40bfa91", "lat": 38.92566816666667, "is_reserved": 0, "fusion_lon": 0.0, "fusion_lat": 0.0, "is_disabled": 0, "bike_id": "b532d3f518e62542105e8575b40bfa91", "lon": -76.99958816666667}, {"type": "electric_scooter", "rental_uris": {"android": "https://dc.lft.to/lastmile_qr_scan", "ios": "https://dc.lft.to/lastmile_qr_scan"}, "name": "be02dbcf88bc90952b31d0c134e1a75e", "lat": 38.89717266666667, "is_reserved": 0, "fusion_lon": 0.0, "fusion_lat": 0.0, "is_disabled": 0, "bike_id": "be02dbcf88bc90952b31d0c134e1a75e", "lon": -77.0283465}, {"type": "electric_scooter", "rental_uris": {"android": "https://dc.lft.to/lastmile_qr_scan", "ios": "https://dc.lft.to/lastmile_qr_scan"}, "name": "7bc274f79e01592375a21a118019e8d1", "lat": 38.900588166666665, "is_reserved": 0, "fusion_lon": 0.0, "fusion_lat": 0.0, "is_disabled": 0, "bike_id": "7bc274f79e01592375a21a118019e8d1", "lon": -76.98701783333334}, {"type": "electric_scooter", "rental_uris": {"android": "https://dc.lft.to/lastmile_qr_scan", "ios": "https://dc.lft.to/lastmile_qr_scan"}, "name": "10f483f35bcb66f2bbcb753f26bb3ef0", "lat": 38.90236083333333, "is_reserved": 0, "fusion_lon": 0.0, "fusion_lat": 0.0, "is_disabled": 0, "bike_id": "10f483f35bcb66f2bbcb753f26bb3ef0", "lon": -77.0150595}, {"type": "electric_scooter", "rental_uris": {"android": "https://dc.lft.to/lastmile_qr_scan", "ios": "https://dc.lft.to/lastmile_qr_scan"}, "name": "159b409b5ef97cf48e6784034c165f11", "lat": 38.901200333333335, "is_reserved": 0, "fusion_lon": 0.0, "fusion_lat": 0.0, "is_disabled": 0, "bike_id": "159b409b5ef97cf48e6784034c165f11", "lon": -77.04997516666667}, {"type": "electric_bike", "rental_uris": {"android": "https://dc.lft.to/lastmile_qr_scan", "ios": "https://dc.lft.to/lastmile_qr_scan"}, "name": "fb969bf90b09da12d4857f5b1500ecc7", "lat": 38.94152283333333, "is_reserved": 0, "fusion_lon": 0.0, "fusion_lat": 0.0, "is_disabled": 0, "bike_id": "fb969bf90b09da12d4857f5b1500ecc7", "lon": -77.00195983333333}, {"type": "electric_scooter", "rental_uris": {"android": "https://dc.lft.to/lastmile_qr_scan", "ios": "https://dc.lft.to/lastmile_qr_scan"}, "name": "a11663de2df2f11e9285e397c234fc1b", "lat": 38.89238116666667, "is_reserved": 0, "fusion_lon": 0.0, "fusion_lat": 0.0, "is_disabled": 0, "bike_id": "a11663de2df2f11e9285e397c234fc1b", "lon": -77.03206666666667}, {"type": "electric_bike", "rental_uris": {"android": "https://dc.lft.to/lastmile_qr_scan", "ios": "https://dc.lft.to/lastmile_qr_scan"}, "name": "b59b0f233474fea89319294cac062e61", "lat": 38.926222833333334, "is_reserved": 0, "fusion_lon": 0.0, "fusion_lat": 0.0, "is_disabled": 0, "bike_id": "b59b0f233474fea89319294cac062e61", "lon": -77.00590833333334}, {"type": "electric_scooter", "rental_uris": {"android": "https://dc.lft.to/lastmile_qr_scan", "ios": "https://dc.lft.to/lastmile_qr_scan"}, "name": "55cb7e1e5fdf3fc434d652127a03fa9d", "lat": 38.91552766666667, "is_reserved": 0, "fusion_lon": 0.0, "fusion_lat": 0.0, "is_disabled": 0, "bike_id": "55cb7e1e5fdf3fc434d652127a03fa9d", "lon": -77.036624}, {"type": "electric_scooter", "rental_uris": {"android": "https://dc.lft.to/lastmile_qr_scan", "ios": "https://dc.lft.to/lastmile_qr_scan"}, "name": "14b2bec38296126dd6a0e776be1220fc", "lat": 38.95631483333333, "is_reserved": 0, "fusion_lon": 0.0, "fusion_lat": 0.0, "is_disabled": 0, "bike_id": "14b2bec38296126dd6a0e776be1220fc", "lon": -77.0295215}, {"type": "electric_scooter", "rental_uris": {"android": "https://dc.lft.to/lastmile_qr_scan", "ios": "https://dc.lft.to/lastmile_qr_scan"}, "name": "2def4004d4e954a2894014d63dc56fe5", "lat": 38.88076366666667, "is_reserved": 0, "fusion_lon": 0.0, "fusion_lat": 0.0, "is_disabled": 0, "bike_id": "2def4004d4e954a2894014d63dc56fe5", "lon": -77.0371985}, {"type": "electric_scooter", "rental_uris": {"android": "https://dc.lft.to/lastmile_qr_scan", "ios": "https://dc.lft.to/lastmile_qr_scan"}, "name": "4cd73848f473609a66b8992a08786dad", "lat": 38.915834833333335, "is_reserved": 0, "fusion_lon": 0.0, "fusion_lat": 0.0, "is_disabled": 0, "bike_id": "4cd73848f473609a66b8992a08786dad", "lon": -77.031756}, {"type": "electric_scooter", "rental_uris": {"android": "https://dc.lft.to/lastmile_qr_scan", "ios": "https://dc.lft.to/lastmile_qr_scan"}, "name": "b03c0e127abaeccf41275ec3fa3d25f2", "lat": 38.89364783333333, "is_reserved": 0, "fusion_lon": 0.0, "fusion_lat": 0.0, "is_disabled": 0, "bike_id": "b03c0e127abaeccf41275ec3fa3d25f2", "lon": -76.9845905}, {"type": "electric_scooter", "rental_uris": {"android": "https://dc.lft.to/lastmile_qr_scan", "ios": "https://dc.lft.to/lastmile_qr_scan"}, "name": "31c1e8e13284d3aa583046dcae6a4bc8", "lat": 38.873136, "is_reserved": 0, "fusion_lon": 0.0, "fusion_lat": 0.0, "is_disabled": 0, "bike_id": "31c1e8e13284d3aa583046dcae6a4bc8", "lon": -77.01389966666666}, {"type": "electric_scooter", "rental_uris": {"android": "https://dc.lft.to/lastmile_qr_scan", "ios": "https://dc.lft.to/lastmile_qr_scan"}, "name": "43fbe405e6528c46bdf3a1f591d39736", "lat": 38.90273966666667, "is_reserved": 0, "fusion_lon": 0.0, "fusion_lat": 0.0, "is_disabled": 0, "bike_id": "43fbe405e6528c46bdf3a1f591d39736", "lon": -77.0306855}, {"type": "electric_scooter", "rental_uris": {"android": "https://dc.lft.to/lastmile_qr_scan", "ios": "https://dc.lft.to/lastmile_qr_scan"}, "name": "07cf0ffedecb5c36d64076281e346567", "lat": 38.896184, "is_reserved": 0, "fusion_lon": 0.0, "fusion_lat": 0.0, "is_disabled": 0, "bike_id": "07cf0ffedecb5c36d64076281e346567", "lon": -76.92975566666667}, {"type": "electric_scooter", "rental_uris": {"android": "https://dc.lft.to/lastmile_qr_scan", "ios": "https://dc.lft.to/lastmile_qr_scan"}, "name": "1dba229402cf67e02cf952ab2cd6700c", "lat": 38.90056166666667, "is_reserved": 0, "fusion_lon": 0.0, "fusion_lat": 0.0, "is_disabled": 0, "bike_id": "1dba229402cf67e02cf952ab2cd6700c", "lon": -77.0433335}, {"type": "electric_bike", "rental_uris": {"android": "https://dc.lft.to/lastmile_qr_scan", "ios": "https://dc.lft.to/lastmile_qr_scan"}, "name": "4bba0066c863e9310b3d65e624dee3ad", "lat": 38.949262833333336, "is_reserved": 0, "fusion_lon": 0.0, "fusion_lat": 0.0, "is_disabled": 0, "bike_id": "4bba0066c863e9310b3d65e624dee3ad", "lon": -76.95917233333333}, {"type": "electric_scooter", "rental_uris": {"android": "https://dc.lft.to/lastmile_qr_scan", "ios": "https://dc.lft.to/lastmile_qr_scan"}, "name": "143fdb8d4313ea132314a9bcab1ea7ec", "lat": 38.915284, "is_reserved": 0, "fusion_lon": 0.0, "fusion_lat": 0.0, "is_disabled": 0, "bike_id": "143fdb8d4313ea132314a9bcab1ea7ec", "lon": -77.03201866666667}, {"type": "electric_scooter", "rental_uris": {"android": "https://dc.lft.to/lastmile_qr_scan", "ios": "https://dc.lft.to/lastmile_qr_scan"}, "name": "acc071a54de8eab0a44cb65aa5a747dc", "lat": 38.925163833333336, "is_reserved": 0, "fusion_lon": 0.0, "fusion_lat": 0.0, "is_disabled": 0, "bike_id": "acc071a54de8eab0a44cb65aa5a747dc", "lon": -77.0236205}, {"type": "electric_bike", "rental_uris": {"android": "https://dc.lft.to/lastmile_qr_scan", "ios": "https://dc.lft.to/lastmile_qr_scan"}, "name": "d068e35ed54dbf3e50fbb7427b2dfba1", "lat": 38.88606333333333, "is_reserved": 0, "fusion_lon": 0.0, "fusion_lat": 0.0, "is_disabled": 0, "bike_id": "d068e35ed54dbf3e50fbb7427b2dfba1", "lon": -77.14233133333333}, {"type": "electric_scooter", "rental_uris": {"android": "https://dc.lft.to/lastmile_qr_scan", "ios": "https://dc.lft.to/lastmile_qr_scan"}, "name": "e464efc5257f06a990aaa6040e606bee", "lat": 38.89229816666667, "is_reserved": 0, "fusion_lon": 0.0, "fusion_lat": 0.0, "is_disabled": 0, "bike_id": "e464efc5257f06a990aaa6040e606bee", "lon": -77.0499845}, {"type": "electric_scooter", "rental_uris": {"android": "https://dc.lft.to/lastmile_qr_scan", "ios": "https://dc.lft.to/lastmile_qr_scan"}, "name": "23d021cbcd57b9769c55b31a1286627e", "lat": 38.92354566666667, "is_reserved": 0, "fusion_lon": 0.0, "fusion_lat": 0.0, "is_disabled": 0, "bike_id": "23d021cbcd57b9769c55b31a1286627e", "lon": -77.03544983333333}, {"type": "electric_scooter", "rental_uris": {"android": "https://dc.lft.to/lastmile_qr_scan", "ios": "https://dc.lft.to/lastmile_qr_scan"}, "name": "6b0bf5526b9f063814732718dc7583f2", "lat": 38.885091833333334, "is_reserved": 0, "fusion_lon": 0.0, "fusion_lat": 0.0, "is_disabled": 0, "bike_id": "6b0bf5526b9f063814732718dc7583f2", "lon": -77.01115816666666}, {"type": "electric_scooter", "rental_uris": {"android": "https://dc.lft.to/lastmile_qr_scan", "ios": "https://dc.lft.to/lastmile_qr_scan"}, "name": "3152d4e509bf34282f09923b111d2629", "lat": 38.90148683333334, "is_reserved": 0, "fusion_lon": 0.0, "fusion_lat": 0.0, "is_disabled": 0, "bike_id": "3152d4e509bf34282f09923b111d2629", "lon": -77.0319475}, {"type": "electric_scooter", "rental_uris": {"android": "https://dc.lft.to/lastmile_qr_scan", "ios": "https://dc.lft.to/lastmile_qr_scan"}, "name": "19b163e4f280f9830cf492253850dd9c", "lat": 38.90501716666667, "is_reserved": 0, "fusion_lon": 0.0, "fusion_lat": 0.0, "is_disabled": 0, "bike_id": "19b163e4f280f9830cf492253850dd9c", "lon": -77.05317983333333}, {"type": "electric_scooter", "rental_uris": {"android": "https://dc.lft.to/lastmile_qr_scan", "ios": "https://dc.lft.to/lastmile_qr_scan"}, "name": "053545319b790650d6d02db272ea8ab6", "lat": 38.923677833333336, "is_reserved": 0, "fusion_lon": 0.0, "fusion_lat": 0.0, "is_disabled": 0, "bike_id": "053545319b790650d6d02db272ea8ab6", "lon": -77.05050966666667}, {"type": "electric_scooter", "rental_uris": {"android": "https://dc.lft.to/lastmile_qr_scan", "ios": "https://dc.lft.to/lastmile_qr_scan"}, "name": "9d6af2451b83f900424c7f115769d710", "lat": 38.921243833333335, "is_reserved": 0, "fusion_lon": 0.0, "fusion_lat": 0.0, "is_disabled": 0, "bike_id": "9d6af2451b83f900424c7f115769d710", "lon": -77.01799566666666}, {"type": "electric_scooter", "rental_uris": {"android": "https://dc.lft.to/lastmile_qr_scan", "ios": "https://dc.lft.to/lastmile_qr_scan"}, "name": "73a5fde521addee2f8a10d2f510527a2", "lat": 38.8935595, "is_reserved": 0, "fusion_lon": 0.0, "fusion_lat": 0.0, "is_disabled": 0, "bike_id": "73a5fde521addee2f8a10d2f510527a2", "lon": -77.00334483333333}, {"type": "electric_scooter", "rental_uris": {"android": "https://dc.lft.to/lastmile_qr_scan", "ios": "https://dc.lft.to/lastmile_qr_scan"}, "name": "fd5ebe2b0f376106a90b70cb1a8dc16c", "lat": 38.924384833333335, "is_reserved": 0, "fusion_lon": 0.0, "fusion_lat": 0.0, "is_disabled": 0, "bike_id": "fd5ebe2b0f376106a90b70cb1a8dc16c", "lon": -77.05214566666666}, {"type": "electric_scooter", "rental_uris": {"android": "https://dc.lft.to/lastmile_qr_scan", "ios": "https://dc.lft.to/lastmile_qr_scan"}, "name": "9480a8d3d73ccaf771e8fd7ba70aef17", "lat": 38.91823683333333, "is_reserved": 0, "fusion_lon": 0.0, "fusion_lat": 0.0, "is_disabled": 0, "bike_id": "9480a8d3d73ccaf771e8fd7ba70aef17", "lon": -77.03441766666667}, {"type": "electric_scooter", "rental_uris": {"android": "https://dc.lft.to/lastmile_qr_scan", "ios": "https://dc.lft.to/lastmile_qr_scan"}, "name": "f5060244dc507763a1dc7dd41b379215", "lat": 38.93899366666667, "is_reserved": 0, "fusion_lon": 0.0, "fusion_lat": 0.0, "is_disabled": 0, "bike_id": "f5060244dc507763a1dc7dd41b379215", "lon": -77.03321116666666}, {"type": "electric_scooter", "rental_uris": {"android": "https://dc.lft.to/lastmile_qr_scan", "ios": "https://dc.lft.to/lastmile_qr_scan"}, "name": "72f14536420d1e42329fccc4e3b85a44", "lat": 38.90358283333333, "is_reserved": 0, "fusion_lon": 0.0, "fusion_lat": 0.0, "is_disabled": 0, "bike_id": "72f14536420d1e42329fccc4e3b85a44", "lon": -77.02615566666667}, {"type": "electric_scooter", "rental_uris": {"android": "https://dc.lft.to/lastmile_qr_scan", "ios": "https://dc.lft.to/lastmile_qr_scan"}, "name": "eddbf46f2be9650b618acddd3b5a9611", "lat": 38.919248833333334, "is_reserved": 0, "fusion_lon": 0.0, "fusion_lat": 0.0, "is_disabled": 0, "bike_id": "eddbf46f2be9650b618acddd3b5a9611", "lon": -77.0097195}, {"type": "electric_scooter", "rental_uris": {"android": "https://dc.lft.to/lastmile_qr_scan", "ios": "https://dc.lft.to/lastmile_qr_scan"}, "name": "ba9e54a5766b3178f9a2988fdfc5aa0f", "lat": 38.90617733333333, "is_reserved": 0, "fusion_lon": 0.0, "fusion_lat": 0.0, "is_disabled": 0, "bike_id": "ba9e54a5766b3178f9a2988fdfc5aa0f", "lon": -76.95009916666666}, {"type": "electric_scooter", "rental_uris": {"android": "https://dc.lft.to/lastmile_qr_scan", "ios": "https://dc.lft.to/lastmile_qr_scan"}, "name": "40bf424cd00f703ada3e689fb562c553", "lat": 38.893976333333335, "is_reserved": 0, "fusion_lon": 0.0, "fusion_lat": 0.0, "is_disabled": 0, "bike_id": "40bf424cd00f703ada3e689fb562c553", "lon": -77.00210416666667}, {"type": "electric_scooter", "rental_uris": {"android": "https://dc.lft.to/lastmile_qr_scan", "ios": "https://dc.lft.to/lastmile_qr_scan"}, "name": "4dd70f74236c866f8ebe71e361e34c91", "lat": 38.885098166666666, "is_reserved": 0, "fusion_lon": 0.0, "fusion_lat": 0.0, "is_disabled": 0, "bike_id": "4dd70f74236c866f8ebe71e361e34c91", "lon": -77.0111545}, {"type": "electric_scooter", "rental_uris": {"android": "https://dc.lft.to/lastmile_qr_scan", "ios": "https://dc.lft.to/lastmile_qr_scan"}, "name": "063b80b7058d962d9a859566498aad7f", "lat": 38.900391666666664, "is_reserved": 0, "fusion_lon": 0.0, "fusion_lat": 0.0, "is_disabled": 0, "bike_id": "063b80b7058d962d9a859566498aad7f", "lon": -77.01223283333333}, {"type": "electric_scooter", "rental_uris": {"android": "https://dc.lft.to/lastmile_qr_scan", "ios": "https://dc.lft.to/lastmile_qr_scan"}, "name": "51877feac250da48bf962ae147865a3a", "lat": 38.886248, "is_reserved": 0, "fusion_lon": 0.0, "fusion_lat": 0.0, "is_disabled": 0, "bike_id": "51877feac250da48bf962ae147865a3a", "lon": -77.01514383333334},