{"data": {"bikes": [{"type": "electric_scooter", "name": "fc92c4cf00b00fa6eae0a1a3194d2f53", "rental_uris": {"ios": "https://dc.lft.to/lastmile_qr_scan", "android": "https://dc.lft.to/lastmile_qr_scan"}, "fusion_lon": 0.0, "lat": 38.9105875, "is_disabled": 0, "bike_id": "fc92c4cf00b00fa6eae0a1a3194d2f53", "fusion_lat": 0.0, "is_reserved": 0, "lon": -76.98521566666666}, {"type": "electric_scooter", "name": "f70359b48d0e617e8988343014705de2", "rental_uris": {"ios": "https://dc.lft.to/lastmile_qr_scan", "android": "https://dc.lft.to/lastmile_qr_scan"}, "fusion_lon": 0.0, "lat": 38.9183515, "is_disabled": 0, "bike_id": "f70359b48d0e617e8988343014705de2", "fusion_lat": 0.0, "is_reserved": 0, "lon": -77.02275333333333}, {"type": "electric_scooter", "name": "ad19a813346cbf64d091c9123c0ad130", "rental_uris": {"ios": "https://dc.lft.to/lastmile_qr_scan", "android": "https://dc.lft.to/lastmile_qr_scan"}, "fusion_lon": 0.0, "lat": 38.90871166666667, "is_disabled": 0, "bike_id": "ad19a813346cbf64d091c9123c0ad130", "fusion_lat": 0.0, "is_reserved": 0, "lon": -77.04270933333333}, {"type": "electric_scooter", "name": "9a1b26c25026cacfd06dcdc295bfde9e", "rental_uris": {"ios": "https://dc.lft.to/lastmile_qr_scan", "android": "https://dc.lft.to/lastmile_qr_scan"}, "fusion_lon": 0.0, "lat": 38.938602, "is_disabled": 0, "bike_id": "9a1b26c25026cacfd06dcdc295bfde9e", "fusion_lat": 0.0, "is_reserved": 0, "lon": -77.02626166666667}, {"type": "electric_bike", "name": "500bd79474b8c2cb1e46a15f9361cf75", "rental_uris": {"ios": "https://dc.lft.to/lastmile_qr_scan", "android": "https://dc.lft.to/lastmile_qr_scan"}, "fusion_lon": 0.0, "lat": 38.98461533333333, "is_disabled": 0, "bike_id": "500bd79474b8c2cb1e46a15f9361cf75", "fusion_lat": 0.0, "is_reserved": 0, "lon": -76.9705875}, {"type": "electric_scooter", "name": "b302c36a738c8f4e4be53817ddc2a26c", "rental_uris": {"ios": "https://dc.lft.to/lastmile_qr_scan", "android": "https://dc.lft.to/lastmile_qr_scan"}, "fusion_lon": 0.0, "lat": 38.9399675, "is_disabled": 0, "bike_id": "b302c36a738c8f4e4be53817ddc2a26c", "fusion_lat": 0.0, "is_reserved": 0, "lon": -77.03271616666666}, {"type": "electric_scooter", "name": "68c204ea11190338b51e99f77dbdbcd0", "rental_uris": {"ios": "https://dc.lft.to/lastmile_qr_scan", "android": "https://dc.lft.to/lastmile_qr_scan"}, "fusion_lon": 0.0, "lat": 38.887655333333335, "is_disabled": 0, "bike_id": "68c204ea11190338b51e99f77dbdbcd0", "fusion_lat": 0.0, "is_reserved": 0, "lon": -76.9774965}, {"type": "electric_scooter", "name": "22dd311293fd4ee4ad40cb9356d2c31d", "rental_uris": {"ios": "https://dc.lft.to/lastmile_qr_scan", "android": "https://dc.lft.to/lastmile_qr_scan"}, "fusion_lon": 0.0, "lat": 38.90424616666667, "is_disabled": 0, "bike_id": "22dd311293fd4ee4ad40cb9356d2c31d", "fusion_lat": 0.0, "is_reserved": 0, "lon": -77.04344416666666}, {"type": "electric_scooter", "name": "842bce56903f4b867e2db277a7e82f0b", "rental_uris": {"ios": "https://dc.lft.to/lastmile_qr_scan", "android": "https://dc.lft.to/lastmile_qr_scan"}, "fusion_lon": 0.0, "lat": 38.89140883333334, "is_disabled": 0, "bike_id": "842bce56903f4b867e2db277a7e82f0b", "fusion_lat": 0.0, "is_reserved": 0, "lon": -76.99082683333333}, {"type": "electric_bike", "name": "3e1f9d8a9daa163e1d04697905c8106d", "rental_uris": {"ios": "https://dc.lft.to/lastmile_qr_scan", "android": "https://dc.lft.to/lastmile_qr_scan"}, "fusion_lon": 0.0, "lat": 38.853164166666666, "is_disabled": 0, "bike_id": "3e1f9d8a9daa163e1d04697905c8106d", "fusion_lat": 0.0, "is_reserved": 0, "lon": -76.98007816666667}, {"type": "electric_scooter", "name": "49f0fb75c638354d1d51662e674cb1f7", "rental_uris": {"ios": "https://dc.lft.to/lastmile_qr_scan", "android": "https://dc.lft.to/lastmile_qr_scan"}, "fusion_lon": 0.0, "lat": 38.90638716666667, "is_disabled": 0, "bike_id": "49f0fb75c638354d1d51662e674cb1f7", "fusion_lat": 0.0, "is_reserved": 0, "lon": -77.04136216666667}, {"type": "electric_scooter", "name": "7815b5ecae461939f65d4b8befc615de", "rental_uris": {"ios": "https://dc.lft.to/lastmile_qr_scan", "android": "https://dc.lft.to/lastmile_qr_scan"}, "fusion_lon": 0.0, "lat": 38.90269383333333, "is_disabled": 0, "bike_id": "7815b5ecae461939f65d4b8befc615de", "fusion_lat": 0.0, "is_reserved": 0, "lon": -77.01762083333334}, {"type": "electric_scooter", "name": "87bae6ac5838de78cfc02e6efb9165f2", "rental_uris": {"ios": "https://dc.lft.to/lastmile_qr_scan", "android": "https://dc.lft.to/lastmile_qr_scan"}, "fusion_lon": 0.0, "lat": 38.89739733333333, "is_disabled": 0, "bike_id": "87bae6ac5838de78cfc02e6efb9165f2", "fusion_lat": 0.0, "is_reserved": 0, "lon": -77.04627516666666}, {"type": "electric_scooter", "name": "7fa972ec1df1afaacfa2353e7182aaf0", "rental_uris": {"ios": "https://dc.lft.to/lastmile_qr_scan", "android": "https://dc.lft.to/lastmile_qr_scan"}, "fusion_lon": 0.0, "lat": 38.913967, "is_disabled": 0, "bike_id": "7fa972ec1df1afaacfa2353e7182aaf0", "fusion_lat": 0.0, "is_reserved": 0, "lon": -77.04175583333334}, {"type": "electric_bike", "name": "266c9c57029f72fc3d1bd9e3d0a95b47", "rental_uris": {"ios": "https://dc.lft.to/lastmile_qr_scan", "android": "https://dc.lft.to/lastmile_qr_scan"}, "fusion_lon": 0.0, "lat": 38.935601166666665, "is_disabled": 0, "bike_id": "266c9c57029f72fc3d1bd9e3d0a95b47", "fusion_lat": 0.0, "is_reserved": 0, "lon": -77.03703083333333}, {"type": "electric_scooter", "name": "91a4f4396fd9df6717d36fe74b2127ef", "rental_uris": {"ios": "https://dc.lft.to/lastmile_qr_scan", "android": "https://dc.lft.to/lastmile_qr_scan"}, "fusion_lon": 0.0, "lat": 38.924391, "is_disabled": 0, "bike_id": "91a4f4396fd9df6717d36fe74b2127ef", "fusion_lat": 0.0, "is_reserved": 0, "lon": -77.0521975}, {"type": "electric_scooter", "name": "eee2522960a0346d363c1fcacb77c803", "rental_uris": {"ios": "https://dc.lft.to/lastmile_qr_scan", "android": "https://dc.lft.to/lastmile_qr_scan"}, "fusion_lon": 0.0, "lat": 38.97237883333333, "is_disabled": 0, "bike_id": "eee2522960a0346d363c1fcacb77c803", "fusion_lat": 0.0, "is_reserved": 0, "lon": -77.0271515}, {"type": "electric_scooter", "name": "36f69d023efc74b2c4dc7c95edcda799", "rental_uris": {"ios": "https://dc.lft.to/lastmile_qr_scan", "android": "https://dc.lft.to/lastmile_qr_scan"}, "fusion_lon": 0.0, "lat": 38.9180365, "is_disabled": 0, "bike_id": "36f69d023efc74b2c4dc7c95edcda799", "fusion_lat": 0.0, "is_reserved": 0, "lon": -77.03715783333334}, {"type": "electric_scooter", "name": "81f0c812ca9a5c0b856540a44dbe4f54", "rental_uris": {"ios": "https://dc.lft.to/lastmile_qr_scan", "android": "https://dc.lft.to/lastmile_qr_scan"}, "fusion_lon": 0.0, "lat": 38.9028255, "is_disabled": 0, "bike_id": "81f0c812ca9a5c0b856540a44dbe4f54", "fusion_lat": 0.0, "is_reserved": 0, "lon": -77.03820766666666}, {"type": "electric_scooter", "name": "6090f4d9e381f790f0d9c111fc9be6f0", "rental_uris": {"ios": "https://dc.lft.to/lastmile_qr_scan", "android": "https://dc.lft.to/lastmile_qr_scan"}, "fusion_lon": 0.0, "lat": 38.87898, "is_disabled": 0, "bike_id": "6090f4d9e381f790f0d9c111fc9be6f0", "fusion_lat": 0.0, "is_reserved": 0, "lon": -77.01359883333333}, {"type": "electric_scooter", "name": "690ffa42f966b60a2881ed2427049195", "rental_uris": {"ios": "https://dc.lft.to/lastmile_qr_scan", "android": "https://dc.lft.to/lastmile_qr_scan"}, "fusion_lon": 0.0, "lat": 38.937374, "is_disabled": 0, "bike_id": "690ffa42f966b60a2881ed2427049195", "fusion_lat": 0.0, "is_reserved": 0, "lon": -77.032542}, {"type": "electric_scooter", "name": "1b0583d16fa3ac9dc7f2331093efb612", "rental_uris": {"ios": "https://dc.lft.to/lastmile_qr_scan", "android": "https://dc.lft.to/lastmile_qr_scan"}, "fusion_lon": 0.0, "lat": 38.929705, "is_disabled": 0, "bike_id": "1b0583d16fa3ac9dc7f2331093efb612", "fusion_lat": 0.0, "is_reserved": 0, "lon": -77.03097183333334}, {"type": "electric_scooter", "name": "9e454c2672b554922288aa9a9296550d", "rental_uris": {"ios": "https://dc.lft.to/lastmile_qr_scan", "android": "https://dc.lft.to/lastmile_qr_scan"}, "fusion_lon": 0.0, "lat": 38.9353745, "is_disabled": 0, "bike_id": "9e454c2672b554922288aa9a9296550d", "fusion_lat": 0.0, "is_reserved": 0, "lon": -77.02349583333333}, {"type": "electric_scooter", "name": "ccdf3466628388bdff87f84792918e42", "rental_uris": {"ios": "https://dc.lft.to/lastmile_qr_scan", "android": "https://dc.lft.to/lastmile_qr_scan"}, "fusion_lon": 0.0, "lat": 38.902436333333334, "is_disabled": 0, "bike_id": "ccdf3466628388bdff87f84792918e42", "fusion_lat": 0.0, "is_reserved": 0, "lon": -77.01757366666666}, {"type": "electric_scooter", "name": "245f2bce412658f1e6ca46e29be38156", "rental_uris": {"ios": "https://dc.lft.to/lastmile_qr_scan", "android": "https://dc.lft.to/lastmile_qr_scan"}, "fusion_lon": 0.0, "lat": 38.887310666666664, "is_disabled": 0, "bike_id": "245f2bce412658f1e6ca46e29be38156", "fusion_lat": 0.0, "is_reserved": 0, "lon": -77.025833}, {"type": "electric_bike", "name": "7a9fe0610da72a108cba510ab77a5548", "rental_uris": {"ios": "https://dc.lft.to/lastmile_qr_scan", "android": "https://dc.lft.to/lastmile_qr_scan"}, "fusion_lon": 0.0, "lat": 38.92457866666667, "is_disabled": 0, "bike_id": "7a9fe0610da72a108cba510ab77a5548", "fusion_lat": 0.0, "is_reserved": 0, "lon": -77.0673615}, {"type": "electric_scooter", "name": "7f7cb5e588b8c058d87837a20719aeca", "rental_uris": {"ios": "https://dc.lft.to/lastmile_qr_scan", "android": "https://dc.lft.to/lastmile_qr_scan"}, "fusion_lon": 0.0, "lat": 38.88337116666667, "is_disabled": 0, "bike_id": "7f7cb5e588b8c058d87837a20719aeca", "fusion_lat": 0.0, "is_reserved": 0, "lon": -77.01775733333334}, {"type": "electric_scooter", "name": "f74fac5a78827a8fbb8fbe08b46d96ca", "rental_uris": {"ios": "https://dc.lft.to/lastmile_qr_scan", "android": "https://dc.lft.to/lastmile_qr_scan"}, "fusion_lon": 0.0, "lat": 38.91807133333333, "is_disabled": 0, "bike_id": "f74fac5a78827a8fbb8fbe08b46d96ca", "fusion_lat": 0.0, "is_reserved": 0, "lon": -77.02815666666666}, {"type": "electric_scooter", "name": "0b213a6162f004a3567a91102ed84182", "rental_uris": {"ios": "https://dc.lft.to/lastmile_qr_scan", "android": "https://dc.lft.to/lastmile_qr_scan"}, "fusion_lon": 0.0, "lat": 38.9273165, "is_disabled": 0, "bike_id": "0b213a6162f004a3567a91102ed84182", "fusion_lat": 0.0, "is_reserved": 0, "lon": -77.03688916666667}, {"type": "electric_scooter", "name": "d21b2566a4d36a7714ffab788754107d", "rental_uris": {"ios": "https://dc.lft.to/lastmile_qr_scan", "android": "https://dc.lft.to/lastmile_qr_scan"}, "fusion_lon": 0.0, "lat": 38.905786166666665, "is_disabled": 0, "bike_id": "d21b2566a4d36a7714ffab788754107d", "fusion_lat": 0.0, "is_reserved": 0, "lon": -76.98430316666666}, {"type": "electric_scooter", "name": "b4254a193d7faee8d0c1cd23600c11e2", "rental_uris": {"ios": "https://dc.lft.to/lastmile_qr_scan", "android": "https://dc.lft.to/lastmile_qr_scan"}, "fusion_lon": 0.0, "lat": 38.906651333333336, "is_disabled": 0, "bike_id": "b4254a193d7faee8d0c1cd23600c11e2", "fusion_lat": 0.0, "is_reserved": 0, "lon": -77.02713933333334}, {"type": "electric_scooter", "name": "d13ca4a6c0f893dfe02be81ceb636c93", "rental_uris": {"ios": "https://dc.lft.to/lastmile_qr_scan", "android": "https://dc.lft.to/lastmile_qr_scan"}, "fusion_lon": 0.0, "lat": 38.928242, "is_disabled": 0, "bike_id": "d13ca4a6c0f893dfe02be81ceb636c93", "fusion_lat": 0.0, "is_reserved": 0, "lon": -77.05441783333333}, {"type": "electric_scooter", "name": "77bf705b3f480bde7c4d22716483b15a", "rental_uris": {"ios": "https://dc.lft.to/lastmile_qr_scan", "android": "https://dc.lft.to/lastmile_qr_scan"}, "fusion_lon": 0.0, "lat": 38.9125725, "is_disabled": 0, "bike_id": "77bf705b3f480bde7c4d22716483b15a", "fusion_lat": 0.0, "is_reserved": 0, "lon": -77.03833216666666}, {"type": "electric_scooter", "name": "1cfd2fbdda9106df14282808a041b41a", "rental_uris": {"ios": "https://dc.lft.to/lastmile_qr_scan", "android": "https://dc.lft.to/lastmile_qr_scan"}, "fusion_lon": 0.0, "lat": 38.898280666666665, "is_disabled": 0, "bike_id": "1cfd2fbdda9106df14282808a041b41a", "fusion_lat": 0.0, "is_reserved": 0, "lon": -77.031766}, {"type": "electric_scooter", "name": "955788046056922d0caab69e53a993ca", "rental_uris": {"ios": "https://dc.lft.to/lastmile_qr_scan", "android": "https://dc.lft.to/lastmile_qr_scan"}, "fusion_lon": 0.0, "lat": 38.87657883333333, "is_disabled": 0, "bike_id": "955788046056922d0caab69e53a993ca", "fusion_lat": 0.0, "is_reserved": 0, "lon": -77.017132}, {"type": "electric_scooter", "name": "a969d49758eb2a7468ec15f167398770", "rental_uris": {"ios": "https://dc.lft.to/lastmile_qr_scan", "android": "https://dc.lft.to/lastmile_qr_scan"}, "fusion_lon": 0.0, "lat": 38.91771216666667, "is_disabled": 0, "bike_id": "a969d49758eb2a7468ec15f167398770", "fusion_lat": 0.0, "is_reserved": 0, "lon": -77.04101783333333}, {"type": "electric_bike", "name": "7250ce2b207bbb7526da61c53cfe3656", "rental_uris": {"ios": "https://dc.lft.to/lastmile_qr_scan", "android": "https://dc.lft.to/lastmile_qr_scan"}, "fusion_lon": 0.0, "lat": 38.88007483333333, "is_disabled": 0, "bike_id": "7250ce2b207bbb7526da61c53cfe3656", "fusion_lat": 0.0, "is_reserved": 0, "lon": -77.10764916666666}, {"type": "electric_bike", "name": "c5cbdf07ca41f8f270b75994cb8ebf04", "rental_uris": {"ios": "https://dc.lft.to/lastmile_qr_scan", "android": "https://dc.lft.to/lastmile_qr_scan"}, "fusion_lon": 0.0, "lat": 38.86402966666667, "is_disabled": 0, "bike_id": "c5cbdf07ca41f8f270b75994cb8ebf04", "fusion_lat": 0.0, "is_reserved": 0, "lon": -77.06333866666667}, {"type": "electric_scooter", "name": "0d0c156e11be263e13ed5319d678e2af", "rental_uris": {"ios": "https://dc.lft.to/lastmile_qr_scan", "android": "https://dc.lft.to/lastmile_qr_scan"}, "fusion_lon": 0.0, "lat": 38.9330125, "is_disabled": 0, "bike_id": "0d0c156e11be263e13ed5319d678e2af", "fusion_lat": 0.0, "is_reserved": 0, "lon": -77.0213905}, {"type": "electric_scooter", "name": "60ffadd81e851fbd8782f82ab4a58728", "rental_uris": {"ios": "https://dc.lft.to/lastmile_qr_scan", "android": "https://dc.lft.to/lastmile_qr_scan"}, "fusion_lon": 0.0, "lat": 38.920618833333336, "is_disabled": 0, "bike_id": "60ffadd81e851fbd8782f82ab4a58728", "fusion_lat": 0.0, "is_reserved": 0, "lon": -77.02343116666667}, {"type": "electric_bike", "name": "d94afdabe748063b21bde6ed587c15dd", "rental_uris": {"ios": "https://dc.lft.to/lastmile_qr_scan", "android": "https://dc.lft.to/lastmile_qr_scan"}, "fusion_lon": 0.0, "lat": 38.87491433333334, "is_disabled": 0, "bike_id": "d94afdabe748063b21bde6ed587c15dd", "fusion_lat": 0.0, "is_reserved": 0, "lon": -77.21123716666666}, {"type": "electric_scooter", "name": "d3a1a2c104f82c6ed153e12105212d70", "rental_uris": {"ios": "https://dc.lft.to/lastmile_qr_scan", "android": "https://dc.lft.to/lastmile_qr_scan"}, "fusion_lon": 0.0, "lat": 38.90585383333333, "is_disabled": 0, "bike_id": "d3a1a2c104f82c6ed153e12105212d70", "fusion_lat": 0.0, "is_reserved": 0, "lon": -77.00566633333334}, {"type": "electric_scooter", "name": "db0006838be7624747869a7a655d2f4e", "rental_uris": {"ios": "https://dc.lft.to/lastmile_qr_scan", "android": "https://dc.lft.to/lastmile_qr_scan"}, "fusion_lon": 0.0, "lat": 38.91877616666667, "is_disabled": 0, "bike_id": "db0006838be7624747869a7a655d2f4e", "fusion_lat": 0.0, "is_reserved": 0, "lon": -77.0350545}, {"type": "electric_scooter", "name": "f617053154b5b6dac44da1fbcf0ce4e1", "rental_uris": {"ios": "https://dc.lft.to/lastmile_qr_scan", "android": "https://dc.lft.to/lastmile_qr_scan"}, "fusion_lon": 0.0, "lat": 38.89733283333333, "is_disabled": 0, "bike_id": "f617053154b5b6dac44da1fbcf0ce4e1", "fusion_lat": 0.0, "is_reserved": 0, "lon": -77.0454105}, {"type": "electric_scooter", "name": "1cd64f601bcc8e7f38662c388bdd1bed", "rental_uris": {"ios": "https://dc.lft.to/lastmile_qr_scan", "android": "https://dc.lft.to/lastmile_qr_scan"}, "fusion_lon": 0.0, "lat": 38.9326225, "is_disabled": 0, "bike_id": "1cd64f601bcc8e7f38662c388bdd1bed", "fusion_lat": 0.0, "is_reserved": 0, "lon": -77.02098216666667}, {"type": "electric_bike", "name": "227de4bcd1f3c580d9d823af78627d1e", "rental_uris": {"ios": "https://dc.lft.to/lastmile_qr_scan", "android": "https://dc.lft.to/lastmile_qr_scan"}, "fusion_lon": 0.0, "lat": 38.87981383333333, "is_disabled": 0, "bike_id": "227de4bcd1f3c580d9d823af78627d1e", "fusion_lat": 0.0, "is_reserved": 0, "lon": -76.9159835}, {"type": "electric_scooter", "name": "ef3db5e9d213d23563db97ebd6437373", "rental_uris": {"ios": "https://dc.lft.to/lastmile_qr_scan", "android": "https://dc.lft.to/lastmile_qr_scan"}, "fusion_lon": 0.0, "lat": 38.9172515, "is_disabled": 0, "bike_id": "ef3db5e9d213d23563db97ebd6437373", "fusion_lat": 0.0, "is_reserved": 0, "lon": -77.02313283333334}, {"type": "electric_scooter", "name": "d0b27ebfe95b9f8609c4e7c8a78b837e", "rental_uris": {"ios": "https://dc.lft.to/lastmile_qr_scan", "android": "https://dc.lft.to/lastmile_qr_scan"}, "fusion_lon": 0.0, "lat": 38.917093333333334, "is_disabled": 0, "bike_id": "d0b27ebfe95b9f8609c4e7c8a78b837e", "fusion_lat": 0.0, "is_reserved": 0, "lon": -77.02294683333334}, {"type": "electric_bike", "name": "26248d64fcf2fd17aa63a95b2774b80e", "rental_uris": {"ios": "https://dc.lft.to/lastmile_qr_scan", "android": "https://dc.lft.to/lastmile_qr_scan"}, "fusion_lon": 0.0, "lat": 38.936004833333335, "is_disabled": 0, "bike_id": "26248d64fcf2fd17aa63a95b2774b80e", "fusion_lat": 0.0, "is_reserved": 0, "lon": -77.02116033333333}, {"type": "electric_scooter", "name": "da41adba121393ac5a39ad109a874b3d", "rental_uris": {"ios": "https://dc.lft.to/lastmile_qr_scan", "android": "https://dc.lft.to/lastmile_qr_scan"}, "fusion_lon": 0.0, "lat": 38.94365466666667, "is_disabled": 0, "bike_id": "da41adba121393ac5a39ad109a874b3d", "fusion_lat": 0.0, "is_reserved": 0, "lon": -77.061138}, {"type": "electric_bike", "name": "10eb7ab8365c9bafa56a98f83726c04f", "rental_uris": {"ios": "https://dc.lft.to/lastmile_qr_scan", "android": "https://dc.lft.to/lastmile_qr_scan"}, "fusion_lon": 0.0, "lat": 38.8961775, "is_disabled": 0, "bike_id": "10eb7ab8365c9bafa56a98f83726c04f", "fusion_lat": 0.0, "is_reserved": 0, "lon": -76.90743633333334}, {"type": "electric_scooter", "name": "08a85991757c707064a193a45f165cae", "rental_uris": {"ios": "https://dc.lft.to/lastmile_qr_scan", "android": "https://dc.lft.to/lastmile_qr_scan"}, "fusion_lon": 0.0, "lat": 38.91549416666667, "is_disabled": 0, "bike_id": "08a85991757c707064a193a45f165cae", "fusion_lat": 0.0, "is_reserved": 0, "lon": -77.03854116666666}, {"type": "electric_scooter", "name": "271ba0bf4fb2e0d45c4222accf29a1d4", "rental_uris": {"ios": "https://dc.lft.to/lastmile_qr_scan", "android": "https://dc.lft.to/lastmile_qr_scan"}, "fusion_lon": 0.0, "lat": 38.91995566666667, "is_disabled": 0, "bike_id": "271ba0bf4fb2e0d45c4222accf29a1d4", "fusion_lat": 0.0, "is_reserved": 0, "lon": -77.0179075}, {"type": "electric_bike", "name": "1eaa69669cce5455f24985f742d2349e", "rental_uris": {"ios": "https://dc.lft.to/lastmile_qr_scan", "android": "https://dc.lft.to/lastmile_qr_scan"}, "fusion_lon": 0.0, "lat": 38.84612533333333, "is_disabled": 0, "bike_id": "1eaa69669cce5455f24985f742d2349e", "fusion_lat": 0.0, "is_reserved": 0, "lon": -76.96910116666666}, {"type": "electric_scooter", "name": "1b87c0a746c9b0d72fad9a75c89e39f5", "rental_uris": {"ios": "https://dc.lft.to/lastmile_qr_scan", "android": "https://dc.lft.to/lastmile_qr_scan"}, "fusion_lon": 0.0, "lat": 38.92675966666667, "is_disabled": 0, "bike_id": "1b87c0a746c9b0d72fad9a75c89e39f5", "fusion_lat": 0.0, "is_reserved": 0, "lon": -77.02934783333333}, {"type": "electric_scooter", "name": "3f9fd40acc727df5ccfd177a36062f07", "rental_uris": {"ios": "https://dc.lft.to/lastmile_qr_scan", "android": "https://dc.lft.to/lastmile_qr_scan"}, "fusion_lon": 0.0, "lat": 38.90174566666666, "is_disabled": 0, "bike_id": "3f9fd40acc727df5ccfd177a36062f07", "fusion_lat": 0.0, "is_reserved": 0, "lon": -76.98070033333333}, {"type": "electric_scooter", "name": "571bc7ff85517b63dc6ac553fb7bdc18", "rental_uris": {"ios": "https://dc.lft.to/lastmile_qr_scan", "android": "https://dc.lft.to/lastmile_qr_scan"}, "fusion_lon": 0.0, "lat": 38.919344333333335, "is_disabled": 0, "bike_id": "571bc7ff85517b63dc6ac553fb7bdc18", "fusion_lat": 0.0, "is_reserved": 0, "lon": -77.045011}, {"type": "electric_scooter", "name": "d9a01e867cde5a10fad1d78c789f0270", "rental_uris": {"ios": "https://dc.lft.to/lastmile_qr_scan", "android": "https://dc.lft.to/lastmile_qr_scan"}, "fusion_lon": 0.0, "lat": 38.908627333333335, "is_disabled": 0, "bike_id": "d9a01e867cde5a10fad1d78c789f0270", "fusion_lat": 0.0, "is_reserved": 0, "lon": -77.07536033333334}, {"type": "electric_scooter", "name": "90667b87dc5aeaf2a806f7054142e41e", "rental_uris": {"ios": "https://dc.lft.to/lastmile_qr_scan", "android": "https://dc.lft.to/lastmile_qr_scan"}, "fusion_lon": 0.0, "lat": 38.92856966666667, "is_disabled": 0, "bike_id": "90667b87dc5aeaf2a806f7054142e41e", "fusion_lat": 0.0, "is_reserved": 0, "lon": -77.054387}, {"type": "electric_scooter", "name": "b0fd6990630e24d321311e0c41e61463", "rental_uris": {"ios": "https://dc.lft.to/lastmile_qr_scan", "android": "https://dc.lft.to/lastmile_qr_scan"}, "fusion_lon": 0.0, "lat": 38.889491166666666, "is_disabled": 0, "bike_id": "b0fd6990630e24d321311e0c41e61463", "fusion_lat": 0.0, "is_reserved": 0, "lon": -76.99165233333333}, {"type": "electric_scooter", "name": "4b88b16b3573eebd60f187110674ac8e", "rental_uris": {"ios": "https://dc.lft.to/lastmile_qr_scan", "android": "https://dc.lft.to/lastmile_qr_scan"}, "fusion_lon": 0.0, "lat": 38.91959883333333, "is_disabled": 0, "bike_id": "4b88b16b3573eebd60f187110674ac8e", "fusion_lat": 0.0, "is_reserved": 0, "lon": -77.02378}, {"type": "electric_scooter", "name": "43e416f77c0c0641fcf31fb386818ccf", "rental_uris": {"ios": "https://dc.lft.to/lastmile_qr_scan", "android": "https://dc.lft.to/lastmile_qr_scan"}, "fusion_lon": 0.0, "lat": 38.8970105, "is_disabled": 0, "bike_id": "43e416f77c0c0641fcf31fb386818ccf", "fusion_lat": 0.0, "is_reserved": 0, "lon": -77.0076155}, {"type": "electric_scooter", "name": "0204c995909c7c2685c55aa3329c684f", "rental_uris": {"ios": "https://dc.lft.to/lastmile_qr_scan", "android": "https://dc.lft.to/lastmile_qr_scan"}, "fusion_lon": 0.0, "lat": 38.92104366666667, "is_disabled": 0, "bike_id": "0204c995909c7c2685c55aa3329c684f", "fusion_lat": 0.0, "is_reserved": 0, "lon": -77.04181066666666}, {"type": "electric_scooter", "name": "d40af25668b3e2df2ecd13c75668945c", "rental_uris": {"ios": "https://dc.lft.to/lastmile_qr_scan", "android": "https://dc.lft.to/lastmile_qr_scan"}, "fusion_lon": 0.0, "lat": 38.94419383333333, "is_disabled": 0, "bike_id": "d40af25668b3e2df2ecd13c75668945c", "fusion_lat": 0.0, "is_reserved": 0, "lon": -77.0178135}, {"type": "electric_scooter", "name": "2a8a33fdca06301791bb462651872b32", "rental_uris": {"ios": "https://dc.lft.to/lastmile_qr_scan", "android": "https://dc.lft.to/lastmile_qr_scan"}, "fusion_lon": 0.0, "lat": 38.92728833333334, "is_disabled": 0, "bike_id": "2a8a33fdca06301791bb462651872b32", "fusion_lat": 0.0, "is_reserved": 0, "lon": -77.02306383333334}, {"type": "electric_scooter", "name": "e193bbdcfc27fc6ca331c5503a65455b", "rental_uris": {"ios": "https://dc.lft.to/lastmile_qr_scan", "android": "https://dc.lft.to/lastmile_qr_scan"}, "fusion_lon": 0.0, "lat": 38.922172833333335, "is_disabled": 0, "bike_id": "e193bbdcfc27fc6ca331c5503a65455b", "fusion_lat": 0.0, "is_reserved": 0, "lon": -77.02417766666667}, {"type": "electric_scooter", "name": "9fbf41c85aae5baaacf7fd6519819cf7", "rental_uris": {"ios": "https://dc.lft.to/lastmile_qr_scan", "android": "https://dc.lft.to/lastmile_qr_scan"}, "fusion_lon": 0.0, "lat": 38.91904433333333, "is_disabled": 0, "bike_id": "9fbf41c85aae5baaacf7fd6519819cf7", "fusion_lat": 0.0, "is_reserved": 0, "lon": -77.02759333333333}, {"type": "electric_scooter", "name": "1ec59c92189c59f25bd4ff730bb531b9", "rental_uris": {"ios": "https://dc.lft.to/lastmile_qr_scan", "android": "https://dc.lft.to/lastmile_qr_scan"}, "fusion_lon": 0.0, "lat": 38.903989833333334, "is_disabled": 0, "bike_id": "1ec59c92189c59f25bd4ff730bb531b9", "fusion_lat": 0.0, "is_reserved": 0, "lon": -77.0488975}, {"type": "electric_scooter", "name": "3d15391e7e4a95d5223ee15cf9bd3e1f", "rental_uris": {"ios": "https://dc.lft.to/lastmile_qr_scan", "android": "https://dc.lft.to/lastmile_qr_scan"}, "fusion_lon": 0.0, "lat": 38.93867633333333, "is_disabled": 0, "bike_id": "3d15391e7e4a95d5223ee15cf9bd3e1f", "fusion_lat": 0.0, "is_reserved": 0, "lon": -77.024577}, {"type": "electric_scooter", "name": "c70da18dbb88ea54739ef5ae55f7edd1", "rental_uris": {"ios": "https://dc.lft.to/lastmile_qr_scan", "android": "https://dc.lft.to/lastmile_qr_scan"}, "fusion_lon": 0.0, "lat": 38.945092833333334, "is_disabled": 0, "bike_id": "c70da18dbb88ea54739ef5ae55f7edd1", "fusion_lat": 0.0, "is_reserved": 0, "lon": -77.0335855}, {"type": "electric_scooter", "name": "c9d23912220fd4d808a8bcb4c816cfa5", "rental_uris": {"ios": "https://dc.lft.to/lastmile_qr_scan", "android": "https://dc.lft.to/lastmile_qr_scan"}, "fusion_lon": 0.0, "lat": 38.90031533333333, "is_disabled": 0, "bike_id": "c9d23912220fd4d808a8bcb4c816cfa5", "fusion_lat": 0.0, "is_reserved": 0, "lon": -77.05832966666667}, {"type": "electric_scooter", "name": "93f1fa030ff848c6c5236493073ae78a", "rental_uris": {"ios": "https://dc.lft.to/lastmile_qr_scan", "android": "https://dc.lft.to/lastmile_qr_scan"}, "fusion_lon": 0.0, "lat": 38.91636283333333, "is_disabled": 0, "bike_id": "93f1fa030ff848c6c5236493073ae78a", "fusion_lat": 0.0, "is_reserved": 0, "lon": -77.04117616666667}, {"type": "electric_scooter", "name": "e2cbb749e5b84b12f97aede77663b134", "rental_uris": {"ios": "https://dc.lft.to/lastmile_qr_scan", "android": "https://dc.lft.to/lastmile_qr_scan"}, "fusion_lon": 0.0, "lat": 38.9064595, "is_disabled": 0, "bike_id": "e2cbb749e5b84b12f97aede77663b134", "fusion_lat": 0.0, "is_reserved": 0, "lon": -77.0531895}, {"type": "electric_scooter", "name": "def551c024068a8b634f97d8b5d78038", "rental_uris": {"ios": "https://dc.lft.to/lastmile_qr_scan", "android": "https://dc.lft.to/lastmile_qr_scan"}, "fusion_lon": 0.0, "lat": 38.90207766666666, "is_disabled": 0, "bike_id": "def551c024068a8b634f97d8b5d78038", "fusion_lat": 0.0, "is_reserved": 0, "lon": -77.040445}, {"type": "electric_bike", "name": "f6b5e96543d2063eb78a3d7df513c674", "rental_uris": {"ios": "https://dc.lft.to/lastmile_qr_scan", "android": "https://dc.lft.to/lastmile_qr_scan"}, "fusion_lon": 0.0, "lat": 38.79470833333333, "is_disabled": 0, "bike_id": "f6b5e96543d2063eb78a3d7df513c674", "fusion_lat": 0.0, "is_reserved": 0, "lon": -76.99249566666667}, {"type": "electric_scooter", "name": "10e741ceff42b8dbe8ef6ff359ead5ee", "rental_uris": {"ios": "https://dc.lft.to/lastmile_qr_scan", "android": "https://dc.lft.to/lastmile_qr_scan"}, "fusion_lon": 0.0, "lat": 38.8668145, "is_disabled": 0, "bike_id": "10e741ceff42b8dbe8ef6ff359ead5ee", "fusion_lat": 0.0, "is_reserved": 0, "lon": -76.98503866666667}, {"type": "electric_scooter", "name": "f57bc6fa795ec883e4193e08bffb4e35", "rental_uris": {"ios": "https://dc.lft.to/lastmile_qr_scan", "android": "https://dc.lft.to/lastmile_qr_scan"}, "fusion_lon": 0.0, "lat": 38.90230583333334, "is_disabled": 0, "bike_id": "f57bc6fa795ec883e4193e08bffb4e35", "fusion_lat": 0.0, "is_reserved": 0, "lon": -77.0259735}, {"type": "electric_scooter", "name": "5ef6299bfca8674efca1753e1e80ad9c", "rental_uris": {"ios": "https://dc.lft.to/lastmile_qr_scan", "android": "https://dc.lft.to/lastmile_qr_scan"}, "fusion_lon": 0.0, "lat": 38.90213883333333, "is_disabled": 0, "bike_id": "5ef6299bfca8674efca1753e1e80ad9c", "fusion_lat": 0.0, "is_reserved": 0, "lon": -77.02110483333334}, {"type": "electric_bike", "name": "f07b139abcda055a5b34a0b8ee423da8", "rental_uris": {"ios": "https://dc.lft.to/lastmile_qr_scan", "android": "https://dc.lft.to/lastmile_qr_scan"}, "fusion_lon": 0.0, "lat": 38.951866, "is_disabled": 0, "bike_id": "f07b139abcda055a5b34a0b8ee423da8", "fusion_lat": 0.0, "is_reserved": 0, "lon": -77.026011}, {"type": "electric_scooter", "name": "c34806470bae1dcec5b0376a90acc8f5", "rental_uris": {"ios": "https://dc.lft.to/lastmile_qr_scan", "android": "https://dc.lft.to/lastmile_qr_scan"}, "fusion_lon": 0.0, "lat": 38.90473733333333, "is_disabled": 0, "bike_id": "c34806470bae1dcec5b0376a90acc8f5", "fusion_lat": 0.0, "is_reserved": 0, "lon": -76.98236983333334}, {"type": "electric_scooter", "name": "c54c4c562ef6122bd5d190c07c8b4c55", "rental_uris": {"ios": "https://dc.lft.to/lastmile_qr_scan", "android": "https://dc.lft.to/lastmile_qr_scan"}, "fusion_lon": 0.0, "lat": 38.93531316666667, "is_disabled": 0, "bike_id": "c54c4c562ef6122bd5d190c07c8b4c55", "fusion_lat": 0.0, "is_reserved": 0, "lon": -77.023527}, {"type": "electric_scooter", "name": "70cb9732b8a52deb4444d6faa68af3fc", "rental_uris": {"ios": "https://dc.lft.to/lastmile_qr_scan", "android": "https://dc.lft.to/lastmile_qr_scan"}, "fusion_lon": 0.0, "lat": 38.9078695, "is_disabled": 0, "bike_id": "70cb9732b8a52deb4444d6faa68af3fc", "fusion_lat": 0.0, "is_reserved": 0, "lon": -77.01109666666666}, {"type": "electric_scooter", "name": "bcbd0b626b393c158a308ce70a18de08", "rental_uris": {"ios": "https://dc.lft.to/lastmile_qr_scan", "android": "https://dc.lft.to/lastmile_qr_scan"}, "fusion_lon": 0.0, "lat": 38.905027, "is_disabled": 0, "bike_id": "bcbd0b626b393c158a308ce70a18de08", "fusion_lat": 0.0, "is_reserved": 0, "lon": -77.02946433333334}, {"type": "electric_scooter", "name": "2a20e7b93787f5f5145e32a53929ec51", "rental_uris": {"ios": "https://dc.lft.to/lastmile_qr_scan", "android": "https://dc.lft.to/lastmile_qr_scan"}, "fusion_lon": 0.0, "lat": 38.93751966666667, "is_disabled": 0, "bike_id": "2a20e7b93787f5f5145e32a53929ec51", "fusion_lat": 0.0, "is_reserved": 0, "lon": -77.029571}, {"type": "electric_scooter", "name": "3ea79015c97c78f8843398e836c953c1", "rental_uris": {"ios": "https://dc.lft.to/lastmile_qr_scan", "android": "https://dc.lft.to/lastmile_qr_scan"}, "fusion_lon": 0.0, "lat": 38.8923605, "is_disabled": 0, "bike_id": "3ea79015c97c78f8843398e836c953c1", "fusion_lat": 0.0, "is_reserved": 0, "lon": -77.021813}, {"type": "electric_scooter", "name": "71bd8c9f53f54543126cbebaefe10d80", "rental_uris": {"ios": "https://dc.lft.to/lastmile_qr_scan", "android": "https://dc.lft.to/lastmile_qr_scan"}, "fusion_lon": 0.0, "lat": 38.8839235, "is_disabled": 0, "bike_id": "71bd8c9f53f54543126cbebaefe10d80", "fusion_lat": 0.0, "is_reserved": 0, "lon": -76.93049}, {"type": "electric_scooter", "name": "5828e4cfac96badb96ee3735dc844650", "rental_uris": {"ios": "https://dc.lft.to/lastmile_qr_scan", "android": "https://dc.lft.to/lastmile_qr_scan"}, "fusion_lon": 0.0, "lat": 38.8817795, "is_disabled": 0, "bike_id": "5828e4cfac96badb96ee3735dc844650", "fusion_lat": 0.0, "is_reserved": 0, "lon": -76.95899933333334}, {"type": "electric_scooter", "name": "335586a2487ffab0880a9b442b3e8b34", "rental_uris": {"ios": "https://dc.lft.to/lastmile_qr_scan", "android": "https://dc.lft.to/lastmile_qr_scan"}, "fusion_lon": 0.0, "lat": 38.89792166666667, "is_disabled": 0, "bike_id": "335586a2487ffab0880a9b442b3e8b34", "fusion_lat": 0.0, "is_reserved": 0, "lon": -77.02732266666666}, {"type": "electric_scooter", "name": "68b5868b5c3118a47236a27a72ca1763", "rental_uris": {"ios": "https://dc.lft.to/lastmile_qr_scan", "android": "https://dc.lft.to/lastmile_qr_scan"}, "fusion_lon": 0.0, "lat": 38.931802833333336, "is_disabled": 0, "bike_id": "68b5868b5c3118a47236a27a72ca1763", "fusion_lat": 0.0, "is_reserved": 0, "lon": -77.043}, {"type": "electric_scooter", "name": "413728b52fbdbbd64daf91c6f3916f94", "rental_uris": {"ios": "https://dc.lft.to/lastmile_qr_scan", "android": "https://dc.lft.to/lastmile_qr_scan"}, "fusion_lon": 0.0, "lat": 38.9359415, "is_disabled": 0, "bike_id": "413728b52fbdbbd64daf91c6f3916f94", "fusion_lat": 0.0, "is_reserved": 0, "lon": -77.037887}, {"type": "electric_scooter", "name": "35dd4689605f79decdc0617a7493d04f", "rental_uris": {"ios": "https://dc.lft.to/lastmile_qr_scan", "android": "https://dc.lft.to/lastmile_qr_scan"}, "fusion_lon": 0.0, "lat": 38.919885, "is_disabled": 0, "bike_id": "35dd4689605f79decdc0617a7493d04f", "fusion_lat": 0.0, "is_reserved": 0, "lon": -76.973129}, {"type": "electric_scooter", "name": "0c9f1b290d9c6a6d84d57153530db024", "rental_uris": {"ios": "https://dc.lft.to/lastmile_qr_scan", "android": "https://dc.lft.to/lastmile_qr_scan"}, "fusion_lon": 0.0, "lat": 38.904001, "is_disabled": 0, "bike_id": "0c9f1b290d9c6a6d84d57153530db024", "fusion_lat": 0.0, "is_reserved": 0, "lon": -76.9846365}, {"type": "electric_scooter", "name": "bf3981c3a7ef19e403ea932aca37235d", "rental_uris": {"ios": "https://dc.lft.to/lastmile_qr_scan", "android": "https://dc.lft.to/lastmile_qr_scan"}, "fusion_lon": 0.0, "lat": 38.92436, "is_disabled": 0, "bike_id": "bf3981c3a7ef19e403ea932aca37235d", "fusion_lat": 0.0, "is_reserved": 0, "lon": -77.04254683333333}, {"type": "electric_scooter", "name": "053531cdb3b7ad274c2430f197348eae", "rental_uris": {"ios": "https://dc.lft.to/lastmile_qr_scan", "android": "https://dc.lft.to/lastmile_qr_scan"}, "fusion_lon": 0.0, "lat": 38.92137066666667, "is_disabled": 0, "bike_id": "053531cdb3b7ad274c2430f197348eae", "fusion_lat": 0.0, "is_reserved": 0, "lon": -77.01922583333334}, {"type": "electric_scooter", "name": "2146b6b36ca103877af2831455efbd36", "rental_uris": {"ios": "https://dc.lft.to/lastmile_qr_scan", "android": "https://dc.lft.to/lastmile_qr_scan"}, "fusion_lon": 0.0, "lat": 38.90431, "is_disabled": 0, "bike_id": "2146b6b36ca103877af2831455efbd36", "fusion_lat": 0.0, "is_reserved": 0, "lon": -77.04367183333333}, {"type": "electric_scooter", "name": "2eaee629c56479ad305803bb88dce57c", "rental_uris": {"ios": "https://dc.lft.to/lastmile_qr_scan", "android": "https://dc.lft.to/lastmile_qr_scan"}, "fusion_lon": 0.0, "lat": 38.9139935, "is_disabled": 0, "bike_id": "2eaee629c56479ad305803bb88dce57c", "fusion_lat": 0.0, "is_reserved": 0, "lon": -77.0416935}, {"type": "electric_scooter", "name": "9b98d79c6178e4cb37cd7743ffb919c3", "rental_uris": {"ios": "https://dc.lft.to/lastmile_qr_scan", "android": "https://dc.lft.to/lastmile_qr_scan"}, "fusion_lon": 0.0, "lat": 38.9140395, "is_disabled": 0, "bike_id": "9b98d79c6178e4cb37cd7743ffb919c3", "fusion_lat": 0.0, "is_reserved": 0, "lon": -77.03343633333333}, {"type": "electric_scooter", "name": "c20cc34c1d00e1c43f5fac408c109111", "rental_uris": {"ios": "https://dc.lft.to/lastmile_qr_scan", "android": "https://dc.lft.to/lastmile_qr_scan"}, "fusion_lon": 0.0, "lat": 38.9299875, "is_disabled": 0, "bike_id": "c20cc34c1d00e1c43f5fac408c109111", "fusion_lat": 0.0, "is_reserved": 0, "lon": -77.03799516666666}, {"type": "electric_bike", "name": "71ab6f346badf2381cca9f25b8a04b4f", "rental_uris": {"ios": "https://dc.lft.to/lastmile_qr_scan", "android": "https://dc.lft.to/lastmile_qr_scan"}, "fusion_lon": 0.0, "lat": 38.875769166666664, "is_disabled": 0, "bike_id": "71ab6f346badf2381cca9f25b8a04b4f", "fusion_lat": 0.0, "is_reserved": 0, "lon": -77.23409183333334}, {"type": "electric_scooter", "name": "69ff32d1d2f4f18f0cc2fb186fdab06c", "rental_uris": {"ios": "https://dc.lft.to/lastmile_qr_scan", "android": "https://dc.lft.to/lastmile_qr_scan"}, "fusion_lon": 0.0, "lat": 38.90726816666667, "is_disabled": 0, "bike_id": "69ff32d1d2f4f18f0cc2fb186fdab06c", "fusion_lat": 0.0, "is_reserved": 0, "lon": -77.02369183333333}, {"type": "electric_scooter", "name": "99cf8913a178fb603e52561fac94b701", "rental_uris": {"ios": "https://dc.lft.to/lastmile_qr_scan", "android": "https://dc.lft.to/lastmile_qr_scan"}, "fusion_lon": 0.0, "lat": 38.89279966666667, "is_disabled": 0, "bike_id": "99cf8913a178fb603e52561fac94b701", "fusion_lat": 0.0, "is_reserved": 0, "lon": -77.05029716666667}, {"type": "electric_scooter", "name": "504a47f73336f896fcb0f8448ad8e0db", "rental_uris": {"ios": "https://dc.lft.to/lastmile_qr_scan", "android": "https://dc.lft.to/lastmile_qr_scan"}, "fusion_lon": 0.0, "lat": 38.88528566666667, "is_disabled": 0, "bike_id": "504a47f73336f896fcb0f8448ad8e0db", "fusion_lat": 0.0, "is_reserved": 0, "lon": -76.92916966666667}, {"type": "electric_scooter", "name": "6f00e93b058f87cc4a2c9800e0c04a56", "rental_uris": {"ios": "https://dc.lft.to/lastmile_qr_scan", "android": "https://dc.lft.to/lastmile_qr_scan"}, "fusion_lon": 0.0, "lat": 38.91745216666666, "is_disabled": 0, "bike_id": "6f00e93b058f87cc4a2c9800e0c04a56", "fusion_lat": 0.0, "is_reserved": 0, "lon": -77.02818666666667}, {"type": "electric_scooter", "name": "25281e18f79ae81c9dbef3a2660efbab", "rental_uris": {"ios": "https://dc.lft.to/lastmile_qr_scan", "android": "https://dc.lft.to/lastmile_qr_scan"}, "fusion_lon": 0.0, "lat": 38.8962145, "is_disabled": 0, "bike_id": "25281e18f79ae81c9dbef3a2660efbab", "fusion_lat": 0.0, "is_reserved": 0, "lon": -77.025946}, {"type": "electric_scooter", "name": "cb3479a30fb96e334c02630659dd1045", "rental_uris": {"ios": "https://dc.lft.to/lastmile_qr_scan", "android": "https://dc.lft.to/lastmile_qr_scan"}, "fusion_lon": 0.0, "lat": 38.91601766666667, "is_disabled": 0, "bike_id": "cb3479a30fb96e334c02630659dd1045", "fusion_lat": 0.0, "is_reserved": 0, "lon": -77.03108366666666}, {"type": "electric_scooter", "name": "af8ba04f7792c0c6c3bbdbde54df903d", "rental_uris": {"ios": "https://dc.lft.to/lastmile_qr_scan", "android": "https://dc.lft.to/lastmile_qr_scan"}, "fusion_lon": 0.0, "lat": 38.90268, "is_disabled": 0, "bike_id": "af8ba04f7792c0c6c3bbdbde54df903d", "fusion_lat": 0.0, "is_reserved": 0, "lon": -77.0176155}, {"type": "electric_scooter", "name": "1e13c1821a51a3d0ff4fa0da2ea27716", "rental_uris": {"ios": "https://dc.lft.to/lastmile_qr_scan", "android": "https://dc.lft.to/lastmile_qr_scan"}, "fusion_lon": 0.0, "lat": 38.885273, "is_disabled": 0, "bike_id": "1e13c1821a51a3d0ff4fa0da2ea27716", "fusion_lat": 0.0, "is_reserved": 0, "lon": -77.01510183333333}, {"type": "electric_scooter", "name": "44cbb91dde528cd594df833ebc9c9ccd", "rental_uris": {"ios": "https://dc.lft.to/lastmile_qr_scan", "android": "https://dc.lft.to/lastmile_qr_scan"}, "fusion_lon": 0.0, "lat": 38.908168333333336, "is_disabled": 0, "bike_id": "44cbb91dde528cd594df833ebc9c9ccd", "fusion_lat": 0.0, "is_reserved": 0, "lon": -77.03466966666667}, {"type": "electric_bike", "name": "fe7b1e635e069cf739df8b4845330cf6", "rental_uris": {"ios": "https://dc.lft.to/lastmile_qr_scan", "android": "https://dc.lft.to/lastmile_qr_scan"}, "fusion_lon": 0.0, "lat": 38.94920416666667, "is_disabled": 0, "bike_id": "fe7b1e635e069cf739df8b4845330cf6", "fusion_lat": 0.0, "is_reserved": 0, "lon": -77.00795633333334}, {"type": "electric_scooter", "name": "87cf5ffc51f9bdffab3be6baefbe2d48", "rental_uris": {"ios": "https://dc.lft.to/lastmile_qr_scan", "android": "https://dc.lft.to/lastmile_qr_scan"}, "fusion_lon": 0.0, "lat": 38.88719616666667, "is_disabled": 0, "bike_id": "87cf5ffc51f9bdffab3be6baefbe2d48", "fusion_lat": 0.0, "is_reserved": 0, "lon": -76.99688266666666}, {"type": "electric_scooter", "name": "7267095762825a6f07200a08a923601c", "rental_uris": {"ios": "https://dc.lft.to/lastmile_qr_scan", "android": "https://dc.lft.to/lastmile_qr_scan"}, "fusion_lon": 0.0, "lat": 38.87393466666666, "is_disabled": 0, "bike_id": "7267095762825a6f07200a08a923601c", "fusion_lat": 0.0, "is_reserved": 0, "lon": -77.00029316666667}, {"type": "electric_scooter", "name": "d95ce0c1f26596a5c4831becf8670bc4", "rental_uris": {"ios": "https://dc.lft.to/lastmile_qr_scan", "android": "https://dc.lft.to/lastmile_qr_scan"}, "fusion_lon": 0.0, "lat": 38.91004366666667, "is_disabled": 0, "bike_id": "d95ce0c1f26596a5c4831becf8670bc4", "fusion_lat": 0.0, "is_reserved": 0, "lon": -76.99408783333334}, {"type": "electric_scooter", "name": "811edceb73af8438ced70d3c178b1575", "rental_uris": {"ios": "https://dc.lft.to/lastmile_qr_scan", "android": "https://dc.lft.to/lastmile_qr_scan"}, "fusion_lon": 0.0, "lat": 38.92754816666667, "is_disabled": 0, "bike_id": "811edceb73af8438ced70d3c178b1575", "fusion_lat": 0.0, "is_reserved": 0, "lon": -77.021148}, {"type": "electric_scooter", "name": "61abadcf175a06a60f896ee33a805c51", "rental_uris": {"ios": "https://dc.lft.to/lastmile_qr_scan", "android": "https://dc.lft.to/lastmile_qr_scan"}, "fusion_lon": 0.0, "lat": 38.876707, "is_disabled": 0, "bike_id": "61abadcf175a06a60f896ee33a805c51", "fusion_lat": 0.0, "is_reserved": 0, "lon": -77.00890283333334}, {"type": "electric_scooter", "name": "d12728ff28e4e7e65a53a73987da238b", "rental_uris": {"ios": "https://dc.lft.to/lastmile_qr_scan", "android": "https://dc.lft.to/lastmile_qr_scan"}, "fusion_lon": 0.0, "lat": 38.92078766666667, "is_disabled": 0, "bike_id": "d12728ff28e4e7e65a53a73987da238b", "fusion_lat": 0.0, "is_reserved": 0, "lon": -77.01395466666666}, {"type": "electric_scooter", "name": "f6b18c2aa40ac771f5cff65f70910b1e", "rental_uris": {"ios": "https://dc.lft.to/lastmile_qr_scan", "android": "https://dc.lft.to/lastmile_qr_scan"}, "fusion_lon": 0.0, "lat": 38.90248033333334, "is_disabled": 0, "bike_id": "f6b18c2aa40ac771f5cff65f70910b1e", "fusion_lat": 0.0, "is_reserved": 0, "lon": -77.05932366666667}, {"type": "electric_scooter", "name": "1ce8d57344fabddcaceea203f0d72a55", "rental_uris": {"ios": "https://dc.lft.to/lastmile_qr_scan", "android": "https://dc.lft.to/lastmile_qr_scan"}, "fusion_lon": 0.0, "lat": 38.900675, "is_disabled": 0, "bike_id": "1ce8d57344fabddcaceea203f0d72a55", "fusion_lat": 0.0, "is_reserved": 0, "lon": -77.045314}, {"type": "electric_scooter", "name": "9342334e7548be66b1ab236cfde30a27", "rental_uris": {"ios": "https://dc.lft.to/lastmile_qr_scan", "android": "https://dc.lft.to/lastmile_qr_scan"}, "fusion_lon": 0.0, "lat": 38.92362283333333, "is_disabled": 0, "bike_id": "9342334e7548be66b1ab236cfde30a27", "fusion_lat": 0.0, "is_reserved": 0, "lon": -77.05054183333333}, {"type": "electric_scooter", "name": "ef9509108da638db36d4b3cf39bb12a9", "rental_uris": {"ios": "https://dc.lft.to/lastmile_qr_scan", "android": "https://dc.lft.to/lastmile_qr_scan"}, "fusion_lon": 0.0, "lat": 38.927737666666665, "is_disabled": 0, "bike_id": "ef9509108da638db36d4b3cf39bb12a9", "fusion_lat": 0.0, "is_reserved": 0, "lon": -77.02709233333333}, {"type": "electric_scooter", "name": "76f798488f7c3def943bd59c76610860", "rental_uris": {"ios": "https://dc.lft.to/lastmile_qr_scan", "android": "https://dc.lft.to/lastmile_qr_scan"}, "fusion_lon": 0.0, "lat": 38.923465666666665, "is_disabled": 0, "bike_id": "76f798488f7c3def943bd59c76610860", "fusion_lat": 0.0, "is_reserved": 0, "lon": -77.05119133333334}, {"type": "electric_scooter", "name": "c1d37755751353f59b95c0b7e05f641c", "rental_uris": {"ios": "https://dc.lft.to/lastmile_qr_scan", "android": "https://dc.lft.to/lastmile_qr_scan"}, "fusion_lon": 0.0, "lat": 38.907029666666666, "is_disabled": 0, "bike_id": "c1d37755751353f59b95c0b7e05f641c", "fusion_lat": 0.0, "is_reserved": 0, "lon": -77.0358525}, {"type": "electric_scooter", "name": "0adda10ffd41186ca1c0f5d53d3cd08e", "rental_uris": {"ios": "https://dc.lft.to/lastmile_qr_scan", "android": "https://dc.lft.to/lastmile_qr_scan"}, "fusion_lon": 0.0, "lat": 38.887322166666664, "is_disabled": 0, "bike_id": "0adda10ffd41186ca1c0f5d53d3cd08e", "fusion_lat": 0.0, "is_reserved": 0, "lon": -77.02827166666667}, {"type": "electric_scooter", "name": "ebd660857f586a4ea20eb5c40e175366", "rental_uris": {"ios": "https://dc.lft.to/lastmile_qr_scan", "android": "https://dc.lft.to/lastmile_qr_scan"}, "fusion_lon": 0.0, "lat": 38.94701416666667, "is_disabled": 0, "bike_id": "ebd660857f586a4ea20eb5c40e175366", "fusion_lat": 0.0, "is_reserved": 0, "lon": -77.01942766666667}, {"type": "electric_scooter", "name": "895e652c06ba71cfbec663b0fd50d7eb", "rental_uris": {"ios": "https://dc.lft.to/lastmile_qr_scan", "android": "https://dc.lft.to/lastmile_qr_scan"}, "fusion_lon": 0.0, "lat": 38.90145033333334, "is_disabled": 0, "bike_id": "895e652c06ba71cfbec663b0fd50d7eb", "fusion_lat": 0.0, "is_reserved": 0, "lon": -77.04457916666667}, {"type": "electric_scooter", "name": "ac729ab1c5acb4eb9fdbeac521c6d8bc", "rental_uris": {"ios": "https://dc.lft.to/lastmile_qr_scan", "android": "https://dc.lft.to/lastmile_qr_scan"}, "fusion_lon": 0.0, "lat": 38.910736166666666, "is_disabled": 0, "bike_id": "ac729ab1c5acb4eb9fdbeac521c6d8bc", "fusion_lat": 0.0, "is_reserved": 0, "lon": -77.03026766666666}, {"type": "electric_scooter", "name": "1f9e0a7e50a2834a1af4f136df3dda63", "rental_uris": {"ios": "https://dc.lft.to/lastmile_qr_scan", "android": "https://dc.lft.to/lastmile_qr_scan"}, "fusion_lon": 0.0, "lat": 38.89535083333333, "is_disabled": 0, "bike_id": "1f9e0a7e50a2834a1af4f136df3dda63", "fusion_lat": 0.0, "is_reserved": 0, "lon": -76.94894116666667}, {"type": "electric_scooter", "name": "b198801cf2b70e59432181e113f4cb7d", "rental_uris": {"ios": "https://dc.lft.to/lastmile_qr_scan", "android": "https://dc.lft.to/lastmile_qr_scan"}, "fusion_lon": 0.0, "lat": 38.91099283333333, "is_disabled": 0, "bike_id": "b198801cf2b70e59432181e113f4cb7d", "fusion_lat": 0.0, "is_reserved": 0, "lon": -77.02803366666667}, {"type": "electric_bike", "name": "238e5663311d42ad5b1c65733d27aa19", "rental_uris": {"ios": "https://dc.lft.to/lastmile_qr_scan", "android": "https://dc.lft.to/lastmile_qr_scan"}, "fusion_lon": 0.0, "lat": 38.79853833333333, "is_disabled": 0, "bike_id": "238e5663311d42ad5b1c65733d27aa19", "fusion_lat": 0.0, "is_reserved": 0, "lon": -77.06306416666666}, {"type": "electric_scooter", "name": "c0b5f33d0211db3cd3d093556c790a64", "rental_uris": {"ios": "https://dc.lft.to/lastmile_qr_scan", "android": "https://dc.lft.to/lastmile_qr_scan"}, "fusion_lon": 0.0, "lat": 38.879901, "is_disabled": 0, "bike_id": "c0b5f33d0211db3cd3d093556c790a64", "fusion_lat": 0.0, "is_reserved": 0, "lon": -77.02409766666666}, {"type": "electric_scooter", "name": "2ad1ad05a853187edfbf0041b375d2fa", "rental_uris": {"ios": "https://dc.lft.to/lastmile_qr_scan", "android": "https://dc.lft.to/lastmile_qr_scan"}, "fusion_lon": 0.0, "lat": 38.857956333333334, "is_disabled": 0, "bike_id": "2ad1ad05a853187edfbf0041b375d2fa", "fusion_lat": 0.0, "is_reserved": 0, "lon": -76.98907233333334}, {"type": "electric_scooter", "name": "7ed164630b072e45e369fd1e08f42d43", "rental_uris": {"ios": "https://dc.lft.to/lastmile_qr_scan", "android": "https://dc.lft.to/lastmile_qr_scan"}, "fusion_lon": 0.0, "lat": 38.91117416666667, "is_disabled": 0, "bike_id": "7ed164630b072e45e369fd1e08f42d43", "fusion_lat": 0.0, "is_reserved": 0, "lon": -77.02236733333334}, {"type": "electric_scooter", "name": "5731fb9441daa10001fb54f3ad301df0", "rental_uris": {"ios": "https://dc.lft.to/lastmile_qr_scan", "android": "https://dc.lft.to/lastmile_qr_scan"}, "fusion_lon": 0.0, "lat": 38.91705183333333, "is_disabled": 0, "bike_id": "5731fb9441daa10001fb54f3ad301df0", "fusion_lat": 0.0, "is_reserved": 0, "lon": -77.0314655}, {"type": "electric_scooter", "name": "bd4cb0e33c90fdb6fab3290673a073e9", "rental_uris": {"ios": "https://dc.lft.to/lastmile_qr_scan", "android": "https://dc.lft.to/lastmile_qr_scan"}, "fusion_lon": 0.0, "lat": 38.915318166666665, "is_disabled": 0, "bike_id": "bd4cb0e33c90fdb6fab3290673a073e9", "fusion_lat": 0.0, "is_reserved": 0, "lon": -77.01222466666667}, {"type": "electric_bike", "name": "0987da6408121a1d532b285065050380", "rental_uris": {"ios": "https://dc.lft.to/lastmile_qr_scan", "android": "https://dc.lft.to/lastmile_qr_scan"}, "fusion_lon": 0.0, "lat": 38.857745666666666, "is_disabled": 0, "bike_id": "0987da6408121a1d532b285065050380", "fusion_lat": 0.0, "is_reserved": 0, "lon": -76.987573}, {"type": "electric_bike", "name": "dc86e3da489eda4adcbb349e64fd8b5f", "rental_uris": {"ios": "https://dc.lft.to/lastmile_qr_scan", "android": "https://dc.lft.to/lastmile_qr_scan"}, "fusion_lon": 0.0, "lat": 38.944317, "is_disabled": 0, "bike_id": "dc86e3da489eda4adcbb349e64fd8b5f", "fusion_lat": 0.0, "is_reserved": 0, "lon": -77.02608283333333}, {"type": "electric_scooter", "name": "3f18df8f620de48bdd9c70206cd8cb15", "rental_uris": {"ios": "https://dc.lft.to/lastmile_qr_scan", "android": "https://dc.lft.to/lastmile_qr_scan"}, "fusion_lon": 0.0, "lat": 38.905008333333335, "is_disabled": 0, "bike_id": "3f18df8f620de48bdd9c70206cd8cb15", "fusion_lat": 0.0, "is_reserved": 0, "lon": -77.00091966666666}, {"type": "electric_scooter", "name": "b2a8b629a3d82296f2832822ea915019", "rental_uris": {"ios": "https://dc.lft.to/lastmile_qr_scan", "android": "https://dc.lft.to/lastmile_qr_scan"}, "fusion_lon": 0.0, "lat": 38.924957666666664, "is_disabled": 0, "bike_id": "b2a8b629a3d82296f2832822ea915019", "fusion_lat": 0.0, "is_reserved": 0, "lon": -77.02149233333333}, {"type": "electric_scooter", "name": "3b257ee11d2f3d727c80521223c0e9a8", "rental_uris": {"ios": "https://dc.lft.to/lastmile_qr_scan", "android": "https://dc.lft.to/lastmile_qr_scan"}, "fusion_lon": 0.0, "lat": 38.94754116666667, "is_disabled": 0, "bike_id": "3b257ee11d2f3d727c80521223c0e9a8", "fusion_lat": 0.0, "is_reserved": 0, "lon": -77.00723016666667}, {"type": "electric_scooter", "name": "d276a1beecba01999c3082e54106018a", "rental_uris": {"ios": "https://dc.lft.to/lastmile_qr_scan", "android": "https://dc.lft.to/lastmile_qr_scan"}, "fusion_lon": 0.0, "lat": 38.9395245, "is_disabled": 0, "bike_id": "d276a1beecba01999c3082e54106018a", "fusion_lat": 0.0, "is_reserved": 0, "lon": -77.085959}, {"type": "electric_scooter", "name": "7b1996f038416b95235584e26d4a4d77", "rental_uris": {"ios": "https://dc.lft.to/lastmile_qr_scan", "android": "https://dc.lft.to/lastmile_qr_scan"}, "fusion_lon": 0.0, "lat": 38.935893, "is_disabled": 0, "bike_id": "7b1996f038416b95235584e26d4a4d77", "fusion_lat": 0.0, "is_reserved": 0, "lon": -77.02853116666667}, {"type": "electric_scooter", "name": "5e5cebaac5ff125d02e15a3113079ee3", "rental_uris": {"ios": "https://dc.lft.to/lastmile_qr_scan", "android": "https://dc.lft.to/lastmile_qr_scan"}, "fusion_lon": 0.0, "lat": 38.92554033333333, "is_disabled": 0, "bike_id": "5e5cebaac5ff125d02e15a3113079ee3", "fusion_lat": 0.0, "is_reserved": 0, "lon": -77.04062466666667}, {"type": "electric_scooter", "name": "7eddbbdb00ba8f176116dcacc896a6cd", "rental_uris": {"ios": "https://dc.lft.to/lastmile_qr_scan", "android": "https://dc.lft.to/lastmile_qr_scan"}, "fusion_lon": 0.0, "lat": 38.924692, "is_disabled": 0, "bike_id": "7eddbbdb00ba8f176116dcacc896a6cd", "fusion_lat": 0.0, "is_reserved": 0, "lon": -77.02218133333334}, {"type": "electric_scooter", "name": "fc62c40283d6090226eb2607fb1be25e", "rental_uris": {"ios": "https://dc.lft.to/lastmile_qr_scan", "android": "https://dc.lft.to/lastmile_qr_scan"}, "fusion_lon": 0.0, "lat": 38.927214666666664, "is_disabled": 0, "bike_id": "fc62c40283d6090226eb2607fb1be25e", "fusion_lat": 0.0, "is_reserved": 0, "lon": -77.0399645}, {"type": "electric_bike", "name": "35f661de7573c154d3a0c03f5141c86c", "rental_uris": {"ios": "https://dc.lft.to/lastmile_qr_scan", "android": "https://dc.lft.to/lastmile_qr_scan"}, "fusion_lon": 0.0, "lat": 38.82779983333333, "is_disabled": 0, "bike_id": "35f661de7573c154d3a0c03f5141c86c", "fusion_lat": 0.0, "is_reserved": 0, "lon": -77.12481166666667}, {"type": "electric_bike", "name": "6b110d21bffa40b81e297edc48ef571f", "rental_uris": {"ios": "https://dc.lft.to/lastmile_qr_scan", "android": "https://dc.lft.to/lastmile_qr_scan"}, "fusion_lon": 0.0, "lat": 38.909499833333335, "is_disabled": 0, "bike_id": "6b110d21bffa40b81e297edc48ef571f", "fusion_lat": 0.0, "is_reserved": 0, "lon": -76.9843485}, {"type": "electric_scooter", "name": "00dbb5be6ee9368aef7778acc01c3267", "rental_uris": {"ios": "https://dc.lft.to/lastmile_qr_scan", "android": "https://dc.lft.to/lastmile_qr_scan"}, "fusion_lon": 0.0, "lat": 38.887521666666665, "is_disabled": 0, "bike_id": "00dbb5be6ee9368aef7778acc01c3267", "fusion_lat": 0.0, "is_reserved": 0, "lon": -77.028431}, {"type": "electric_scooter", "name": "602a5ea714354092da6df83689eea637", "rental_uris": {"ios": "https://dc.lft.to/lastmile_qr_scan", "android": "https://dc.lft.to/lastmile_qr_scan"}, "fusion_lon": 0.0, "lat": 38.901551833333336, "is_disabled": 0, "bike_id": "602a5ea714354092da6df83689eea637", "fusion_lat": 0.0, "is_reserved": 0, "lon": -77.04147133333333}, {"type": "electric_scooter", "name": "4bdc6b9b09be658f40186c230c991eeb", "rental_uris": {"ios": "https://dc.lft.to/lastmile_qr_scan", "android": "https://dc.lft.to/lastmile_qr_scan"}, "fusion_lon": 0.0, "lat": 38.88413116666667, "is_disabled": 0, "bike_id": "4bdc6b9b09be658f40186c230c991eeb", "fusion_lat": 0.0, "is_reserved": 0, "lon": -77.015349}, {"type": "electric_scooter", "name": "d2ef9f442947ab067d57468a9bb3aaac", "rental_uris": {"ios": "https://dc.lft.to/lastmile_qr_scan", "android": "https://dc.lft.to/lastmile_qr_scan"}, "fusion_lon": 0.0, "lat": 38.885410666666665, "is_disabled": 0, "bike_id": "d2ef9f442947ab067d57468a9bb3aaac", "fusion_lat": 0.0, "is_reserved": 0, "lon": -77.0005005}, {"type": "electric_scooter", "name": "d5eaacfe41798dea3f2dcf08a000cdfb", "rental_uris": {"ios": "https://dc.lft.to/lastmile_qr_scan", "android": "https://dc.lft.to/lastmile_qr_scan"}, "fusion_lon": 0.0, "lat": 38.898414, "is_disabled": 0, "bike_id": "d5eaacfe41798dea3f2dcf08a000cdfb", "fusion_lat": 0.0, "is_reserved": 0, "lon": -77.03328583333334}, {"type": "electric_scooter", "name": "8dd2f338abef3957e060c9aa97b39a17", "rental_uris": {"ios": "https://dc.lft.to/lastmile_qr_scan", "android": "https://dc.lft.to/lastmile_qr_scan"}, "fusion_lon": 0.0, "lat": 38.911158, "is_disabled": 0, "bike_id": "8dd2f338abef3957e060c9aa97b39a17", "fusion_lat": 0.0, "is_reserved": 0, "lon": -77.0813415}, {"type": "electric_bike", "name": "d0bbdc14d0ec552ab6f3c2abdc9ea8ee", "rental_uris": {"ios": "https://dc.lft.to/lastmile_qr_scan", "android": "https://dc.lft.to/lastmile_qr_scan"}, "fusion_lon": 0.0, "lat": 38.865155666666666, "is_disabled": 0, "bike_id": "d0bbdc14d0ec552ab6f3c2abdc9ea8ee", "fusion_lat": 0.0, "is_reserved": 0, "lon": -76.97338833333333}, {"type": "electric_scooter", "name": "9081c117e8e5e3733202b9e67130a3ec", "rental_uris": {"ios": "https://dc.lft.to/lastmile_qr_scan", "android": "https://dc.lft.to/lastmile_qr_scan"}, "fusion_lon": 0.0, "lat": 38.937367, "is_disabled": 0, "bike_id": "9081c117e8e5e3733202b9e67130a3ec", "fusion_lat": 0.0, "is_reserved": 0, "lon": -77.02444133333333}, {"type": "electric_scooter", "name": "cf6a9239dd7c03dbe2882d7555625d5c", "rental_uris": {"ios": "https://dc.lft.to/lastmile_qr_scan", "android": "https://dc.lft.to/lastmile_qr_scan"}, "fusion_lon": 0.0, "lat": 38.90734, "is_disabled": 0, "bike_id": "cf6a9239dd7c03dbe2882d7555625d5c", "fusion_lat": 0.0, "is_reserved": 0, "lon": -77.02370716666667}, {"type": "electric_scooter", "name": "d38f07572b0fdfbf76edaa40a430322e", "rental_uris": {"ios": "https://dc.lft.to/lastmile_qr_scan", "android": "https://dc.lft.to/lastmile_qr_scan"}, "fusion_lon": 0.0, "lat": 38.93608116666667, "is_disabled": 0, "bike_id": "d38f07572b0fdfbf76edaa40a430322e", "fusion_lat": 0.0, "is_reserved": 0, "lon": -77.05858533333334}, {"type": "electric_scooter", "name": "e672b38838a16d9cbccf7837cda2b233", "rental_uris": {"ios": "https://dc.lft.to/lastmile_qr_scan", "android": "https://dc.lft.to/lastmile_qr_scan"}, "fusion_lon": 0.0, "lat": 38.85807333333333, "is_disabled": 0, "bike_id": "e672b38838a16d9cbccf7837cda2b233", "fusion_lat": 0.0, "is_reserved": 0, "lon": -76.98656016666666}, {"type": "electric_scooter", "name": "896db62f2175986e553842a85bbc2644", "rental_uris": {"ios": "https://dc.lft.to/lastmile_qr_scan", "android": "https://dc.lft.to/lastmile_qr_scan"}, "fusion_lon": 0.0, "lat": 38.88501133333333, "is_disabled": 0, "bike_id": "896db62f2175986e553842a85bbc2644", "fusion_lat": 0.0, "is_reserved": 0, "lon": -77.00702666666666}, {"type": "electric_scooter", "name": "5a1fecfb81ca6edea2d33bd0cc34b0da", "rental_uris": {"ios": "https://dc.lft.to/lastmile_qr_scan", "android": "https://dc.lft.to/lastmile_qr_scan"}, "fusion_lon": 0.0, "lat": 38.8668395, "is_disabled": 0, "bike_id": "5a1fecfb81ca6edea2d33bd0cc34b0da", "fusion_lat": 0.0, "is_reserved": 0, "lon": -76.98571083333333}, {"type": "electric_scooter", "name": "bf148a774dfd48252f83a79bab232277", "rental_uris": {"ios": "https://dc.lft.to/lastmile_qr_scan", "android": "https://dc.lft.to/lastmile_qr_scan"}, "fusion_lon": 0.0, "lat": 38.8663055, "is_disabled": 0, "bike_id": "bf148a774dfd48252f83a79bab232277", "fusion_lat": 0.0, "is_reserved": 0, "lon": -76.987102}, {"type": "electric_scooter", "name": "ccab48f182603e6bd7714f5c152d6d20", "rental_uris": {"ios": "https://dc.lft.to/lastmile_qr_scan", "android": "https://dc.lft.to/lastmile_qr_scan"}, "fusion_lon": 0.0, "lat": 38.908328, "is_disabled": 0, "bike_id": "ccab48f182603e6bd7714f5c152d6d20", "fusion_lat": 0.0, "is_reserved": 0, "lon": -77.04333816666667}, {"type": "electric_bike", "name": "ad60992a60793d20d81e0d172d796a0b", "rental_uris": {"ios": "https://dc.lft.to/lastmile_qr_scan", "android": "https://dc.lft.to/lastmile_qr_scan"}, "fusion_lon": 0.0, "lat": 38.864589333333335, "is_disabled": 0, "bike_id": "ad60992a60793d20d81e0d172d796a0b", "fusion_lat": 0.0, "is_reserved": 0, "lon": -76.94533083333333}, {"type": "electric_scooter", "name": "bc44bc7449c50854e8b0bd0e2c1dfb63", "rental_uris": {"ios": "https://dc.lft.to/lastmile_qr_scan", "android": "https://dc.lft.to/lastmile_qr_scan"}, "fusion_lon": 0.0, "lat": 38.92468916666667, "is_disabled": 0, "bike_id": "bc44bc7449c50854e8b0bd0e2c1dfb63", "fusion_lat": 0.0, "is_reserved": 0, "lon": -77.038207}, {"type": "electric_scooter", "name": "3e3ec8f84da4bd96e66bdfad6c672742", "rental_uris": {"ios": "https://dc.lft.to/lastmile_qr_scan", "android": "https://dc.lft.to/lastmile_qr_scan"}, "fusion_lon": 0.0, "lat": 38.92872966666667, "is_disabled": 0, "bike_id": "3e3ec8f84da4bd96e66bdfad6c672742", "fusion_lat": 0.0, "is_reserved": 0, "lon": -77.01413966666667}, {"type": "electric_scooter", "name": "4642725afef20ea65579c9d535e14004", "rental_uris": {"ios": "https://dc.lft.to/lastmile_qr_scan", "android": "https://dc.lft.to/lastmile_qr_scan"}, "fusion_lon": 0.0, "lat": 38.8922265, "is_disabled": 0, "bike_id": "4642725afef20ea65579c9d535e14004", "fusion_lat": 0.0, "is_reserved": 0, "lon": -77.04196216666666}, {"type": "electric_scooter", "name": "75dd96ad23c0a598adaef04ecfe8bd31", "rental_uris": {"ios": "https://dc.lft.to/lastmile_qr_scan", "android": "https://dc.lft.to/lastmile_qr_scan"}, "fusion_lon": 0.0, "lat": 38.902601833333335, "is_disabled": 0, "bike_id": "75dd96ad23c0a598adaef04ecfe8bd31", "fusion_lat": 0.0, "is_reserved": 0, "lon": -77.01840383333334}, {"type": "electric_scooter", "name": "880ad9e13730e2109d1c801cfb24c5f1", "rental_uris": {"ios": "https://dc.lft.to/lastmile_qr_scan", "android": "https://dc.lft.to/lastmile_qr_scan"}, "fusion_lon": 0.0, "lat": 38.916295166666664, "is_disabled": 0, "bike_id": "880ad9e13730e2109d1c801cfb24c5f1", "fusion_lat": 0.0, "is_reserved": 0, "lon": -77.04000033333334}, {"type": "electric_scooter", "name": "9562a947f9160c7e3cadbaea7c29033d", "rental_uris": {"ios": "https://dc.lft.to/lastmile_qr_scan", "android": "https://dc.lft.to/lastmile_qr_scan"}, "fusion_lon": 0.0, "lat": 38.95496116666666, "is_disabled": 0, "bike_id": "9562a947f9160c7e3cadbaea7c29033d", "fusion_lat": 0.0, "is_reserved": 0, "lon": -77.01726066666667}, {"type": "electric_scooter", "name": "5c7f463c5cb735d6df12cc901142167a", "rental_uris": {"ios": "https://dc.lft.to/lastmile_qr_scan", "android": "https://dc.lft.to/lastmile_qr_scan"}, "fusion_lon": 0.0, "lat": 38.92792383333333, "is_disabled": 0, "bike_id": "5c7f463c5cb735d6df12cc901142167a", "fusion_lat": 0.0, "is_reserved": 0, "lon": -77.03152266666666}, {"type": "electric_scooter", "name": "cd2a87e6cd0aa5c2621aac723ac12f98", "rental_uris": {"ios": "https://dc.lft.to/lastmile_qr_scan", "android": "https://dc.lft.to/lastmile_qr_scan"}, "fusion_lon": 0.0, "lat": 38.91708533333333, "is_disabled": 0, "bike_id": "cd2a87e6cd0aa5c2621aac723ac12f98", "fusion_lat": 0.0, "is_reserved": 0, "lon": -77.02386933333334}, {"type": "electric_scooter", "name": "e8faa7d988531b77495e9f1e2e925f2f", "rental_uris": {"ios": "https://dc.lft.to/lastmile_qr_scan", "android": "https://dc.lft.to/lastmile_qr_scan"}, "fusion_lon": 0.0, "lat": 38.896751333333334, "is_disabled": 0, "bike_id": "e8faa7d988531b77495e9f1e2e925f2f", "fusion_lat": 0.0, "is_reserved": 0, "lon": -77.0319595}, {"type": "electric_scooter", "name": "4b5fbc0ffcff6f784868610462cc379f", "rental_uris": {"ios": "https://dc.lft.to/lastmile_qr_scan", "android": "https://dc.lft.to/lastmile_qr_scan"}, "fusion_lon": 0.0, "lat": 38.8936025, "is_disabled": 0, "bike_id": "4b5fbc0ffcff6f784868610462cc379f", "fusion_lat": 0.0, "is_reserved": 0, "lon": -77.01971716666667}, {"type": "electric_scooter", "name": "bce5aa3eb94efce41b402d3cea156524", "rental_uris": {"ios": "https://dc.lft.to/lastmile_qr_scan", "android": "https://dc.lft.to/lastmile_qr_scan"}, "fusion_lon": 0.0, "lat": 38.90027633333333, "is_disabled": 0, "bike_id": "bce5aa3eb94efce41b402d3cea156524", "fusion_lat": 0.0, "is_reserved": 0, "lon": -76.9875465}, {"type": "electric_scooter", "name": "44d49395866312d549b761a2a8a3d4d2", "rental_uris": {"ios": "https://dc.lft.to/lastmile_qr_scan", "android": "https://dc.lft.to/lastmile_qr_scan"}, "fusion_lon": 0.0, "lat": 38.8843455, "is_disabled": 0, "bike_id": "44d49395866312d549b761a2a8a3d4d2", "fusion_lat": 0.0, "is_reserved": 0, "lon": -77.01519633333334}, {"type": "electric_scooter", "name": "ce3a23916960f630cff1c00474c3e787", "rental_uris": {"ios": "https://dc.lft.to/lastmile_qr_scan", "android": "https://dc.lft.to/lastmile_qr_scan"}, "fusion_lon": 0.0, "lat": 38.9413705, "is_disabled": 0, "bike_id": "ce3a23916960f630cff1c00474c3e787", "fusion_lat": 0.0, "is_reserved": 0, "lon": -77.0154265}, {"type": "electric_scooter", "name": "b797ef6647e58d45da6cf62b1dba3397", "rental_uris": {"ios": "https://dc.lft.to/lastmile_qr_scan", "android": "https://dc.lft.to/lastmile_qr_scan"}, "fusion_lon": 0.0, "lat": 38.939002, "is_disabled": 0, "bike_id": "b797ef6647e58d45da6cf62b1dba3397", "fusion_lat": 0.0, "is_reserved": 0, "lon": -77.03327016666667}, {"type": "electric_scooter", "name": "cb4930616baf2442d34eb9bf6c1eafba", "rental_uris": {"ios": "https://dc.lft.to/lastmile_qr_scan", "android": "https://dc.lft.to/lastmile_qr_scan"}, "fusion_lon": 0.0, "lat": 38.92517433333333, "is_disabled": 0, "bike_id": "cb4930616baf2442d34eb9bf6c1eafba", "fusion_lat": 0.0, "is_reserved": 0, "lon": -77.05129533333333}, {"type": "electric_scooter", "name": "21ac2ee56bcacc1b2d53cd6343dfef56", "rental_uris": {"ios": "https://dc.lft.to/lastmile_qr_scan", "android": "https://dc.lft.to/lastmile_qr_scan"}, "fusion_lon": 0.0, "lat": 38.927440833333335, "is_disabled": 0, "bike_id": "21ac2ee56bcacc1b2d53cd6343dfef56", "fusion_lat": 0.0, "is_reserved": 0, "lon": -77.02536266666667}, {"type": "electric_scooter", "name": "47fcb747367b59ab06e7744e42c0f0b5", "rental_uris": {"ios": "https://dc.lft.to/lastmile_qr_scan", "android": "https://dc.lft.to/lastmile_qr_scan"}, "fusion_lon": 0.0, "lat": 38.92029766666667, "is_disabled": 0, "bike_id": "47fcb747367b59ab06e7744e42c0f0b5", "fusion_lat": 0.0, "is_reserved": 0, "lon": -77.01790233333334}, {"type": "electric_scooter", "name": "45b366bf82f4257b4f745deeeb8a41d8", "rental_uris": {"ios": "https://dc.lft.to/lastmile_qr_scan", "android": "https://dc.lft.to/lastmile_qr_scan"}, "fusion_lon": 0.0, "lat": 38.92404366666667, "is_disabled": 0, "bike_id": "45b366bf82f4257b4f745deeeb8a41d8", "fusion_lat": 0.0, "is_reserved": 0, "lon": -77.0446755}, {"type": "electric_scooter", "name": "37db22b6979659a869bbed0acf2c4725", "rental_uris": {"ios": "https://dc.lft.to/lastmile_qr_scan", "android": "https://dc.lft.to/lastmile_qr_scan"}, "fusion_lon": 0.0, "lat": 38.921112666666666, "is_disabled": 0, "bike_id": "37db22b6979659a869bbed0acf2c4725", "fusion_lat": 0.0, "is_reserved": 0, "lon": -77.02414433333334}, {"type": "electric_scooter", "name": "322e7503047fe5e10184a0451569cf86", "rental_uris": {"ios": "https://dc.lft.to/lastmile_qr_scan", "android": "https://dc.lft.to/lastmile_qr_scan"}, "fusion_lon": 0.0, "lat": 38.88720716666667, "is_disabled": 0, "bike_id": "322e7503047fe5e10184a0451569cf86", "fusion_lat": 0.0, "is_reserved": 0, "lon": -76.99690416666667}, {"type": "electric_scooter", "name": "f15ccf0d46da6a437ca704c49c28d324", "rental_uris": {"ios": "https://dc.lft.to/lastmile_qr_scan", "android": "https://dc.lft.to/lastmile_qr_scan"}, "fusion_lon": 0.0, "lat": 38.926852833333335, "is_disabled": 0, "bike_id": "f15ccf0d46da6a437ca704c49c28d324", "fusion_lat": 0.0, "is_reserved": 0, "lon": -77.0148085}, {"type": "electric_scooter", "name": "5b683596ad277a4383ea257f82e96b86", "rental_uris": {"ios": "https://dc.lft.to/lastmile_qr_scan", "android": "https://dc.lft.to/lastmile_qr_scan"}, "fusion_lon": 0.0, "lat": 38.9204075, "is_disabled": 0, "bike_id": "5b683596ad277a4383ea257f82e96b86", "fusion_lat": 0.0, "is_reserved": 0, "lon": -77.01795583333333}, {"type": "electric_scooter", "name": "a966f69ddc45bf812152d6e93f172a32", "rental_uris": {"ios": "https://dc.lft.to/lastmile_qr_scan", "android": "https://dc.lft.to/lastmile_qr_scan"}, "fusion_lon": 0.0, "lat": 38.932395666666665, "is_disabled": 0, "bike_id": "a966f69ddc45bf812152d6e93f172a32", "fusion_lat": 0.0, "is_reserved": 0, "lon": -77.03421}, {"type": "electric_bike", "name": "431794950a25ef61e79783b9b49f5e8e", "rental_uris": {"ios": "https://dc.lft.to/lastmile_qr_scan", "android": "https://dc.lft.to/lastmile_qr_scan"}, "fusion_lon": 0.0, "lat": 38.896161166666666, "is_disabled": 0, "bike_id": "431794950a25ef61e79783b9b49f5e8e", "fusion_lat": 0.0, "is_reserved": 0, "lon": -76.907462}, {"type": "electric_scooter", "name": "e761fa4ec3cdd6000458378a28ac2e03", "rental_uris": {"ios": "https://dc.lft.to/lastmile_qr_scan", "android": "https://dc.lft.to/lastmile_qr_scan"}, "fusion_lon": 0.0, "lat": 38.910346, "is_disabled": 0, "bike_id": "e761fa4ec3cdd6000458378a28ac2e03", "fusion_lat": 0.0, "is_reserved": 0, "lon": -77.02927183333334}, {"type": "electric_scooter", "name": "69676e1a3be2de3f46f98e990eb64f7f", "rental_uris": {"ios": "https://dc.lft.to/lastmile_qr_scan", "android": "https://dc.lft.to/lastmile_qr_scan"}, "fusion_lon": 0.0, "lat": 38.90605333333333, "is_disabled": 0, "bike_id": "69676e1a3be2de3f46f98e990eb64f7f", "fusion_lat": 0.0, "is_reserved": 0, "lon": -77.0569385}, {"type": "electric_bike", "name": "173f339860eefafe581d54af1341dc71", "rental_uris": {"ios": "https://dc.lft.to/lastmile_qr_scan", "android": "https://dc.lft.to/lastmile_qr_scan"}, "fusion_lon": 0.0, "lat": 38.8045275, "is_disabled": 0, "bike_id": "173f339860eefafe581d54af1341dc71", "fusion_lat": 0.0, "is_reserved": 0, "lon": -77.05394916666667}, {"type": "electric_scooter", "name": "8210b40e43175858e20af29017e92ded", "rental_uris": {"ios": "https://dc.lft.to/lastmile_qr_scan", "android": "https://dc.lft.to/lastmile_qr_scan"}, "fusion_lon": 0.0, "lat": 38.9315055, "is_disabled": 0, "bike_id": "8210b40e43175858e20af29017e92ded", "fusion_lat": 0.0, "is_reserved": 0, "lon": -77.04185033333333}, {"type": "electric_scooter", "name": "a8f7365c1cb73177232a927e22dd5d0d", "rental_uris": {"ios": "https://dc.lft.to/lastmile_qr_scan", "android": "https://dc.lft.to/lastmile_qr_scan"}, "fusion_lon": 0.0, "lat": 38.89848, "is_disabled": 0, "bike_id": "a8f7365c1cb73177232a927e22dd5d0d", "fusion_lat": 0.0, "is_reserved": 0, "lon": -77.04163333333334}, {"type": "electric_scooter", "name": "c7e045a9dc918276e0e5875c7b886548", "rental_uris": {"ios": "https://dc.lft.to/lastmile_qr_scan", "android": "https://dc.lft.to/lastmile_qr_scan"}, "fusion_lon": 0.0, "lat": 38.915678, "is_disabled": 0, "bike_id": "c7e045a9dc918276e0e5875c7b886548", "fusion_lat": 0.0, "is_reserved": 0, "lon": -77.03223816666667}, {"type": "electric_scooter", "name": "1ffd9b8fa3106994d67a3bb788a3c603", "rental_uris": {"ios": "https://dc.lft.to/lastmile_qr_scan", "android": "https://dc.lft.to/lastmile_qr_scan"}, "fusion_lon": 0.0, "lat": 38.975149333333334, "is_disabled": 0, "bike_id": "1ffd9b8fa3106994d67a3bb788a3c603", "fusion_lat": 0.0, "is_reserved": 0, "lon": -77.016698}, {"type": "electric_scooter", "name": "4c606fe01fa0c4416238a2d0a2b36ace", "rental_uris": {"ios": "https://dc.lft.to/lastmile_qr_scan", "android": "https://dc.lft.to/lastmile_qr_scan"}, "fusion_lon": 0.0, "lat": 38.90951, "is_disabled": 0, "bike_id": "4c606fe01fa0c4416238a2d0a2b36ace", "fusion_lat": 0.0, "is_reserved": 0, "lon": -76.99891116666667}, {"type": "electric_scooter", "name": "a3093151f602153b14c74b4c0e345c03", "rental_uris": {"ios": "https://dc.lft.to/lastmile_qr_scan", "android": "https://dc.lft.to/lastmile_qr_scan"}, "fusion_lon": 0.0, "lat": 38.895556166666665, "is_disabled": 0, "bike_id": "a3093151f602153b14c74b4c0e345c03", "fusion_lat": 0.0, "is_reserved": 0, "lon": -77.039593}, {"type": "electric_scooter", "name": "cee425f63aec7bfd22e327efd1819c4a", "rental_uris": {"ios": "https://dc.lft.to/lastmile_qr_scan", "android": "https://dc.lft.to/lastmile_qr_scan"}, "fusion_lon": 0.0, "lat": 38.94276133333334, "is_disabled": 0, "bike_id": "cee425f63aec7bfd22e327efd1819c4a", "fusion_lat": 0.0, "is_reserved": 0, "lon": -77.0126995}, {"type": "electric_scooter", "name": "34e17925ac377cb32cad2b9a07c9676e", "rental_uris": {"ios": "https://dc.lft.to/lastmile_qr_scan", "android": "https://dc.lft.to/lastmile_qr_scan"}, "fusion_lon": 0.0, "lat": 38.918434833333336, "is_disabled": 0, "bike_id": "34e17925ac377cb32cad2b9a07c9676e", "fusion_lat": 0.0, "is_reserved": 0, "lon": -77.04495516666667}, {"type": "electric_bike", "name": "1bc3439925ae63daceb07a4b4da2630c", "rental_uris": {"ios": "https://dc.lft.to/lastmile_qr_scan", "android": "https://dc.lft.to/lastmile_qr_scan"}, "fusion_lon": 0.0, "lat": 38.903062166666665, "is_disabled": 0, "bike_id": "1bc3439925ae63daceb07a4b4da2630c", "fusion_lat": 0.0, "is_reserved": 0, "lon": -76.97653816666667}, {"type": "electric_scooter", "name": "62b748132734641ff574475d5be14afa", "rental_uris": {"ios": "https://dc.lft.to/lastmile_qr_scan", "android": "https://dc.lft.to/lastmile_qr_scan"}, "fusion_lon": 0.0, "lat": 38.89527866666667, "is_disabled": 0, "bike_id": "62b748132734641ff574475d5be14afa", "fusion_lat": 0.0, "is_reserved": 0, "lon": -77.02829233333334}, {"type": "electric_scooter", "name": "dc18d25bee9ad59b2c347440ab82f977", "rental_uris": {"ios": "https://dc.lft.to/lastmile_qr_scan", "android": "https://dc.lft.to/lastmile_qr_scan"}, "fusion_lon": 0.0, "lat": 38.92533433333333, "is_disabled": 0, "bike_id": "dc18d25bee9ad59b2c347440ab82f977", "fusion_lat": 0.0, "is_reserved": 0, "lon": -77.03535083333334}, {"type": "electric_bike", "name": "cec6ce22a86c221bbe360899570b6dee", "rental_uris": {"ios": "https://dc.lft.to/lastmile_qr_scan", "android": "https://dc.lft.to/lastmile_qr_scan"}, "fusion_lon": 0.0, "lat": 38.83367033333333, "is_disabled": 0, "bike_id": "cec6ce22a86c221bbe360899570b6dee", "fusion_lat": 0.0, "is_reserved": 0, "lon": -77.00304766666666}, {"type": "electric_scooter", "name": "a945c54c1d30f4232d96340b36830ec0", "rental_uris": {"ios": "https://dc.lft.to/lastmile_qr_scan", "android": "https://dc.lft.to/lastmile_qr_scan"}, "fusion_lon": 0.0, "lat": 38.909668333333336, "is_disabled": 0, "bike_id": "a945c54c1d30f4232d96340b36830ec0", "fusion_lat": 0.0, "is_reserved": 0, "lon": -77.02276116666667}, {"type": "electric_scooter", "name": "085055a736d19d33d4914e4df3a38de8", "rental_uris": {"ios": "https://dc.lft.to/lastmile_qr_scan", "android": "https://dc.lft.to/lastmile_qr_scan"}, "fusion_lon": 0.0, "lat": 38.89426616666667, "is_disabled": 0, "bike_id": "085055a736d19d33d4914e4df3a38de8", "fusion_lat": 0.0, "is_reserved": 0, "lon": -77.00096983333333}, {"type": "electric_scooter", "name": "174490a6153423dcb403bcb3df01e127", "rental_uris": {"ios": "https://dc.lft.to/lastmile_qr_scan", "android": "https://dc.lft.to/lastmile_qr_scan"}, "fusion_lon": 0.0, "lat": 38.92325266666667, "is_disabled": 0, "bike_id": "174490a6153423dcb403bcb3df01e127", "fusion_lat": 0.0, "is_reserved": 0, "lon": -77.02967633333333}, {"type": "electric_scooter", "name": "998e984267d9ea5d2fe923490a40fcd2", "rental_uris": {"ios": "https://dc.lft.to/lastmile_qr_scan", "android": "https://dc.lft.to/lastmile_qr_scan"}, "fusion_lon": 0.0, "lat": 38.897317, "is_disabled": 0, "bike_id": "998e984267d9ea5d2fe923490a40fcd2", "fusion_lat": 0.0, "is_reserved": 0, "lon": -77.05524016666666}, {"type": "electric_scooter", "name": "c93ff5df4a60357d31fc95cf9aa4168a", "rental_uris": {"ios": "https://dc.lft.to/lastmile_qr_scan", "android": "https://dc.lft.to/lastmile_qr_scan"}, "fusion_lon": 0.0, "lat": 38.907142, "is_disabled": 0, "bike_id": "c93ff5df4a60357d31fc95cf9aa4168a", "fusion_lat": 0.0, "is_reserved": 0, "lon": -77.0689755}, {"type": "electric_scooter", "name": "27c6322bd816146a31ef5cb95c4423a4", "rental_uris": {"ios": "https://dc.lft.to/lastmile_qr_scan", "android": "https://dc.lft.to/lastmile_qr_scan"}, "fusion_lon": 0.0, "lat": 38.9274665, "is_disabled": 0, "bike_id": "27c6322bd816146a31ef5cb95c4423a4", "fusion_lat": 0.0, "is_reserved": 0, "lon": -77.0213775}, {"type": "electric_scooter", "name": "19213f3a1d87665cc2487e9648a0ef2a", "rental_uris": {"ios": "https://dc.lft.to/lastmile_qr_scan", "android": "https://dc.lft.to/lastmile_qr_scan"}, "fusion_lon": 0.0, "lat": 38.93902083333333, "is_disabled": 0, "bike_id": "19213f3a1d87665cc2487e9648a0ef2a", "fusion_lat": 0.0, "is_reserved": 0, "lon": -77.0333535}, {"type": "electric_scooter", "name": "ac51ff5b5c0967da394f1d59284e7623", "rental_uris": {"ios": "https://dc.lft.to/lastmile_qr_scan", "android": "https://dc.lft.to/lastmile_qr_scan"}, "fusion_lon": 0.0, "lat": 38.91772116666667, "is_disabled": 0, "bike_id": "ac51ff5b5c0967da394f1d59284e7623", "fusion_lat": 0.0, "is_reserved": 0, "lon": -77.0229235}, {"type": "electric_scooter", "name": "6e1cab294d5e04dc6d1767ef4fb04f54", "rental_uris": {"ios": "https://dc.lft.to/lastmile_qr_scan", "android": "https://dc.lft.to/lastmile_qr_scan"}, "fusion_lon": 0.0, "lat": 38.907286, "is_disabled": 0, "bike_id": "6e1cab294d5e04dc6d1767ef4fb04f54", "fusion_lat": 0.0, "is_reserved": 0, "lon": -76.98616816666667}, {"type": "electric_scooter", "name": "478e2bbf0bd4f666454607e345577443", "rental_uris": {"ios": "https://dc.lft.to/lastmile_qr_scan", "android": "https://dc.lft.to/lastmile_qr_scan"}, "fusion_lon": 0.0, "lat": 38.905666333333336, "is_disabled": 0, "bike_id": "478e2bbf0bd4f666454607e345577443", "fusion_lat": 0.0, "is_reserved": 0, "lon": -77.03446416666667}, {"type": "electric_scooter", "name": "70496773238bcc87baa5e9f81bf46a94", "rental_uris": {"ios": "https://dc.lft.to/lastmile_qr_scan", "android": "https://dc.lft.to/lastmile_qr_scan"}, "fusion_lon": 0.0, "lat": 38.89666783333333, "is_disabled": 0, "bike_id": "70496773238bcc87baa5e9f81bf46a94", "fusion_lat": 0.0, "is_reserved": 0, "lon": -77.050583}, {"type": "electric_scooter", "name": "2be578227437a05b2119167e4adec02a", "rental_uris": {"ios": "https://dc.lft.to/lastmile_qr_scan", "android": "https://dc.lft.to/lastmile_qr_scan"}, "fusion_lon": 0.0, "lat": 38.8650885, "is_disabled": 0, "bike_id": "2be578227437a05b2119167e4adec02a", "fusion_lat": 0.0, "is_reserved": 0, "lon": -76.99005116666666}, {"type": "electric_bike", "name": "0893e19b41e92fe0f9391c4fb149e39e", "rental_uris": {"ios": "https://dc.lft.to/lastmile_qr_scan", "android": "https://dc.lft.to/lastmile_qr_scan"}, "fusion_lon": 0.0, "lat": 38.946652, "is_disabled": 0, "bike_id": "0893e19b41e92fe0f9391c4fb149e39e", "fusion_lat": 0.0, "is_reserved": 0, "lon": -77.00692316666667}, {"type": "electric_bike", "name": "a73a347e806d67670e63ecb736e87342", "rental_uris": {"ios": "https://dc.lft.to/lastmile_qr_scan", "android": "https://dc.lft.to/lastmile_qr_scan"}, "fusion_lon": 0.0, "lat": 38.904929333333335, "is_disabled": 0, "bike_id": "a73a347e806d67670e63ecb736e87342", "fusion_lat": 0.0, "is_reserved": 0, "lon": -76.97429033333333}, {"type": "electric_bike", "name": "8dfbb6f6985d99dd44a1c5817aeeb8f9", "rental_uris": {"ios": "https://dc.lft.to/lastmile_qr_scan", "android": "https://dc.lft.to/lastmile_qr_scan"}, "fusion_lon": 0.0, "lat": 38.84278316666666, "is_disabled": 0, "bike_id": "8dfbb6f6985d99dd44a1c5817aeeb8f9", "fusion_lat": 0.0, "is_reserved": 0, "lon": -76.988414}, {"type": "electric_scooter", "name": "a61e610ad4e294fff20f113137f0d5f1", "rental_uris": {"ios": "https://dc.lft.to/lastmile_qr_scan", "android": "https://dc.lft.to/lastmile_qr_scan"}, "fusion_lon": 0.0, "lat": 38.8973815, "is_disabled": 0, "bike_id": "a61e610ad4e294fff20f113137f0d5f1", "fusion_lat": 0.0, "is_reserved": 0, "lon": -77.01967516666667}, {"type": "electric_bike", "name": "10179c049f37e0a611cbaa26631c5e69", "rental_uris": {"ios": "https://dc.lft.to/lastmile_qr_scan", "android": "https://dc.lft.to/lastmile_qr_scan"}, "fusion_lon": 0.0, "lat": 38.86265216666666, "is_disabled": 0, "bike_id": "10179c049f37e0a611cbaa26631c5e69", "fusion_lat": 0.0, "is_reserved": 0, "lon": -76.983521}, {"type": "electric_scooter", "name": "87d73beb6724babbd1d94c99ea5d9e9e", "rental_uris": {"ios": "https://dc.lft.to/lastmile_qr_scan", "android": "https://dc.lft.to/lastmile_qr_scan"}, "fusion_lon": 0.0, "lat": 38.9367645, "is_disabled": 0, "bike_id": "87d73beb6724babbd1d94c99ea5d9e9e", "fusion_lat": 0.0, "is_reserved": 0, "lon": -77.03593483333333}, {"type": "electric_bike", "name": "44d0c689d0afb2e79edcdd719c48849d", "rental_uris": {"ios": "https://dc.lft.to/lastmile_qr_scan", "android": "https://dc.lft.to/lastmile_qr_scan"}, "fusion_lon": 0.0, "lat": 38.93631716666667, "is_disabled": 0, "bike_id": "44d0c689d0afb2e79edcdd719c48849d", "fusion_lat": 0.0, "is_reserved": 0, "lon": -77.03650183333333}, {"type": "electric_scooter", "name": "6953e8eed6c73729f4cf16d11d2395d5", "rental_uris": {"ios": "https://dc.lft.to/lastmile_qr_scan", "android": "https://dc.lft.to/lastmile_qr_scan"}, "fusion_lon": 0.0, "lat": 38.904729, "is_disabled": 0, "bike_id": "6953e8eed6c73729f4cf16d11d2395d5", "fusion_lat": 0.0, "is_reserved": 0, "lon": -77.034851}, {"type": "electric_scooter", "name": "fccfc76dc713ad1c1c33f16a08444ef7", "rental_uris": {"ios": "https://dc.lft.to/lastmile_qr_scan", "android": "https://dc.lft.to/lastmile_qr_scan"}, "fusion_lon": 0.0, "lat": 38.90120116666667, "is_disabled": 0, "bike_id": "fccfc76dc713ad1c1c33f16a08444ef7", "fusion_lat": 0.0, "is_reserved": 0, "lon": -77.0323925}, {"type": "electric_bike", "name": "735f7e16e51bf95f5f3547b449924541", "rental_uris": {"ios": "https://dc.lft.to/lastmile_qr_scan", "android": "https://dc.lft.to/lastmile_qr_scan"}, "fusion_lon": 0.0, "lat": 38.9317515, "is_disabled": 0, "bike_id": "735f7e16e51bf95f5f3547b449924541", "fusion_lat": 0.0, "is_reserved": 0, "lon": -77.0354315}, {"type": "electric_scooter", "name": "d879ec799df3a7b2174b3cde13120dc6", "rental_uris": {"ios": "https://dc.lft.to/lastmile_qr_scan", "android": "https://dc.lft.to/lastmile_qr_scan"}, "fusion_lon": 0.0, "lat": 38.907247, "is_disabled": 0, "bike_id": "d879ec799df3a7b2174b3cde13120dc6", "fusion_lat": 0.0, "is_reserved": 0, "lon": -77.00193366666667}, {"type": "electric_scooter", "name": "d7279f9c0ee9322a047c9011752e7391", "rental_uris": {"ios": "https://dc.lft.to/lastmile_qr_scan", "android": "https://dc.lft.to/lastmile_qr_scan"}, "fusion_lon": 0.0, "lat": 38.904963, "is_disabled": 0, "bike_id": "d7279f9c0ee9322a047c9011752e7391", "fusion_lat": 0.0, "is_reserved": 0, "lon": -77.06122766666667}, {"type": "electric_scooter", "name": "8f1fcf603e8284a5e6bea6905ace1c36", "rental_uris": {"ios": "https://dc.lft.to/lastmile_qr_scan", "android": "https://dc.lft.to/lastmile_qr_scan"}, "fusion_lon": 0.0, "lat": 38.877392, "is_disabled": 0, "bike_id": "8f1fcf603e8284a5e6bea6905ace1c36", "fusion_lat": 0.0, "is_reserved": 0, "lon": -77.00379966666667}, {"type": "electric_scooter", "name": "14bd8e137fe61e7e163c752d2b23255c", "rental_uris": {"ios": "https://dc.lft.to/lastmile_qr_scan", "android": "https://dc.lft.to/lastmile_qr_scan"}, "fusion_lon": 0.0, "lat": 38.92385516666667, "is_disabled": 0, "bike_id": "14bd8e137fe61e7e163c752d2b23255c", "fusion_lat": 0.0, "is_reserved": 0, "lon": -77.02483083333334}, {"type": "electric_scooter", "name": "edb6ac9505fadb3105aa79f476415705", "rental_uris": {"ios": "https://dc.lft.to/lastmile_qr_scan", "android": "https://dc.lft.to/lastmile_qr_scan"}, "fusion_lon": 0.0, "lat": 38.9192085, "is_disabled": 0, "bike_id": "edb6ac9505fadb3105aa79f476415705", "fusion_lat": 0.0, "is_reserved": 0, "lon": -77.03195833333334}, {"type": "electric_scooter", "name": "6fd740668fdcbe533a33fca98df33963", "rental_uris": {"ios": "https://dc.lft.to/lastmile_qr_scan", "android": "https://dc.lft.to/lastmile_qr_scan"}, "fusion_lon": 0.0, "lat": 38.922690833333334, "is_disabled": 0, "bike_id": "6fd740668fdcbe533a33fca98df33963", "fusion_lat": 0.0, "is_reserved": 0, "lon": -77.03259983333334}, {"type": "electric_scooter", "name": "8e92929934e6127bbc12266d981abe04", "rental_uris": {"ios": "https://dc.lft.to/lastmile_qr_scan", "android": "https://dc.lft.to/lastmile_qr_scan"}, "fusion_lon": 0.0, "lat": 38.8651065, "is_disabled": 0, "bike_id": "8e92929934e6127bbc12266d981abe04", "fusion_lat": 0.0, "is_reserved": 0, "lon": -76.990087}, {"type": "electric_scooter", "name": "0efc5eb6af125b2b8d951f3dff549820", "rental_uris": {"ios": "https://dc.lft.to/lastmile_qr_scan", "android": "https://dc.lft.to/lastmile_qr_scan"}, "fusion_lon": 0.0, "lat": 38.887659666666664, "is_disabled": 0, "bike_id": "0efc5eb6af125b2b8d951f3dff549820", "fusion_lat": 0.0, "is_reserved": 0, "lon": -76.9774655}, {"type": "electric_scooter", "name": "31bacf04f50d0acecbaae64a48fe6d0a", "rental_uris": {"ios": "https://dc.lft.to/lastmile_qr_scan", "android": "https://dc.lft.to/lastmile_qr_scan"}, "fusion_lon": 0.0, "lat": 38.93275583333333, "is_disabled": 0, "bike_id": "31bacf04f50d0acecbaae64a48fe6d0a", "fusion_lat": 0.0, "is_reserved": 0, "lon": -77.04538466666666}, {"type": "electric_scooter", "name": "7940577349e3c480b70f11c137c65441", "rental_uris": {"ios": "https://dc.lft.to/lastmile_qr_scan", "android": "https://dc.lft.to/lastmile_qr_scan"}, "fusion_lon": 0.0, "lat": 38.900077333333336, "is_disabled": 0, "bike_id": "7940577349e3c480b70f11c137c65441", "fusion_lat": 0.0, "is_reserved": 0, "lon": -77.0410465}, {"type": "electric_scooter", "name": "e85e7bd43f5308ef4cae22a58f03fbc3", "rental_uris": {"ios": "https://dc.lft.to/lastmile_qr_scan", "android": "https://dc.lft.to/lastmile_qr_scan"}, "fusion_lon": 0.0, "lat": 38.944566333333334, "is_disabled": 0, "bike_id": "e85e7bd43f5308ef4cae22a58f03fbc3", "fusion_lat": 0.0, "is_reserved": 0, "lon": -77.023397}, {"type": "electric_scooter", "name": "49e69ecab19a61a84f51b9b6ae7de943", "rental_uris": {"ios": "https://dc.lft.to/lastmile_qr_scan", "android": "https://dc.lft.to/lastmile_qr_scan"}, "fusion_lon": 0.0, "lat": 38.9220245, "is_disabled": 0, "bike_id": "49e69ecab19a61a84f51b9b6ae7de943", "fusion_lat": 0.0, "is_reserved": 0, "lon": -77.041307}, {"type": "electric_scooter", "name": "04532d52e128db107433e89534974e5c", "rental_uris": {"ios": "https://dc.lft.to/lastmile_qr_scan", "android": "https://dc.lft.to/lastmile_qr_scan"}, "fusion_lon": 0.0, "lat": 38.90917833333334, "is_disabled": 0, "bike_id": "04532d52e128db107433e89534974e5c", "fusion_lat": 0.0, "is_reserved": 0, "lon": -76.9991435}, {"type": "electric_scooter", "name": "dcc125a76b68274cacc204cbcdba26e6", "rental_uris": {"ios": "https://dc.lft.to/lastmile_qr_scan", "android": "https://dc.lft.to/lastmile_qr_scan"}, "fusion_lon": 0.0, "lat": 38.97636633333333, "is_disabled": 0, "bike_id": "dcc125a76b68274cacc204cbcdba26e6", "fusion_lat": 0.0, "is_reserved": 0, "lon": -77.015648}, {"type": "electric_bike", "name": "59eb390c70133021810e7b3c6a0fe1cc", "rental_uris": {"ios": "https://dc.lft.to/lastmile_qr_scan", "android": "https://dc.lft.to/lastmile_qr_scan"}, "fusion_lon": 0.0, "lat": 38.9414635, "is_disabled": 0, "bike_id": "59eb390c70133021810e7b3c6a0fe1cc", "fusion_lat": 0.0, "is_reserved": 0, "lon": -77.0019825}, {"type": "electric_scooter", "name": "c50bc46d1e2709ae76da28860fa160c3", "rental_uris": {"ios": "https://dc.lft.to/lastmile_qr_scan", "android": "https://dc.lft.to/lastmile_qr_scan"}, "fusion_lon": 0.0, "lat": 38.897194999999996, "is_disabled": 0, "bike_id": "c50bc46d1e2709ae76da28860fa160c3", "fusion_lat": 0.0, "is_reserved": 0, "lon": -77.00796766666667}, {"type": "electric_scooter", "name": "d0c4991d3731142247637a0841a3f467", "rental_uris": {"ios": "https://dc.lft.to/lastmile_qr_scan", "android": "https://dc.lft.to/lastmile_qr_scan"}, "fusion_lon": 0.0, "lat": 38.9014385, "is_disabled": 0, "bike_id": "d0c4991d3731142247637a0841a3f467", "fusion_lat": 0.0, "is_reserved": 0, "lon": -77.0371635}, {"type": "electric_scooter", "name": "20c5a6b8fbde906b0f66e10494f8b0be", "rental_uris": {"ios": "https://dc.lft.to/lastmile_qr_scan", "android": "https://dc.lft.to/lastmile_qr_scan"}, "fusion_lon": 0.0, "lat": 38.916873333333335, "is_disabled": 0, "bike_id": "20c5a6b8fbde906b0f66e10494f8b0be", "fusion_lat": 0.0, "is_reserved": 0, "lon": -77.04141366666667}, {"type": "electric_bike", "name": "82b21273a56b9868c7f72fd4c4efa228", "rental_uris": {"ios": "https://dc.lft.to/lastmile_qr_scan", "android": "https://dc.lft.to/lastmile_qr_scan"}, "fusion_lon": 0.0, "lat": 38.96530666666666, "is_disabled": 0, "bike_id": "82b21273a56b9868c7f72fd4c4efa228", "fusion_lat": 0.0, "is_reserved": 0, "lon": -77.02818633333334}, {"type": "electric_scooter", "name": "ffe5c8e6fdb566d3baaf8472a5633d22", "rental_uris": {"ios": "https://dc.lft.to/lastmile_qr_scan", "android": "https://dc.lft.to/lastmile_qr_scan"}, "fusion_lon": 0.0, "lat": 38.90716583333333, "is_disabled": 0, "bike_id": "ffe5c8e6fdb566d3baaf8472a5633d22", "fusion_lat": 0.0, "is_reserved": 0, "lon": -77.02958533333333}, {"type": "electric_scooter", "name": "cbca8ed8766404fd3d5bcc51b653ce9a", "rental_uris": {"ios": "https://dc.lft.to/lastmile_qr_scan", "android": "https://dc.lft.to/lastmile_qr_scan"}, "fusion_lon": 0.0, "lat": 38.9210595, "is_disabled": 0, "bike_id": "cbca8ed8766404fd3d5bcc51b653ce9a", "fusion_lat": 0.0, "is_reserved": 0, "lon": -77.074728}, {"type": "electric_scooter", "name": "4c7453d6a96282f3810eddc5481b08d5", "rental_uris": {"ios": "https://dc.lft.to/lastmile_qr_scan", "android": "https://dc.lft.to/lastmile_qr_scan"}, "fusion_lon": 0.0, "lat": 38.8850515, "is_disabled": 0, "bike_id": "4c7453d6a96282f3810eddc5481b08d5", "fusion_lat": 0.0, "is_reserved": 0, "lon": -77.007016}, {"type": "electric_scooter", "name": "8c37daf8191f5bf71c7ba92eecc17bc0", "rental_uris": {"ios": "https://dc.lft.to/lastmile_qr_scan", "android": "https://dc.lft.to/lastmile_qr_scan"}, "fusion_lon": 0.0, "lat": 38.865542, "is_disabled": 0, "bike_id": "8c37daf8191f5bf71c7ba92eecc17bc0", "fusion_lat": 0.0, "is_reserved": 0, "lon": -76.9835495}, {"type": "electric_scooter", "name": "efbe09bd47a2f0aa677d269171f46462", "rental_uris": {"ios": "https://dc.lft.to/lastmile_qr_scan", "android": "https://dc.lft.to/lastmile_qr_scan"}, "fusion_lon": 0.0, "lat": 38.925639333333336, "is_disabled": 0, "bike_id": "efbe09bd47a2f0aa677d269171f46462", "fusion_lat": 0.0, "is_reserved": 0, "lon": -77.027138}, {"type": "electric_scooter", "name": "b54bd6e77433307458ed9f80f13d5794", "rental_uris": {"ios": "https://dc.lft.to/lastmile_qr_scan", "android": "https://dc.lft.to/lastmile_qr_scan"}, "fusion_lon": 0.0, "lat": 38.92270166666667, "is_disabled": 0, "bike_id": "b54bd6e77433307458ed9f80f13d5794", "fusion_lat": 0.0, "is_reserved": 0, "lon": -77.02965566666667}, {"type": "electric_scooter", "name": "cf99d7f38dce969e43e2b70748c7b732", "rental_uris": {"ios": "https://dc.lft.to/lastmile_qr_scan", "android": "https://dc.lft.to/lastmile_qr_scan"}, "fusion_lon": 0.0, "lat": 38.8987365, "is_disabled": 0, "bike_id": "cf99d7f38dce969e43e2b70748c7b732", "fusion_lat": 0.0, "is_reserved": 0, "lon": -76.931893}, {"type": "electric_scooter", "name": "06b334c42c5d566ae4a7763e02b1e85a", "rental_uris": {"ios": "https://dc.lft.to/lastmile_qr_scan", "android": "https://dc.lft.to/lastmile_qr_scan"}, "fusion_lon": 0.0, "lat": 38.924878, "is_disabled": 0, "bike_id": "06b334c42c5d566ae4a7763e02b1e85a", "fusion_lat": 0.0, "is_reserved": 0, "lon": -77.02663683333333}, {"type": "electric_scooter", "name": "70f724a52fb0f026b82e8950cb382e3c", "rental_uris": {"ios": "https://dc.lft.to/lastmile_qr_scan", "android": "https://dc.lft.to/lastmile_qr_scan"}, "fusion_lon": 0.0, "lat": 38.90573066666666, "is_disabled": 0, "bike_id": "70f724a52fb0f026b82e8950cb382e3c", "fusion_lat": 0.0, "is_reserved": 0, "lon": -77.02408166666666}, {"type": "electric_scooter", "name": "fa3749b876bdc38fe7c3582294e97208", "rental_uris": {"ios": "https://dc.lft.to/lastmile_qr_scan", "android": "https://dc.lft.to/lastmile_qr_scan"}, "fusion_lon": 0.0, "lat": 38.902064333333335, "is_disabled": 0, "bike_id": "fa3749b876bdc38fe7c3582294e97208", "fusion_lat": 0.0, "is_reserved": 0, "lon": -77.023733}, {"type": "electric_scooter", "name": "83f1c924bfd2a59d9944e6b640c731b6", "rental_uris": {"ios": "https://dc.lft.to/lastmile_qr_scan", "android": "https://dc.lft.to/lastmile_qr_scan"}, "fusion_lon": 0.0, "lat": 38.9205205, "is_disabled": 0, "bike_id": "83f1c924bfd2a59d9944e6b640c731b6", "fusion_lat": 0.0, "is_reserved": 0, "lon": -77.032982}, {"type": "electric_scooter", "name": "30a1160cb860276c9a4a5828d53ad053", "rental_uris": {"ios": "https://dc.lft.to/lastmile_qr_scan", "android": "https://dc.lft.to/lastmile_qr_scan"}, "fusion_lon": 0.0, "lat": 38.91253016666667, "is_disabled": 0, "bike_id": "30a1160cb860276c9a4a5828d53ad053", "fusion_lat": 0.0, "is_reserved": 0, "lon": -77.04514133333333}, {"type": "electric_scooter", "name": "253fcb7b4506b32f4f5a12c6bdcdb79f", "rental_uris": {"ios": "https://dc.lft.to/lastmile_qr_scan", "android": "https://dc.lft.to/lastmile_qr_scan"}, "fusion_lon": 0.0, "lat": 38.899686333333335, "is_disabled": 0, "bike_id": "253fcb7b4506b32f4f5a12c6bdcdb79f", "fusion_lat": 0.0, "is_reserved": 0, "lon": -77.006602}, {"type": "electric_scooter", "name": "6d47afe091d53c4b92ccd7db72083537", "rental_uris": {"ios": "https://dc.lft.to/lastmile_qr_scan", "android": "https://dc.lft.to/lastmile_qr_scan"}, "fusion_lon": 0.0, "lat": 38.911077166666665, "is_disabled": 0, "bike_id": "6d47afe091d53c4b92ccd7db72083537", "fusion_lat": 0.0, "is_reserved": 0, "lon": -77.04226566666667}, {"type": "electric_scooter", "name": "7c2abeacf626a9a99fb85916f9c88bb7", "rental_uris": {"ios": "https://dc.lft.to/lastmile_qr_scan", "android": "https://dc.lft.to/lastmile_qr_scan"}, "fusion_lon": 0.0, "lat": 38.877536, "is_disabled": 0, "bike_id": "7c2abeacf626a9a99fb85916f9c88bb7", "fusion_lat": 0.0, "is_reserved": 0, "lon": -77.00708416666667}, {"type": "electric_scooter", "name": "e826e13a6e1700d5f81de98cebc00703", "rental_uris": {"ios": "https://dc.lft.to/lastmile_qr_scan", "android": "https://dc.lft.to/lastmile_qr_scan"}, "fusion_lon": 0.0, "lat": 38.9177145, "is_disabled": 0, "bike_id": "e826e13a6e1700d5f81de98cebc00703", "fusion_lat": 0.0, "is_reserved": 0, "lon": -77.01924916666667}, {"type": "electric_scooter", "name": "985d4c400cf84c9d1752f25c1102a596", "rental_uris": {"ios": "https://dc.lft.to/lastmile_qr_scan", "android": "https://dc.lft.to/lastmile_qr_scan"}, "fusion_lon": 0.0, "lat": 38.923168833333335, "is_disabled": 0, "bike_id": "985d4c400cf84c9d1752f25c1102a596", "fusion_lat": 0.0, "is_reserved": 0, "lon": -77.0418105}, {"type": "electric_scooter", "name": "bac49eadb9fcadfe6c50c6a0cdf940a7", "rental_uris": {"ios": "https://dc.lft.to/lastmile_qr_scan", "android": "https://dc.lft.to/lastmile_qr_scan"}, "fusion_lon": 0.0, "lat": 38.89224266666667, "is_disabled": 0, "bike_id": "bac49eadb9fcadfe6c50c6a0cdf940a7", "fusion_lat": 0.0, "is_reserved": 0, "lon": -77.04772433333333}, {"type": "electric_scooter", "name": "2f2cb574f14d145b42a6bcb9b65f8e67", "rental_uris": {"ios": "https://dc.lft.to/lastmile_qr_scan", "android": "https://dc.lft.to/lastmile_qr_scan"}, "fusion_lon": 0.0, "lat": 38.86556, "is_disabled": 0, "bike_id": "2f2cb574f14d145b42a6bcb9b65f8e67", "fusion_lat": 0.0, "is_reserved": 0, "lon": -76.98353566666667}, {"type": "electric_scooter", "name": "e8daac7fe983f3598a3cb003b59658d5", "rental_uris": {"ios": "https://dc.lft.to/lastmile_qr_scan", "android": "https://dc.lft.to/lastmile_qr_scan"}, "fusion_lon": 0.0, "lat": 38.8922395, "is_disabled": 0, "bike_id": "e8daac7fe983f3598a3cb003b59658d5", "fusion_lat": 0.0, "is_reserved": 0, "lon": -77.04516633333333}, {"type": "electric_scooter", "name": "e2f1467be8fff8b3d4a66dfb06092472", "rental_uris": {"ios": "https://dc.lft.to/lastmile_qr_scan", "android": "https://dc.lft.to/lastmile_qr_scan"}, "fusion_lon": 0.0, "lat": 38.89952866666667, "is_disabled": 0, "bike_id": "e2f1467be8fff8b3d4a66dfb06092472", "fusion_lat": 0.0, "is_reserved": 0, "lon": -77.04158466666667}, {"type": "electric_scooter", "name": "086b47283eb509e96d4600d749a62808", "rental_uris": {"ios": "https://dc.lft.to/lastmile_qr_scan", "android": "https://dc.lft.to/lastmile_qr_scan"}, "fusion_lon": 0.0, "lat": 38.88259383333333, "is_disabled": 0, "bike_id": "086b47283eb509e96d4600d749a62808", "fusion_lat": 0.0, "is_reserved": 0, "lon": -76.99487316666666}, {"type": "electric_scooter", "name": "33eedad761754c10f522a3e4ac55656e", "rental_uris": {"ios": "https://dc.lft.to/lastmile_qr_scan", "android": "https://dc.lft.to/lastmile_qr_scan"}, "fusion_lon": 0.0, "lat": 38.8825685, "is_disabled": 0, "bike_id": "33eedad761754c10f522a3e4ac55656e", "fusion_lat": 0.0, "is_reserved": 0, "lon": -76.92667566666667}, {"type": "electric_scooter", "name": "bdde25db7d70d76affc5f28fc62630a1", "rental_uris": {"ios": "https://dc.lft.to/lastmile_qr_scan", "android": "https://dc.lft.to/lastmile_qr_scan"}, "fusion_lon": 0.0, "lat": 38.907079333333336, "is_disabled": 0, "bike_id": "bdde25db7d70d76affc5f28fc62630a1", "fusion_lat": 0.0, "is_reserved": 0, "lon": -77.00571083333334}, {"type": "electric_scooter", "name": "2ccabf25d960acf3c913f493dac5e28b", "rental_uris": {"ios": "https://dc.lft.to/lastmile_qr_scan", "android": "https://dc.lft.to/lastmile_qr_scan"}, "fusion_lon": 0.0, "lat": 38.915338166666665, "is_disabled": 0, "bike_id": "2ccabf25d960acf3c913f493dac5e28b", "fusion_lat": 0.0, "is_reserved": 0, "lon": -77.01225533333333}, {"type": "electric_scooter", "name": "2ffc586f1133796073bf8ca20cf344a1", "rental_uris": {"ios": "https://dc.lft.to/lastmile_qr_scan", "android": "https://dc.lft.to/lastmile_qr_scan"}, "fusion_lon": 0.0, "lat": 38.920871, "is_disabled": 0, "bike_id": "2ffc586f1133796073bf8ca20cf344a1", "fusion_lat": 0.0, "is_reserved": 0, "lon": -77.02257966666667}, {"type": "electric_bike", "name": "c19d3ce7bf298f304cf791a776a48333", "rental_uris": {"ios": "https://dc.lft.to/lastmile_qr_scan", "android": "https://dc.lft.to/lastmile_qr_scan"}, "fusion_lon": 0.0, "lat": 38.95356666666667, "is_disabled": 0, "bike_id": "c19d3ce7bf298f304cf791a776a48333", "fusion_lat": 0.0, "is_reserved": 0, "lon": -76.98093966666667}, {"type": "electric_scooter", "name": "9b389e52f5f9d22c3d777e8bca15fb66", "rental_uris": {"ios": "https://dc.lft.to/lastmile_qr_scan", "android": "https://dc.lft.to/lastmile_qr_scan"}, "fusion_lon": 0.0, "lat": 38.8754585, "is_disabled": 0, "bike_id": "9b389e52f5f9d22c3d777e8bca15fb66", "fusion_lat": 0.0, "is_reserved": 0, "lon": -77.00536566666666}, {"type": "electric_bike", "name": "efd98b846e59a1b4a4e90d4fbfbaeecb", "rental_uris": {"ios": "https://dc.lft.to/lastmile_qr_scan", "android": "https://dc.lft.to/lastmile_qr_scan"}, "fusion_lon": 0.0, "lat": 38.856495333333335, "is_disabled": 0, "bike_id": "efd98b846e59a1b4a4e90d4fbfbaeecb", "fusion_lat": 0.0, "is_reserved": 0, "lon": -77.08526383333333}, {"type": "electric_scooter", "name": "2acf600292e7a460fada130e5cf3fe6c", "rental_uris": {"ios": "https://dc.lft.to/lastmile_qr_scan", "android": "https://dc.lft.to/lastmile_qr_scan"}, "fusion_lon": 0.0, "lat": 38.907395333333334, "is_disabled": 0, "bike_id": "2acf600292e7a460fada130e5cf3fe6c", "fusion_lat": 0.0, "is_reserved": 0, "lon": -77.02693866666667}, {"type": "electric_scooter", "name": "f6db358a1f3e1cb0b78a24b81e4a76b4", "rental_uris": {"ios": "https://dc.lft.to/lastmile_qr_scan", "android": "https://dc.lft.to/lastmile_qr_scan"}, "fusion_lon": 0.0, "lat": 38.88810266666667, "is_disabled": 0, "bike_id": "f6db358a1f3e1cb0b78a24b81e4a76b4", "fusion_lat": 0.0, "is_reserved": 0, "lon": -76.98359133333334}, {"type": "electric_scooter", "name": "124b9500596987666765a1bc83c2dba2", "rental_uris": {"ios": "https://dc.lft.to/lastmile_qr_scan", "android": "https://dc.lft.to/lastmile_qr_scan"}, "fusion_lon": 0.0, "lat": 38.8970415, "is_disabled": 0, "bike_id": "124b9500596987666765a1bc83c2dba2", "fusion_lat": 0.0, "is_reserved": 0, "lon": -77.01610516666666}, {"type": "electric_scooter", "name": "d3e4a4033e884c1480320c04179919a6", "rental_uris": {"ios": "https://dc.lft.to/lastmile_qr_scan", "android": "https://dc.lft.to/lastmile_qr_scan"}, "fusion_lon": 0.0, "lat": 38.905325833333336, "is_disabled": 0, "bike_id": "d3e4a4033e884c1480320c04179919a6", "fusion_lat": 0.0, "is_reserved": 0, "lon": -77.026859}, {"type": "electric_scooter", "name": "56fe1eb9691ede36e5cb82b9f300a15e", "rental_uris": {"ios": "https://dc.lft.to/lastmile_qr_scan", "android": "https://dc.lft.to/lastmile_qr_scan"}, "fusion_lon": 0.0, "lat": 38.90236016666667, "is_disabled": 0, "bike_id": "56fe1eb9691ede36e5cb82b9f300a15e", "fusion_lat": 0.0, "is_reserved": 0, "lon": -77.05334583333334}, {"type": "electric_scooter", "name": "65340517470210b482763fd7e8261f20", "rental_uris": {"ios": "https://dc.lft.to/lastmile_qr_scan", "android": "https://dc.lft.to/lastmile_qr_scan"}, "fusion_lon": 0.0, "lat": 38.905033, "is_disabled": 0, "bike_id": "65340517470210b482763fd7e8261f20", "fusion_lat": 0.0, "is_reserved": 0, "lon": -77.0294595}, {"type": "electric_scooter", "name": "9cdbbf7cf34f7e0ef94bef41bcc0efc8", "rental_uris": {"ios": "https://dc.lft.to/lastmile_qr_scan", "android": "https://dc.lft.to/lastmile_qr_scan"}, "fusion_lon": 0.0, "lat": 38.9078705, "is_disabled": 0, "bike_id": "9cdbbf7cf34f7e0ef94bef41bcc0efc8", "fusion_lat": 0.0, "is_reserved": 0, "lon": -77.06447883333334}, {"type": "electric_scooter", "name": "cadb39ad0291d32287459b13dbab768a", "rental_uris": {"ios": "https://dc.lft.to/lastmile_qr_scan", "android": "https://dc.lft.to/lastmile_qr_scan"}, "fusion_lon": 0.0, "lat": 38.920627, "is_disabled": 0, "bike_id": "cadb39ad0291d32287459b13dbab768a", "fusion_lat": 0.0, "is_reserved": 0, "lon": -77.02362666666667}, {"type": "electric_scooter", "name": "1acd3d3faaf1ebc053d75ecec3f1cfe9", "rental_uris": {"ios": "https://dc.lft.to/lastmile_qr_scan", "android": "https://dc.lft.to/lastmile_qr_scan"}, "fusion_lon": 0.0, "lat": 38.928296833333334, "is_disabled": 0, "bike_id": "1acd3d3faaf1ebc053d75ecec3f1cfe9", "fusion_lat": 0.0, "is_reserved": 0, "lon": -77.05441783333333}, {"type": "electric_scooter", "name": "f90bda940fcbbdfa2e85cf604eaf267e", "rental_uris": {"ios": "https://dc.lft.to/lastmile_qr_scan", "android": "https://dc.lft.to/lastmile_qr_scan"}, "fusion_lon": 0.0, "lat": 38.949665, "is_disabled": 0, "bike_id": "f90bda940fcbbdfa2e85cf604eaf267e", "fusion_lat": 0.0, "is_reserved": 0, "lon": -77.0662635}, {"type": "electric_scooter", "name": "58dc5cec484fcb7bf6062fb511db8734", "rental_uris": {"ios": "https://dc.lft.to/lastmile_qr_scan", "android": "https://dc.lft.to/lastmile_qr_scan"}, "fusion_lon": 0.0, "lat": 38.89224033333333, "is_disabled": 0, "bike_id": "58dc5cec484fcb7bf6062fb511db8734", "fusion_lat": 0.0, "is_reserved": 0, "lon": -77.0438265}, {"type": "electric_scooter", "name": "6a62fa6dd2f3266072f347c65d5d1480", "rental_uris": {"ios": "https://dc.lft.to/lastmile_qr_scan", "android": "https://dc.lft.to/lastmile_qr_scan"}, "fusion_lon": 0.0, "lat": 38.935326, "is_disabled": 0, "bike_id": "6a62fa6dd2f3266072f347c65d5d1480", "fusion_lat": 0.0, "is_reserved": 0, "lon": -77.02350266666667}, {"type": "electric_scooter", "name": "02b6e53ca08319582aacd5260746590a", "rental_uris": {"ios": "https://dc.lft.to/lastmile_qr_scan", "android": "https://dc.lft.to/lastmile_qr_scan"},