{"data": {"bikes": [{"rental_uris": {"android": "https://dc.lft.to/lastmile_qr_scan", "ios": "https://dc.lft.to/lastmile_qr_scan"}, "is_reserved": 0, "is_disabled": 0, "name": "8060beba9591a1cf8b06dd340809d6fb", "bike_id": "8060beba9591a1cf8b06dd340809d6fb", "fusion_lat": 0.0, "lon": -77.04494283333334, "type": "electric_scooter", "fusion_lon": 0.0, "lat": 38.8999715}, {"rental_uris": {"android": "https://dc.lft.to/lastmile_qr_scan", "ios": "https://dc.lft.to/lastmile_qr_scan"}, "is_reserved": 0, "is_disabled": 0, "name": "d58bf46e13962332601a04ba98edb75e", "bike_id": "d58bf46e13962332601a04ba98edb75e", "fusion_lat": 0.0, "lon": -77.07191483333334, "type": "electric_scooter", "fusion_lon": 0.0, "lat": 38.9075495}, {"rental_uris": {"android": "https://dc.lft.to/lastmile_qr_scan", "ios": "https://dc.lft.to/lastmile_qr_scan"}, "is_reserved": 0, "is_disabled": 0, "name": "c6f3f6bb52da4b374983a51f446fa2b8", "bike_id": "c6f3f6bb52da4b374983a51f446fa2b8", "fusion_lat": 0.0, "lon": -77.0440885, "type": "electric_scooter", "fusion_lon": 0.0, "lat": 38.90139833333333}, {"rental_uris": {"android": "https://dc.lft.to/lastmile_qr_scan", "ios": "https://dc.lft.to/lastmile_qr_scan"}, "is_reserved": 0, "is_disabled": 0, "name": "d4e9e9e2cb4165fa04b255f8316d48ff", "bike_id": "d4e9e9e2cb4165fa04b255f8316d48ff", "fusion_lat": 0.0, "lon": -77.01815316666666, "type": "electric_scooter", "fusion_lon": 0.0, "lat": 38.91373816666667}, {"rental_uris": {"android": "https://dc.lft.to/lastmile_qr_scan", "ios": "https://dc.lft.to/lastmile_qr_scan"}, "is_reserved": 0, "is_disabled": 0, "name": "9f43a3dae88de31e88b8f9fdccdd6849", "bike_id": "9f43a3dae88de31e88b8f9fdccdd6849", "fusion_lat": 0.0, "lon": -77.04179083333334, "type": "electric_scooter", "fusion_lon": 0.0, "lat": 38.90506466666667}, {"rental_uris": {"android": "https://dc.lft.to/lastmile_qr_scan", "ios": "https://dc.lft.to/lastmile_qr_scan"}, "is_reserved": 0, "is_disabled": 0, "name": "ba52b442146e6248cf86fa987e870383", "bike_id": "ba52b442146e6248cf86fa987e870383", "fusion_lat": 0.0, "lon": -77.03317866666667, "type": "electric_scooter", "fusion_lon": 0.0, "lat": 38.92893133333333}, {"rental_uris": {"android": "https://dc.lft.to/lastmile_qr_scan", "ios": "https://dc.lft.to/lastmile_qr_scan"}, "is_reserved": 0, "is_disabled": 0, "name": "77fd870e10d844aa0dca56c66099ca97", "bike_id": "77fd870e10d844aa0dca56c66099ca97", "fusion_lat": 0.0, "lon": -77.047529, "type": "electric_scooter", "fusion_lon": 0.0, "lat": 38.900591666666664}, {"rental_uris": {"android": "https://dc.lft.to/lastmile_qr_scan", "ios": "https://dc.lft.to/lastmile_qr_scan"}, "is_reserved": 0, "is_disabled": 0, "name": "76d546996e7729e0298619cad2afb277", "bike_id": "76d546996e7729e0298619cad2afb277", "fusion_lat": 0.0, "lon": -77.02133966666666, "type": "electric_scooter", "fusion_lon": 0.0, "lat": 38.887302}, {"rental_uris": {"android": "https://dc.lft.to/lastmile_qr_scan", "ios": "https://dc.lft.to/lastmile_qr_scan"}, "is_reserved": 0, "is_disabled": 0, "name": "2995a17bd98448c6882dd6ba584540f5", "bike_id": "2995a17bd98448c6882dd6ba584540f5", "fusion_lat": 0.0, "lon": -77.0211625, "type": "electric_scooter", "fusion_lon": 0.0, "lat": 38.9060685}, {"rental_uris": {"android": "https://dc.lft.to/lastmile_qr_scan", "ios": "https://dc.lft.to/lastmile_qr_scan"}, "is_reserved": 0, "is_disabled": 0, "name": "c723cea92a61c2e0e1d6b62349ed8c98", "bike_id": "c723cea92a61c2e0e1d6b62349ed8c98", "fusion_lat": 0.0, "lon": -77.03206633333333, "type": "electric_scooter", "fusion_lon": 0.0, "lat": 38.89819983333334}, {"rental_uris": {"android": "https://dc.lft.to/lastmile_qr_scan", "ios": "https://dc.lft.to/lastmile_qr_scan"}, "is_reserved": 0, "is_disabled": 0, "name": "43b5514e4e165f8c8ac5621c28cdab00", "bike_id": "43b5514e4e165f8c8ac5621c28cdab00", "fusion_lat": 0.0, "lon": -77.027905, "type": "electric_scooter", "fusion_lon": 0.0, "lat": 38.962155333333335}, {"rental_uris": {"android": "https://dc.lft.to/lastmile_qr_scan", "ios": "https://dc.lft.to/lastmile_qr_scan"}, "is_reserved": 0, "is_disabled": 0, "name": "e9095b38daa6209ef348afd16aaa0f85", "bike_id": "e9095b38daa6209ef348afd16aaa0f85", "fusion_lat": 0.0, "lon": -77.04363033333334, "type": "electric_scooter", "fusion_lon": 0.0, "lat": 38.903844}, {"rental_uris": {"android": "https://dc.lft.to/lastmile_qr_scan", "ios": "https://dc.lft.to/lastmile_qr_scan"}, "is_reserved": 0, "is_disabled": 0, "name": "7d7cbc178177e3c851d1f1c25986b134", "bike_id": "7d7cbc178177e3c851d1f1c25986b134", "fusion_lat": 0.0, "lon": -77.00799, "type": "electric_scooter", "fusion_lon": 0.0, "lat": 38.9524275}, {"rental_uris": {"android": "https://dc.lft.to/lastmile_qr_scan", "ios": "https://dc.lft.to/lastmile_qr_scan"}, "is_reserved": 0, "is_disabled": 0, "name": "d3af69910715a651a28cf5f2600a48ef", "bike_id": "d3af69910715a651a28cf5f2600a48ef", "fusion_lat": 0.0, "lon": -77.128415, "type": "electric_bike", "fusion_lon": 0.0, "lat": 38.800509}, {"rental_uris": {"android": "https://dc.lft.to/lastmile_qr_scan", "ios": "https://dc.lft.to/lastmile_qr_scan"}, "is_reserved": 0, "is_disabled": 0, "name": "27254a3c4168b9bec32cccab510283c0", "bike_id": "27254a3c4168b9bec32cccab510283c0", "fusion_lat": 0.0, "lon": -77.0197305, "type": "electric_scooter", "fusion_lon": 0.0, "lat": 38.92323}, {"rental_uris": {"android": "https://dc.lft.to/lastmile_qr_scan", "ios": "https://dc.lft.to/lastmile_qr_scan"}, "is_reserved": 0, "is_disabled": 0, "name": "3d1e12934abacebd74100e1ebecaa869", "bike_id": "3d1e12934abacebd74100e1ebecaa869", "fusion_lat": 0.0, "lon": -77.03930316666667, "type": "electric_scooter", "fusion_lon": 0.0, "lat": 38.924921499999996}, {"rental_uris": {"android": "https://dc.lft.to/lastmile_qr_scan", "ios": "https://dc.lft.to/lastmile_qr_scan"}, "is_reserved": 0, "is_disabled": 0, "name": "f6d5f35f8aeeb1350b8d3a655a596d47", "bike_id": "f6d5f35f8aeeb1350b8d3a655a596d47", "fusion_lat": 0.0, "lon": -77.03220433333334, "type": "electric_scooter", "fusion_lon": 0.0, "lat": 38.89708}, {"rental_uris": {"android": "https://dc.lft.to/lastmile_qr_scan", "ios": "https://dc.lft.to/lastmile_qr_scan"}, "is_reserved": 0, "is_disabled": 0, "name": "15b71226e529fb9a6f1b92f118b85c76", "bike_id": "15b71226e529fb9a6f1b92f118b85c76", "fusion_lat": 0.0, "lon": -77.038656, "type": "electric_scooter", "fusion_lon": 0.0, "lat": 38.9026365}, {"rental_uris": {"android": "https://dc.lft.to/lastmile_qr_scan", "ios": "https://dc.lft.to/lastmile_qr_scan"}, "is_reserved": 0, "is_disabled": 0, "name": "193b8fe15d7a11bbe58b613c498884cb", "bike_id": "193b8fe15d7a11bbe58b613c498884cb", "fusion_lat": 0.0, "lon": -77.04512983333333, "type": "electric_scooter", "fusion_lon": 0.0, "lat": 38.903142333333335}, {"rental_uris": {"android": "https://dc.lft.to/lastmile_qr_scan", "ios": "https://dc.lft.to/lastmile_qr_scan"}, "is_reserved": 0, "is_disabled": 0, "name": "d6138f3a48e7acb8d34de2c535d65cf7", "bike_id": "d6138f3a48e7acb8d34de2c535d65cf7", "fusion_lat": 0.0, "lon": -77.03858533333333, "type": "electric_scooter", "fusion_lon": 0.0, "lat": 38.902524666666665}, {"rental_uris": {"android": "https://dc.lft.to/lastmile_qr_scan", "ios": "https://dc.lft.to/lastmile_qr_scan"}, "is_reserved": 0, "is_disabled": 0, "name": "9fab31a5a40fdb4b0abc46bf2c0bfcc3", "bike_id": "9fab31a5a40fdb4b0abc46bf2c0bfcc3", "fusion_lat": 0.0, "lon": -77.03987283333333, "type": "electric_scooter", "fusion_lon": 0.0, "lat": 38.905439}, {"rental_uris": {"android": "https://dc.lft.to/lastmile_qr_scan", "ios": "https://dc.lft.to/lastmile_qr_scan"}, "is_reserved": 0, "is_disabled": 0, "name": "6398ae4af9b7b80eb0a13a107c00d511", "bike_id": "6398ae4af9b7b80eb0a13a107c00d511", "fusion_lat": 0.0, "lon": -77.03466, "type": "electric_scooter", "fusion_lon": 0.0, "lat": 38.90638633333333}, {"rental_uris": {"android": "https://dc.lft.to/lastmile_qr_scan", "ios": "https://dc.lft.to/lastmile_qr_scan"}, "is_reserved": 0, "is_disabled": 0, "name": "4e2f2fe2db35b413d1dd1bab905edfd5", "bike_id": "4e2f2fe2db35b413d1dd1bab905edfd5", "fusion_lat": 0.0, "lon": -77.23384566666667, "type": "electric_bike", "fusion_lon": 0.0, "lat": 38.87168366666667}, {"rental_uris": {"android": "https://dc.lft.to/lastmile_qr_scan", "ios": "https://dc.lft.to/lastmile_qr_scan"}, "is_reserved": 0, "is_disabled": 0, "name": "bc71dc004afaa302fa443ea0c62267e6", "bike_id": "bc71dc004afaa302fa443ea0c62267e6", "fusion_lat": 0.0, "lon": -77.03774016666667, "type": "electric_bike", "fusion_lon": 0.0, "lat": 38.929134}, {"rental_uris": {"android": "https://dc.lft.to/lastmile_qr_scan", "ios": "https://dc.lft.to/lastmile_qr_scan"}, "is_reserved": 0, "is_disabled": 0, "name": "aac4457a492f5b2528b658b226ad5d99", "bike_id": "aac4457a492f5b2528b658b226ad5d99", "fusion_lat": 0.0, "lon": -77.04617783333333, "type": "electric_scooter", "fusion_lon": 0.0, "lat": 38.89799216666667}, {"rental_uris": {"android": "https://dc.lft.to/lastmile_qr_scan", "ios": "https://dc.lft.to/lastmile_qr_scan"}, "is_reserved": 0, "is_disabled": 0, "name": "39f1ff2df24f1895c13b63333499501c", "bike_id": "39f1ff2df24f1895c13b63333499501c", "fusion_lat": 0.0, "lon": -77.05213983333333, "type": "electric_scooter", "fusion_lon": 0.0, "lat": 38.92429833333333}, {"rental_uris": {"android": "https://dc.lft.to/lastmile_qr_scan", "ios": "https://dc.lft.to/lastmile_qr_scan"}, "is_reserved": 0, "is_disabled": 0, "name": "f6aaececd67e0165a9b5968a92fb04c8", "bike_id": "f6aaececd67e0165a9b5968a92fb04c8", "fusion_lat": 0.0, "lon": -77.0224565, "type": "electric_scooter", "fusion_lon": 0.0, "lat": 38.966178166666666}, {"rental_uris": {"android": "https://dc.lft.to/lastmile_qr_scan", "ios": "https://dc.lft.to/lastmile_qr_scan"}, "is_reserved": 0, "is_disabled": 0, "name": "c68ab50e9bf47ada899bb60a676d5158", "bike_id": "c68ab50e9bf47ada899bb60a676d5158", "fusion_lat": 0.0, "lon": -76.948759, "type": "electric_scooter", "fusion_lon": 0.0, "lat": 38.8949535}, {"rental_uris": {"android": "https://dc.lft.to/lastmile_qr_scan", "ios": "https://dc.lft.to/lastmile_qr_scan"}, "is_reserved": 0, "is_disabled": 0, "name": "0ad6d41d813b6874d78b56e946664bde", "bike_id": "0ad6d41d813b6874d78b56e946664bde", "fusion_lat": 0.0, "lon": -77.032771, "type": "electric_scooter", "fusion_lon": 0.0, "lat": 38.929206666666666}, {"rental_uris": {"android": "https://dc.lft.to/lastmile_qr_scan", "ios": "https://dc.lft.to/lastmile_qr_scan"}, "is_reserved": 0, "is_disabled": 0, "name": "8a37bc1f86d9f96b0365872af29703c0", "bike_id": "8a37bc1f86d9f96b0365872af29703c0", "fusion_lat": 0.0, "lon": -77.042427, "type": "electric_scooter", "fusion_lon": 0.0, "lat": 38.920537833333334}, {"rental_uris": {"android": "https://dc.lft.to/lastmile_qr_scan", "ios": "https://dc.lft.to/lastmile_qr_scan"}, "is_reserved": 0, "is_disabled": 0, "name": "b8a82e87c23432040e873251480aafe2", "bike_id": "b8a82e87c23432040e873251480aafe2", "fusion_lat": 0.0, "lon": -77.0968905, "type": "electric_bike", "fusion_lon": 0.0, "lat": 38.8074105}, {"rental_uris": {"android": "https://dc.lft.to/lastmile_qr_scan", "ios": "https://dc.lft.to/lastmile_qr_scan"}, "is_reserved": 0, "is_disabled": 0, "name": "6173f08940b0b509fcdf23d3c078a684", "bike_id": "6173f08940b0b509fcdf23d3c078a684", "fusion_lat": 0.0, "lon": -77.02376133333334, "type": "electric_scooter", "fusion_lon": 0.0, "lat": 38.90215966666667}, {"rental_uris": {"android": "https://dc.lft.to/lastmile_qr_scan", "ios": "https://dc.lft.to/lastmile_qr_scan"}, "is_reserved": 0, "is_disabled": 0, "name": "e5b535470c09cb81b3926f690ca9a478", "bike_id": "e5b535470c09cb81b3926f690ca9a478", "fusion_lat": 0.0, "lon": -76.98412183333333, "type": "electric_bike", "fusion_lon": 0.0, "lat": 38.85506516666667}, {"rental_uris": {"android": "https://dc.lft.to/lastmile_qr_scan", "ios": "https://dc.lft.to/lastmile_qr_scan"}, "is_reserved": 0, "is_disabled": 0, "name": "f4e1eead858bc80dc1f317239f5f42f8", "bike_id": "f4e1eead858bc80dc1f317239f5f42f8", "fusion_lat": 0.0, "lon": -77.0059815, "type": "electric_scooter", "fusion_lon": 0.0, "lat": 38.87538216666667}, {"rental_uris": {"android": "https://dc.lft.to/lastmile_qr_scan", "ios": "https://dc.lft.to/lastmile_qr_scan"}, "is_reserved": 0, "is_disabled": 0, "name": "2ea75e309f0ca047be4ddb60d93f5831", "bike_id": "2ea75e309f0ca047be4ddb60d93f5831", "fusion_lat": 0.0, "lon": -77.01525833333334, "type": "electric_scooter", "fusion_lon": 0.0, "lat": 38.872775833333336}, {"rental_uris": {"android": "https://dc.lft.to/lastmile_qr_scan", "ios": "https://dc.lft.to/lastmile_qr_scan"}, "is_reserved": 0, "is_disabled": 0, "name": "17ca21919cb62e4a8c714e7e495d1c52", "bike_id": "17ca21919cb62e4a8c714e7e495d1c52", "fusion_lat": 0.0, "lon": -77.0339775, "type": "electric_scooter", "fusion_lon": 0.0, "lat": 38.9253395}, {"rental_uris": {"android": "https://dc.lft.to/lastmile_qr_scan", "ios": "https://dc.lft.to/lastmile_qr_scan"}, "is_reserved": 0, "is_disabled": 0, "name": "8776efbd7e52a8fd0667edec7c3425d6", "bike_id": "8776efbd7e52a8fd0667edec7c3425d6", "fusion_lat": 0.0, "lon": -77.05020416666666, "type": "electric_scooter", "fusion_lon": 0.0, "lat": 38.898168166666665}, {"rental_uris": {"android": "https://dc.lft.to/lastmile_qr_scan", "ios": "https://dc.lft.to/lastmile_qr_scan"}, "is_reserved": 0, "is_disabled": 0, "name": "f7c8faad36ecba6410b38d93c2ca87e1", "bike_id": "f7c8faad36ecba6410b38d93c2ca87e1", "fusion_lat": 0.0, "lon": -76.9852145, "type": "electric_scooter", "fusion_lon": 0.0, "lat": 38.9003975}, {"rental_uris": {"android": "https://dc.lft.to/lastmile_qr_scan", "ios": "https://dc.lft.to/lastmile_qr_scan"}, "is_reserved": 0, "is_disabled": 0, "name": "dc0037f1dc74b820b5c5cbaf26658a42", "bike_id": "dc0037f1dc74b820b5c5cbaf26658a42", "fusion_lat": 0.0, "lon": -77.0194245, "type": "electric_scooter", "fusion_lon": 0.0, "lat": 38.92436983333333}, {"rental_uris": {"android": "https://dc.lft.to/lastmile_qr_scan", "ios": "https://dc.lft.to/lastmile_qr_scan"}, "is_reserved": 0, "is_disabled": 0, "name": "74657fcc7efa4ebe2d2fc035019de3cf", "bike_id": "74657fcc7efa4ebe2d2fc035019de3cf", "fusion_lat": 0.0, "lon": -77.03360033333334, "type": "electric_scooter", "fusion_lon": 0.0, "lat": 38.935771833333334}, {"rental_uris": {"android": "https://dc.lft.to/lastmile_qr_scan", "ios": "https://dc.lft.to/lastmile_qr_scan"}, "is_reserved": 0, "is_disabled": 0, "name": "d64a4ada84e7a8d7ded7361da59aa46a", "bike_id": "d64a4ada84e7a8d7ded7361da59aa46a", "fusion_lat": 0.0, "lon": -77.0792245, "type": "electric_bike", "fusion_lon": 0.0, "lat": 38.838259666666666}, {"rental_uris": {"android": "https://dc.lft.to/lastmile_qr_scan", "ios": "https://dc.lft.to/lastmile_qr_scan"}, "is_reserved": 0, "is_disabled": 0, "name": "eedbe6061ddb9c9fb0417dadbd3d55c5", "bike_id": "eedbe6061ddb9c9fb0417dadbd3d55c5", "fusion_lat": 0.0, "lon": -77.01455516666667, "type": "electric_scooter", "fusion_lon": 0.0, "lat": 38.958087666666664}, {"rental_uris": {"android": "https://dc.lft.to/lastmile_qr_scan", "ios": "https://dc.lft.to/lastmile_qr_scan"}, "is_reserved": 0, "is_disabled": 0, "name": "9fa23c50bedf44972f7174ff26091439", "bike_id": "9fa23c50bedf44972f7174ff26091439", "fusion_lat": 0.0, "lon": -77.04198183333334, "type": "electric_scooter", "fusion_lon": 0.0, "lat": 38.9204845}, {"rental_uris": {"android": "https://dc.lft.to/lastmile_qr_scan", "ios": "https://dc.lft.to/lastmile_qr_scan"}, "is_reserved": 0, "is_disabled": 0, "name": "48d4639c4a7ac8e399b5c2b1fb335747", "bike_id": "48d4639c4a7ac8e399b5c2b1fb335747", "fusion_lat": 0.0, "lon": -77.036548, "type": "electric_scooter", "fusion_lon": 0.0, "lat": 38.92333683333333}, {"rental_uris": {"android": "https://dc.lft.to/lastmile_qr_scan", "ios": "https://dc.lft.to/lastmile_qr_scan"}, "is_reserved": 0, "is_disabled": 0, "name": "6cfce05f9820b01f541bcb7abdee8a4d", "bike_id": "6cfce05f9820b01f541bcb7abdee8a4d", "fusion_lat": 0.0, "lon": -77.00661183333334, "type": "electric_scooter", "fusion_lon": 0.0, "lat": 38.9097945}, {"rental_uris": {"android": "https://dc.lft.to/lastmile_qr_scan", "ios": "https://dc.lft.to/lastmile_qr_scan"}, "is_reserved": 0, "is_disabled": 0, "name": "77cf2c27de22cf59d3c848fc58618ad2", "bike_id": "77cf2c27de22cf59d3c848fc58618ad2", "fusion_lat": 0.0, "lon": -77.02090166666666, "type": "electric_scooter", "fusion_lon": 0.0, "lat": 38.921499}, {"rental_uris": {"android": "https://dc.lft.to/lastmile_qr_scan", "ios": "https://dc.lft.to/lastmile_qr_scan"}, "is_reserved": 0, "is_disabled": 0, "name": "edbbd7184d6b0517e55197e460624408", "bike_id": "edbbd7184d6b0517e55197e460624408", "fusion_lat": 0.0, "lon": -77.0283495, "type": "electric_scooter", "fusion_lon": 0.0, "lat": 38.90130383333333}, {"rental_uris": {"android": "https://dc.lft.to/lastmile_qr_scan", "ios": "https://dc.lft.to/lastmile_qr_scan"}, "is_reserved": 0, "is_disabled": 0, "name": "a56aa9179b11362525eedd04a3ec7e17", "bike_id": "a56aa9179b11362525eedd04a3ec7e17", "fusion_lat": 0.0, "lon": -77.08060716666667, "type": "electric_scooter", "fusion_lon": 0.0, "lat": 38.948745333333335}, {"rental_uris": {"android": "https://dc.lft.to/lastmile_qr_scan", "ios": "https://dc.lft.to/lastmile_qr_scan"}, "is_reserved": 0, "is_disabled": 0, "name": "52482458c6e152b14f97574e96ea1f42", "bike_id": "52482458c6e152b14f97574e96ea1f42", "fusion_lat": 0.0, "lon": -77.23183016666667, "type": "electric_bike", "fusion_lon": 0.0, "lat": 38.92890933333334}, {"rental_uris": {"android": "https://dc.lft.to/lastmile_qr_scan", "ios": "https://dc.lft.to/lastmile_qr_scan"}, "is_reserved": 0, "is_disabled": 0, "name": "42ccadec1dd6628d9e337881dd79161c", "bike_id": "42ccadec1dd6628d9e337881dd79161c", "fusion_lat": 0.0, "lon": -77.04348233333333, "type": "electric_scooter", "fusion_lon": 0.0, "lat": 38.901117666666664}, {"rental_uris": {"android": "https://dc.lft.to/lastmile_qr_scan", "ios": "https://dc.lft.to/lastmile_qr_scan"}, "is_reserved": 0, "is_disabled": 0, "name": "194a4139b224a06770abbeebcec6b58b", "bike_id": "194a4139b224a06770abbeebcec6b58b", "fusion_lat": 0.0, "lon": -77.01962866666666, "type": "electric_scooter", "fusion_lon": 0.0, "lat": 38.923262}, {"rental_uris": {"android": "https://dc.lft.to/lastmile_qr_scan", "ios": "https://dc.lft.to/lastmile_qr_scan"}, "is_reserved": 0, "is_disabled": 0, "name": "0941bba342d5d919d5998281f712144f", "bike_id": "0941bba342d5d919d5998281f712144f", "fusion_lat": 0.0, "lon": -77.02291566666666, "type": "electric_scooter", "fusion_lon": 0.0, "lat": 38.91826016666667}, {"rental_uris": {"android": "https://dc.lft.to/lastmile_qr_scan", "ios": "https://dc.lft.to/lastmile_qr_scan"}, "is_reserved": 0, "is_disabled": 0, "name": "05b299d2e643019a90b040fabe987273", "bike_id": "05b299d2e643019a90b040fabe987273", "fusion_lat": 0.0, "lon": -77.0228825, "type": "electric_scooter", "fusion_lon": 0.0, "lat": 38.8986555}, {"rental_uris": {"android": "https://dc.lft.to/lastmile_qr_scan", "ios": "https://dc.lft.to/lastmile_qr_scan"}, "is_reserved": 0, "is_disabled": 0, "name": "34e5930cc626d1729ac6a4a0fc0a835c", "bike_id": "34e5930cc626d1729ac6a4a0fc0a835c", "fusion_lat": 0.0, "lon": -77.02183783333334, "type": "electric_scooter", "fusion_lon": 0.0, "lat": 38.8923195}, {"rental_uris": {"android": "https://dc.lft.to/lastmile_qr_scan", "ios": "https://dc.lft.to/lastmile_qr_scan"}, "is_reserved": 0, "is_disabled": 0, "name": "ea51dd688db1e6104c31a96a23d1350b", "bike_id": "ea51dd688db1e6104c31a96a23d1350b", "fusion_lat": 0.0, "lon": -77.0006735, "type": "electric_scooter", "fusion_lon": 0.0, "lat": 38.876495}, {"rental_uris": {"android": "https://dc.lft.to/lastmile_qr_scan", "ios": "https://dc.lft.to/lastmile_qr_scan"}, "is_reserved": 0, "is_disabled": 0, "name": "ce78f25285beb99be05b7f5eb54452af", "bike_id": "ce78f25285beb99be05b7f5eb54452af", "fusion_lat": 0.0, "lon": -77.05267283333333, "type": "electric_scooter", "fusion_lon": 0.0, "lat": 38.901391833333335}, {"rental_uris": {"android": "https://dc.lft.to/lastmile_qr_scan", "ios": "https://dc.lft.to/lastmile_qr_scan"}, "is_reserved": 0, "is_disabled": 0, "name": "e72a36ae9c64daf95f7980c9b02169be", "bike_id": "e72a36ae9c64daf95f7980c9b02169be", "fusion_lat": 0.0, "lon": -77.0465015, "type": "electric_scooter", "fusion_lon": 0.0, "lat": 38.90450666666667}, {"rental_uris": {"android": "https://dc.lft.to/lastmile_qr_scan", "ios": "https://dc.lft.to/lastmile_qr_scan"}, "is_reserved": 0, "is_disabled": 0, "name": "724f9e72e0ad0478a2a36f6d6e7a9e8e", "bike_id": "724f9e72e0ad0478a2a36f6d6e7a9e8e", "fusion_lat": 0.0, "lon": -77.03102866666667, "type": "electric_scooter", "fusion_lon": 0.0, "lat": 38.90016266666667}, {"rental_uris": {"android": "https://dc.lft.to/lastmile_qr_scan", "ios": "https://dc.lft.to/lastmile_qr_scan"}, "is_reserved": 0, "is_disabled": 0, "name": "8c4474ee6eaa5bfec8f1eef73ab313d7", "bike_id": "8c4474ee6eaa5bfec8f1eef73ab313d7", "fusion_lat": 0.0, "lon": -77.0435515, "type": "electric_scooter", "fusion_lon": 0.0, "lat": 38.90422983333333}, {"rental_uris": {"android": "https://dc.lft.to/lastmile_qr_scan", "ios": "https://dc.lft.to/lastmile_qr_scan"}, "is_reserved": 0, "is_disabled": 0, "name": "9e9c9981352540420ea0fb23fdbba36c", "bike_id": "9e9c9981352540420ea0fb23fdbba36c", "fusion_lat": 0.0, "lon": -77.017302, "type": "electric_scooter", "fusion_lon": 0.0, "lat": 38.900703666666665}, {"rental_uris": {"android": "https://dc.lft.to/lastmile_qr_scan", "ios": "https://dc.lft.to/lastmile_qr_scan"}, "is_reserved": 0, "is_disabled": 0, "name": "73648b204b3ff2096b017165e8f27dcf", "bike_id": "73648b204b3ff2096b017165e8f27dcf", "fusion_lat": 0.0, "lon": -76.94971383333333, "type": "electric_scooter", "fusion_lon": 0.0, "lat": 38.90488283333333}, {"rental_uris": {"android": "https://dc.lft.to/lastmile_qr_scan", "ios": "https://dc.lft.to/lastmile_qr_scan"}, "is_reserved": 0, "is_disabled": 0, "name": "b7d019235a44daf6a3bc1ccd7263aeb4", "bike_id": "b7d019235a44daf6a3bc1ccd7263aeb4", "fusion_lat": 0.0, "lon": -77.05007183333333, "type": "electric_scooter", "fusion_lon": 0.0, "lat": 38.89230166666667}, {"rental_uris": {"android": "https://dc.lft.to/lastmile_qr_scan", "ios": "https://dc.lft.to/lastmile_qr_scan"}, "is_reserved": 0, "is_disabled": 0, "name": "5f558d8a498d8a153e69c5fb6af736ab", "bike_id": "5f558d8a498d8a153e69c5fb6af736ab", "fusion_lat": 0.0, "lon": -77.0189525, "type": "electric_scooter", "fusion_lon": 0.0, "lat": 38.91483566666667}, {"rental_uris": {"android": "https://dc.lft.to/lastmile_qr_scan", "ios": "https://dc.lft.to/lastmile_qr_scan"}, "is_reserved": 0, "is_disabled": 0, "name": "1b3a6c93c1b7b71db7cfce8e37449f87", "bike_id": "1b3a6c93c1b7b71db7cfce8e37449f87", "fusion_lat": 0.0, "lon": -76.99313683333334, "type": "electric_scooter", "fusion_lon": 0.0, "lat": 38.9058585}, {"rental_uris": {"android": "https://dc.lft.to/lastmile_qr_scan", "ios": "https://dc.lft.to/lastmile_qr_scan"}, "is_reserved": 0, "is_disabled": 0, "name": "026a841880797d0f9b2a44020da9b59d", "bike_id": "026a841880797d0f9b2a44020da9b59d", "fusion_lat": 0.0, "lon": -77.03662166666666, "type": "electric_scooter", "fusion_lon": 0.0, "lat": 38.90680116666667}, {"rental_uris": {"android": "https://dc.lft.to/lastmile_qr_scan", "ios": "https://dc.lft.to/lastmile_qr_scan"}, "is_reserved": 0, "is_disabled": 0, "name": "27331215efe8547ac947c74cf60f85db", "bike_id": "27331215efe8547ac947c74cf60f85db", "fusion_lat": 0.0, "lon": -77.05347216666667, "type": "electric_scooter", "fusion_lon": 0.0, "lat": 38.90638833333333}, {"rental_uris": {"android": "https://dc.lft.to/lastmile_qr_scan", "ios": "https://dc.lft.to/lastmile_qr_scan"}, "is_reserved": 0, "is_disabled": 0, "name": "5b09343a40e2e777c04dd2de08ad8cce", "bike_id": "5b09343a40e2e777c04dd2de08ad8cce", "fusion_lat": 0.0, "lon": -77.02163266666666, "type": "electric_scooter", "fusion_lon": 0.0, "lat": 38.941258}, {"rental_uris": {"android": "https://dc.lft.to/lastmile_qr_scan", "ios": "https://dc.lft.to/lastmile_qr_scan"}, "is_reserved": 0, "is_disabled": 0, "name": "f5c1cd44be1d624feaef7bf0980bdcc7", "bike_id": "f5c1cd44be1d624feaef7bf0980bdcc7", "fusion_lat": 0.0, "lon": -77.03223116666666, "type": "electric_scooter", "fusion_lon": 0.0, "lat": 38.8922205}, {"rental_uris": {"android": "https://dc.lft.to/lastmile_qr_scan", "ios": "https://dc.lft.to/lastmile_qr_scan"}, "is_reserved": 0, "is_disabled": 0, "name": "fa27619dab49c58d4682da5ec6cee6be", "bike_id": "fa27619dab49c58d4682da5ec6cee6be", "fusion_lat": 0.0, "lon": -77.02796916666667, "type": "electric_scooter", "fusion_lon": 0.0, "lat": 38.96124366666667}, {"rental_uris": {"android": "https://dc.lft.to/lastmile_qr_scan", "ios": "https://dc.lft.to/lastmile_qr_scan"}, "is_reserved": 0, "is_disabled": 0, "name": "8c6a51a1a79d86cb830480ea2a1abfb6", "bike_id": "8c6a51a1a79d86cb830480ea2a1abfb6", "fusion_lat": 0.0, "lon": -77.047005, "type": "electric_scooter", "fusion_lon": 0.0, "lat": 38.89608416666667}, {"rental_uris": {"android": "https://dc.lft.to/lastmile_qr_scan", "ios": "https://dc.lft.to/lastmile_qr_scan"}, "is_reserved": 0, "is_disabled": 0, "name": "e6db43666785c78d46fcf9f2bc04f8fa", "bike_id": "e6db43666785c78d46fcf9f2bc04f8fa", "fusion_lat": 0.0, "lon": -77.02477716666667, "type": "electric_scooter", "fusion_lon": 0.0, "lat": 38.93096716666667}, {"rental_uris": {"android": "https://dc.lft.to/lastmile_qr_scan", "ios": "https://dc.lft.to/lastmile_qr_scan"}, "is_reserved": 0, "is_disabled": 0, "name": "70ef109ef8cb9c9ad6d3283d8115e93f", "bike_id": "70ef109ef8cb9c9ad6d3283d8115e93f", "fusion_lat": 0.0, "lon": -77.09109833333333, "type": "electric_scooter", "fusion_lon": 0.0, "lat": 38.9309415}, {"rental_uris": {"android": "https://dc.lft.to/lastmile_qr_scan", "ios": "https://dc.lft.to/lastmile_qr_scan"}, "is_reserved": 0, "is_disabled": 0, "name": "f6294f6edb638deb25cd16e5b43739b0", "bike_id": "f6294f6edb638deb25cd16e5b43739b0", "fusion_lat": 0.0, "lon": -77.03383433333333, "type": "electric_scooter", "fusion_lon": 0.0, "lat": 38.90137033333333}, {"rental_uris": {"android": "https://dc.lft.to/lastmile_qr_scan", "ios": "https://dc.lft.to/lastmile_qr_scan"}, "is_reserved": 0, "is_disabled": 0, "name": "4b93e2bbbcb0b69c491b5d48b060e10f", "bike_id": "4b93e2bbbcb0b69c491b5d48b060e10f", "fusion_lat": 0.0, "lon": -76.94667783333334, "type": "electric_scooter", "fusion_lon": 0.0, "lat": 38.89868033333333}, {"rental_uris": {"android": "https://dc.lft.to/lastmile_qr_scan", "ios": "https://dc.lft.to/lastmile_qr_scan"}, "is_reserved": 0, "is_disabled": 0, "name": "939934fbaeb2d09b9898369b2e3d2fee", "bike_id": "939934fbaeb2d09b9898369b2e3d2fee", "fusion_lat": 0.0, "lon": -77.0280245, "type": "electric_scooter", "fusion_lon": 0.0, "lat": 38.892256333333336}, {"rental_uris": {"android": "https://dc.lft.to/lastmile_qr_scan", "ios": "https://dc.lft.to/lastmile_qr_scan"}, "is_reserved": 0, "is_disabled": 0, "name": "087446f7017da31b7b725caa51dad140", "bike_id": "087446f7017da31b7b725caa51dad140", "fusion_lat": 0.0, "lon": -77.00580666666667, "type": "electric_scooter", "fusion_lon": 0.0, "lat": 38.8850825}, {"rental_uris": {"android": "https://dc.lft.to/lastmile_qr_scan", "ios": "https://dc.lft.to/lastmile_qr_scan"}, "is_reserved": 0, "is_disabled": 0, "name": "5d00b3fa60fcf8c8223f8e08366a64f9", "bike_id": "5d00b3fa60fcf8c8223f8e08366a64f9", "fusion_lat": 0.0, "lon": -77.0270095, "type": "electric_scooter", "fusion_lon": 0.0, "lat": 38.949799666666664}, {"rental_uris": {"android": "https://dc.lft.to/lastmile_qr_scan", "ios": "https://dc.lft.to/lastmile_qr_scan"}, "is_reserved": 0, "is_disabled": 0, "name": "57df4c1fa59efc5aa5332258faedf990", "bike_id": "57df4c1fa59efc5aa5332258faedf990", "fusion_lat": 0.0, "lon": -77.0331765, "type": "electric_scooter", "fusion_lon": 0.0, "lat": 38.900064666666665}, {"rental_uris": {"android": "https://dc.lft.to/lastmile_qr_scan", "ios": "https://dc.lft.to/lastmile_qr_scan"}, "is_reserved": 0, "is_disabled": 0, "name": "accbafa6f2c82e64e3329ad9dbdd2ca7", "bike_id": "accbafa6f2c82e64e3329ad9dbdd2ca7", "fusion_lat": 0.0, "lon": -77.02530266666666, "type": "electric_scooter", "fusion_lon": 0.0, "lat": 38.92286283333333}, {"rental_uris": {"android": "https://dc.lft.to/lastmile_qr_scan", "ios": "https://dc.lft.to/lastmile_qr_scan"}, "is_reserved": 0, "is_disabled": 0, "name": "c85fe4bf7ecc7bffa03e0fdbfde006d8", "bike_id": "c85fe4bf7ecc7bffa03e0fdbfde006d8", "fusion_lat": 0.0, "lon": -77.04656533333333, "type": "electric_scooter", "fusion_lon": 0.0, "lat": 38.90050266666667}, {"rental_uris": {"android": "https://dc.lft.to/lastmile_qr_scan", "ios": "https://dc.lft.to/lastmile_qr_scan"}, "is_reserved": 0, "is_disabled": 0, "name": "f4945658d01e27da7180c53f7cfff2e2", "bike_id": "f4945658d01e27da7180c53f7cfff2e2", "fusion_lat": 0.0, "lon": -77.02093866666667, "type": "electric_scooter", "fusion_lon": 0.0, "lat": 38.927046833333335}, {"rental_uris": {"android": "https://dc.lft.to/lastmile_qr_scan", "ios": "https://dc.lft.to/lastmile_qr_scan"}, "is_reserved": 0, "is_disabled": 0, "name": "4b9f0830c7ecb5a9e66748549dfcc05d", "bike_id": "4b9f0830c7ecb5a9e66748549dfcc05d", "fusion_lat": 0.0, "lon": -77.03213583333333, "type": "electric_scooter", "fusion_lon": 0.0, "lat": 38.915952}, {"rental_uris": {"android": "https://dc.lft.to/lastmile_qr_scan", "ios": "https://dc.lft.to/lastmile_qr_scan"}, "is_reserved": 0, "is_disabled": 0, "name": "483e41f6bb846cbf5483afa5c75ab84e", "bike_id": "483e41f6bb846cbf5483afa5c75ab84e", "fusion_lat": 0.0, "lon": -77.0318855, "type": "electric_scooter", "fusion_lon": 0.0, "lat": 38.8873475}, {"rental_uris": {"android": "https://dc.lft.to/lastmile_qr_scan", "ios": "https://dc.lft.to/lastmile_qr_scan"}, "is_reserved": 0, "is_disabled": 0, "name": "405c0e758ad745397b0d08b317e6e796", "bike_id": "405c0e758ad745397b0d08b317e6e796", "fusion_lat": 0.0, "lon": -77.04371433333333, "type": "electric_scooter", "fusion_lon": 0.0, "lat": 38.8999735}, {"rental_uris": {"android": "https://dc.lft.to/lastmile_qr_scan", "ios": "https://dc.lft.to/lastmile_qr_scan"}, "is_reserved": 0, "is_disabled": 0, "name": "daf58cf005ab41c7793bcb6a6ab83f56", "bike_id": "daf58cf005ab41c7793bcb6a6ab83f56", "fusion_lat": 0.0, "lon": -77.04174416666666, "type": "electric_scooter", "fusion_lon": 0.0, "lat": 38.91600966666667}, {"rental_uris": {"android": "https://dc.lft.to/lastmile_qr_scan", "ios": "https://dc.lft.to/lastmile_qr_scan"}, "is_reserved": 0, "is_disabled": 0, "name": "63b92f85473c3ba285aeb979b336d53d", "bike_id": "63b92f85473c3ba285aeb979b336d53d", "fusion_lat": 0.0, "lon": -76.99505266666667, "type": "electric_scooter", "fusion_lon": 0.0, "lat": 38.86242416666666}, {"rental_uris": {"android": "https://dc.lft.to/lastmile_qr_scan", "ios": "https://dc.lft.to/lastmile_qr_scan"}, "is_reserved": 0, "is_disabled": 0, "name": "c5d7bb557761abf80f9f6d00254017a9", "bike_id": "c5d7bb557761abf80f9f6d00254017a9", "fusion_lat": 0.0, "lon": -77.05124616666667, "type": "electric_scooter", "fusion_lon": 0.0, "lat": 38.90640583333333}, {"rental_uris": {"android": "https://dc.lft.to/lastmile_qr_scan", "ios": "https://dc.lft.to/lastmile_qr_scan"}, "is_reserved": 0, "is_disabled": 0, "name": "1d0e6379728aeab0133b61c9b4d0402e", "bike_id": "1d0e6379728aeab0133b61c9b4d0402e", "fusion_lat": 0.0, "lon": -77.0221925, "type": "electric_scooter", "fusion_lon": 0.0, "lat": 38.896163666666666}, {"rental_uris": {"android": "https://dc.lft.to/lastmile_qr_scan", "ios": "https://dc.lft.to/lastmile_qr_scan"}, "is_reserved": 0, "is_disabled": 0, "name": "0239ef838ade495e08a54690b9d1d20b", "bike_id": "0239ef838ade495e08a54690b9d1d20b", "fusion_lat": 0.0, "lon": -77.03398766666666, "type": "electric_scooter", "fusion_lon": 0.0, "lat": 38.9417635}, {"rental_uris": {"android": "https://dc.lft.to/lastmile_qr_scan", "ios": "https://dc.lft.to/lastmile_qr_scan"}, "is_reserved": 0, "is_disabled": 0, "name": "8611b03fdc3f0ec8b7180aaddce39fc2", "bike_id": "8611b03fdc3f0ec8b7180aaddce39fc2", "fusion_lat": 0.0, "lon": -77.03363, "type": "electric_scooter", "fusion_lon": 0.0, "lat": 38.90266666666667}, {"rental_uris": {"android": "https://dc.lft.to/lastmile_qr_scan", "ios": "https://dc.lft.to/lastmile_qr_scan"}, "is_reserved": 0, "is_disabled": 0, "name": "a844164b3f8285572e5c54aa8687813d", "bike_id": "a844164b3f8285572e5c54aa8687813d", "fusion_lat": 0.0, "lon": -77.021495, "type": "electric_scooter", "fusion_lon": 0.0, "lat": 38.90478266666667}, {"rental_uris": {"android": "https://dc.lft.to/lastmile_qr_scan", "ios": "https://dc.lft.to/lastmile_qr_scan"}, "is_reserved": 0, "is_disabled": 0, "name": "647c15f675c3737344f2fc5536db1b38", "bike_id": "647c15f675c3737344f2fc5536db1b38", "fusion_lat": 0.0, "lon": -77.00207733333333, "type": "electric_scooter", "fusion_lon": 0.0, "lat": 38.904755333333334}, {"rental_uris": {"android": "https://dc.lft.to/lastmile_qr_scan", "ios": "https://dc.lft.to/lastmile_qr_scan"}, "is_reserved": 0, "is_disabled": 0, "name": "bb578443a121d0c81c96e3dcea54e4f3", "bike_id": "bb578443a121d0c81c96e3dcea54e4f3", "fusion_lat": 0.0, "lon": -77.0388755, "type": "electric_bike", "fusion_lon": 0.0, "lat": 39.026195}, {"rental_uris": {"android": "https://dc.lft.to/lastmile_qr_scan", "ios": "https://dc.lft.to/lastmile_qr_scan"}, "is_reserved": 0, "is_disabled": 0, "name": "2e7b1822e532788b60744e43ac7851e7", "bike_id": "2e7b1822e532788b60744e43ac7851e7", "fusion_lat": 0.0, "lon": -76.9987975, "type": "electric_bike", "fusion_lon": 0.0, "lat": 38.94287116666667}, {"rental_uris": {"android": "https://dc.lft.to/lastmile_qr_scan", "ios": "https://dc.lft.to/lastmile_qr_scan"}, "is_reserved": 0, "is_disabled": 0, "name": "8f20200120e14112ee3dec3c97184b1c", "bike_id": "8f20200120e14112ee3dec3c97184b1c", "fusion_lat": 0.0, "lon": -77.0238685, "type": "electric_scooter", "fusion_lon": 0.0, "lat": 38.89194583333333}, {"rental_uris": {"android": "https://dc.lft.to/lastmile_qr_scan", "ios": "https://dc.lft.to/lastmile_qr_scan"}, "is_reserved": 0, "is_disabled": 0, "name": "bd0f20e6db4db8662fd4c75104c011c3", "bike_id": "bd0f20e6db4db8662fd4c75104c011c3", "fusion_lat": 0.0, "lon": -77.0456145, "type": "electric_scooter", "fusion_lon": 0.0, "lat": 38.9011385}, {"rental_uris": {"android": "https://dc.lft.to/lastmile_qr_scan", "ios": "https://dc.lft.to/lastmile_qr_scan"}, "is_reserved": 0, "is_disabled": 0, "name": "34aee43bd98962595bf6f746299c927f", "bike_id": "34aee43bd98962595bf6f746299c927f", "fusion_lat": 0.0, "lon": -77.05919466666667, "type": "electric_scooter", "fusion_lon": 0.0, "lat": 38.902242}, {"rental_uris": {"android": "https://dc.lft.to/lastmile_qr_scan", "ios": "https://dc.lft.to/lastmile_qr_scan"}, "is_reserved": 0, "is_disabled": 0, "name": "2da3cd9c0b9aeda792f27f010312a2a3", "bike_id": "2da3cd9c0b9aeda792f27f010312a2a3", "fusion_lat": 0.0, "lon": -77.02287083333333, "type": "electric_scooter", "fusion_lon": 0.0, "lat": 38.89843483333333}, {"rental_uris": {"android": "https://dc.lft.to/lastmile_qr_scan", "ios": "https://dc.lft.to/lastmile_qr_scan"}, "is_reserved": 0, "is_disabled": 0, "name": "bdfda04d7feb03831d56a2986d7a4b8d", "bike_id": "bdfda04d7feb03831d56a2986d7a4b8d", "fusion_lat": 0.0, "lon": -77.02208633333333, "type": "electric_scooter", "fusion_lon": 0.0, "lat": 38.8952905}, {"rental_uris": {"android": "https://dc.lft.to/lastmile_qr_scan", "ios": "https://dc.lft.to/lastmile_qr_scan"}, "is_reserved": 0, "is_disabled": 0, "name": "e6e427de7fc37fe09b993604222858ff", "bike_id": "e6e427de7fc37fe09b993604222858ff", "fusion_lat": 0.0, "lon": -77.127419, "type": "electric_bike", "fusion_lon": 0.0, "lat": 38.89561}, {"rental_uris": {"android": "https://dc.lft.to/lastmile_qr_scan", "ios": "https://dc.lft.to/lastmile_qr_scan"}, "is_reserved": 0, "is_disabled": 0, "name": "d345f3fb39e0cecd1ae5166d7d6d518e", "bike_id": "d345f3fb39e0cecd1ae5166d7d6d518e", "fusion_lat": 0.0, "lon": -76.94581933333333, "type": "electric_scooter", "fusion_lon": 0.0, "lat": 38.899210833333335}, {"rental_uris": {"android": "https://dc.lft.to/lastmile_qr_scan", "ios": "https://dc.lft.to/lastmile_qr_scan"}, "is_reserved": 0, "is_disabled": 0, "name": "4bf7dc99a5ed49bd338ae79e3e59142d", "bike_id": "4bf7dc99a5ed49bd338ae79e3e59142d", "fusion_lat": 0.0, "lon": -77.019664, "type": "electric_scooter", "fusion_lon": 0.0, "lat": 38.9293425}, {"rental_uris": {"android": "https://dc.lft.to/lastmile_qr_scan", "ios": "https://dc.lft.to/lastmile_qr_scan"}, "is_reserved": 0, "is_disabled": 0, "name": "1302051e15deffbed332084ae9a34e55", "bike_id": "1302051e15deffbed332084ae9a34e55", "fusion_lat": 0.0, "lon": -77.045171, "type": "electric_scooter", "fusion_lon": 0.0, "lat": 38.912885}, {"rental_uris": {"android": "https://dc.lft.to/lastmile_qr_scan", "ios": "https://dc.lft.to/lastmile_qr_scan"}, "is_reserved": 0, "is_disabled": 0, "name": "54570d166816eab995652986deeafaf5", "bike_id": "54570d166816eab995652986deeafaf5", "fusion_lat": 0.0, "lon": -76.95701783333334, "type": "electric_bike", "fusion_lon": 0.0, "lat": 38.88874066666666}, {"rental_uris": {"android": "https://dc.lft.to/lastmile_qr_scan", "ios": "https://dc.lft.to/lastmile_qr_scan"}, "is_reserved": 0, "is_disabled": 0, "name": "71f7dfdf64656adc559490e619fa0cd4", "bike_id": "71f7dfdf64656adc559490e619fa0cd4", "fusion_lat": 0.0, "lon": -77.00604583333333, "type": "electric_scooter", "fusion_lon": 0.0, "lat": 38.901653833333334}, {"rental_uris": {"android": "https://dc.lft.to/lastmile_qr_scan", "ios": "https://dc.lft.to/lastmile_qr_scan"}, "is_reserved": 0, "is_disabled": 0, "name": "0a6dafbd313516907069e5d3234f5b0f", "bike_id": "0a6dafbd313516907069e5d3234f5b0f", "fusion_lat": 0.0, "lon": -77.04624666666666, "type": "electric_scooter", "fusion_lon": 0.0, "lat": 38.9223895}, {"rental_uris": {"android": "https://dc.lft.to/lastmile_qr_scan", "ios": "https://dc.lft.to/lastmile_qr_scan"}, "is_reserved": 0, "is_disabled": 0, "name": "aeaa6b3e2a2490d47825c2f6767a7785", "bike_id": "aeaa6b3e2a2490d47825c2f6767a7785", "fusion_lat": 0.0, "lon": -77.04186733333333, "type": "electric_bike", "fusion_lon": 0.0, "lat": 38.8952115}, {"rental_uris": {"android": "https://dc.lft.to/lastmile_qr_scan", "ios": "https://dc.lft.to/lastmile_qr_scan"}, "is_reserved": 0, "is_disabled": 0, "name": "d904dda4b4a8f9d7b89702eeb5888b0a", "bike_id": "d904dda4b4a8f9d7b89702eeb5888b0a", "fusion_lat": 0.0, "lon": -76.98360783333334, "type": "electric_scooter", "fusion_lon": 0.0, "lat": 38.88736016666667}, {"rental_uris": {"android": "https://dc.lft.to/lastmile_qr_scan", "ios": "https://dc.lft.to/lastmile_qr_scan"}, "is_reserved": 0, "is_disabled": 0, "name": "43268318e224695e7576b3b27656b92c", "bike_id": "43268318e224695e7576b3b27656b92c", "fusion_lat": 0.0, "lon": -77.02132916666666, "type": "electric_scooter", "fusion_lon": 0.0, "lat": 38.92366766666667}, {"rental_uris": {"android": "https://dc.lft.to/lastmile_qr_scan", "ios": "https://dc.lft.to/lastmile_qr_scan"}, "is_reserved": 0, "is_disabled": 0, "name": "097d33ab75da1be723b8ecee9f52eb88", "bike_id": "097d33ab75da1be723b8ecee9f52eb88", "fusion_lat": 0.0, "lon": -77.0230265, "type": "electric_scooter", "fusion_lon": 0.0, "lat": 38.90188933333334}, {"rental_uris": {"android": "https://dc.lft.to/lastmile_qr_scan", "ios": "https://dc.lft.to/lastmile_qr_scan"}, "is_reserved": 0, "is_disabled": 0, "name": "d7197878ecd11e4e2a214cf8a1e3b232", "bike_id": "d7197878ecd11e4e2a214cf8a1e3b232", "fusion_lat": 0.0, "lon": -77.08966266666667, "type": "electric_bike", "fusion_lon": 0.0, "lat": 38.84116816666667}, {"rental_uris": {"android": "https://dc.lft.to/lastmile_qr_scan", "ios": "https://dc.lft.to/lastmile_qr_scan"}, "is_reserved": 0, "is_disabled": 0, "name": "431dcf981789a050895824983390a549", "bike_id": "431dcf981789a050895824983390a549", "fusion_lat": 0.0, "lon": -77.04073283333334, "type": "electric_scooter", "fusion_lon": 0.0, "lat": 38.903678}, {"rental_uris": {"android": "https://dc.lft.to/lastmile_qr_scan", "ios": "https://dc.lft.to/lastmile_qr_scan"}, "is_reserved": 0, "is_disabled": 0, "name": "0d97caa6aed3585daa9d8263d4449d75", "bike_id": "0d97caa6aed3585daa9d8263d4449d75", "fusion_lat": 0.0, "lon": -77.04538733333334, "type": "electric_scooter", "fusion_lon": 0.0, "lat": 38.902849833333335}, {"rental_uris": {"android": "https://dc.lft.to/lastmile_qr_scan", "ios": "https://dc.lft.to/lastmile_qr_scan"}, "is_reserved": 0, "is_disabled": 0, "name": "e75af2030faf2fdf04cd056945fee541", "bike_id": "e75af2030faf2fdf04cd056945fee541", "fusion_lat": 0.0, "lon": -77.02602266666666, "type": "electric_scooter", "fusion_lon": 0.0, "lat": 38.90038633333333}, {"rental_uris": {"android": "https://dc.lft.to/lastmile_qr_scan", "ios": "https://dc.lft.to/lastmile_qr_scan"}, "is_reserved": 0, "is_disabled": 0, "name": "fa39b1b188ee7f530e38e01c340b0531", "bike_id": "fa39b1b188ee7f530e38e01c340b0531", "fusion_lat": 0.0, "lon": -77.01506583333334, "type": "electric_scooter", "fusion_lon": 0.0, "lat": 38.895511666666664}, {"rental_uris": {"android": "https://dc.lft.to/lastmile_qr_scan", "ios": "https://dc.lft.to/lastmile_qr_scan"}, "is_reserved": 0, "is_disabled": 0, "name": "337ffe410221d549d2db7de0e40e20f6", "bike_id": "337ffe410221d549d2db7de0e40e20f6", "fusion_lat": 0.0, "lon": -77.034422, "type": "electric_scooter", "fusion_lon": 0.0, "lat": 38.90256866666667}, {"rental_uris": {"android": "https://dc.lft.to/lastmile_qr_scan", "ios": "https://dc.lft.to/lastmile_qr_scan"}, "is_reserved": 0, "is_disabled": 0, "name": "cbea82d9f3659998e07005f6e728393b", "bike_id": "cbea82d9f3659998e07005f6e728393b", "fusion_lat": 0.0, "lon": -77.0531765, "type": "electric_scooter", "fusion_lon": 0.0, "lat": 38.905319666666664}, {"rental_uris": {"android": "https://dc.lft.to/lastmile_qr_scan", "ios": "https://dc.lft.to/lastmile_qr_scan"}, "is_reserved": 0, "is_disabled": 0, "name": "3c1e5fa6d3450bc4ad61568d78903e8e", "bike_id": "3c1e5fa6d3450bc4ad61568d78903e8e", "fusion_lat": 0.0, "lon": -77.05925333333333, "type": "electric_scooter", "fusion_lon": 0.0, "lat": 38.90161283333333}, {"rental_uris": {"android": "https://dc.lft.to/lastmile_qr_scan", "ios": "https://dc.lft.to/lastmile_qr_scan"}, "is_reserved": 0, "is_disabled": 0, "name": "eff12a7c6363b8367c4088dd6d165f3a", "bike_id": "eff12a7c6363b8367c4088dd6d165f3a", "fusion_lat": 0.0, "lon": -77.0090725, "type": "electric_scooter", "fusion_lon": 0.0, "lat": 38.8988645}, {"rental_uris": {"android": "https://dc.lft.to/lastmile_qr_scan", "ios": "https://dc.lft.to/lastmile_qr_scan"}, "is_reserved": 0, "is_disabled": 0, "name": "2962e291b3363c1dd1aece1050521b97", "bike_id": "2962e291b3363c1dd1aece1050521b97", "fusion_lat": 0.0, "lon": -77.06335383333334, "type": "electric_scooter", "fusion_lon": 0.0, "lat": 38.94358166666667}, {"rental_uris": {"android": "https://dc.lft.to/lastmile_qr_scan", "ios": "https://dc.lft.to/lastmile_qr_scan"}, "is_reserved": 0, "is_disabled": 0, "name": "b8968876e202d41320dfc055e3311a05", "bike_id": "b8968876e202d41320dfc055e3311a05", "fusion_lat": 0.0, "lon": -77.02696, "type": "electric_scooter", "fusion_lon": 0.0, "lat": 38.902351333333336}, {"rental_uris": {"android": "https://dc.lft.to/lastmile_qr_scan", "ios": "https://dc.lft.to/lastmile_qr_scan"}, "is_reserved": 0, "is_disabled": 0, "name": "19c11a8c49f269d77c8f964fef82646d", "bike_id": "19c11a8c49f269d77c8f964fef82646d", "fusion_lat": 0.0, "lon": -77.01826066666666, "type": "electric_scooter", "fusion_lon": 0.0, "lat": 38.9027785}, {"rental_uris": {"android": "https://dc.lft.to/lastmile_qr_scan", "ios": "https://dc.lft.to/lastmile_qr_scan"}, "is_reserved": 0, "is_disabled": 0, "name": "27664da4974d792f768a27c07ceae32d", "bike_id": "27664da4974d792f768a27c07ceae32d", "fusion_lat": 0.0, "lon": -76.94085166666666, "type": "electric_scooter", "fusion_lon": 0.0, "lat": 38.89123166666667}, {"rental_uris": {"android": "https://dc.lft.to/lastmile_qr_scan", "ios": "https://dc.lft.to/lastmile_qr_scan"}, "is_reserved": 0, "is_disabled": 0, "name": "3a244aafb4181de7f3a9c6491ce46b14", "bike_id": "3a244aafb4181de7f3a9c6491ce46b14", "fusion_lat": 0.0, "lon": -77.04058533333334, "type": "electric_scooter", "fusion_lon": 0.0, "lat": 38.90846966666667}, {"rental_uris": {"android": "https://dc.lft.to/lastmile_qr_scan", "ios": "https://dc.lft.to/lastmile_qr_scan"}, "is_reserved": 0, "is_disabled": 0, "name": "0200338bf75f2e57e91934bd33305c15", "bike_id": "0200338bf75f2e57e91934bd33305c15", "fusion_lat": 0.0, "lon": -77.02384883333333, "type": "electric_scooter", "fusion_lon": 0.0, "lat": 38.952659833333335}, {"rental_uris": {"android": "https://dc.lft.to/lastmile_qr_scan", "ios": "https://dc.lft.to/lastmile_qr_scan"}, "is_reserved": 0, "is_disabled": 0, "name": "1fcf583e0347f50853da40bd5f44b32e", "bike_id": "1fcf583e0347f50853da40bd5f44b32e", "fusion_lat": 0.0, "lon": -76.98560033333334, "type": "electric_scooter", "fusion_lon": 0.0, "lat": 38.896178666666664}, {"rental_uris": {"android": "https://dc.lft.to/lastmile_qr_scan", "ios": "https://dc.lft.to/lastmile_qr_scan"}, "is_reserved": 0, "is_disabled": 0, "name": "bc8d9072a58bf8c0fd80b77f937e17c9", "bike_id": "bc8d9072a58bf8c0fd80b77f937e17c9", "fusion_lat": 0.0, "lon": -77.05683983333333, "type": "electric_scooter", "fusion_lon": 0.0, "lat": 38.923233833333335}, {"rental_uris": {"android": "https://dc.lft.to/lastmile_qr_scan", "ios": "https://dc.lft.to/lastmile_qr_scan"}, "is_reserved": 0, "is_disabled": 0, "name": "2d413d05aaf9a98f9b978feb14529faf", "bike_id": "2d413d05aaf9a98f9b978feb14529faf", "fusion_lat": 0.0, "lon": -77.02767883333334, "type": "electric_scooter", "fusion_lon": 0.0, "lat": 38.954213833333334}, {"rental_uris": {"android": "https://dc.lft.to/lastmile_qr_scan", "ios": "https://dc.lft.to/lastmile_qr_scan"}, "is_reserved": 0, "is_disabled": 0, "name": "b5583ecce8d9983d4f2d4810600119c0", "bike_id": "b5583ecce8d9983d4f2d4810600119c0", "fusion_lat": 0.0, "lon": -77.03337516666667, "type": "electric_scooter", "fusion_lon": 0.0, "lat": 38.89648966666667}, {"rental_uris": {"android": "https://dc.lft.to/lastmile_qr_scan", "ios": "https://dc.lft.to/lastmile_qr_scan"}, "is_reserved": 0, "is_disabled": 0, "name": "20edf94b85a3f28a6c53f976e0a67454", "bike_id": "20edf94b85a3f28a6c53f976e0a67454", "fusion_lat": 0.0, "lon": -77.02999566666666, "type": "electric_scooter", "fusion_lon": 0.0, "lat": 38.90142733333333}, {"rental_uris": {"android": "https://dc.lft.to/lastmile_qr_scan", "ios": "https://dc.lft.to/lastmile_qr_scan"}, "is_reserved": 0, "is_disabled": 0, "name": "4b3496db5d78025e03f04ab165cd2a21", "bike_id": "4b3496db5d78025e03f04ab165cd2a21", "fusion_lat": 0.0, "lon": -77.0101995, "type": "electric_scooter", "fusion_lon": 0.0, "lat": 38.914004166666665}, {"rental_uris": {"android": "https://dc.lft.to/lastmile_qr_scan", "ios": "https://dc.lft.to/lastmile_qr_scan"}, "is_reserved": 0, "is_disabled": 0, "name": "434f3052d8e8d5f74f8c4ee904331162", "bike_id": "434f3052d8e8d5f74f8c4ee904331162", "fusion_lat": 0.0, "lon": -77.03051483333333, "type": "electric_scooter", "fusion_lon": 0.0, "lat": 38.884228}, {"rental_uris": {"android": "https://dc.lft.to/lastmile_qr_scan", "ios": "https://dc.lft.to/lastmile_qr_scan"}, "is_reserved": 0, "is_disabled": 0, "name": "e69155003652a557be0e3b6189e2fe47", "bike_id": "e69155003652a557be0e3b6189e2fe47", "fusion_lat": 0.0, "lon": -77.053439, "type": "electric_scooter", "fusion_lon": 0.0, "lat": 38.9063545}, {"rental_uris": {"android": "https://dc.lft.to/lastmile_qr_scan", "ios": "https://dc.lft.to/lastmile_qr_scan"}, "is_reserved": 0, "is_disabled": 0, "name": "a478c2f523c218433834a536a2690ef2", "bike_id": "a478c2f523c218433834a536a2690ef2", "fusion_lat": 0.0, "lon": -77.0408665, "type": "electric_scooter", "fusion_lon": 0.0, "lat": 38.90709066666667}, {"rental_uris": {"android": "https://dc.lft.to/lastmile_qr_scan", "ios": "https://dc.lft.to/lastmile_qr_scan"}, "is_reserved": 0, "is_disabled": 0, "name": "7973b2164fcd1a91a07e7edcc5edef31", "bike_id": "7973b2164fcd1a91a07e7edcc5edef31", "fusion_lat": 0.0, "lon": -77.03450533333333, "type": "electric_scooter", "fusion_lon": 0.0, "lat": 38.916811333333335}, {"rental_uris": {"android": "https://dc.lft.to/lastmile_qr_scan", "ios": "https://dc.lft.to/lastmile_qr_scan"}, "is_reserved": 0, "is_disabled": 0, "name": "2a347dbadc79fa5c93282140f1e38379", "bike_id": "2a347dbadc79fa5c93282140f1e38379", "fusion_lat": 0.0, "lon": -77.07247233333334, "type": "electric_scooter", "fusion_lon": 0.0, "lat": 38.9078005}, {"rental_uris": {"android": "https://dc.lft.to/lastmile_qr_scan", "ios": "https://dc.lft.to/lastmile_qr_scan"}, "is_reserved": 0, "is_disabled": 0, "name": "633eaba6b26a3818c52d18c70e3792b8", "bike_id": "633eaba6b26a3818c52d18c70e3792b8", "fusion_lat": 0.0, "lon": -76.96845883333333, "type": "electric_bike", "fusion_lon": 0.0, "lat": 38.95536666666667}, {"rental_uris": {"android": "https://dc.lft.to/lastmile_qr_scan", "ios": "https://dc.lft.to/lastmile_qr_scan"}, "is_reserved": 0, "is_disabled": 0, "name": "42a4406e41efa6fc7f4d65d36079e98d", "bike_id": "42a4406e41efa6fc7f4d65d36079e98d", "fusion_lat": 0.0, "lon": -77.04689833333333, "type": "electric_scooter", "fusion_lon": 0.0, "lat": 38.896121}, {"rental_uris": {"android": "https://dc.lft.to/lastmile_qr_scan", "ios": "https://dc.lft.to/lastmile_qr_scan"}, "is_reserved": 0, "is_disabled": 0, "name": "df53fb37b5e828f021a063d1cbd2a960", "bike_id": "df53fb37b5e828f021a063d1cbd2a960", "fusion_lat": 0.0, "lon": -77.1021995, "type": "electric_bike", "fusion_lon": 0.0, "lat": 38.919927333333334}, {"rental_uris": {"android": "https://dc.lft.to/lastmile_qr_scan", "ios": "https://dc.lft.to/lastmile_qr_scan"}, "is_reserved": 0, "is_disabled": 0, "name": "498a13121a4949e55de21d4954aa5450", "bike_id": "498a13121a4949e55de21d4954aa5450", "fusion_lat": 0.0, "lon": -77.02711183333334, "type": "electric_scooter", "fusion_lon": 0.0, "lat": 38.91066583333333}, {"rental_uris": {"android": "https://dc.lft.to/lastmile_qr_scan", "ios": "https://dc.lft.to/lastmile_qr_scan"}, "is_reserved": 0, "is_disabled": 0, "name": "f9e91cadda1e090583576ee54bf204cc", "bike_id": "f9e91cadda1e090583576ee54bf204cc", "fusion_lat": 0.0, "lon": -77.00567716666667, "type": "electric_scooter", "fusion_lon": 0.0, "lat": 38.876340166666665}, {"rental_uris": {"android": "https://dc.lft.to/lastmile_qr_scan", "ios": "https://dc.lft.to/lastmile_qr_scan"}, "is_reserved": 0, "is_disabled": 0, "name": "e2c6390f01c66490952c4dbbf85a28ac", "bike_id": "e2c6390f01c66490952c4dbbf85a28ac", "fusion_lat": 0.0, "lon": -76.98687066666666, "type": "electric_bike", "fusion_lon": 0.0, "lat": 38.944626166666666}, {"rental_uris": {"android": "https://dc.lft.to/lastmile_qr_scan", "ios": "https://dc.lft.to/lastmile_qr_scan"}, "is_reserved": 0, "is_disabled": 0, "name": "ab80c616672685777d7bf241c11ada8e", "bike_id": "ab80c616672685777d7bf241c11ada8e", "fusion_lat": 0.0, "lon": -77.0374435, "type": "electric_scooter", "fusion_lon": 0.0, "lat": 38.902473}, {"rental_uris": {"android": "https://dc.lft.to/lastmile_qr_scan", "ios": "https://dc.lft.to/lastmile_qr_scan"}, "is_reserved": 0, "is_disabled": 0, "name": "8094add8d1e62c2cdb0405f973b7dd97", "bike_id": "8094add8d1e62c2cdb0405f973b7dd97", "fusion_lat": 0.0, "lon": -77.04160233333333, "type": "electric_bike", "fusion_lon": 0.0, "lat": 38.899315666666666}, {"rental_uris": {"android": "https://dc.lft.to/lastmile_qr_scan", "ios": "https://dc.lft.to/lastmile_qr_scan"}, "is_reserved": 0, "is_disabled": 0, "name": "c64d66695e3d8dfd345cf45fe76526be", "bike_id": "c64d66695e3d8dfd345cf45fe76526be", "fusion_lat": 0.0, "lon": -77.00919666666667, "type": "electric_scooter", "fusion_lon": 0.0, "lat": 38.89550783333333}, {"rental_uris": {"android": "https://dc.lft.to/lastmile_qr_scan", "ios": "https://dc.lft.to/lastmile_qr_scan"}, "is_reserved": 0, "is_disabled": 0, "name": "3d8fa62f442533b24029240a9e45ffd2", "bike_id": "3d8fa62f442533b24029240a9e45ffd2", "fusion_lat": 0.0, "lon": -76.96093733333333, "type": "electric_bike", "fusion_lon": 0.0, "lat": 38.9185335}, {"rental_uris": {"android": "https://dc.lft.to/lastmile_qr_scan", "ios": "https://dc.lft.to/lastmile_qr_scan"}, "is_reserved": 0, "is_disabled": 0, "name": "f3c690f078de3b12061dedaaae4918ad", "bike_id": "f3c690f078de3b12061dedaaae4918ad", "fusion_lat": 0.0, "lon": -77.02107183333334, "type": "electric_bike", "fusion_lon": 0.0, "lat": 39.02294916666666}, {"rental_uris": {"android": "https://dc.lft.to/lastmile_qr_scan", "ios": "https://dc.lft.to/lastmile_qr_scan"}, "is_reserved": 0, "is_disabled": 0, "name": "5236b88fcb574e799d6ce710d8ff0bee", "bike_id": "5236b88fcb574e799d6ce710d8ff0bee", "fusion_lat": 0.0, "lon": -77.02644883333333, "type": "electric_scooter", "fusion_lon": 0.0, "lat": 38.95184116666667}, {"rental_uris": {"android": "https://dc.lft.to/lastmile_qr_scan", "ios": "https://dc.lft.to/lastmile_qr_scan"}, "is_reserved": 0, "is_disabled": 0, "name": "39acfdba8358adf8f3af563aa00bd18e", "bike_id": "39acfdba8358adf8f3af563aa00bd18e", "fusion_lat": 0.0, "lon": -76.962689, "type": "electric_bike", "fusion_lon": 0.0, "lat": 38.967841166666666}, {"rental_uris": {"android": "https://dc.lft.to/lastmile_qr_scan", "ios": "https://dc.lft.to/lastmile_qr_scan"}, "is_reserved": 0, "is_disabled": 0, "name": "6dd805cc6fb8edc455846c059a6924f7", "bike_id": "6dd805cc6fb8edc455846c059a6924f7", "fusion_lat": 0.0, "lon": -77.00206783333333, "type": "electric_bike", "fusion_lon": 0.0, "lat": 38.819403333333334}, {"rental_uris": {"android": "https://dc.lft.to/lastmile_qr_scan", "ios": "https://dc.lft.to/lastmile_qr_scan"}, "is_reserved": 0, "is_disabled": 0, "name": "5a6394c459be7faa40e26c36b1f27397", "bike_id": "5a6394c459be7faa40e26c36b1f27397", "fusion_lat": 0.0, "lon": -77.006965, "type": "electric_scooter", "fusion_lon": 0.0, "lat": 38.900128}, {"rental_uris": {"android": "https://dc.lft.to/lastmile_qr_scan", "ios": "https://dc.lft.to/lastmile_qr_scan"}, "is_reserved": 0, "is_disabled": 0, "name": "7deacd9cb0abaeb5b9de5384d82fb4c4", "bike_id": "7deacd9cb0abaeb5b9de5384d82fb4c4", "fusion_lat": 0.0, "lon": -77.03069016666667, "type": "electric_scooter", "fusion_lon": 0.0, "lat": 38.92243583333333}, {"rental_uris": {"android": "https://dc.lft.to/lastmile_qr_scan", "ios": "https://dc.lft.to/lastmile_qr_scan"}, "is_reserved": 0, "is_disabled": 0, "name": "d0c764755b5c86f6a32546000fb08fe8", "bike_id": "d0c764755b5c86f6a32546000fb08fe8", "fusion_lat": 0.0, "lon": -77.03282433333334, "type": "electric_bike", "fusion_lon": 0.0, "lat": 38.9611845}, {"rental_uris": {"android": "https://dc.lft.to/lastmile_qr_scan", "ios": "https://dc.lft.to/lastmile_qr_scan"}, "is_reserved": 0, "is_disabled": 0, "name": "94f9e677aaa63ee7f4687eb8d71f4fc5", "bike_id": "94f9e677aaa63ee7f4687eb8d71f4fc5", "fusion_lat": 0.0, "lon": -77.04019383333333, "type": "electric_scooter", "fusion_lon": 0.0, "lat": 38.898408333333336}, {"rental_uris": {"android": "https://dc.lft.to/lastmile_qr_scan", "ios": "https://dc.lft.to/lastmile_qr_scan"}, "is_reserved": 0, "is_disabled": 0, "name": "bad6953b1c634191de456675f82e64b5", "bike_id": "bad6953b1c634191de456675f82e64b5", "fusion_lat": 0.0, "lon": -77.00766416666667, "type": "electric_bike", "fusion_lon": 0.0, "lat": 38.997789166666664}, {"rental_uris": {"android": "https://dc.lft.to/lastmile_qr_scan", "ios": "https://dc.lft.to/lastmile_qr_scan"}, "is_reserved": 0, "is_disabled": 0, "name": "110d229664c54e814f0a8146ec10213c", "bike_id": "110d229664c54e814f0a8146ec10213c", "fusion_lat": 0.0, "lon": -77.02854166666667, "type": "electric_bike", "fusion_lon": 0.0, "lat": 38.9213285}, {"rental_uris": {"android": "https://dc.lft.to/lastmile_qr_scan", "ios": "https://dc.lft.to/lastmile_qr_scan"}, "is_reserved": 0, "is_disabled": 0, "name": "e00a58ca8261eb5ae11061343cf22312", "bike_id": "e00a58ca8261eb5ae11061343cf22312", "fusion_lat": 0.0, "lon": -77.00908033333333, "type": "electric_scooter", "fusion_lon": 0.0, "lat": 38.9004445}, {"rental_uris": {"android": "https://dc.lft.to/lastmile_qr_scan", "ios": "https://dc.lft.to/lastmile_qr_scan"}, "is_reserved": 0, "is_disabled": 0, "name": "53f6f8004cd013d839a71453d9a79368", "bike_id": "53f6f8004cd013d839a71453d9a79368", "fusion_lat": 0.0, "lon": -77.028981, "type": "electric_scooter", "fusion_lon": 0.0, "lat": 38.914012166666666}, {"rental_uris": {"android": "https://dc.lft.to/lastmile_qr_scan", "ios": "https://dc.lft.to/lastmile_qr_scan"}, "is_reserved": 0, "is_disabled": 0, "name": "37da0f0acab2c4c01945c6c0c45e474d", "bike_id": "37da0f0acab2c4c01945c6c0c45e474d", "fusion_lat": 0.0, "lon": -76.945471, "type": "electric_bike", "fusion_lon": 0.0, "lat": 38.98274766666667}, {"rental_uris": {"android": "https://dc.lft.to/lastmile_qr_scan", "ios": "https://dc.lft.to/lastmile_qr_scan"}, "is_reserved": 0, "is_disabled": 0, "name": "9480b47e1f8ceec8b11d088ec75990c8", "bike_id": "9480b47e1f8ceec8b11d088ec75990c8", "fusion_lat": 0.0, "lon": -77.0267725, "type": "electric_scooter", "fusion_lon": 0.0, "lat": 38.8964175}, {"rental_uris": {"android": "https://dc.lft.to/lastmile_qr_scan", "ios": "https://dc.lft.to/lastmile_qr_scan"}, "is_reserved": 0, "is_disabled": 0, "name": "00859c253dd0a988df52c8f24614dc8e", "bike_id": "00859c253dd0a988df52c8f24614dc8e", "fusion_lat": 0.0, "lon": -77.02799433333334, "type": "electric_scooter", "fusion_lon": 0.0, "lat": 38.954049}, {"rental_uris": {"android": "https://dc.lft.to/lastmile_qr_scan", "ios": "https://dc.lft.to/lastmile_qr_scan"}, "is_reserved": 0, "is_disabled": 0, "name": "e20f18c63ecda26742a37fd03f69a329", "bike_id": "e20f18c63ecda26742a37fd03f69a329", "fusion_lat": 0.0, "lon": -77.016615, "type": "electric_scooter", "fusion_lon": 0.0, "lat": 38.87697166666667}, {"rental_uris": {"android": "https://dc.lft.to/lastmile_qr_scan", "ios": "https://dc.lft.to/lastmile_qr_scan"}, "is_reserved": 0, "is_disabled": 0, "name": "9dc1a6480338e1b8f51b8d55ef32a82c", "bike_id": "9dc1a6480338e1b8f51b8d55ef32a82c", "fusion_lat": 0.0, "lon": -76.95259983333334, "type": "electric_bike", "fusion_lon": 0.0, "lat": 38.88466316666667}, {"rental_uris": {"android": "https://dc.lft.to/lastmile_qr_scan", "ios": "https://dc.lft.to/lastmile_qr_scan"}, "is_reserved": 0, "is_disabled": 0, "name": "0402a448fb3fbba0ebeb01b4fb596af9", "bike_id": "0402a448fb3fbba0ebeb01b4fb596af9", "fusion_lat": 0.0, "lon": -77.02756366666667, "type": "electric_scooter", "fusion_lon": 0.0, "lat": 38.89704966666667}, {"rental_uris": {"android": "https://dc.lft.to/lastmile_qr_scan", "ios": "https://dc.lft.to/lastmile_qr_scan"}, "is_reserved": 0, "is_disabled": 0, "name": "86a24e2b75ec90e249d6b21577b4b74a", "bike_id": "86a24e2b75ec90e249d6b21577b4b74a", "fusion_lat": 0.0, "lon": -76.92973683333334, "type": "electric_scooter", "fusion_lon": 0.0, "lat": 38.88441783333333}, {"rental_uris": {"android": "https://dc.lft.to/lastmile_qr_scan", "ios": "https://dc.lft.to/lastmile_qr_scan"}, "is_reserved": 0, "is_disabled": 0, "name": "c9071bf44f61d6f7e11894a8a3179f7f", "bike_id": "c9071bf44f61d6f7e11894a8a3179f7f", "fusion_lat": 0.0, "lon": -77.0027765, "type": "electric_scooter", "fusion_lon": 0.0, "lat": 38.892067}, {"rental_uris": {"android": "https://dc.lft.to/lastmile_qr_scan", "ios": "https://dc.lft.to/lastmile_qr_scan"}, "is_reserved": 0, "is_disabled": 0, "name": "ce6be0ec83a79b38d5cd828650c294d9", "bike_id": "ce6be0ec83a79b38d5cd828650c294d9", "fusion_lat": 0.0, "lon": -77.05208416666666, "type": "electric_scooter", "fusion_lon": 0.0, "lat": 38.924360666666665}, {"rental_uris": {"android": "https://dc.lft.to/lastmile_qr_scan", "ios": "https://dc.lft.to/lastmile_qr_scan"}, "is_reserved": 0, "is_disabled": 0, "name": "f5915e8b839e738dfc16f5966efec55d", "bike_id": "f5915e8b839e738dfc16f5966efec55d", "fusion_lat": 0.0, "lon": -76.98576733333333, "type": "electric_scooter", "fusion_lon": 0.0, "lat": 38.896164}, {"rental_uris": {"android": "https://dc.lft.to/lastmile_qr_scan", "ios": "https://dc.lft.to/lastmile_qr_scan"}, "is_reserved": 0, "is_disabled": 0, "name": "84be4dfe9cbd32b8a16b01db6d99fba8", "bike_id": "84be4dfe9cbd32b8a16b01db6d99fba8", "fusion_lat": 0.0, "lon": -77.043198, "type": "electric_scooter", "fusion_lon": 0.0, "lat": 38.92619466666667}, {"rental_uris": {"android": "https://dc.lft.to/lastmile_qr_scan", "ios": "https://dc.lft.to/lastmile_qr_scan"}, "is_reserved": 0, "is_disabled": 0, "name": "5bbc08cb204ce75660d0513e94f84406", "bike_id": "5bbc08cb204ce75660d0513e94f84406", "fusion_lat": 0.0, "lon": -77.0446355, "type": "electric_scooter", "fusion_lon": 0.0, "lat": 38.90294383333333}, {"rental_uris": {"android": "https://dc.lft.to/lastmile_qr_scan", "ios": "https://dc.lft.to/lastmile_qr_scan"}, "is_reserved": 0, "is_disabled": 0, "name": "32d19706ad5e13f39543cbfd5c5751c5", "bike_id": "32d19706ad5e13f39543cbfd5c5751c5", "fusion_lat": 0.0, "lon": -77.02908083333334, "type": "electric_scooter", "fusion_lon": 0.0, "lat": 38.95295566666667}, {"rental_uris": {"android": "https://dc.lft.to/lastmile_qr_scan", "ios": "https://dc.lft.to/lastmile_qr_scan"}, "is_reserved": 0, "is_disabled": 0, "name": "d29d7f818a962f67deafda54390ea0e5", "bike_id": "d29d7f818a962f67deafda54390ea0e5", "fusion_lat": 0.0, "lon": -77.000595, "type": "electric_scooter", "fusion_lon": 0.0, "lat": 38.873956166666666}, {"rental_uris": {"android": "https://dc.lft.to/lastmile_qr_scan", "ios": "https://dc.lft.to/lastmile_qr_scan"}, "is_reserved": 0, "is_disabled": 0, "name": "1dbefc9a3f35bd932ef0d8596cd82f45", "bike_id": "1dbefc9a3f35bd932ef0d8596cd82f45", "fusion_lat": 0.0, "lon": -77.019218, "type": "electric_scooter", "fusion_lon": 0.0, "lat": 38.921734}, {"rental_uris": {"android": "https://dc.lft.to/lastmile_qr_scan", "ios": "https://dc.lft.to/lastmile_qr_scan"}, "is_reserved": 0, "is_disabled": 0, "name": "d7f0397b5907f7502b7165e9dce17882", "bike_id": "d7f0397b5907f7502b7165e9dce17882", "fusion_lat": 0.0, "lon": -76.98791316666667, "type": "electric_scooter", "fusion_lon": 0.0, "lat": 38.9001935}, {"rental_uris": {"android": "https://dc.lft.to/lastmile_qr_scan", "ios": "https://dc.lft.to/lastmile_qr_scan"}, "is_reserved": 0, "is_disabled": 0, "name": "435ea7920aa9e3c8468c45c677a8486a", "bike_id": "435ea7920aa9e3c8468c45c677a8486a", "fusion_lat": 0.0, "lon": -77.02701066666667, "type": "electric_scooter", "fusion_lon": 0.0, "lat": 38.90041133333333}, {"rental_uris": {"android": "https://dc.lft.to/lastmile_qr_scan", "ios": "https://dc.lft.to/lastmile_qr_scan"}, "is_reserved": 0, "is_disabled": 0, "name": "aea33fc49249f983e50c184e16977f68", "bike_id": "aea33fc49249f983e50c184e16977f68", "fusion_lat": 0.0, "lon": -77.0123665, "type": "electric_scooter", "fusion_lon": 0.0, "lat": 38.9154225}, {"rental_uris": {"android": "https://dc.lft.to/lastmile_qr_scan", "ios": "https://dc.lft.to/lastmile_qr_scan"}, "is_reserved": 0, "is_disabled": 0, "name": "34c27c5da3608f2a0f237626c054e3b6", "bike_id": "34c27c5da3608f2a0f237626c054e3b6", "fusion_lat": 0.0, "lon": -76.98375033333333, "type": "electric_scooter", "fusion_lon": 0.0, "lat": 38.89261916666667}, {"rental_uris": {"android": "https://dc.lft.to/lastmile_qr_scan", "ios": "https://dc.lft.to/lastmile_qr_scan"}, "is_reserved": 0, "is_disabled": 0, "name": "9ef7adbdad97064c5bfda4d28c1c1ad8", "bike_id": "9ef7adbdad97064c5bfda4d28c1c1ad8", "fusion_lat": 0.0, "lon": -77.0354955, "type": "electric_scooter", "fusion_lon": 0.0, "lat": 38.903784333333334}, {"rental_uris": {"android": "https://dc.lft.to/lastmile_qr_scan", "ios": "https://dc.lft.to/lastmile_qr_scan"}, "is_reserved": 0, "is_disabled": 0, "name": "7e867845e0c4e5e6eee008c9b65233b1", "bike_id": "7e867845e0c4e5e6eee008c9b65233b1", "fusion_lat": 0.0, "lon": -77.043485, "type": "electric_scooter", "fusion_lon": 0.0, "lat": 38.90510533333333}, {"rental_uris": {"android": "https://dc.lft.to/lastmile_qr_scan", "ios": "https://dc.lft.to/lastmile_qr_scan"}, "is_reserved": 0, "is_disabled": 0, "name": "6cecf62c8144d7165313f827942ea56b", "bike_id": "6cecf62c8144d7165313f827942ea56b", "fusion_lat": 0.0, "lon": -77.0166755, "type": "electric_scooter", "fusion_lon": 0.0, "lat": 38.88121183333333}, {"rental_uris": {"android": "https://dc.lft.to/lastmile_qr_scan", "ios": "https://dc.lft.to/lastmile_qr_scan"}, "is_reserved": 0, "is_disabled": 0, "name": "2904bf3db29d9b8d59eded1fdd10b685", "bike_id": "2904bf3db29d9b8d59eded1fdd10b685", "fusion_lat": 0.0, "lon": -76.9952035, "type": "electric_scooter", "fusion_lon": 0.0, "lat": 38.883636833333334}, {"rental_uris": {"android": "https://dc.lft.to/lastmile_qr_scan", "ios": "https://dc.lft.to/lastmile_qr_scan"}, "is_reserved": 0, "is_disabled": 0, "name": "2c02eaf69edd20b8cd78e14d7e12e129", "bike_id": "2c02eaf69edd20b8cd78e14d7e12e129", "fusion_lat": 0.0, "lon": -76.98619716666667, "type": "electric_scooter", "fusion_lon": 0.0, "lat": 38.93825416666667}, {"rental_uris": {"android": "https://dc.lft.to/lastmile_qr_scan", "ios": "https://dc.lft.to/lastmile_qr_scan"}, "is_reserved": 0, "is_disabled": 0, "name": "0cbd7d7b5e8af1b90d8dbd0afc414738", "bike_id": "0cbd7d7b5e8af1b90d8dbd0afc414738", "fusion_lat": 0.0, "lon": -77.027997, "type": "electric_scooter", "fusion_lon": 0.0, "lat": 38.923083}, {"rental_uris": {"android": "https://dc.lft.to/lastmile_qr_scan", "ios": "https://dc.lft.to/lastmile_qr_scan"}, "is_reserved": 0, "is_disabled": 0, "name": "f48173d9881579d158c026c0b39d1161", "bike_id": "f48173d9881579d158c026c0b39d1161", "fusion_lat": 0.0, "lon": -76.98744466666666, "type": "electric_scooter", "fusion_lon": 0.0, "lat": 38.879606333333335}, {"rental_uris": {"android": "https://dc.lft.to/lastmile_qr_scan", "ios": "https://dc.lft.to/lastmile_qr_scan"}, "is_reserved": 0, "is_disabled": 0, "name": "501fac65c423c03fdce293a1ccb3851e", "bike_id": "501fac65c423c03fdce293a1ccb3851e", "fusion_lat": 0.0, "lon": -77.00141883333333, "type": "electric_scooter", "fusion_lon": 0.0, "lat": 38.88433366666667}, {"rental_uris": {"android": "https://dc.lft.to/lastmile_qr_scan", "ios": "https://dc.lft.to/lastmile_qr_scan"}, "is_reserved": 0, "is_disabled": 0, "name": "89ce3aca5826a91dcd54ee533cbc0a26", "bike_id": "89ce3aca5826a91dcd54ee533cbc0a26", "fusion_lat": 0.0, "lon": -77.02092833333333, "type": "electric_scooter", "fusion_lon": 0.0, "lat": 38.876036}, {"rental_uris": {"android": "https://dc.lft.to/lastmile_qr_scan", "ios": "https://dc.lft.to/lastmile_qr_scan"}, "is_reserved": 0, "is_disabled": 0, "name": "bca8bff11433b34787c3cdffe0575cbe", "bike_id": "bca8bff11433b34787c3cdffe0575cbe", "fusion_lat": 0.0, "lon": -77.013928, "type": "electric_scooter", "fusion_lon": 0.0, "lat": 38.8789385}, {"rental_uris": {"android": "https://dc.lft.to/lastmile_qr_scan", "ios": "https://dc.lft.to/lastmile_qr_scan"}, "is_reserved": 0, "is_disabled": 0, "name": "cbec37867f798b223c6b2d17f047fb18", "bike_id": "cbec37867f798b223c6b2d17f047fb18", "fusion_lat": 0.0, "lon": -76.99521216666666, "type": "electric_scooter", "fusion_lon": 0.0, "lat": 38.8836855}, {"rental_uris": {"android": "https://dc.lft.to/lastmile_qr_scan", "ios": "https://dc.lft.to/lastmile_qr_scan"}, "is_reserved": 0, "is_disabled": 0, "name": "e3e799fd4eeca04684927b63d5f3b944", "bike_id": "e3e799fd4eeca04684927b63d5f3b944", "fusion_lat": 0.0, "lon": -77.03379516666666, "type": "electric_scooter", "fusion_lon": 0.0, "lat": 38.89734983333334}, {"rental_uris": {"android": "https://dc.lft.to/lastmile_qr_scan", "ios": "https://dc.lft.to/lastmile_qr_scan"}, "is_reserved": 0, "is_disabled": 0, "name": "e693f4df63ce706e4caf44a767fe1bac", "bike_id": "e693f4df63ce706e4caf44a767fe1bac", "fusion_lat": 0.0, "lon": -77.04012166666666, "type": "electric_scooter", "fusion_lon": 0.0, "lat": 38.90998483333333}, {"rental_uris": {"android": "https://dc.lft.to/lastmile_qr_scan", "ios": "https://dc.lft.to/lastmile_qr_scan"}, "is_reserved": 0, "is_disabled": 0, "name": "f9a8bcdbd9bd1dcb9d35997a06fbed4c", "bike_id": "f9a8bcdbd9bd1dcb9d35997a06fbed4c", "fusion_lat": 0.0, "lon": -77.096247, "type": "electric_bike", "fusion_lon": 0.0, "lat": 38.974371166666664}, {"rental_uris": {"android": "https://dc.lft.to/lastmile_qr_scan", "ios": "https://dc.lft.to/lastmile_qr_scan"}, "is_reserved": 0, "is_disabled": 0, "name": "063d304414aa2221b6762082c7d06bbe", "bike_id": "063d304414aa2221b6762082c7d06bbe", "fusion_lat": 0.0, "lon": -77.00358633333333, "type": "electric_scooter", "fusion_lon": 0.0, "lat": 38.887045666666666}, {"rental_uris": {"android": "https://dc.lft.to/lastmile_qr_scan", "ios": "https://dc.lft.to/lastmile_qr_scan"}, "is_reserved": 0, "is_disabled": 0, "name": "9cf0bd732b68eda4176af7e1c250f72b", "bike_id": "9cf0bd732b68eda4176af7e1c250f72b", "fusion_lat": 0.0, "lon": -77.03835716666667, "type": "electric_scooter", "fusion_lon": 0.0, "lat": 38.9065935}, {"rental_uris": {"android": "https://dc.lft.to/lastmile_qr_scan", "ios": "https://dc.lft.to/lastmile_qr_scan"}, "is_reserved": 0, "is_disabled": 0, "name": "7006e94182b6cb34c782ebfddfe914d1", "bike_id": "7006e94182b6cb34c782ebfddfe914d1", "fusion_lat": 0.0, "lon": -76.95354333333333, "type": "electric_bike", "fusion_lon": 0.0, "lat": 38.941676333333334}, {"rental_uris": {"android": "https://dc.lft.to/lastmile_qr_scan", "ios": "https://dc.lft.to/lastmile_qr_scan"}, "is_reserved": 0, "is_disabled": 0, "name": "4234cf91308fa440463c009a5a262453", "bike_id": "4234cf91308fa440463c009a5a262453", "fusion_lat": 0.0, "lon": -77.0098745, "type": "electric_scooter", "fusion_lon": 0.0, "lat": 38.9164185}, {"rental_uris": {"android": "https://dc.lft.to/lastmile_qr_scan", "ios": "https://dc.lft.to/lastmile_qr_scan"}, "is_reserved": 0, "is_disabled": 0, "name": "c78ef4655d43036a9422231799e38f96", "bike_id": "c78ef4655d43036a9422231799e38f96", "fusion_lat": 0.0, "lon": -77.043612, "type": "electric_scooter", "fusion_lon": 0.0, "lat": 38.91342866666667}, {"rental_uris": {"android": "https://dc.lft.to/lastmile_qr_scan", "ios": "https://dc.lft.to/lastmile_qr_scan"}, "is_reserved": 0, "is_disabled": 0, "name": "b558e685ca5f303d79784e79a5d15721", "bike_id": "b558e685ca5f303d79784e79a5d15721", "fusion_lat": 0.0, "lon": -77.02824083333333, "type": "electric_scooter", "fusion_lon": 0.0, "lat": 38.929705}, {"rental_uris": {"android": "https://dc.lft.to/lastmile_qr_scan", "ios": "https://dc.lft.to/lastmile_qr_scan"}, "is_reserved": 0, "is_disabled": 0, "name": "44ffd9c79d53e871e96ccd84058c4e87", "bike_id": "44ffd9c79d53e871e96ccd84058c4e87", "fusion_lat": 0.0, "lon": -77.04461133333334, "type": "electric_scooter", "fusion_lon": 0.0, "lat": 38.918676}, {"rental_uris": {"android": "https://dc.lft.to/lastmile_qr_scan", "ios": "https://dc.lft.to/lastmile_qr_scan"}, "is_reserved": 0, "is_disabled": 0, "name": "842f8b6161c740bbd0f46ec0ea36d524", "bike_id": "842f8b6161c740bbd0f46ec0ea36d524", "fusion_lat": 0.0, "lon": -77.0196265, "type": "electric_scooter", "fusion_lon": 0.0, "lat": 38.92320333333333}, {"rental_uris": {"android": "https://dc.lft.to/lastmile_qr_scan", "ios": "https://dc.lft.to/lastmile_qr_scan"}, "is_reserved": 0, "is_disabled": 0, "name": "4c38cf795437bfd92708340ef8c6bff7", "bike_id": "4c38cf795437bfd92708340ef8c6bff7", "fusion_lat": 0.0, "lon": -77.03200433333333, "type": "electric_scooter", "fusion_lon": 0.0, "lat": 38.913452166666666}, {"rental_uris": {"android": "https://dc.lft.to/lastmile_qr_scan", "ios": "https://dc.lft.to/lastmile_qr_scan"}, "is_reserved": 0, "is_disabled": 0, "name": "96dca9a5c98a2ab05af374ade18d050c", "bike_id": "96dca9a5c98a2ab05af374ade18d050c", "fusion_lat": 0.0, "lon": -77.032303, "type": "electric_bike", "fusion_lon": 0.0, "lat": 38.96160733333333}, {"rental_uris": {"android": "https://dc.lft.to/lastmile_qr_scan", "ios": "https://dc.lft.to/lastmile_qr_scan"}, "is_reserved": 0, "is_disabled": 0, "name": "7fe0714134fd526789d5248bf9f06e9f", "bike_id": "7fe0714134fd526789d5248bf9f06e9f", "fusion_lat": 0.0, "lon": -77.02078, "type": "electric_scooter", "fusion_lon": 0.0, "lat": 38.918892166666666}, {"rental_uris": {"android": "https://dc.lft.to/lastmile_qr_scan", "ios": "https://dc.lft.to/lastmile_qr_scan"}, "is_reserved": 0, "is_disabled": 0, "name": "9f097969930067c835b969bb6f14ad73", "bike_id": "9f097969930067c835b969bb6f14ad73", "fusion_lat": 0.0, "lon": -76.97335, "type": "electric_scooter", "fusion_lon": 0.0, "lat": 38.9040665}, {"rental_uris": {"android": "https://dc.lft.to/lastmile_qr_scan", "ios": "https://dc.lft.to/lastmile_qr_scan"}, "is_reserved": 0, "is_disabled": 0, "name": "a9e569065b34f2dec37b7ac90b860289", "bike_id": "a9e569065b34f2dec37b7ac90b860289", "fusion_lat": 0.0, "lon": -77.1298545, "type": "electric_bike", "fusion_lon": 0.0, "lat": 38.799857333333335}, {"rental_uris": {"android": "https://dc.lft.to/lastmile_qr_scan", "ios": "https://dc.lft.to/lastmile_qr_scan"}, "is_reserved": 0, "is_disabled": 0, "name": "5c9b715de0b8bebcfcfd3dd492f55abd", "bike_id": "5c9b715de0b8bebcfcfd3dd492f55abd", "fusion_lat": 0.0, "lon": -76.97807116666667, "type": "electric_scooter", "fusion_lon": 0.0, "lat": 38.9203405}, {"rental_uris": {"android": "https://dc.lft.to/lastmile_qr_scan", "ios": "https://dc.lft.to/lastmile_qr_scan"}, "is_reserved": 0, "is_disabled": 0, "name": "3b931ad03af5abeca46a21d38f7d8b59", "bike_id": "3b931ad03af5abeca46a21d38f7d8b59", "fusion_lat": 0.0, "lon": -77.04675683333333, "type": "electric_scooter", "fusion_lon": 0.0, "lat": 38.8955425}, {"rental_uris": {"android": "https://dc.lft.to/lastmile_qr_scan", "ios": "https://dc.lft.to/lastmile_qr_scan"}, "is_reserved": 0, "is_disabled": 0, "name": "108c7e03e541ca06a654aded9d5ae735", "bike_id": "108c7e03e541ca06a654aded9d5ae735", "fusion_lat": 0.0, "lon": -77.01117466666666, "type": "electric_scooter", "fusion_lon": 0.0, "lat": 38.88508383333333}, {"rental_uris": {"android": "https://dc.lft.to/lastmile_qr_scan", "ios": "https://dc.lft.to/lastmile_qr_scan"}, "is_reserved": 0, "is_disabled": 0, "name": "3e97e743b0f06078e467b51c3632c6db", "bike_id": "3e97e743b0f06078e467b51c3632c6db", "fusion_lat": 0.0, "lon": -77.0202435, "type": "electric_scooter", "fusion_lon": 0.0, "lat": 38.915606}, {"rental_uris": {"android": "https://dc.lft.to/lastmile_qr_scan", "ios": "https://dc.lft.to/lastmile_qr_scan"}, "is_reserved": 0, "is_disabled": 0, "name": "dbd7d038ca4051f274fdeac43f55cb53", "bike_id": "dbd7d038ca4051f274fdeac43f55cb53", "fusion_lat": 0.0, "lon": -77.04556883333333, "type": "electric_scooter", "fusion_lon": 0.0, "lat": 38.912685333333336}, {"rental_uris": {"android": "https://dc.lft.to/lastmile_qr_scan", "ios": "https://dc.lft.to/lastmile_qr_scan"}, "is_reserved": 0, "is_disabled": 0, "name": "2a8041baf25b68fc06af195005729f40", "bike_id": "2a8041baf25b68fc06af195005729f40", "fusion_lat": 0.0, "lon": -77.01675116666667, "type": "electric_scooter", "fusion_lon": 0.0, "lat": 38.920383}, {"rental_uris": {"android": "https://dc.lft.to/lastmile_qr_scan", "ios": "https://dc.lft.to/lastmile_qr_scan"}, "is_reserved": 0, "is_disabled": 0, "name": "f2f172cc5021b940b4db9720108b608c", "bike_id": "f2f172cc5021b940b4db9720108b608c", "fusion_lat": 0.0, "lon": -77.02090316666667, "type": "electric_scooter", "fusion_lon": 0.0, "lat": 38.92154283333333}, {"rental_uris": {"android": "https://dc.lft.to/lastmile_qr_scan", "ios": "https://dc.lft.to/lastmile_qr_scan"}, "is_reserved": 0, "is_disabled": 0, "name": "0b098b004bd7bba1e92767df4829c9ed", "bike_id": "0b098b004bd7bba1e92767df4829c9ed", "fusion_lat": 0.0, "lon": -77.07281466666667, "type": "electric_scooter", "fusion_lon": 0.0, "lat": 38.93471666666667}, {"rental_uris": {"android": "https://dc.lft.to/lastmile_qr_scan", "ios": "https://dc.lft.to/lastmile_qr_scan"}, "is_reserved": 0, "is_disabled": 0, "name": "37823a3b208d9b367fff718e20dbd94a", "bike_id": "37823a3b208d9b367fff718e20dbd94a", "fusion_lat": 0.0, "lon": -77.02031866666667, "type": "electric_scooter", "fusion_lon": 0.0, "lat": 38.924413666666666}, {"rental_uris": {"android": "https://dc.lft.to/lastmile_qr_scan", "ios": "https://dc.lft.to/lastmile_qr_scan"}, "is_reserved": 0, "is_disabled": 0, "name": "56b5129b4c24ad822c4427262518de43", "bike_id": "56b5129b4c24ad822c4427262518de43", "fusion_lat": 0.0, "lon": -77.05940466666667, "type": "electric_scooter", "fusion_lon": 0.0, "lat": 38.943061}, {"rental_uris": {"android": "https://dc.lft.to/lastmile_qr_scan", "ios": "https://dc.lft.to/lastmile_qr_scan"}, "is_reserved": 0, "is_disabled": 0, "name": "a8a8b0bd85660f7a282937b78259896a", "bike_id": "a8a8b0bd85660f7a282937b78259896a", "fusion_lat": 0.0, "lon": -77.02791216666667, "type": "electric_scooter", "fusion_lon": 0.0, "lat": 38.884192166666665}, {"rental_uris": {"android": "https://dc.lft.to/lastmile_qr_scan", "ios": "https://dc.lft.to/lastmile_qr_scan"}, "is_reserved": 0, "is_disabled": 0, "name": "cc33066865bdcb41afb6a397476bff2c", "bike_id": "cc33066865bdcb41afb6a397476bff2c", "fusion_lat": 0.0, "lon": -76.9875185, "type": "electric_bike", "fusion_lon": 0.0, "lat": 38.85758633333333}, {"rental_uris": {"android": "https://dc.lft.to/lastmile_qr_scan", "ios": "https://dc.lft.to/lastmile_qr_scan"}, "is_reserved": 0, "is_disabled": 0, "name": "4aed6546dfb9e8d2196453a7613393f2", "bike_id": "4aed6546dfb9e8d2196453a7613393f2", "fusion_lat": 0.0, "lon": -77.02434083333333, "type": "electric_scooter", "fusion_lon": 0.0, "lat": 38.91929233333333}, {"rental_uris": {"android": "https://dc.lft.to/lastmile_qr_scan", "ios": "https://dc.lft.to/lastmile_qr_scan"}, "is_reserved": 0, "is_disabled": 0, "name": "b470f6400d3c2c6cc644517f1e3dfc8d", "bike_id": "b470f6400d3c2c6cc644517f1e3dfc8d", "fusion_lat": 0.0, "lon": -77.04552433333333, "type": "electric_scooter", "fusion_lon": 0.0, "lat": 38.89600183333334}, {"rental_uris": {"android": "https://dc.lft.to/lastmile_qr_scan", "ios": "https://dc.lft.to/lastmile_qr_scan"}, "is_reserved": 0, "is_disabled": 0, "name": "72d34bbcd32df118f06c83a5ce9121ab", "bike_id": "72d34bbcd32df118f06c83a5ce9121ab", "fusion_lat": 0.0, "lon": -77.0281615, "type": "electric_scooter", "fusion_lon": 0.0, "lat": 38.904417333333335}, {"rental_uris": {"android": "https://dc.lft.to/lastmile_qr_scan", "ios": "https://dc.lft.to/lastmile_qr_scan"}, "is_reserved": 0, "is_disabled": 0, "name": "9990aa34cea058d9a9352cbeaffb425d", "bike_id": "9990aa34cea058d9a9352cbeaffb425d", "fusion_lat": 0.0, "lon": -77.04814733333333, "type": "electric_scooter", "fusion_lon": 0.0, "lat": 38.916330333333335}, {"rental_uris": {"android": "https://dc.lft.to/lastmile_qr_scan", "ios": "https://dc.lft.to/lastmile_qr_scan"}, "is_reserved": 0, "is_disabled": 0, "name": "6a48992f88e6da66dd30dd5efd1afd33", "bike_id": "6a48992f88e6da66dd30dd5efd1afd33", "fusion_lat": 0.0, "lon": -77.0379985, "type": "electric_scooter", "fusion_lon": 0.0, "lat": 38.90455166666667}, {"rental_uris": {"android": "https://dc.lft.to/lastmile_qr_scan", "ios": "https://dc.lft.to/lastmile_qr_scan"}, "is_reserved": 0, "is_disabled": 0, "name": "e1948af2d216392419bcd3fedce76561", "bike_id": "e1948af2d216392419bcd3fedce76561", "fusion_lat": 0.0, "lon": -77.03080716666666, "type": "electric_scooter", "fusion_lon": 0.0, "lat": 38.8996695}, {"rental_uris": {"android": "https://dc.lft.to/lastmile_qr_scan", "ios": "https://dc.lft.to/lastmile_qr_scan"}, "is_reserved": 0, "is_disabled": 0, "name": "c3cab41414708b1a1b2518ca9461fbeb", "bike_id": "c3cab41414708b1a1b2518ca9461fbeb", "fusion_lat": 0.0, "lon": -76.98376583333334, "type": "electric_scooter", "fusion_lon": 0.0, "lat": 38.860283833333334}, {"rental_uris": {"android": "https://dc.lft.to/lastmile_qr_scan", "ios": "https://dc.lft.to/lastmile_qr_scan"}, "is_reserved": 0, "is_disabled": 0, "name": "ab7ea55752f150b1d1f649ea795899b1", "bike_id": "ab7ea55752f150b1d1f649ea795899b1", "fusion_lat": 0.0, "lon": -77.00160416666667, "type": "electric_bike", "fusion_lon": 0.0, "lat": 38.89927516666667}, {"rental_uris": {"android": "https://dc.lft.to/lastmile_qr_scan", "ios": "https://dc.lft.to/lastmile_qr_scan"}, "is_reserved": 0, "is_disabled": 0, "name": "7aca02ebdaa1d29e2d04725f1e3e540a", "bike_id": "7aca02ebdaa1d29e2d04725f1e3e540a", "fusion_lat": 0.0, "lon": -77.02374216666666, "type": "electric_scooter", "fusion_lon": 0.0, "lat": 38.892163333333336}, {"rental_uris": {"android": "https://dc.lft.to/lastmile_qr_scan", "ios": "https://dc.lft.to/lastmile_qr_scan"}, "is_reserved": 0, "is_disabled": 0, "name": "0deb14d86d090f1f422fc995aa866b46", "bike_id": "0deb14d86d090f1f422fc995aa866b46", "fusion_lat": 0.0, "lon": -77.0255145, "type": "electric_scooter", "fusion_lon": 0.0, "lat": 38.970056}, {"rental_uris": {"android": "https://dc.lft.to/lastmile_qr_scan", "ios": "https://dc.lft.to/lastmile_qr_scan"}, "is_reserved": 0, "is_disabled": 0, "name": "3795c34bef18846b2f21a9b55484af44", "bike_id": "3795c34bef18846b2f21a9b55484af44", "fusion_lat": 0.0, "lon": -77.04042533333333, "type": "electric_scooter", "fusion_lon": 0.0, "lat": 38.9185325}, {"rental_uris": {"android": "https://dc.lft.to/lastmile_qr_scan", "ios": "https://dc.lft.to/lastmile_qr_scan"}, "is_reserved": 0, "is_disabled": 0, "name": "e5fefe25fd8e62bda62491206b50e248", "bike_id": "e5fefe25fd8e62bda62491206b50e248", "fusion_lat": 0.0, "lon": -77.00293983333333, "type": "electric_scooter", "fusion_lon": 0.0, "lat": 38.89350433333333}, {"rental_uris": {"android": "https://dc.lft.to/lastmile_qr_scan", "ios": "https://dc.lft.to/lastmile_qr_scan"}, "is_reserved": 0, "is_disabled": 0, "name": "2bf9e22ee31e7a54359fa39538791b08", "bike_id": "2bf9e22ee31e7a54359fa39538791b08", "fusion_lat": 0.0, "lon": -77.040931, "type": "electric_scooter", "fusion_lon": 0.0, "lat": 38.916879333333334}, {"rental_uris": {"android": "https://dc.lft.to/lastmile_qr_scan", "ios": "https://dc.lft.to/lastmile_qr_scan"}, "is_reserved": 0, "is_disabled": 0, "name": "530842dd4f035a48e48f9b12ebe08679", "bike_id": "530842dd4f035a48e48f9b12ebe08679", "fusion_lat": 0.0, "lon": -77.0398625, "type": "electric_scooter", "fusion_lon": 0.0, "lat": 38.90125333333334}, {"rental_uris": {"android": "https://dc.lft.to/lastmile_qr_scan", "ios": "https://dc.lft.to/lastmile_qr_scan"}, "is_reserved": 0, "is_disabled": 0, "name": "d81831a33a0463e3ca501be244fb9cf3", "bike_id": "d81831a33a0463e3ca501be244fb9cf3", "fusion_lat": 0.0, "lon": -77.04165866666666, "type": "electric_scooter", "fusion_lon": 0.0, "lat": 38.902980166666666}, {"rental_uris": {"android": "https://dc.lft.to/lastmile_qr_scan", "ios": "https://dc.lft.to/lastmile_qr_scan"}, "is_reserved": 0, "is_disabled": 0, "name": "e19563d9f105b67922729264a2aefa32", "bike_id": "e19563d9f105b67922729264a2aefa32", "fusion_lat": 0.0, "lon": -77.04489133333334, "type": "electric_scooter", "fusion_lon": 0.0, "lat": 38.903779666666665}, {"rental_uris": {"android": "https://dc.lft.to/lastmile_qr_scan", "ios": "https://dc.lft.to/lastmile_qr_scan"}, "is_reserved": 0, "is_disabled": 0, "name": "21d11173020259c04f2bca94216574b4", "bike_id": "21d11173020259c04f2bca94216574b4", "fusion_lat": 0.0, "lon": -77.0457105, "type": "electric_scooter", "fusion_lon": 0.0, "lat": 38.90386816666667}, {"rental_uris": {"android": "https://dc.lft.to/lastmile_qr_scan", "ios": "https://dc.lft.to/lastmile_qr_scan"}, "is_reserved": 0, "is_disabled": 0, "name": "72ca3040643b3e7b4fa86d033122a95d", "bike_id": "72ca3040643b3e7b4fa86d033122a95d", "fusion_lat": 0.0, "lon": -77.02195783333333, "type": "electric_scooter", "fusion_lon": 0.0, "lat": 38.908234666666665}, {"rental_uris": {"android": "https://dc.lft.to/lastmile_qr_scan", "ios": "https://dc.lft.to/lastmile_qr_scan"}, "is_reserved": 0, "is_disabled": 0, "name": "26bbd55e14f449a4d43d47e26b7c2240", "bike_id": "26bbd55e14f449a4d43d47e26b7c2240", "fusion_lat": 0.0, "lon": -77.08792216666667, "type": "electric_scooter", "fusion_lon": 0.0, "lat": 38.935431}, {"rental_uris": {"android": "https://dc.lft.to/lastmile_qr_scan", "ios": "https://dc.lft.to/lastmile_qr_scan"}, "is_reserved": 0, "is_disabled": 0, "name": "f1af6e27547618a5f78d28a94d591b9d", "bike_id": "f1af6e27547618a5f78d28a94d591b9d", "fusion_lat": 0.0, "lon": -76.9615815, "type": "electric_bike", "fusion_lon": 0.0, "lat": 38.856114166666664}, {"rental_uris": {"android": "https://dc.lft.to/lastmile_qr_scan", "ios": "https://dc.lft.to/lastmile_qr_scan"}, "is_reserved": 0, "is_disabled": 0, "name": "8b8cc9508ea84a8a68d8c294cbe902b8", "bike_id": "8b8cc9508ea84a8a68d8c294cbe902b8", "fusion_lat": 0.0, "lon": -77.054023, "type": "electric_scooter", "fusion_lon": 0.0, "lat": 38.923301}, {"rental_uris": {"android": "https://dc.lft.to/lastmile_qr_scan", "ios": "https://dc.lft.to/lastmile_qr_scan"}, "is_reserved": 0, "is_disabled": 0, "name": "e60ac27ff416bc95c67b868e21d5ce63", "bike_id": "e60ac27ff416bc95c67b868e21d5ce63", "fusion_lat": 0.0, "lon": -77.03859933333334, "type": "electric_scooter", "fusion_lon": 0.0, "lat": 38.91967566666667}, {"rental_uris": {"android": "https://dc.lft.to/lastmile_qr_scan", "ios": "https://dc.lft.to/lastmile_qr_scan"}, "is_reserved": 0, "is_disabled": 0, "name": "4b642f5f5ce439fe1a73aefddff23571", "bike_id": "4b642f5f5ce439fe1a73aefddff23571", "fusion_lat": 0.0, "lon": -77.07137816666666, "type": "electric_scooter", "fusion_lon": 0.0, "lat": 38.920203}, {"rental_uris": {"android": "https://dc.lft.to/lastmile_qr_scan", "ios": "https://dc.lft.to/lastmile_qr_scan"}, "is_reserved": 0, "is_disabled": 0, "name": "64e18f5dd2a5f290e70f8dd4c9968c01", "bike_id": "64e18f5dd2a5f290e70f8dd4c9968c01", "fusion_lat": 0.0, "lon": -77.0278575, "type": "electric_scooter", "fusion_lon": 0.0, "lat": 38.96214766666667}, {"rental_uris": {"android": "https://dc.lft.to/lastmile_qr_scan", "ios": "https://dc.lft.to/lastmile_qr_scan"}, "is_reserved": 0, "is_disabled": 0, "name": "5f3a65b4cb86e45c6f0076f784c3dea7", "bike_id": "5f3a65b4cb86e45c6f0076f784c3dea7", "fusion_lat": 0.0, "lon": -77.09005783333333, "type": "electric_bike", "fusion_lon": 0.0, "lat": 38.908998}, {"rental_uris": {"android": "https://dc.lft.to/lastmile_qr_scan", "ios": "https://dc.lft.to/lastmile_qr_scan"}, "is_reserved": 0, "is_disabled": 0, "name": "4383afd810fbda77e15a7772443b4e45", "bike_id": "4383afd810fbda77e15a7772443b4e45", "fusion_lat": 0.0, "lon": -77.039248, "type": "electric_scooter", "fusion_lon": 0.0, "lat": 38.91471883333333}, {"rental_uris": {"android": "https://dc.lft.to/lastmile_qr_scan", "ios": "https://dc.lft.to/lastmile_qr_scan"}, "is_reserved": 0, "is_disabled": 0, "name": "6134f24c05bd7653682a3e6bb71d28e4", "bike_id": "6134f24c05bd7653682a3e6bb71d28e4", "fusion_lat": 0.0, "lon": -76.9375545, "type": "electric_scooter", "fusion_lon": 0.0, "lat": 38.8903265}, {"rental_uris": {"android": "https://dc.lft.to/lastmile_qr_scan", "ios": "https://dc.lft.to/lastmile_qr_scan"}, "is_reserved": 0, "is_disabled": 0, "name": "69a96fe5c079ed6e2e8190a01868958a", "bike_id": "69a96fe5c079ed6e2e8190a01868958a", "fusion_lat": 0.0, "lon": -77.04448133333334, "type": "electric_scooter", "fusion_lon": 0.0, "lat": 38.92228466666667}, {"rental_uris": {"android": "https://dc.lft.to/lastmile_qr_scan", "ios": "https://dc.lft.to/lastmile_qr_scan"}, "is_reserved": 0, "is_disabled": 0, "name": "8d6ce296fe56bb1155902e64a73fbf96", "bike_id": "8d6ce296fe56bb1155902e64a73fbf96", "fusion_lat": 0.0, "lon": -76.99386683333333, "type": "electric_scooter", "fusion_lon": 0.0, "lat": 38.910075666666664}, {"rental_uris": {"android": "https://dc.lft.to/lastmile_qr_scan", "ios": "https://dc.lft.to/lastmile_qr_scan"}, "is_reserved": 0, "is_disabled": 0, "name": "51aa0ef300e9f87b136ddd6eb330a563", "bike_id": "51aa0ef300e9f87b136ddd6eb330a563", "fusion_lat": 0.0, "lon": -77.0319515, "type": "electric_scooter", "fusion_lon": 0.0, "lat": 38.922537}, {"rental_uris": {"android": "https://dc.lft.to/lastmile_qr_scan", "ios": "https://dc.lft.to/lastmile_qr_scan"}, "is_reserved": 0, "is_disabled": 0, "name": "4668c49b3d92d3bff6daecfee40d12c1", "bike_id": "4668c49b3d92d3bff6daecfee40d12c1", "fusion_lat": 0.0, "lon": -77.03171416666666, "type": "electric_scooter", "fusion_lon": 0.0, "lat": 38.892162}, {"rental_uris": {"android": "https://dc.lft.to/lastmile_qr_scan", "ios": "https://dc.lft.to/lastmile_qr_scan"}, "is_reserved": 0, "is_disabled": 0, "name": "c37ddb48705f7c01dc53493189808f48", "bike_id": "c37ddb48705f7c01dc53493189808f48", "fusion_lat": 0.0, "lon": -76.99232483333333, "type": "electric_bike", "fusion_lon": 0.0, "lat": 38.8974235}, {"rental_uris": {"android": "https://dc.lft.to/lastmile_qr_scan", "ios": "https://dc.lft.to/lastmile_qr_scan"}, "is_reserved": 0, "is_disabled": 0, "name": "7ac43061bf5140af889a0c301437ce9a", "bike_id": "7ac43061bf5140af889a0c301437ce9a", "fusion_lat": 0.0, "lon": -77.04867583333333, "type": "electric_scooter", "fusion_lon": 0.0, "lat": 38.9039975}, {"rental_uris": {"android": "https://dc.lft.to/lastmile_qr_scan", "ios": "https://dc.lft.to/lastmile_qr_scan"}, "is_reserved": 0, "is_disabled": 0, "name": "3e7046e12359f1ea6fbdc34ed08a5373", "bike_id": "3e7046e12359f1ea6fbdc34ed08a5373", "fusion_lat": 0.0, "lon": -77.03024466666666, "type": "electric_scooter", "fusion_lon": 0.0, "lat": 38.895650333333336}, {"rental_uris": {"android": "https://dc.lft.to/lastmile_qr_scan", "ios": "https://dc.lft.to/lastmile_qr_scan"}, "is_reserved": 0, "is_disabled": 0, "name": "50029847db43dfdc3d64ad6a937baa0a", "bike_id": "50029847db43dfdc3d64ad6a937baa0a", "fusion_lat": 0.0, "lon": -77.04682116666666, "type": "electric_scooter", "fusion_lon": 0.0, "lat": 38.8973575}, {"rental_uris": {"android": "https://dc.lft.to/lastmile_qr_scan", "ios": "https://dc.lft.to/lastmile_qr_scan"}, "is_reserved": 0, "is_disabled": 0, "name": "ea97912042acbf74c1ef0cdef4bdd644", "bike_id": "ea97912042acbf74c1ef0cdef4bdd644", "fusion_lat": 0.0, "lon": -77.03435133333333, "type": "electric_scooter", "fusion_lon": 0.0, "lat": 38.919239}, {"rental_uris": {"android": "https://dc.lft.to/lastmile_qr_scan", "ios": "https://dc.lft.to/lastmile_qr_scan"}, "is_reserved": 0, "is_disabled": 0, "name": "05b1c0938824f41af06870fdd55fbed5", "bike_id": "05b1c0938824f41af06870fdd55fbed5", "fusion_lat": 0.0, "lon": -77.0089575, "type": "electric_scooter", "fusion_lon": 0.0, "lat": 38.9247695}, {"rental_uris": {"android": "https://dc.lft.to/lastmile_qr_scan", "ios": "https://dc.lft.to/lastmile_qr_scan"}, "is_reserved": 0, "is_disabled": 0, "name": "90b993a8227caa1fc95fe0e7e4896bc4", "bike_id": "90b993a8227caa1fc95fe0e7e4896bc4", "fusion_lat": 0.0, "lon": -77.0260095, "type": "electric_scooter", "fusion_lon": 0.0, "lat": 38.903285}, {"rental_uris": {"android": "https://dc.lft.to/lastmile_qr_scan", "ios": "https://dc.lft.to/lastmile_qr_scan"}, "is_reserved": 0, "is_disabled": 0, "name": "b6bce593ee97df9ab3d2aabd69892ff2", "bike_id": "b6bce593ee97df9ab3d2aabd69892ff2", "fusion_lat": 0.0, "lon": -77.046447, "type": "electric_scooter", "fusion_lon": 0.0, "lat": 38.906323666666665}, {"rental_uris": {"android": "https://dc.lft.to/lastmile_qr_scan", "ios": "https://dc.lft.to/lastmile_qr_scan"}, "is_reserved": 0, "is_disabled": 0, "name": "7fc8f9208e5e1b3fb58334fcc997baaa", "bike_id": "7fc8f9208e5e1b3fb58334fcc997baaa", "fusion_lat": 0.0, "lon": -77.0348115, "type": "electric_scooter", "fusion_lon": 0.0, "lat": 38.92886433333334}, {"rental_uris": {"android": "https://dc.lft.to/lastmile_qr_scan", "ios": "https://dc.lft.to/lastmile_qr_scan"}, "is_reserved": 0, "is_disabled": 0, "name": "d6997c34ca063df41a630173dbbd3a37", "bike_id": "d6997c34ca063df41a630173dbbd3a37", "fusion_lat": 0.0, "lon": -77.02978333333333, "type": "electric_scooter", "fusion_lon": 0.0, "lat": 38.9187965}, {"rental_uris": {"android": "https://dc.lft.to/lastmile_qr_scan", "ios": "https://dc.lft.to/lastmile_qr_scan"}, "is_reserved": 0, "is_disabled": 0, "name": "ea7cc61497c2927a6d4e278b44bcc93d", "bike_id": "ea7cc61497c2927a6d4e278b44bcc93d", "fusion_lat": 0.0, "lon": -76.9545685, "type": "electric_scooter", "fusion_lon": 0.0, "lat": 38.883904}, {"rental_uris": {"android": "https://dc.lft.to/lastmile_qr_scan", "ios": "https://dc.lft.to/lastmile_qr_scan"}, "is_reserved": 0, "is_disabled": 0, "name": "b014f2f3073308697d3a6a5e54ed0d82", "bike_id": "b014f2f3073308697d3a6a5e54ed0d82", "fusion_lat": 0.0, "lon": -77.0312265, "type": "electric_scooter", "fusion_lon": 0.0, "lat": 38.903799166666666}, {"rental_uris": {"android": "https://dc.lft.to/lastmile_qr_scan", "ios": "https://dc.lft.to/lastmile_qr_scan"}, "is_reserved": 0, "is_disabled": 0, "name": "e3964978e6de5528fcd0b6a4a3b1fd74", "bike_id": "e3964978e6de5528fcd0b6a4a3b1fd74", "fusion_lat": 0.0, "lon": -76.9870485, "type": "electric_scooter", "fusion_lon": 0.0, "lat": 38.85961116666667}, {"rental_uris": {"android": "https://dc.lft.to/lastmile_qr_scan", "ios": "https://dc.lft.to/lastmile_qr_scan"}, "is_reserved": 0, "is_disabled": 0, "name": "9461bb02e386f5d54078348681679130", "bike_id": "9461bb02e386f5d54078348681679130", "fusion_lat": 0.0, "lon": -77.003417, "type": "electric_scooter", "fusion_lon": 0.0, "lat": 38.8766585}, {"rental_uris": {"android": "https://dc.lft.to/lastmile_qr_scan", "ios": "https://dc.lft.to/lastmile_qr_scan"}, "is_reserved": 0, "is_disabled": 0, "name": "d4a43024115198547ccda4e650ede209", "bike_id": "d4a43024115198547ccda4e650ede209", "fusion_lat": 0.0, "lon": -77.0340135, "type": "electric_bike", "fusion_lon": 0.0, "lat": 38.900761333333335}, {"rental_uris": {"android": "https://dc.lft.to/lastmile_qr_scan", "ios": "https://dc.lft.to/lastmile_qr_scan"}, "is_reserved": 0, "is_disabled": 0, "name": "92dc37eae78d2756c867f8a01c98e0f6", "bike_id": "92dc37eae78d2756c867f8a01c98e0f6", "fusion_lat": 0.0, "lon": -77.02133566666667, "type": "electric_scooter", "fusion_lon": 0.0, "lat": 38.922740833333336}, {"rental_uris": {"android": "https://dc.lft.to/lastmile_qr_scan", "ios": "https://dc.lft.to/lastmile_qr_scan"}, "is_reserved": 0, "is_disabled": 0, "name": "bcf8705fde4cf38ba38b4e934b4e6022", "bike_id": "bcf8705fde4cf38ba38b4e934b4e6022", "fusion_lat": 0.0, "lon": -77.04032633333334, "type": "electric_scooter", "fusion_lon": 0.0, "lat": 38.89837133333333}, {"rental_uris": {"android": "https://dc.lft.to/lastmile_qr_scan", "ios": "https://dc.lft.to/lastmile_qr_scan"}, "is_reserved": 0, "is_disabled": 0, "name": "e7d37851bc16b1f70b8f22d81387756f", "bike_id": "e7d37851bc16b1f70b8f22d81387756f", "fusion_lat": 0.0, "lon": -77.00661683333334, "type": "electric_scooter", "fusion_lon": 0.0, "lat": 38.89998583333333}, {"rental_uris": {"android": "https://dc.lft.to/lastmile_qr_scan", "ios": "https://dc.lft.to/lastmile_qr_scan"}, "is_reserved": 0, "is_disabled": 0, "name": "e7c4b2024d490ca57e124cbbdaaac3e2", "bike_id": "e7c4b2024d490ca57e124cbbdaaac3e2", "fusion_lat": 0.0, "lon": -77.03991083333334, "type": "electric_scooter", "fusion_lon": 0.0, "lat": 38.93421133333333}, {"rental_uris": {"android": "https://dc.lft.to/lastmile_qr_scan", "ios": "https://dc.lft.to/lastmile_qr_scan"}, "is_reserved": 0, "is_disabled": 0, "name": "b11e4865ba3041ae29a0959c90aa0d1f", "bike_id": "b11e4865ba3041ae29a0959c90aa0d1f", "fusion_lat": 0.0, "lon": -77.030389, "type": "electric_scooter", "fusion_lon": 0.0, "lat": 38.950804}, {"rental_uris": {"android": "https://dc.lft.to/lastmile_qr_scan", "ios": "https://dc.lft.to/lastmile_qr_scan"}, "is_reserved": 0, "is_disabled": 0, "name": "5dcef068aebf982c0967b9eb520b4c2f", "bike_id": "5dcef068aebf982c0967b9eb520b4c2f", "fusion_lat": 0.0, "lon": -77.00603466666666, "type": "electric_scooter", "fusion_lon": 0.0, "lat": 38.87179283333333}, {"rental_uris": {"android": "https://dc.lft.to/lastmile_qr_scan", "ios": "https://dc.lft.to/lastmile_qr_scan"}, "is_reserved": 0, "is_disabled": 0, "name": "5eb56f10ccf52f79a0a45cdf98c80fa7", "bike_id": "5eb56f10ccf52f79a0a45cdf98c80fa7", "fusion_lat": 0.0, "lon": -76.99545816666667, "type": "electric_bike", "fusion_lon": 0.0, "lat": 38.956321833333334}, {"rental_uris": {"android": "https://dc.lft.to/lastmile_qr_scan", "ios": "https://dc.lft.to/lastmile_qr_scan"}, "is_reserved": 0, "is_disabled": 0, "name": "51062566691c8c5ec5cac3696668f2f9", "bike_id": "51062566691c8c5ec5cac3696668f2f9", "fusion_lat": 0.0, "lon": -77.0264785, "type": "electric_scooter", "fusion_lon": 0.0, "lat": 38.91098866666667}, {"rental_uris": {"android": "https://dc.lft.to/lastmile_qr_scan", "ios": "https://dc.lft.to/lastmile_qr_scan"}, "is_reserved": 0, "is_disabled": 0, "name": "2343866bd467e3ced69a841652aa51b9", "bike_id": "2343866bd467e3ced69a841652aa51b9", "fusion_lat": 0.0, "lon": -76.96712716666667, "type": "electric_scooter", "fusion_lon": 0.0, "lat": 38.859724}, {"rental_uris": {"android": "https://dc.lft.to/lastmile_qr_scan", "ios": "https://dc.lft.to/lastmile_qr_scan"}, "is_reserved": 0, "is_disabled": 0, "name": "088d196b7ff37c225926459c7f7f124d", "bike_id": "088d196b7ff37c225926459c7f7f124d", "fusion_lat": 0.0, "lon": -76.965484, "type": "electric_scooter", "fusion_lon": 0.0, "lat": 38.91850083333333}, {"rental_uris": {"android": "https://dc.lft.to/lastmile_qr_scan", "ios": "https://dc.lft.to/lastmile_qr_scan"}, "is_reserved": 0, "is_disabled": 0, "name": "948b7efc5e81398bae6715eef3e7309c", "bike_id": "948b7efc5e81398bae6715eef3e7309c", "fusion_lat": 0.0, "lon": -77.00326233333334, "type": "electric_scooter", "fusion_lon": 0.0, "lat": 38.876585}, {"rental_uris": {"android": "https://dc.lft.to/lastmile_qr_scan", "ios": "https://dc.lft.to/lastmile_qr_scan"}, "is_reserved": 0, "is_disabled": 0, "name": "190b196ecfae9439cda29d59cc801e0e", "bike_id": "190b196ecfae9439cda29d59cc801e0e", "fusion_lat": 0.0, "lon": -77.02189366666667, "type": "electric_scooter", "fusion_lon": 0.0, "lat": 38.88711816666667}, {"rental_uris": {"android": "https://dc.lft.to/lastmile_qr_scan", "ios": "https://dc.lft.to/lastmile_qr_scan"}, "is_reserved": 0, "is_disabled": 0, "name": "e15ec7aa1256ebab0d011f522ee5257e", "bike_id": "e15ec7aa1256ebab0d011f522ee5257e", "fusion_lat": 0.0, "lon": -77.03217733333334, "type": "electric_scooter", "fusion_lon": 0.0, "lat": 38.89722966666667}, {"rental_uris": {"android": "https://dc.lft.to/lastmile_qr_scan", "ios": "https://dc.lft.to/lastmile_qr_scan"}, "is_reserved": 0, "is_disabled": 0, "name": "0e2b6e29c82cd4eda64a4358450f022b", "bike_id": "0e2b6e29c82cd4eda64a4358450f022b", "fusion_lat": 0.0, "lon": -77.017273, "type": "electric_scooter", "fusion_lon": 0.0, "lat": 38.975147}, {"rental_uris": {"android": "https://dc.lft.to/lastmile_qr_scan", "ios": "https://dc.lft.to/lastmile_qr_scan"}, "is_reserved": 0, "is_disabled": 0, "name": "e4cc665d27aa8fe97420a5063a69c4a4", "bike_id": "e4cc665d27aa8fe97420a5063a69c4a4", "fusion_lat": 0.0, "lon": -77.02774466666666, "type": "electric_scooter", "fusion_lon": 0.0, "lat": 38.9341325}, {"rental_uris": {"android": "https://dc.lft.to/lastmile_qr_scan", "ios": "https://dc.lft.to/lastmile_qr_scan"}, "is_reserved": 0, "is_disabled": 0, "name": "26ade05be98e9ad1af95c6bdaf8889f8", "bike_id": "26ade05be98e9ad1af95c6bdaf8889f8", "fusion_lat": 0.0, "lon": -77.03499216666667, "type": "electric_scooter", "fusion_lon": 0.0, "lat": 38.90569766666667}, {"rental_uris": {"android": "https://dc.lft.to/lastmile_qr_scan", "ios": "https://dc.lft.to/lastmile_qr_scan"}, "is_reserved": 0, "is_disabled": 0, "name": "136c9633a71badfcf1e7fb562e22d11c", "bike_id": "136c9633a71badfcf1e7fb562e22d11c", "fusion_lat": 0.0, "lon": -77.02592116666666, "type": "electric_scooter", "fusion_lon": 0.0, "lat": 38.920357333333335}, {"rental_uris": {"android": "https://dc.lft.to/lastmile_qr_scan", "ios": "https://dc.lft.to/lastmile_qr_scan"}, "is_reserved": 0, "is_disabled": 0, "name": "681e1d26d79057243ac09c6545794a30", "bike_id": "681e1d26d79057243ac09c6545794a30", "fusion_lat": 0.0, "lon": -77.0218175, "type": "electric_scooter", "fusion_lon": 0.0, "lat": 38.88306716666666}, {"rental_uris": {"android": "https://dc.lft.to/lastmile_qr_scan", "ios": "https://dc.lft.to/lastmile_qr_scan"}, "is_reserved": 0, "is_disabled": 0, "name": "14d03d5e1eed4514770a026e410234c8", "bike_id": "14d03d5e1eed4514770a026e410234c8", "fusion_lat": 0.0, "lon": -77.00222583333333, "type": "electric_bike", "fusion_lon": 0.0, "lat": 38.905537833333334}, {"rental_uris": {"android": "https://dc.lft.to/lastmile_qr_scan", "ios": "https://dc.lft.to/lastmile_qr_scan"}, "is_reserved": 0, "is_disabled": 0, "name": "df268bb9bb5edce819ac890461c5ca50", "bike_id": "df268bb9bb5edce819ac890461c5ca50", "fusion_lat": 0.0, "lon": -77.02394166666667, "type": "electric_scooter", "fusion_lon": 0.0, "lat": 38.89823116666667}, {"rental_uris": {"android": "https://dc.lft.to/lastmile_qr_scan", "ios": "https://dc.lft.to/lastmile_qr_scan"},