{"data": {"bikes": [{"bike_id": "a70c590bb766afc924e0a1e29201b023", "type": "electric_scooter", "is_disabled": 0, "lat": 38.918034, "rental_uris": {"ios": "https://dc.lft.to/lastmile_qr_scan", "android": "https://dc.lft.to/lastmile_qr_scan"}, "is_reserved": 0, "fusion_lon": 0.0, "fusion_lat": 0.0, "lon": -77.03441933333333, "name": "a70c590bb766afc924e0a1e29201b023"}, {"bike_id": "d5eb7ac3f6e519e93f4a7bd97c274f5f", "type": "electric_scooter", "is_disabled": 0, "lat": 38.90390416666666, "rental_uris": {"ios": "https://dc.lft.to/lastmile_qr_scan", "android": "https://dc.lft.to/lastmile_qr_scan"}, "is_reserved": 0, "fusion_lon": 0.0, "fusion_lat": 0.0, "lon": -77.0087515, "name": "d5eb7ac3f6e519e93f4a7bd97c274f5f"}, {"bike_id": "4efd731057d129f7d0549741fa9efee9", "type": "electric_scooter", "is_disabled": 0, "lat": 38.914223666666665, "rental_uris": {"ios": "https://dc.lft.to/lastmile_qr_scan", "android": "https://dc.lft.to/lastmile_qr_scan"}, "is_reserved": 0, "fusion_lon": 0.0, "fusion_lat": 0.0, "lon": -77.03248533333333, "name": "4efd731057d129f7d0549741fa9efee9"}, {"bike_id": "ca76d1f7db655a4656b1c2096a7b9449", "type": "electric_scooter", "is_disabled": 0, "lat": 38.919036, "rental_uris": {"ios": "https://dc.lft.to/lastmile_qr_scan", "android": "https://dc.lft.to/lastmile_qr_scan"}, "is_reserved": 0, "fusion_lon": 0.0, "fusion_lat": 0.0, "lon": -77.04449216666667, "name": "ca76d1f7db655a4656b1c2096a7b9449"}, {"bike_id": "9141c4197d471681c647fb16758220e8", "type": "electric_scooter", "is_disabled": 0, "lat": 38.8809735, "rental_uris": {"ios": "https://dc.lft.to/lastmile_qr_scan", "android": "https://dc.lft.to/lastmile_qr_scan"}, "is_reserved": 0, "fusion_lon": 0.0, "fusion_lat": 0.0, "lon": -77.0177365, "name": "9141c4197d471681c647fb16758220e8"}, {"bike_id": "0797a779423aa66cad6cd8ffa0fc8207", "type": "electric_scooter", "is_disabled": 0, "lat": 38.923859, "rental_uris": {"ios": "https://dc.lft.to/lastmile_qr_scan", "android": "https://dc.lft.to/lastmile_qr_scan"}, "is_reserved": 0, "fusion_lon": 0.0, "fusion_lat": 0.0, "lon": -77.03651, "name": "0797a779423aa66cad6cd8ffa0fc8207"}, {"bike_id": "834ccbc4bd92b941f5cce3d424c0717e", "type": "electric_scooter", "is_disabled": 0, "lat": 38.92332116666667, "rental_uris": {"ios": "https://dc.lft.to/lastmile_qr_scan", "android": "https://dc.lft.to/lastmile_qr_scan"}, "is_reserved": 0, "fusion_lon": 0.0, "fusion_lat": 0.0, "lon": -77.03617883333334, "name": "834ccbc4bd92b941f5cce3d424c0717e"}, {"bike_id": "5579b9d51d8746aba320b5a22f9e0735", "type": "electric_scooter", "is_disabled": 0, "lat": 38.921853166666665, "rental_uris": {"ios": "https://dc.lft.to/lastmile_qr_scan", "android": "https://dc.lft.to/lastmile_qr_scan"}, "is_reserved": 0, "fusion_lon": 0.0, "fusion_lat": 0.0, "lon": -77.02100116666666, "name": "5579b9d51d8746aba320b5a22f9e0735"}, {"bike_id": "600c4a44d282b010cf51eedfa556aa36", "type": "electric_scooter", "is_disabled": 0, "lat": 38.907213666666664, "rental_uris": {"ios": "https://dc.lft.to/lastmile_qr_scan", "android": "https://dc.lft.to/lastmile_qr_scan"}, "is_reserved": 0, "fusion_lon": 0.0, "fusion_lat": 0.0, "lon": -77.03201916666667, "name": "600c4a44d282b010cf51eedfa556aa36"}, {"bike_id": "09af1759280013cbe97f50f5a2033a65", "type": "electric_scooter", "is_disabled": 0, "lat": 38.922199, "rental_uris": {"ios": "https://dc.lft.to/lastmile_qr_scan", "android": "https://dc.lft.to/lastmile_qr_scan"}, "is_reserved": 0, "fusion_lon": 0.0, "fusion_lat": 0.0, "lon": -77.026651, "name": "09af1759280013cbe97f50f5a2033a65"}, {"bike_id": "0747c582ce8a74e025a870c55c5ed7e6", "type": "electric_scooter", "is_disabled": 0, "lat": 38.9093585, "rental_uris": {"ios": "https://dc.lft.to/lastmile_qr_scan", "android": "https://dc.lft.to/lastmile_qr_scan"}, "is_reserved": 0, "fusion_lon": 0.0, "fusion_lat": 0.0, "lon": -77.0492765, "name": "0747c582ce8a74e025a870c55c5ed7e6"}, {"bike_id": "e1b864ee5f107b25b1003b346f288015", "type": "electric_scooter", "is_disabled": 0, "lat": 38.9113515, "rental_uris": {"ios": "https://dc.lft.to/lastmile_qr_scan", "android": "https://dc.lft.to/lastmile_qr_scan"}, "is_reserved": 0, "fusion_lon": 0.0, "fusion_lat": 0.0, "lon": -77.02196733333334, "name": "e1b864ee5f107b25b1003b346f288015"}, {"bike_id": "a3d27cb9a2ffe81833759e8298297cf2", "type": "electric_scooter", "is_disabled": 0, "lat": 38.90563733333333, "rental_uris": {"ios": "https://dc.lft.to/lastmile_qr_scan", "android": "https://dc.lft.to/lastmile_qr_scan"}, "is_reserved": 0, "fusion_lon": 0.0, "fusion_lat": 0.0, "lon": -77.05141083333334, "name": "a3d27cb9a2ffe81833759e8298297cf2"}, {"bike_id": "ce7ec7c88f8289a31b32ce08046f90c3", "type": "electric_scooter", "is_disabled": 0, "lat": 38.915463, "rental_uris": {"ios": "https://dc.lft.to/lastmile_qr_scan", "android": "https://dc.lft.to/lastmile_qr_scan"}, "is_reserved": 0, "fusion_lon": 0.0, "fusion_lat": 0.0, "lon": -77.01220483333333, "name": "ce7ec7c88f8289a31b32ce08046f90c3"}, {"bike_id": "b9884e724f2ea9a2633384140a252f99", "type": "electric_scooter", "is_disabled": 0, "lat": 38.92158416666667, "rental_uris": {"ios": "https://dc.lft.to/lastmile_qr_scan", "android": "https://dc.lft.to/lastmile_qr_scan"}, "is_reserved": 0, "fusion_lon": 0.0, "fusion_lat": 0.0, "lon": -77.04014666666667, "name": "b9884e724f2ea9a2633384140a252f99"}, {"bike_id": "5de1575572899487be61d995449228a7", "type": "electric_scooter", "is_disabled": 0, "lat": 38.8851335, "rental_uris": {"ios": "https://dc.lft.to/lastmile_qr_scan", "android": "https://dc.lft.to/lastmile_qr_scan"}, "is_reserved": 0, "fusion_lon": 0.0, "fusion_lat": 0.0, "lon": -77.025273, "name": "5de1575572899487be61d995449228a7"}, {"bike_id": "4763984dd6dd652430024dec5bfe4675", "type": "electric_bike", "is_disabled": 0, "lat": 38.974595, "rental_uris": {"ios": "https://dc.lft.to/lastmile_qr_scan", "android": "https://dc.lft.to/lastmile_qr_scan"}, "is_reserved": 0, "fusion_lon": 0.0, "fusion_lat": 0.0, "lon": -77.01215316666666, "name": "4763984dd6dd652430024dec5bfe4675"}, {"bike_id": "f333146fa410dd63fa00b30cbf85e464", "type": "electric_scooter", "is_disabled": 0, "lat": 38.90304833333333, "rental_uris": {"ios": "https://dc.lft.to/lastmile_qr_scan", "android": "https://dc.lft.to/lastmile_qr_scan"}, "is_reserved": 0, "fusion_lon": 0.0, "fusion_lat": 0.0, "lon": -77.04951833333334, "name": "f333146fa410dd63fa00b30cbf85e464"}, {"bike_id": "a9e9cb61434f71f17a1fc446f65aed0e", "type": "electric_scooter", "is_disabled": 0, "lat": 38.93600816666667, "rental_uris": {"ios": "https://dc.lft.to/lastmile_qr_scan", "android": "https://dc.lft.to/lastmile_qr_scan"}, "is_reserved": 0, "fusion_lon": 0.0, "fusion_lat": 0.0, "lon": -77.03658616666667, "name": "a9e9cb61434f71f17a1fc446f65aed0e"}, {"bike_id": "45f68ffa26169bc0a1e63b301573af73", "type": "electric_scooter", "is_disabled": 0, "lat": 38.902306333333335, "rental_uris": {"ios": "https://dc.lft.to/lastmile_qr_scan", "android": "https://dc.lft.to/lastmile_qr_scan"}, "is_reserved": 0, "fusion_lon": 0.0, "fusion_lat": 0.0, "lon": -77.0404035, "name": "45f68ffa26169bc0a1e63b301573af73"}, {"bike_id": "86d6658f80c8b62372fa070402f918d7", "type": "electric_scooter", "is_disabled": 0, "lat": 38.915974, "rental_uris": {"ios": "https://dc.lft.to/lastmile_qr_scan", "android": "https://dc.lft.to/lastmile_qr_scan"}, "is_reserved": 0, "fusion_lon": 0.0, "fusion_lat": 0.0, "lon": -77.03192133333333, "name": "86d6658f80c8b62372fa070402f918d7"}, {"bike_id": "b931397d74f7552091225783ceda87a0", "type": "electric_scooter", "is_disabled": 0, "lat": 38.91407016666667, "rental_uris": {"ios": "https://dc.lft.to/lastmile_qr_scan", "android": "https://dc.lft.to/lastmile_qr_scan"}, "is_reserved": 0, "fusion_lon": 0.0, "fusion_lat": 0.0, "lon": -76.981883, "name": "b931397d74f7552091225783ceda87a0"}, {"bike_id": "e2358199712c719d5da892582cbf7cac", "type": "electric_scooter", "is_disabled": 0, "lat": 38.919283, "rental_uris": {"ios": "https://dc.lft.to/lastmile_qr_scan", "android": "https://dc.lft.to/lastmile_qr_scan"}, "is_reserved": 0, "fusion_lon": 0.0, "fusion_lat": 0.0, "lon": -77.031896, "name": "e2358199712c719d5da892582cbf7cac"}, {"bike_id": "8749fa22e8486a2f4ca727a9d340f50d", "type": "electric_scooter", "is_disabled": 0, "lat": 38.92208433333333, "rental_uris": {"ios": "https://dc.lft.to/lastmile_qr_scan", "android": "https://dc.lft.to/lastmile_qr_scan"}, "is_reserved": 0, "fusion_lon": 0.0, "fusion_lat": 0.0, "lon": -77.03657383333334, "name": "8749fa22e8486a2f4ca727a9d340f50d"}, {"bike_id": "618c0ac02ed03f28bfe4f204a494ec33", "type": "electric_scooter", "is_disabled": 0, "lat": 38.9335525, "rental_uris": {"ios": "https://dc.lft.to/lastmile_qr_scan", "android": "https://dc.lft.to/lastmile_qr_scan"}, "is_reserved": 0, "fusion_lon": 0.0, "fusion_lat": 0.0, "lon": -77.07356616666667, "name": "618c0ac02ed03f28bfe4f204a494ec33"}, {"bike_id": "11377d3e96382a18df0fe7d6fff42f94", "type": "electric_bike", "is_disabled": 0, "lat": 38.9932715, "rental_uris": {"ios": "https://dc.lft.to/lastmile_qr_scan", "android": "https://dc.lft.to/lastmile_qr_scan"}, "is_reserved": 0, "fusion_lon": 0.0, "fusion_lat": 0.0, "lon": -76.94613133333333, "name": "11377d3e96382a18df0fe7d6fff42f94"}, {"bike_id": "fc343abd2f2b7e7ac1f330c59f94f5c2", "type": "electric_bike", "is_disabled": 0, "lat": 38.855382, "rental_uris": {"ios": "https://dc.lft.to/lastmile_qr_scan", "android": "https://dc.lft.to/lastmile_qr_scan"}, "is_reserved": 0, "fusion_lon": 0.0, "fusion_lat": 0.0, "lon": -77.11999466666667, "name": "fc343abd2f2b7e7ac1f330c59f94f5c2"}, {"bike_id": "9401c28555f03f61c4772c3275ae20d1", "type": "electric_scooter", "is_disabled": 0, "lat": 38.90747116666667, "rental_uris": {"ios": "https://dc.lft.to/lastmile_qr_scan", "android": "https://dc.lft.to/lastmile_qr_scan"}, "is_reserved": 0, "fusion_lon": 0.0, "fusion_lat": 0.0, "lon": -77.0023015, "name": "9401c28555f03f61c4772c3275ae20d1"}, {"bike_id": "2dd777b1736062ae5d0bfcc4f507c192", "type": "electric_bike", "is_disabled": 0, "lat": 38.98370633333333, "rental_uris": {"ios": "https://dc.lft.to/lastmile_qr_scan", "android": "https://dc.lft.to/lastmile_qr_scan"}, "is_reserved": 0, "fusion_lon": 0.0, "fusion_lat": 0.0, "lon": -76.97206866666667, "name": "2dd777b1736062ae5d0bfcc4f507c192"}, {"bike_id": "b201ac75cc7385227589fa271ed49063", "type": "electric_scooter", "is_disabled": 0, "lat": 38.9274435, "rental_uris": {"ios": "https://dc.lft.to/lastmile_qr_scan", "android": "https://dc.lft.to/lastmile_qr_scan"}, "is_reserved": 0, "fusion_lon": 0.0, "fusion_lat": 0.0, "lon": -77.02538366666667, "name": "b201ac75cc7385227589fa271ed49063"}, {"bike_id": "9c2aa1b1199ae2beb2b25d6e919223c1", "type": "electric_scooter", "is_disabled": 0, "lat": 38.86646533333333, "rental_uris": {"ios": "https://dc.lft.to/lastmile_qr_scan", "android": "https://dc.lft.to/lastmile_qr_scan"}, "is_reserved": 0, "fusion_lon": 0.0, "fusion_lat": 0.0, "lon": -76.988143, "name": "9c2aa1b1199ae2beb2b25d6e919223c1"}, {"bike_id": "9865c535c79eda313d1ab21adb25eddd", "type": "electric_scooter", "is_disabled": 0, "lat": 38.86686666666667, "rental_uris": {"ios": "https://dc.lft.to/lastmile_qr_scan", "android": "https://dc.lft.to/lastmile_qr_scan"}, "is_reserved": 0, "fusion_lon": 0.0, "fusion_lat": 0.0, "lon": -76.98574916666666, "name": "9865c535c79eda313d1ab21adb25eddd"}, {"bike_id": "a2bc6444cb82b8ab099939e1bba0342c", "type": "electric_bike", "is_disabled": 0, "lat": 38.93774166666667, "rental_uris": {"ios": "https://dc.lft.to/lastmile_qr_scan", "android": "https://dc.lft.to/lastmile_qr_scan"}, "is_reserved": 0, "fusion_lon": 0.0, "fusion_lat": 0.0, "lon": -77.018807, "name": "a2bc6444cb82b8ab099939e1bba0342c"}, {"bike_id": "6245dbe8f476267eef3598de16d80c3f", "type": "electric_scooter", "is_disabled": 0, "lat": 38.89728516666667, "rental_uris": {"ios": "https://dc.lft.to/lastmile_qr_scan", "android": "https://dc.lft.to/lastmile_qr_scan"}, "is_reserved": 0, "fusion_lon": 0.0, "fusion_lat": 0.0, "lon": -77.04601133333334, "name": "6245dbe8f476267eef3598de16d80c3f"}, {"bike_id": "ef03e7dc4178795c3ff255d353649653", "type": "electric_scooter", "is_disabled": 0, "lat": 38.944217333333334, "rental_uris": {"ios": "https://dc.lft.to/lastmile_qr_scan", "android": "https://dc.lft.to/lastmile_qr_scan"}, "is_reserved": 0, "fusion_lon": 0.0, "fusion_lat": 0.0, "lon": -77.01778033333333, "name": "ef03e7dc4178795c3ff255d353649653"}, {"bike_id": "4c9b3a52424c7c18607c081b1f03f180", "type": "electric_scooter", "is_disabled": 0, "lat": 38.934582166666665, "rental_uris": {"ios": "https://dc.lft.to/lastmile_qr_scan", "android": "https://dc.lft.to/lastmile_qr_scan"}, "is_reserved": 0, "fusion_lon": 0.0, "fusion_lat": 0.0, "lon": -77.02770733333334, "name": "4c9b3a52424c7c18607c081b1f03f180"}, {"bike_id": "771434d85dcd9c628f08589bf8f6bf67", "type": "electric_scooter", "is_disabled": 0, "lat": 38.83096033333333, "rental_uris": {"ios": "https://dc.lft.to/lastmile_qr_scan", "android": "https://dc.lft.to/lastmile_qr_scan"}, "is_reserved": 0, "fusion_lon": 0.0, "fusion_lat": 0.0, "lon": -77.0516105, "name": "771434d85dcd9c628f08589bf8f6bf67"}, {"bike_id": "5f41a4de6821ce7e2349f437d2e9f870", "type": "electric_scooter", "is_disabled": 0, "lat": 38.924694333333335, "rental_uris": {"ios": "https://dc.lft.to/lastmile_qr_scan", "android": "https://dc.lft.to/lastmile_qr_scan"}, "is_reserved": 0, "fusion_lon": 0.0, "fusion_lat": 0.0, "lon": -77.05201983333333, "name": "5f41a4de6821ce7e2349f437d2e9f870"}, {"bike_id": "bd469ae4b22dbd3edbf59f5e75ee78e8", "type": "electric_scooter", "is_disabled": 0, "lat": 38.90087166666667, "rental_uris": {"ios": "https://dc.lft.to/lastmile_qr_scan", "android": "https://dc.lft.to/lastmile_qr_scan"}, "is_reserved": 0, "fusion_lon": 0.0, "fusion_lat": 0.0, "lon": -76.98336633333334, "name": "bd469ae4b22dbd3edbf59f5e75ee78e8"}, {"bike_id": "f16365f422ddc4e28124b88450276ab6", "type": "electric_scooter", "is_disabled": 0, "lat": 38.90269283333333, "rental_uris": {"ios": "https://dc.lft.to/lastmile_qr_scan", "android": "https://dc.lft.to/lastmile_qr_scan"}, "is_reserved": 0, "fusion_lon": 0.0, "fusion_lat": 0.0, "lon": -77.03374433333333, "name": "f16365f422ddc4e28124b88450276ab6"}, {"bike_id": "c81332e908a7f743e7badac3ddd4c08d", "type": "electric_scooter", "is_disabled": 0, "lat": 38.9140445, "rental_uris": {"ios": "https://dc.lft.to/lastmile_qr_scan", "android": "https://dc.lft.to/lastmile_qr_scan"}, "is_reserved": 0, "fusion_lon": 0.0, "fusion_lat": 0.0, "lon": -77.0322355, "name": "c81332e908a7f743e7badac3ddd4c08d"}, {"bike_id": "350207050fb3bee074fdd54428afbcc2", "type": "electric_scooter", "is_disabled": 0, "lat": 38.918096, "rental_uris": {"ios": "https://dc.lft.to/lastmile_qr_scan", "android": "https://dc.lft.to/lastmile_qr_scan"}, "is_reserved": 0, "fusion_lon": 0.0, "fusion_lat": 0.0, "lon": -77.02706316666666, "name": "350207050fb3bee074fdd54428afbcc2"}, {"bike_id": "4e68a06e726d68d0fc84fde61ddc8d54", "type": "electric_scooter", "is_disabled": 0, "lat": 38.90029916666667, "rental_uris": {"ios": "https://dc.lft.to/lastmile_qr_scan", "android": "https://dc.lft.to/lastmile_qr_scan"}, "is_reserved": 0, "fusion_lon": 0.0, "fusion_lat": 0.0, "lon": -77.03657633333333, "name": "4e68a06e726d68d0fc84fde61ddc8d54"}, {"bike_id": "79e3c4e7bfe0a55d7a0d0890df33e3bd", "type": "electric_scooter", "is_disabled": 0, "lat": 38.909752, "rental_uris": {"ios": "https://dc.lft.to/lastmile_qr_scan", "android": "https://dc.lft.to/lastmile_qr_scan"}, "is_reserved": 0, "fusion_lon": 0.0, "fusion_lat": 0.0, "lon": -77.03434616666667, "name": "79e3c4e7bfe0a55d7a0d0890df33e3bd"}, {"bike_id": "218c12ca34f95f2f96a6492c47ee10c2", "type": "electric_scooter", "is_disabled": 0, "lat": 38.8738845, "rental_uris": {"ios": "https://dc.lft.to/lastmile_qr_scan", "android": "https://dc.lft.to/lastmile_qr_scan"}, "is_reserved": 0, "fusion_lon": 0.0, "fusion_lat": 0.0, "lon": -77.04353583333334, "name": "218c12ca34f95f2f96a6492c47ee10c2"}, {"bike_id": "ca7fe2c6b0468604353866ac1542a08a", "type": "electric_scooter", "is_disabled": 0, "lat": 38.93672516666667, "rental_uris": {"ios": "https://dc.lft.to/lastmile_qr_scan", "android": "https://dc.lft.to/lastmile_qr_scan"}, "is_reserved": 0, "fusion_lon": 0.0, "fusion_lat": 0.0, "lon": -77.02461283333334, "name": "ca7fe2c6b0468604353866ac1542a08a"}, {"bike_id": "7dab34a7a6319a3326e8285f4a75a395", "type": "electric_scooter", "is_disabled": 0, "lat": 38.916782166666664, "rental_uris": {"ios": "https://dc.lft.to/lastmile_qr_scan", "android": "https://dc.lft.to/lastmile_qr_scan"}, "is_reserved": 0, "fusion_lon": 0.0, "fusion_lat": 0.0, "lon": -77.04683533333333, "name": "7dab34a7a6319a3326e8285f4a75a395"}, {"bike_id": "59892396229336d018d610558862d8e5", "type": "electric_scooter", "is_disabled": 0, "lat": 38.893386, "rental_uris": {"ios": "https://dc.lft.to/lastmile_qr_scan", "android": "https://dc.lft.to/lastmile_qr_scan"}, "is_reserved": 0, "fusion_lon": 0.0, "fusion_lat": 0.0, "lon": -76.95058233333333, "name": "59892396229336d018d610558862d8e5"}, {"bike_id": "aedc813a936d0be738633ccfa1ba5211", "type": "electric_scooter", "is_disabled": 0, "lat": 38.93517766666667, "rental_uris": {"ios": "https://dc.lft.to/lastmile_qr_scan", "android": "https://dc.lft.to/lastmile_qr_scan"}, "is_reserved": 0, "fusion_lon": 0.0, "fusion_lat": 0.0, "lon": -77.03348166666666, "name": "aedc813a936d0be738633ccfa1ba5211"}, {"bike_id": "6bc3a62aec8a07d5d63f73b47af9a218", "type": "electric_scooter", "is_disabled": 0, "lat": 38.8443365, "rental_uris": {"ios": "https://dc.lft.to/lastmile_qr_scan", "android": "https://dc.lft.to/lastmile_qr_scan"}, "is_reserved": 0, "fusion_lon": 0.0, "fusion_lat": 0.0, "lon": -76.998707, "name": "6bc3a62aec8a07d5d63f73b47af9a218"}, {"bike_id": "df8178843b47ddce06b6da0b9aad4284", "type": "electric_scooter", "is_disabled": 0, "lat": 38.93396466666667, "rental_uris": {"ios": "https://dc.lft.to/lastmile_qr_scan", "android": "https://dc.lft.to/lastmile_qr_scan"}, "is_reserved": 0, "fusion_lon": 0.0, "fusion_lat": 0.0, "lon": -77.03516033333334, "name": "df8178843b47ddce06b6da0b9aad4284"}, {"bike_id": "cad01c488cde41c9505056f4d5e428b7", "type": "electric_scooter", "is_disabled": 0, "lat": 38.907046333333334, "rental_uris": {"ios": "https://dc.lft.to/lastmile_qr_scan", "android": "https://dc.lft.to/lastmile_qr_scan"}, "is_reserved": 0, "fusion_lon": 0.0, "fusion_lat": 0.0, "lon": -77.04182366666667, "name": "cad01c488cde41c9505056f4d5e428b7"}, {"bike_id": "d2bf49d5129256e1c58ded209ce04af3", "type": "electric_scooter", "is_disabled": 0, "lat": 38.908357333333335, "rental_uris": {"ios": "https://dc.lft.to/lastmile_qr_scan", "android": "https://dc.lft.to/lastmile_qr_scan"}, "is_reserved": 0, "fusion_lon": 0.0, "fusion_lat": 0.0, "lon": -77.01975883333333, "name": "d2bf49d5129256e1c58ded209ce04af3"}, {"bike_id": "fab7c03f9f1d8892c147362688eecd99", "type": "electric_scooter", "is_disabled": 0, "lat": 38.91723016666667, "rental_uris": {"ios": "https://dc.lft.to/lastmile_qr_scan", "android": "https://dc.lft.to/lastmile_qr_scan"}, "is_reserved": 0, "fusion_lon": 0.0, "fusion_lat": 0.0, "lon": -77.03653133333333, "name": "fab7c03f9f1d8892c147362688eecd99"}, {"bike_id": "c7b6a7b18594f8e692709684eda8d552", "type": "electric_scooter", "is_disabled": 0, "lat": 38.93846683333334, "rental_uris": {"ios": "https://dc.lft.to/lastmile_qr_scan", "android": "https://dc.lft.to/lastmile_qr_scan"}, "is_reserved": 0, "fusion_lon": 0.0, "fusion_lat": 0.0, "lon": -77.072327, "name": "c7b6a7b18594f8e692709684eda8d552"}, {"bike_id": "24312400d27902146d5729da69cf1fa6", "type": "electric_scooter", "is_disabled": 0, "lat": 38.90977616666667, "rental_uris": {"ios": "https://dc.lft.to/lastmile_qr_scan", "android": "https://dc.lft.to/lastmile_qr_scan"}, "is_reserved": 0, "fusion_lon": 0.0, "fusion_lat": 0.0, "lon": -77.0150505, "name": "24312400d27902146d5729da69cf1fa6"}, {"bike_id": "fb7969f6f12f122c1707b6c5a13557b0", "type": "electric_scooter", "is_disabled": 0, "lat": 38.9249205, "rental_uris": {"ios": "https://dc.lft.to/lastmile_qr_scan", "android": "https://dc.lft.to/lastmile_qr_scan"}, "is_reserved": 0, "fusion_lon": 0.0, "fusion_lat": 0.0, "lon": -77.051986, "name": "fb7969f6f12f122c1707b6c5a13557b0"}, {"bike_id": "5dfac6693f2dda81512aa021b3bafb5e", "type": "electric_scooter", "is_disabled": 0, "lat": 38.96500483333333, "rental_uris": {"ios": "https://dc.lft.to/lastmile_qr_scan", "android": "https://dc.lft.to/lastmile_qr_scan"}, "is_reserved": 0, "fusion_lon": 0.0, "fusion_lat": 0.0, "lon": -77.0020515, "name": "5dfac6693f2dda81512aa021b3bafb5e"}, {"bike_id": "ab5113db1ce3f6bc0740897c41d1360e", "type": "electric_scooter", "is_disabled": 0, "lat": 38.90944783333333, "rental_uris": {"ios": "https://dc.lft.to/lastmile_qr_scan", "android": "https://dc.lft.to/lastmile_qr_scan"}, "is_reserved": 0, "fusion_lon": 0.0, "fusion_lat": 0.0, "lon": -77.0556525, "name": "ab5113db1ce3f6bc0740897c41d1360e"}, {"bike_id": "f659366907cacb0f14f48fdb187006bd", "type": "electric_scooter", "is_disabled": 0, "lat": 38.911053833333334, "rental_uris": {"ios": "https://dc.lft.to/lastmile_qr_scan", "android": "https://dc.lft.to/lastmile_qr_scan"}, "is_reserved": 0, "fusion_lon": 0.0, "fusion_lat": 0.0, "lon": -77.01144333333333, "name": "f659366907cacb0f14f48fdb187006bd"}, {"bike_id": "fc9dc21ed7eeee88ee44311710471b9b", "type": "electric_scooter", "is_disabled": 0, "lat": 38.91636583333333, "rental_uris": {"ios": "https://dc.lft.to/lastmile_qr_scan", "android": "https://dc.lft.to/lastmile_qr_scan"}, "is_reserved": 0, "fusion_lon": 0.0, "fusion_lat": 0.0, "lon": -77.03954833333333, "name": "fc9dc21ed7eeee88ee44311710471b9b"}, {"bike_id": "045b7e3f668bfa8d53fa4c3e7b3b0567", "type": "electric_scooter", "is_disabled": 0, "lat": 38.931885333333334, "rental_uris": {"ios": "https://dc.lft.to/lastmile_qr_scan", "android": "https://dc.lft.to/lastmile_qr_scan"}, "is_reserved": 0, "fusion_lon": 0.0, "fusion_lat": 0.0, "lon": -77.020215, "name": "045b7e3f668bfa8d53fa4c3e7b3b0567"}, {"bike_id": "95d1fa999cf1d880bee8ca3a16b66d2c", "type": "electric_scooter", "is_disabled": 0, "lat": 38.91108833333333, "rental_uris": {"ios": "https://dc.lft.to/lastmile_qr_scan", "android": "https://dc.lft.to/lastmile_qr_scan"}, "is_reserved": 0, "fusion_lon": 0.0, "fusion_lat": 0.0, "lon": -77.0383005, "name": "95d1fa999cf1d880bee8ca3a16b66d2c"}, {"bike_id": "2360344aa328649ff0a9b744db7538ca", "type": "electric_scooter", "is_disabled": 0, "lat": 38.901473, "rental_uris": {"ios": "https://dc.lft.to/lastmile_qr_scan", "android": "https://dc.lft.to/lastmile_qr_scan"}, "is_reserved": 0, "fusion_lon": 0.0, "fusion_lat": 0.0, "lon": -77.0161865, "name": "2360344aa328649ff0a9b744db7538ca"}, {"bike_id": "7609bc69de026e4040fa0d924b6b9a34", "type": "electric_scooter", "is_disabled": 0, "lat": 38.86718916666667, "rental_uris": {"ios": "https://dc.lft.to/lastmile_qr_scan", "android": "https://dc.lft.to/lastmile_qr_scan"}, "is_reserved": 0, "fusion_lon": 0.0, "fusion_lat": 0.0, "lon": -77.010101, "name": "7609bc69de026e4040fa0d924b6b9a34"}, {"bike_id": "4c2d384839f2378812793629400be315", "type": "electric_scooter", "is_disabled": 0, "lat": 38.923461833333334, "rental_uris": {"ios": "https://dc.lft.to/lastmile_qr_scan", "android": "https://dc.lft.to/lastmile_qr_scan"}, "is_reserved": 0, "fusion_lon": 0.0, "fusion_lat": 0.0, "lon": -77.05099083333333, "name": "4c2d384839f2378812793629400be315"}, {"bike_id": "a501788df510e22f4d4445dd8f75f2bb", "type": "electric_scooter", "is_disabled": 0, "lat": 38.90710766666667, "rental_uris": {"ios": "https://dc.lft.to/lastmile_qr_scan", "android": "https://dc.lft.to/lastmile_qr_scan"}, "is_reserved": 0, "fusion_lon": 0.0, "fusion_lat": 0.0, "lon": -77.03431266666666, "name": "a501788df510e22f4d4445dd8f75f2bb"}, {"bike_id": "857e48452ac4ef2bc8501af49be53a6e", "type": "electric_scooter", "is_disabled": 0, "lat": 38.90248533333333, "rental_uris": {"ios": "https://dc.lft.to/lastmile_qr_scan", "android": "https://dc.lft.to/lastmile_qr_scan"}, "is_reserved": 0, "fusion_lon": 0.0, "fusion_lat": 0.0, "lon": -77.04148233333333, "name": "857e48452ac4ef2bc8501af49be53a6e"}, {"bike_id": "f33ce41d66e3f2409401f3e7b0517e90", "type": "electric_scooter", "is_disabled": 0, "lat": 38.921566, "rental_uris": {"ios": "https://dc.lft.to/lastmile_qr_scan", "android": "https://dc.lft.to/lastmile_qr_scan"}, "is_reserved": 0, "fusion_lon": 0.0, "fusion_lat": 0.0, "lon": -77.03386283333333, "name": "f33ce41d66e3f2409401f3e7b0517e90"}, {"bike_id": "4db4dc66fd03c0e0060e18a8774d97d0", "type": "electric_scooter", "is_disabled": 0, "lat": 38.923200666666666, "rental_uris": {"ios": "https://dc.lft.to/lastmile_qr_scan", "android": "https://dc.lft.to/lastmile_qr_scan"}, "is_reserved": 0, "fusion_lon": 0.0, "fusion_lat": 0.0, "lon": -77.03891733333333, "name": "4db4dc66fd03c0e0060e18a8774d97d0"}, {"bike_id": "5151481a1ad1253e9c597142a9029e9b", "type": "electric_bike", "is_disabled": 0, "lat": 38.99311, "rental_uris": {"ios": "https://dc.lft.to/lastmile_qr_scan", "android": "https://dc.lft.to/lastmile_qr_scan"}, "is_reserved": 0, "fusion_lon": 0.0, "fusion_lat": 0.0, "lon": -77.02499933333333, "name": "5151481a1ad1253e9c597142a9029e9b"}, {"bike_id": "31b1496f9a8cf34827bf1967691b112b", "type": "electric_scooter", "is_disabled": 0, "lat": 38.95657666666666, "rental_uris": {"ios": "https://dc.lft.to/lastmile_qr_scan", "android": "https://dc.lft.to/lastmile_qr_scan"}, "is_reserved": 0, "fusion_lon": 0.0, "fusion_lat": 0.0, "lon": -77.0240575, "name": "31b1496f9a8cf34827bf1967691b112b"}, {"bike_id": "9afc277e2ddf2c4fd4298b253e87a9f9", "type": "electric_scooter", "is_disabled": 0, "lat": 38.924230666666666, "rental_uris": {"ios": "https://dc.lft.to/lastmile_qr_scan", "android": "https://dc.lft.to/lastmile_qr_scan"}, "is_reserved": 0, "fusion_lon": 0.0, "fusion_lat": 0.0, "lon": -77.02262916666666, "name": "9afc277e2ddf2c4fd4298b253e87a9f9"}, {"bike_id": "c877a862c57562f992c9529f26e40744", "type": "electric_scooter", "is_disabled": 0, "lat": 38.91923, "rental_uris": {"ios": "https://dc.lft.to/lastmile_qr_scan", "android": "https://dc.lft.to/lastmile_qr_scan"}, "is_reserved": 0, "fusion_lon": 0.0, "fusion_lat": 0.0, "lon": -77.02570183333333, "name": "c877a862c57562f992c9529f26e40744"}, {"bike_id": "9250cae12253d68a19abb66fdb9637ca", "type": "electric_scooter", "is_disabled": 0, "lat": 38.92096733333333, "rental_uris": {"ios": "https://dc.lft.to/lastmile_qr_scan", "android": "https://dc.lft.to/lastmile_qr_scan"}, "is_reserved": 0, "fusion_lon": 0.0, "fusion_lat": 0.0, "lon": -77.0317015, "name": "9250cae12253d68a19abb66fdb9637ca"}, {"bike_id": "76ffcd28cefc1c7c53c5b9c6a40862a3", "type": "electric_scooter", "is_disabled": 0, "lat": 38.8804645, "rental_uris": {"ios": "https://dc.lft.to/lastmile_qr_scan", "android": "https://dc.lft.to/lastmile_qr_scan"}, "is_reserved": 0, "fusion_lon": 0.0, "fusion_lat": 0.0, "lon": -77.0053095, "name": "76ffcd28cefc1c7c53c5b9c6a40862a3"}, {"bike_id": "b9bf329991e3e79160990cdc311192e4", "type": "electric_scooter", "is_disabled": 0, "lat": 38.917295833333334, "rental_uris": {"ios": "https://dc.lft.to/lastmile_qr_scan", "android": "https://dc.lft.to/lastmile_qr_scan"}, "is_reserved": 0, "fusion_lon": 0.0, "fusion_lat": 0.0, "lon": -77.02606416666667, "name": "b9bf329991e3e79160990cdc311192e4"}, {"bike_id": "246251ae358ae4a8cdc59bd20abe81b3", "type": "electric_scooter", "is_disabled": 0, "lat": 38.892580833333334, "rental_uris": {"ios": "https://dc.lft.to/lastmile_qr_scan", "android": "https://dc.lft.to/lastmile_qr_scan"}, "is_reserved": 0, "fusion_lon": 0.0, "fusion_lat": 0.0, "lon": -76.92570616666667, "name": "246251ae358ae4a8cdc59bd20abe81b3"}, {"bike_id": "0e446a67d1d1b1305a6dbc867f376c6e", "type": "electric_scooter", "is_disabled": 0, "lat": 38.92272833333333, "rental_uris": {"ios": "https://dc.lft.to/lastmile_qr_scan", "android": "https://dc.lft.to/lastmile_qr_scan"}, "is_reserved": 0, "fusion_lon": 0.0, "fusion_lat": 0.0, "lon": -77.036622, "name": "0e446a67d1d1b1305a6dbc867f376c6e"}, {"bike_id": "dad073e2783097098d88eb36a22f8bc2", "type": "electric_scooter", "is_disabled": 0, "lat": 38.939559833333334, "rental_uris": {"ios": "https://dc.lft.to/lastmile_qr_scan", "android": "https://dc.lft.to/lastmile_qr_scan"}, "is_reserved": 0, "fusion_lon": 0.0, "fusion_lat": 0.0, "lon": -77.0723935, "name": "dad073e2783097098d88eb36a22f8bc2"}, {"bike_id": "240d80873b57cf5742e56c179b013052", "type": "electric_scooter", "is_disabled": 0, "lat": 38.90110716666667, "rental_uris": {"ios": "https://dc.lft.to/lastmile_qr_scan", "android": "https://dc.lft.to/lastmile_qr_scan"}, "is_reserved": 0, "fusion_lon": 0.0, "fusion_lat": 0.0, "lon": -77.03813016666666, "name": "240d80873b57cf5742e56c179b013052"}, {"bike_id": "659e4d438da6adba5bf53f5bad19728c", "type": "electric_bike", "is_disabled": 0, "lat": 38.83613183333333, "rental_uris": {"ios": "https://dc.lft.to/lastmile_qr_scan", "android": "https://dc.lft.to/lastmile_qr_scan"}, "is_reserved": 0, "fusion_lon": 0.0, "fusion_lat": 0.0, "lon": -77.00378833333333, "name": "659e4d438da6adba5bf53f5bad19728c"}, {"bike_id": "2ca659d71921d5b9838f8c0322849e0e", "type": "electric_scooter", "is_disabled": 0, "lat": 38.84314233333333, "rental_uris": {"ios": "https://dc.lft.to/lastmile_qr_scan", "android": "https://dc.lft.to/lastmile_qr_scan"}, "is_reserved": 0, "fusion_lon": 0.0, "fusion_lat": 0.0, "lon": -76.99928216666666, "name": "2ca659d71921d5b9838f8c0322849e0e"}, {"bike_id": "8cf634314186df1102d9a5feaa1bdb19", "type": "electric_scooter", "is_disabled": 0, "lat": 38.91983166666667, "rental_uris": {"ios": "https://dc.lft.to/lastmile_qr_scan", "android": "https://dc.lft.to/lastmile_qr_scan"}, "is_reserved": 0, "fusion_lon": 0.0, "fusion_lat": 0.0, "lon": -77.01796533333334, "name": "8cf634314186df1102d9a5feaa1bdb19"}, {"bike_id": "7dbe5e73171350c13dc8d04d17f7a91a", "type": "electric_scooter", "is_disabled": 0, "lat": 38.9133675, "rental_uris": {"ios": "https://dc.lft.to/lastmile_qr_scan", "android": "https://dc.lft.to/lastmile_qr_scan"}, "is_reserved": 0, "fusion_lon": 0.0, "fusion_lat": 0.0, "lon": -77.03980566666667, "name": "7dbe5e73171350c13dc8d04d17f7a91a"}, {"bike_id": "bce96b3f9729997af82f17b4f72859d8", "type": "electric_scooter", "is_disabled": 0, "lat": 38.9111255, "rental_uris": {"ios": "https://dc.lft.to/lastmile_qr_scan", "android": "https://dc.lft.to/lastmile_qr_scan"}, "is_reserved": 0, "fusion_lon": 0.0, "fusion_lat": 0.0, "lon": -77.04516583333333, "name": "bce96b3f9729997af82f17b4f72859d8"}, {"bike_id": "c57a7f5bc2da689e0ff3ac4d30163421", "type": "electric_scooter", "is_disabled": 0, "lat": 38.914699, "rental_uris": {"ios": "https://dc.lft.to/lastmile_qr_scan", "android": "https://dc.lft.to/lastmile_qr_scan"}, "is_reserved": 0, "fusion_lon": 0.0, "fusion_lat": 0.0, "lon": -77.00210766666666, "name": "c57a7f5bc2da689e0ff3ac4d30163421"}, {"bike_id": "f0285c01b52c372e1d345b441eddec53", "type": "electric_scooter", "is_disabled": 0, "lat": 38.92363983333333, "rental_uris": {"ios": "https://dc.lft.to/lastmile_qr_scan", "android": "https://dc.lft.to/lastmile_qr_scan"}, "is_reserved": 0, "fusion_lon": 0.0, "fusion_lat": 0.0, "lon": -77.05125533333333, "name": "f0285c01b52c372e1d345b441eddec53"}, {"bike_id": "d31e07a7c426e9b1aaeca3a2af8debf5", "type": "electric_scooter", "is_disabled": 0, "lat": 38.864821, "rental_uris": {"ios": "https://dc.lft.to/lastmile_qr_scan", "android": "https://dc.lft.to/lastmile_qr_scan"}, "is_reserved": 0, "fusion_lon": 0.0, "fusion_lat": 0.0, "lon": -77.00004566666667, "name": "d31e07a7c426e9b1aaeca3a2af8debf5"}, {"bike_id": "6770a38a1847691bdf24e60a5d9c71d3", "type": "electric_bike", "is_disabled": 0, "lat": 38.895644833333336, "rental_uris": {"ios": "https://dc.lft.to/lastmile_qr_scan", "android": "https://dc.lft.to/lastmile_qr_scan"}, "is_reserved": 0, "fusion_lon": 0.0, "fusion_lat": 0.0, "lon": -77.1273445, "name": "6770a38a1847691bdf24e60a5d9c71d3"}, {"bike_id": "cd87d1e8164b7cc5ab85c6380d7daf0a", "type": "electric_scooter", "is_disabled": 0, "lat": 38.9281165, "rental_uris": {"ios": "https://dc.lft.to/lastmile_qr_scan", "android": "https://dc.lft.to/lastmile_qr_scan"}, "is_reserved": 0, "fusion_lon": 0.0, "fusion_lat": 0.0, "lon": -77.035906, "name": "cd87d1e8164b7cc5ab85c6380d7daf0a"}, {"bike_id": "178df028304bee34dd9e543ea710eb3a", "type": "electric_scooter", "is_disabled": 0, "lat": 38.9259355, "rental_uris": {"ios": "https://dc.lft.to/lastmile_qr_scan", "android": "https://dc.lft.to/lastmile_qr_scan"}, "is_reserved": 0, "fusion_lon": 0.0, "fusion_lat": 0.0, "lon": -77.03761083333333, "name": "178df028304bee34dd9e543ea710eb3a"}, {"bike_id": "3f3f4488d208b7681e3d365fd46e31da", "type": "electric_scooter", "is_disabled": 0, "lat": 38.915431833333336, "rental_uris": {"ios": "https://dc.lft.to/lastmile_qr_scan", "android": "https://dc.lft.to/lastmile_qr_scan"}, "is_reserved": 0, "fusion_lon": 0.0, "fusion_lat": 0.0, "lon": -77.0384875, "name": "3f3f4488d208b7681e3d365fd46e31da"}, {"bike_id": "f793591f8ebbf3caf628759c065a2e65", "type": "electric_scooter", "is_disabled": 0, "lat": 38.90407183333333, "rental_uris": {"ios": "https://dc.lft.to/lastmile_qr_scan", "android": "https://dc.lft.to/lastmile_qr_scan"}, "is_reserved": 0, "fusion_lon": 0.0, "fusion_lat": 0.0, "lon": -76.9732235, "name": "f793591f8ebbf3caf628759c065a2e65"}, {"bike_id": "4d41311cffa421c7f3bc640643805d3c", "type": "electric_scooter", "is_disabled": 0, "lat": 38.95734233333334, "rental_uris": {"ios": "https://dc.lft.to/lastmile_qr_scan", "android": "https://dc.lft.to/lastmile_qr_scan"}, "is_reserved": 0, "fusion_lon": 0.0, "fusion_lat": 0.0, "lon": -77.02397916666666, "name": "4d41311cffa421c7f3bc640643805d3c"}, {"bike_id": "af7a5fc356c7e675b72d331834083aac", "type": "electric_scooter", "is_disabled": 0, "lat": 38.92272233333333, "rental_uris": {"ios": "https://dc.lft.to/lastmile_qr_scan", "android": "https://dc.lft.to/lastmile_qr_scan"}, "is_reserved": 0, "fusion_lon": 0.0, "fusion_lat": 0.0, "lon": -76.99453183333333, "name": "af7a5fc356c7e675b72d331834083aac"}, {"bike_id": "64565cda914db71c83abd861d8dde172", "type": "electric_bike", "is_disabled": 0, "lat": 38.912486666666666, "rental_uris": {"ios": "https://dc.lft.to/lastmile_qr_scan", "android": "https://dc.lft.to/lastmile_qr_scan"}, "is_reserved": 0, "fusion_lon": 0.0, "fusion_lat": 0.0, "lon": -77.08730866666667, "name": "64565cda914db71c83abd861d8dde172"}, {"bike_id": "146e52b728ae7d2aed2479f5076e627f", "type": "electric_scooter", "is_disabled": 0, "lat": 38.92766966666667, "rental_uris": {"ios": "https://dc.lft.to/lastmile_qr_scan", "android": "https://dc.lft.to/lastmile_qr_scan"}, "is_reserved": 0, "fusion_lon": 0.0, "fusion_lat": 0.0, "lon": -76.9874955, "name": "146e52b728ae7d2aed2479f5076e627f"}, {"bike_id": "8ee68a2c3fc88e68a0dabf456e83e9b2", "type": "electric_bike", "is_disabled": 0, "lat": 38.9377835, "rental_uris": {"ios": "https://dc.lft.to/lastmile_qr_scan", "android": "https://dc.lft.to/lastmile_qr_scan"}, "is_reserved": 0, "fusion_lon": 0.0, "fusion_lat": 0.0, "lon": -77.01905116666667, "name": "8ee68a2c3fc88e68a0dabf456e83e9b2"}, {"bike_id": "0c3d144c72adfff4548929f7d4c61da5", "type": "electric_scooter", "is_disabled": 0, "lat": 38.8668865, "rental_uris": {"ios": "https://dc.lft.to/lastmile_qr_scan", "android": "https://dc.lft.to/lastmile_qr_scan"}, "is_reserved": 0, "fusion_lon": 0.0, "fusion_lat": 0.0, "lon": -76.985757, "name": "0c3d144c72adfff4548929f7d4c61da5"}, {"bike_id": "45c688182b8f619e918b5f1767843fbb", "type": "electric_scooter", "is_disabled": 0, "lat": 38.896057166666665, "rental_uris": {"ios": "https://dc.lft.to/lastmile_qr_scan", "android": "https://dc.lft.to/lastmile_qr_scan"}, "is_reserved": 0, "fusion_lon": 0.0, "fusion_lat": 0.0, "lon": -77.01099183333334, "name": "45c688182b8f619e918b5f1767843fbb"}, {"bike_id": "05b4b9deb26800fe5888faadf4426b3c", "type": "electric_scooter", "is_disabled": 0, "lat": 38.898331166666665, "rental_uris": {"ios": "https://dc.lft.to/lastmile_qr_scan", "android": "https://dc.lft.to/lastmile_qr_scan"}, "is_reserved": 0, "fusion_lon": 0.0, "fusion_lat": 0.0, "lon": -76.919469, "name": "05b4b9deb26800fe5888faadf4426b3c"}, {"bike_id": "cc71ac87183821bdf7e87c5697a35f53", "type": "electric_scooter", "is_disabled": 0, "lat": 38.883703, "rental_uris": {"ios": "https://dc.lft.to/lastmile_qr_scan", "android": "https://dc.lft.to/lastmile_qr_scan"}, "is_reserved": 0, "fusion_lon": 0.0, "fusion_lat": 0.0, "lon": -77.01744266666667, "name": "cc71ac87183821bdf7e87c5697a35f53"}, {"bike_id": "66d09299da665fc3fd10ec5978c01895", "type": "electric_scooter", "is_disabled": 0, "lat": 38.9232355, "rental_uris": {"ios": "https://dc.lft.to/lastmile_qr_scan", "android": "https://dc.lft.to/lastmile_qr_scan"}, "is_reserved": 0, "fusion_lon": 0.0, "fusion_lat": 0.0, "lon": -77.0214875, "name": "66d09299da665fc3fd10ec5978c01895"}, {"bike_id": "3ae965be22c7f7e9a545f3e68353a605", "type": "electric_scooter", "is_disabled": 0, "lat": 38.920066, "rental_uris": {"ios": "https://dc.lft.to/lastmile_qr_scan", "android": "https://dc.lft.to/lastmile_qr_scan"}, "is_reserved": 0, "fusion_lon": 0.0, "fusion_lat": 0.0, "lon": -76.98498866666667, "name": "3ae965be22c7f7e9a545f3e68353a605"}, {"bike_id": "1b824c316b2543526dc64aa32853fda6", "type": "electric_scooter", "is_disabled": 0, "lat": 38.9077, "rental_uris": {"ios": "https://dc.lft.to/lastmile_qr_scan", "android": "https://dc.lft.to/lastmile_qr_scan"}, "is_reserved": 0, "fusion_lon": 0.0, "fusion_lat": 0.0, "lon": -77.04327833333333, "name": "1b824c316b2543526dc64aa32853fda6"}, {"bike_id": "85e1ca5542cabc007b661844f668b22d", "type": "electric_scooter", "is_disabled": 0, "lat": 38.91704766666667, "rental_uris": {"ios": "https://dc.lft.to/lastmile_qr_scan", "android": "https://dc.lft.to/lastmile_qr_scan"}, "is_reserved": 0, "fusion_lon": 0.0, "fusion_lat": 0.0, "lon": -77.03467633333334, "name": "85e1ca5542cabc007b661844f668b22d"}, {"bike_id": "daf7e7aeb87f26b664cb88c46ce3d9be", "type": "electric_scooter", "is_disabled": 0, "lat": 38.9170515, "rental_uris": {"ios": "https://dc.lft.to/lastmile_qr_scan", "android": "https://dc.lft.to/lastmile_qr_scan"}, "is_reserved": 0, "fusion_lon": 0.0, "fusion_lat": 0.0, "lon": -77.09575383333333, "name": "daf7e7aeb87f26b664cb88c46ce3d9be"}, {"bike_id": "d8798d820872fd752a920304635ce4d4", "type": "electric_scooter", "is_disabled": 0, "lat": 38.908533166666665, "rental_uris": {"ios": "https://dc.lft.to/lastmile_qr_scan", "android": "https://dc.lft.to/lastmile_qr_scan"}, "is_reserved": 0, "fusion_lon": 0.0, "fusion_lat": 0.0, "lon": -77.05486866666666, "name": "d8798d820872fd752a920304635ce4d4"}, {"bike_id": "69fde65f0c267defb776fe1cc8dba89f", "type": "electric_scooter", "is_disabled": 0, "lat": 38.90961333333333, "rental_uris": {"ios": "https://dc.lft.to/lastmile_qr_scan", "android": "https://dc.lft.to/lastmile_qr_scan"}, "is_reserved": 0, "fusion_lon": 0.0, "fusion_lat": 0.0, "lon": -77.02308533333333, "name": "69fde65f0c267defb776fe1cc8dba89f"}, {"bike_id": "d44f71a693cb0efa295258e1c657b88f", "type": "electric_scooter", "is_disabled": 0, "lat": 38.934593666666665, "rental_uris": {"ios": "https://dc.lft.to/lastmile_qr_scan", "android": "https://dc.lft.to/lastmile_qr_scan"}, "is_reserved": 0, "fusion_lon": 0.0, "fusion_lat": 0.0, "lon": -77.0279, "name": "d44f71a693cb0efa295258e1c657b88f"}, {"bike_id": "b23bbb60b95ebf72754be63448767742", "type": "electric_scooter", "is_disabled": 0, "lat": 38.94759, "rental_uris": {"ios": "https://dc.lft.to/lastmile_qr_scan", "android": "https://dc.lft.to/lastmile_qr_scan"}, "is_reserved": 0, "fusion_lon": 0.0, "fusion_lat": 0.0, "lon": -77.06562233333334, "name": "b23bbb60b95ebf72754be63448767742"}, {"bike_id": "84783d9081cf88c625261522adae55d4", "type": "electric_scooter", "is_disabled": 0, "lat": 38.90463883333334, "rental_uris": {"ios": "https://dc.lft.to/lastmile_qr_scan", "android": "https://dc.lft.to/lastmile_qr_scan"}, "is_reserved": 0, "fusion_lon": 0.0, "fusion_lat": 0.0, "lon": -76.97606433333333, "name": "84783d9081cf88c625261522adae55d4"}, {"bike_id": "4d73aa11f6c3439d679e11461caaf557", "type": "electric_scooter", "is_disabled": 0, "lat": 38.92949216666667, "rental_uris": {"ios": "https://dc.lft.to/lastmile_qr_scan", "android": "https://dc.lft.to/lastmile_qr_scan"}, "is_reserved": 0, "fusion_lon": 0.0, "fusion_lat": 0.0, "lon": -77.04405466666667, "name": "4d73aa11f6c3439d679e11461caaf557"}, {"bike_id": "06d728bccbc6658f6b31fbd4ab476607", "type": "electric_scooter", "is_disabled": 0, "lat": 38.9001355, "rental_uris": {"ios": "https://dc.lft.to/lastmile_qr_scan", "android": "https://dc.lft.to/lastmile_qr_scan"}, "is_reserved": 0, "fusion_lon": 0.0, "fusion_lat": 0.0, "lon": -77.00372933333334, "name": "06d728bccbc6658f6b31fbd4ab476607"}, {"bike_id": "6740894ffb148986d8f4d4ef77651f47", "type": "electric_scooter", "is_disabled": 0, "lat": 38.91837016666667, "rental_uris": {"ios": "https://dc.lft.to/lastmile_qr_scan", "android": "https://dc.lft.to/lastmile_qr_scan"}, "is_reserved": 0, "fusion_lon": 0.0, "fusion_lat": 0.0, "lon": -77.0260095, "name": "6740894ffb148986d8f4d4ef77651f47"}, {"bike_id": "5114f146adde8eadd25bec81e0fa6dfb", "type": "electric_scooter", "is_disabled": 0, "lat": 38.88307533333333, "rental_uris": {"ios": "https://dc.lft.to/lastmile_qr_scan", "android": "https://dc.lft.to/lastmile_qr_scan"}, "is_reserved": 0, "fusion_lon": 0.0, "fusion_lat": 0.0, "lon": -77.01764133333333, "name": "5114f146adde8eadd25bec81e0fa6dfb"}, {"bike_id": "98e9d780cd4f1e037790bbe4a1874d66", "type": "electric_bike", "is_disabled": 0, "lat": 38.9613385, "rental_uris": {"ios": "https://dc.lft.to/lastmile_qr_scan", "android": "https://dc.lft.to/lastmile_qr_scan"}, "is_reserved": 0, "fusion_lon": 0.0, "fusion_lat": 0.0, "lon": -77.03334433333333, "name": "98e9d780cd4f1e037790bbe4a1874d66"}, {"bike_id": "df5aa96219c88c24db95c2f824ab7644", "type": "electric_scooter", "is_disabled": 0, "lat": 38.90677733333333, "rental_uris": {"ios": "https://dc.lft.to/lastmile_qr_scan", "android": "https://dc.lft.to/lastmile_qr_scan"}, "is_reserved": 0, "fusion_lon": 0.0, "fusion_lat": 0.0, "lon": -76.98001483333333, "name": "df5aa96219c88c24db95c2f824ab7644"}, {"bike_id": "0b0486ef2f04f815f379f4a768054238", "type": "electric_bike", "is_disabled": 0, "lat": 38.88245033333333, "rental_uris": {"ios": "https://dc.lft.to/lastmile_qr_scan", "android": "https://dc.lft.to/lastmile_qr_scan"}, "is_reserved": 0, "fusion_lon": 0.0, "fusion_lat": 0.0, "lon": -76.962535, "name": "0b0486ef2f04f815f379f4a768054238"}, {"bike_id": "d820a0af78f12dbc40612fbf4db2fcbf", "type": "electric_scooter", "is_disabled": 0, "lat": 38.916695, "rental_uris": {"ios": "https://dc.lft.to/lastmile_qr_scan", "android": "https://dc.lft.to/lastmile_qr_scan"}, "is_reserved": 0, "fusion_lon": 0.0, "fusion_lat": 0.0, "lon": -77.03846283333333, "name": "d820a0af78f12dbc40612fbf4db2fcbf"}, {"bike_id": "d4a1487237686f763115b9d09c71f9bc", "type": "electric_scooter", "is_disabled": 0, "lat": 38.93146483333334, "rental_uris": {"ios": "https://dc.lft.to/lastmile_qr_scan", "android": "https://dc.lft.to/lastmile_qr_scan"}, "is_reserved": 0, "fusion_lon": 0.0, "fusion_lat": 0.0, "lon": -77.03353766666666, "name": "d4a1487237686f763115b9d09c71f9bc"}, {"bike_id": "c23772d932172cd36031d601806502fe", "type": "electric_scooter", "is_disabled": 0, "lat": 38.90263, "rental_uris": {"ios": "https://dc.lft.to/lastmile_qr_scan", "android": "https://dc.lft.to/lastmile_qr_scan"}, "is_reserved": 0, "fusion_lon": 0.0, "fusion_lat": 0.0, "lon": -77.01618216666667, "name": "c23772d932172cd36031d601806502fe"}, {"bike_id": "2fb3ebce9be0449a2e3ba3b9bfee8099", "type": "electric_scooter", "is_disabled": 0, "lat": 38.92260533333334, "rental_uris": {"ios": "https://dc.lft.to/lastmile_qr_scan", "android": "https://dc.lft.to/lastmile_qr_scan"}, "is_reserved": 0, "fusion_lon": 0.0, "fusion_lat": 0.0, "lon": -77.04211366666667, "name": "2fb3ebce9be0449a2e3ba3b9bfee8099"}, {"bike_id": "959c3b4455446f8e4123dd08cd7b873f", "type": "electric_bike", "is_disabled": 0, "lat": 38.9322605, "rental_uris": {"ios": "https://dc.lft.to/lastmile_qr_scan", "android": "https://dc.lft.to/lastmile_qr_scan"}, "is_reserved": 0, "fusion_lon": 0.0, "fusion_lat": 0.0, "lon": -77.18120233333333, "name": "959c3b4455446f8e4123dd08cd7b873f"}, {"bike_id": "b5fac3cc59dfe590f48694d1ac2192cc", "type": "electric_scooter", "is_disabled": 0, "lat": 38.9072045, "rental_uris": {"ios": "https://dc.lft.to/lastmile_qr_scan", "android": "https://dc.lft.to/lastmile_qr_scan"}, "is_reserved": 0, "fusion_lon": 0.0, "fusion_lat": 0.0, "lon": -77.05010816666666, "name": "b5fac3cc59dfe590f48694d1ac2192cc"}, {"bike_id": "3a7be96b30e1d534375f968ec9ffbedd", "type": "electric_scooter", "is_disabled": 0, "lat": 38.921506, "rental_uris": {"ios": "https://dc.lft.to/lastmile_qr_scan", "android": "https://dc.lft.to/lastmile_qr_scan"}, "is_reserved": 0, "fusion_lon": 0.0, "fusion_lat": 0.0, "lon": -77.03876766666667, "name": "3a7be96b30e1d534375f968ec9ffbedd"}, {"bike_id": "fedc1d11819ab3d06fccfdf191eeec0d", "type": "electric_scooter", "is_disabled": 0, "lat": 38.872883333333334, "rental_uris": {"ios": "https://dc.lft.to/lastmile_qr_scan", "android": "https://dc.lft.to/lastmile_qr_scan"}, "is_reserved": 0, "fusion_lon": 0.0, "fusion_lat": 0.0, "lon": -77.00986716666667, "name": "fedc1d11819ab3d06fccfdf191eeec0d"}, {"bike_id": "a464b327bf18342babf956515bc46abd", "type": "electric_scooter", "is_disabled": 0, "lat": 38.926864, "rental_uris": {"ios": "https://dc.lft.to/lastmile_qr_scan", "android": "https://dc.lft.to/lastmile_qr_scan"}, "is_reserved": 0, "fusion_lon": 0.0, "fusion_lat": 0.0, "lon": -77.02157716666666, "name": "a464b327bf18342babf956515bc46abd"}, {"bike_id": "97b52f56941d24d9c06272b398dca346", "type": "electric_scooter", "is_disabled": 0, "lat": 38.923914, "rental_uris": {"ios": "https://dc.lft.to/lastmile_qr_scan", "android": "https://dc.lft.to/lastmile_qr_scan"}, "is_reserved": 0, "fusion_lon": 0.0, "fusion_lat": 0.0, "lon": -77.02459066666667, "name": "97b52f56941d24d9c06272b398dca346"}, {"bike_id": "e1c720020addb20aa764bff0a1d59550", "type": "electric_scooter", "is_disabled": 0, "lat": 38.907288333333334, "rental_uris": {"ios": "https://dc.lft.to/lastmile_qr_scan", "android": "https://dc.lft.to/lastmile_qr_scan"}, "is_reserved": 0, "fusion_lon": 0.0, "fusion_lat": 0.0, "lon": -77.05330466666666, "name": "e1c720020addb20aa764bff0a1d59550"}, {"bike_id": "3d67dac40b9c643a74aecf54dc85ef3d", "type": "electric_scooter", "is_disabled": 0, "lat": 38.9072265, "rental_uris": {"ios": "https://dc.lft.to/lastmile_qr_scan", "android": "https://dc.lft.to/lastmile_qr_scan"}, "is_reserved": 0, "fusion_lon": 0.0, "fusion_lat": 0.0, "lon": -77.04811733333334, "name": "3d67dac40b9c643a74aecf54dc85ef3d"}, {"bike_id": "9d0f122d0544e7f070f31734449a782a", "type": "electric_scooter", "is_disabled": 0, "lat": 38.919166, "rental_uris": {"ios": "https://dc.lft.to/lastmile_qr_scan", "android": "https://dc.lft.to/lastmile_qr_scan"}, "is_reserved": 0, "fusion_lon": 0.0, "fusion_lat": 0.0, "lon": -77.02571066666667, "name": "9d0f122d0544e7f070f31734449a782a"}, {"bike_id": "75c4b9b0e2c2ffab3a6629b73c8acff8", "type": "electric_scooter", "is_disabled": 0, "lat": 38.91809766666667, "rental_uris": {"ios": "https://dc.lft.to/lastmile_qr_scan", "android": "https://dc.lft.to/lastmile_qr_scan"}, "is_reserved": 0, "fusion_lon": 0.0, "fusion_lat": 0.0, "lon": -77.03175166666666, "name": "75c4b9b0e2c2ffab3a6629b73c8acff8"}, {"bike_id": "c4c8f1400c35e75088cd2da6da1acbfe", "type": "electric_scooter", "is_disabled": 0, "lat": 38.95687733333333, "rental_uris": {"ios": "https://dc.lft.to/lastmile_qr_scan", "android": "https://dc.lft.to/lastmile_qr_scan"}, "is_reserved": 0, "fusion_lon": 0.0, "fusion_lat": 0.0, "lon": -77.02401766666667, "name": "c4c8f1400c35e75088cd2da6da1acbfe"}, {"bike_id": "68de7cb586bc83371c4f30513c1bbd7f", "type": "electric_scooter", "is_disabled": 0, "lat": 38.920486833333335, "rental_uris": {"ios": "https://dc.lft.to/lastmile_qr_scan", "android": "https://dc.lft.to/lastmile_qr_scan"}, "is_reserved": 0, "fusion_lon": 0.0, "fusion_lat": 0.0, "lon": -77.03472383333333, "name": "68de7cb586bc83371c4f30513c1bbd7f"}, {"bike_id": "b5124d5c4acfe85686b2d1ce3e8cdb5d", "type": "electric_scooter", "is_disabled": 0, "lat": 38.917831166666666, "rental_uris": {"ios": "https://dc.lft.to/lastmile_qr_scan", "android": "https://dc.lft.to/lastmile_qr_scan"}, "is_reserved": 0, "fusion_lon": 0.0, "fusion_lat": 0.0, "lon": -77.02973216666666, "name": "b5124d5c4acfe85686b2d1ce3e8cdb5d"}, {"bike_id": "bec4403b8712706da149fad1e03bff42", "type": "electric_scooter", "is_disabled": 0, "lat": 38.9012005, "rental_uris": {"ios": "https://dc.lft.to/lastmile_qr_scan", "android": "https://dc.lft.to/lastmile_qr_scan"}, "is_reserved": 0, "fusion_lon": 0.0, "fusion_lat": 0.0, "lon": -77.03656616666666, "name": "bec4403b8712706da149fad1e03bff42"}, {"bike_id": "0caefb98ad24dfc235026b4f3037046c", "type": "electric_scooter", "is_disabled": 0, "lat": 38.910984166666665, "rental_uris": {"ios": "https://dc.lft.to/lastmile_qr_scan", "android": "https://dc.lft.to/lastmile_qr_scan"}, "is_reserved": 0, "fusion_lon": 0.0, "fusion_lat": 0.0, "lon": -77.02974933333333, "name": "0caefb98ad24dfc235026b4f3037046c"}, {"bike_id": "68ae21f67eba5b29f7525ea6762c40d3", "type": "electric_scooter", "is_disabled": 0, "lat": 38.90722616666667, "rental_uris": {"ios": "https://dc.lft.to/lastmile_qr_scan", "android": "https://dc.lft.to/lastmile_qr_scan"}, "is_reserved": 0, "fusion_lon": 0.0, "fusion_lat": 0.0, "lon": -77.04644433333333, "name": "68ae21f67eba5b29f7525ea6762c40d3"}, {"bike_id": "702aa6a4d30ab5fe90c193d3f039a9aa", "type": "electric_scooter", "is_disabled": 0, "lat": 38.911759833333335, "rental_uris": {"ios": "https://dc.lft.to/lastmile_qr_scan", "android": "https://dc.lft.to/lastmile_qr_scan"}, "is_reserved": 0, "fusion_lon": 0.0, "fusion_lat": 0.0, "lon": -77.06856, "name": "702aa6a4d30ab5fe90c193d3f039a9aa"}, {"bike_id": "1af68ca364d4b5a2f4957d406fed34ac", "type": "electric_scooter", "is_disabled": 0, "lat": 38.9142, "rental_uris": {"ios": "https://dc.lft.to/lastmile_qr_scan", "android": "https://dc.lft.to/lastmile_qr_scan"}, "is_reserved": 0, "fusion_lon": 0.0, "fusion_lat": 0.0, "lon": -77.03172483333333, "name": "1af68ca364d4b5a2f4957d406fed34ac"}, {"bike_id": "c868549a6f55589a0deb39eed804bfbc", "type": "electric_bike", "is_disabled": 0, "lat": 38.88956133333333, "rental_uris": {"ios": "https://dc.lft.to/lastmile_qr_scan", "android": "https://dc.lft.to/lastmile_qr_scan"}, "is_reserved": 0, "fusion_lon": 0.0, "fusion_lat": 0.0, "lon": -77.09133716666666, "name": "c868549a6f55589a0deb39eed804bfbc"}, {"bike_id": "1fc046970261d9cea025ccf328683b34", "type": "electric_scooter", "is_disabled": 0, "lat": 38.921668833333335, "rental_uris": {"ios": "https://dc.lft.to/lastmile_qr_scan", "android": "https://dc.lft.to/lastmile_qr_scan"}, "is_reserved": 0, "fusion_lon": 0.0, "fusion_lat": 0.0, "lon": -77.0384725, "name": "1fc046970261d9cea025ccf328683b34"}, {"bike_id": "289e16016d1bfeaca3538492ab2cc723", "type": "electric_scooter", "is_disabled": 0, "lat": 38.90600833333333, "rental_uris": {"ios": "https://dc.lft.to/lastmile_qr_scan", "android": "https://dc.lft.to/lastmile_qr_scan"}, "is_reserved": 0, "fusion_lon": 0.0, "fusion_lat": 0.0, "lon": -77.06289383333333, "name": "289e16016d1bfeaca3538492ab2cc723"}, {"bike_id": "2ff8fe398e532df192a5816afae44a7e", "type": "electric_scooter", "is_disabled": 0, "lat": 38.896934333333334, "rental_uris": {"ios": "https://dc.lft.to/lastmile_qr_scan", "android": "https://dc.lft.to/lastmile_qr_scan"}, "is_reserved": 0, "fusion_lon": 0.0, "fusion_lat": 0.0, "lon": -76.99954183333334, "name": "2ff8fe398e532df192a5816afae44a7e"}, {"bike_id": "90b6993f8bb72f024d64b325c11f515a", "type": "electric_scooter", "is_disabled": 0, "lat": 38.89991166666667, "rental_uris": {"ios": "https://dc.lft.to/lastmile_qr_scan", "android": "https://dc.lft.to/lastmile_qr_scan"}, "is_reserved": 0, "fusion_lon": 0.0, "fusion_lat": 0.0, "lon": -77.01569516666666, "name": "90b6993f8bb72f024d64b325c11f515a"}, {"bike_id": "743e45bb4e365c3aee6bf2523d8762b3", "type": "electric_scooter", "is_disabled": 0, "lat": 38.927921833333336, "rental_uris": {"ios": "https://dc.lft.to/lastmile_qr_scan", "android": "https://dc.lft.to/lastmile_qr_scan"}, "is_reserved": 0, "fusion_lon": 0.0, "fusion_lat": 0.0, "lon": -77.0219715, "name": "743e45bb4e365c3aee6bf2523d8762b3"}, {"bike_id": "8fb6400ac7e19f230add0f63ad087592", "type": "electric_scooter", "is_disabled": 0, "lat": 38.9095645, "rental_uris": {"ios": "https://dc.lft.to/lastmile_qr_scan", "android": "https://dc.lft.to/lastmile_qr_scan"}, "is_reserved": 0, "fusion_lon": 0.0, "fusion_lat": 0.0, "lon": -77.02277466666666, "name": "8fb6400ac7e19f230add0f63ad087592"}, {"bike_id": "1403fe315da24b00f48eaf8643048d78", "type": "electric_scooter", "is_disabled": 0, "lat": 38.9018215, "rental_uris": {"ios": "https://dc.lft.to/lastmile_qr_scan", "android": "https://dc.lft.to/lastmile_qr_scan"}, "is_reserved": 0, "fusion_lon": 0.0, "fusion_lat": 0.0, "lon": -77.0128425, "name": "1403fe315da24b00f48eaf8643048d78"}, {"bike_id": "34966d2d52596675e41966ca3520b12c", "type": "electric_bike", "is_disabled": 0, "lat": 38.97878583333333, "rental_uris": {"ios": "https://dc.lft.to/lastmile_qr_scan", "android": "https://dc.lft.to/lastmile_qr_scan"}, "is_reserved": 0, "fusion_lon": 0.0, "fusion_lat": 0.0, "lon": -77.06027466666667, "name": "34966d2d52596675e41966ca3520b12c"}, {"bike_id": "5cfb42444577cddf2607278541621fe1", "type": "electric_scooter", "is_disabled": 0, "lat": 38.909776666666666, "rental_uris": {"ios": "https://dc.lft.to/lastmile_qr_scan", "android": "https://dc.lft.to/lastmile_qr_scan"}, "is_reserved": 0, "fusion_lon": 0.0, "fusion_lat": 0.0, "lon": -77.04783283333333, "name": "5cfb42444577cddf2607278541621fe1"}, {"bike_id": "bf9d70c89a61173dd1e6341422a237fe", "type": "electric_scooter", "is_disabled": 0, "lat": 38.93621266666667, "rental_uris": {"ios": "https://dc.lft.to/lastmile_qr_scan", "android": "https://dc.lft.to/lastmile_qr_scan"}, "is_reserved": 0, "fusion_lon": 0.0, "fusion_lat": 0.0, "lon": -76.97615, "name": "bf9d70c89a61173dd1e6341422a237fe"}, {"bike_id": "813fd9c7122af7e301cf5fa3534dcde7", "type": "electric_scooter", "is_disabled": 0, "lat": 38.894782666666664, "rental_uris": {"ios": "https://dc.lft.to/lastmile_qr_scan", "android": "https://dc.lft.to/lastmile_qr_scan"}, "is_reserved": 0, "fusion_lon": 0.0, "fusion_lat": 0.0, "lon": -76.9486015, "name": "813fd9c7122af7e301cf5fa3534dcde7"}, {"bike_id": "dc71c9977ea24c771474c45dab4ec339", "type": "electric_scooter", "is_disabled": 0, "lat": 38.876408833333336, "rental_uris": {"ios": "https://dc.lft.to/lastmile_qr_scan", "android": "https://dc.lft.to/lastmile_qr_scan"}, "is_reserved": 0, "fusion_lon": 0.0, "fusion_lat": 0.0, "lon": -77.0042175, "name": "dc71c9977ea24c771474c45dab4ec339"}, {"bike_id": "28bd501371df68b81ddaf287f4b2f52b", "type": "electric_scooter", "is_disabled": 0, "lat": 38.93147066666667, "rental_uris": {"ios": "https://dc.lft.to/lastmile_qr_scan", "android": "https://dc.lft.to/lastmile_qr_scan"}, "is_reserved": 0, "fusion_lon": 0.0, "fusion_lat": 0.0, "lon": -77.03356333333333, "name": "28bd501371df68b81ddaf287f4b2f52b"}, {"bike_id": "24a0bfa7a559316a9a86d8e9fe813e20", "type": "electric_scooter", "is_disabled": 0, "lat": 38.917925, "rental_uris": {"ios": "https://dc.lft.to/lastmile_qr_scan", "android": "https://dc.lft.to/lastmile_qr_scan"}, "is_reserved": 0, "fusion_lon": 0.0, "fusion_lat": 0.0, "lon": -77.0230955, "name": "24a0bfa7a559316a9a86d8e9fe813e20"}, {"bike_id": "5982081579de4a8aac2b5bdc933fc270", "type": "electric_scooter", "is_disabled": 0, "lat": 38.9176145, "rental_uris": {"ios": "https://dc.lft.to/lastmile_qr_scan", "android": "https://dc.lft.to/lastmile_qr_scan"}, "is_reserved": 0, "fusion_lon": 0.0, "fusion_lat": 0.0, "lon": -77.04766366666666, "name": "5982081579de4a8aac2b5bdc933fc270"}, {"bike_id": "c4f1d5ff2822a127a16ade78ad02f318", "type": "electric_scooter", "is_disabled": 0, "lat": 38.9169745, "rental_uris": {"ios": "https://dc.lft.to/lastmile_qr_scan", "android": "https://dc.lft.to/lastmile_qr_scan"}, "is_reserved": 0, "fusion_lon": 0.0, "fusion_lat": 0.0, "lon": -77.02357633333334, "name": "c4f1d5ff2822a127a16ade78ad02f318"}, {"bike_id": "7eb7c175d61359537ccc12406746fd51", "type": "electric_scooter", "is_disabled": 0, "lat": 38.91353766666667, "rental_uris": {"ios": "https://dc.lft.to/lastmile_qr_scan", "android": "https://dc.lft.to/lastmile_qr_scan"}, "is_reserved": 0, "fusion_lon": 0.0, "fusion_lat": 0.0, "lon": -77.02564966666667, "name": "7eb7c175d61359537ccc12406746fd51"}, {"bike_id": "9cbb455f52dca1ec417b78e6da60f834", "type": "electric_scooter", "is_disabled": 0, "lat": 38.924787333333335, "rental_uris": {"ios": "https://dc.lft.to/lastmile_qr_scan", "android": "https://dc.lft.to/lastmile_qr_scan"}, "is_reserved": 0, "fusion_lon": 0.0, "fusion_lat": 0.0, "lon": -77.02634283333333, "name": "9cbb455f52dca1ec417b78e6da60f834"}, {"bike_id": "ecd0bc98ebd52dbfd7a12c4d5159332f", "type": "electric_bike", "is_disabled": 0, "lat": 38.86256683333333, "rental_uris": {"ios": "https://dc.lft.to/lastmile_qr_scan", "android": "https://dc.lft.to/lastmile_qr_scan"}, "is_reserved": 0, "fusion_lon": 0.0, "fusion_lat": 0.0, "lon": -76.9834745, "name": "ecd0bc98ebd52dbfd7a12c4d5159332f"}, {"bike_id": "06db3738f6b7c73ffbc998b4c26512b6", "type": "electric_scooter", "is_disabled": 0, "lat": 38.9089085, "rental_uris": {"ios": "https://dc.lft.to/lastmile_qr_scan", "android": "https://dc.lft.to/lastmile_qr_scan"}, "is_reserved": 0, "fusion_lon": 0.0, "fusion_lat": 0.0, "lon": -77.0030575, "name": "06db3738f6b7c73ffbc998b4c26512b6"}, {"bike_id": "1ec85e89287f2d4cf5b66669b4eac204", "type": "electric_scooter", "is_disabled": 0, "lat": 38.937491666666666, "rental_uris": {"ios": "https://dc.lft.to/lastmile_qr_scan", "android": "https://dc.lft.to/lastmile_qr_scan"}, "is_reserved": 0, "fusion_lon": 0.0, "fusion_lat": 0.0, "lon": -77.0240045, "name": "1ec85e89287f2d4cf5b66669b4eac204"}, {"bike_id": "7024e36ffcd1591130daba1f2e39e93a", "type": "electric_scooter", "is_disabled": 0, "lat": 38.914009166666666, "rental_uris": {"ios": "https://dc.lft.to/lastmile_qr_scan", "android": "https://dc.lft.to/lastmile_qr_scan"}, "is_reserved": 0, "fusion_lon": 0.0, "fusion_lat": 0.0, "lon": -77.017955, "name": "7024e36ffcd1591130daba1f2e39e93a"}, {"bike_id": "729d764cc5bfc377e5ab5b3e9e433507", "type": "electric_scooter", "is_disabled": 0, "lat": 38.9127005, "rental_uris": {"ios": "https://dc.lft.to/lastmile_qr_scan", "android": "https://dc.lft.to/lastmile_qr_scan"}, "is_reserved": 0, "fusion_lon": 0.0, "fusion_lat": 0.0, "lon": -77.02214266666667, "name": "729d764cc5bfc377e5ab5b3e9e433507"}, {"bike_id": "96022c4e5a85d10cfc57285de5761cc6", "type": "electric_scooter", "is_disabled": 0, "lat": 38.92859216666667, "rental_uris": {"ios": "https://dc.lft.to/lastmile_qr_scan", "android": "https://dc.lft.to/lastmile_qr_scan"}, "is_reserved": 0, "fusion_lon": 0.0, "fusion_lat": 0.0, "lon": -77.037062, "name": "96022c4e5a85d10cfc57285de5761cc6"}, {"bike_id": "a9684f04a15c9c6bbc231be8cbbb9ef1", "type": "electric_scooter", "is_disabled": 0, "lat": 38.91270033333333, "rental_uris": {"ios": "https://dc.lft.to/lastmile_qr_scan", "android": "https://dc.lft.to/lastmile_qr_scan"}, "is_reserved": 0, "fusion_lon": 0.0, "fusion_lat": 0.0, "lon": -77.02208333333333, "name": "a9684f04a15c9c6bbc231be8cbbb9ef1"}, {"bike_id": "f7c9d81160f3c6fe0eca1de84cf889c3", "type": "electric_scooter", "is_disabled": 0, "lat": 38.921955833333335, "rental_uris": {"ios": "https://dc.lft.to/lastmile_qr_scan", "android": "https://dc.lft.to/lastmile_qr_scan"}, "is_reserved": 0, "fusion_lon": 0.0, "fusion_lat": 0.0, "lon": -77.03804166666667, "name": "f7c9d81160f3c6fe0eca1de84cf889c3"}, {"bike_id": "dd9ef7f100ecb2e2c599e0288dd2d910", "type": "electric_scooter", "is_disabled": 0, "lat": 38.91816766666667, "rental_uris": {"ios": "https://dc.lft.to/lastmile_qr_scan", "android": "https://dc.lft.to/lastmile_qr_scan"}, "is_reserved": 0, "fusion_lon": 0.0, "fusion_lat": 0.0, "lon": -77.00255666666666, "name": "dd9ef7f100ecb2e2c599e0288dd2d910"}, {"bike_id": "bfbdc2d972776af7631cdbbd67862091", "type": "electric_scooter", "is_disabled": 0, "lat": 38.91419466666667, "rental_uris": {"ios": "https://dc.lft.to/lastmile_qr_scan", "android": "https://dc.lft.to/lastmile_qr_scan"}, "is_reserved": 0, "fusion_lon": 0.0, "fusion_lat": 0.0, "lon": -77.02298983333333, "name": "bfbdc2d972776af7631cdbbd67862091"}, {"bike_id": "04d834585f43fad3fb93aa217b6c9e8c", "type": "electric_scooter", "is_disabled": 0, "lat": 38.919911166666665, "rental_uris": {"ios": "https://dc.lft.to/lastmile_qr_scan", "android": "https://dc.lft.to/lastmile_qr_scan"}, "is_reserved": 0, "fusion_lon": 0.0, "fusion_lat": 0.0, "lon": -77.03961566666666, "name": "04d834585f43fad3fb93aa217b6c9e8c"}, {"bike_id": "a6195d5f7c420c787c79e797797488b6", "type": "electric_scooter", "is_disabled": 0, "lat": 38.896709333333334, "rental_uris": {"ios": "https://dc.lft.to/lastmile_qr_scan", "android": "https://dc.lft.to/lastmile_qr_scan"}, "is_reserved": 0, "fusion_lon": 0.0, "fusion_lat": 0.0, "lon": -76.9881265, "name": "a6195d5f7c420c787c79e797797488b6"}, {"bike_id": "d0f78a8c0bed5b8fc2dfa87c7c1df797", "type": "electric_scooter", "is_disabled": 0, "lat": 38.91914833333333, "rental_uris": {"ios": "https://dc.lft.to/lastmile_qr_scan", "android": "https://dc.lft.to/lastmile_qr_scan"}, "is_reserved": 0, "fusion_lon": 0.0, "fusion_lat": 0.0, "lon": -77.04470966666666, "name": "d0f78a8c0bed5b8fc2dfa87c7c1df797"}, {"bike_id": "553dd004c59b07112322ccf22f3011b2", "type": "electric_scooter", "is_disabled": 0, "lat": 38.90814783333333, "rental_uris": {"ios": "https://dc.lft.to/lastmile_qr_scan", "android": "https://dc.lft.to/lastmile_qr_scan"}, "is_reserved": 0, "fusion_lon": 0.0, "fusion_lat": 0.0, "lon": -77.03655283333333, "name": "553dd004c59b07112322ccf22f3011b2"}, {"bike_id": "60f4485805d4c0ed1bcf058354267ace", "type": "electric_scooter", "is_disabled": 0, "lat": 38.90971183333333, "rental_uris": {"ios": "https://dc.lft.to/lastmile_qr_scan", "android": "https://dc.lft.to/lastmile_qr_scan"}, "is_reserved": 0, "fusion_lon": 0.0, "fusion_lat": 0.0, "lon": -77.03864433333334, "name": "60f4485805d4c0ed1bcf058354267ace"}, {"bike_id": "548a87f38ebc2db428b745774e834f2e", "type": "electric_scooter", "is_disabled": 0, "lat": 38.91064766666667, "rental_uris": {"ios": "https://dc.lft.to/lastmile_qr_scan", "android": "https://dc.lft.to/lastmile_qr_scan"}, "is_reserved": 0, "fusion_lon": 0.0, "fusion_lat": 0.0, "lon": -77.05277666666667, "name": "548a87f38ebc2db428b745774e834f2e"}, {"bike_id": "8366c6b086dc393cefc64dc465598b73", "type": "electric_scooter", "is_disabled": 0, "lat": 38.92413616666666, "rental_uris": {"ios": "https://dc.lft.to/lastmile_qr_scan", "android": "https://dc.lft.to/lastmile_qr_scan"}, "is_reserved": 0, "fusion_lon": 0.0, "fusion_lat": 0.0, "lon": -77.0363595, "name": "8366c6b086dc393cefc64dc465598b73"}, {"bike_id": "f8fb5095175a77c0f4d78594d78e91a3", "type": "electric_scooter", "is_disabled": 0, "lat": 38.892002, "rental_uris": {"ios": "https://dc.lft.to/lastmile_qr_scan", "android": "https://dc.lft.to/lastmile_qr_scan"}, "is_reserved": 0, "fusion_lon": 0.0, "fusion_lat": 0.0, "lon": -77.00224333333334, "name": "f8fb5095175a77c0f4d78594d78e91a3"}, {"bike_id": "1291c4ca0a47ffc90457ecc6c87c3e02", "type": "electric_scooter", "is_disabled": 0, "lat": 38.91717716666667, "rental_uris": {"ios": "https://dc.lft.to/lastmile_qr_scan", "android": "https://dc.lft.to/lastmile_qr_scan"}, "is_reserved": 0, "fusion_lon": 0.0, "fusion_lat": 0.0, "lon": -77.04606466666667, "name": "1291c4ca0a47ffc90457ecc6c87c3e02"}, {"bike_id": "aff98a582e822a8af2bd5167a9f0d7ec", "type": "electric_scooter", "is_disabled": 0, "lat": 38.87795633333333, "rental_uris": {"ios": "https://dc.lft.to/lastmile_qr_scan", "android": "https://dc.lft.to/lastmile_qr_scan"}, "is_reserved": 0, "fusion_lon": 0.0, "fusion_lat": 0.0, "lon": -77.017568, "name": "aff98a582e822a8af2bd5167a9f0d7ec"}, {"bike_id": "47775152e945561570d3ecae75ea1cc6", "type": "electric_scooter", "is_disabled": 0, "lat": 38.96602383333333, "rental_uris": {"ios": "https://dc.lft.to/lastmile_qr_scan", "android": "https://dc.lft.to/lastmile_qr_scan"}, "is_reserved": 0, "fusion_lon": 0.0, "fusion_lat": 0.0, "lon": -77.01974083333333, "name": "47775152e945561570d3ecae75ea1cc6"}, {"bike_id": "06124967eb08efebbfcda03075f3042b", "type": "electric_scooter", "is_disabled": 0, "lat": 38.914213, "rental_uris": {"ios": "https://dc.lft.to/lastmile_qr_scan", "android": "https://dc.lft.to/lastmile_qr_scan"}, "is_reserved": 0, "fusion_lon": 0.0, "fusion_lat": 0.0, "lon": -77.0219835, "name": "06124967eb08efebbfcda03075f3042b"}, {"bike_id": "de9c022616ea0683cfcf71b2ad2b5e18", "type": "electric_scooter", "is_disabled": 0, "lat": 38.92045133333333, "rental_uris": {"ios": "https://dc.lft.to/lastmile_qr_scan", "android": "https://dc.lft.to/lastmile_qr_scan"}, "is_reserved": 0, "fusion_lon": 0.0, "fusion_lat": 0.0, "lon": -77.0346545, "name": "de9c022616ea0683cfcf71b2ad2b5e18"}, {"bike_id": "050fa38d8d4e3dff0acb63fe037dd2ee", "type": "electric_scooter", "is_disabled": 0, "lat": 38.91568483333333, "rental_uris": {"ios": "https://dc.lft.to/lastmile_qr_scan", "android": "https://dc.lft.to/lastmile_qr_scan"}, "is_reserved": 0, "fusion_lon": 0.0, "fusion_lat": 0.0, "lon": -77.02413166666666, "name": "050fa38d8d4e3dff0acb63fe037dd2ee"}, {"bike_id": "05794bb0d587e8ebfb1bc12d18afdde3", "type": "electric_scooter", "is_disabled": 0, "lat": 38.9318315, "rental_uris": {"ios": "https://dc.lft.to/lastmile_qr_scan", "android": "https://dc.lft.to/lastmile_qr_scan"}, "is_reserved": 0, "fusion_lon": 0.0, "fusion_lat": 0.0, "lon": -77.03155733333334, "name": "05794bb0d587e8ebfb1bc12d18afdde3"}, {"bike_id": "792a5807741878976d5665ff53759e33", "type": "electric_scooter", "is_disabled": 0, "lat": 38.901118, "rental_uris": {"ios": "https://dc.lft.to/lastmile_qr_scan", "android": "https://dc.lft.to/lastmile_qr_scan"}, "is_reserved": 0, "fusion_lon": 0.0, "fusion_lat": 0.0, "lon": -77.05008466666666, "name": "792a5807741878976d5665ff53759e33"}, {"bike_id": "6f74e5da1a2dd22f2fb98bb3325e90b1", "type": "electric_scooter", "is_disabled": 0, "lat": 38.923656, "rental_uris": {"ios": "https://dc.lft.to/lastmile_qr_scan", "android": "https://dc.lft.to/lastmile_qr_scan"}, "is_reserved": 0, "fusion_lon": 0.0, "fusion_lat": 0.0, "lon": -77.050468, "name": "6f74e5da1a2dd22f2fb98bb3325e90b1"}, {"bike_id": "997a0f8a89b5192ff9055ef483540b92", "type": "electric_scooter", "is_disabled": 0, "lat": 38.916994, "rental_uris": {"ios": "https://dc.lft.to/lastmile_qr_scan", "android": "https://dc.lft.to/lastmile_qr_scan"}, "is_reserved": 0, "fusion_lon": 0.0, "fusion_lat": 0.0, "lon": -77.02866333333333, "name": "997a0f8a89b5192ff9055ef483540b92"}, {"bike_id": "a5daa85bd91f6f00036e73efd9aa61f4", "type": "electric_scooter", "is_disabled": 0, "lat": 38.9057785, "rental_uris": {"ios": "https://dc.lft.to/lastmile_qr_scan", "android": "https://dc.lft.to/lastmile_qr_scan"}, "is_reserved": 0, "fusion_lon": 0.0, "fusion_lat": 0.0, "lon": -76.98425316666666, "name": "a5daa85bd91f6f00036e73efd9aa61f4"}, {"bike_id": "d072ef8b90bfb22238320ec6f30cc7ce", "type": "electric_scooter", "is_disabled": 0, "lat": 38.93918566666667, "rental_uris": {"ios": "https://dc.lft.to/lastmile_qr_scan", "android": "https://dc.lft.to/lastmile_qr_scan"}, "is_reserved": 0, "fusion_lon": 0.0, "fusion_lat": 0.0, "lon": -77.06043716666667, "name": "d072ef8b90bfb22238320ec6f30cc7ce"}, {"bike_id": "1377bbf17044e03066f95076ebf25d1a", "type": "electric_scooter", "is_disabled": 0, "lat": 38.915537666666665, "rental_uris": {"ios": "https://dc.lft.to/lastmile_qr_scan", "android": "https://dc.lft.to/lastmile_qr_scan"}, "is_reserved": 0, "fusion_lon": 0.0, "fusion_lat": 0.0, "lon": -77.0317935, "name": "1377bbf17044e03066f95076ebf25d1a"}, {"bike_id": "9c6665cad1deb31a459cee22b1b657f0", "type": "electric_scooter", "is_disabled": 0, "lat": 38.94204383333334, "rental_uris": {"ios": "https://dc.lft.to/lastmile_qr_scan", "android": "https://dc.lft.to/lastmile_qr_scan"}, "is_reserved": 0, "fusion_lon": 0.0, "fusion_lat": 0.0, "lon": -77.01731616666666, "name": "9c6665cad1deb31a459cee22b1b657f0"}, {"bike_id": "111ae58c6b5acc609b29ed7ec5848041", "type": "electric_bike", "is_disabled": 0, "lat": 38.8729395, "rental_uris": {"ios": "https://dc.lft.to/lastmile_qr_scan", "android": "https://dc.lft.to/lastmile_qr_scan"}, "is_reserved": 0, "fusion_lon": 0.0, "fusion_lat": 0.0, "lon": -77.13936066666666, "name": "111ae58c6b5acc609b29ed7ec5848041"}, {"bike_id": "0918f4949b04e8aed9b064304b360482", "type": "electric_scooter", "is_disabled": 0, "lat": 38.8812265, "rental_uris": {"ios": "https://dc.lft.to/lastmile_qr_scan", "android": "https://dc.lft.to/lastmile_qr_scan"}, "is_reserved": 0, "fusion_lon": 0.0, "fusion_lat": 0.0, "lon": -77.0166615, "name": "0918f4949b04e8aed9b064304b360482"}, {"bike_id": "179e9f38b3ecfd433f684847db507e5a", "type": "electric_scooter", "is_disabled": 0, "lat": 38.88473833333333, "rental_uris": {"ios": "https://dc.lft.to/lastmile_qr_scan", "android": "https://dc.lft.to/lastmile_qr_scan"}, "is_reserved": 0, "fusion_lon": 0.0, "fusion_lat": 0.0, "lon": -76.98210166666667, "name": "179e9f38b3ecfd433f684847db507e5a"}, {"bike_id": "01a8f3fa59ab140c462e6de2f7d6c4c4", "type": "electric_scooter", "is_disabled": 0, "lat": 38.920766, "rental_uris": {"ios": "https://dc.lft.to/lastmile_qr_scan", "android": "https://dc.lft.to/lastmile_qr_scan"}, "is_reserved": 0, "fusion_lon": 0.0, "fusion_lat": 0.0, "lon": -77.02837433333333, "name": "01a8f3fa59ab140c462e6de2f7d6c4c4"}, {"bike_id": "b497d2c81a11f2ee6d33c3ffdfd3a331", "type": "electric_scooter", "is_disabled": 0, "lat": 38.9163295, "rental_uris": {"ios": "https://dc.lft.to/lastmile_qr_scan", "android": "https://dc.lft.to/lastmile_qr_scan"}, "is_reserved": 0, "fusion_lon": 0.0, "fusion_lat": 0.0, "lon": -77.02551033333333, "name": "b497d2c81a11f2ee6d33c3ffdfd3a331"}, {"bike_id": "4cd43d22f0c391aafebc1bd2a45db513", "type": "electric_scooter", "is_disabled": 0, "lat": 38.92026083333333, "rental_uris": {"ios": "https://dc.lft.to/lastmile_qr_scan", "android": "https://dc.lft.to/lastmile_qr_scan"}, "is_reserved": 0, "fusion_lon": 0.0, "fusion_lat": 0.0, "lon": -77.01317766666666, "name": "4cd43d22f0c391aafebc1bd2a45db513"}, {"bike_id": "0b387a9decc9737955ab66cf653e1000", "type": "electric_scooter", "is_disabled": 0, "lat": 38.916265333333335, "rental_uris": {"ios": "https://dc.lft.to/lastmile_qr_scan", "android": "https://dc.lft.to/lastmile_qr_scan"}, "is_reserved": 0, "fusion_lon": 0.0, "fusion_lat": 0.0, "lon": -77.04015633333333, "name": "0b387a9decc9737955ab66cf653e1000"}, {"bike_id": "d8223d63dbcb8d8b380267c9143e7e3c", "type": "electric_scooter", "is_disabled": 0, "lat": 38.91676966666667, "rental_uris": {"ios": "https://dc.lft.to/lastmile_qr_scan", "android": "https://dc.lft.to/lastmile_qr_scan"}, "is_reserved": 0, "fusion_lon": 0.0, "fusion_lat": 0.0, "lon": -77.0296105, "name": "d8223d63dbcb8d8b380267c9143e7e3c"}, {"bike_id": "3bbc913b92f318586c7f3a1b99e5c08d", "type": "electric_scooter", "is_disabled": 0, "lat": 38.958579666666665, "rental_uris": {"ios": "https://dc.lft.to/lastmile_qr_scan", "android": "https://dc.lft.to/lastmile_qr_scan"}, "is_reserved": 0, "fusion_lon": 0.0, "fusion_lat": 0.0, "lon": -77.027911, "name": "3bbc913b92f318586c7f3a1b99e5c08d"}, {"bike_id": "d24c2307a516b7a9b06a73dcc57c80ef", "type": "electric_scooter", "is_disabled": 0, "lat": 38.936007333333336, "rental_uris": {"ios": "https://dc.lft.to/lastmile_qr_scan", "android": "https://dc.lft.to/lastmile_qr_scan"}, "is_reserved": 0, "fusion_lon": 0.0, "fusion_lat": 0.0, "lon": -77.05598016666667, "name": "d24c2307a516b7a9b06a73dcc57c80ef"}, {"bike_id": "3f8b520fadbcde83c6878706c497315a", "type": "electric_scooter", "is_disabled": 0, "lat": 38.908123, "rental_uris": {"ios": "https://dc.lft.to/lastmile_qr_scan", "android": "https://dc.lft.to/lastmile_qr_scan"}, "is_reserved": 0, "fusion_lon": 0.0, "fusion_lat": 0.0, "lon": -77.030644, "name": "3f8b520fadbcde83c6878706c497315a"}, {"bike_id": "f32991aa4127bb9c1cd3cb34ab08d6cd", "type": "electric_scooter", "is_disabled": 0, "lat": 38.93079683333333, "rental_uris": {"ios": "https://dc.lft.to/lastmile_qr_scan", "android": "https://dc.lft.to/lastmile_qr_scan"}, "is_reserved": 0, "fusion_lon": 0.0, "fusion_lat": 0.0, "lon": -77.03733233333334, "name": "f32991aa4127bb9c1cd3cb34ab08d6cd"}, {"bike_id": "078f2012cbbf84edac4fca50ddb56064", "type": "electric_scooter", "is_disabled": 0, "lat": 38.92813733333333, "rental_uris": {"ios": "https://dc.lft.to/lastmile_qr_scan", "android": "https://dc.lft.to/lastmile_qr_scan"}, "is_reserved": 0, "fusion_lon": 0.0, "fusion_lat": 0.0, "lon": -77.02803366666667, "name": "078f2012cbbf84edac4fca50ddb56064"}, {"bike_id": "7bb52fcc42ce56047ef21fc39dff851b", "type": "electric_scooter", "is_disabled": 0, "lat": 38.94257666666667, "rental_uris": {"ios": "https://dc.lft.to/lastmile_qr_scan", "android": "https://dc.lft.to/lastmile_qr_scan"}, "is_reserved": 0, "fusion_lon": 0.0, "fusion_lat": 0.0, "lon": -77.025268, "name": "7bb52fcc42ce56047ef21fc39dff851b"}, {"bike_id": "c2e872deb063ee88ae248d161384ee09", "type": "electric_scooter", "is_disabled": 0, "lat": 38.9149505, "rental_uris": {"ios": "https://dc.lft.to/lastmile_qr_scan", "android": "https://dc.lft.to/lastmile_qr_scan"}, "is_reserved": 0, "fusion_lon": 0.0, "fusion_lat": 0.0, "lon": -77.02179883333334, "name": "c2e872deb063ee88ae248d161384ee09"}, {"bike_id": "dc08b54b0148c8120ede6fdebff5b64e", "type": "electric_scooter", "is_disabled": 0, "lat": 38.9080885, "rental_uris": {"ios": "https://dc.lft.to/lastmile_qr_scan", "android": "https://dc.lft.to/lastmile_qr_scan"}, "is_reserved": 0, "fusion_lon": 0.0, "fusion_lat": 0.0, "lon": -77.03450216666667, "name": "dc08b54b0148c8120ede6fdebff5b64e"}, {"bike_id": "b16cf74ed8ccb58b402d5885daa429ec", "type": "electric_scooter", "is_disabled": 0, "lat": 38.95189083333333, "rental_uris": {"ios": "https://dc.lft.to/lastmile_qr_scan", "android": "https://dc.lft.to/lastmile_qr_scan"}, "is_reserved": 0, "fusion_lon": 0.0, "fusion_lat": 0.0, "lon": -77.02612566666667, "name": "b16cf74ed8ccb58b402d5885daa429ec"}, {"bike_id": "a142495243cedfa6b2cbdbf5c8a7f251", "type": "electric_scooter", "is_disabled": 0, "lat": 38.9080255, "rental_uris": {"ios": "https://dc.lft.to/lastmile_qr_scan", "android": "https://dc.lft.to/lastmile_qr_scan"}, "is_reserved": 0, "fusion_lon": 0.0, "fusion_lat": 0.0, "lon": -77.03652533333333, "name": "a142495243cedfa6b2cbdbf5c8a7f251"}, {"bike_id": "2395ae87ed98b6ae3e525d9069d490ab", "type": "electric_scooter", "is_disabled": 0, "lat": 38.89916516666667, "rental_uris": {"ios": "https://dc.lft.to/lastmile_qr_scan", "android": "https://dc.lft.to/lastmile_qr_scan"}, "is_reserved": 0, "fusion_lon": 0.0, "fusion_lat": 0.0, "lon": -76.93366116666667, "name": "2395ae87ed98b6ae3e525d9069d490ab"}, {"bike_id": "a2d7302f015c6d340b091174c832a72d", "type": "electric_scooter", "is_disabled": 0, "lat": 38.88281683333334, "rental_uris": {"ios": "https://dc.lft.to/lastmile_qr_scan", "android": "https://dc.lft.to/lastmile_qr_scan"}, "is_reserved": 0, "fusion_lon": 0.0, "fusion_lat": 0.0, "lon": -76.9877385, "name": "a2d7302f015c6d340b091174c832a72d"}, {"bike_id": "6c6996e6be4f176d407e3267b54adc25", "type": "electric_scooter", "is_disabled": 0, "lat": 38.90420433333333, "rental_uris": {"ios": "https://dc.lft.to/lastmile_qr_scan", "android": "https://dc.lft.to/lastmile_qr_scan"}, "is_reserved": 0, "fusion_lon": 0.0, "fusion_lat": 0.0, "lon": -76.99074816666666, "name": "6c6996e6be4f176d407e3267b54adc25"}, {"bike_id": "068ce3a0a9edf703fc034589c0dd10a3", "type": "electric_scooter", "is_disabled": 0, "lat": 38.90076066666666, "rental_uris": {"ios": "https://dc.lft.to/lastmile_qr_scan", "android": "https://dc.lft.to/lastmile_qr_scan"}, "is_reserved": 0, "fusion_lon": 0.0, "fusion_lat": 0.0, "lon": -76.92731983333333, "name": "068ce3a0a9edf703fc034589c0dd10a3"}, {"bike_id": "d8d1c06439d0bc926f4aa923778fbda8", "type": "electric_scooter", "is_disabled": 0, "lat": 38.920252833333336, "rental_uris": {"ios": "https://dc.lft.to/lastmile_qr_scan", "android": "https://dc.lft.to/lastmile_qr_scan"}, "is_reserved": 0, "fusion_lon": 0.0, "fusion_lat": 0.0, "lon": -77.02382716666666, "name": "d8d1c06439d0bc926f4aa923778fbda8"}, {"bike_id": "74569abb0ef840bbd451ede4bd840bd8", "type": "electric_scooter", "is_disabled": 0, "lat": 38.88988766666667, "rental_uris": {"ios": "https://dc.lft.to/lastmile_qr_scan", "android": "https://dc.lft.to/lastmile_qr_scan"}, "is_reserved": 0, "fusion_lon": 0.0, "fusion_lat": 0.0, "lon": -77.0011785, "name": "74569abb0ef840bbd451ede4bd840bd8"}, {"bike_id": "1edbe496bc3dd34ae0b7465998800c97", "type": "electric_scooter", "is_disabled": 0, "lat": 38.917895666666666, "rental_uris": {"ios": "https://dc.lft.to/lastmile_qr_scan", "android": "https://dc.lft.to/lastmile_qr_scan"}, "is_reserved": 0, "fusion_lon": 0.0, "fusion_lat": 0.0, "lon": -77.04058316666666, "name": "1edbe496bc3dd34ae0b7465998800c97"}, {"bike_id": "4b941e111e157f1e77037bc10712a204", "type": "electric_scooter", "is_disabled": 0, "lat": 38.903993, "rental_uris": {"ios": "https://dc.lft.to/lastmile_qr_scan", "android": "https://dc.lft.to/lastmile_qr_scan"}, "is_reserved": 0, "fusion_lon": 0.0, "fusion_lat": 0.0, "lon": -77.0676115, "name": "4b941e111e157f1e77037bc10712a204"}, {"bike_id": "5541b426a88fd9edb8ab4e1f5ba076a9", "type": "electric_scooter", "is_disabled": 0, "lat": 38.913484833333335, "rental_uris": {"ios": "https://dc.lft.to/lastmile_qr_scan", "android": "https://dc.lft.to/lastmile_qr_scan"}, "is_reserved": 0, "fusion_lon": 0.0, "fusion_lat": 0.0, "lon": -77.03207116666667, "name": "5541b426a88fd9edb8ab4e1f5ba076a9"}, {"bike_id": "e41288b8ed454300bd3da0a77eab39e0", "type": "electric_scooter", "is_disabled": 0, "lat": 38.90561, "rental_uris": {"ios": "https://dc.lft.to/lastmile_qr_scan", "android": "https://dc.lft.to/lastmile_qr_scan"}, "is_reserved": 0, "fusion_lon": 0.0, "fusion_lat": 0.0, "lon": -77.00688866666667, "name": "e41288b8ed454300bd3da0a77eab39e0"}, {"bike_id": "146850a811d0be4991a57f63bf0a1aa8", "type": "electric_scooter", "is_disabled": 0, "lat": 38.91812066666667, "rental_uris": {"ios": "https://dc.lft.to/lastmile_qr_scan", "android": "https://dc.lft.to/lastmile_qr_scan"}, "is_reserved": 0, "fusion_lon": 0.0, "fusion_lat": 0.0, "lon": -77.0317525, "name": "146850a811d0be4991a57f63bf0a1aa8"}, {"bike_id": "085c623330bf1d04b78bb9950f2a1c66", "type": "electric_scooter", "is_disabled": 0, "lat": 38.91838683333334, "rental_uris": {"ios": "https://dc.lft.to/lastmile_qr_scan", "android": "https://dc.lft.to/lastmile_qr_scan"}, "is_reserved": 0, "fusion_lon": 0.0, "fusion_lat": 0.0, "lon": -77.02516966666667, "name": "085c623330bf1d04b78bb9950f2a1c66"}, {"bike_id": "0b4c5275d45994a0f62be221ce1d0c7d", "type": "electric_scooter", "is_disabled": 0, "lat": 38.908339, "rental_uris": {"ios": "https://dc.lft.to/lastmile_qr_scan", "android": "https://dc.lft.to/lastmile_qr_scan"}, "is_reserved": 0, "fusion_lon": 0.0, "fusion_lat": 0.0, "lon": -77.02705583333334, "name": "0b4c5275d45994a0f62be221ce1d0c7d"}, {"bike_id": "0769bfef162c222149d545678885f2dc", "type": "electric_scooter", "is_disabled": 0, "lat": 38.917805666666666, "rental_uris": {"ios": "https://dc.lft.to/lastmile_qr_scan", "android": "https://dc.lft.to/lastmile_qr_scan"}, "is_reserved": 0, "fusion_lon": 0.0, "fusion_lat": 0.0, "lon": -77.0365415, "name": "0769bfef162c222149d545678885f2dc"}, {"bike_id": "b0b9ffcc3cb86791c62b31ed827513d5", "type": "electric_scooter", "is_disabled": 0, "lat": 38.9572795, "rental_uris": {"ios": "https://dc.lft.to/lastmile_qr_scan", "android": "https://dc.lft.to/lastmile_qr_scan"}, "is_reserved": 0, "fusion_lon": 0.0, "fusion_lat": 0.0, "lon": -77.0239695, "name": "b0b9ffcc3cb86791c62b31ed827513d5"}, {"bike_id": "a139d37643b7adec2d6f3a7cd7e67ef2", "type": "electric_scooter", "is_disabled": 0, "lat": 38.916342, "rental_uris": {"ios": "https://dc.lft.to/lastmile_qr_scan", "android": "https://dc.lft.to/lastmile_qr_scan"}, "is_reserved": 0, "fusion_lon": 0.0, "fusion_lat": 0.0, "lon": -77.0005435, "name": "a139d37643b7adec2d6f3a7cd7e67ef2"}, {"bike_id": "97081976bf3c78fce80f33057c22ea70", "type": "electric_scooter", "is_disabled": 0, "lat": 38.910912833333335, "rental_uris": {"ios": "https://dc.lft.to/lastmile_qr_scan", "android": "https://dc.lft.to/lastmile_qr_scan"}, "is_reserved": 0, "fusion_lon": 0.0, "fusion_lat": 0.0, "lon": -77.02811416666667, "name": "97081976bf3c78fce80f33057c22ea70"}, {"bike_id": "9efe72fde14306005b7440e320d40217", "type": "electric_scooter", "is_disabled": 0, "lat": 38.918932166666664, "rental_uris": {"ios": "https://dc.lft.to/lastmile_qr_scan", "android": "https://dc.lft.to/lastmile_qr_scan"}, "is_reserved": 0, "fusion_lon": 0.0, "fusion_lat": 0.0, "lon": -77.03195816666667, "name": "9efe72fde14306005b7440e320d40217"}, {"bike_id": "6a627f8ba8808427436f786610454edb", "type": "electric_scooter", "is_disabled": 0, "lat": 38.9058795, "rental_uris": {"ios": "https://dc.lft.to/lastmile_qr_scan", "android": "https://dc.lft.to/lastmile_qr_scan"}, "is_reserved": 0, "fusion_lon": 0.0, "fusion_lat": 0.0, "lon": -77.04211066666667, "name": "6a627f8ba8808427436f786610454edb"}, {"bike_id": "6daa64bb485e501bfab6dff7a2f7885a", "type": "electric_scooter", "is_disabled": 0, "lat": 38.9277095, "rental_uris": {"ios": "https://dc.lft.to/lastmile_qr_scan", "android": "https://dc.lft.to/lastmile_qr_scan"}, "is_reserved": 0, "fusion_lon": 0.0, "fusion_lat": 0.0, "lon": -77.02916566666667, "name": "6daa64bb485e501bfab6dff7a2f7885a"}, {"bike_id": "48cb8fa64c0bc469ceb64791208e4a6b", "type": "electric_scooter", "is_disabled": 0, "lat": 38.90765733333333, "rental_uris": {"ios": "https://dc.lft.to/lastmile_qr_scan", "android": "https://dc.lft.to/lastmile_qr_scan"}, "is_reserved": 0, "fusion_lon": 0.0, "fusion_lat": 0.0, "lon": -77.07168016666667, "name": "48cb8fa64c0bc469ceb64791208e4a6b"}, {"bike_id": "2a11bca6e74bb8b14f4c8ea1f7fe0eef", "type": "electric_scooter", "is_disabled": 0, "lat": 38.90533, "rental_uris": {"ios": "https://dc.lft.to/lastmile_qr_scan", "android": "https://dc.lft.to/lastmile_qr_scan"}, "is_reserved": 0, "fusion_lon": 0.0, "fusion_lat": 0.0, "lon": -77.059047, "name": "2a11bca6e74bb8b14f4c8ea1f7fe0eef"}, {"bike_id": "66d0f54eaeab30a6cb2f944aadf6b6fb", "type": "electric_scooter", "is_disabled": 0, "lat": 38.9095245, "rental_uris": {"ios": "https://dc.lft.to/lastmile_qr_scan", "android": "https://dc.lft.to/lastmile_qr_scan"}, "is_reserved": 0, "fusion_lon": 0.0, "fusion_lat": 0.0, "lon": -77.02601233333333, "name": "66d0f54eaeab30a6cb2f944aadf6b6fb"}, {"bike_id": "315b6f388da0bd835308a91a4c1bdb9a", "type": "electric_scooter", "is_disabled": 0, "lat": 38.90815666666667, "rental_uris": {"ios": "https://dc.lft.to/lastmile_qr_scan", "android": "https://dc.lft.to/lastmile_qr_scan"}, "is_reserved": 0, "fusion_lon": 0.0, "fusion_lat": 0.0, "lon": -77.029725, "name": "315b6f388da0bd835308a91a4c1bdb9a"}, {"bike_id": "8184cd1d0fadabb02e0a5572cc86eb1f", "type": "electric_scooter", "is_disabled": 0, "lat": 38.91270033333333, "rental_uris": {"ios": "https://dc.lft.to/lastmile_qr_scan", "android": "https://dc.lft.to/lastmile_qr_scan"}, "is_reserved": 0, "fusion_lon": 0.0, "fusion_lat": 0.0, "lon": -77.01885033333333, "name": "8184cd1d0fadabb02e0a5572cc86eb1f"}, {"bike_id": "066cf2fec10ceb1b929ca97fe31940d7", "type": "electric_scooter", "is_disabled": 0, "lat": 38.89887133333333, "rental_uris": {"ios": "https://dc.lft.to/lastmile_qr_scan", "android": "https://dc.lft.to/lastmile_qr_scan"}, "is_reserved": 0, "fusion_lon": 0.0, "fusion_lat": 0.0, "lon": -76.93177133333333, "name": "066cf2fec10ceb1b929ca97fe31940d7"}, {"bike_id": "d219a46ffe14897a51549130786159ef", "type": "electric_scooter", "is_disabled": 0, "lat": 38.92756833333333, "rental_uris": {"ios": "https://dc.lft.to/lastmile_qr_scan", "android": "https://dc.lft.to/lastmile_qr_scan"}, "is_reserved": 0, "fusion_lon": 0.0, "fusion_lat": 0.0, "lon": -77.0284775, "name": "d219a46ffe14897a51549130786159ef"}, {"bike_id": "9e0c0d7c6564edb2870782f8752a9f08", "type": "electric_scooter", "is_disabled": 0, "lat": 38.89784233333334, "rental_uris": {"ios": "https://dc.lft.to/lastmile_qr_scan", "android": "https://dc.lft.to/lastmile_qr_scan"}, "is_reserved": 0, "fusion_lon": 0.0, "fusion_lat": 0.0, "lon": -77.0219735, "name": "9e0c0d7c6564edb2870782f8752a9f08"}, {"bike_id": "b5313492b75546b9152b2e04b584a203", "type": "electric_bike", "is_disabled": 0, "lat": 38.86616866666667, "rental_uris": {"ios": "https://dc.lft.to/lastmile_qr_scan", "android": "https://dc.lft.to/lastmile_qr_scan"}, "is_reserved": 0, "fusion_lon": 0.0, "fusion_lat": 0.0, "lon": -76.94567683333334, "name": "b5313492b75546b9152b2e04b584a203"}, {"bike_id": "66d194e5d950908affe838be1bf8603d", "type": "electric_scooter", "is_disabled": 0, "lat": 38.898523, "rental_uris": {"ios": "https://dc.lft.to/lastmile_qr_scan", "android": "https://dc.lft.to/lastmile_qr_scan"}, "is_reserved": 0, "fusion_lon": 0.0, "fusion_lat": 0.0, "lon": -76.99035133333334, "name": "66d194e5d950908affe838be1bf8603d"}, {"bike_id": "b09c714b87b74c745a5a270b867ee000", "type": "electric_scooter", "is_disabled": 0, "lat": 38.9204635, "rental_uris": {"ios": "https://dc.lft.to/lastmile_qr_scan", "android": "https://dc.lft.to/lastmile_qr_scan"}, "is_reserved": 0, "fusion_lon": 0.0, "fusion_lat": 0.0, "lon": -77.02402816666667, "name": "b09c714b87b74c745a5a270b867ee000"}, {"bike_id": "b996184ffdc109450a29a84f12087850", "type": "electric_scooter", "is_disabled": 0, "lat": 38.9291695, "rental_uris": {"ios": "https://dc.lft.to/lastmile_qr_scan", "android": "https://dc.lft.to/lastmile_qr_scan"}, "is_reserved": 0, "fusion_lon": 0.0, "fusion_lat": 0.0, "lon": -77.0208975, "name": "b996184ffdc109450a29a84f12087850"}, {"bike_id": "6e97aeb7c2e6a45f655807523f114491", "type": "electric_scooter", "is_disabled": 0, "lat": 38.905136166666665, "rental_uris": {"ios": "https://dc.lft.to/lastmile_qr_scan", "android": "https://dc.lft.to/lastmile_qr_scan"}, "is_reserved": 0, "fusion_lon": 0.0, "fusion_lat": 0.0, "lon": -77.06380766666666, "name": "6e97aeb7c2e6a45f655807523f114491"}, {"bike_id": "71b7a3f2ca3415f2cd885cc9f30effe0", "type": "electric_scooter", "is_disabled": 0, "lat": 38.916589333333334, "rental_uris": {"ios": "https://dc.lft.to/lastmile_qr_scan", "android": "https://dc.lft.to/lastmile_qr_scan"}, "is_reserved": 0, "fusion_lon": 0.0, "fusion_lat": 0.0, "lon": -76.97906983333333, "name": "71b7a3f2ca3415f2cd885cc9f30effe0"}, {"bike_id": "e22ef394733a18f49bed22ffd554dc60", "type": "electric_bike", "is_disabled": 0, "lat": 38.951766166666665, "rental_uris": {"ios": "https://dc.lft.to/lastmile_qr_scan", "android": "https://dc.lft.to/lastmile_qr_scan"}, "is_reserved": 0, "fusion_lon": 0.0, "fusion_lat": 0.0, "lon": -76.977305, "name": "e22ef394733a18f49bed22ffd554dc60"}, {"bike_id": "1863bbd9b6e19373a8363192fac94e76", "type": "electric_scooter", "is_disabled": 0, "lat": 38.9005355, "rental_uris": {"ios": "https://dc.lft.to/lastmile_qr_scan", "android": "https://dc.lft.to/lastmile_qr_scan"}, "is_reserved": 0, "fusion_lon": 0.0, "fusion_lat": 0.0, "lon": -77.017317, "name": "1863bbd9b6e19373a8363192fac94e76"}, {"bike_id": "205239348b1fc8a398a50c1bcd7050e9", "type": "electric_scooter", "is_disabled": 0, "lat": 38.94897433333333, "rental_uris": {"ios": "https://dc.lft.to/lastmile_qr_scan", "android": "https://dc.lft.to/lastmile_qr_scan"}, "is_reserved": 0, "fusion_lon": 0.0, "fusion_lat": 0.0, "lon": -77.020596, "name": "205239348b1fc8a398a50c1bcd7050e9"}, {"bike_id": "1dda2c420ccda0bf4a70971e79262243", "type": "electric_scooter", "is_disabled": 0, "lat": 38.924888, "rental_uris": {"ios": "https://dc.lft.to/lastmile_qr_scan", "android": "https://dc.lft.to/lastmile_qr_scan"}, "is_reserved": 0, "fusion_lon": 0.0, "fusion_lat": 0.0, "lon": -77.03178483333333, "name": "1dda2c420ccda0bf4a70971e79262243"}, {"bike_id": "55514fc34e62b054a1efb21a6852537f", "type": "electric_bike", "is_disabled": 0, "lat": 38.9877135, "rental_uris": {"ios": "https://dc.lft.to/lastmile_qr_scan", "android": "https://dc.lft.to/lastmile_qr_scan"}, "is_reserved": 0, "fusion_lon": 0.0, "fusion_lat": 0.0, "lon": -77.14052783333334, "name": "55514fc34e62b054a1efb21a6852537f"}, {"bike_id": "710dcbb828cc34f77450f8109c4ed960", "type": "electric_scooter", "is_disabled": 0, "lat": 38.929616833333334, "rental_uris": {"ios": "https://dc.lft.to/lastmile_qr_scan", "android": "https://dc.lft.to/lastmile_qr_scan"}, "is_reserved": 0, "fusion_lon": 0.0, "fusion_lat": 0.0, "lon": -77.01145566666666, "name": "710dcbb828cc34f77450f8109c4ed960"}, {"bike_id": "2788ef7f934418839f775e73f45f8331", "type": "electric_scooter", "is_disabled": 0, "lat": 38.9232685, "rental_uris": {"ios": "https://dc.lft.to/lastmile_qr_scan", "android": "https://dc.lft.to/lastmile_qr_scan"}, "is_reserved": 0, "fusion_lon": 0.0, "fusion_lat": 0.0, "lon": -77.008925, "name": "2788ef7f934418839f775e73f45f8331"}, {"bike_id": "93eab0b3fe4b291b097036f40848a3b5", "type": "electric_scooter", "is_disabled": 0, "lat": 38.905185, "rental_uris": {"ios": "https://dc.lft.to/lastmile_qr_scan", "android": "https://dc.lft.to/lastmile_qr_scan"}, "is_reserved": 0, "fusion_lon": 0.0, "fusion_lat": 0.0, "lon": -77.0436945, "name": "93eab0b3fe4b291b097036f40848a3b5"}, {"bike_id": "37a909f59bcb633add33c4581c2aa8a8", "type": "electric_scooter", "is_disabled": 0, "lat": 38.93611766666667, "rental_uris": {"ios": "https://dc.lft.to/lastmile_qr_scan", "android": "https://dc.lft.to/lastmile_qr_scan"}, "is_reserved": 0, "fusion_lon": 0.0, "fusion_lat": 0.0, "lon": -77.03807633333334, "name": "37a909f59bcb633add33c4581c2aa8a8"}, {"bike_id": "46878739656510be5026657948d16d16", "type": "electric_bike", "is_disabled": 0, "lat": 38.91002816666666, "rental_uris": {"ios": "https://dc.lft.to/lastmile_qr_scan", "android": "https://dc.lft.to/lastmile_qr_scan"}, "is_reserved": 0, "fusion_lon": 0.0, "fusion_lat": 0.0, "lon": -77.05712733333333, "name": "46878739656510be5026657948d16d16"}, {"bike_id": "76530f5433c1a1583338bea070c15d53", "type": "electric_bike", "is_disabled": 0, "lat": 39.052805, "rental_uris": {"ios": "https://dc.lft.to/lastmile_qr_scan", "android": "https://dc.lft.to/lastmile_qr_scan"}, "is_reserved": 0, "fusion_lon": 0.0, "fusion_lat": 0.0, "lon": -77.08064333333333, "name": "76530f5433c1a1583338bea070c15d53"}, {"bike_id": "306a613af40f6980396a9fb155954a9c", "type": "electric_scooter", "is_disabled": 0, "lat": 38.90171516666667, "rental_uris": {"ios": "https://dc.lft.to/lastmile_qr_scan", "android": "https://dc.lft.to/lastmile_qr_scan"}, "is_reserved": 0, "fusion_lon": 0.0, "fusion_lat": 0.0, "lon": -76.98082966666666, "name": "306a613af40f6980396a9fb155954a9c"}, {"bike_id": "a75484505390778e387fd474a7a18607", "type": "electric_scooter", "is_disabled": 0, "lat": 38.93336733333334, "rental_uris": {"ios": "https://dc.lft.to/lastmile_qr_scan", "android": "https://dc.lft.to/lastmile_qr_scan"}, "is_reserved": 0, "fusion_lon": 0.0, "fusion_lat": 0.0, "lon": -77.0206325, "name": "a75484505390778e387fd474a7a18607"}, {"bike_id": "519db0e6ac4b27b4a80e22d5df676aa0", "type": "electric_scooter", "is_disabled": 0, "lat": 38.931030666666665, "rental_uris": {"ios": "https://dc.lft.to/lastmile_qr_scan", "android": "https://dc.lft.to/lastmile_qr_scan"}, "is_reserved": 0, "fusion_lon": 0.0, "fusion_lat": 0.0, "lon": -77.02481266666666, "name": "519db0e6ac4b27b4a80e22d5df676aa0"}, {"bike_id": "0a1a2042fa025d696456cd54ed251dd5", "type": "electric_scooter", "is_disabled": 0, "lat": 38.93475266666667, "rental_uris": {"ios": "https://dc.lft.to/lastmile_qr_scan", "android": "https://dc.lft.to/lastmile_qr_scan"}, "is_reserved": 0, "fusion_lon": 0.0, "fusion_lat": 0.0, "lon": -77.03573716666666, "name": "0a1a2042fa025d696456cd54ed251dd5"}, {"bike_id": "23a60f715954e724f91f1c82108a7e23", "type": "electric_scooter", "is_disabled": 0, "lat": 38.93127833333333, "rental_uris": {"ios": "https://dc.lft.to/lastmile_qr_scan", "android": "https://dc.lft.to/lastmile_qr_scan"}, "is_reserved": 0, "fusion_lon": 0.0, "fusion_lat": 0.0, "lon": -76.99571133333333, "name": "23a60f715954e724f91f1c82108a7e23"}, {"bike_id": "67fdb01ae239c48edb693fed1e1dffcf", "type": "electric_scooter", "is_disabled": 0, "lat": 38.86698166666667, "rental_uris": {"ios": "https://dc.lft.to/lastmile_qr_scan", "android": "https://dc.lft.to/lastmile_qr_scan"}, "is_reserved": 0, "fusion_lon": 0.0, "fusion_lat": 0.0, "lon": -76.98714, "name": "67fdb01ae239c48edb693fed1e1dffcf"}, {"bike_id": "3ea833f4c3d15e238437a9a13b75862c", "type": "electric_scooter", "is_disabled": 0, "lat": 38.907083166666666, "rental_uris": {"ios": "https://dc.lft.to/lastmile_qr_scan", "android": "https://dc.lft.to/lastmile_qr_scan"}, "is_reserved": 0, "fusion_lon": 0.0, "fusion_lat": 0.0, "lon": -77.02388916666666, "name": "3ea833f4c3d15e238437a9a13b75862c"}, {"bike_id": "f30143e9de849a3e186424f159d1bca8", "type": "electric_scooter", "is_disabled": 0, "lat": 38.916970666666664, "rental_uris": {"ios": "https://dc.lft.to/lastmile_qr_scan", "android": "https://dc.lft.to/lastmile_qr_scan"}, "is_reserved": 0, "fusion_lon": 0.0, "fusion_lat": 0.0, "lon": -77.00651916666666, "name": "f30143e9de849a3e186424f159d1bca8"}, {"bike_id": "7febdc2c010f439235f274baf3f8c0d2", "type": "electric_scooter", "is_disabled": 0, "lat": 38.88134816666667, "rental_uris": {"ios": "https://dc.lft.to/lastmile_qr_scan", "android": "https://dc.lft.to/lastmile_qr_scan"}, "is_reserved": 0, "fusion_lon": 0.0, "fusion_lat": 0.0, "lon": -76.98351916666667, "name": "7febdc2c010f439235f274baf3f8c0d2"}, {"bike_id": "ab0ffcc8989d1d92407d6110b103c5e4", "type": "electric_scooter", "is_disabled": 0, "lat": 38.94750366666667, "rental_uris": {"ios": "https://dc.lft.to/lastmile_qr_scan", "android": "https://dc.lft.to/lastmile_qr_scan"}, "is_reserved": 0, "fusion_lon": 0.0, "fusion_lat": 0.0, "lon": -77.075824, "name": "ab0ffcc8989d1d92407d6110b103c5e4"}, {"bike_id": "ebe30a84e0231acf1a648116025c2603", "type": "electric_scooter", "is_disabled": 0, "lat": 38.91265966666667, "rental_uris": {"ios": "https://dc.lft.to/lastmile_qr_scan", "android": "https://dc.lft.to/lastmile_qr_scan"}, "is_reserved": 0, "fusion_lon": 0.0, "fusion_lat": 0.0, "lon": -77.01763533333333, "name": "ebe30a84e0231acf1a648116025c2603"}, {"bike_id": "2c2fbce01d59235dea0a878e68225666", "type": "electric_scooter", "is_disabled": 0, "lat": 38.91818166666667, "rental_uris": {"ios": "https://dc.lft.to/lastmile_qr_scan", "android": "https://dc.lft.to/lastmile_qr_scan"}, "is_reserved": 0, "fusion_lon": 0.0, "fusion_lat": 0.0, "lon": -77.049397, "name": "2c2fbce01d59235dea0a878e68225666"}, {"bike_id": "53824c3fe31bd122214207eea8b5337e", "type": "electric_scooter", "is_disabled": 0, "lat": 38.909553833333334, "rental_uris": {"ios": "https://dc.lft.to/lastmile_qr_scan", "android": "https://dc.lft.to/lastmile_qr_scan"}, "is_reserved": 0, "fusion_lon": 0.0, "fusion_lat": 0.0, "lon": -77.04672533333333, "name": "53824c3fe31bd122214207eea8b5337e"}, {"bike_id": "53ebe76648f4697ff01cb5891fbe15a6", "type": "electric_scooter", "is_disabled": 0, "lat": 38.94434833333333, "rental_uris": {"ios": "https://dc.lft.to/lastmile_qr_scan", "android": "https://dc.lft.to/lastmile_qr_scan"}, "is_reserved": 0, "fusion_lon": 0.0, "fusion_lat": 0.0, "lon": -77.01445933333333, "name": "53ebe76648f4697ff01cb5891fbe15a6"}, {"bike_id": "1bb83ef6cbbf8728a1786f935e7b7b12", "type": "electric_scooter", "is_disabled": 0, "lat": 38.88074566666667, "rental_uris": {"ios": "https://dc.lft.to/lastmile_qr_scan", "android": "https://dc.lft.to/lastmile_qr_scan"}, "is_reserved": 0, "fusion_lon": 0.0, "fusion_lat": 0.0, "lon": -77.0253825, "name": "1bb83ef6cbbf8728a1786f935e7b7b12"}, {"bike_id": "821d8d130dfe28b42e553f51e3ae7002", "type": "electric_scooter", "is_disabled": 0, "lat": 38.917073, "rental_uris": {"ios": "https://dc.lft.to/lastmile_qr_scan", "android": "https://dc.lft.to/lastmile_qr_scan"}, "is_reserved": 0, "fusion_lon": 0.0, "fusion_lat": 0.0, "lon": -77.0314095, "name": "821d8d130dfe28b42e553f51e3ae7002"}, {"bike_id": "2db34f1a2d8fb55b6f5cffb304c0cb86", "type": "electric_scooter", "is_disabled": 0, "lat": 38.93458533333333, "rental_uris": {"ios": "https://dc.lft.to/lastmile_qr_scan", "android": "https://dc.lft.to/lastmile_qr_scan"}, "is_reserved": 0, "fusion_lon": 0.0, "fusion_lat": 0.0, "lon": -77.04532733333333, "name": "2db34f1a2d8fb55b6f5cffb304c0cb86"}, {"bike_id": "389cba4160489078b180495f9dbd28e4", "type": "electric_scooter", "is_disabled": 0, "lat": 38.91985966666667, "rental_uris": {"ios": "https://dc.lft.to/lastmile_qr_scan", "android": "https://dc.lft.to/lastmile_qr_scan"}, "is_reserved": 0, "fusion_lon": 0.0, "fusion_lat": 0.0, "lon": -77.01786033333333, "name": "389cba4160489078b180495f9dbd28e4"}, {"bike_id": "a4606ef7d6ce37378f8b0f2b33f1e979", "type": "electric_scooter", "is_disabled": 0, "lat": 38.899192166666666, "rental_uris": {"ios": "https://dc.lft.to/lastmile_qr_scan", "android": "https://dc.lft.to/lastmile_qr_scan"}, "is_reserved": 0, "fusion_lon": 0.0, "fusion_lat": 0.0, "lon": -76.93366733333333, "name": "a4606ef7d6ce37378f8b0f2b33f1e979"}, {"bike_id": "1c660e1a30abb95150412b4412666455", "type": "electric_scooter", "is_disabled": 0, "lat": 38.90872483333333, "rental_uris": {"ios": "https://dc.lft.to/lastmile_qr_scan", "android": "https://dc.lft.to/lastmile_qr_scan"}, "is_reserved": 0, "fusion_lon": 0.0, "fusion_lat": 0.0, "lon": -77.02204633333334, "name": "1c660e1a30abb95150412b4412666455"}, {"bike_id": "f0ded84517aaca8e061c69900004c408", "type": "electric_scooter", "is_disabled": 0, "lat": 38.902257, "rental_uris": {"ios": "https://dc.lft.to/lastmile_qr_scan", "android": "https://dc.lft.to/lastmile_qr_scan"}, "is_reserved": 0, "fusion_lon": 0.0, "fusion_lat": 0.0, "lon": -77.0411685, "name": "f0ded84517aaca8e061c69900004c408"}, {"bike_id": "f739f1c5605a153c26d8f9a56a1620ad", "type": "electric_scooter", "is_disabled": 0, "lat": 38.902431166666666, "rental_uris": {"ios": "https://dc.lft.to/lastmile_qr_scan", "android": "https://dc.lft.to/lastmile_qr_scan"}, "is_reserved": 0, "fusion_lon": 0.0, "fusion_lat": 0.0, "lon": -77.00191333333333, "name": "f739f1c5605a153c26d8f9a56a1620ad"}, {"bike_id": "21202c041b1a8a92854dd950c053d645", "type": "electric_scooter", "is_disabled": 0, "lat": 38.906248, "rental_uris": {"ios": "https://dc.lft.to/lastmile_qr_scan", "android": "https://dc.lft.to/lastmile_qr_scan"}, "is_reserved": 0, "fusion_lon": 0.0, "fusion_lat": 0.0, "lon": -77.05552983333334, "name": "21202c041b1a8a92854dd950c053d645"}, {"bike_id": "23f8b21755f8d6a01895912bf8328650", "type": "electric_scooter", "is_disabled": 0, "lat": 38.876983333333335, "rental_uris": {"ios": "https://dc.lft.to/lastmile_qr_scan", "android": "https://dc.lft.to/lastmile_qr_scan"}, "is_reserved": 0, "fusion_lon": 0.0, "fusion_lat": 0.0, "lon": -77.01667483333334, "name": "23f8b21755f8d6a01895912bf8328650"}, {"bike_id": "26fea471917d18aeecd4a98bdcd8231a", "type": "electric_scooter", "is_disabled": 0, "lat": 38.92871733333333, "rental_uris": {"ios": "https://dc.lft.to/lastmile_qr_scan", "android": "https://dc.lft.to/lastmile_qr_scan"}, "is_reserved": 0, "fusion_lon": 0.0, "fusion_lat": 0.0, "lon": -77.03354316666666, "name": "26fea471917d18aeecd4a98bdcd8231a"}, {"bike_id": "8c4135679ed0889fb57dbf1c728bf02b", "type": "electric_bike", "is_disabled": 0, "lat": 38.85727033333333, "rental_uris": {"ios": "https://dc.lft.to/lastmile_qr_scan", "android": "https://dc.lft.to/lastmile_qr_scan"}, "is_reserved": 0, "fusion_lon": 0.0, "fusion_lat": 0.0, "lon": -77.0796585, "name": "8c4135679ed0889fb57dbf1c728bf02b"},