{"data": {"bikes": [{"lat": 38.91766783333333, "is_disabled": 0, "type": "electric_scooter", "lon": -77.02904533333333, "bike_id": "37669230f2024432cc885ede9a38ed7b", "fusion_lat": 0.0, "name": "37669230f2024432cc885ede9a38ed7b", "is_reserved": 0, "rental_uris": {"android": "https://dc.lft.to/lastmile_qr_scan", "ios": "https://dc.lft.to/lastmile_qr_scan"}, "fusion_lon": 0.0}, {"lat": 38.87638, "is_disabled": 0, "type": "electric_scooter", "lon": -76.99325433333334, "bike_id": "950b1cbc6814f35b02e7306a0fd7e5ca", "fusion_lat": 0.0, "name": "950b1cbc6814f35b02e7306a0fd7e5ca", "is_reserved": 0, "rental_uris": {"android": "https://dc.lft.to/lastmile_qr_scan", "ios": "https://dc.lft.to/lastmile_qr_scan"}, "fusion_lon": 0.0}, {"lat": 38.9260055, "is_disabled": 0, "type": "electric_scooter", "lon": -77.02439366666667, "bike_id": "c599c39852fc8767150513fffa736d8d", "fusion_lat": 0.0, "name": "c599c39852fc8767150513fffa736d8d", "is_reserved": 0, "rental_uris": {"android": "https://dc.lft.to/lastmile_qr_scan", "ios": "https://dc.lft.to/lastmile_qr_scan"}, "fusion_lon": 0.0}, {"lat": 38.902305, "is_disabled": 0, "type": "electric_scooter", "lon": -77.04343083333333, "bike_id": "333983c448873cb259546606ca3807eb", "fusion_lat": 0.0, "name": "333983c448873cb259546606ca3807eb", "is_reserved": 0, "rental_uris": {"android": "https://dc.lft.to/lastmile_qr_scan", "ios": "https://dc.lft.to/lastmile_qr_scan"}, "fusion_lon": 0.0}, {"lat": 38.873212, "is_disabled": 0, "type": "electric_bike", "lon": -77.10626866666667, "bike_id": "8fb23185baa8393279f64207fa08e440", "fusion_lat": 0.0, "name": "8fb23185baa8393279f64207fa08e440", "is_reserved": 0, "rental_uris": {"android": "https://dc.lft.to/lastmile_qr_scan", "ios": "https://dc.lft.to/lastmile_qr_scan"}, "fusion_lon": 0.0}, {"lat": 38.9086205, "is_disabled": 0, "type": "electric_scooter", "lon": -77.02408733333333, "bike_id": "c4f19ca65e9a427e5f6dfe5c7677ad5d", "fusion_lat": 0.0, "name": "c4f19ca65e9a427e5f6dfe5c7677ad5d", "is_reserved": 0, "rental_uris": {"android": "https://dc.lft.to/lastmile_qr_scan", "ios": "https://dc.lft.to/lastmile_qr_scan"}, "fusion_lon": 0.0}, {"lat": 38.92377916666667, "is_disabled": 0, "type": "electric_bike", "lon": -77.02784783333334, "bike_id": "96c964ae8b39011e53170d06a818d0de", "fusion_lat": 0.0, "name": "96c964ae8b39011e53170d06a818d0de", "is_reserved": 0, "rental_uris": {"android": "https://dc.lft.to/lastmile_qr_scan", "ios": "https://dc.lft.to/lastmile_qr_scan"}, "fusion_lon": 0.0}, {"lat": 38.9031455, "is_disabled": 0, "type": "electric_scooter", "lon": -77.028947, "bike_id": "e570705d4e6331080f159e83f81c11de", "fusion_lat": 0.0, "name": "e570705d4e6331080f159e83f81c11de", "is_reserved": 0, "rental_uris": {"android": "https://dc.lft.to/lastmile_qr_scan", "ios": "https://dc.lft.to/lastmile_qr_scan"}, "fusion_lon": 0.0}, {"lat": 38.91638566666666, "is_disabled": 0, "type": "electric_scooter", "lon": -77.04625316666667, "bike_id": "8446b93f4e02c78db5985d94a36d2ced", "fusion_lat": 0.0, "name": "8446b93f4e02c78db5985d94a36d2ced", "is_reserved": 0, "rental_uris": {"android": "https://dc.lft.to/lastmile_qr_scan", "ios": "https://dc.lft.to/lastmile_qr_scan"}, "fusion_lon": 0.0}, {"lat": 39.088558166666665, "is_disabled": 0, "type": "electric_bike", "lon": -77.17842583333334, "bike_id": "e8bf0ba80164630a7c29bbdb78eb1ccf", "fusion_lat": 0.0, "name": "e8bf0ba80164630a7c29bbdb78eb1ccf", "is_reserved": 0, "rental_uris": {"android": "https://dc.lft.to/lastmile_qr_scan", "ios": "https://dc.lft.to/lastmile_qr_scan"}, "fusion_lon": 0.0}, {"lat": 38.928537166666665, "is_disabled": 0, "type": "electric_bike", "lon": -77.222223, "bike_id": "7a0eb02da5619aa74f166900a8508056", "fusion_lat": 0.0, "name": "7a0eb02da5619aa74f166900a8508056", "is_reserved": 0, "rental_uris": {"android": "https://dc.lft.to/lastmile_qr_scan", "ios": "https://dc.lft.to/lastmile_qr_scan"}, "fusion_lon": 0.0}, {"lat": 38.917115333333335, "is_disabled": 0, "type": "electric_scooter", "lon": -77.03467083333334, "bike_id": "1498c98428110b0a8fe5e05b668e1a4f", "fusion_lat": 0.0, "name": "1498c98428110b0a8fe5e05b668e1a4f", "is_reserved": 0, "rental_uris": {"android": "https://dc.lft.to/lastmile_qr_scan", "ios": "https://dc.lft.to/lastmile_qr_scan"}, "fusion_lon": 0.0}, {"lat": 38.966059, "is_disabled": 0, "type": "electric_bike", "lon": -76.983323, "bike_id": "4977c7cd7b854b89ec52bf62681e2c6e", "fusion_lat": 0.0, "name": "4977c7cd7b854b89ec52bf62681e2c6e", "is_reserved": 0, "rental_uris": {"android": "https://dc.lft.to/lastmile_qr_scan", "ios": "https://dc.lft.to/lastmile_qr_scan"}, "fusion_lon": 0.0}, {"lat": 38.92062083333333, "is_disabled": 0, "type": "electric_scooter", "lon": -77.025029, "bike_id": "741b7c8b23a8fcbbb84f209f82cf689e", "fusion_lat": 0.0, "name": "741b7c8b23a8fcbbb84f209f82cf689e", "is_reserved": 0, "rental_uris": {"android": "https://dc.lft.to/lastmile_qr_scan", "ios": "https://dc.lft.to/lastmile_qr_scan"}, "fusion_lon": 0.0}, {"lat": 38.938256, "is_disabled": 0, "type": "electric_scooter", "lon": -77.06037133333334, "bike_id": "3d814d9bf24fc4b0393976b10c84040e", "fusion_lat": 0.0, "name": "3d814d9bf24fc4b0393976b10c84040e", "is_reserved": 0, "rental_uris": {"android": "https://dc.lft.to/lastmile_qr_scan", "ios": "https://dc.lft.to/lastmile_qr_scan"}, "fusion_lon": 0.0}, {"lat": 38.898368833333336, "is_disabled": 0, "type": "electric_scooter", "lon": -76.93103316666667, "bike_id": "0478eddef2e1b483beb8cc5ada85ddd7", "fusion_lat": 0.0, "name": "0478eddef2e1b483beb8cc5ada85ddd7", "is_reserved": 0, "rental_uris": {"android": "https://dc.lft.to/lastmile_qr_scan", "ios": "https://dc.lft.to/lastmile_qr_scan"}, "fusion_lon": 0.0}, {"lat": 38.90573466666667, "is_disabled": 0, "type": "electric_scooter", "lon": -77.032959, "bike_id": "6fdff5f061cb0ac819c6d8c6a70bb302", "fusion_lat": 0.0, "name": "6fdff5f061cb0ac819c6d8c6a70bb302", "is_reserved": 0, "rental_uris": {"android": "https://dc.lft.to/lastmile_qr_scan", "ios": "https://dc.lft.to/lastmile_qr_scan"}, "fusion_lon": 0.0}, {"lat": 38.917077666666664, "is_disabled": 0, "type": "electric_scooter", "lon": -77.03870816666667, "bike_id": "743b85df03219bee198872d7693afa92", "fusion_lat": 0.0, "name": "743b85df03219bee198872d7693afa92", "is_reserved": 0, "rental_uris": {"android": "https://dc.lft.to/lastmile_qr_scan", "ios": "https://dc.lft.to/lastmile_qr_scan"}, "fusion_lon": 0.0}, {"lat": 38.892486166666664, "is_disabled": 0, "type": "electric_scooter", "lon": -77.04892783333334, "bike_id": "55f630ff3e166e23ff4659bea0004255", "fusion_lat": 0.0, "name": "55f630ff3e166e23ff4659bea0004255", "is_reserved": 0, "rental_uris": {"android": "https://dc.lft.to/lastmile_qr_scan", "ios": "https://dc.lft.to/lastmile_qr_scan"}, "fusion_lon": 0.0}, {"lat": 38.933542333333335, "is_disabled": 0, "type": "electric_scooter", "lon": -77.07377183333334, "bike_id": "00119b4e1e0e3a9623c8adbcfe35785c", "fusion_lat": 0.0, "name": "00119b4e1e0e3a9623c8adbcfe35785c", "is_reserved": 0, "rental_uris": {"android": "https://dc.lft.to/lastmile_qr_scan", "ios": "https://dc.lft.to/lastmile_qr_scan"}, "fusion_lon": 0.0}, {"lat": 38.95886433333333, "is_disabled": 0, "type": "electric_bike", "lon": -76.92489983333333, "bike_id": "e04e66617dbad586c0a5ff67c8142f01", "fusion_lat": 0.0, "name": "e04e66617dbad586c0a5ff67c8142f01", "is_reserved": 0, "rental_uris": {"android": "https://dc.lft.to/lastmile_qr_scan", "ios": "https://dc.lft.to/lastmile_qr_scan"}, "fusion_lon": 0.0}, {"lat": 38.908375666666664, "is_disabled": 0, "type": "electric_scooter", "lon": -77.06354433333334, "bike_id": "14753e50cdee020b517cf2d190e35553", "fusion_lat": 0.0, "name": "14753e50cdee020b517cf2d190e35553", "is_reserved": 0, "rental_uris": {"android": "https://dc.lft.to/lastmile_qr_scan", "ios": "https://dc.lft.to/lastmile_qr_scan"}, "fusion_lon": 0.0}, {"lat": 38.929124, "is_disabled": 0, "type": "electric_scooter", "lon": -77.03166633333333, "bike_id": "485a0206b7954e4a6bbf053b63a69767", "fusion_lat": 0.0, "name": "485a0206b7954e4a6bbf053b63a69767", "is_reserved": 0, "rental_uris": {"android": "https://dc.lft.to/lastmile_qr_scan", "ios": "https://dc.lft.to/lastmile_qr_scan"}, "fusion_lon": 0.0}, {"lat": 38.906749, "is_disabled": 0, "type": "electric_scooter", "lon": -77.0247505, "bike_id": "c4ce149d8d7e6adfe352f678ed1251df", "fusion_lat": 0.0, "name": "c4ce149d8d7e6adfe352f678ed1251df", "is_reserved": 0, "rental_uris": {"android": "https://dc.lft.to/lastmile_qr_scan", "ios": "https://dc.lft.to/lastmile_qr_scan"}, "fusion_lon": 0.0}, {"lat": 38.9206515, "is_disabled": 0, "type": "electric_scooter", "lon": -77.025058, "bike_id": "3897dfb9e7ae808e14242d7b50162486", "fusion_lat": 0.0, "name": "3897dfb9e7ae808e14242d7b50162486", "is_reserved": 0, "rental_uris": {"android": "https://dc.lft.to/lastmile_qr_scan", "ios": "https://dc.lft.to/lastmile_qr_scan"}, "fusion_lon": 0.0}, {"lat": 38.890448166666665, "is_disabled": 0, "type": "electric_scooter", "lon": -76.94074983333333, "bike_id": "fa8da5aed546fc36d7cf0e85e8bc3a72", "fusion_lat": 0.0, "name": "fa8da5aed546fc36d7cf0e85e8bc3a72", "is_reserved": 0, "rental_uris": {"android": "https://dc.lft.to/lastmile_qr_scan", "ios": "https://dc.lft.to/lastmile_qr_scan"}, "fusion_lon": 0.0}, {"lat": 38.92112766666666, "is_disabled": 0, "type": "electric_bike", "lon": -76.98577233333333, "bike_id": "1701aae9eef24877389c7da8487e1fd7", "fusion_lat": 0.0, "name": "1701aae9eef24877389c7da8487e1fd7", "is_reserved": 0, "rental_uris": {"android": "https://dc.lft.to/lastmile_qr_scan", "ios": "https://dc.lft.to/lastmile_qr_scan"}, "fusion_lon": 0.0}, {"lat": 38.85850633333333, "is_disabled": 0, "type": "electric_bike", "lon": -77.09754716666667, "bike_id": "4e2e5435b4ef99a71792aa0cc6f10079", "fusion_lat": 0.0, "name": "4e2e5435b4ef99a71792aa0cc6f10079", "is_reserved": 0, "rental_uris": {"android": "https://dc.lft.to/lastmile_qr_scan", "ios": "https://dc.lft.to/lastmile_qr_scan"}, "fusion_lon": 0.0}, {"lat": 38.94418966666667, "is_disabled": 0, "type": "electric_scooter", "lon": -77.03194616666667, "bike_id": "41c3f3f65fc58a959f16e31a1a5b70b9", "fusion_lat": 0.0, "name": "41c3f3f65fc58a959f16e31a1a5b70b9", "is_reserved": 0, "rental_uris": {"android": "https://dc.lft.to/lastmile_qr_scan", "ios": "https://dc.lft.to/lastmile_qr_scan"}, "fusion_lon": 0.0}, {"lat": 38.917274166666665, "is_disabled": 0, "type": "electric_scooter", "lon": -77.0229905, "bike_id": "8a80eb94534d16ed965b9171c7ef2f3f", "fusion_lat": 0.0, "name": "8a80eb94534d16ed965b9171c7ef2f3f", "is_reserved": 0, "rental_uris": {"android": "https://dc.lft.to/lastmile_qr_scan", "ios": "https://dc.lft.to/lastmile_qr_scan"}, "fusion_lon": 0.0}, {"lat": 38.92033883333333, "is_disabled": 0, "type": "electric_scooter", "lon": -76.9780545, "bike_id": "947e2943c2a314b5e02e2f6fdc3c807f", "fusion_lat": 0.0, "name": "947e2943c2a314b5e02e2f6fdc3c807f", "is_reserved": 0, "rental_uris": {"android": "https://dc.lft.to/lastmile_qr_scan", "ios": "https://dc.lft.to/lastmile_qr_scan"}, "fusion_lon": 0.0}, {"lat": 38.913014833333335, "is_disabled": 0, "type": "electric_scooter", "lon": -77.03217633333334, "bike_id": "cb3a227157db0c45eabbb8d33c4697fe", "fusion_lat": 0.0, "name": "cb3a227157db0c45eabbb8d33c4697fe", "is_reserved": 0, "rental_uris": {"android": "https://dc.lft.to/lastmile_qr_scan", "ios": "https://dc.lft.to/lastmile_qr_scan"}, "fusion_lon": 0.0}, {"lat": 38.88744633333334, "is_disabled": 0, "type": "electric_scooter", "lon": -77.02070666666667, "bike_id": "160b9f0cd2305c6731baa7018f85fb80", "fusion_lat": 0.0, "name": "160b9f0cd2305c6731baa7018f85fb80", "is_reserved": 0, "rental_uris": {"android": "https://dc.lft.to/lastmile_qr_scan", "ios": "https://dc.lft.to/lastmile_qr_scan"}, "fusion_lon": 0.0}, {"lat": 38.884679166666665, "is_disabled": 0, "type": "electric_scooter", "lon": -77.02414583333334, "bike_id": "eafc665c29976b787cd50309c8a1bb5b", "fusion_lat": 0.0, "name": "eafc665c29976b787cd50309c8a1bb5b", "is_reserved": 0, "rental_uris": {"android": "https://dc.lft.to/lastmile_qr_scan", "ios": "https://dc.lft.to/lastmile_qr_scan"}, "fusion_lon": 0.0}, {"lat": 38.8671075, "is_disabled": 0, "type": "electric_scooter", "lon": -76.98724883333334, "bike_id": "96ee6bbcc954152a3e4327da297ace22", "fusion_lat": 0.0, "name": "96ee6bbcc954152a3e4327da297ace22", "is_reserved": 0, "rental_uris": {"android": "https://dc.lft.to/lastmile_qr_scan", "ios": "https://dc.lft.to/lastmile_qr_scan"}, "fusion_lon": 0.0}, {"lat": 38.905282, "is_disabled": 0, "type": "electric_scooter", "lon": -77.0489005, "bike_id": "73e846701a15993000f27ec16db981c5", "fusion_lat": 0.0, "name": "73e846701a15993000f27ec16db981c5", "is_reserved": 0, "rental_uris": {"android": "https://dc.lft.to/lastmile_qr_scan", "ios": "https://dc.lft.to/lastmile_qr_scan"}, "fusion_lon": 0.0}, {"lat": 38.925107833333335, "is_disabled": 0, "type": "electric_scooter", "lon": -76.98580749999999, "bike_id": "1790a42a65c5e7b2cbbe7855600a6942", "fusion_lat": 0.0, "name": "1790a42a65c5e7b2cbbe7855600a6942", "is_reserved": 0, "rental_uris": {"android": "https://dc.lft.to/lastmile_qr_scan", "ios": "https://dc.lft.to/lastmile_qr_scan"}, "fusion_lon": 0.0}, {"lat": 38.91194183333333, "is_disabled": 0, "type": "electric_scooter", "lon": -77.0433745, "bike_id": "b633c7dc4ae01c6f76678cd9a06a70c7", "fusion_lat": 0.0, "name": "b633c7dc4ae01c6f76678cd9a06a70c7", "is_reserved": 0, "rental_uris": {"android": "https://dc.lft.to/lastmile_qr_scan", "ios": "https://dc.lft.to/lastmile_qr_scan"}, "fusion_lon": 0.0}, {"lat": 38.905220666666665, "is_disabled": 0, "type": "electric_scooter", "lon": -77.059318, "bike_id": "55355f221beb4fdbac555f3c98792d25", "fusion_lat": 0.0, "name": "55355f221beb4fdbac555f3c98792d25", "is_reserved": 0, "rental_uris": {"android": "https://dc.lft.to/lastmile_qr_scan", "ios": "https://dc.lft.to/lastmile_qr_scan"}, "fusion_lon": 0.0}, {"lat": 38.973706, "is_disabled": 0, "type": "electric_scooter", "lon": -77.0185125, "bike_id": "61f0425b3b1a460c79d1b3b24984baa5", "fusion_lat": 0.0, "name": "61f0425b3b1a460c79d1b3b24984baa5", "is_reserved": 0, "rental_uris": {"android": "https://dc.lft.to/lastmile_qr_scan", "ios": "https://dc.lft.to/lastmile_qr_scan"}, "fusion_lon": 0.0}, {"lat": 38.92573483333334, "is_disabled": 0, "type": "electric_scooter", "lon": -77.05766833333334, "bike_id": "c3bef4c9a6b13479d5ff8b82fef890d2", "fusion_lat": 0.0, "name": "c3bef4c9a6b13479d5ff8b82fef890d2", "is_reserved": 0, "rental_uris": {"android": "https://dc.lft.to/lastmile_qr_scan", "ios": "https://dc.lft.to/lastmile_qr_scan"}, "fusion_lon": 0.0}, {"lat": 38.899051166666666, "is_disabled": 0, "type": "electric_scooter", "lon": -77.03941716666667, "bike_id": "e861c10f06f1017875b05c5a3fc36836", "fusion_lat": 0.0, "name": "e861c10f06f1017875b05c5a3fc36836", "is_reserved": 0, "rental_uris": {"android": "https://dc.lft.to/lastmile_qr_scan", "ios": "https://dc.lft.to/lastmile_qr_scan"}, "fusion_lon": 0.0}, {"lat": 38.8799805, "is_disabled": 0, "type": "electric_scooter", "lon": -76.98544, "bike_id": "e03f224ad30cbd0110581664181b97f6", "fusion_lat": 0.0, "name": "e03f224ad30cbd0110581664181b97f6", "is_reserved": 0, "rental_uris": {"android": "https://dc.lft.to/lastmile_qr_scan", "ios": "https://dc.lft.to/lastmile_qr_scan"}, "fusion_lon": 0.0}, {"lat": 38.897371666666665, "is_disabled": 0, "type": "electric_scooter", "lon": -77.04534366666667, "bike_id": "86cff7cbbdb8141b27791929c9733bcc", "fusion_lat": 0.0, "name": "86cff7cbbdb8141b27791929c9733bcc", "is_reserved": 0, "rental_uris": {"android": "https://dc.lft.to/lastmile_qr_scan", "ios": "https://dc.lft.to/lastmile_qr_scan"}, "fusion_lon": 0.0}, {"lat": 38.89909016666667, "is_disabled": 0, "type": "electric_scooter", "lon": -76.933517, "bike_id": "27fc1d2ee53ba7a3d647c246dab762be", "fusion_lat": 0.0, "name": "27fc1d2ee53ba7a3d647c246dab762be", "is_reserved": 0, "rental_uris": {"android": "https://dc.lft.to/lastmile_qr_scan", "ios": "https://dc.lft.to/lastmile_qr_scan"}, "fusion_lon": 0.0}, {"lat": 38.9325975, "is_disabled": 0, "type": "electric_scooter", "lon": -77.03271916666667, "bike_id": "d511d866528179827fa66689e3e516b1", "fusion_lat": 0.0, "name": "d511d866528179827fa66689e3e516b1", "is_reserved": 0, "rental_uris": {"android": "https://dc.lft.to/lastmile_qr_scan", "ios": "https://dc.lft.to/lastmile_qr_scan"}, "fusion_lon": 0.0}, {"lat": 38.892611, "is_disabled": 0, "type": "electric_scooter", "lon": -76.94157783333333, "bike_id": "d6008c24f8db2171f72662b1992ccefb", "fusion_lat": 0.0, "name": "d6008c24f8db2171f72662b1992ccefb", "is_reserved": 0, "rental_uris": {"android": "https://dc.lft.to/lastmile_qr_scan", "ios": "https://dc.lft.to/lastmile_qr_scan"}, "fusion_lon": 0.0}, {"lat": 38.806841, "is_disabled": 0, "type": "electric_bike", "lon": -77.08119333333333, "bike_id": "aa190d743f5dd1a422bca5bedbb468a4", "fusion_lat": 0.0, "name": "aa190d743f5dd1a422bca5bedbb468a4", "is_reserved": 0, "rental_uris": {"android": "https://dc.lft.to/lastmile_qr_scan", "ios": "https://dc.lft.to/lastmile_qr_scan"}, "fusion_lon": 0.0}, {"lat": 38.902872, "is_disabled": 0, "type": "electric_scooter", "lon": -77.02698516666666, "bike_id": "80a448d7b73c129273344aec2904553a", "fusion_lat": 0.0, "name": "80a448d7b73c129273344aec2904553a", "is_reserved": 0, "rental_uris": {"android": "https://dc.lft.to/lastmile_qr_scan", "ios": "https://dc.lft.to/lastmile_qr_scan"}, "fusion_lon": 0.0}, {"lat": 38.80559016666667, "is_disabled": 0, "type": "electric_bike", "lon": -77.132468, "bike_id": "040e35709b2fe8865f85943c61229635", "fusion_lat": 0.0, "name": "040e35709b2fe8865f85943c61229635", "is_reserved": 0, "rental_uris": {"android": "https://dc.lft.to/lastmile_qr_scan", "ios": "https://dc.lft.to/lastmile_qr_scan"}, "fusion_lon": 0.0}, {"lat": 38.90421166666667, "is_disabled": 0, "type": "electric_scooter", "lon": -77.020797, "bike_id": "198226a3dc22bdfb19a9d641cd05c3bd", "fusion_lat": 0.0, "name": "198226a3dc22bdfb19a9d641cd05c3bd", "is_reserved": 0, "rental_uris": {"android": "https://dc.lft.to/lastmile_qr_scan", "ios": "https://dc.lft.to/lastmile_qr_scan"}, "fusion_lon": 0.0}, {"lat": 38.858156666666666, "is_disabled": 0, "type": "electric_scooter", "lon": -76.989964, "bike_id": "f6d20fc6d0239a33c6996563e0f04df9", "fusion_lat": 0.0, "name": "f6d20fc6d0239a33c6996563e0f04df9", "is_reserved": 0, "rental_uris": {"android": "https://dc.lft.to/lastmile_qr_scan", "ios": "https://dc.lft.to/lastmile_qr_scan"}, "fusion_lon": 0.0}, {"lat": 38.89769716666667, "is_disabled": 0, "type": "electric_scooter", "lon": -77.03202283333333, "bike_id": "b2f5ee75b7e6e820ddb5c30fc3658397", "fusion_lat": 0.0, "name": "b2f5ee75b7e6e820ddb5c30fc3658397", "is_reserved": 0, "rental_uris": {"android": "https://dc.lft.to/lastmile_qr_scan", "ios": "https://dc.lft.to/lastmile_qr_scan"}, "fusion_lon": 0.0}, {"lat": 38.927675666666666, "is_disabled": 0, "type": "electric_scooter", "lon": -77.0232415, "bike_id": "57ff17be3c9ba504a7a47b2fed1721ba", "fusion_lat": 0.0, "name": "57ff17be3c9ba504a7a47b2fed1721ba", "is_reserved": 0, "rental_uris": {"android": "https://dc.lft.to/lastmile_qr_scan", "ios": "https://dc.lft.to/lastmile_qr_scan"}, "fusion_lon": 0.0}, {"lat": 38.92287433333333, "is_disabled": 0, "type": "electric_scooter", "lon": -77.02968866666667, "bike_id": "df5876169e6cd115e2a307a815d00d1f", "fusion_lat": 0.0, "name": "df5876169e6cd115e2a307a815d00d1f", "is_reserved": 0, "rental_uris": {"android": "https://dc.lft.to/lastmile_qr_scan", "ios": "https://dc.lft.to/lastmile_qr_scan"}, "fusion_lon": 0.0}, {"lat": 38.86658666666666, "is_disabled": 0, "type": "electric_scooter", "lon": -76.98885883333334, "bike_id": "c03cff30e81a734ec4b3f4bbc5cb1c87", "fusion_lat": 0.0, "name": "c03cff30e81a734ec4b3f4bbc5cb1c87", "is_reserved": 0, "rental_uris": {"android": "https://dc.lft.to/lastmile_qr_scan", "ios": "https://dc.lft.to/lastmile_qr_scan"}, "fusion_lon": 0.0}, {"lat": 38.927990666666666, "is_disabled": 0, "type": "electric_scooter", "lon": -77.043177, "bike_id": "f5bff4146625aba272d66aed3a78692d", "fusion_lat": 0.0, "name": "f5bff4146625aba272d66aed3a78692d", "is_reserved": 0, "rental_uris": {"android": "https://dc.lft.to/lastmile_qr_scan", "ios": "https://dc.lft.to/lastmile_qr_scan"}, "fusion_lon": 0.0}, {"lat": 38.916737833333336, "is_disabled": 0, "type": "electric_scooter", "lon": -77.02973333333334, "bike_id": "f13e01c72501d886b4ad0501f5a80af6", "fusion_lat": 0.0, "name": "f13e01c72501d886b4ad0501f5a80af6", "is_reserved": 0, "rental_uris": {"android": "https://dc.lft.to/lastmile_qr_scan", "ios": "https://dc.lft.to/lastmile_qr_scan"}, "fusion_lon": 0.0}, {"lat": 38.90742483333333, "is_disabled": 0, "type": "electric_scooter", "lon": -77.04285733333333, "bike_id": "b9cdbad55fc7edc037a3dd65f9c21f95", "fusion_lat": 0.0, "name": "b9cdbad55fc7edc037a3dd65f9c21f95", "is_reserved": 0, "rental_uris": {"android": "https://dc.lft.to/lastmile_qr_scan", "ios": "https://dc.lft.to/lastmile_qr_scan"}, "fusion_lon": 0.0}, {"lat": 38.93988266666667, "is_disabled": 0, "type": "electric_scooter", "lon": -77.07180566666666, "bike_id": "6eace449f24d0cbe58c15bd3b5ef7c9a", "fusion_lat": 0.0, "name": "6eace449f24d0cbe58c15bd3b5ef7c9a", "is_reserved": 0, "rental_uris": {"android": "https://dc.lft.to/lastmile_qr_scan", "ios": "https://dc.lft.to/lastmile_qr_scan"}, "fusion_lon": 0.0}, {"lat": 38.9533365, "is_disabled": 0, "type": "electric_bike", "lon": -76.9882085, "bike_id": "1003cba6b63b650792edcba68582e09b", "fusion_lat": 0.0, "name": "1003cba6b63b650792edcba68582e09b", "is_reserved": 0, "rental_uris": {"android": "https://dc.lft.to/lastmile_qr_scan", "ios": "https://dc.lft.to/lastmile_qr_scan"}, "fusion_lon": 0.0}, {"lat": 38.9181765, "is_disabled": 0, "type": "electric_scooter", "lon": -77.03075116666666, "bike_id": "253cd7a2f19acdb5fd75273d5b767dc8", "fusion_lat": 0.0, "name": "253cd7a2f19acdb5fd75273d5b767dc8", "is_reserved": 0, "rental_uris": {"android": "https://dc.lft.to/lastmile_qr_scan", "ios": "https://dc.lft.to/lastmile_qr_scan"}, "fusion_lon": 0.0}, {"lat": 38.9155365, "is_disabled": 0, "type": "electric_scooter", "lon": -77.03245383333334, "bike_id": "4e16786a8d08ef0ea9310b3576447684", "fusion_lat": 0.0, "name": "4e16786a8d08ef0ea9310b3576447684", "is_reserved": 0, "rental_uris": {"android": "https://dc.lft.to/lastmile_qr_scan", "ios": "https://dc.lft.to/lastmile_qr_scan"}, "fusion_lon": 0.0}, {"lat": 38.85208433333333, "is_disabled": 0, "type": "electric_bike", "lon": -76.99581366666666, "bike_id": "bf943977e40e81b412613cee27500562", "fusion_lat": 0.0, "name": "bf943977e40e81b412613cee27500562", "is_reserved": 0, "rental_uris": {"android": "https://dc.lft.to/lastmile_qr_scan", "ios": "https://dc.lft.to/lastmile_qr_scan"}, "fusion_lon": 0.0}, {"lat": 38.84425366666667, "is_disabled": 0, "type": "electric_scooter", "lon": -76.9978215, "bike_id": "2d55933012b301bb3e57c1729a4b9375", "fusion_lat": 0.0, "name": "2d55933012b301bb3e57c1729a4b9375", "is_reserved": 0, "rental_uris": {"android": "https://dc.lft.to/lastmile_qr_scan", "ios": "https://dc.lft.to/lastmile_qr_scan"}, "fusion_lon": 0.0}, {"lat": 38.93228333333333, "is_disabled": 0, "type": "electric_scooter", "lon": -77.02380316666667, "bike_id": "91fb61dde9511f3f3f089b59ae500acb", "fusion_lat": 0.0, "name": "91fb61dde9511f3f3f089b59ae500acb", "is_reserved": 0, "rental_uris": {"android": "https://dc.lft.to/lastmile_qr_scan", "ios": "https://dc.lft.to/lastmile_qr_scan"}, "fusion_lon": 0.0}, {"lat": 38.91414016666667, "is_disabled": 0, "type": "electric_scooter", "lon": -77.0316525, "bike_id": "53c3d30425c45a2f2c6955062e644f1f", "fusion_lat": 0.0, "name": "53c3d30425c45a2f2c6955062e644f1f", "is_reserved": 0, "rental_uris": {"android": "https://dc.lft.to/lastmile_qr_scan", "ios": "https://dc.lft.to/lastmile_qr_scan"}, "fusion_lon": 0.0}, {"lat": 38.80498016666667, "is_disabled": 0, "type": "electric_bike", "lon": -77.041359, "bike_id": "8309ad73ba6e2029d720335563cf4944", "fusion_lat": 0.0, "name": "8309ad73ba6e2029d720335563cf4944", "is_reserved": 0, "rental_uris": {"android": "https://dc.lft.to/lastmile_qr_scan", "ios": "https://dc.lft.to/lastmile_qr_scan"}, "fusion_lon": 0.0}, {"lat": 38.86618283333333, "is_disabled": 0, "type": "electric_scooter", "lon": -76.986434, "bike_id": "645b31c2e178d8a8ab014e63e9f7e652", "fusion_lat": 0.0, "name": "645b31c2e178d8a8ab014e63e9f7e652", "is_reserved": 0, "rental_uris": {"android": "https://dc.lft.to/lastmile_qr_scan", "ios": "https://dc.lft.to/lastmile_qr_scan"}, "fusion_lon": 0.0}, {"lat": 38.917055500000004, "is_disabled": 0, "type": "electric_scooter", "lon": -77.01108933333333, "bike_id": "97e241075ba468d46e62066529bc1dcf", "fusion_lat": 0.0, "name": "97e241075ba468d46e62066529bc1dcf", "is_reserved": 0, "rental_uris": {"android": "https://dc.lft.to/lastmile_qr_scan", "ios": "https://dc.lft.to/lastmile_qr_scan"}, "fusion_lon": 0.0}, {"lat": 38.93114416666667, "is_disabled": 0, "type": "electric_scooter", "lon": -77.0209055, "bike_id": "6da6441d3ba3c34b0d4972848881bf53", "fusion_lat": 0.0, "name": "6da6441d3ba3c34b0d4972848881bf53", "is_reserved": 0, "rental_uris": {"android": "https://dc.lft.to/lastmile_qr_scan", "ios": "https://dc.lft.to/lastmile_qr_scan"}, "fusion_lon": 0.0}, {"lat": 38.90220333333333, "is_disabled": 0, "type": "electric_scooter", "lon": -77.02975983333333, "bike_id": "f007481da620f9233454f5fb5cb3866d", "fusion_lat": 0.0, "name": "f007481da620f9233454f5fb5cb3866d", "is_reserved": 0, "rental_uris": {"android": "https://dc.lft.to/lastmile_qr_scan", "ios": "https://dc.lft.to/lastmile_qr_scan"}, "fusion_lon": 0.0}, {"lat": 38.85735833333333, "is_disabled": 0, "type": "electric_scooter", "lon": -76.994357, "bike_id": "48f975f06626b950c4ae49325cc3f29d", "fusion_lat": 0.0, "name": "48f975f06626b950c4ae49325cc3f29d", "is_reserved": 0, "rental_uris": {"android": "https://dc.lft.to/lastmile_qr_scan", "ios": "https://dc.lft.to/lastmile_qr_scan"}, "fusion_lon": 0.0}, {"lat": 38.9443655, "is_disabled": 0, "type": "electric_scooter", "lon": -77.0234915, "bike_id": "97d45cd39b8182e2672316a789b3db24", "fusion_lat": 0.0, "name": "97d45cd39b8182e2672316a789b3db24", "is_reserved": 0, "rental_uris": {"android": "https://dc.lft.to/lastmile_qr_scan", "ios": "https://dc.lft.to/lastmile_qr_scan"}, "fusion_lon": 0.0}, {"lat": 38.909727, "is_disabled": 0, "type": "electric_scooter", "lon": -77.023841, "bike_id": "5b2f1d42f8056af5bf7dd370b2fd871f", "fusion_lat": 0.0, "name": "5b2f1d42f8056af5bf7dd370b2fd871f", "is_reserved": 0, "rental_uris": {"android": "https://dc.lft.to/lastmile_qr_scan", "ios": "https://dc.lft.to/lastmile_qr_scan"}, "fusion_lon": 0.0}, {"lat": 38.91687483333333, "is_disabled": 0, "type": "electric_scooter", "lon": -77.03735266666666, "bike_id": "2f430dd42b2d3b00dd02bdc184886cc2", "fusion_lat": 0.0, "name": "2f430dd42b2d3b00dd02bdc184886cc2", "is_reserved": 0, "rental_uris": {"android": "https://dc.lft.to/lastmile_qr_scan", "ios": "https://dc.lft.to/lastmile_qr_scan"}, "fusion_lon": 0.0}, {"lat": 38.887369666666665, "is_disabled": 0, "type": "electric_scooter", "lon": -77.01533466666666, "bike_id": "f8b1f712f5f75bc6ad1c47decbea7b01", "fusion_lat": 0.0, "name": "f8b1f712f5f75bc6ad1c47decbea7b01", "is_reserved": 0, "rental_uris": {"android": "https://dc.lft.to/lastmile_qr_scan", "ios": "https://dc.lft.to/lastmile_qr_scan"}, "fusion_lon": 0.0}, {"lat": 38.901334166666665, "is_disabled": 0, "type": "electric_scooter", "lon": -77.04150283333334, "bike_id": "96f8bf8c64fe2c2e5c400dde23962f23", "fusion_lat": 0.0, "name": "96f8bf8c64fe2c2e5c400dde23962f23", "is_reserved": 0, "rental_uris": {"android": "https://dc.lft.to/lastmile_qr_scan", "ios": "https://dc.lft.to/lastmile_qr_scan"}, "fusion_lon": 0.0}, {"lat": 38.961364, "is_disabled": 0, "type": "electric_scooter", "lon": -77.0223415, "bike_id": "b905bbb3ab305f1ace84c2abbc6dffd5", "fusion_lat": 0.0, "name": "b905bbb3ab305f1ace84c2abbc6dffd5", "is_reserved": 0, "rental_uris": {"android": "https://dc.lft.to/lastmile_qr_scan", "ios": "https://dc.lft.to/lastmile_qr_scan"}, "fusion_lon": 0.0}, {"lat": 38.854479, "is_disabled": 0, "type": "electric_scooter", "lon": -76.98584216666667, "bike_id": "a2c5b239af759a91da2c7c573e149e15", "fusion_lat": 0.0, "name": "a2c5b239af759a91da2c7c573e149e15", "is_reserved": 0, "rental_uris": {"android": "https://dc.lft.to/lastmile_qr_scan", "ios": "https://dc.lft.to/lastmile_qr_scan"}, "fusion_lon": 0.0}, {"lat": 38.8714465, "is_disabled": 0, "type": "electric_bike", "lon": -76.93705316666667, "bike_id": "7ec64734f612283e53c6e8427c2a80c2", "fusion_lat": 0.0, "name": "7ec64734f612283e53c6e8427c2a80c2", "is_reserved": 0, "rental_uris": {"android": "https://dc.lft.to/lastmile_qr_scan", "ios": "https://dc.lft.to/lastmile_qr_scan"}, "fusion_lon": 0.0}, {"lat": 38.918201333333336, "is_disabled": 0, "type": "electric_scooter", "lon": -77.012143, "bike_id": "dfa185be134ba6ed343a27a01e161bd3", "fusion_lat": 0.0, "name": "dfa185be134ba6ed343a27a01e161bd3", "is_reserved": 0, "rental_uris": {"android": "https://dc.lft.to/lastmile_qr_scan", "ios": "https://dc.lft.to/lastmile_qr_scan"}, "fusion_lon": 0.0}, {"lat": 38.922503166666665, "is_disabled": 0, "type": "electric_scooter", "lon": -77.0273095, "bike_id": "ca47499071d7da6d2b59ea4756acd737", "fusion_lat": 0.0, "name": "ca47499071d7da6d2b59ea4756acd737", "is_reserved": 0, "rental_uris": {"android": "https://dc.lft.to/lastmile_qr_scan", "ios": "https://dc.lft.to/lastmile_qr_scan"}, "fusion_lon": 0.0}, {"lat": 38.9297455, "is_disabled": 0, "type": "electric_scooter", "lon": -77.01303933333334, "bike_id": "7ffe3e19b0be8cce677318d05e35ffcb", "fusion_lat": 0.0, "name": "7ffe3e19b0be8cce677318d05e35ffcb", "is_reserved": 0, "rental_uris": {"android": "https://dc.lft.to/lastmile_qr_scan", "ios": "https://dc.lft.to/lastmile_qr_scan"}, "fusion_lon": 0.0}, {"lat": 38.892199, "is_disabled": 0, "type": "electric_scooter", "lon": -77.04865283333334, "bike_id": "68c7e494b43ffa1ea8f0fc4a47cd34cf", "fusion_lat": 0.0, "name": "68c7e494b43ffa1ea8f0fc4a47cd34cf", "is_reserved": 0, "rental_uris": {"android": "https://dc.lft.to/lastmile_qr_scan", "ios": "https://dc.lft.to/lastmile_qr_scan"}, "fusion_lon": 0.0}, {"lat": 38.86449433333333, "is_disabled": 0, "type": "electric_bike", "lon": -76.945487, "bike_id": "013fcc64c36f87fa537a794e21855c92", "fusion_lat": 0.0, "name": "013fcc64c36f87fa537a794e21855c92", "is_reserved": 0, "rental_uris": {"android": "https://dc.lft.to/lastmile_qr_scan", "ios": "https://dc.lft.to/lastmile_qr_scan"}, "fusion_lon": 0.0}, {"lat": 38.90009633333333, "is_disabled": 0, "type": "electric_scooter", "lon": -77.020045, "bike_id": "b7319489be42b48f792515cdb8897eae", "fusion_lat": 0.0, "name": "b7319489be42b48f792515cdb8897eae", "is_reserved": 0, "rental_uris": {"android": "https://dc.lft.to/lastmile_qr_scan", "ios": "https://dc.lft.to/lastmile_qr_scan"}, "fusion_lon": 0.0}, {"lat": 38.899658333333335, "is_disabled": 0, "type": "electric_scooter", "lon": -77.022112, "bike_id": "2b1fb0383b202dbbf98afd4abaa720b3", "fusion_lat": 0.0, "name": "2b1fb0383b202dbbf98afd4abaa720b3", "is_reserved": 0, "rental_uris": {"android": "https://dc.lft.to/lastmile_qr_scan", "ios": "https://dc.lft.to/lastmile_qr_scan"}, "fusion_lon": 0.0}, {"lat": 38.90977983333333, "is_disabled": 0, "type": "electric_scooter", "lon": -77.040493, "bike_id": "87d0106c9eed071210c615364baca8e1", "fusion_lat": 0.0, "name": "87d0106c9eed071210c615364baca8e1", "is_reserved": 0, "rental_uris": {"android": "https://dc.lft.to/lastmile_qr_scan", "ios": "https://dc.lft.to/lastmile_qr_scan"}, "fusion_lon": 0.0}, {"lat": 38.9287, "is_disabled": 0, "type": "electric_scooter", "lon": -77.032201, "bike_id": "77ce8ad1622f4cb7708da5223e1cb219", "fusion_lat": 0.0, "name": "77ce8ad1622f4cb7708da5223e1cb219", "is_reserved": 0, "rental_uris": {"android": "https://dc.lft.to/lastmile_qr_scan", "ios": "https://dc.lft.to/lastmile_qr_scan"}, "fusion_lon": 0.0}, {"lat": 38.8026905, "is_disabled": 0, "type": "electric_bike", "lon": -77.08113083333333, "bike_id": "45bfd5a68b6d0d07a9873d5a0d2c1eb9", "fusion_lat": 0.0, "name": "45bfd5a68b6d0d07a9873d5a0d2c1eb9", "is_reserved": 0, "rental_uris": {"android": "https://dc.lft.to/lastmile_qr_scan", "ios": "https://dc.lft.to/lastmile_qr_scan"}, "fusion_lon": 0.0}, {"lat": 38.896172666666665, "is_disabled": 0, "type": "electric_scooter", "lon": -77.02301066666666, "bike_id": "22b28a9d25c4f228b54f917b7bcfb151", "fusion_lat": 0.0, "name": "22b28a9d25c4f228b54f917b7bcfb151", "is_reserved": 0, "rental_uris": {"android": "https://dc.lft.to/lastmile_qr_scan", "ios": "https://dc.lft.to/lastmile_qr_scan"}, "fusion_lon": 0.0}, {"lat": 38.930371666666666, "is_disabled": 0, "type": "electric_scooter", "lon": -77.02637783333333, "bike_id": "db2169347996d71e22188947bd374875", "fusion_lat": 0.0, "name": "db2169347996d71e22188947bd374875", "is_reserved": 0, "rental_uris": {"android": "https://dc.lft.to/lastmile_qr_scan", "ios": "https://dc.lft.to/lastmile_qr_scan"}, "fusion_lon": 0.0}, {"lat": 38.900256666666664, "is_disabled": 0, "type": "electric_scooter", "lon": -77.0320755, "bike_id": "d8c0d07b17a7f1264313699262451980", "fusion_lat": 0.0, "name": "d8c0d07b17a7f1264313699262451980", "is_reserved": 0, "rental_uris": {"android": "https://dc.lft.to/lastmile_qr_scan", "ios": "https://dc.lft.to/lastmile_qr_scan"}, "fusion_lon": 0.0}, {"lat": 38.931953666666665, "is_disabled": 0, "type": "electric_scooter", "lon": -77.02356866666666, "bike_id": "aea11a6da90c2ccd95b1056e0dcefa32", "fusion_lat": 0.0, "name": "aea11a6da90c2ccd95b1056e0dcefa32", "is_reserved": 0, "rental_uris": {"android": "https://dc.lft.to/lastmile_qr_scan", "ios": "https://dc.lft.to/lastmile_qr_scan"}, "fusion_lon": 0.0}, {"lat": 38.954034, "is_disabled": 0, "type": "electric_scooter", "lon": -77.02750583333334, "bike_id": "e7b962a01c745f7c3b3ce47e6d46576c", "fusion_lat": 0.0, "name": "e7b962a01c745f7c3b3ce47e6d46576c", "is_reserved": 0, "rental_uris": {"android": "https://dc.lft.to/lastmile_qr_scan", "ios": "https://dc.lft.to/lastmile_qr_scan"}, "fusion_lon": 0.0}, {"lat": 38.9077655, "is_disabled": 0, "type": "electric_scooter", "lon": -77.06407383333334, "bike_id": "6c51d2b17c84c2db6e07545f13c659e7", "fusion_lat": 0.0, "name": "6c51d2b17c84c2db6e07545f13c659e7", "is_reserved": 0, "rental_uris": {"android": "https://dc.lft.to/lastmile_qr_scan", "ios": "https://dc.lft.to/lastmile_qr_scan"}, "fusion_lon": 0.0}, {"lat": 38.90336033333333, "is_disabled": 0, "type": "electric_scooter", "lon": -77.02554883333333, "bike_id": "d8ad9a964aa0da92a719b70e9cdd52d9", "fusion_lat": 0.0, "name": "d8ad9a964aa0da92a719b70e9cdd52d9", "is_reserved": 0, "rental_uris": {"android": "https://dc.lft.to/lastmile_qr_scan", "ios": "https://dc.lft.to/lastmile_qr_scan"}, "fusion_lon": 0.0}, {"lat": 38.917096, "is_disabled": 0, "type": "electric_scooter", "lon": -77.0350345, "bike_id": "dbbbee4ab959002da504d5166533e390", "fusion_lat": 0.0, "name": "dbbbee4ab959002da504d5166533e390", "is_reserved": 0, "rental_uris": {"android": "https://dc.lft.to/lastmile_qr_scan", "ios": "https://dc.lft.to/lastmile_qr_scan"}, "fusion_lon": 0.0}, {"lat": 39.015914, "is_disabled": 0, "type": "electric_bike", "lon": -77.04428333333334, "bike_id": "b338ca5974e4afe411ed9244e09207a9", "fusion_lat": 0.0, "name": "b338ca5974e4afe411ed9244e09207a9", "is_reserved": 0, "rental_uris": {"android": "https://dc.lft.to/lastmile_qr_scan", "ios": "https://dc.lft.to/lastmile_qr_scan"}, "fusion_lon": 0.0}, {"lat": 38.9044295, "is_disabled": 0, "type": "electric_scooter", "lon": -77.032517, "bike_id": "d1946f78076f4c6efb53ca356a909af7", "fusion_lat": 0.0, "name": "d1946f78076f4c6efb53ca356a909af7", "is_reserved": 0, "rental_uris": {"android": "https://dc.lft.to/lastmile_qr_scan", "ios": "https://dc.lft.to/lastmile_qr_scan"}, "fusion_lon": 0.0}, {"lat": 38.891234, "is_disabled": 0, "type": "electric_scooter", "lon": -76.94093166666667, "bike_id": "5f492156106f4f50d38dbdb5bc479261", "fusion_lat": 0.0, "name": "5f492156106f4f50d38dbdb5bc479261", "is_reserved": 0, "rental_uris": {"android": "https://dc.lft.to/lastmile_qr_scan", "ios": "https://dc.lft.to/lastmile_qr_scan"}, "fusion_lon": 0.0}, {"lat": 38.93554133333333, "is_disabled": 0, "type": "electric_scooter", "lon": -77.05869666666666, "bike_id": "f1115346264328266e26a95757d16fa8", "fusion_lat": 0.0, "name": "f1115346264328266e26a95757d16fa8", "is_reserved": 0, "rental_uris": {"android": "https://dc.lft.to/lastmile_qr_scan", "ios": "https://dc.lft.to/lastmile_qr_scan"}, "fusion_lon": 0.0}, {"lat": 38.89833333333333, "is_disabled": 0, "type": "electric_scooter", "lon": -77.0402345, "bike_id": "73b018fb7200e296d6e0b88595771929", "fusion_lat": 0.0, "name": "73b018fb7200e296d6e0b88595771929", "is_reserved": 0, "rental_uris": {"android": "https://dc.lft.to/lastmile_qr_scan", "ios": "https://dc.lft.to/lastmile_qr_scan"}, "fusion_lon": 0.0}, {"lat": 38.91190533333334, "is_disabled": 0, "type": "electric_scooter", "lon": -77.03155283333334, "bike_id": "9e7a2106fcdc3c90b85d6b49cba2c9ab", "fusion_lat": 0.0, "name": "9e7a2106fcdc3c90b85d6b49cba2c9ab", "is_reserved": 0, "rental_uris": {"android": "https://dc.lft.to/lastmile_qr_scan", "ios": "https://dc.lft.to/lastmile_qr_scan"}, "fusion_lon": 0.0}, {"lat": 38.900083333333335, "is_disabled": 0, "type": "electric_scooter", "lon": -77.0399255, "bike_id": "f8edfe9d009cd87924a782cbd051e944", "fusion_lat": 0.0, "name": "f8edfe9d009cd87924a782cbd051e944", "is_reserved": 0, "rental_uris": {"android": "https://dc.lft.to/lastmile_qr_scan", "ios": "https://dc.lft.to/lastmile_qr_scan"}, "fusion_lon": 0.0}, {"lat": 38.96089966666667, "is_disabled": 0, "type": "electric_scooter", "lon": -77.0828785, "bike_id": "6b60db069127d741f7a0218a81568da8", "fusion_lat": 0.0, "name": "6b60db069127d741f7a0218a81568da8", "is_reserved": 0, "rental_uris": {"android": "https://dc.lft.to/lastmile_qr_scan", "ios": "https://dc.lft.to/lastmile_qr_scan"}, "fusion_lon": 0.0}, {"lat": 38.9169655, "is_disabled": 0, "type": "electric_scooter", "lon": -77.03479733333333, "bike_id": "b8a2d59deee2520701bd2e58b30cb5e6", "fusion_lat": 0.0, "name": "b8a2d59deee2520701bd2e58b30cb5e6", "is_reserved": 0, "rental_uris": {"android": "https://dc.lft.to/lastmile_qr_scan", "ios": "https://dc.lft.to/lastmile_qr_scan"}, "fusion_lon": 0.0}, {"lat": 38.900110166666664, "is_disabled": 0, "type": "electric_scooter", "lon": -76.99852716666666, "bike_id": "d2386f4ded2a73f64e76a861e462cb2a", "fusion_lat": 0.0, "name": "d2386f4ded2a73f64e76a861e462cb2a", "is_reserved": 0, "rental_uris": {"android": "https://dc.lft.to/lastmile_qr_scan", "ios": "https://dc.lft.to/lastmile_qr_scan"}, "fusion_lon": 0.0}, {"lat": 38.9240185, "is_disabled": 0, "type": "electric_scooter", "lon": -77.02699466666667, "bike_id": "ef37d4e9f6b3233dbf7e8a03ca7ebfe4", "fusion_lat": 0.0, "name": "ef37d4e9f6b3233dbf7e8a03ca7ebfe4", "is_reserved": 0, "rental_uris": {"android": "https://dc.lft.to/lastmile_qr_scan", "ios": "https://dc.lft.to/lastmile_qr_scan"}, "fusion_lon": 0.0}, {"lat": 38.949039, "is_disabled": 0, "type": "electric_bike", "lon": -76.97237783333334, "bike_id": "bc37993ca94286da467989a8c36e409b", "fusion_lat": 0.0, "name": "bc37993ca94286da467989a8c36e409b", "is_reserved": 0, "rental_uris": {"android": "https://dc.lft.to/lastmile_qr_scan", "ios": "https://dc.lft.to/lastmile_qr_scan"}, "fusion_lon": 0.0}, {"lat": 38.91108666666667, "is_disabled": 0, "type": "electric_scooter", "lon": -77.03246083333333, "bike_id": "c62375ef3f09c2a5a0e6c2d1ce7e0348", "fusion_lat": 0.0, "name": "c62375ef3f09c2a5a0e6c2d1ce7e0348", "is_reserved": 0, "rental_uris": {"android": "https://dc.lft.to/lastmile_qr_scan", "ios": "https://dc.lft.to/lastmile_qr_scan"}, "fusion_lon": 0.0}, {"lat": 38.925428333333336, "is_disabled": 0, "type": "electric_scooter", "lon": -77.02576583333334, "bike_id": "2a405335905765d1ef46d57d5643404a", "fusion_lat": 0.0, "name": "2a405335905765d1ef46d57d5643404a", "is_reserved": 0, "rental_uris": {"android": "https://dc.lft.to/lastmile_qr_scan", "ios": "https://dc.lft.to/lastmile_qr_scan"}, "fusion_lon": 0.0}, {"lat": 38.898102333333334, "is_disabled": 0, "type": "electric_scooter", "lon": -77.0237705, "bike_id": "600f8090bc396a6140f3784a10f603b2", "fusion_lat": 0.0, "name": "600f8090bc396a6140f3784a10f603b2", "is_reserved": 0, "rental_uris": {"android": "https://dc.lft.to/lastmile_qr_scan", "ios": "https://dc.lft.to/lastmile_qr_scan"}, "fusion_lon": 0.0}, {"lat": 38.93084533333333, "is_disabled": 0, "type": "electric_scooter", "lon": -77.031435, "bike_id": "cc55d0518f78d3136ecdb40d40a4a3a0", "fusion_lat": 0.0, "name": "cc55d0518f78d3136ecdb40d40a4a3a0", "is_reserved": 0, "rental_uris": {"android": "https://dc.lft.to/lastmile_qr_scan", "ios": "https://dc.lft.to/lastmile_qr_scan"}, "fusion_lon": 0.0}, {"lat": 38.89247316666667, "is_disabled": 0, "type": "electric_scooter", "lon": -77.03185933333333, "bike_id": "965dfcf32d117ba8613e86a5ad7b84ef", "fusion_lat": 0.0, "name": "965dfcf32d117ba8613e86a5ad7b84ef", "is_reserved": 0, "rental_uris": {"android": "https://dc.lft.to/lastmile_qr_scan", "ios": "https://dc.lft.to/lastmile_qr_scan"}, "fusion_lon": 0.0}, {"lat": 38.940866, "is_disabled": 0, "type": "electric_scooter", "lon": -77.0613415, "bike_id": "8e649ff6ae275a6d295ad08d6a39fcd1", "fusion_lat": 0.0, "name": "8e649ff6ae275a6d295ad08d6a39fcd1", "is_reserved": 0, "rental_uris": {"android": "https://dc.lft.to/lastmile_qr_scan", "ios": "https://dc.lft.to/lastmile_qr_scan"}, "fusion_lon": 0.0}, {"lat": 38.92865366666667, "is_disabled": 0, "type": "electric_scooter", "lon": -77.03287233333333, "bike_id": "253988610da895b3ea96ea7100e85abd", "fusion_lat": 0.0, "name": "253988610da895b3ea96ea7100e85abd", "is_reserved": 0, "rental_uris": {"android": "https://dc.lft.to/lastmile_qr_scan", "ios": "https://dc.lft.to/lastmile_qr_scan"}, "fusion_lon": 0.0}, {"lat": 38.935710666666665, "is_disabled": 0, "type": "electric_scooter", "lon": -77.032621, "bike_id": "608f8fa0fc6b3bccd4d234168779fcd8", "fusion_lat": 0.0, "name": "608f8fa0fc6b3bccd4d234168779fcd8", "is_reserved": 0, "rental_uris": {"android": "https://dc.lft.to/lastmile_qr_scan", "ios": "https://dc.lft.to/lastmile_qr_scan"}, "fusion_lon": 0.0}, {"lat": 38.920464333333335, "is_disabled": 0, "type": "electric_bike", "lon": -77.003447, "bike_id": "1356a0225367fe876a9c4762b67357a8", "fusion_lat": 0.0, "name": "1356a0225367fe876a9c4762b67357a8", "is_reserved": 0, "rental_uris": {"android": "https://dc.lft.to/lastmile_qr_scan", "ios": "https://dc.lft.to/lastmile_qr_scan"}, "fusion_lon": 0.0}, {"lat": 38.9370765, "is_disabled": 0, "type": "electric_scooter", "lon": -77.0240155, "bike_id": "ad04372bb06cdf56289f1a377fd0dbb6", "fusion_lat": 0.0, "name": "ad04372bb06cdf56289f1a377fd0dbb6", "is_reserved": 0, "rental_uris": {"android": "https://dc.lft.to/lastmile_qr_scan", "ios": "https://dc.lft.to/lastmile_qr_scan"}, "fusion_lon": 0.0}, {"lat": 38.86271933333333, "is_disabled": 0, "type": "electric_scooter", "lon": -76.99245066666667, "bike_id": "e507939787fe4ab3622764532cbca016", "fusion_lat": 0.0, "name": "e507939787fe4ab3622764532cbca016", "is_reserved": 0, "rental_uris": {"android": "https://dc.lft.to/lastmile_qr_scan", "ios": "https://dc.lft.to/lastmile_qr_scan"}, "fusion_lon": 0.0}, {"lat": 38.91704566666667, "is_disabled": 0, "type": "electric_scooter", "lon": -77.04699283333333, "bike_id": "833450ac243d920cc29f37daed499fd8", "fusion_lat": 0.0, "name": "833450ac243d920cc29f37daed499fd8", "is_reserved": 0, "rental_uris": {"android": "https://dc.lft.to/lastmile_qr_scan", "ios": "https://dc.lft.to/lastmile_qr_scan"}, "fusion_lon": 0.0}, {"lat": 38.904874, "is_disabled": 0, "type": "electric_scooter", "lon": -77.05742, "bike_id": "d194ce9dabb899956e5e556c5bc06fca", "fusion_lat": 0.0, "name": "d194ce9dabb899956e5e556c5bc06fca", "is_reserved": 0, "rental_uris": {"android": "https://dc.lft.to/lastmile_qr_scan", "ios": "https://dc.lft.to/lastmile_qr_scan"}, "fusion_lon": 0.0}, {"lat": 38.94051116666667, "is_disabled": 0, "type": "electric_scooter", "lon": -77.02334283333333, "bike_id": "046e060bee94772fab0cde3adaf1d441", "fusion_lat": 0.0, "name": "046e060bee94772fab0cde3adaf1d441", "is_reserved": 0, "rental_uris": {"android": "https://dc.lft.to/lastmile_qr_scan", "ios": "https://dc.lft.to/lastmile_qr_scan"}, "fusion_lon": 0.0}, {"lat": 38.921688, "is_disabled": 0, "type": "electric_scooter", "lon": -77.04241566666667, "bike_id": "f5c56535de38e38ec98bba05bb30831c", "fusion_lat": 0.0, "name": "f5c56535de38e38ec98bba05bb30831c", "is_reserved": 0, "rental_uris": {"android": "https://dc.lft.to/lastmile_qr_scan", "ios": "https://dc.lft.to/lastmile_qr_scan"}, "fusion_lon": 0.0}, {"lat": 38.89607216666667, "is_disabled": 0, "type": "electric_scooter", "lon": -77.00927716666666, "bike_id": "0d073c5bf1123fbff46a259915c77578", "fusion_lat": 0.0, "name": "0d073c5bf1123fbff46a259915c77578", "is_reserved": 0, "rental_uris": {"android": "https://dc.lft.to/lastmile_qr_scan", "ios": "https://dc.lft.to/lastmile_qr_scan"}, "fusion_lon": 0.0}, {"lat": 38.9023755, "is_disabled": 0, "type": "electric_scooter", "lon": -77.01915116666666, "bike_id": "d6c306333a6fe32b68e319626bf8901b", "fusion_lat": 0.0, "name": "d6c306333a6fe32b68e319626bf8901b", "is_reserved": 0, "rental_uris": {"android": "https://dc.lft.to/lastmile_qr_scan", "ios": "https://dc.lft.to/lastmile_qr_scan"}, "fusion_lon": 0.0}, {"lat": 38.908963, "is_disabled": 0, "type": "electric_scooter", "lon": -77.04300466666666, "bike_id": "e85806eae1d68b77b78c7bc7f6444029", "fusion_lat": 0.0, "name": "e85806eae1d68b77b78c7bc7f6444029", "is_reserved": 0, "rental_uris": {"android": "https://dc.lft.to/lastmile_qr_scan", "ios": "https://dc.lft.to/lastmile_qr_scan"}, "fusion_lon": 0.0}, {"lat": 38.928385166666665, "is_disabled": 0, "type": "electric_scooter", "lon": -77.05418966666667, "bike_id": "83535e8824dcc3845a2cd42a88987a74", "fusion_lat": 0.0, "name": "83535e8824dcc3845a2cd42a88987a74", "is_reserved": 0, "rental_uris": {"android": "https://dc.lft.to/lastmile_qr_scan", "ios": "https://dc.lft.to/lastmile_qr_scan"}, "fusion_lon": 0.0}, {"lat": 38.924389, "is_disabled": 0, "type": "electric_scooter", "lon": -77.03361083333333, "bike_id": "d3ef19515d93fbfb381947287804cf08", "fusion_lat": 0.0, "name": "d3ef19515d93fbfb381947287804cf08", "is_reserved": 0, "rental_uris": {"android": "https://dc.lft.to/lastmile_qr_scan", "ios": "https://dc.lft.to/lastmile_qr_scan"}, "fusion_lon": 0.0}, {"lat": 38.9169935, "is_disabled": 0, "type": "electric_scooter", "lon": -77.03029233333334, "bike_id": "57637c0e4e5d0d723f2b6f90f9ae5d4a", "fusion_lat": 0.0, "name": "57637c0e4e5d0d723f2b6f90f9ae5d4a", "is_reserved": 0, "rental_uris": {"android": "https://dc.lft.to/lastmile_qr_scan", "ios": "https://dc.lft.to/lastmile_qr_scan"}, "fusion_lon": 0.0}, {"lat": 38.91715166666667, "is_disabled": 0, "type": "electric_scooter", "lon": -77.02891516666666, "bike_id": "cf69f5f71c7a7d09aedc533404a7aee5", "fusion_lat": 0.0, "name": "cf69f5f71c7a7d09aedc533404a7aee5", "is_reserved": 0, "rental_uris": {"android": "https://dc.lft.to/lastmile_qr_scan", "ios": "https://dc.lft.to/lastmile_qr_scan"}, "fusion_lon": 0.0}, {"lat": 38.88131333333333, "is_disabled": 0, "type": "electric_scooter", "lon": -76.98724633333333, "bike_id": "b477d6380a69ab2410c3d340f171cca7", "fusion_lat": 0.0, "name": "b477d6380a69ab2410c3d340f171cca7", "is_reserved": 0, "rental_uris": {"android": "https://dc.lft.to/lastmile_qr_scan", "ios": "https://dc.lft.to/lastmile_qr_scan"}, "fusion_lon": 0.0}, {"lat": 38.909889166666666, "is_disabled": 0, "type": "electric_scooter", "lon": -76.99737166666667, "bike_id": "051e6add880f801095b2c3118d0ec273", "fusion_lat": 0.0, "name": "051e6add880f801095b2c3118d0ec273", "is_reserved": 0, "rental_uris": {"android": "https://dc.lft.to/lastmile_qr_scan", "ios": "https://dc.lft.to/lastmile_qr_scan"}, "fusion_lon": 0.0}, {"lat": 38.931344833333334, "is_disabled": 0, "type": "electric_scooter", "lon": -77.02147833333333, "bike_id": "3ab9e258680f446660189f2834931a5a", "fusion_lat": 0.0, "name": "3ab9e258680f446660189f2834931a5a", "is_reserved": 0, "rental_uris": {"android": "https://dc.lft.to/lastmile_qr_scan", "ios": "https://dc.lft.to/lastmile_qr_scan"}, "fusion_lon": 0.0}, {"lat": 38.906563, "is_disabled": 0, "type": "electric_scooter", "lon": -77.0083655, "bike_id": "425299e24a9edf7115d15b00804aa94e", "fusion_lat": 0.0, "name": "425299e24a9edf7115d15b00804aa94e", "is_reserved": 0, "rental_uris": {"android": "https://dc.lft.to/lastmile_qr_scan", "ios": "https://dc.lft.to/lastmile_qr_scan"}, "fusion_lon": 0.0}, {"lat": 38.86661483333334, "is_disabled": 0, "type": "electric_scooter", "lon": -76.98906883333333, "bike_id": "7496b58dfe557246f3fb10803441bd25", "fusion_lat": 0.0, "name": "7496b58dfe557246f3fb10803441bd25", "is_reserved": 0, "rental_uris": {"android": "https://dc.lft.to/lastmile_qr_scan", "ios": "https://dc.lft.to/lastmile_qr_scan"}, "fusion_lon": 0.0}, {"lat": 38.906780166666664, "is_disabled": 0, "type": "electric_scooter", "lon": -77.06271683333334, "bike_id": "0536b465931e34f95127a7c19686a2df", "fusion_lat": 0.0, "name": "0536b465931e34f95127a7c19686a2df", "is_reserved": 0, "rental_uris": {"android": "https://dc.lft.to/lastmile_qr_scan", "ios": "https://dc.lft.to/lastmile_qr_scan"}, "fusion_lon": 0.0}, {"lat": 38.92221983333334, "is_disabled": 0, "type": "electric_scooter", "lon": -77.04244783333333, "bike_id": "0af35746c372dd9be4e3612d8998b14d", "fusion_lat": 0.0, "name": "0af35746c372dd9be4e3612d8998b14d", "is_reserved": 0, "rental_uris": {"android": "https://dc.lft.to/lastmile_qr_scan", "ios": "https://dc.lft.to/lastmile_qr_scan"}, "fusion_lon": 0.0}, {"lat": 38.8965, "is_disabled": 0, "type": "electric_scooter", "lon": -77.0467515, "bike_id": "b4bf54351bf3f56297bdf3055f9dbf13", "fusion_lat": 0.0, "name": "b4bf54351bf3f56297bdf3055f9dbf13", "is_reserved": 0, "rental_uris": {"android": "https://dc.lft.to/lastmile_qr_scan", "ios": "https://dc.lft.to/lastmile_qr_scan"}, "fusion_lon": 0.0}, {"lat": 38.93845533333333, "is_disabled": 0, "type": "electric_scooter", "lon": -77.03389683333333, "bike_id": "ad81003aaa9070054aa41b37c145ecda", "fusion_lat": 0.0, "name": "ad81003aaa9070054aa41b37c145ecda", "is_reserved": 0, "rental_uris": {"android": "https://dc.lft.to/lastmile_qr_scan", "ios": "https://dc.lft.to/lastmile_qr_scan"}, "fusion_lon": 0.0}, {"lat": 38.957078833333334, "is_disabled": 0, "type": "electric_scooter", "lon": -77.02406016666667, "bike_id": "a957c66963644ccc36f8739f8de29f65", "fusion_lat": 0.0, "name": "a957c66963644ccc36f8739f8de29f65", "is_reserved": 0, "rental_uris": {"android": "https://dc.lft.to/lastmile_qr_scan", "ios": "https://dc.lft.to/lastmile_qr_scan"}, "fusion_lon": 0.0}, {"lat": 38.93428466666667, "is_disabled": 0, "type": "electric_scooter", "lon": -76.96509916666666, "bike_id": "8932baaa0737f3b73db55f61f5dcbf8f", "fusion_lat": 0.0, "name": "8932baaa0737f3b73db55f61f5dcbf8f", "is_reserved": 0, "rental_uris": {"android": "https://dc.lft.to/lastmile_qr_scan", "ios": "https://dc.lft.to/lastmile_qr_scan"}, "fusion_lon": 0.0}, {"lat": 38.93378033333333, "is_disabled": 0, "type": "electric_scooter", "lon": -77.035564, "bike_id": "be3400fee15450b4cf3b91ee48eed894", "fusion_lat": 0.0, "name": "be3400fee15450b4cf3b91ee48eed894", "is_reserved": 0, "rental_uris": {"android": "https://dc.lft.to/lastmile_qr_scan", "ios": "https://dc.lft.to/lastmile_qr_scan"}, "fusion_lon": 0.0}, {"lat": 38.875442666666665, "is_disabled": 0, "type": "electric_scooter", "lon": -77.005381, "bike_id": "81bcc42bfcc5d2833bbd1705fd21b4ba", "fusion_lat": 0.0, "name": "81bcc42bfcc5d2833bbd1705fd21b4ba", "is_reserved": 0, "rental_uris": {"android": "https://dc.lft.to/lastmile_qr_scan", "ios": "https://dc.lft.to/lastmile_qr_scan"}, "fusion_lon": 0.0}, {"lat": 38.9003005, "is_disabled": 0, "type": "electric_scooter", "lon": -77.00218816666667, "bike_id": "e7cb3628c33ae719ac5415ef2278643b", "fusion_lat": 0.0, "name": "e7cb3628c33ae719ac5415ef2278643b", "is_reserved": 0, "rental_uris": {"android": "https://dc.lft.to/lastmile_qr_scan", "ios": "https://dc.lft.to/lastmile_qr_scan"}, "fusion_lon": 0.0}, {"lat": 38.92782616666667, "is_disabled": 0, "type": "electric_scooter", "lon": -77.0273445, "bike_id": "3c5cb20a6c206691b47db24704032ac8", "fusion_lat": 0.0, "name": "3c5cb20a6c206691b47db24704032ac8", "is_reserved": 0, "rental_uris": {"android": "https://dc.lft.to/lastmile_qr_scan", "ios": "https://dc.lft.to/lastmile_qr_scan"}, "fusion_lon": 0.0}, {"lat": 38.93176733333333, "is_disabled": 0, "type": "electric_scooter", "lon": -77.023701, "bike_id": "b35cdde9360a369488f47c191ffe6ee2", "fusion_lat": 0.0, "name": "b35cdde9360a369488f47c191ffe6ee2", "is_reserved": 0, "rental_uris": {"android": "https://dc.lft.to/lastmile_qr_scan", "ios": "https://dc.lft.to/lastmile_qr_scan"}, "fusion_lon": 0.0}, {"lat": 38.88545933333333, "is_disabled": 0, "type": "electric_bike", "lon": -77.11788416666667, "bike_id": "b6b993d41183120ff691cdef988db166", "fusion_lat": 0.0, "name": "b6b993d41183120ff691cdef988db166", "is_reserved": 0, "rental_uris": {"android": "https://dc.lft.to/lastmile_qr_scan", "ios": "https://dc.lft.to/lastmile_qr_scan"}, "fusion_lon": 0.0}, {"lat": 38.8845995, "is_disabled": 0, "type": "electric_scooter", "lon": -76.92962633333333, "bike_id": "b88ee9d447448391d445a826281937ed", "fusion_lat": 0.0, "name": "b88ee9d447448391d445a826281937ed", "is_reserved": 0, "rental_uris": {"android": "https://dc.lft.to/lastmile_qr_scan", "ios": "https://dc.lft.to/lastmile_qr_scan"}, "fusion_lon": 0.0}, {"lat": 38.8861155, "is_disabled": 0, "type": "electric_scooter", "lon": -77.01895433333334, "bike_id": "3cb9a4ed91e7e726ff707c4af11e338d", "fusion_lat": 0.0, "name": "3cb9a4ed91e7e726ff707c4af11e338d", "is_reserved": 0, "rental_uris": {"android": "https://dc.lft.to/lastmile_qr_scan", "ios": "https://dc.lft.to/lastmile_qr_scan"}, "fusion_lon": 0.0}, {"lat": 38.919614833333334, "is_disabled": 0, "type": "electric_scooter", "lon": -77.0144095, "bike_id": "bca43f35913b2f43861430ec32a1ae19", "fusion_lat": 0.0, "name": "bca43f35913b2f43861430ec32a1ae19", "is_reserved": 0, "rental_uris": {"android": "https://dc.lft.to/lastmile_qr_scan", "ios": "https://dc.lft.to/lastmile_qr_scan"}, "fusion_lon": 0.0}, {"lat": 38.90920533333333, "is_disabled": 0, "type": "electric_scooter", "lon": -77.04321083333333, "bike_id": "14af440322d5904e16212c0df500251e", "fusion_lat": 0.0, "name": "14af440322d5904e16212c0df500251e", "is_reserved": 0, "rental_uris": {"android": "https://dc.lft.to/lastmile_qr_scan", "ios": "https://dc.lft.to/lastmile_qr_scan"}, "fusion_lon": 0.0}, {"lat": 38.886795666666664, "is_disabled": 0, "type": "electric_bike", "lon": -77.16238833333334, "bike_id": "9f88e222ea43b79e307506c8d8dd716d", "fusion_lat": 0.0, "name": "9f88e222ea43b79e307506c8d8dd716d", "is_reserved": 0, "rental_uris": {"android": "https://dc.lft.to/lastmile_qr_scan", "ios": "https://dc.lft.to/lastmile_qr_scan"}, "fusion_lon": 0.0}, {"lat": 38.89903483333333, "is_disabled": 0, "type": "electric_scooter", "lon": -77.03925966666667, "bike_id": "d66501125143754f0b79894e8aeb89bc", "fusion_lat": 0.0, "name": "d66501125143754f0b79894e8aeb89bc", "is_reserved": 0, "rental_uris": {"android": "https://dc.lft.to/lastmile_qr_scan", "ios": "https://dc.lft.to/lastmile_qr_scan"}, "fusion_lon": 0.0}, {"lat": 38.92393666666667, "is_disabled": 0, "type": "electric_scooter", "lon": -77.000706, "bike_id": "813df1dc1c082a1c1aeef25701f1a8df", "fusion_lat": 0.0, "name": "813df1dc1c082a1c1aeef25701f1a8df", "is_reserved": 0, "rental_uris": {"android": "https://dc.lft.to/lastmile_qr_scan", "ios": "https://dc.lft.to/lastmile_qr_scan"}, "fusion_lon": 0.0}, {"lat": 38.908329333333334, "is_disabled": 0, "type": "electric_scooter", "lon": -76.99703933333333, "bike_id": "a0f1564b00563bca8f5daf773e3ce47b", "fusion_lat": 0.0, "name": "a0f1564b00563bca8f5daf773e3ce47b", "is_reserved": 0, "rental_uris": {"android": "https://dc.lft.to/lastmile_qr_scan", "ios": "https://dc.lft.to/lastmile_qr_scan"}, "fusion_lon": 0.0}, {"lat": 38.91821133333333, "is_disabled": 0, "type": "electric_scooter", "lon": -77.03444983333333, "bike_id": "f0e6289c80d9974e7ff0876fe8e44cd6", "fusion_lat": 0.0, "name": "f0e6289c80d9974e7ff0876fe8e44cd6", "is_reserved": 0, "rental_uris": {"android": "https://dc.lft.to/lastmile_qr_scan", "ios": "https://dc.lft.to/lastmile_qr_scan"}, "fusion_lon": 0.0}, {"lat": 38.904162666666664, "is_disabled": 0, "type": "electric_scooter", "lon": -77.01873066666667, "bike_id": "8b6add23c1ba9e451244398c59ce2b29", "fusion_lat": 0.0, "name": "8b6add23c1ba9e451244398c59ce2b29", "is_reserved": 0, "rental_uris": {"android": "https://dc.lft.to/lastmile_qr_scan", "ios": "https://dc.lft.to/lastmile_qr_scan"}, "fusion_lon": 0.0}, {"lat": 38.892883, "is_disabled": 0, "type": "electric_scooter", "lon": -77.032208, "bike_id": "7b483d91e89465233d7bcd2bccc2e555", "fusion_lat": 0.0, "name": "7b483d91e89465233d7bcd2bccc2e555", "is_reserved": 0, "rental_uris": {"android": "https://dc.lft.to/lastmile_qr_scan", "ios": "https://dc.lft.to/lastmile_qr_scan"}, "fusion_lon": 0.0}, {"lat": 38.861038, "is_disabled": 0, "type": "electric_scooter", "lon": -76.98365816666667, "bike_id": "4e6292bb82f7a90bf870af2b6568a09c", "fusion_lat": 0.0, "name": "4e6292bb82f7a90bf870af2b6568a09c", "is_reserved": 0, "rental_uris": {"android": "https://dc.lft.to/lastmile_qr_scan", "ios": "https://dc.lft.to/lastmile_qr_scan"}, "fusion_lon": 0.0}, {"lat": 38.92338183333333, "is_disabled": 0, "type": "electric_scooter", "lon": -77.01904516666667, "bike_id": "64028bdf06a30dbed5f811d63c5ad490", "fusion_lat": 0.0, "name": "64028bdf06a30dbed5f811d63c5ad490", "is_reserved": 0, "rental_uris": {"android": "https://dc.lft.to/lastmile_qr_scan", "ios": "https://dc.lft.to/lastmile_qr_scan"}, "fusion_lon": 0.0}, {"lat": 38.88339166666667, "is_disabled": 0, "type": "electric_scooter", "lon": -77.03149133333334, "bike_id": "b4b73f743400da8d661e0c54dd74156b", "fusion_lat": 0.0, "name": "b4b73f743400da8d661e0c54dd74156b", "is_reserved": 0, "rental_uris": {"android": "https://dc.lft.to/lastmile_qr_scan", "ios": "https://dc.lft.to/lastmile_qr_scan"}, "fusion_lon": 0.0}, {"lat": 38.89772966666666, "is_disabled": 0, "type": "electric_scooter", "lon": -77.03180483333334, "bike_id": "98e0e71c95a3d404b64ce57aa64d2cf0", "fusion_lat": 0.0, "name": "98e0e71c95a3d404b64ce57aa64d2cf0", "is_reserved": 0, "rental_uris": {"android": "https://dc.lft.to/lastmile_qr_scan", "ios": "https://dc.lft.to/lastmile_qr_scan"}, "fusion_lon": 0.0}, {"lat": 38.920929, "is_disabled": 0, "type": "electric_scooter", "lon": -77.025281, "bike_id": "985d0baafb3d950ac0d7e44d953beacf", "fusion_lat": 0.0, "name": "985d0baafb3d950ac0d7e44d953beacf", "is_reserved": 0, "rental_uris": {"android": "https://dc.lft.to/lastmile_qr_scan", "ios": "https://dc.lft.to/lastmile_qr_scan"}, "fusion_lon": 0.0}, {"lat": 38.9224325, "is_disabled": 0, "type": "electric_scooter", "lon": -77.04254316666666, "bike_id": "dba1351e86ff574bcee276ab46735f9d", "fusion_lat": 0.0, "name": "dba1351e86ff574bcee276ab46735f9d", "is_reserved": 0, "rental_uris": {"android": "https://dc.lft.to/lastmile_qr_scan", "ios": "https://dc.lft.to/lastmile_qr_scan"}, "fusion_lon": 0.0}, {"lat": 38.909779666666665, "is_disabled": 0, "type": "electric_scooter", "lon": -77.031864, "bike_id": "7c4226cb8cff09cd8393fed2298a4d56", "fusion_lat": 0.0, "name": "7c4226cb8cff09cd8393fed2298a4d56", "is_reserved": 0, "rental_uris": {"android": "https://dc.lft.to/lastmile_qr_scan", "ios": "https://dc.lft.to/lastmile_qr_scan"}, "fusion_lon": 0.0}, {"lat": 38.913384666666666, "is_disabled": 0, "type": "electric_scooter", "lon": -77.00226333333333, "bike_id": "b695d64a0b262a699da4b5f6ff7bf996", "fusion_lat": 0.0, "name": "b695d64a0b262a699da4b5f6ff7bf996", "is_reserved": 0, "rental_uris": {"android": "https://dc.lft.to/lastmile_qr_scan", "ios": "https://dc.lft.to/lastmile_qr_scan"}, "fusion_lon": 0.0}, {"lat": 38.8950995, "is_disabled": 0, "type": "electric_scooter", "lon": -77.03959733333333, "bike_id": "658097e155f9b4b88bfcf4a0605c2654", "fusion_lat": 0.0, "name": "658097e155f9b4b88bfcf4a0605c2654", "is_reserved": 0, "rental_uris": {"android": "https://dc.lft.to/lastmile_qr_scan", "ios": "https://dc.lft.to/lastmile_qr_scan"}, "fusion_lon": 0.0}, {"lat": 38.910140166666665, "is_disabled": 0, "type": "electric_scooter", "lon": -76.99391616666666, "bike_id": "24358c0d35afa4f023dbe98f3f78f92f", "fusion_lat": 0.0, "name": "24358c0d35afa4f023dbe98f3f78f92f", "is_reserved": 0, "rental_uris": {"android": "https://dc.lft.to/lastmile_qr_scan", "ios": "https://dc.lft.to/lastmile_qr_scan"}, "fusion_lon": 0.0}, {"lat": 38.921384333333336, "is_disabled": 0, "type": "electric_scooter", "lon": -77.01039133333333, "bike_id": "2adcf07706e54233345d6b77e9d77bea", "fusion_lat": 0.0, "name": "2adcf07706e54233345d6b77e9d77bea", "is_reserved": 0, "rental_uris": {"android": "https://dc.lft.to/lastmile_qr_scan", "ios": "https://dc.lft.to/lastmile_qr_scan"}, "fusion_lon": 0.0}, {"lat": 38.86625216666667, "is_disabled": 0, "type": "electric_scooter", "lon": -76.98699333333333, "bike_id": "9c1431fb3ca2b245d0b38987ad05c1a4", "fusion_lat": 0.0, "name": "9c1431fb3ca2b245d0b38987ad05c1a4", "is_reserved": 0, "rental_uris": {"android": "https://dc.lft.to/lastmile_qr_scan", "ios": "https://dc.lft.to/lastmile_qr_scan"}, "fusion_lon": 0.0}, {"lat": 38.842828833333336, "is_disabled": 0, "type": "electric_bike", "lon": -76.98842866666666, "bike_id": "8e72cca36df1e8ceda63583be36ca804", "fusion_lat": 0.0, "name": "8e72cca36df1e8ceda63583be36ca804", "is_reserved": 0, "rental_uris": {"android": "https://dc.lft.to/lastmile_qr_scan", "ios": "https://dc.lft.to/lastmile_qr_scan"}, "fusion_lon": 0.0}, {"lat": 38.887646, "is_disabled": 0, "type": "electric_scooter", "lon": -76.95599316666667, "bike_id": "07763d089c9c36be9b013de6241b158a", "fusion_lat": 0.0, "name": "07763d089c9c36be9b013de6241b158a", "is_reserved": 0, "rental_uris": {"android": "https://dc.lft.to/lastmile_qr_scan", "ios": "https://dc.lft.to/lastmile_qr_scan"}, "fusion_lon": 0.0}, {"lat": 38.916720166666664, "is_disabled": 0, "type": "electric_scooter", "lon": -77.02318816666667, "bike_id": "500af06aec28421741b85c901233d272", "fusion_lat": 0.0, "name": "500af06aec28421741b85c901233d272", "is_reserved": 0, "rental_uris": {"android": "https://dc.lft.to/lastmile_qr_scan", "ios": "https://dc.lft.to/lastmile_qr_scan"}, "fusion_lon": 0.0}, {"lat": 38.84292933333333, "is_disabled": 0, "type": "electric_scooter", "lon": -76.99946216666666, "bike_id": "851c0b41325cfe3a51c92fa660663c72", "fusion_lat": 0.0, "name": "851c0b41325cfe3a51c92fa660663c72", "is_reserved": 0, "rental_uris": {"android": "https://dc.lft.to/lastmile_qr_scan", "ios": "https://dc.lft.to/lastmile_qr_scan"}, "fusion_lon": 0.0}, {"lat": 38.9023865, "is_disabled": 0, "type": "electric_scooter", "lon": -77.00200516666666, "bike_id": "479242b35dd9d2329142fb84c8f87394", "fusion_lat": 0.0, "name": "479242b35dd9d2329142fb84c8f87394", "is_reserved": 0, "rental_uris": {"android": "https://dc.lft.to/lastmile_qr_scan", "ios": "https://dc.lft.to/lastmile_qr_scan"}, "fusion_lon": 0.0}, {"lat": 38.884964, "is_disabled": 0, "type": "electric_scooter", "lon": -77.00708883333333, "bike_id": "926a38205864a43c5ec9cdb2cab853e4", "fusion_lat": 0.0, "name": "926a38205864a43c5ec9cdb2cab853e4", "is_reserved": 0, "rental_uris": {"android": "https://dc.lft.to/lastmile_qr_scan", "ios": "https://dc.lft.to/lastmile_qr_scan"}, "fusion_lon": 0.0}, {"lat": 38.92364666666667, "is_disabled": 0, "type": "electric_scooter", "lon": -77.040351, "bike_id": "895da46f3ffc03dd402cf9278c10ce61", "fusion_lat": 0.0, "name": "895da46f3ffc03dd402cf9278c10ce61", "is_reserved": 0, "rental_uris": {"android": "https://dc.lft.to/lastmile_qr_scan", "ios": "https://dc.lft.to/lastmile_qr_scan"}, "fusion_lon": 0.0}, {"lat": 38.8493305, "is_disabled": 0, "type": "electric_bike", "lon": -77.10017616666667, "bike_id": "6d639fc75ab73d53df3c2827599a20df", "fusion_lat": 0.0, "name": "6d639fc75ab73d53df3c2827599a20df", "is_reserved": 0, "rental_uris": {"android": "https://dc.lft.to/lastmile_qr_scan", "ios": "https://dc.lft.to/lastmile_qr_scan"}, "fusion_lon": 0.0}, {"lat": 38.91846133333333, "is_disabled": 0, "type": "electric_scooter", "lon": -77.03206166666666, "bike_id": "35dfa41aebffbcda80282bb38d8458e2", "fusion_lat": 0.0, "name": "35dfa41aebffbcda80282bb38d8458e2", "is_reserved": 0, "rental_uris": {"android": "https://dc.lft.to/lastmile_qr_scan", "ios": "https://dc.lft.to/lastmile_qr_scan"}, "fusion_lon": 0.0}, {"lat": 38.94498133333333, "is_disabled": 0, "type": "electric_scooter", "lon": -77.01550283333333, "bike_id": "acb5b23c479151f15e354ad86c812c6a", "fusion_lat": 0.0, "name": "acb5b23c479151f15e354ad86c812c6a", "is_reserved": 0, "rental_uris": {"android": "https://dc.lft.to/lastmile_qr_scan", "ios": "https://dc.lft.to/lastmile_qr_scan"}, "fusion_lon": 0.0}, {"lat": 38.91808666666667, "is_disabled": 0, "type": "electric_scooter", "lon": -77.03987266666667, "bike_id": "7e8c46b203540f1750bfd359d57d37e9", "fusion_lat": 0.0, "name": "7e8c46b203540f1750bfd359d57d37e9", "is_reserved": 0, "rental_uris": {"android": "https://dc.lft.to/lastmile_qr_scan", "ios": "https://dc.lft.to/lastmile_qr_scan"}, "fusion_lon": 0.0}, {"lat": 38.91629483333333, "is_disabled": 0, "type": "electric_scooter", "lon": -77.03184833333333, "bike_id": "7a669e24f93076dc014dd4aa6f6ebbfd", "fusion_lat": 0.0, "name": "7a669e24f93076dc014dd4aa6f6ebbfd", "is_reserved": 0, "rental_uris": {"android": "https://dc.lft.to/lastmile_qr_scan", "ios": "https://dc.lft.to/lastmile_qr_scan"}, "fusion_lon": 0.0}, {"lat": 38.919009333333335, "is_disabled": 0, "type": "electric_scooter", "lon": -77.00238666666667, "bike_id": "320e0906e34bc39deaa587f07fbb9e3b", "fusion_lat": 0.0, "name": "320e0906e34bc39deaa587f07fbb9e3b", "is_reserved": 0, "rental_uris": {"android": "https://dc.lft.to/lastmile_qr_scan", "ios": "https://dc.lft.to/lastmile_qr_scan"}, "fusion_lon": 0.0}, {"lat": 38.930651166666664, "is_disabled": 0, "type": "electric_scooter", "lon": -77.02824866666667, "bike_id": "041ad4beb11c0d28465318615fe4ae5e", "fusion_lat": 0.0, "name": "041ad4beb11c0d28465318615fe4ae5e", "is_reserved": 0, "rental_uris": {"android": "https://dc.lft.to/lastmile_qr_scan", "ios": "https://dc.lft.to/lastmile_qr_scan"}, "fusion_lon": 0.0}, {"lat": 38.90908266666667, "is_disabled": 0, "type": "electric_scooter", "lon": -77.02713716666666, "bike_id": "96207ca9b43af18534a07991b2ccef70", "fusion_lat": 0.0, "name": "96207ca9b43af18534a07991b2ccef70", "is_reserved": 0, "rental_uris": {"android": "https://dc.lft.to/lastmile_qr_scan", "ios": "https://dc.lft.to/lastmile_qr_scan"}, "fusion_lon": 0.0}, {"lat": 38.909609833333334, "is_disabled": 0, "type": "electric_scooter", "lon": -77.02283383333334, "bike_id": "96b92db79b59f5aa80fa2f1573aa15f1", "fusion_lat": 0.0, "name": "96b92db79b59f5aa80fa2f1573aa15f1", "is_reserved": 0, "rental_uris": {"android": "https://dc.lft.to/lastmile_qr_scan", "ios": "https://dc.lft.to/lastmile_qr_scan"}, "fusion_lon": 0.0}, {"lat": 38.91716133333333, "is_disabled": 0, "type": "electric_scooter", "lon": -77.03181733333334, "bike_id": "b7dec5e8d0f082b18b078a578c839707", "fusion_lat": 0.0, "name": "b7dec5e8d0f082b18b078a578c839707", "is_reserved": 0, "rental_uris": {"android": "https://dc.lft.to/lastmile_qr_scan", "ios": "https://dc.lft.to/lastmile_qr_scan"}, "fusion_lon": 0.0}, {"lat": 38.9103535, "is_disabled": 0, "type": "electric_scooter", "lon": -77.03833233333333, "bike_id": "883fc37436f7da37ed75468a06e076d1", "fusion_lat": 0.0, "name": "883fc37436f7da37ed75468a06e076d1", "is_reserved": 0, "rental_uris": {"android": "https://dc.lft.to/lastmile_qr_scan", "ios": "https://dc.lft.to/lastmile_qr_scan"}, "fusion_lon": 0.0}, {"lat": 38.9078435, "is_disabled": 0, "type": "electric_scooter", "lon": -77.03200883333334, "bike_id": "88024f2ac19ec624a3e788fb745b0065", "fusion_lat": 0.0, "name": "88024f2ac19ec624a3e788fb745b0065", "is_reserved": 0, "rental_uris": {"android": "https://dc.lft.to/lastmile_qr_scan", "ios": "https://dc.lft.to/lastmile_qr_scan"}, "fusion_lon": 0.0}, {"lat": 38.96213566666667, "is_disabled": 0, "type": "electric_bike", "lon": -77.02781166666666, "bike_id": "99e10b6a43bba059d381d8ac74ebc0a7", "fusion_lat": 0.0, "name": "99e10b6a43bba059d381d8ac74ebc0a7", "is_reserved": 0, "rental_uris": {"android": "https://dc.lft.to/lastmile_qr_scan", "ios": "https://dc.lft.to/lastmile_qr_scan"}, "fusion_lon": 0.0}, {"lat": 38.852191, "is_disabled": 0, "type": "electric_bike", "lon": -77.12956983333333, "bike_id": "361ab00e14c63dfcf247bb9f3bd1a2e4", "fusion_lat": 0.0, "name": "361ab00e14c63dfcf247bb9f3bd1a2e4", "is_reserved": 0, "rental_uris": {"android": "https://dc.lft.to/lastmile_qr_scan", "ios": "https://dc.lft.to/lastmile_qr_scan"}, "fusion_lon": 0.0}, {"lat": 38.86593416666667, "is_disabled": 0, "type": "electric_bike", "lon": -76.93232933333333, "bike_id": "75b54e5e253f5a61cf98daef4cd07663", "fusion_lat": 0.0, "name": "75b54e5e253f5a61cf98daef4cd07663", "is_reserved": 0, "rental_uris": {"android": "https://dc.lft.to/lastmile_qr_scan", "ios": "https://dc.lft.to/lastmile_qr_scan"}, "fusion_lon": 0.0}, {"lat": 38.911183333333334, "is_disabled": 0, "type": "electric_scooter", "lon": -77.022366, "bike_id": "df7ebbc5c9048088df81a08ac3bd066d", "fusion_lat": 0.0, "name": "df7ebbc5c9048088df81a08ac3bd066d", "is_reserved": 0, "rental_uris": {"android": "https://dc.lft.to/lastmile_qr_scan", "ios": "https://dc.lft.to/lastmile_qr_scan"}, "fusion_lon": 0.0}, {"lat": 38.92793433333333, "is_disabled": 0, "type": "electric_scooter", "lon": -77.03150133333334, "bike_id": "ff720ee29cf2eb1613efb2ab76ce47b2", "fusion_lat": 0.0, "name": "ff720ee29cf2eb1613efb2ab76ce47b2", "is_reserved": 0, "rental_uris": {"android": "https://dc.lft.to/lastmile_qr_scan", "ios": "https://dc.lft.to/lastmile_qr_scan"}, "fusion_lon": 0.0}, {"lat": 38.9110485, "is_disabled": 0, "type": "electric_scooter", "lon": -77.0372955, "bike_id": "77d7cd1f19e398d4dba7ad50cac0e7c4", "fusion_lat": 0.0, "name": "77d7cd1f19e398d4dba7ad50cac0e7c4", "is_reserved": 0, "rental_uris": {"android": "https://dc.lft.to/lastmile_qr_scan", "ios": "https://dc.lft.to/lastmile_qr_scan"}, "fusion_lon": 0.0}, {"lat": 38.93458116666667, "is_disabled": 0, "type": "electric_scooter", "lon": -77.0323875, "bike_id": "c7a33350bb375d839fc0694f2f28b09f", "fusion_lat": 0.0, "name": "c7a33350bb375d839fc0694f2f28b09f", "is_reserved": 0, "rental_uris": {"android": "https://dc.lft.to/lastmile_qr_scan", "ios": "https://dc.lft.to/lastmile_qr_scan"}, "fusion_lon": 0.0}, {"lat": 38.89907433333333, "is_disabled": 0, "type": "electric_scooter", "lon": -77.00359316666666, "bike_id": "3c065d7d8a008b41c0772101c74a2f19", "fusion_lat": 0.0, "name": "3c065d7d8a008b41c0772101c74a2f19", "is_reserved": 0, "rental_uris": {"android": "https://dc.lft.to/lastmile_qr_scan", "ios": "https://dc.lft.to/lastmile_qr_scan"}, "fusion_lon": 0.0}, {"lat": 38.93227666666667, "is_disabled": 0, "type": "electric_scooter", "lon": -77.044174, "bike_id": "715ce9de8c369b233fba756438fd1110", "fusion_lat": 0.0, "name": "715ce9de8c369b233fba756438fd1110", "is_reserved": 0, "rental_uris": {"android": "https://dc.lft.to/lastmile_qr_scan", "ios": "https://dc.lft.to/lastmile_qr_scan"}, "fusion_lon": 0.0}, {"lat": 38.91686, "is_disabled": 0, "type": "electric_scooter", "lon": -77.02513066666667, "bike_id": "942990684f1c9191308159efa80a3eda", "fusion_lat": 0.0, "name": "942990684f1c9191308159efa80a3eda", "is_reserved": 0, "rental_uris": {"android": "https://dc.lft.to/lastmile_qr_scan", "ios": "https://dc.lft.to/lastmile_qr_scan"}, "fusion_lon": 0.0}, {"lat": 38.9216945, "is_disabled": 0, "type": "electric_scooter", "lon": -77.05136233333333, "bike_id": "1cae33fda7ed4c1b50803540af4a4c27", "fusion_lat": 0.0, "name": "1cae33fda7ed4c1b50803540af4a4c27", "is_reserved": 0, "rental_uris": {"android": "https://dc.lft.to/lastmile_qr_scan", "ios": "https://dc.lft.to/lastmile_qr_scan"}, "fusion_lon": 0.0}, {"lat": 38.9107105, "is_disabled": 0, "type": "electric_scooter", "lon": -77.01639433333334, "bike_id": "ecc79c379c14a8f39306a7f99fbdd0ea", "fusion_lat": 0.0, "name": "ecc79c379c14a8f39306a7f99fbdd0ea", "is_reserved": 0, "rental_uris": {"android": "https://dc.lft.to/lastmile_qr_scan", "ios": "https://dc.lft.to/lastmile_qr_scan"}, "fusion_lon": 0.0}, {"lat": 38.91170816666666, "is_disabled": 0, "type": "electric_scooter", "lon": -77.00457266666666, "bike_id": "88c0615dea9902e24ceb59a31d3eabe8", "fusion_lat": 0.0, "name": "88c0615dea9902e24ceb59a31d3eabe8", "is_reserved": 0, "rental_uris": {"android": "https://dc.lft.to/lastmile_qr_scan", "ios": "https://dc.lft.to/lastmile_qr_scan"}, "fusion_lon": 0.0}, {"lat": 38.896202, "is_disabled": 0, "type": "electric_scooter", "lon": -77.04410133333333, "bike_id": "a5a4c84e36dc269c83d42efed1de5ca9", "fusion_lat": 0.0, "name": "a5a4c84e36dc269c83d42efed1de5ca9", "is_reserved": 0, "rental_uris": {"android": "https://dc.lft.to/lastmile_qr_scan", "ios": "https://dc.lft.to/lastmile_qr_scan"}, "fusion_lon": 0.0}, {"lat": 38.900557, "is_disabled": 0, "type": "electric_scooter", "lon": -77.00765416666667, "bike_id": "3fb4d368f512c9da7f5cb618789b1b86", "fusion_lat": 0.0, "name": "3fb4d368f512c9da7f5cb618789b1b86", "is_reserved": 0, "rental_uris": {"android": "https://dc.lft.to/lastmile_qr_scan", "ios": "https://dc.lft.to/lastmile_qr_scan"}, "fusion_lon": 0.0}, {"lat": 38.895492, "is_disabled": 0, "type": "electric_scooter", "lon": -77.0036715, "bike_id": "5ebd968348a44c59532ba7b416a39a1c", "fusion_lat": 0.0, "name": "5ebd968348a44c59532ba7b416a39a1c", "is_reserved": 0, "rental_uris": {"android": "https://dc.lft.to/lastmile_qr_scan", "ios": "https://dc.lft.to/lastmile_qr_scan"}, "fusion_lon": 0.0}, {"lat": 38.927933833333334, "is_disabled": 0, "type": "electric_scooter", "lon": -77.05356616666667, "bike_id": "f267763c9a0ce4bb74c5b4eb7f089812", "fusion_lat": 0.0, "name": "f267763c9a0ce4bb74c5b4eb7f089812", "is_reserved": 0, "rental_uris": {"android": "https://dc.lft.to/lastmile_qr_scan", "ios": "https://dc.lft.to/lastmile_qr_scan"}, "fusion_lon": 0.0}, {"lat": 38.9056855, "is_disabled": 0, "type": "electric_scooter", "lon": -77.034589, "bike_id": "649e00dc3601b2ccfb39b01d47517408", "fusion_lat": 0.0, "name": "649e00dc3601b2ccfb39b01d47517408", "is_reserved": 0, "rental_uris": {"android": "https://dc.lft.to/lastmile_qr_scan", "ios": "https://dc.lft.to/lastmile_qr_scan"}, "fusion_lon": 0.0}, {"lat": 38.887380666666665, "is_disabled": 0, "type": "electric_scooter", "lon": -77.01534233333334, "bike_id": "e77e4994c461448a27c8a3454e195e80", "fusion_lat": 0.0, "name": "e77e4994c461448a27c8a3454e195e80", "is_reserved": 0, "rental_uris": {"android": "https://dc.lft.to/lastmile_qr_scan", "ios": "https://dc.lft.to/lastmile_qr_scan"}, "fusion_lon": 0.0}, {"lat": 38.917698333333334, "is_disabled": 0, "type": "electric_scooter", "lon": -77.02265, "bike_id": "2e58db358814461e4a2fd827ea0835a1", "fusion_lat": 0.0, "name": "2e58db358814461e4a2fd827ea0835a1", "is_reserved": 0, "rental_uris": {"android": "https://dc.lft.to/lastmile_qr_scan", "ios": "https://dc.lft.to/lastmile_qr_scan"}, "fusion_lon": 0.0}, {"lat": 38.907483166666665, "is_disabled": 0, "type": "electric_scooter", "lon": -77.00095766666666, "bike_id": "013f2f14830b8a7a07d28df430d7ad60", "fusion_lat": 0.0, "name": "013f2f14830b8a7a07d28df430d7ad60", "is_reserved": 0, "rental_uris": {"android": "https://dc.lft.to/lastmile_qr_scan", "ios": "https://dc.lft.to/lastmile_qr_scan"}, "fusion_lon": 0.0}, {"lat": 38.9206275, "is_disabled": 0, "type": "electric_scooter", "lon": -77.03294033333333, "bike_id": "da0923aa40cc4c2997512660313abee1", "fusion_lat": 0.0, "name": "da0923aa40cc4c2997512660313abee1", "is_reserved": 0, "rental_uris": {"android": "https://dc.lft.to/lastmile_qr_scan", "ios": "https://dc.lft.to/lastmile_qr_scan"}, "fusion_lon": 0.0}, {"lat": 38.88925366666667, "is_disabled": 0, "type": "electric_scooter", "lon": -76.9737385, "bike_id": "a1549ebbf68027bf24cbb8ab72b6239f", "fusion_lat": 0.0, "name": "a1549ebbf68027bf24cbb8ab72b6239f", "is_reserved": 0, "rental_uris": {"android": "https://dc.lft.to/lastmile_qr_scan", "ios": "https://dc.lft.to/lastmile_qr_scan"}, "fusion_lon": 0.0}, {"lat": 38.918069, "is_disabled": 0, "type": "electric_scooter", "lon": -77.03631966666667, "bike_id": "ff6f6535f33c48067884af2486b8a06a", "fusion_lat": 0.0, "name": "ff6f6535f33c48067884af2486b8a06a", "is_reserved": 0, "rental_uris": {"android": "https://dc.lft.to/lastmile_qr_scan", "ios": "https://dc.lft.to/lastmile_qr_scan"}, "fusion_lon": 0.0}, {"lat": 38.86160783333333, "is_disabled": 0, "type": "electric_bike", "lon": -77.1309475, "bike_id": "21b40397a93835354ca3a620cd2292c4", "fusion_lat": 0.0, "name": "21b40397a93835354ca3a620cd2292c4", "is_reserved": 0, "rental_uris": {"android": "https://dc.lft.to/lastmile_qr_scan", "ios": "https://dc.lft.to/lastmile_qr_scan"}, "fusion_lon": 0.0}, {"lat": 38.90634566666667, "is_disabled": 0, "type": "electric_scooter", "lon": -77.062855, "bike_id": "08e83c4fa18e58453f94ce11cb74e6d2", "fusion_lat": 0.0, "name": "08e83c4fa18e58453f94ce11cb74e6d2", "is_reserved": 0, "rental_uris": {"android": "https://dc.lft.to/lastmile_qr_scan", "ios": "https://dc.lft.to/lastmile_qr_scan"}, "fusion_lon": 0.0}, {"lat": 38.84811783333333, "is_disabled": 0, "type": "electric_bike", "lon": -77.07905233333334, "bike_id": "4ae7cef62fe856634df1dc66b4e21f91", "fusion_lat": 0.0, "name": "4ae7cef62fe856634df1dc66b4e21f91", "is_reserved": 0, "rental_uris": {"android": "https://dc.lft.to/lastmile_qr_scan", "ios": "https://dc.lft.to/lastmile_qr_scan"}, "fusion_lon": 0.0}, {"lat": 38.897615333333334, "is_disabled": 0, "type": "electric_scooter", "lon": -76.94184, "bike_id": "dfd1a2ea4917e89d58ab9cde6c40a953", "fusion_lat": 0.0, "name": "dfd1a2ea4917e89d58ab9cde6c40a953", "is_reserved": 0, "rental_uris": {"android": "https://dc.lft.to/lastmile_qr_scan", "ios": "https://dc.lft.to/lastmile_qr_scan"}, "fusion_lon": 0.0}, {"lat": 38.89478583333333, "is_disabled": 0, "type": "electric_scooter", "lon": -77.02788833333334, "bike_id": "353562a8ba453865ce29cb584ba713a6", "fusion_lat": 0.0, "name": "353562a8ba453865ce29cb584ba713a6", "is_reserved": 0, "rental_uris": {"android": "https://dc.lft.to/lastmile_qr_scan", "ios": "https://dc.lft.to/lastmile_qr_scan"}, "fusion_lon": 0.0}, {"lat": 38.90356033333333, "is_disabled": 0, "type": "electric_scooter", "lon": -77.03885466666667, "bike_id": "6f28c43d8454f38abe7246e94d2318ae", "fusion_lat": 0.0, "name": "6f28c43d8454f38abe7246e94d2318ae", "is_reserved": 0, "rental_uris": {"android": "https://dc.lft.to/lastmile_qr_scan", "ios": "https://dc.lft.to/lastmile_qr_scan"}, "fusion_lon": 0.0}, {"lat": 38.902396333333336, "is_disabled": 0, "type": "electric_scooter", "lon": -77.02693916666666, "bike_id": "989b30b7edd5716532f2909707791885", "fusion_lat": 0.0, "name": "989b30b7edd5716532f2909707791885", "is_reserved": 0, "rental_uris": {"android": "https://dc.lft.to/lastmile_qr_scan", "ios": "https://dc.lft.to/lastmile_qr_scan"}, "fusion_lon": 0.0}, {"lat": 38.873744, "is_disabled": 0, "type": "electric_scooter", "lon": -77.0007085, "bike_id": "ec79e7a4c490c4caa1ef25b83a6ec45c", "fusion_lat": 0.0, "name": "ec79e7a4c490c4caa1ef25b83a6ec45c", "is_reserved": 0, "rental_uris": {"android": "https://dc.lft.to/lastmile_qr_scan", "ios": "https://dc.lft.to/lastmile_qr_scan"}, "fusion_lon": 0.0}, {"lat": 38.901175, "is_disabled": 0, "type": "electric_scooter", "lon": -77.03188233333333, "bike_id": "ac47045a2e6ecb5eca55cb74467ccdc6", "fusion_lat": 0.0, "name": "ac47045a2e6ecb5eca55cb74467ccdc6", "is_reserved": 0, "rental_uris": {"android": "https://dc.lft.to/lastmile_qr_scan", "ios": "https://dc.lft.to/lastmile_qr_scan"}, "fusion_lon": 0.0}, {"lat": 38.8842995, "is_disabled": 0, "type": "electric_scooter", "lon": -76.95760366666667, "bike_id": "f22c659cdc2818563d55491c00b0c49d", "fusion_lat": 0.0, "name": "f22c659cdc2818563d55491c00b0c49d", "is_reserved": 0, "rental_uris": {"android": "https://dc.lft.to/lastmile_qr_scan", "ios": "https://dc.lft.to/lastmile_qr_scan"}, "fusion_lon": 0.0}, {"lat": 38.920513166666666, "is_disabled": 0, "type": "electric_scooter", "lon": -77.02432016666667, "bike_id": "7f218ac13c3c3f12bc1954f6186a0bdb", "fusion_lat": 0.0, "name": "7f218ac13c3c3f12bc1954f6186a0bdb", "is_reserved": 0, "rental_uris": {"android": "https://dc.lft.to/lastmile_qr_scan", "ios": "https://dc.lft.to/lastmile_qr_scan"}, "fusion_lon": 0.0}, {"lat": 38.906511, "is_disabled": 0, "type": "electric_scooter", "lon": -77.048753, "bike_id": "0454df1068d013299380cbecf39fe130", "fusion_lat": 0.0, "name": "0454df1068d013299380cbecf39fe130", "is_reserved": 0, "rental_uris": {"android": "https://dc.lft.to/lastmile_qr_scan", "ios": "https://dc.lft.to/lastmile_qr_scan"}, "fusion_lon": 0.0}, {"lat": 38.854996, "is_disabled": 0, "type": "electric_bike", "lon": -76.98404583333334, "bike_id": "c91af701d4e0af43fc49c366793d077f", "fusion_lat": 0.0, "name": "c91af701d4e0af43fc49c366793d077f", "is_reserved": 0, "rental_uris": {"android": "https://dc.lft.to/lastmile_qr_scan", "ios": "https://dc.lft.to/lastmile_qr_scan"}, "fusion_lon": 0.0}, {"lat": 38.90364433333333, "is_disabled": 0, "type": "electric_scooter", "lon": -77.04101883333334, "bike_id": "91d6f221f6345bc8d6f862e8217744e1", "fusion_lat": 0.0, "name": "91d6f221f6345bc8d6f862e8217744e1", "is_reserved": 0, "rental_uris": {"android": "https://dc.lft.to/lastmile_qr_scan", "ios": "https://dc.lft.to/lastmile_qr_scan"}, "fusion_lon": 0.0}, {"lat": 38.89261416666667, "is_disabled": 0, "type": "electric_scooter", "lon": -77.0220895, "bike_id": "e1aff23ddfcdf1c0154d1f7aa78e1752", "fusion_lat": 0.0, "name": "e1aff23ddfcdf1c0154d1f7aa78e1752", "is_reserved": 0, "rental_uris": {"android": "https://dc.lft.to/lastmile_qr_scan", "ios": "https://dc.lft.to/lastmile_qr_scan"}, "fusion_lon": 0.0}, {"lat": 38.89498566666666, "is_disabled": 0, "type": "electric_scooter", "lon": -77.002209, "bike_id": "3b6af723ec7db18cb68ccd8a3074bb68", "fusion_lat": 0.0, "name": "3b6af723ec7db18cb68ccd8a3074bb68", "is_reserved": 0, "rental_uris": {"android": "https://dc.lft.to/lastmile_qr_scan", "ios": "https://dc.lft.to/lastmile_qr_scan"}, "fusion_lon": 0.0}, {"lat": 38.905045333333334, "is_disabled": 0, "type": "electric_scooter", "lon": -77.04483666666667, "bike_id": "512dee4c342fa5cc40dec909ae895694", "fusion_lat": 0.0, "name": "512dee4c342fa5cc40dec909ae895694", "is_reserved": 0, "rental_uris": {"android": "https://dc.lft.to/lastmile_qr_scan", "ios": "https://dc.lft.to/lastmile_qr_scan"}, "fusion_lon": 0.0}, {"lat": 38.91980983333333, "is_disabled": 0, "type": "electric_scooter", "lon": -77.02517866666666, "bike_id": "6edb69d1ffe01d6e32550c38bc52e900", "fusion_lat": 0.0, "name": "6edb69d1ffe01d6e32550c38bc52e900", "is_reserved": 0, "rental_uris": {"android": "https://dc.lft.to/lastmile_qr_scan", "ios": "https://dc.lft.to/lastmile_qr_scan"}, "fusion_lon": 0.0}, {"lat": 38.913977333333335, "is_disabled": 0, "type": "electric_scooter", "lon": -77.0318745, "bike_id": "128a981de4ceac44996180fdfbe420cf", "fusion_lat": 0.0, "name": "128a981de4ceac44996180fdfbe420cf", "is_reserved": 0, "rental_uris": {"android": "https://dc.lft.to/lastmile_qr_scan", "ios": "https://dc.lft.to/lastmile_qr_scan"}, "fusion_lon": 0.0}, {"lat": 38.90416483333333, "is_disabled": 0, "type": "electric_scooter", "lon": -77.02399083333333, "bike_id": "6c05e4ad30d4f9977cefeee457140a8f", "fusion_lat": 0.0, "name": "6c05e4ad30d4f9977cefeee457140a8f", "is_reserved": 0, "rental_uris": {"android": "https://dc.lft.to/lastmile_qr_scan", "ios": "https://dc.lft.to/lastmile_qr_scan"}, "fusion_lon": 0.0}, {"lat": 38.88256416666667, "is_disabled": 0, "type": "electric_scooter", "lon": -76.98826333333334, "bike_id": "4c47df2ad83f0d03786d1750abd5c75d", "fusion_lat": 0.0, "name": "4c47df2ad83f0d03786d1750abd5c75d", "is_reserved": 0, "rental_uris": {"android": "https://dc.lft.to/lastmile_qr_scan", "ios": "https://dc.lft.to/lastmile_qr_scan"}, "fusion_lon": 0.0}, {"lat": 38.916971833333335, "is_disabled": 0, "type": "electric_scooter", "lon": -77.0402875, "bike_id": "422fe3327961e3456cd4d924ce46a657", "fusion_lat": 0.0, "name": "422fe3327961e3456cd4d924ce46a657", "is_reserved": 0, "rental_uris": {"android": "https://dc.lft.to/lastmile_qr_scan", "ios": "https://dc.lft.to/lastmile_qr_scan"}, "fusion_lon": 0.0}, {"lat": 38.942442, "is_disabled": 0, "type": "electric_scooter", "lon": -77.03585616666666, "bike_id": "5ce0e1ccd75d3d3015b1e4e93d59ec11", "fusion_lat": 0.0, "name": "5ce0e1ccd75d3d3015b1e4e93d59ec11", "is_reserved": 0, "rental_uris": {"android": "https://dc.lft.to/lastmile_qr_scan", "ios": "https://dc.lft.to/lastmile_qr_scan"}, "fusion_lon": 0.0}, {"lat": 38.929793833333335, "is_disabled": 0, "type": "electric_scooter", "lon": -77.03835116666667, "bike_id": "e5f5bd2bafa470c65c642226e84916fb", "fusion_lat": 0.0, "name": "e5f5bd2bafa470c65c642226e84916fb", "is_reserved": 0, "rental_uris": {"android": "https://dc.lft.to/lastmile_qr_scan", "ios": "https://dc.lft.to/lastmile_qr_scan"}, "fusion_lon": 0.0}, {"lat": 38.91540083333334, "is_disabled": 0, "type": "electric_scooter", "lon": -77.02956783333333, "bike_id": "6f0e47700b33b38ec1ca8e2f74644149", "fusion_lat": 0.0, "name": "6f0e47700b33b38ec1ca8e2f74644149", "is_reserved": 0, "rental_uris": {"android": "https://dc.lft.to/lastmile_qr_scan", "ios": "https://dc.lft.to/lastmile_qr_scan"}, "fusion_lon": 0.0}, {"lat": 38.94226533333333, "is_disabled": 0, "type": "electric_scooter", "lon": -77.02519733333334, "bike_id": "7106f03f394e4a970136697843ee2c18", "fusion_lat": 0.0, "name": "7106f03f394e4a970136697843ee2c18", "is_reserved": 0, "rental_uris": {"android": "https://dc.lft.to/lastmile_qr_scan", "ios": "https://dc.lft.to/lastmile_qr_scan"}, "fusion_lon": 0.0}, {"lat": 38.89554233333333, "is_disabled": 0, "type": "electric_scooter", "lon": -77.00366233333334, "bike_id": "474ba203233bc22c34261862787eea60", "fusion_lat": 0.0, "name": "474ba203233bc22c34261862787eea60", "is_reserved": 0, "rental_uris": {"android": "https://dc.lft.to/lastmile_qr_scan", "ios": "https://dc.lft.to/lastmile_qr_scan"}, "fusion_lon": 0.0}, {"lat": 38.9211785, "is_disabled": 0, "type": "electric_scooter", "lon": -77.03659483333334, "bike_id": "0269c3e4a621d1b25fc8f69f284ce5c5", "fusion_lat": 0.0, "name": "0269c3e4a621d1b25fc8f69f284ce5c5", "is_reserved": 0, "rental_uris": {"android": "https://dc.lft.to/lastmile_qr_scan", "ios": "https://dc.lft.to/lastmile_qr_scan"}, "fusion_lon": 0.0}, {"lat": 38.96113, "is_disabled": 0, "type": "electric_scooter", "lon": -77.02815633333333, "bike_id": "b8110115d78502d05476d94c3370215c", "fusion_lat": 0.0, "name": "b8110115d78502d05476d94c3370215c", "is_reserved": 0, "rental_uris": {"android": "https://dc.lft.to/lastmile_qr_scan", "ios": "https://dc.lft.to/lastmile_qr_scan"}, "fusion_lon": 0.0}, {"lat": 38.927754166666666, "is_disabled": 0, "type": "electric_scooter", "lon": -77.02738483333333, "bike_id": "f7f73a929379fd271d2704285ec8940e", "fusion_lat": 0.0, "name": "f7f73a929379fd271d2704285ec8940e", "is_reserved": 0, "rental_uris": {"android": "https://dc.lft.to/lastmile_qr_scan", "ios": "https://dc.lft.to/lastmile_qr_scan"}, "fusion_lon": 0.0}, {"lat": 38.897536, "is_disabled": 0, "type": "electric_scooter", "lon": -77.02638016666667, "bike_id": "43e0c36b6ce322e022c1d671ab0e5ada", "fusion_lat": 0.0, "name": "43e0c36b6ce322e022c1d671ab0e5ada", "is_reserved": 0, "rental_uris": {"android": "https://dc.lft.to/lastmile_qr_scan", "ios": "https://dc.lft.to/lastmile_qr_scan"}, "fusion_lon": 0.0}, {"lat": 38.929011333333335, "is_disabled": 0, "type": "electric_scooter", "lon": -77.07455933333334, "bike_id": "ad1b137ef87ea7d867fa87621b0dc914", "fusion_lat": 0.0, "name": "ad1b137ef87ea7d867fa87621b0dc914", "is_reserved": 0, "rental_uris": {"android": "https://dc.lft.to/lastmile_qr_scan", "ios": "https://dc.lft.to/lastmile_qr_scan"}, "fusion_lon": 0.0}, {"lat": 38.9257765, "is_disabled": 0, "type": "electric_scooter", "lon": -77.05775533333333, "bike_id": "06bef63c7243ea1a7975e71100b03244", "fusion_lat": 0.0, "name": "06bef63c7243ea1a7975e71100b03244", "is_reserved": 0, "rental_uris": {"android": "https://dc.lft.to/lastmile_qr_scan", "ios": "https://dc.lft.to/lastmile_qr_scan"}, "fusion_lon": 0.0}, {"lat": 38.9258875, "is_disabled": 0, "type": "electric_scooter", "lon": -77.02269183333334, "bike_id": "6f758a27c5560dbd37ed8e9137787188", "fusion_lat": 0.0, "name": "6f758a27c5560dbd37ed8e9137787188", "is_reserved": 0, "rental_uris": {"android": "https://dc.lft.to/lastmile_qr_scan", "ios": "https://dc.lft.to/lastmile_qr_scan"}, "fusion_lon": 0.0}, {"lat": 38.9141815, "is_disabled": 0, "type": "electric_scooter", "lon": -77.045055, "bike_id": "d14947c6a98ab1ef11d3a6e22cc3ad5b", "fusion_lat": 0.0, "name": "d14947c6a98ab1ef11d3a6e22cc3ad5b", "is_reserved": 0, "rental_uris": {"android": "https://dc.lft.to/lastmile_qr_scan", "ios": "https://dc.lft.to/lastmile_qr_scan"}, "fusion_lon": 0.0}, {"lat": 38.85681683333333, "is_disabled": 0, "type": "electric_scooter", "lon": -76.981625, "bike_id": "d6ae7f041e80c630b05bd3aa27f5c6e2", "fusion_lat": 0.0, "name": "d6ae7f041e80c630b05bd3aa27f5c6e2", "is_reserved": 0, "rental_uris": {"android": "https://dc.lft.to/lastmile_qr_scan", "ios": "https://dc.lft.to/lastmile_qr_scan"}, "fusion_lon": 0.0}, {"lat": 38.88994783333333, "is_disabled": 0, "type": "electric_scooter", "lon": -76.95568133333333, "bike_id": "22ef7ca1d3a3121e11ec287e8b797c97", "fusion_lat": 0.0, "name": "22ef7ca1d3a3121e11ec287e8b797c97", "is_reserved": 0, "rental_uris": {"android": "https://dc.lft.to/lastmile_qr_scan", "ios": "https://dc.lft.to/lastmile_qr_scan"}, "fusion_lon": 0.0}, {"lat": 38.98225433333333, "is_disabled": 0, "type": "electric_bike", "lon": -77.02599383333333, "bike_id": "8368aea1bf7ed8f38b57089f7921e9a9", "fusion_lat": 0.0, "name": "8368aea1bf7ed8f38b57089f7921e9a9", "is_reserved": 0, "rental_uris": {"android": "https://dc.lft.to/lastmile_qr_scan", "ios": "https://dc.lft.to/lastmile_qr_scan"}, "fusion_lon": 0.0}, {"lat": 38.934194833333336, "is_disabled": 0, "type": "electric_scooter", "lon": -77.041403, "bike_id": "8113391dd219967f67c16bc3564508e0", "fusion_lat": 0.0, "name": "8113391dd219967f67c16bc3564508e0", "is_reserved": 0, "rental_uris": {"android": "https://dc.lft.to/lastmile_qr_scan", "ios": "https://dc.lft.to/lastmile_qr_scan"}, "fusion_lon": 0.0}, {"lat": 38.92871916666667, "is_disabled": 0, "type": "electric_scooter", "lon": -77.033313, "bike_id": "e01e637e370d2256a7fcffafcb2b1661", "fusion_lat": 0.0, "name": "e01e637e370d2256a7fcffafcb2b1661", "is_reserved": 0, "rental_uris": {"android": "https://dc.lft.to/lastmile_qr_scan", "ios": "https://dc.lft.to/lastmile_qr_scan"}, "fusion_lon": 0.0}, {"lat": 38.83722916666667, "is_disabled": 0, "type": "electric_bike", "lon": -76.99766933333333, "bike_id": "eb3e40a2c1004ab1ba52919cc8b8a790", "fusion_lat": 0.0, "name": "eb3e40a2c1004ab1ba52919cc8b8a790", "is_reserved": 0, "rental_uris": {"android": "https://dc.lft.to/lastmile_qr_scan", "ios": "https://dc.lft.to/lastmile_qr_scan"}, "fusion_lon": 0.0}, {"lat": 38.90239116666667, "is_disabled": 0, "type": "electric_scooter", "lon": -77.0020505, "bike_id": "714b209f4ef60376516b9f89fa8722f2", "fusion_lat": 0.0, "name": "714b209f4ef60376516b9f89fa8722f2", "is_reserved": 0, "rental_uris": {"android": "https://dc.lft.to/lastmile_qr_scan", "ios": "https://dc.lft.to/lastmile_qr_scan"}, "fusion_lon": 0.0}, {"lat": 38.899509333333334, "is_disabled": 0, "type": "electric_scooter", "lon": -77.02495566666667, "bike_id": "09b27ab0458335231be4670dd18e9b2d", "fusion_lat": 0.0, "name": "09b27ab0458335231be4670dd18e9b2d", "is_reserved": 0, "rental_uris": {"android": "https://dc.lft.to/lastmile_qr_scan", "ios": "https://dc.lft.to/lastmile_qr_scan"}, "fusion_lon": 0.0}, {"lat": 38.911117, "is_disabled": 0, "type": "electric_scooter", "lon": -77.045038, "bike_id": "0f0b69bd9a5b88c7dff504e028b89dd6", "fusion_lat": 0.0, "name": "0f0b69bd9a5b88c7dff504e028b89dd6", "is_reserved": 0, "rental_uris": {"android": "https://dc.lft.to/lastmile_qr_scan", "ios": "https://dc.lft.to/lastmile_qr_scan"}, "fusion_lon": 0.0}, {"lat": 38.9199765, "is_disabled": 0, "type": "electric_scooter", "lon": -76.99294933333333, "bike_id": "aedb3dc4cb8f9ef62c6aed48fe05bcf4", "fusion_lat": 0.0, "name": "aedb3dc4cb8f9ef62c6aed48fe05bcf4", "is_reserved": 0, "rental_uris": {"android": "https://dc.lft.to/lastmile_qr_scan", "ios": "https://dc.lft.to/lastmile_qr_scan"}, "fusion_lon": 0.0}, {"lat": 38.910416833333336, "is_disabled": 0, "type": "electric_scooter", "lon": -77.03375733333333, "bike_id": "6b34c3f9df9bddc64651a4103b3332f2", "fusion_lat": 0.0, "name": "6b34c3f9df9bddc64651a4103b3332f2", "is_reserved": 0, "rental_uris": {"android": "https://dc.lft.to/lastmile_qr_scan", "ios": "https://dc.lft.to/lastmile_qr_scan"}, "fusion_lon": 0.0}, {"lat": 38.932012, "is_disabled": 0, "type": "electric_scooter", "lon": -77.03860216666666, "bike_id": "5d528f9c36b5b5e3c59c3e73f6df6e50", "fusion_lat": 0.0, "name": "5d528f9c36b5b5e3c59c3e73f6df6e50", "is_reserved": 0, "rental_uris": {"android": "https://dc.lft.to/lastmile_qr_scan", "ios": "https://dc.lft.to/lastmile_qr_scan"}, "fusion_lon": 0.0}, {"lat": 38.89843066666667, "is_disabled": 0, "type": "electric_scooter", "lon": -76.94463633333334, "bike_id": "ecee64f4df77fa115777eda34cdbb30c", "fusion_lat": 0.0, "name": "ecee64f4df77fa115777eda34cdbb30c", "is_reserved": 0, "rental_uris": {"android": "https://dc.lft.to/lastmile_qr_scan", "ios": "https://dc.lft.to/lastmile_qr_scan"}, "fusion_lon": 0.0}, {"lat": 38.893583166666666, "is_disabled": 0, "type": "electric_scooter", "lon": -77.04156916666666, "bike_id": "db18c269aceee6f661765fd2eebac0f9", "fusion_lat": 0.0, "name": "db18c269aceee6f661765fd2eebac0f9", "is_reserved": 0, "rental_uris": {"android": "https://dc.lft.to/lastmile_qr_scan", "ios": "https://dc.lft.to/lastmile_qr_scan"}, "fusion_lon": 0.0}, {"lat": 38.88708783333333, "is_disabled": 0, "type": "electric_scooter", "lon": -77.03211816666666, "bike_id": "9cd0d0b18bba6cf1daa754588ce4d37e", "fusion_lat": 0.0, "name": "9cd0d0b18bba6cf1daa754588ce4d37e", "is_reserved": 0, "rental_uris": {"android": "https://dc.lft.to/lastmile_qr_scan", "ios": "https://dc.lft.to/lastmile_qr_scan"}, "fusion_lon": 0.0}, {"lat": 38.91324216666667, "is_disabled": 0, "type": "electric_scooter", "lon": -77.04552916666667, "bike_id": "9fecfa7e679903edc761ae76f9238393", "fusion_lat": 0.0, "name": "9fecfa7e679903edc761ae76f9238393", "is_reserved": 0, "rental_uris": {"android": "https://dc.lft.to/lastmile_qr_scan", "ios": "https://dc.lft.to/lastmile_qr_scan"}, "fusion_lon": 0.0}, {"lat": 38.9351695, "is_disabled": 0, "type": "electric_bike", "lon": -76.98351683333334, "bike_id": "da511d9b219d5faaf3bcb3712d23cdf0", "fusion_lat": 0.0, "name": "da511d9b219d5faaf3bcb3712d23cdf0", "is_reserved": 0, "rental_uris": {"android": "https://dc.lft.to/lastmile_qr_scan", "ios": "https://dc.lft.to/lastmile_qr_scan"}, "fusion_lon": 0.0}, {"lat": 39.094401166666664, "is_disabled": 0, "type": "electric_bike", "lon": -77.1346275, "bike_id": "ea1a1e0db2234a48b2d898f10cd19815", "fusion_lat": 0.0, "name": "ea1a1e0db2234a48b2d898f10cd19815", "is_reserved": 0, "rental_uris": {"android": "https://dc.lft.to/lastmile_qr_scan", "ios": "https://dc.lft.to/lastmile_qr_scan"}, "fusion_lon": 0.0}, {"lat": 38.92856316666666, "is_disabled": 0, "type": "electric_scooter", "lon": -77.030996, "bike_id": "47a04609c85634d497971c537a8f9e0f", "fusion_lat": 0.0, "name": "47a04609c85634d497971c537a8f9e0f", "is_reserved": 0, "rental_uris": {"android": "https://dc.lft.to/lastmile_qr_scan", "ios": "https://dc.lft.to/lastmile_qr_scan"}, "fusion_lon": 0.0}, {"lat": 38.8630645, "is_disabled": 0, "type": "electric_scooter", "lon": -76.99236466666666, "bike_id": "f9d99ddf4decb5d0db823a45010edbdf", "fusion_lat": 0.0, "name": "f9d99ddf4decb5d0db823a45010edbdf", "is_reserved": 0, "rental_uris": {"android": "https://dc.lft.to/lastmile_qr_scan", "ios": "https://dc.lft.to/lastmile_qr_scan"}, "fusion_lon": 0.0}, {"lat": 38.9059055, "is_disabled": 0, "type": "electric_scooter", "lon": -77.04669216666667, "bike_id": "c514b66689031aa6b4be9aafcae57f51", "fusion_lat": 0.0, "name": "c514b66689031aa6b4be9aafcae57f51", "is_reserved": 0, "rental_uris": {"android": "https://dc.lft.to/lastmile_qr_scan", "ios": "https://dc.lft.to/lastmile_qr_scan"}, "fusion_lon": 0.0}, {"lat": 38.9200165, "is_disabled": 0, "type": "electric_scooter", "lon": -77.03889666666667, "bike_id": "9351f1b296f0919e2cc2954c98f3c1af", "fusion_lat": 0.0, "name": "9351f1b296f0919e2cc2954c98f3c1af", "is_reserved": 0, "rental_uris": {"android": "https://dc.lft.to/lastmile_qr_scan", "ios": "https://dc.lft.to/lastmile_qr_scan"}, "fusion_lon": 0.0}, {"lat": 38.927609833333335, "is_disabled": 0, "type": "electric_scooter", "lon": -77.0321505, "bike_id": "279a6f9bba74d259054fbd8d50f3468f", "fusion_lat": 0.0, "name": "279a6f9bba74d259054fbd8d50f3468f", "is_reserved": 0, "rental_uris": {"android": "https://dc.lft.to/lastmile_qr_scan", "ios": "https://dc.lft.to/lastmile_qr_scan"}, "fusion_lon": 0.0}, {"lat": 38.9173245, "is_disabled": 0, "type": "electric_scooter", "lon": -77.023971, "bike_id": "ebb140dac178fe692cb99859d18946b4", "fusion_lat": 0.0, "name": "ebb140dac178fe692cb99859d18946b4", "is_reserved": 0, "rental_uris": {"android": "https://dc.lft.to/lastmile_qr_scan", "ios": "https://dc.lft.to/lastmile_qr_scan"}, "fusion_lon": 0.0}, {"lat": 38.90894633333333, "is_disabled": 0, "type": "electric_scooter", "lon": -77.04305116666667, "bike_id": "7a9d22b1453852b85d3c79cd883f7972", "fusion_lat": 0.0, "name": "7a9d22b1453852b85d3c79cd883f7972", "is_reserved": 0, "rental_uris": {"android": "https://dc.lft.to/lastmile_qr_scan", "ios": "https://dc.lft.to/lastmile_qr_scan"}, "fusion_lon": 0.0}, {"lat": 38.93954633333333, "is_disabled": 0, "type": "electric_bike", "lon": -77.36094533333333, "bike_id": "83ef9f5bac2509e8fe0d3124baaed4c0", "fusion_lat": 0.0, "name": "83ef9f5bac2509e8fe0d3124baaed4c0", "is_reserved": 0, "rental_uris": {"android": "https://dc.lft.to/lastmile_qr_scan", "ios": "https://dc.lft.to/lastmile_qr_scan"}, "fusion_lon": 0.0}, {"lat": 38.93116333333333, "is_disabled": 0, "type": "electric_scooter", "lon": -77.03013483333334, "bike_id": "f1e44a7420d7c24007267831c98bfff4", "fusion_lat": 0.0, "name": "f1e44a7420d7c24007267831c98bfff4", "is_reserved": 0, "rental_uris": {"android": "https://dc.lft.to/lastmile_qr_scan", "ios": "https://dc.lft.to/lastmile_qr_scan"}, "fusion_lon": 0.0}, {"lat": 38.9170495, "is_disabled": 0, "type": "electric_scooter", "lon": -77.00117816666666, "bike_id": "7ea3b5ac27c2cdc426d7feaf67a20b78", "fusion_lat": 0.0, "name": "7ea3b5ac27c2cdc426d7feaf67a20b78", "is_reserved": 0, "rental_uris": {"android": "https://dc.lft.to/lastmile_qr_scan", "ios": "https://dc.lft.to/lastmile_qr_scan"}, "fusion_lon": 0.0}, {"lat": 38.95287966666667, "is_disabled": 0, "type": "electric_bike", "lon": -76.94600533333333, "bike_id": "020c1d8cae64f3755043348356fb384e", "fusion_lat": 0.0, "name": "020c1d8cae64f3755043348356fb384e", "is_reserved": 0, "rental_uris": {"android": "https://dc.lft.to/lastmile_qr_scan", "ios": "https://dc.lft.to/lastmile_qr_scan"}, "fusion_lon": 0.0}, {"lat": 38.89558616666667, "is_disabled": 0, "type": "electric_scooter", "lon": -76.9308135, "bike_id": "949c47315fb53c4c5df2381f1dabc30b", "fusion_lat": 0.0, "name": "949c47315fb53c4c5df2381f1dabc30b", "is_reserved": 0, "rental_uris": {"android": "https://dc.lft.to/lastmile_qr_scan", "ios": "https://dc.lft.to/lastmile_qr_scan"}, "fusion_lon": 0.0}, {"lat": 38.956287, "is_disabled": 0, "type": "electric_bike", "lon": -77.02298366666666, "bike_id": "019b6bdec463bde671a47dbf9c0235af", "fusion_lat": 0.0, "name": "019b6bdec463bde671a47dbf9c0235af", "is_reserved": 0, "rental_uris": {"android": "https://dc.lft.to/lastmile_qr_scan", "ios": "https://dc.lft.to/lastmile_qr_scan"}, "fusion_lon": 0.0},