{"data": {"bikes": [{"fusion_lat": 0.0, "type": "electric_scooter", "name": "42bd6ae1238fb696857f4349111fc928", "fusion_lon": 0.0, "bike_id": "42bd6ae1238fb696857f4349111fc928", "is_reserved": 0, "rental_uris": {"android": "https://dc.lft.to/lastmile_qr_scan", "ios": "https://dc.lft.to/lastmile_qr_scan"}, "lat": 38.9281235, "is_disabled": 0, "lon": -77.05525433333334}, {"fusion_lat": 0.0, "type": "electric_scooter", "name": "97e68cd5549e31b83c2a4cce0dc0b39f", "fusion_lon": 0.0, "bike_id": "97e68cd5549e31b83c2a4cce0dc0b39f", "is_reserved": 0, "rental_uris": {"android": "https://dc.lft.to/lastmile_qr_scan", "ios": "https://dc.lft.to/lastmile_qr_scan"}, "lat": 38.887142833333336, "is_disabled": 0, "lon": -77.0218605}, {"fusion_lat": 0.0, "type": "electric_scooter", "name": "049754de74ccb5bc12f3d2bcb0a080b7", "fusion_lon": 0.0, "bike_id": "049754de74ccb5bc12f3d2bcb0a080b7", "is_reserved": 0, "rental_uris": {"android": "https://dc.lft.to/lastmile_qr_scan", "ios": "https://dc.lft.to/lastmile_qr_scan"}, "lat": 38.8924565, "is_disabled": 0, "lon": -77.0172935}, {"fusion_lat": 0.0, "type": "electric_scooter", "name": "980856717e0edc93e62e8248b8e8e016", "fusion_lon": 0.0, "bike_id": "980856717e0edc93e62e8248b8e8e016", "is_reserved": 0, "rental_uris": {"android": "https://dc.lft.to/lastmile_qr_scan", "ios": "https://dc.lft.to/lastmile_qr_scan"}, "lat": 38.88988233333333, "is_disabled": 0, "lon": -76.98334483333333}, {"fusion_lat": 0.0, "type": "electric_scooter", "name": "df0f3d29b79b1955208e5f258f664fed", "fusion_lon": 0.0, "bike_id": "df0f3d29b79b1955208e5f258f664fed", "is_reserved": 0, "rental_uris": {"android": "https://dc.lft.to/lastmile_qr_scan", "ios": "https://dc.lft.to/lastmile_qr_scan"}, "lat": 38.9001855, "is_disabled": 0, "lon": -77.04492016666667}, {"fusion_lat": 0.0, "type": "electric_scooter", "name": "d2d4574f3aa2ad441e3e649f9a70a95b", "fusion_lon": 0.0, "bike_id": "d2d4574f3aa2ad441e3e649f9a70a95b", "is_reserved": 0, "rental_uris": {"android": "https://dc.lft.to/lastmile_qr_scan", "ios": "https://dc.lft.to/lastmile_qr_scan"}, "lat": 38.920207166666664, "is_disabled": 0, "lon": -77.01804883333334}, {"fusion_lat": 0.0, "type": "electric_scooter", "name": "8c28c6651b9cedb26e38cb87bc2a268e", "fusion_lon": 0.0, "bike_id": "8c28c6651b9cedb26e38cb87bc2a268e", "is_reserved": 0, "rental_uris": {"android": "https://dc.lft.to/lastmile_qr_scan", "ios": "https://dc.lft.to/lastmile_qr_scan"}, "lat": 38.903899, "is_disabled": 0, "lon": -77.03841583333333}, {"fusion_lat": 0.0, "type": "electric_scooter", "name": "12a517d69f1909870a6f1bf1e7f4a025", "fusion_lon": 0.0, "bike_id": "12a517d69f1909870a6f1bf1e7f4a025", "is_reserved": 0, "rental_uris": {"android": "https://dc.lft.to/lastmile_qr_scan", "ios": "https://dc.lft.to/lastmile_qr_scan"}, "lat": 38.9041205, "is_disabled": 0, "lon": -77.023835}, {"fusion_lat": 0.0, "type": "electric_scooter", "name": "7cfb558dbc12b394c1ca16aa3ffa35a0", "fusion_lon": 0.0, "bike_id": "7cfb558dbc12b394c1ca16aa3ffa35a0", "is_reserved": 0, "rental_uris": {"android": "https://dc.lft.to/lastmile_qr_scan", "ios": "https://dc.lft.to/lastmile_qr_scan"}, "lat": 38.892221, "is_disabled": 0, "lon": -77.04504033333333}, {"fusion_lat": 0.0, "type": "electric_scooter", "name": "5f13c539b7ac3290d13dbc0ab225c4c9", "fusion_lon": 0.0, "bike_id": "5f13c539b7ac3290d13dbc0ab225c4c9", "is_reserved": 0, "rental_uris": {"android": "https://dc.lft.to/lastmile_qr_scan", "ios": "https://dc.lft.to/lastmile_qr_scan"}, "lat": 38.929855333333336, "is_disabled": 0, "lon": -77.03476066666667}, {"fusion_lat": 0.0, "type": "electric_scooter", "name": "0370a6b021703fa6dd2cf811774e363e", "fusion_lon": 0.0, "bike_id": "0370a6b021703fa6dd2cf811774e363e", "is_reserved": 0, "rental_uris": {"android": "https://dc.lft.to/lastmile_qr_scan", "ios": "https://dc.lft.to/lastmile_qr_scan"}, "lat": 38.91802083333333, "is_disabled": 0, "lon": -77.02494483333334}, {"fusion_lat": 0.0, "type": "electric_scooter", "name": "e7e9b5570dcfe7384dbbe44b50bd7b7b", "fusion_lon": 0.0, "bike_id": "e7e9b5570dcfe7384dbbe44b50bd7b7b", "is_reserved": 0, "rental_uris": {"android": "https://dc.lft.to/lastmile_qr_scan", "ios": "https://dc.lft.to/lastmile_qr_scan"}, "lat": 38.887143333333334, "is_disabled": 0, "lon": -77.02175916666667}, {"fusion_lat": 0.0, "type": "electric_bike", "name": "d9c4db166db277bd337c58248aaebec1", "fusion_lon": 0.0, "bike_id": "d9c4db166db277bd337c58248aaebec1", "is_reserved": 0, "rental_uris": {"android": "https://dc.lft.to/lastmile_qr_scan", "ios": "https://dc.lft.to/lastmile_qr_scan"}, "lat": 38.898048333333335, "is_disabled": 0, "lon": -77.00599533333333}, {"fusion_lat": 0.0, "type": "electric_scooter", "name": "3e742f74808f98bb8a7afe042e7d2232", "fusion_lon": 0.0, "bike_id": "3e742f74808f98bb8a7afe042e7d2232", "is_reserved": 0, "rental_uris": {"android": "https://dc.lft.to/lastmile_qr_scan", "ios": "https://dc.lft.to/lastmile_qr_scan"}, "lat": 38.9085165, "is_disabled": 0, "lon": -77.04173983333334}, {"fusion_lat": 0.0, "type": "electric_scooter", "name": "1edc3239d600898ae0c91aac3c8a8f1a", "fusion_lon": 0.0, "bike_id": "1edc3239d600898ae0c91aac3c8a8f1a", "is_reserved": 0, "rental_uris": {"android": "https://dc.lft.to/lastmile_qr_scan", "ios": "https://dc.lft.to/lastmile_qr_scan"}, "lat": 38.952299833333335, "is_disabled": 0, "lon": -77.01428183333333}, {"fusion_lat": 0.0, "type": "electric_scooter", "name": "f6f0d169f0308c072a5a95da0fe51178", "fusion_lon": 0.0, "bike_id": "f6f0d169f0308c072a5a95da0fe51178", "is_reserved": 0, "rental_uris": {"android": "https://dc.lft.to/lastmile_qr_scan", "ios": "https://dc.lft.to/lastmile_qr_scan"}, "lat": 38.930337333333334, "is_disabled": 0, "lon": -77.012967}, {"fusion_lat": 0.0, "type": "electric_bike", "name": "0bd71d08194df4f4a790cdc06e4b70f6", "fusion_lon": 0.0, "bike_id": "0bd71d08194df4f4a790cdc06e4b70f6", "is_reserved": 0, "rental_uris": {"android": "https://dc.lft.to/lastmile_qr_scan", "ios": "https://dc.lft.to/lastmile_qr_scan"}, "lat": 38.84504366666667, "is_disabled": 0, "lon": -76.99354566666666}, {"fusion_lat": 0.0, "type": "electric_scooter", "name": "43beb88b496a5610691e8a1068be5ebf", "fusion_lon": 0.0, "bike_id": "43beb88b496a5610691e8a1068be5ebf", "is_reserved": 0, "rental_uris": {"android": "https://dc.lft.to/lastmile_qr_scan", "ios": "https://dc.lft.to/lastmile_qr_scan"}, "lat": 38.91931616666667, "is_disabled": 0, "lon": -77.02501116666667}, {"fusion_lat": 0.0, "type": "electric_scooter", "name": "cf3a3a3512f1000ae069d2d2d980b2bb", "fusion_lon": 0.0, "bike_id": "cf3a3a3512f1000ae069d2d2d980b2bb", "is_reserved": 0, "rental_uris": {"android": "https://dc.lft.to/lastmile_qr_scan", "ios": "https://dc.lft.to/lastmile_qr_scan"}, "lat": 38.91070933333334, "is_disabled": 0, "lon": -77.044819}, {"fusion_lat": 0.0, "type": "electric_scooter", "name": "6fbc97e3ce15636450f502aa161db8b3", "fusion_lon": 0.0, "bike_id": "6fbc97e3ce15636450f502aa161db8b3", "is_reserved": 0, "rental_uris": {"android": "https://dc.lft.to/lastmile_qr_scan", "ios": "https://dc.lft.to/lastmile_qr_scan"}, "lat": 38.92414866666667, "is_disabled": 0, "lon": -77.01955366666667}, {"fusion_lat": 0.0, "type": "electric_bike", "name": "e14685db8fa7e1c6da18b8b6d3ae8f82", "fusion_lon": 0.0, "bike_id": "e14685db8fa7e1c6da18b8b6d3ae8f82", "is_reserved": 0, "rental_uris": {"android": "https://dc.lft.to/lastmile_qr_scan", "ios": "https://dc.lft.to/lastmile_qr_scan"}, "lat": 38.925358333333335, "is_disabled": 0, "lon": -77.00115683333334}, {"fusion_lat": 0.0, "type": "electric_scooter", "name": "67f9593ac961f5c941fc731adf70dbaf", "fusion_lon": 0.0, "bike_id": "67f9593ac961f5c941fc731adf70dbaf", "is_reserved": 0, "rental_uris": {"android": "https://dc.lft.to/lastmile_qr_scan", "ios": "https://dc.lft.to/lastmile_qr_scan"}, "lat": 38.932662, "is_disabled": 0, "lon": -77.02860216666667}, {"fusion_lat": 0.0, "type": "electric_bike", "name": "7b6cca7e548c6d3dd38b24b5bb704de4", "fusion_lon": 0.0, "bike_id": "7b6cca7e548c6d3dd38b24b5bb704de4", "is_reserved": 0, "rental_uris": {"android": "https://dc.lft.to/lastmile_qr_scan", "ios": "https://dc.lft.to/lastmile_qr_scan"}, "lat": 38.95060433333333, "is_disabled": 0, "lon": -77.066566}, {"fusion_lat": 0.0, "type": "electric_scooter", "name": "dc6a66d6c8dea81e33ff9ebea6ef8370", "fusion_lon": 0.0, "bike_id": "dc6a66d6c8dea81e33ff9ebea6ef8370", "is_reserved": 0, "rental_uris": {"android": "https://dc.lft.to/lastmile_qr_scan", "ios": "https://dc.lft.to/lastmile_qr_scan"}, "lat": 38.86654883333333, "is_disabled": 0, "lon": -76.98886716666667}, {"fusion_lat": 0.0, "type": "electric_scooter", "name": "10595512a2a0ba9f01ff6a7f27d12a09", "fusion_lon": 0.0, "bike_id": "10595512a2a0ba9f01ff6a7f27d12a09", "is_reserved": 0, "rental_uris": {"android": "https://dc.lft.to/lastmile_qr_scan", "ios": "https://dc.lft.to/lastmile_qr_scan"}, "lat": 38.90449366666667, "is_disabled": 0, "lon": -77.03788966666667}, {"fusion_lat": 0.0, "type": "electric_scooter", "name": "40d32c881b1f7b49e4d8628550a5dd30", "fusion_lon": 0.0, "bike_id": "40d32c881b1f7b49e4d8628550a5dd30", "is_reserved": 0, "rental_uris": {"android": "https://dc.lft.to/lastmile_qr_scan", "ios": "https://dc.lft.to/lastmile_qr_scan"}, "lat": 38.911435833333336, "is_disabled": 0, "lon": -77.00472983333333}, {"fusion_lat": 0.0, "type": "electric_bike", "name": "b3bf779c19a49fce171967fa3a29e8f4", "fusion_lon": 0.0, "bike_id": "b3bf779c19a49fce171967fa3a29e8f4", "is_reserved": 0, "rental_uris": {"android": "https://dc.lft.to/lastmile_qr_scan", "ios": "https://dc.lft.to/lastmile_qr_scan"}, "lat": 38.85316816666667, "is_disabled": 0, "lon": -76.9802045}, {"fusion_lat": 0.0, "type": "electric_scooter", "name": "af8fd592ca3a97369ad99a5b50c473cc", "fusion_lon": 0.0, "bike_id": "af8fd592ca3a97369ad99a5b50c473cc", "is_reserved": 0, "rental_uris": {"android": "https://dc.lft.to/lastmile_qr_scan", "ios": "https://dc.lft.to/lastmile_qr_scan"}, "lat": 38.88618433333333, "is_disabled": 0, "lon": -76.95577583333333}, {"fusion_lat": 0.0, "type": "electric_scooter", "name": "24883bebdc87af24aa2d1ac488b88d8c", "fusion_lon": 0.0, "bike_id": "24883bebdc87af24aa2d1ac488b88d8c", "is_reserved": 0, "rental_uris": {"android": "https://dc.lft.to/lastmile_qr_scan", "ios": "https://dc.lft.to/lastmile_qr_scan"}, "lat": 38.88308883333333, "is_disabled": 0, "lon": -77.01667366666666}, {"fusion_lat": 0.0, "type": "electric_scooter", "name": "3f2fffb8a79ea9724c19fb301b4d2150", "fusion_lon": 0.0, "bike_id": "3f2fffb8a79ea9724c19fb301b4d2150", "is_reserved": 0, "rental_uris": {"android": "https://dc.lft.to/lastmile_qr_scan", "ios": "https://dc.lft.to/lastmile_qr_scan"}, "lat": 38.92168733333333, "is_disabled": 0, "lon": -77.04230966666667}, {"fusion_lat": 0.0, "type": "electric_scooter", "name": "d743c074c878f05ffd2467ac262699cc", "fusion_lon": 0.0, "bike_id": "d743c074c878f05ffd2467ac262699cc", "is_reserved": 0, "rental_uris": {"android": "https://dc.lft.to/lastmile_qr_scan", "ios": "https://dc.lft.to/lastmile_qr_scan"}, "lat": 38.928575333333335, "is_disabled": 0, "lon": -77.01408033333334}, {"fusion_lat": 0.0, "type": "electric_scooter", "name": "cc1b1c9b40482bf4e02f34d8e02c40f8", "fusion_lon": 0.0, "bike_id": "cc1b1c9b40482bf4e02f34d8e02c40f8", "is_reserved": 0, "rental_uris": {"android": "https://dc.lft.to/lastmile_qr_scan", "ios": "https://dc.lft.to/lastmile_qr_scan"}, "lat": 38.90069866666666, "is_disabled": 0, "lon": -77.01288716666667}, {"fusion_lat": 0.0, "type": "electric_scooter", "name": "fd806f13411e37cbe18c7dd899fd7219", "fusion_lon": 0.0, "bike_id": "fd806f13411e37cbe18c7dd899fd7219", "is_reserved": 0, "rental_uris": {"android": "https://dc.lft.to/lastmile_qr_scan", "ios": "https://dc.lft.to/lastmile_qr_scan"}, "lat": 38.90025933333333, "is_disabled": 0, "lon": -77.03350516666667}, {"fusion_lat": 0.0, "type": "electric_scooter", "name": "a6f4f22bcd60498b1af1ee28ae4788af", "fusion_lon": 0.0, "bike_id": "a6f4f22bcd60498b1af1ee28ae4788af", "is_reserved": 0, "rental_uris": {"android": "https://dc.lft.to/lastmile_qr_scan", "ios": "https://dc.lft.to/lastmile_qr_scan"}, "lat": 38.910766333333335, "is_disabled": 0, "lon": -77.06542616666667}, {"fusion_lat": 0.0, "type": "electric_scooter", "name": "e07b327a69b255730da24102402c8f78", "fusion_lon": 0.0, "bike_id": "e07b327a69b255730da24102402c8f78", "is_reserved": 0, "rental_uris": {"android": "https://dc.lft.to/lastmile_qr_scan", "ios": "https://dc.lft.to/lastmile_qr_scan"}, "lat": 38.866964, "is_disabled": 0, "lon": -76.98591683333333}, {"fusion_lat": 0.0, "type": "electric_scooter", "name": "965a27e1c39c4f7f4979abf081fc80c7", "fusion_lon": 0.0, "bike_id": "965a27e1c39c4f7f4979abf081fc80c7", "is_reserved": 0, "rental_uris": {"android": "https://dc.lft.to/lastmile_qr_scan", "ios": "https://dc.lft.to/lastmile_qr_scan"}, "lat": 38.904976166666664, "is_disabled": 0, "lon": -77.034633}, {"fusion_lat": 0.0, "type": "electric_scooter", "name": "a788564c1c629868b7aa67700ad11b03", "fusion_lon": 0.0, "bike_id": "a788564c1c629868b7aa67700ad11b03", "is_reserved": 0, "rental_uris": {"android": "https://dc.lft.to/lastmile_qr_scan", "ios": "https://dc.lft.to/lastmile_qr_scan"}, "lat": 38.895344333333334, "is_disabled": 0, "lon": -77.03257183333334}, {"fusion_lat": 0.0, "type": "electric_bike", "name": "6e06cc650bf4f701366b312de85d48e0", "fusion_lon": 0.0, "bike_id": "6e06cc650bf4f701366b312de85d48e0", "is_reserved": 0, "rental_uris": {"android": "https://dc.lft.to/lastmile_qr_scan", "ios": "https://dc.lft.to/lastmile_qr_scan"}, "lat": 38.89829016666667, "is_disabled": 0, "lon": -77.02523433333333}, {"fusion_lat": 0.0, "type": "electric_scooter", "name": "3d0f70711430616fd67d7d979bc5da74", "fusion_lon": 0.0, "bike_id": "3d0f70711430616fd67d7d979bc5da74", "is_reserved": 0, "rental_uris": {"android": "https://dc.lft.to/lastmile_qr_scan", "ios": "https://dc.lft.to/lastmile_qr_scan"}, "lat": 38.88732683333333, "is_disabled": 0, "lon": -77.02829866666667}, {"fusion_lat": 0.0, "type": "electric_bike", "name": "7197a406f55487de44347f0f1ffcb84f", "fusion_lon": 0.0, "bike_id": "7197a406f55487de44347f0f1ffcb84f", "is_reserved": 0, "rental_uris": {"android": "https://dc.lft.to/lastmile_qr_scan", "ios": "https://dc.lft.to/lastmile_qr_scan"}, "lat": 38.807526333333335, "is_disabled": 0, "lon": -77.0945385}, {"fusion_lat": 0.0, "type": "electric_scooter", "name": "7b57cadc233f73ee5515baa02c2e0d00", "fusion_lon": 0.0, "bike_id": "7b57cadc233f73ee5515baa02c2e0d00", "is_reserved": 0, "rental_uris": {"android": "https://dc.lft.to/lastmile_qr_scan", "ios": "https://dc.lft.to/lastmile_qr_scan"}, "lat": 38.881775, "is_disabled": 0, "lon": -77.0357615}, {"fusion_lat": 0.0, "type": "electric_scooter", "name": "820aaa1c3dbbaca481e5798792e46388", "fusion_lon": 0.0, "bike_id": "820aaa1c3dbbaca481e5798792e46388", "is_reserved": 0, "rental_uris": {"android": "https://dc.lft.to/lastmile_qr_scan", "ios": "https://dc.lft.to/lastmile_qr_scan"}, "lat": 38.9386425, "is_disabled": 0, "lon": -77.06045183333333}, {"fusion_lat": 0.0, "type": "electric_scooter", "name": "bf7b4147e96507e004233f453aac4c92", "fusion_lon": 0.0, "bike_id": "bf7b4147e96507e004233f453aac4c92", "is_reserved": 0, "rental_uris": {"android": "https://dc.lft.to/lastmile_qr_scan", "ios": "https://dc.lft.to/lastmile_qr_scan"}, "lat": 38.87656783333333, "is_disabled": 0, "lon": -77.0088235}, {"fusion_lat": 0.0, "type": "electric_scooter", "name": "5ad930223ec686959fb846730d7d2061", "fusion_lon": 0.0, "bike_id": "5ad930223ec686959fb846730d7d2061", "is_reserved": 0, "rental_uris": {"android": "https://dc.lft.to/lastmile_qr_scan", "ios": "https://dc.lft.to/lastmile_qr_scan"}, "lat": 38.905206166666666, "is_disabled": 0, "lon": -77.0500135}, {"fusion_lat": 0.0, "type": "electric_scooter", "name": "5849f49998ca6db580cefa550cb87741", "fusion_lon": 0.0, "bike_id": "5849f49998ca6db580cefa550cb87741", "is_reserved": 0, "rental_uris": {"android": "https://dc.lft.to/lastmile_qr_scan", "ios": "https://dc.lft.to/lastmile_qr_scan"}, "lat": 38.901143, "is_disabled": 0, "lon": -77.03996583333333}, {"fusion_lat": 0.0, "type": "electric_scooter", "name": "48c6d5670f47f6bbe0773c52e0019137", "fusion_lon": 0.0, "bike_id": "48c6d5670f47f6bbe0773c52e0019137", "is_reserved": 0, "rental_uris": {"android": "https://dc.lft.to/lastmile_qr_scan", "ios": "https://dc.lft.to/lastmile_qr_scan"}, "lat": 38.92918616666667, "is_disabled": 0, "lon": -77.037601}, {"fusion_lat": 0.0, "type": "electric_scooter", "name": "ccaccf749897a555a05b3465a2872125", "fusion_lon": 0.0, "bike_id": "ccaccf749897a555a05b3465a2872125", "is_reserved": 0, "rental_uris": {"android": "https://dc.lft.to/lastmile_qr_scan", "ios": "https://dc.lft.to/lastmile_qr_scan"}, "lat": 38.924393, "is_disabled": 0, "lon": -77.0213255}, {"fusion_lat": 0.0, "type": "electric_scooter", "name": "a13ed2741ea9efcd75e08cc3b3012de1", "fusion_lon": 0.0, "bike_id": "a13ed2741ea9efcd75e08cc3b3012de1", "is_reserved": 0, "rental_uris": {"android": "https://dc.lft.to/lastmile_qr_scan", "ios": "https://dc.lft.to/lastmile_qr_scan"}, "lat": 38.90840016666667, "is_disabled": 0, "lon": -77.03989316666667}, {"fusion_lat": 0.0, "type": "electric_scooter", "name": "cf0e9c90328b548c16928c85fdc69886", "fusion_lon": 0.0, "bike_id": "cf0e9c90328b548c16928c85fdc69886", "is_reserved": 0, "rental_uris": {"android": "https://dc.lft.to/lastmile_qr_scan", "ios": "https://dc.lft.to/lastmile_qr_scan"}, "lat": 38.938629166666665, "is_disabled": 0, "lon": -77.02652616666667}, {"fusion_lat": 0.0, "type": "electric_scooter", "name": "4c1858b2c48b9ad687afab276b29a258", "fusion_lon": 0.0, "bike_id": "4c1858b2c48b9ad687afab276b29a258", "is_reserved": 0, "rental_uris": {"android": "https://dc.lft.to/lastmile_qr_scan", "ios": "https://dc.lft.to/lastmile_qr_scan"}, "lat": 38.92257766666667, "is_disabled": 0, "lon": -77.043029}, {"fusion_lat": 0.0, "type": "electric_scooter", "name": "b38badbee4ea1565dbdbac02d3c6640d", "fusion_lon": 0.0, "bike_id": "b38badbee4ea1565dbdbac02d3c6640d", "is_reserved": 0, "rental_uris": {"android": "https://dc.lft.to/lastmile_qr_scan", "ios": "https://dc.lft.to/lastmile_qr_scan"}, "lat": 38.965896666666666, "is_disabled": 0, "lon": -77.06807883333333}, {"fusion_lat": 0.0, "type": "electric_scooter", "name": "041c65b7c1c71113c5cf6db2565ebeea", "fusion_lon": 0.0, "bike_id": "041c65b7c1c71113c5cf6db2565ebeea", "is_reserved": 0, "rental_uris": {"android": "https://dc.lft.to/lastmile_qr_scan", "ios": "https://dc.lft.to/lastmile_qr_scan"}, "lat": 38.90270866666667, "is_disabled": 0, "lon": -77.0532835}, {"fusion_lat": 0.0, "type": "electric_scooter", "name": "fd5ab30c1c1eef821b51122fada20ad4", "fusion_lon": 0.0, "bike_id": "fd5ab30c1c1eef821b51122fada20ad4", "is_reserved": 0, "rental_uris": {"android": "https://dc.lft.to/lastmile_qr_scan", "ios": "https://dc.lft.to/lastmile_qr_scan"}, "lat": 38.92342266666667, "is_disabled": 0, "lon": -77.034892}, {"fusion_lat": 0.0, "type": "electric_scooter", "name": "b66f5db80a97a2eedd622ed7812bf679", "fusion_lon": 0.0, "bike_id": "b66f5db80a97a2eedd622ed7812bf679", "is_reserved": 0, "rental_uris": {"android": "https://dc.lft.to/lastmile_qr_scan", "ios": "https://dc.lft.to/lastmile_qr_scan"}, "lat": 38.88744916666667, "is_disabled": 0, "lon": -77.02738783333334}, {"fusion_lat": 0.0, "type": "electric_scooter", "name": "b5e964750126a901b18f79c48779b866", "fusion_lon": 0.0, "bike_id": "b5e964750126a901b18f79c48779b866", "is_reserved": 0, "rental_uris": {"android": "https://dc.lft.to/lastmile_qr_scan", "ios": "https://dc.lft.to/lastmile_qr_scan"}, "lat": 38.93951533333333, "is_disabled": 0, "lon": -77.0724665}, {"fusion_lat": 0.0, "type": "electric_scooter", "name": "6084b7a46f00518abcefd5a05f1b8d2a", "fusion_lon": 0.0, "bike_id": "6084b7a46f00518abcefd5a05f1b8d2a", "is_reserved": 0, "rental_uris": {"android": "https://dc.lft.to/lastmile_qr_scan", "ios": "https://dc.lft.to/lastmile_qr_scan"}, "lat": 38.912682333333336, "is_disabled": 0, "lon": -77.01844966666667}, {"fusion_lat": 0.0, "type": "electric_scooter", "name": "e96c25c73d8c1ebb29055a6bcc785c56", "fusion_lon": 0.0, "bike_id": "e96c25c73d8c1ebb29055a6bcc785c56", "is_reserved": 0, "rental_uris": {"android": "https://dc.lft.to/lastmile_qr_scan", "ios": "https://dc.lft.to/lastmile_qr_scan"}, "lat": 38.939127, "is_disabled": 0, "lon": -77.02477033333334}, {"fusion_lat": 0.0, "type": "electric_scooter", "name": "28d1dd30b0e68c3d750603378b6f7896", "fusion_lon": 0.0, "bike_id": "28d1dd30b0e68c3d750603378b6f7896", "is_reserved": 0, "rental_uris": {"android": "https://dc.lft.to/lastmile_qr_scan", "ios": "https://dc.lft.to/lastmile_qr_scan"}, "lat": 38.8650375, "is_disabled": 0, "lon": -76.99000833333334}, {"fusion_lat": 0.0, "type": "electric_bike", "name": "8f650beb75c89c727ec2f85ba7717a76", "fusion_lon": 0.0, "bike_id": "8f650beb75c89c727ec2f85ba7717a76", "is_reserved": 0, "rental_uris": {"android": "https://dc.lft.to/lastmile_qr_scan", "ios": "https://dc.lft.to/lastmile_qr_scan"}, "lat": 39.013684, "is_disabled": 0, "lon": -76.92136166666667}, {"fusion_lat": 0.0, "type": "electric_scooter", "name": "8c3a6327bb7626b8d4b271e937d26a3f", "fusion_lon": 0.0, "bike_id": "8c3a6327bb7626b8d4b271e937d26a3f", "is_reserved": 0, "rental_uris": {"android": "https://dc.lft.to/lastmile_qr_scan", "ios": "https://dc.lft.to/lastmile_qr_scan"}, "lat": 38.90546166666667, "is_disabled": 0, "lon": -77.04646316666667}, {"fusion_lat": 0.0, "type": "electric_bike", "name": "18edd8921e2298338c0e0964c940e46b", "fusion_lon": 0.0, "bike_id": "18edd8921e2298338c0e0964c940e46b", "is_reserved": 0, "rental_uris": {"android": "https://dc.lft.to/lastmile_qr_scan", "ios": "https://dc.lft.to/lastmile_qr_scan"}, "lat": 38.8658135, "is_disabled": 0, "lon": -77.04760716666667}, {"fusion_lat": 0.0, "type": "electric_scooter", "name": "2db7f57f7155a86cd393e42bd7f02c4f", "fusion_lon": 0.0, "bike_id": "2db7f57f7155a86cd393e42bd7f02c4f", "is_reserved": 0, "rental_uris": {"android": "https://dc.lft.to/lastmile_qr_scan", "ios": "https://dc.lft.to/lastmile_qr_scan"}, "lat": 38.89218533333333, "is_disabled": 0, "lon": -77.0437595}, {"fusion_lat": 0.0, "type": "electric_bike", "name": "c784110f1d93f1b6a66c1ae0f61cd647", "fusion_lon": 0.0, "bike_id": "c784110f1d93f1b6a66c1ae0f61cd647", "is_reserved": 0, "rental_uris": {"android": "https://dc.lft.to/lastmile_qr_scan", "ios": "https://dc.lft.to/lastmile_qr_scan"}, "lat": 38.8652045, "is_disabled": 0, "lon": -76.9734495}, {"fusion_lat": 0.0, "type": "electric_scooter", "name": "2aeae6388865055af6a5bfbbf8313178", "fusion_lon": 0.0, "bike_id": "2aeae6388865055af6a5bfbbf8313178", "is_reserved": 0, "rental_uris": {"android": "https://dc.lft.to/lastmile_qr_scan", "ios": "https://dc.lft.to/lastmile_qr_scan"}, "lat": 38.91990233333333, "is_disabled": 0, "lon": -77.03242483333334}, {"fusion_lat": 0.0, "type": "electric_scooter", "name": "b6c9a8c02c0d506cb9c1d0803f1ed7ce", "fusion_lon": 0.0, "bike_id": "b6c9a8c02c0d506cb9c1d0803f1ed7ce", "is_reserved": 0, "rental_uris": {"android": "https://dc.lft.to/lastmile_qr_scan", "ios": "https://dc.lft.to/lastmile_qr_scan"}, "lat": 38.942013, "is_disabled": 0, "lon": -77.02505116666667}, {"fusion_lat": 0.0, "type": "electric_scooter", "name": "0c24639750cd4380bcaebc1ae1fdf589", "fusion_lon": 0.0, "bike_id": "0c24639750cd4380bcaebc1ae1fdf589", "is_reserved": 0, "rental_uris": {"android": "https://dc.lft.to/lastmile_qr_scan", "ios": "https://dc.lft.to/lastmile_qr_scan"}, "lat": 38.920395166666665, "is_disabled": 0, "lon": -77.01678633333333}, {"fusion_lat": 0.0, "type": "electric_scooter", "name": "aef85ef7a89eee29fc7deeecc7da2699", "fusion_lon": 0.0, "bike_id": "aef85ef7a89eee29fc7deeecc7da2699", "is_reserved": 0, "rental_uris": {"android": "https://dc.lft.to/lastmile_qr_scan", "ios": "https://dc.lft.to/lastmile_qr_scan"}, "lat": 38.921079166666665, "is_disabled": 0, "lon": -77.0421385}, {"fusion_lat": 0.0, "type": "electric_scooter", "name": "0e136590bb2d36f439367b30ba3c1f65", "fusion_lon": 0.0, "bike_id": "0e136590bb2d36f439367b30ba3c1f65", "is_reserved": 0, "rental_uris": {"android": "https://dc.lft.to/lastmile_qr_scan", "ios": "https://dc.lft.to/lastmile_qr_scan"}, "lat": 38.88059066666667, "is_disabled": 0, "lon": -76.932119}, {"fusion_lat": 0.0, "type": "electric_scooter", "name": "1c55a9c2d956b279f2ffbd60a7537a94", "fusion_lon": 0.0, "bike_id": "1c55a9c2d956b279f2ffbd60a7537a94", "is_reserved": 0, "rental_uris": {"android": "https://dc.lft.to/lastmile_qr_scan", "ios": "https://dc.lft.to/lastmile_qr_scan"}, "lat": 38.9153915, "is_disabled": 0, "lon": -77.01223633333333}, {"fusion_lat": 0.0, "type": "electric_scooter", "name": "0617af6b588506fcb58fbb1904acb2c4", "fusion_lon": 0.0, "bike_id": "0617af6b588506fcb58fbb1904acb2c4", "is_reserved": 0, "rental_uris": {"android": "https://dc.lft.to/lastmile_qr_scan", "ios": "https://dc.lft.to/lastmile_qr_scan"}, "lat": 38.90729683333333, "is_disabled": 0, "lon": -77.04566433333333}, {"fusion_lat": 0.0, "type": "electric_scooter", "name": "65c30c447949e97aa80257d1b8ffb758", "fusion_lon": 0.0, "bike_id": "65c30c447949e97aa80257d1b8ffb758", "is_reserved": 0, "rental_uris": {"android": "https://dc.lft.to/lastmile_qr_scan", "ios": "https://dc.lft.to/lastmile_qr_scan"}, "lat": 38.8625765, "is_disabled": 0, "lon": -76.99607416666667}, {"fusion_lat": 0.0, "type": "electric_scooter", "name": "52cb6551a64870e7ea7162aa5e015d5d", "fusion_lon": 0.0, "bike_id": "52cb6551a64870e7ea7162aa5e015d5d", "is_reserved": 0, "rental_uris": {"android": "https://dc.lft.to/lastmile_qr_scan", "ios": "https://dc.lft.to/lastmile_qr_scan"}, "lat": 38.902384833333336, "is_disabled": 0, "lon": -77.0149555}, {"fusion_lat": 0.0, "type": "electric_scooter", "name": "987dda4f3e70cd303132bb3c0b8682ef", "fusion_lon": 0.0, "bike_id": "987dda4f3e70cd303132bb3c0b8682ef", "is_reserved": 0, "rental_uris": {"android": "https://dc.lft.to/lastmile_qr_scan", "ios": "https://dc.lft.to/lastmile_qr_scan"}, "lat": 38.90210733333333, "is_disabled": 0, "lon": -77.02321216666667}, {"fusion_lat": 0.0, "type": "electric_scooter", "name": "5023fc75933155dc6afda6a1f409cbf3", "fusion_lon": 0.0, "bike_id": "5023fc75933155dc6afda6a1f409cbf3", "is_reserved": 0, "rental_uris": {"android": "https://dc.lft.to/lastmile_qr_scan", "ios": "https://dc.lft.to/lastmile_qr_scan"}, "lat": 38.89469283333333, "is_disabled": 0, "lon": -77.01729383333333}, {"fusion_lat": 0.0, "type": "electric_scooter", "name": "b8bc38a414eb13276c2f11ff6b97b0ea", "fusion_lon": 0.0, "bike_id": "b8bc38a414eb13276c2f11ff6b97b0ea", "is_reserved": 0, "rental_uris": {"android": "https://dc.lft.to/lastmile_qr_scan", "ios": "https://dc.lft.to/lastmile_qr_scan"}, "lat": 38.908600166666666, "is_disabled": 0, "lon": -77.070911}, {"fusion_lat": 0.0, "type": "electric_scooter", "name": "108f70876f00b59c8fdd873857801f89", "fusion_lon": 0.0, "bike_id": "108f70876f00b59c8fdd873857801f89", "is_reserved": 0, "rental_uris": {"android": "https://dc.lft.to/lastmile_qr_scan", "ios": "https://dc.lft.to/lastmile_qr_scan"}, "lat": 38.92863666666667, "is_disabled": 0, "lon": -77.01365383333334}, {"fusion_lat": 0.0, "type": "electric_scooter", "name": "89bc52ca24a75839a2c3fbd68c634a9e", "fusion_lon": 0.0, "bike_id": "89bc52ca24a75839a2c3fbd68c634a9e", "is_reserved": 0, "rental_uris": {"android": "https://dc.lft.to/lastmile_qr_scan", "ios": "https://dc.lft.to/lastmile_qr_scan"}, "lat": 38.934039, "is_disabled": 0, "lon": -77.02208966666667}, {"fusion_lat": 0.0, "type": "electric_scooter", "name": "192a73717010153ab6955b09955fe4bc", "fusion_lon": 0.0, "bike_id": "192a73717010153ab6955b09955fe4bc", "is_reserved": 0, "rental_uris": {"android": "https://dc.lft.to/lastmile_qr_scan", "ios": "https://dc.lft.to/lastmile_qr_scan"}, "lat": 38.9300775, "is_disabled": 0, "lon": -77.0130225}, {"fusion_lat": 0.0, "type": "electric_scooter", "name": "482a99b524b121a58df1db054f3dd05d", "fusion_lon": 0.0, "bike_id": "482a99b524b121a58df1db054f3dd05d", "is_reserved": 0, "rental_uris": {"android": "https://dc.lft.to/lastmile_qr_scan", "ios": "https://dc.lft.to/lastmile_qr_scan"}, "lat": 38.914162166666664, "is_disabled": 0, "lon": -77.04498133333334}, {"fusion_lat": 0.0, "type": "electric_scooter", "name": "7ba7b3b2c02e4580afb48a204b03574b", "fusion_lon": 0.0, "bike_id": "7ba7b3b2c02e4580afb48a204b03574b", "is_reserved": 0, "rental_uris": {"android": "https://dc.lft.to/lastmile_qr_scan", "ios": "https://dc.lft.to/lastmile_qr_scan"}, "lat": 38.8745465, "is_disabled": 0, "lon": -77.005462}, {"fusion_lat": 0.0, "type": "electric_scooter", "name": "d7c2c03ccf510c341c69c7896d7faae5", "fusion_lon": 0.0, "bike_id": "d7c2c03ccf510c341c69c7896d7faae5", "is_reserved": 0, "rental_uris": {"android": "https://dc.lft.to/lastmile_qr_scan", "ios": "https://dc.lft.to/lastmile_qr_scan"}, "lat": 38.89222316666667, "is_disabled": 0, "lon": -77.02219783333334}, {"fusion_lat": 0.0, "type": "electric_scooter", "name": "f258f27f69b0fbf40523d8b4f2117f4c", "fusion_lon": 0.0, "bike_id": "f258f27f69b0fbf40523d8b4f2117f4c", "is_reserved": 0, "rental_uris": {"android": "https://dc.lft.to/lastmile_qr_scan", "ios": "https://dc.lft.to/lastmile_qr_scan"}, "lat": 38.927573833333334, "is_disabled": 0, "lon": -77.03280683333334}, {"fusion_lat": 0.0, "type": "electric_scooter", "name": "2abfce608581ce5bc7a17effaad7cf4b", "fusion_lon": 0.0, "bike_id": "2abfce608581ce5bc7a17effaad7cf4b", "is_reserved": 0, "rental_uris": {"android": "https://dc.lft.to/lastmile_qr_scan", "ios": "https://dc.lft.to/lastmile_qr_scan"}, "lat": 38.92485666666666, "is_disabled": 0, "lon": -77.05754883333333}, {"fusion_lat": 0.0, "type": "electric_scooter", "name": "b6e8a5d717b4b5177ab537ee28024a5a", "fusion_lon": 0.0, "bike_id": "b6e8a5d717b4b5177ab537ee28024a5a", "is_reserved": 0, "rental_uris": {"android": "https://dc.lft.to/lastmile_qr_scan", "ios": "https://dc.lft.to/lastmile_qr_scan"}, "lat": 38.86374433333334, "is_disabled": 0, "lon": -76.9906105}, {"fusion_lat": 0.0, "type": "electric_scooter", "name": "703dc3fe2eda019e23876d208ba93faa", "fusion_lon": 0.0, "bike_id": "703dc3fe2eda019e23876d208ba93faa", "is_reserved": 0, "rental_uris": {"android": "https://dc.lft.to/lastmile_qr_scan", "ios": "https://dc.lft.to/lastmile_qr_scan"}, "lat": 38.86647516666667, "is_disabled": 0, "lon": -76.98514916666667}, {"fusion_lat": 0.0, "type": "electric_scooter", "name": "1bf89fba7f82dd0e7a9f42098979b5d4", "fusion_lon": 0.0, "bike_id": "1bf89fba7f82dd0e7a9f42098979b5d4", "is_reserved": 0, "rental_uris": {"android": "https://dc.lft.to/lastmile_qr_scan", "ios": "https://dc.lft.to/lastmile_qr_scan"}, "lat": 38.920974666666666, "is_disabled": 0, "lon": -77.0332365}, {"fusion_lat": 0.0, "type": "electric_scooter", "name": "f4c6190c9e7c52f09ce5560aeb7fd7b2", "fusion_lon": 0.0, "bike_id": "f4c6190c9e7c52f09ce5560aeb7fd7b2", "is_reserved": 0, "rental_uris": {"android": "https://dc.lft.to/lastmile_qr_scan", "ios": "https://dc.lft.to/lastmile_qr_scan"}, "lat": 38.892226666666666, "is_disabled": 0, "lon": -77.0437865}, {"fusion_lat": 0.0, "type": "electric_scooter", "name": "250af81f5d1cbfd8a1b18a699388503a", "fusion_lon": 0.0, "bike_id": "250af81f5d1cbfd8a1b18a699388503a", "is_reserved": 0, "rental_uris": {"android": "https://dc.lft.to/lastmile_qr_scan", "ios": "https://dc.lft.to/lastmile_qr_scan"}, "lat": 38.9105415, "is_disabled": 0, "lon": -77.02177083333333}, {"fusion_lat": 0.0, "type": "electric_scooter", "name": "b6adb787ab232096515baa4c7a467bab", "fusion_lon": 0.0, "bike_id": "b6adb787ab232096515baa4c7a467bab", "is_reserved": 0, "rental_uris": {"android": "https://dc.lft.to/lastmile_qr_scan", "ios": "https://dc.lft.to/lastmile_qr_scan"}, "lat": 38.92834916666666, "is_disabled": 0, "lon": -77.01344766666666}, {"fusion_lat": 0.0, "type": "electric_scooter", "name": "9779d1cc6595a6d5967dcd0eddcbed5e", "fusion_lon": 0.0, "bike_id": "9779d1cc6595a6d5967dcd0eddcbed5e", "is_reserved": 0, "rental_uris": {"android": "https://dc.lft.to/lastmile_qr_scan", "ios": "https://dc.lft.to/lastmile_qr_scan"}, "lat": 38.92066633333334, "is_disabled": 0, "lon": -77.04251033333334}, {"fusion_lat": 0.0, "type": "electric_scooter", "name": "8d08e13b3e1eed47ac06e01c74f60eb6", "fusion_lon": 0.0, "bike_id": "8d08e13b3e1eed47ac06e01c74f60eb6", "is_reserved": 0, "rental_uris": {"android": "https://dc.lft.to/lastmile_qr_scan", "ios": "https://dc.lft.to/lastmile_qr_scan"}, "lat": 38.91799833333334, "is_disabled": 0, "lon": -77.02704683333333}, {"fusion_lat": 0.0, "type": "electric_scooter", "name": "234a767f8128008d04c877d5887138b5", "fusion_lon": 0.0, "bike_id": "234a767f8128008d04c877d5887138b5", "is_reserved": 0, "rental_uris": {"android": "https://dc.lft.to/lastmile_qr_scan", "ios": "https://dc.lft.to/lastmile_qr_scan"}, "lat": 38.91895533333334, "is_disabled": 0, "lon": -77.020923}, {"fusion_lat": 0.0, "type": "electric_scooter", "name": "c9026164a609b49811aba309617f7369", "fusion_lon": 0.0, "bike_id": "c9026164a609b49811aba309617f7369", "is_reserved": 0, "rental_uris": {"android": "https://dc.lft.to/lastmile_qr_scan", "ios": "https://dc.lft.to/lastmile_qr_scan"}, "lat": 38.905154833333334, "is_disabled": 0, "lon": -77.06892266666667}, {"fusion_lat": 0.0, "type": "electric_scooter", "name": "ddb3129afa25e3e0463a3b04f17b9cd1", "fusion_lon": 0.0, "bike_id": "ddb3129afa25e3e0463a3b04f17b9cd1", "is_reserved": 0, "rental_uris": {"android": "https://dc.lft.to/lastmile_qr_scan", "ios": "https://dc.lft.to/lastmile_qr_scan"}, "lat": 38.901672833333336, "is_disabled": 0, "lon": -77.06007516666666}, {"fusion_lat": 0.0, "type": "electric_scooter", "name": "4635f23761810074c906e030e9bcdb5c", "fusion_lon": 0.0, "bike_id": "4635f23761810074c906e030e9bcdb5c", "is_reserved": 0, "rental_uris": {"android": "https://dc.lft.to/lastmile_qr_scan", "ios": "https://dc.lft.to/lastmile_qr_scan"}, "lat": 38.907801666666664, "is_disabled": 0, "lon": -77.07252266666667}, {"fusion_lat": 0.0, "type": "electric_scooter", "name": "586c016f67ed578ea0c012905cf6cc48", "fusion_lon": 0.0, "bike_id": "586c016f67ed578ea0c012905cf6cc48", "is_reserved": 0, "rental_uris": {"android": "https://dc.lft.to/lastmile_qr_scan", "ios": "https://dc.lft.to/lastmile_qr_scan"}, "lat": 38.898408333333336, "is_disabled": 0, "lon": -76.9464005}, {"fusion_lat": 0.0, "type": "electric_scooter", "name": "9c302d33f32276238ca647b4643e79bf", "fusion_lon": 0.0, "bike_id": "9c302d33f32276238ca647b4643e79bf", "is_reserved": 0, "rental_uris": {"android": "https://dc.lft.to/lastmile_qr_scan", "ios": "https://dc.lft.to/lastmile_qr_scan"}, "lat": 38.921195, "is_disabled": 0, "lon": -77.03658116666666}, {"fusion_lat": 0.0, "type": "electric_scooter", "name": "edc2d33c05f09b4a32a87439891db79b", "fusion_lon": 0.0, "bike_id": "edc2d33c05f09b4a32a87439891db79b", "is_reserved": 0, "rental_uris": {"android": "https://dc.lft.to/lastmile_qr_scan", "ios": "https://dc.lft.to/lastmile_qr_scan"}, "lat": 38.9042255, "is_disabled": 0, "lon": -77.04653083333334}, {"fusion_lat": 0.0, "type": "electric_scooter", "name": "c5551725aef4566bd586ab4f57d03890", "fusion_lon": 0.0, "bike_id": "c5551725aef4566bd586ab4f57d03890", "is_reserved": 0, "rental_uris": {"android": "https://dc.lft.to/lastmile_qr_scan", "ios": "https://dc.lft.to/lastmile_qr_scan"}, "lat": 38.901125666666665, "is_disabled": 0, "lon": -77.0498015}, {"fusion_lat": 0.0, "type": "electric_scooter", "name": "cb37b26853a068340a94cfe31974a312", "fusion_lon": 0.0, "bike_id": "cb37b26853a068340a94cfe31974a312", "is_reserved": 0, "rental_uris": {"android": "https://dc.lft.to/lastmile_qr_scan", "ios": "https://dc.lft.to/lastmile_qr_scan"}, "lat": 38.933407833333334, "is_disabled": 0, "lon": -77.032687}, {"fusion_lat": 0.0, "type": "electric_bike", "name": "d3d26e9964f4c801c93bc94e2697c87d", "fusion_lon": 0.0, "bike_id": "d3d26e9964f4c801c93bc94e2697c87d", "is_reserved": 0, "rental_uris": {"android": "https://dc.lft.to/lastmile_qr_scan", "ios": "https://dc.lft.to/lastmile_qr_scan"}, "lat": 38.87270866666667, "is_disabled": 0, "lon": -77.23327483333334}, {"fusion_lat": 0.0, "type": "electric_scooter", "name": "f9ffb059b22af75cbbf790a8e0b028c5", "fusion_lon": 0.0, "bike_id": "f9ffb059b22af75cbbf790a8e0b028c5", "is_reserved": 0, "rental_uris": {"android": "https://dc.lft.to/lastmile_qr_scan", "ios": "https://dc.lft.to/lastmile_qr_scan"}, "lat": 38.88612833333333, "is_disabled": 0, "lon": -76.95590416666667}, {"fusion_lat": 0.0, "type": "electric_scooter", "name": "924f0ecb4d9a05edb1cba21f94365066", "fusion_lon": 0.0, "bike_id": "924f0ecb4d9a05edb1cba21f94365066", "is_reserved": 0, "rental_uris": {"android": "https://dc.lft.to/lastmile_qr_scan", "ios": "https://dc.lft.to/lastmile_qr_scan"}, "lat": 38.902334333333336, "is_disabled": 0, "lon": -77.0268475}, {"fusion_lat": 0.0, "type": "electric_scooter", "name": "85ed42ef03cef81924c37402ec5b02a3", "fusion_lon": 0.0, "bike_id": "85ed42ef03cef81924c37402ec5b02a3", "is_reserved": 0, "rental_uris": {"android": "https://dc.lft.to/lastmile_qr_scan", "ios": "https://dc.lft.to/lastmile_qr_scan"}, "lat": 38.89429833333333, "is_disabled": 0, "lon": -76.94876216666667}, {"fusion_lat": 0.0, "type": "electric_scooter", "name": "a37f4e2a7ad5b46b79dc7393df41f330", "fusion_lon": 0.0, "bike_id": "a37f4e2a7ad5b46b79dc7393df41f330", "is_reserved": 0, "rental_uris": {"android": "https://dc.lft.to/lastmile_qr_scan", "ios": "https://dc.lft.to/lastmile_qr_scan"}, "lat": 38.893634, "is_disabled": 0, "lon": -77.0549225}, {"fusion_lat": 0.0, "type": "electric_scooter", "name": "997e7c10ca6cd08bd517760357f9bd4a", "fusion_lon": 0.0, "bike_id": "997e7c10ca6cd08bd517760357f9bd4a", "is_reserved": 0, "rental_uris": {"android": "https://dc.lft.to/lastmile_qr_scan", "ios": "https://dc.lft.to/lastmile_qr_scan"}, "lat": 38.944519166666666, "is_disabled": 0, "lon": -77.06032816666666}, {"fusion_lat": 0.0, "type": "electric_scooter", "name": "1f880cd74c34362b90486052c515d102", "fusion_lon": 0.0, "bike_id": "1f880cd74c34362b90486052c515d102", "is_reserved": 0, "rental_uris": {"android": "https://dc.lft.to/lastmile_qr_scan", "ios": "https://dc.lft.to/lastmile_qr_scan"}, "lat": 38.90313733333333, "is_disabled": 0, "lon": -77.04647933333334}, {"fusion_lat": 0.0, "type": "electric_scooter", "name": "5f450037bcb7a8d8b1e9468c0329341b", "fusion_lon": 0.0, "bike_id": "5f450037bcb7a8d8b1e9468c0329341b", "is_reserved": 0, "rental_uris": {"android": "https://dc.lft.to/lastmile_qr_scan", "ios": "https://dc.lft.to/lastmile_qr_scan"}, "lat": 38.90476916666667, "is_disabled": 0, "lon": -77.04368083333334}, {"fusion_lat": 0.0, "type": "electric_scooter", "name": "16904f5033ab204f1cd0e1c913054deb", "fusion_lon": 0.0, "bike_id": "16904f5033ab204f1cd0e1c913054deb", "is_reserved": 0, "rental_uris": {"android": "https://dc.lft.to/lastmile_qr_scan", "ios": "https://dc.lft.to/lastmile_qr_scan"}, "lat": 38.901218, "is_disabled": 0, "lon": -77.00256016666667}, {"fusion_lat": 0.0, "type": "electric_scooter", "name": "23901cf04f1f1fa4ee06b4c55ce9b63b", "fusion_lon": 0.0, "bike_id": "23901cf04f1f1fa4ee06b4c55ce9b63b", "is_reserved": 0, "rental_uris": {"android": "https://dc.lft.to/lastmile_qr_scan", "ios": "https://dc.lft.to/lastmile_qr_scan"}, "lat": 38.90719833333333, "is_disabled": 0, "lon": -77.0344345}, {"fusion_lat": 0.0, "type": "electric_scooter", "name": "0269308250ce280b28692d9bcd7ecdb0", "fusion_lon": 0.0, "bike_id": "0269308250ce280b28692d9bcd7ecdb0", "is_reserved": 0, "rental_uris": {"android": "https://dc.lft.to/lastmile_qr_scan", "ios": "https://dc.lft.to/lastmile_qr_scan"}, "lat": 38.8979795, "is_disabled": 0, "lon": -77.02481566666667}, {"fusion_lat": 0.0, "type": "electric_scooter", "name": "ba9111ad52e26e21503b221833605684", "fusion_lon": 0.0, "bike_id": "ba9111ad52e26e21503b221833605684", "is_reserved": 0, "rental_uris": {"android": "https://dc.lft.to/lastmile_qr_scan", "ios": "https://dc.lft.to/lastmile_qr_scan"}, "lat": 38.927112, "is_disabled": 0, "lon": -77.0238775}, {"fusion_lat": 0.0, "type": "electric_scooter", "name": "c509c6aed3575c69680bdf985fa45f77", "fusion_lon": 0.0, "bike_id": "c509c6aed3575c69680bdf985fa45f77", "is_reserved": 0, "rental_uris": {"android": "https://dc.lft.to/lastmile_qr_scan", "ios": "https://dc.lft.to/lastmile_qr_scan"}, "lat": 38.896516166666665, "is_disabled": 0, "lon": -77.05029066666667}, {"fusion_lat": 0.0, "type": "electric_scooter", "name": "68697fc6c79cc342c593158f8f3eecb5", "fusion_lon": 0.0, "bike_id": "68697fc6c79cc342c593158f8f3eecb5", "is_reserved": 0, "rental_uris": {"android": "https://dc.lft.to/lastmile_qr_scan", "ios": "https://dc.lft.to/lastmile_qr_scan"}, "lat": 38.9241745, "is_disabled": 0, "lon": -77.023152}, {"fusion_lat": 0.0, "type": "electric_scooter", "name": "491bad20524c66e71121ef9b588527ed", "fusion_lon": 0.0, "bike_id": "491bad20524c66e71121ef9b588527ed", "is_reserved": 0, "rental_uris": {"android": "https://dc.lft.to/lastmile_qr_scan", "ios": "https://dc.lft.to/lastmile_qr_scan"}, "lat": 38.89221033333333, "is_disabled": 0, "lon": -77.032274}, {"fusion_lat": 0.0, "type": "electric_scooter", "name": "d2a1d4e6ab5ca82b4d115526b6bf6c00", "fusion_lon": 0.0, "bike_id": "d2a1d4e6ab5ca82b4d115526b6bf6c00", "is_reserved": 0, "rental_uris": {"android": "https://dc.lft.to/lastmile_qr_scan", "ios": "https://dc.lft.to/lastmile_qr_scan"}, "lat": 38.910612, "is_disabled": 0, "lon": -77.02179133333334}, {"fusion_lat": 0.0, "type": "electric_scooter", "name": "a4554e933a0f9484da1281115b110afa", "fusion_lon": 0.0, "bike_id": "a4554e933a0f9484da1281115b110afa", "is_reserved": 0, "rental_uris": {"android": "https://dc.lft.to/lastmile_qr_scan", "ios": "https://dc.lft.to/lastmile_qr_scan"}, "lat": 38.93248466666667, "is_disabled": 0, "lon": -77.0284995}, {"fusion_lat": 0.0, "type": "electric_scooter", "name": "e7e0c6bb1c2b3b59b0a9f902c497650e", "fusion_lon": 0.0, "bike_id": "e7e0c6bb1c2b3b59b0a9f902c497650e", "is_reserved": 0, "rental_uris": {"android": "https://dc.lft.to/lastmile_qr_scan", "ios": "https://dc.lft.to/lastmile_qr_scan"}, "lat": 38.89297766666667, "is_disabled": 0, "lon": -76.99821033333333}, {"fusion_lat": 0.0, "type": "electric_scooter", "name": "480de6261acf10822e988a7a886fcab0", "fusion_lon": 0.0, "bike_id": "480de6261acf10822e988a7a886fcab0", "is_reserved": 0, "rental_uris": {"android": "https://dc.lft.to/lastmile_qr_scan", "ios": "https://dc.lft.to/lastmile_qr_scan"}, "lat": 38.927979666666666, "is_disabled": 0, "lon": -77.02597733333333}, {"fusion_lat": 0.0, "type": "electric_scooter", "name": "227cfced4154d844b5bb1c14f5e90ac2", "fusion_lon": 0.0, "bike_id": "227cfced4154d844b5bb1c14f5e90ac2", "is_reserved": 0, "rental_uris": {"android": "https://dc.lft.to/lastmile_qr_scan", "ios": "https://dc.lft.to/lastmile_qr_scan"}, "lat": 38.908188833333334, "is_disabled": 0, "lon": -76.99198733333333}, {"fusion_lat": 0.0, "type": "electric_scooter", "name": "bc07afa0908c2702829d2001cbb76233", "fusion_lon": 0.0, "bike_id": "bc07afa0908c2702829d2001cbb76233", "is_reserved": 0, "rental_uris": {"android": "https://dc.lft.to/lastmile_qr_scan", "ios": "https://dc.lft.to/lastmile_qr_scan"}, "lat": 38.89228083333333, "is_disabled": 0, "lon": -77.03197816666666}, {"fusion_lat": 0.0, "type": "electric_scooter", "name": "0de223b76e8cb999f48db2eae24fd19a", "fusion_lon": 0.0, "bike_id": "0de223b76e8cb999f48db2eae24fd19a", "is_reserved": 0, "rental_uris": {"android": "https://dc.lft.to/lastmile_qr_scan", "ios": "https://dc.lft.to/lastmile_qr_scan"}, "lat": 38.945077, "is_disabled": 0, "lon": -77.03320533333333}, {"fusion_lat": 0.0, "type": "electric_scooter", "name": "5784cf3a10b64d12565b306afd41d904", "fusion_lon": 0.0, "bike_id": "5784cf3a10b64d12565b306afd41d904", "is_reserved": 0, "rental_uris": {"android": "https://dc.lft.to/lastmile_qr_scan", "ios": "https://dc.lft.to/lastmile_qr_scan"}, "lat": 38.904110833333334, "is_disabled": 0, "lon": -76.98087466666667}, {"fusion_lat": 0.0, "type": "electric_scooter", "name": "ff632bf45e57ef6a98a98dc37e82a362", "fusion_lon": 0.0, "bike_id": "ff632bf45e57ef6a98a98dc37e82a362", "is_reserved": 0, "rental_uris": {"android": "https://dc.lft.to/lastmile_qr_scan", "ios": "https://dc.lft.to/lastmile_qr_scan"}, "lat": 38.90595483333333, "is_disabled": 0, "lon": -77.042287}, {"fusion_lat": 0.0, "type": "electric_scooter", "name": "5b4f68c6cd146e59a56109894b01fdd0", "fusion_lon": 0.0, "bike_id": "5b4f68c6cd146e59a56109894b01fdd0", "is_reserved": 0, "rental_uris": {"android": "https://dc.lft.to/lastmile_qr_scan", "ios": "https://dc.lft.to/lastmile_qr_scan"}, "lat": 38.921151, "is_disabled": 0, "lon": -77.02202}, {"fusion_lat": 0.0, "type": "electric_scooter", "name": "dc7323135c45de10eec787b3394984fd", "fusion_lon": 0.0, "bike_id": "dc7323135c45de10eec787b3394984fd", "is_reserved": 0, "rental_uris": {"android": "https://dc.lft.to/lastmile_qr_scan", "ios": "https://dc.lft.to/lastmile_qr_scan"}, "lat": 38.90210366666667, "is_disabled": 0, "lon": -77.046728}, {"fusion_lat": 0.0, "type": "electric_bike", "name": "658bc229e6a38e4ed252ee5d9876bcb6", "fusion_lon": 0.0, "bike_id": "658bc229e6a38e4ed252ee5d9876bcb6", "is_reserved": 0, "rental_uris": {"android": "https://dc.lft.to/lastmile_qr_scan", "ios": "https://dc.lft.to/lastmile_qr_scan"}, "lat": 38.858925666666664, "is_disabled": 0, "lon": -77.118663}, {"fusion_lat": 0.0, "type": "electric_scooter", "name": "550067ecd3b0655cf75105765e43f313", "fusion_lon": 0.0, "bike_id": "550067ecd3b0655cf75105765e43f313", "is_reserved": 0, "rental_uris": {"android": "https://dc.lft.to/lastmile_qr_scan", "ios": "https://dc.lft.to/lastmile_qr_scan"}, "lat": 38.92183583333333, "is_disabled": 0, "lon": -77.01870266666667}, {"fusion_lat": 0.0, "type": "electric_scooter", "name": "0016da4a4c34920c7218af5a5483440b", "fusion_lon": 0.0, "bike_id": "0016da4a4c34920c7218af5a5483440b", "is_reserved": 0, "rental_uris": {"android": "https://dc.lft.to/lastmile_qr_scan", "ios": "https://dc.lft.to/lastmile_qr_scan"}, "lat": 38.919820666666666, "is_disabled": 0, "lon": -77.03964083333334}, {"fusion_lat": 0.0, "type": "electric_scooter", "name": "2ea3dd201ab926ecc902f1fc2fe4d8c2", "fusion_lon": 0.0, "bike_id": "2ea3dd201ab926ecc902f1fc2fe4d8c2", "is_reserved": 0, "rental_uris": {"android": "https://dc.lft.to/lastmile_qr_scan", "ios": "https://dc.lft.to/lastmile_qr_scan"}, "lat": 38.911191, "is_disabled": 0, "lon": -77.03158516666667}, {"fusion_lat": 0.0, "type": "electric_scooter", "name": "e089aa1c665159d8289c202a1707bed3", "fusion_lon": 0.0, "bike_id": "e089aa1c665159d8289c202a1707bed3", "is_reserved": 0, "rental_uris": {"android": "https://dc.lft.to/lastmile_qr_scan", "ios": "https://dc.lft.to/lastmile_qr_scan"}, "lat": 38.91418766666666, "is_disabled": 0, "lon": -77.03180233333333}, {"fusion_lat": 0.0, "type": "electric_scooter", "name": "286bfc8dd537cb6c1edb1a6407d5ac44", "fusion_lon": 0.0, "bike_id": "286bfc8dd537cb6c1edb1a6407d5ac44", "is_reserved": 0, "rental_uris": {"android": "https://dc.lft.to/lastmile_qr_scan", "ios": "https://dc.lft.to/lastmile_qr_scan"}, "lat": 38.90831283333333, "is_disabled": 0, "lon": -76.99695066666666}, {"fusion_lat": 0.0, "type": "electric_scooter", "name": "2686e86c5711a4db83259b193e7655e3", "fusion_lon": 0.0, "bike_id": "2686e86c5711a4db83259b193e7655e3", "is_reserved": 0, "rental_uris": {"android": "https://dc.lft.to/lastmile_qr_scan", "ios": "https://dc.lft.to/lastmile_qr_scan"}, "lat": 38.91728066666667, "is_disabled": 0, "lon": -77.02300266666667}, {"fusion_lat": 0.0, "type": "electric_scooter", "name": "26094ce2055695ef8b1c83436389ddf6", "fusion_lon": 0.0, "bike_id": "26094ce2055695ef8b1c83436389ddf6", "is_reserved": 0, "rental_uris": {"android": "https://dc.lft.to/lastmile_qr_scan", "ios": "https://dc.lft.to/lastmile_qr_scan"}, "lat": 38.905605666666666, "is_disabled": 0, "lon": -77.00573483333334}, {"fusion_lat": 0.0, "type": "electric_scooter", "name": "8d3a0162eef90b3126e5e73924e242b6", "fusion_lon": 0.0, "bike_id": "8d3a0162eef90b3126e5e73924e242b6", "is_reserved": 0, "rental_uris": {"android": "https://dc.lft.to/lastmile_qr_scan", "ios": "https://dc.lft.to/lastmile_qr_scan"}, "lat": 38.91250683333333, "is_disabled": 0, "lon": -77.02231}, {"fusion_lat": 0.0, "type": "electric_scooter", "name": "77ed80599a6d25fc6fa858ede0067e3a", "fusion_lon": 0.0, "bike_id": "77ed80599a6d25fc6fa858ede0067e3a", "is_reserved": 0, "rental_uris": {"android": "https://dc.lft.to/lastmile_qr_scan", "ios": "https://dc.lft.to/lastmile_qr_scan"}, "lat": 38.892353666666665, "is_disabled": 0, "lon": -77.032153}, {"fusion_lat": 0.0, "type": "electric_scooter", "name": "c27389d090b639341d7435072ad9875a", "fusion_lon": 0.0, "bike_id": "c27389d090b639341d7435072ad9875a", "is_reserved": 0, "rental_uris": {"android": "https://dc.lft.to/lastmile_qr_scan", "ios": "https://dc.lft.to/lastmile_qr_scan"}, "lat": 38.8849925, "is_disabled": 0, "lon": -77.0209165}, {"fusion_lat": 0.0, "type": "electric_scooter", "name": "73710dbc90939458673d635355cde04a", "fusion_lon": 0.0, "bike_id": "73710dbc90939458673d635355cde04a", "is_reserved": 0, "rental_uris": {"android": "https://dc.lft.to/lastmile_qr_scan", "ios": "https://dc.lft.to/lastmile_qr_scan"}, "lat": 38.90526466666667, "is_disabled": 0, "lon": -77.06190716666667}, {"fusion_lat": 0.0, "type": "electric_scooter", "name": "a0156750a28574e5188fc738e69410a9", "fusion_lon": 0.0, "bike_id": "a0156750a28574e5188fc738e69410a9", "is_reserved": 0, "rental_uris": {"android": "https://dc.lft.to/lastmile_qr_scan", "ios": "https://dc.lft.to/lastmile_qr_scan"}, "lat": 38.900343666666664, "is_disabled": 0, "lon": -76.98424633333333}, {"fusion_lat": 0.0, "type": "electric_scooter", "name": "d720b5962d1aca059c7ef47a93b4c008", "fusion_lon": 0.0, "bike_id": "d720b5962d1aca059c7ef47a93b4c008", "is_reserved": 0, "rental_uris": {"android": "https://dc.lft.to/lastmile_qr_scan", "ios": "https://dc.lft.to/lastmile_qr_scan"}, "lat": 38.88427033333333, "is_disabled": 0, "lon": -77.02591483333333}, {"fusion_lat": 0.0, "type": "electric_bike", "name": "ba4d438093a95dfdf4fa8c1249a607b2", "fusion_lon": 0.0, "bike_id": "ba4d438093a95dfdf4fa8c1249a607b2", "is_reserved": 0, "rental_uris": {"android": "https://dc.lft.to/lastmile_qr_scan", "ios": "https://dc.lft.to/lastmile_qr_scan"}, "lat": 38.96817933333333, "is_disabled": 0, "lon": -77.00036233333333}, {"fusion_lat": 0.0, "type": "electric_scooter", "name": "54c671e8f3cfd8fd3489592e3f9f4b8b", "fusion_lon": 0.0, "bike_id": "54c671e8f3cfd8fd3489592e3f9f4b8b", "is_reserved": 0, "rental_uris": {"android": "https://dc.lft.to/lastmile_qr_scan", "ios": "https://dc.lft.to/lastmile_qr_scan"}, "lat": 38.926591333333334, "is_disabled": 0, "lon": -77.02295233333334}, {"fusion_lat": 0.0, "type": "electric_scooter", "name": "6f532f7f04d8e27301f19e98ef09df42", "fusion_lon": 0.0, "bike_id": "6f532f7f04d8e27301f19e98ef09df42", "is_reserved": 0, "rental_uris": {"android": "https://dc.lft.to/lastmile_qr_scan", "ios": "https://dc.lft.to/lastmile_qr_scan"}, "lat": 38.893040666666664, "is_disabled": 0, "lon": -76.92918966666667}, {"fusion_lat": 0.0, "type": "electric_scooter", "name": "f0ee348bc75c3dfafbbea5ee8c84045e", "fusion_lon": 0.0, "bike_id": "f0ee348bc75c3dfafbbea5ee8c84045e", "is_reserved": 0, "rental_uris": {"android": "https://dc.lft.to/lastmile_qr_scan", "ios": "https://dc.lft.to/lastmile_qr_scan"}, "lat": 38.898268, "is_disabled": 0, "lon": -77.03315433333333}, {"fusion_lat": 0.0, "type": "electric_scooter", "name": "713c149ac7638dd463ecc5d60a105684", "fusion_lon": 0.0, "bike_id": "713c149ac7638dd463ecc5d60a105684", "is_reserved": 0, "rental_uris": {"android": "https://dc.lft.to/lastmile_qr_scan", "ios": "https://dc.lft.to/lastmile_qr_scan"}, "lat": 38.87109316666667, "is_disabled": 0, "lon": -77.0076235}, {"fusion_lat": 0.0, "type": "electric_bike", "name": "a865f4d46118ef518f72de5cc7597895", "fusion_lon": 0.0, "bike_id": "a865f4d46118ef518f72de5cc7597895", "is_reserved": 0, "rental_uris": {"android": "https://dc.lft.to/lastmile_qr_scan", "ios": "https://dc.lft.to/lastmile_qr_scan"}, "lat": 38.965338, "is_disabled": 0, "lon": -77.035103}, {"fusion_lat": 0.0, "type": "electric_scooter", "name": "2c5c48e91a4cbf2d4da5407e35c3d312", "fusion_lon": 0.0, "bike_id": "2c5c48e91a4cbf2d4da5407e35c3d312", "is_reserved": 0, "rental_uris": {"android": "https://dc.lft.to/lastmile_qr_scan", "ios": "https://dc.lft.to/lastmile_qr_scan"}, "lat": 38.865051666666666, "is_disabled": 0, "lon": -76.990057}, {"fusion_lat": 0.0, "type": "electric_scooter", "name": "dbfa0a2dc26c52c7031fab205a7974ce", "fusion_lon": 0.0, "bike_id": "dbfa0a2dc26c52c7031fab205a7974ce", "is_reserved": 0, "rental_uris": {"android": "https://dc.lft.to/lastmile_qr_scan", "ios": "https://dc.lft.to/lastmile_qr_scan"}, "lat": 38.927389833333336, "is_disabled": 0, "lon": -77.02266416666667}, {"fusion_lat": 0.0, "type": "electric_bike", "name": "e1862b1b8af965e6055b9c0d3591320e", "fusion_lon": 0.0, "bike_id": "e1862b1b8af965e6055b9c0d3591320e", "is_reserved": 0, "rental_uris": {"android": "https://dc.lft.to/lastmile_qr_scan", "ios": "https://dc.lft.to/lastmile_qr_scan"}, "lat": 38.811984833333334, "is_disabled": 0, "lon": -77.10839366666667}, {"fusion_lat": 0.0, "type": "electric_scooter", "name": "b4506da6111ea344441e079d0e1aff35", "fusion_lon": 0.0, "bike_id": "b4506da6111ea344441e079d0e1aff35", "is_reserved": 0, "rental_uris": {"android": "https://dc.lft.to/lastmile_qr_scan", "ios": "https://dc.lft.to/lastmile_qr_scan"}, "lat": 38.90794266666666, "is_disabled": 0, "lon": -77.03198966666666}, {"fusion_lat": 0.0, "type": "electric_scooter", "name": "bbf3003f1ba9af93242eecc6056b18ce", "fusion_lon": 0.0, "bike_id": "bbf3003f1ba9af93242eecc6056b18ce", "is_reserved": 0, "rental_uris": {"android": "https://dc.lft.to/lastmile_qr_scan", "ios": "https://dc.lft.to/lastmile_qr_scan"}, "lat": 38.89223883333333, "is_disabled": 0, "lon": -77.04330583333333}, {"fusion_lat": 0.0, "type": "electric_scooter", "name": "85be653cdc3be6c00ea793281c2715cb", "fusion_lon": 0.0, "bike_id": "85be653cdc3be6c00ea793281c2715cb", "is_reserved": 0, "rental_uris": {"android": "https://dc.lft.to/lastmile_qr_scan", "ios": "https://dc.lft.to/lastmile_qr_scan"}, "lat": 38.908883833333334, "is_disabled": 0, "lon": -76.98238216666667}, {"fusion_lat": 0.0, "type": "electric_scooter", "name": "03baaf63d867b17250c239a5d1c832c4", "fusion_lon": 0.0, "bike_id": "03baaf63d867b17250c239a5d1c832c4", "is_reserved": 0, "rental_uris": {"android": "https://dc.lft.to/lastmile_qr_scan", "ios": "https://dc.lft.to/lastmile_qr_scan"}, "lat": 38.93080066666667, "is_disabled": 0, "lon": -77.03487266666667}, {"fusion_lat": 0.0, "type": "electric_scooter", "name": "2cff693af4a14b34f4940ef1b89c4f50", "fusion_lon": 0.0, "bike_id": "2cff693af4a14b34f4940ef1b89c4f50", "is_reserved": 0, "rental_uris": {"android": "https://dc.lft.to/lastmile_qr_scan", "ios": "https://dc.lft.to/lastmile_qr_scan"}, "lat": 38.870384, "is_disabled": 0, "lon": -77.00969966666666}, {"fusion_lat": 0.0, "type": "electric_scooter", "name": "7074ce390d28488bfd394a95fc1cd4c9", "fusion_lon": 0.0, "bike_id": "7074ce390d28488bfd394a95fc1cd4c9", "is_reserved": 0, "rental_uris": {"android": "https://dc.lft.to/lastmile_qr_scan", "ios": "https://dc.lft.to/lastmile_qr_scan"}, "lat": 38.9266655, "is_disabled": 0, "lon": -77.01466433333333}, {"fusion_lat": 0.0, "type": "electric_bike", "name": "f1b0f0cde620e99197959d36341fc11a", "fusion_lon": 0.0, "bike_id": "f1b0f0cde620e99197959d36341fc11a", "is_reserved": 0, "rental_uris": {"android": "https://dc.lft.to/lastmile_qr_scan", "ios": "https://dc.lft.to/lastmile_qr_scan"}, "lat": 38.8818455, "is_disabled": 0, "lon": -77.1146505}, {"fusion_lat": 0.0, "type": "electric_scooter", "name": "6943ccd2b66dd7dde8e096c8af73c3cd", "fusion_lon": 0.0, "bike_id": "6943ccd2b66dd7dde8e096c8af73c3cd", "is_reserved": 0, "rental_uris": {"android": "https://dc.lft.to/lastmile_qr_scan", "ios": "https://dc.lft.to/lastmile_qr_scan"}, "lat": 38.91489933333333, "is_disabled": 0, "lon": -77.02201766666667}, {"fusion_lat": 0.0, "type": "electric_scooter", "name": "132cd4429fe27cabea78b17882999e9d", "fusion_lon": 0.0, "bike_id": "132cd4429fe27cabea78b17882999e9d", "is_reserved": 0, "rental_uris": {"android": "https://dc.lft.to/lastmile_qr_scan", "ios": "https://dc.lft.to/lastmile_qr_scan"}, "lat": 38.899952166666665, "is_disabled": 0, "lon": -77.0183835}, {"fusion_lat": 0.0, "type": "electric_scooter", "name": "8df71f56b04b4e8fd64fd864e5e6f7c6", "fusion_lon": 0.0, "bike_id": "8df71f56b04b4e8fd64fd864e5e6f7c6", "is_reserved": 0, "rental_uris": {"android": "https://dc.lft.to/lastmile_qr_scan", "ios": "https://dc.lft.to/lastmile_qr_scan"}, "lat": 38.892186833333334, "is_disabled": 0, "lon": -77.02259383333333}, {"fusion_lat": 0.0, "type": "electric_scooter", "name": "177ea0744b00fcf7671f935ba2ebedc7", "fusion_lon": 0.0, "bike_id": "177ea0744b00fcf7671f935ba2ebedc7", "is_reserved": 0, "rental_uris": {"android": "https://dc.lft.to/lastmile_qr_scan", "ios": "https://dc.lft.to/lastmile_qr_scan"}, "lat": 38.93110216666667, "is_disabled": 0, "lon": -77.03823366666667}, {"fusion_lat": 0.0, "type": "electric_scooter", "name": "5cf910f547428f5300f761c7eb384ed1", "fusion_lon": 0.0, "bike_id": "5cf910f547428f5300f761c7eb384ed1", "is_reserved": 0, "rental_uris": {"android": "https://dc.lft.to/lastmile_qr_scan", "ios": "https://dc.lft.to/lastmile_qr_scan"}, "lat": 38.843125666666666, "is_disabled": 0, "lon": -76.99936016666666}, {"fusion_lat": 0.0, "type": "electric_scooter", "name": "28bbaa71c2fff61d90a16a3b96e16279", "fusion_lon": 0.0, "bike_id": "28bbaa71c2fff61d90a16a3b96e16279", "is_reserved": 0, "rental_uris": {"android": "https://dc.lft.to/lastmile_qr_scan", "ios": "https://dc.lft.to/lastmile_qr_scan"}, "lat": 38.910531666666664, "is_disabled": 0, "lon": -77.04349016666667}, {"fusion_lat": 0.0, "type": "electric_scooter", "name": "47360d6fd8adb8a7489be1595182c34b", "fusion_lon": 0.0, "bike_id": "47360d6fd8adb8a7489be1595182c34b", "is_reserved": 0, "rental_uris": {"android": "https://dc.lft.to/lastmile_qr_scan", "ios": "https://dc.lft.to/lastmile_qr_scan"}, "lat": 38.86339616666667, "is_disabled": 0, "lon": -76.982823}, {"fusion_lat": 0.0, "type": "electric_scooter", "name": "b2fca7facd9a11ab1e48bded37d0984c", "fusion_lon": 0.0, "bike_id": "b2fca7facd9a11ab1e48bded37d0984c", "is_reserved": 0, "rental_uris": {"android": "https://dc.lft.to/lastmile_qr_scan", "ios": "https://dc.lft.to/lastmile_qr_scan"}, "lat": 38.88776883333333, "is_disabled": 0, "lon": -76.95530416666666}, {"fusion_lat": 0.0, "type": "electric_scooter", "name": "eef417e633e955f3fb65437bc50807bd", "fusion_lon": 0.0, "bike_id": "eef417e633e955f3fb65437bc50807bd", "is_reserved": 0, "rental_uris": {"android": "https://dc.lft.to/lastmile_qr_scan", "ios": "https://dc.lft.to/lastmile_qr_scan"}, "lat": 38.86698466666667, "is_disabled": 0, "lon": -76.98712683333333}, {"fusion_lat": 0.0, "type": "electric_scooter", "name": "713b26c7bbf92283b95d614773d406b4", "fusion_lon": 0.0, "bike_id": "713b26c7bbf92283b95d614773d406b4", "is_reserved": 0, "rental_uris": {"android": "https://dc.lft.to/lastmile_qr_scan", "ios": "https://dc.lft.to/lastmile_qr_scan"}, "lat": 38.884209166666665, "is_disabled": 0, "lon": -77.00790233333333}, {"fusion_lat": 0.0, "type": "electric_scooter", "name": "c713376ffcce5a220d917441e5888fd6", "fusion_lon": 0.0, "bike_id": "c713376ffcce5a220d917441e5888fd6", "is_reserved": 0, "rental_uris": {"android": "https://dc.lft.to/lastmile_qr_scan", "ios": "https://dc.lft.to/lastmile_qr_scan"}, "lat": 38.923943, "is_disabled": 0, "lon": -77.03539633333334}, {"fusion_lat": 0.0, "type": "electric_bike", "name": "4108db5dd1a2b4c627a57d7ddae73dc8", "fusion_lon": 0.0, "bike_id": "4108db5dd1a2b4c627a57d7ddae73dc8", "is_reserved": 0, "rental_uris": {"android": "https://dc.lft.to/lastmile_qr_scan", "ios": "https://dc.lft.to/lastmile_qr_scan"}, "lat": 38.85205283333333, "is_disabled": 0, "lon": -77.1013135}, {"fusion_lat": 0.0, "type": "electric_scooter", "name": "f316280aeded44ffa2f6d1709798d163", "fusion_lon": 0.0, "bike_id": "f316280aeded44ffa2f6d1709798d163", "is_reserved": 0, "rental_uris": {"android": "https://dc.lft.to/lastmile_qr_scan", "ios": "https://dc.lft.to/lastmile_qr_scan"}, "lat": 38.9214535, "is_disabled": 0, "lon": -77.03513283333334}, {"fusion_lat": 0.0, "type": "electric_scooter", "name": "981c9e0ef0f8c3014cea68613ad89988", "fusion_lon": 0.0, "bike_id": "981c9e0ef0f8c3014cea68613ad89988", "is_reserved": 0, "rental_uris": {"android": "https://dc.lft.to/lastmile_qr_scan", "ios": "https://dc.lft.to/lastmile_qr_scan"}, "lat": 38.9177245, "is_disabled": 0, "lon": -77.04276566666667}, {"fusion_lat": 0.0, "type": "electric_scooter", "name": "f8b27ae51a06727384a4199b6d11d3fe", "fusion_lon": 0.0, "bike_id": "f8b27ae51a06727384a4199b6d11d3fe", "is_reserved": 0, "rental_uris": {"android": "https://dc.lft.to/lastmile_qr_scan", "ios": "https://dc.lft.to/lastmile_qr_scan"}, "lat": 38.95623783333333, "is_disabled": 0, "lon": -77.02458766666666}, {"fusion_lat": 0.0, "type": "electric_scooter", "name": "a6bb3b2919355a45c905fade052d5740", "fusion_lon": 0.0, "bike_id": "a6bb3b2919355a45c905fade052d5740", "is_reserved": 0, "rental_uris": {"android": "https://dc.lft.to/lastmile_qr_scan", "ios": "https://dc.lft.to/lastmile_qr_scan"}, "lat": 38.8978935, "is_disabled": 0, "lon": -77.0449745}, {"fusion_lat": 0.0, "type": "electric_scooter", "name": "1a01954d79b289805ca5aeaccf34c821", "fusion_lon": 0.0, "bike_id": "1a01954d79b289805ca5aeaccf34c821", "is_reserved": 0, "rental_uris": {"android": "https://dc.lft.to/lastmile_qr_scan", "ios": "https://dc.lft.to/lastmile_qr_scan"}, "lat": 38.9285905, "is_disabled": 0, "lon": -77.03267616666666}, {"fusion_lat": 0.0, "type": "electric_scooter", "name": "7ce65ee9a90fefcbd2e88b585e35148b", "fusion_lon": 0.0, "bike_id": "7ce65ee9a90fefcbd2e88b585e35148b", "is_reserved": 0, "rental_uris": {"android": "https://dc.lft.to/lastmile_qr_scan", "ios": "https://dc.lft.to/lastmile_qr_scan"}, "lat": 38.93570833333333, "is_disabled": 0, "lon": -77.02118116666666}, {"fusion_lat": 0.0, "type": "electric_scooter", "name": "bae09c4177685092f059c31dd2244da0", "fusion_lon": 0.0, "bike_id": "bae09c4177685092f059c31dd2244da0", "is_reserved": 0, "rental_uris": {"android": "https://dc.lft.to/lastmile_qr_scan", "ios": "https://dc.lft.to/lastmile_qr_scan"}, "lat": 38.887205333333334, "is_disabled": 0, "lon": -77.0220515}, {"fusion_lat": 0.0, "type": "electric_scooter", "name": "901f3697185a55e3d9fb73278d5a1934", "fusion_lon": 0.0, "bike_id": "901f3697185a55e3d9fb73278d5a1934", "is_reserved": 0, "rental_uris": {"android": "https://dc.lft.to/lastmile_qr_scan", "ios": "https://dc.lft.to/lastmile_qr_scan"}, "lat": 38.899191333333334, "is_disabled": 0, "lon": -76.93367766666667}, {"fusion_lat": 0.0, "type": "electric_bike", "name": "7bc1888a6b1a020ab7d78a09f3242697", "fusion_lon": 0.0, "bike_id": "7bc1888a6b1a020ab7d78a09f3242697", "is_reserved": 0, "rental_uris": {"android": "https://dc.lft.to/lastmile_qr_scan", "ios": "https://dc.lft.to/lastmile_qr_scan"}, "lat": 38.94665583333333, "is_disabled": 0, "lon": -76.98310966666666}, {"fusion_lat": 0.0, "type": "electric_scooter", "name": "70c00699c64fa0e0e3c1df9b7e7d0523", "fusion_lon": 0.0, "bike_id": "70c00699c64fa0e0e3c1df9b7e7d0523", "is_reserved": 0, "rental_uris": {"android": "https://dc.lft.to/lastmile_qr_scan", "ios": "https://dc.lft.to/lastmile_qr_scan"}, "lat": 38.9022975, "is_disabled": 0, "lon": -77.0434395}, {"fusion_lat": 0.0, "type": "electric_scooter", "name": "641e3694768cae3c9d280c754ab107c2", "fusion_lon": 0.0, "bike_id": "641e3694768cae3c9d280c754ab107c2", "is_reserved": 0, "rental_uris": {"android": "https://dc.lft.to/lastmile_qr_scan", "ios": "https://dc.lft.to/lastmile_qr_scan"}, "lat": 38.89368133333333, "is_disabled": 0, "lon": -76.94989216666667}, {"fusion_lat": 0.0, "type": "electric_scooter", "name": "36dc9c49b49acf5fced882d39015c5e5", "fusion_lon": 0.0, "bike_id": "36dc9c49b49acf5fced882d39015c5e5", "is_reserved": 0, "rental_uris": {"android": "https://dc.lft.to/lastmile_qr_scan", "ios": "https://dc.lft.to/lastmile_qr_scan"}, "lat": 38.887677333333336, "is_disabled": 0, "lon": -76.986825}, {"fusion_lat": 0.0, "type": "electric_scooter", "name": "1fa74fad77e628d93bc19882853c62ac", "fusion_lon": 0.0, "bike_id": "1fa74fad77e628d93bc19882853c62ac", "is_reserved": 0, "rental_uris": {"android": "https://dc.lft.to/lastmile_qr_scan", "ios": "https://dc.lft.to/lastmile_qr_scan"}, "lat": 38.918887166666664, "is_disabled": 0, "lon": -77.029794}, {"fusion_lat": 0.0, "type": "electric_scooter", "name": "255bafc6a21bdf5189e4fab00d02ad99", "fusion_lon": 0.0, "bike_id": "255bafc6a21bdf5189e4fab00d02ad99", "is_reserved": 0, "rental_uris": {"android": "https://dc.lft.to/lastmile_qr_scan", "ios": "https://dc.lft.to/lastmile_qr_scan"}, "lat": 38.94508416666667, "is_disabled": 0, "lon": -77.07453183333334}, {"fusion_lat": 0.0, "type": "electric_scooter", "name": "c42b4cfcc969327d04e6fbde199f7ae0", "fusion_lon": 0.0, "bike_id": "c42b4cfcc969327d04e6fbde199f7ae0", "is_reserved": 0, "rental_uris": {"android": "https://dc.lft.to/lastmile_qr_scan", "ios": "https://dc.lft.to/lastmile_qr_scan"}, "lat": 38.843151, "is_disabled": 0, "lon": -76.99932983333333}, {"fusion_lat": 0.0, "type": "electric_scooter", "name": "8363354f21e80260de87544381dbad3b", "fusion_lon": 0.0, "bike_id": "8363354f21e80260de87544381dbad3b", "is_reserved": 0, "rental_uris": {"android": "https://dc.lft.to/lastmile_qr_scan", "ios": "https://dc.lft.to/lastmile_qr_scan"}, "lat": 38.90592616666667, "is_disabled": 0, "lon": -77.02190783333333}, {"fusion_lat": 0.0, "type": "electric_bike", "name": "634b23bf324ccc0b475759efc65144ea", "fusion_lon": 0.0, "bike_id": "634b23bf324ccc0b475759efc65144ea", "is_reserved": 0, "rental_uris": {"android": "https://dc.lft.to/lastmile_qr_scan", "ios": "https://dc.lft.to/lastmile_qr_scan"}, "lat": 39.05633566666667, "is_disabled": 0, "lon": -77.1252895}, {"fusion_lat": 0.0, "type": "electric_scooter", "name": "4eff7db28d541f0e4e82419627101424", "fusion_lon": 0.0, "bike_id": "4eff7db28d541f0e4e82419627101424", "is_reserved": 0, "rental_uris": {"android": "https://dc.lft.to/lastmile_qr_scan", "ios": "https://dc.lft.to/lastmile_qr_scan"}, "lat": 38.905006, "is_disabled": 0, "lon": -77.0385445}, {"fusion_lat": 0.0, "type": "electric_scooter", "name": "15632e5d5c99d340f2bec5a24358165a", "fusion_lon": 0.0, "bike_id": "15632e5d5c99d340f2bec5a24358165a", "is_reserved": 0, "rental_uris": {"android": "https://dc.lft.to/lastmile_qr_scan", "ios": "https://dc.lft.to/lastmile_qr_scan"}, "lat": 38.922183833333335, "is_disabled": 0, "lon": -77.02211183333333}, {"fusion_lat": 0.0, "type": "electric_scooter", "name": "5db505e8af492b07f6fbd69f3beea3e3", "fusion_lon": 0.0, "bike_id": "5db505e8af492b07f6fbd69f3beea3e3", "is_reserved": 0, "rental_uris": {"android": "https://dc.lft.to/lastmile_qr_scan", "ios": "https://dc.lft.to/lastmile_qr_scan"}, "lat": 38.8950375, "is_disabled": 0, "lon": -76.93476816666667}, {"fusion_lat": 0.0, "type": "electric_scooter", "name": "22ec86b369b3a0efc510c721ab61f74a", "fusion_lon": 0.0, "bike_id": "22ec86b369b3a0efc510c721ab61f74a", "is_reserved": 0, "rental_uris": {"android": "https://dc.lft.to/lastmile_qr_scan", "ios": "https://dc.lft.to/lastmile_qr_scan"}, "lat": 38.8924525, "is_disabled": 0, "lon": -77.01727233333334}, {"fusion_lat": 0.0, "type": "electric_scooter", "name": "6750fff74ab511e80ec23f8d920db00a", "fusion_lon": 0.0, "bike_id": "6750fff74ab511e80ec23f8d920db00a", "is_reserved": 0, "rental_uris": {"android": "https://dc.lft.to/lastmile_qr_scan", "ios": "https://dc.lft.to/lastmile_qr_scan"}, "lat": 38.901100666666665, "is_disabled": 0, "lon": -77.04990133333334}, {"fusion_lat": 0.0, "type": "electric_scooter", "name": "4b1fbeff0170369cbe2a96a04cf1ba59", "fusion_lon": 0.0, "bike_id": "4b1fbeff0170369cbe2a96a04cf1ba59", "is_reserved": 0, "rental_uris": {"android": "https://dc.lft.to/lastmile_qr_scan", "ios": "https://dc.lft.to/lastmile_qr_scan"}, "lat": 38.89219283333333, "is_disabled": 0, "lon": -77.0450025}, {"fusion_lat": 0.0, "type": "electric_scooter", "name": "31eece87dbc733d32b2606b1744b47bf", "fusion_lon": 0.0, "bike_id": "31eece87dbc733d32b2606b1744b47bf", "is_reserved": 0, "rental_uris": {"android": "https://dc.lft.to/lastmile_qr_scan", "ios": "https://dc.lft.to/lastmile_qr_scan"}, "lat": 38.917720833333334, "is_disabled": 0, "lon": -77.02318933333333}, {"fusion_lat": 0.0, "type": "electric_scooter", "name": "07aca119c0ea05d29678c2c349cbd7cb", "fusion_lon": 0.0, "bike_id": "07aca119c0ea05d29678c2c349cbd7cb", "is_reserved": 0, "rental_uris": {"android": "https://dc.lft.to/lastmile_qr_scan", "ios": "https://dc.lft.to/lastmile_qr_scan"}, "lat": 38.90662866666667, "is_disabled": 0, "lon": -77.04177216666666}, {"fusion_lat": 0.0, "type": "electric_scooter", "name": "18978c99c19000cff6335718957e66ad", "fusion_lon": 0.0, "bike_id": "18978c99c19000cff6335718957e66ad", "is_reserved": 0, "rental_uris": {"android": "https://dc.lft.to/lastmile_qr_scan", "ios": "https://dc.lft.to/lastmile_qr_scan"}, "lat": 38.8728165, "is_disabled": 0, "lon": -76.97736916666666}, {"fusion_lat": 0.0, "type": "electric_scooter", "name": "43d3586c76b176af8a057cfcabfdda85", "fusion_lon": 0.0, "bike_id": "43d3586c76b176af8a057cfcabfdda85", "is_reserved": 0, "rental_uris": {"android": "https://dc.lft.to/lastmile_qr_scan", "ios": "https://dc.lft.to/lastmile_qr_scan"}, "lat": 38.887698, "is_disabled": 0, "lon": -77.01774533333334}, {"fusion_lat": 0.0, "type": "electric_scooter", "name": "84439955cbc42355298f0dd0a0e47e62", "fusion_lon": 0.0, "bike_id": "84439955cbc42355298f0dd0a0e47e62", "is_reserved": 0, "rental_uris": {"android": "https://dc.lft.to/lastmile_qr_scan", "ios": "https://dc.lft.to/lastmile_qr_scan"}, "lat": 38.908623666666664, "is_disabled": 0, "lon": -77.04877383333333}, {"fusion_lat": 0.0, "type": "electric_scooter", "name": "0516d3c521088177251e77935c5cbaa4", "fusion_lon": 0.0, "bike_id": "0516d3c521088177251e77935c5cbaa4", "is_reserved": 0, "rental_uris": {"android": "https://dc.lft.to/lastmile_qr_scan", "ios": "https://dc.lft.to/lastmile_qr_scan"}, "lat": 38.89221033333333, "is_disabled": 0, "lon": -77.03334783333334}, {"fusion_lat": 0.0, "type": "electric_scooter", "name": "1e93ffdc5781bfa501604797ffaba452", "fusion_lon": 0.0, "bike_id": "1e93ffdc5781bfa501604797ffaba452", "is_reserved": 0, "rental_uris": {"android": "https://dc.lft.to/lastmile_qr_scan", "ios": "https://dc.lft.to/lastmile_qr_scan"}, "lat": 38.922539666666665, "is_disabled": 0, "lon": -77.07034933333334}, {"fusion_lat": 0.0, "type": "electric_scooter", "name": "a8773503981b2bbeb78952cc80c19ef3", "fusion_lon": 0.0, "bike_id": "a8773503981b2bbeb78952cc80c19ef3", "is_reserved": 0, "rental_uris": {"android": "https://dc.lft.to/lastmile_qr_scan", "ios": "https://dc.lft.to/lastmile_qr_scan"}, "lat": 38.918154, "is_disabled": 0, "lon": -77.03154}, {"fusion_lat": 0.0, "type": "electric_bike", "name": "c930a60b9d005c7212dcd88cb494aa55", "fusion_lon": 0.0, "bike_id": "c930a60b9d005c7212dcd88cb494aa55", "is_reserved": 0, "rental_uris": {"android": "https://dc.lft.to/lastmile_qr_scan", "ios": "https://dc.lft.to/lastmile_qr_scan"}, "lat": 38.81910966666667, "is_disabled": 0, "lon": -76.99910783333333}, {"fusion_lat": 0.0, "type": "electric_scooter", "name": "734f621ea71d52ed2f87e80f3b7da0c7", "fusion_lon": 0.0, "bike_id": "734f621ea71d52ed2f87e80f3b7da0c7", "is_reserved": 0, "rental_uris": {"android": "https://dc.lft.to/lastmile_qr_scan", "ios": "https://dc.lft.to/lastmile_qr_scan"}, "lat": 38.9212265, "is_disabled": 0, "lon": -77.00337283333333}, {"fusion_lat": 0.0, "type": "electric_scooter", "name": "21510f45e64411185a6659a6ff3acd85", "fusion_lon": 0.0, "bike_id": "21510f45e64411185a6659a6ff3acd85", "is_reserved": 0, "rental_uris": {"android": "https://dc.lft.to/lastmile_qr_scan", "ios": "https://dc.lft.to/lastmile_qr_scan"}, "lat": 38.908407833333335, "is_disabled": 0, "lon": -77.02697}, {"fusion_lat": 0.0, "type": "electric_scooter", "name": "8cf3e5cc7945c4683e17d1f10d9e21b2", "fusion_lon": 0.0, "bike_id": "8cf3e5cc7945c4683e17d1f10d9e21b2", "is_reserved": 0, "rental_uris": {"android": "https://dc.lft.to/lastmile_qr_scan", "ios": "https://dc.lft.to/lastmile_qr_scan"}, "lat": 38.89848166666667, "is_disabled": 0, "lon": -77.02854966666666}, {"fusion_lat": 0.0, "type": "electric_scooter", "name": "c4ddbca0117b19c3b1b0c67b2dfd3843", "fusion_lon": 0.0, "bike_id": "c4ddbca0117b19c3b1b0c67b2dfd3843", "is_reserved": 0, "rental_uris": {"android": "https://dc.lft.to/lastmile_qr_scan", "ios": "https://dc.lft.to/lastmile_qr_scan"}, "lat": 38.892249, "is_disabled": 0, "lon": -77.0320105}, {"fusion_lat": 0.0, "type": "electric_scooter", "name": "4c34c8cecd6cf76b18a292dab57496eb", "fusion_lon": 0.0, "bike_id": "4c34c8cecd6cf76b18a292dab57496eb", "is_reserved": 0, "rental_uris": {"android": "https://dc.lft.to/lastmile_qr_scan", "ios": "https://dc.lft.to/lastmile_qr_scan"}, "lat": 38.914124, "is_disabled": 0, "lon": -77.02214733333334}, {"fusion_lat": 0.0, "type": "electric_scooter", "name": "08e357a7d6156d8b88f2a50df968c1d9", "fusion_lon": 0.0, "bike_id": "08e357a7d6156d8b88f2a50df968c1d9", "is_reserved": 0, "rental_uris": {"android": "https://dc.lft.to/lastmile_qr_scan", "ios": "https://dc.lft.to/lastmile_qr_scan"}, "lat": 38.87010133333333, "is_disabled": 0, "lon": -76.98084983333334}, {"fusion_lat": 0.0, "type": "electric_scooter", "name": "1fa77a690c4a54d35776f85248b9aec1", "fusion_lon": 0.0, "bike_id": "1fa77a690c4a54d35776f85248b9aec1", "is_reserved": 0, "rental_uris": {"android": "https://dc.lft.to/lastmile_qr_scan", "ios": "https://dc.lft.to/lastmile_qr_scan"}, "lat": 38.8971795, "is_disabled": 0, "lon": -77.04346566666666}, {"fusion_lat": 0.0, "type": "electric_scooter", "name": "2bdbde8d08c20532d4e84f693a9234a0", "fusion_lon": 0.0, "bike_id": "2bdbde8d08c20532d4e84f693a9234a0", "is_reserved": 0, "rental_uris": {"android": "https://dc.lft.to/lastmile_qr_scan", "ios": "https://dc.lft.to/lastmile_qr_scan"}, "lat": 38.879317666666665, "is_disabled": 0, "lon": -77.00514733333333}, {"fusion_lat": 0.0, "type": "electric_scooter", "name": "738a3dace1e39058e902dcc5578f9b83", "fusion_lon": 0.0, "bike_id": "738a3dace1e39058e902dcc5578f9b83", "is_reserved": 0, "rental_uris": {"android": "https://dc.lft.to/lastmile_qr_scan", "ios": "https://dc.lft.to/lastmile_qr_scan"}, "lat": 38.91980133333333, "is_disabled": 0, "lon": -77.04152433333333}, {"fusion_lat": 0.0, "type": "electric_scooter", "name": "29529c794a28c82f7818818ec3f874a6", "fusion_lon": 0.0, "bike_id": "29529c794a28c82f7818818ec3f874a6", "is_reserved": 0, "rental_uris": {"android": "https://dc.lft.to/lastmile_qr_scan", "ios": "https://dc.lft.to/lastmile_qr_scan"}, "lat": 38.8923705, "is_disabled": 0, "lon": -77.03219816666666}, {"fusion_lat": 0.0, "type": "electric_scooter", "name": "c901bae5574c6782744e70819b89f04f", "fusion_lon": 0.0, "bike_id": "c901bae5574c6782744e70819b89f04f", "is_reserved": 0, "rental_uris": {"android": "https://dc.lft.to/lastmile_qr_scan", "ios": "https://dc.lft.to/lastmile_qr_scan"}, "lat": 38.907607, "is_disabled": 0, "lon": -77.03748666666667}, {"fusion_lat": 0.0, "type": "electric_scooter", "name": "b332cea79cf794203dbb8c9aa0851d57", "fusion_lon": 0.0, "bike_id": "b332cea79cf794203dbb8c9aa0851d57", "is_reserved": 0, "rental_uris": {"android": "https://dc.lft.to/lastmile_qr_scan", "ios": "https://dc.lft.to/lastmile_qr_scan"}, "lat": 38.984572166666666, "is_disabled": 0, "lon": -77.02687083333333}, {"fusion_lat": 0.0, "type": "electric_scooter", "name": "074b12546ef900578fb9b27576c1e8bb", "fusion_lon": 0.0, "bike_id": "074b12546ef900578fb9b27576c1e8bb", "is_reserved": 0, "rental_uris": {"android": "https://dc.lft.to/lastmile_qr_scan", "ios": "https://dc.lft.to/lastmile_qr_scan"}, "lat": 38.897015833333334, "is_disabled": 0, "lon": -77.03269166666666}, {"fusion_lat": 0.0, "type": "electric_scooter", "name": "98126a5ad66fb918f3f824dc1d8562f7", "fusion_lon": 0.0, "bike_id": "98126a5ad66fb918f3f824dc1d8562f7", "is_reserved": 0, "rental_uris": {"android": "https://dc.lft.to/lastmile_qr_scan", "ios": "https://dc.lft.to/lastmile_qr_scan"}, "lat": 38.91549766666667, "is_disabled": 0, "lon": -77.0255485}, {"fusion_lat": 0.0, "type": "electric_scooter", "name": "36d1374ec677ec8dede153276f20cf07", "fusion_lon": 0.0, "bike_id": "36d1374ec677ec8dede153276f20cf07", "is_reserved": 0, "rental_uris": {"android": "https://dc.lft.to/lastmile_qr_scan", "ios": "https://dc.lft.to/lastmile_qr_scan"}, "lat": 38.89184066666667, "is_disabled": 0, "lon": -77.0033485}, {"fusion_lat": 0.0, "type": "electric_scooter", "name": "778fa08b837d76e76019898a78da673c", "fusion_lon": 0.0, "bike_id": "778fa08b837d76e76019898a78da673c", "is_reserved": 0, "rental_uris": {"android": "https://dc.lft.to/lastmile_qr_scan", "ios": "https://dc.lft.to/lastmile_qr_scan"}, "lat": 38.8879685, "is_disabled": 0, "lon": -76.93357333333333}, {"fusion_lat": 0.0, "type": "electric_scooter", "name": "e5aca70adfcbf522f93ae03a2bd021c2", "fusion_lon": 0.0, "bike_id": "e5aca70adfcbf522f93ae03a2bd021c2", "is_reserved": 0, "rental_uris": {"android": "https://dc.lft.to/lastmile_qr_scan", "ios": "https://dc.lft.to/lastmile_qr_scan"}, "lat": 38.924329166666666, "is_disabled": 0, "lon": -77.052042}, {"fusion_lat": 0.0, "type": "electric_scooter", "name": "1fcb6619f0b9d02963767974565f1fcd", "fusion_lon": 0.0, "bike_id": "1fcb6619f0b9d02963767974565f1fcd", "is_reserved": 0, "rental_uris": {"android": "https://dc.lft.to/lastmile_qr_scan", "ios": "https://dc.lft.to/lastmile_qr_scan"}, "lat": 38.914706833333334, "is_disabled": 0, "lon": -77.032111}, {"fusion_lat": 0.0, "type": "electric_scooter", "name": "9f236e4f8da68d6ffc22672d45c9de9e", "fusion_lon": 0.0, "bike_id": "9f236e4f8da68d6ffc22672d45c9de9e", "is_reserved": 0, "rental_uris": {"android": "https://dc.lft.to/lastmile_qr_scan", "ios": "https://dc.lft.to/lastmile_qr_scan"}, "lat": 38.835631166666666, "is_disabled": 0, "lon": -76.99495583333334}, {"fusion_lat": 0.0, "type": "electric_scooter", "name": "4b8cb3a69ad22f4139c407d660f0ef6d", "fusion_lon": 0.0, "bike_id": "4b8cb3a69ad22f4139c407d660f0ef6d", "is_reserved": 0, "rental_uris": {"android": "https://dc.lft.to/lastmile_qr_scan", "ios": "https://dc.lft.to/lastmile_qr_scan"}, "lat": 38.8761235, "is_disabled": 0, "lon": -77.0056045}, {"fusion_lat": 0.0, "type": "electric_scooter", "name": "e0d21880c0e33968671b9302af2de35c", "fusion_lon": 0.0, "bike_id": "e0d21880c0e33968671b9302af2de35c", "is_reserved": 0, "rental_uris": {"android": "https://dc.lft.to/lastmile_qr_scan", "ios": "https://dc.lft.to/lastmile_qr_scan"}, "lat": 38.889949333333334, "is_disabled": 0, "lon": -76.93739566666666}, {"fusion_lat": 0.0, "type": "electric_scooter", "name": "8854398139301ec068cd1231b9d3332d", "fusion_lon": 0.0, "bike_id": "8854398139301ec068cd1231b9d3332d", "is_reserved": 0, "rental_uris": {"android": "https://dc.lft.to/lastmile_qr_scan", "ios": "https://dc.lft.to/lastmile_qr_scan"}, "lat": 38.8999155, "is_disabled": 0, "lon": -77.0481975}, {"fusion_lat": 0.0, "type": "electric_scooter", "name": "61f7208fd768c65ca60f74d762ca3de5", "fusion_lon": 0.0, "bike_id": "61f7208fd768c65ca60f74d762ca3de5", "is_reserved": 0, "rental_uris": {"android": "https://dc.lft.to/lastmile_qr_scan", "ios": "https://dc.lft.to/lastmile_qr_scan"}, "lat": 38.89678516666667, "is_disabled": 0, "lon": -77.03164566666666}, {"fusion_lat": 0.0, "type": "electric_scooter", "name": "97f2eac66bbc26f308a148c29ef2f586", "fusion_lon": 0.0, "bike_id": "97f2eac66bbc26f308a148c29ef2f586", "is_reserved": 0, "rental_uris": {"android": "https://dc.lft.to/lastmile_qr_scan", "ios": "https://dc.lft.to/lastmile_qr_scan"}, "lat": 38.9053755, "is_disabled": 0, "lon": -77.04568116666667}, {"fusion_lat": 0.0, "type": "electric_scooter", "name": "fe0f62d17c8ef82d049c1143c839f4c9", "fusion_lon": 0.0, "bike_id": "fe0f62d17c8ef82d049c1143c839f4c9", "is_reserved": 0, "rental_uris": {"android": "https://dc.lft.to/lastmile_qr_scan", "ios": "https://dc.lft.to/lastmile_qr_scan"}, "lat": 38.906741833333335, "is_disabled": 0, "lon": -77.0348555}, {"fusion_lat": 0.0, "type": "electric_scooter", "name": "a0665c15b7dfcd4096ede779a72d5200", "fusion_lon": 0.0, "bike_id": "a0665c15b7dfcd4096ede779a72d5200", "is_reserved": 0, "rental_uris": {"android": "https://dc.lft.to/lastmile_qr_scan", "ios": "https://dc.lft.to/lastmile_qr_scan"}, "lat": 38.9002745, "is_disabled": 0, "lon": -76.9884885}, {"fusion_lat": 0.0, "type": "electric_scooter", "name": "4f9e86bba89d86f5b8e173b7d0212aa9", "fusion_lon": 0.0, "bike_id": "4f9e86bba89d86f5b8e173b7d0212aa9", "is_reserved": 0, "rental_uris": {"android": "https://dc.lft.to/lastmile_qr_scan", "ios": "https://dc.lft.to/lastmile_qr_scan"}, "lat": 38.909696333333336, "is_disabled": 0, "lon": -77.0336965}, {"fusion_lat": 0.0, "type": "electric_scooter", "name": "ce16cf7395e7512f4ad5ffcb9449f711", "fusion_lon": 0.0, "bike_id": "ce16cf7395e7512f4ad5ffcb9449f711", "is_reserved": 0, "rental_uris": {"android": "https://dc.lft.to/lastmile_qr_scan", "ios": "https://dc.lft.to/lastmile_qr_scan"}, "lat": 38.919764666666666, "is_disabled": 0, "lon": -77.02184483333333}, {"fusion_lat": 0.0, "type": "electric_scooter", "name": "118302a3e3828b80bafaaa7a57686a47", "fusion_lon": 0.0, "bike_id": "118302a3e3828b80bafaaa7a57686a47", "is_reserved": 0, "rental_uris": {"android": "https://dc.lft.to/lastmile_qr_scan", "ios": "https://dc.lft.to/lastmile_qr_scan"}, "lat": 38.887299666666664, "is_disabled": 0, "lon": -77.02830516666667}, {"fusion_lat": 0.0, "type": "electric_scooter", "name": "ccc3b134caeebda80f6f678a38212acf", "fusion_lon": 0.0, "bike_id": "ccc3b134caeebda80f6f678a38212acf", "is_reserved": 0, "rental_uris": {"android": "https://dc.lft.to/lastmile_qr_scan", "ios": "https://dc.lft.to/lastmile_qr_scan"}, "lat": 38.91173966666667, "is_disabled": 0, "lon": -77.06092516666666}, {"fusion_lat": 0.0, "type": "electric_scooter", "name": "dae34c55908cf730b74adbfe196a2907", "fusion_lon": 0.0, "bike_id": "dae34c55908cf730b74adbfe196a2907", "is_reserved": 0, "rental_uris": {"android": "https://dc.lft.to/lastmile_qr_scan", "ios": "https://dc.lft.to/lastmile_qr_scan"}, "lat": 38.904936166666666, "is_disabled": 0, "lon": -77.0303665}, {"fusion_lat": 0.0, "type": "electric_scooter", "name": "46cf4863cd0b185914f9280b8695ce93", "fusion_lon": 0.0, "bike_id": "46cf4863cd0b185914f9280b8695ce93", "is_reserved": 0, "rental_uris": {"android": "https://dc.lft.to/lastmile_qr_scan", "ios": "https://dc.lft.to/lastmile_qr_scan"}, "lat": 38.9205965, "is_disabled": 0, "lon": -77.02513366666666}, {"fusion_lat": 0.0, "type": "electric_scooter", "name": "afc0676a485a1e12887f09afec233212", "fusion_lon": 0.0, "bike_id": "afc0676a485a1e12887f09afec233212", "is_reserved": 0, "rental_uris": {"android": "https://dc.lft.to/lastmile_qr_scan", "ios": "https://dc.lft.to/lastmile_qr_scan"}, "lat": 38.873146166666665, "is_disabled": 0, "lon": -77.00584916666666}, {"fusion_lat": 0.0, "type": "electric_scooter", "name": "f2204bebbf34a9d19c52fab37a4d79e0", "fusion_lon": 0.0, "bike_id": "f2204bebbf34a9d19c52fab37a4d79e0", "is_reserved": 0, "rental_uris": {"android": "https://dc.lft.to/lastmile_qr_scan", "ios": "https://dc.lft.to/lastmile_qr_scan"}, "lat": 38.862640166666665, "is_disabled": 0, "lon": -76.994694}, {"fusion_lat": 0.0, "type": "electric_scooter", "name": "3ba267e4784ff2928e4f1e464dd8cfbc", "fusion_lon": 0.0, "bike_id": "3ba267e4784ff2928e4f1e464dd8cfbc", "is_reserved": 0, "rental_uris": {"android": "https://dc.lft.to/lastmile_qr_scan", "ios": "https://dc.lft.to/lastmile_qr_scan"}, "lat": 38.888105833333334, "is_disabled": 0, "lon": -76.93346266666667}, {"fusion_lat": 0.0, "type": "electric_scooter", "name": "c368490ccb0402b659d09df6eb3bc788", "fusion_lon": 0.0, "bike_id": "c368490ccb0402b659d09df6eb3bc788", "is_reserved": 0, "rental_uris": {"android": "https://dc.lft.to/lastmile_qr_scan", "ios": "https://dc.lft.to/lastmile_qr_scan"}, "lat": 38.89330116666667, "is_disabled": 0, "lon": -77.01207633333334}, {"fusion_lat": 0.0, "type": "electric_scooter", "name": "fdc3ab21b18214d7dce38d28af8e4578", "fusion_lon": 0.0, "bike_id": "fdc3ab21b18214d7dce38d28af8e4578", "is_reserved": 0, "rental_uris": {"android": "https://dc.lft.to/lastmile_qr_scan", "ios": "https://dc.lft.to/lastmile_qr_scan"}, "lat": 38.892282, "is_disabled": 0, "lon": -77.032014}, {"fusion_lat": 0.0, "type": "electric_scooter", "name": "eb7cb5ea623696cdd16c4ca0994403f4", "fusion_lon": 0.0, "bike_id": "eb7cb5ea623696cdd16c4ca0994403f4", "is_reserved": 0, "rental_uris": {"android": "https://dc.lft.to/lastmile_qr_scan", "ios": "https://dc.lft.to/lastmile_qr_scan"}, "lat": 38.90262883333333, "is_disabled": 0, "lon": -77.02829616666666}, {"fusion_lat": 0.0, "type": "electric_scooter", "name": "ed456f4095e773a5ff72b1d7ac837097", "fusion_lon": 0.0, "bike_id": "ed456f4095e773a5ff72b1d7ac837097", "is_reserved": 0, "rental_uris": {"android": "https://dc.lft.to/lastmile_qr_scan", "ios": "https://dc.lft.to/lastmile_qr_scan"}, "lat": 38.91295933333333, "is_disabled": 0, "lon": -77.04549766666666}, {"fusion_lat": 0.0, "type": "electric_scooter", "name": "314b2e989ac4955d711f213b965bbd98", "fusion_lon": 0.0, "bike_id": "314b2e989ac4955d711f213b965bbd98", "is_reserved": 0, "rental_uris": {"android": "https://dc.lft.to/lastmile_qr_scan", "ios": "https://dc.lft.to/lastmile_qr_scan"}, "lat": 38.9027045, "is_disabled": 0, "lon": -77.03447533333333}, {"fusion_lat": 0.0, "type": "electric_bike", "name": "4974934d29c26c77c6d41d455cae6aee", "fusion_lon": 0.0, "bike_id": "4974934d29c26c77c6d41d455cae6aee", "is_reserved": 0, "rental_uris": {"android": "https://dc.lft.to/lastmile_qr_scan", "ios": "https://dc.lft.to/lastmile_qr_scan"}, "lat": 38.88862016666667, "is_disabled": 0, "lon": -77.08160683333334}, {"fusion_lat": 0.0, "type": "electric_scooter", "name": "7fa440a85f45167c5c388c553fc0ff06", "fusion_lon": 0.0, "bike_id": "7fa440a85f45167c5c388c553fc0ff06", "is_reserved": 0, "rental_uris": {"android": "https://dc.lft.to/lastmile_qr_scan", "ios": "https://dc.lft.to/lastmile_qr_scan"}, "lat": 38.93357, "is_disabled": 0, "lon": -77.05739816666667}, {"fusion_lat": 0.0, "type": "electric_scooter", "name": "6a553f179bc39a3940b99c5c1c3edf4c", "fusion_lon": 0.0, "bike_id": "6a553f179bc39a3940b99c5c1c3edf4c", "is_reserved": 0, "rental_uris": {"android": "https://dc.lft.to/lastmile_qr_scan", "ios": "https://dc.lft.to/lastmile_qr_scan"}, "lat": 38.90208666666667, "is_disabled": 0, "lon": -77.0481005}, {"fusion_lat": 0.0, "type": "electric_scooter", "name": "d4114a46c10226176b79ecbd76fc5e7a", "fusion_lon": 0.0, "bike_id": "d4114a46c10226176b79ecbd76fc5e7a", "is_reserved": 0, "rental_uris": {"android": "https://dc.lft.to/lastmile_qr_scan", "ios": "https://dc.lft.to/lastmile_qr_scan"}, "lat": 38.91412116666667, "is_disabled": 0, "lon": -77.02213633333334}, {"fusion_lat": 0.0, "type": "electric_scooter", "name": "38fca6bb9e7101274683a06deba92910", "fusion_lon": 0.0, "bike_id": "38fca6bb9e7101274683a06deba92910", "is_reserved": 0, "rental_uris": {"android": "https://dc.lft.to/lastmile_qr_scan", "ios": "https://dc.lft.to/lastmile_qr_scan"}, "lat": 38.877147, "is_disabled": 0, "lon": -77.004141}, {"fusion_lat": 0.0, "type": "electric_scooter", "name": "b56fc4882b695e4cd80a702269b36154", "fusion_lon": 0.0, "bike_id": "b56fc4882b695e4cd80a702269b36154", "is_reserved": 0, "rental_uris": {"android": "https://dc.lft.to/lastmile_qr_scan", "ios": "https://dc.lft.to/lastmile_qr_scan"}, "lat": 38.899635333333336, "is_disabled": 0, "lon": -77.04573283333333}, {"fusion_lat": 0.0, "type": "electric_scooter", "name": "ba491bbd2c6f2b2a8de938199fc1f6b3", "fusion_lon": 0.0, "bike_id": "ba491bbd2c6f2b2a8de938199fc1f6b3", "is_reserved": 0, "rental_uris": {"android": "https://dc.lft.to/lastmile_qr_scan", "ios": "https://dc.lft.to/lastmile_qr_scan"}, "lat": 38.885579166666666, "is_disabled": 0, "lon": -76.99798083333333}, {"fusion_lat": 0.0, "type": "electric_scooter", "name": "6c5b49c37643ec563f2f7c06aad5b8c7", "fusion_lon": 0.0, "bike_id": "6c5b49c37643ec563f2f7c06aad5b8c7", "is_reserved": 0, "rental_uris": {"android": "https://dc.lft.to/lastmile_qr_scan", "ios": "https://dc.lft.to/lastmile_qr_scan"}, "lat": 38.90783233333333, "is_disabled": 0, "lon": -77.03859183333333}, {"fusion_lat": 0.0, "type": "electric_scooter", "name": "3512fe574fbeda5d3447cbe5ea1d1ba2", "fusion_lon": 0.0, "bike_id": "3512fe574fbeda5d3447cbe5ea1d1ba2", "is_reserved": 0, "rental_uris": {"android": "https://dc.lft.to/lastmile_qr_scan", "ios": "https://dc.lft.to/lastmile_qr_scan"}, "lat": 38.927670166666665, "is_disabled": 0, "lon": -77.02795583333334}, {"fusion_lat": 0.0, "type": "electric_scooter", "name": "6b0d1b64805c31184bf34d02c9744577", "fusion_lon": 0.0, "bike_id": "6b0d1b64805c31184bf34d02c9744577", "is_reserved": 0, "rental_uris": {"android": "https://dc.lft.to/lastmile_qr_scan", "ios": "https://dc.lft.to/lastmile_qr_scan"}, "lat": 38.953452166666665, "is_disabled": 0, "lon": -76.99981783333334}, {"fusion_lat": 0.0, "type": "electric_bike", "name": "e5c6c832f48c5efc9cba6d8934ba2d6a", "fusion_lon": 0.0, "bike_id": "e5c6c832f48c5efc9cba6d8934ba2d6a", "is_reserved": 0, "rental_uris": {"android": "https://dc.lft.to/lastmile_qr_scan", "ios": "https://dc.lft.to/lastmile_qr_scan"}, "lat": 38.88042766666667, "is_disabled": 0, "lon": -77.01129066666667}, {"fusion_lat": 0.0, "type": "electric_scooter", "name": "e9460497a64a2ff970562e5731097dbe", "fusion_lon": 0.0, "bike_id": "e9460497a64a2ff970562e5731097dbe", "is_reserved": 0, "rental_uris": {"android": "https://dc.lft.to/lastmile_qr_scan", "ios": "https://dc.lft.to/lastmile_qr_scan"}, "lat": 38.8673405, "is_disabled": 0, "lon": -76.98781716666667}, {"fusion_lat": 0.0, "type": "electric_scooter", "name": "c9ee7d8075fc27608e2c3a6aff371ed2", "fusion_lon": 0.0, "bike_id": "c9ee7d8075fc27608e2c3a6aff371ed2", "is_reserved": 0, "rental_uris": {"android": "https://dc.lft.to/lastmile_qr_scan", "ios": "https://dc.lft.to/lastmile_qr_scan"}, "lat": 38.887407833333334, "is_disabled": 0, "lon": -77.0335875}, {"fusion_lat": 0.0, "type": "electric_scooter", "name": "5a9325e9770aca97e41a1373d8314de2", "fusion_lon": 0.0, "bike_id": "5a9325e9770aca97e41a1373d8314de2", "is_reserved": 0, "rental_uris": {"android": "https://dc.lft.to/lastmile_qr_scan", "ios": "https://dc.lft.to/lastmile_qr_scan"}, "lat": 38.823815333333336, "is_disabled": 0, "lon": -77.01185716666667}, {"fusion_lat": 0.0, "type": "electric_scooter", "name": "d7351af00f3ec7315470ad404667142d", "fusion_lon": 0.0, "bike_id": "d7351af00f3ec7315470ad404667142d", "is_reserved": 0, "rental_uris": {"android": "https://dc.lft.to/lastmile_qr_scan", "ios": "https://dc.lft.to/lastmile_qr_scan"}, "lat": 38.909027, "is_disabled": 0, "lon": -77.0725865}, {"fusion_lat": 0.0, "type": "electric_scooter", "name": "6ac701f96969fa942f7d13cc09f6791f", "fusion_lon": 0.0, "bike_id": "6ac701f96969fa942f7d13cc09f6791f", "is_reserved": 0, "rental_uris": {"android": "https://dc.lft.to/lastmile_qr_scan", "ios": "https://dc.lft.to/lastmile_qr_scan"}, "lat": 38.904650833333335, "is_disabled": 0, "lon": -77.03906916666666}, {"fusion_lat": 0.0, "type": "electric_scooter", "name": "22f303f816e77a2c4e765448bf624635", "fusion_lon": 0.0, "bike_id": "22f303f816e77a2c4e765448bf624635", "is_reserved": 0, "rental_uris": {"android": "https://dc.lft.to/lastmile_qr_scan", "ios": "https://dc.lft.to/lastmile_qr_scan"}, "lat": 38.867000833333336, "is_disabled": 0, "lon": -76.98711633333333}, {"fusion_lat": 0.0, "type": "electric_scooter", "name": "99438749b9eca4c69131eba6cb2240d3", "fusion_lon": 0.0, "bike_id": "99438749b9eca4c69131eba6cb2240d3", "is_reserved": 0, "rental_uris": {"android": "https://dc.lft.to/lastmile_qr_scan", "ios": "https://dc.lft.to/lastmile_qr_scan"}, "lat": 38.90543433333333, "is_disabled": 0, "lon": -77.050529}, {"fusion_lat": 0.0, "type": "electric_scooter", "name": "58df35b1212b369869b2a52a12712a83", "fusion_lon": 0.0, "bike_id": "58df35b1212b369869b2a52a12712a83", "is_reserved": 0, "rental_uris": {"android": "https://dc.lft.to/lastmile_qr_scan", "ios": "https://dc.lft.to/lastmile_qr_scan"}, "lat": 38.899597, "is_disabled": 0, "lon": -77.0557815}, {"fusion_lat": 0.0, "type": "electric_scooter", "name": "6705cbecf43703c1410cb9a6734d3315", "fusion_lon": 0.0, "bike_id": "6705cbecf43703c1410cb9a6734d3315", "is_reserved": 0, "rental_uris": {"android": "https://dc.lft.to/lastmile_qr_scan", "ios": "https://dc.lft.to/lastmile_qr_scan"}, "lat": 38.902596, "is_disabled": 0, "lon": -77.02824216666667}, {"fusion_lat": 0.0, "type": "electric_scooter", "name": "2b54f53a6ced5abfacac6a50e07da237", "fusion_lon": 0.0, "bike_id": "2b54f53a6ced5abfacac6a50e07da237", "is_reserved": 0, "rental_uris": {"android": "https://dc.lft.to/lastmile_qr_scan", "ios": "https://dc.lft.to/lastmile_qr_scan"}, "lat": 38.937371166666665, "is_disabled": 0, "lon": -77.03349933333334}, {"fusion_lat": 0.0, "type": "electric_scooter", "name": "cbbc6ce4a5862e416492268cdaa20daa", "fusion_lon": 0.0, "bike_id": "cbbc6ce4a5862e416492268cdaa20daa", "is_reserved": 0, "rental_uris": {"android": "https://dc.lft.to/lastmile_qr_scan", "ios": "https://dc.lft.to/lastmile_qr_scan"}, "lat": 38.871840166666665, "is_disabled": 0, "lon": -77.00606216666667}, {"fusion_lat": 0.0, "type": "electric_scooter", "name": "552e9de71d7215075a2daa83fcedcca7", "fusion_lon": 0.0, "bike_id": "552e9de71d7215075a2daa83fcedcca7", "is_reserved": 0, "rental_uris": {"android": "https://dc.lft.to/lastmile_qr_scan", "ios": "https://dc.lft.to/lastmile_qr_scan"}, "lat": 38.924315, "is_disabled": 0, "lon": -77.05207066666667}, {"fusion_lat": 0.0, "type": "electric_scooter", "name": "d643b0fb0f0e727dbc6fe798c79e07de", "fusion_lon": 0.0, "bike_id": "d643b0fb0f0e727dbc6fe798c79e07de", "is_reserved": 0, "rental_uris": {"android": "https://dc.lft.to/lastmile_qr_scan", "ios": "https://dc.lft.to/lastmile_qr_scan"}, "lat": 38.9038375, "is_disabled": 0, "lon": -77.03844966666666}, {"fusion_lat": 0.0, "type": "electric_scooter", "name": "295e3a53d93d60d5853aeb2c4ddde454", "fusion_lon": 0.0, "bike_id": "295e3a53d93d60d5853aeb2c4ddde454", "is_reserved": 0, "rental_uris": {"android": "https://dc.lft.to/lastmile_qr_scan", "ios": "https://dc.lft.to/lastmile_qr_scan"}, "lat": 38.89405766666667, "is_disabled": 0, "lon": -77.04420166666667}, {"fusion_lat": 0.0, "type": "electric_scooter", "name": "82bad7ffa086c42d56e3724f8f3845dc", "fusion_lon": 0.0, "bike_id": "82bad7ffa086c42d56e3724f8f3845dc", "is_reserved": 0, "rental_uris": {"android": "https://dc.lft.to/lastmile_qr_scan", "ios": "https://dc.lft.to/lastmile_qr_scan"}, "lat": 38.89943266666667, "is_disabled": 0, "lon": -77.01448483333333}, {"fusion_lat": 0.0, "type": "electric_scooter", "name": "758db112515ce5ebd391091725c211a0", "fusion_lon": 0.0, "bike_id": "758db112515ce5ebd391091725c211a0", "is_reserved": 0, "rental_uris": {"android": "https://dc.lft.to/lastmile_qr_scan", "ios": "https://dc.lft.to/lastmile_qr_scan"}, "lat": 38.88521216666667, "is_disabled": 0, "lon": -76.99627833333334}, {"fusion_lat": 0.0, "type": "electric_scooter", "name": "c577b78c6d865aa955ec76fd59a74a19", "fusion_lon": 0.0, "bike_id": "c577b78c6d865aa955ec76fd59a74a19", "is_reserved": 0, "rental_uris": {"android": "https://dc.lft.to/lastmile_qr_scan", "ios": "https://dc.lft.to/lastmile_qr_scan"}, "lat": 38.92360983333333, "is_disabled": 0, "lon": -77.050513}, {"fusion_lat": 0.0, "type": "electric_scooter", "name": "c71574300415100e34516d8631695a99", "fusion_lon": 0.0, "bike_id": "c71574300415100e34516d8631695a99", "is_reserved": 0, "rental_uris": {"android": "https://dc.lft.to/lastmile_qr_scan", "ios": "https://dc.lft.to/lastmile_qr_scan"}, "lat": 38.8716155, "is_disabled": 0, "lon": -77.013555}, {"fusion_lat": 0.0, "type": "electric_scooter", "name": "01cf3d8fbdb9910f86a4761c2fc43d9a", "fusion_lon": 0.0, "bike_id": "01cf3d8fbdb9910f86a4761c2fc43d9a", "is_reserved": 0, "rental_uris": {"android": "https://dc.lft.to/lastmile_qr_scan", "ios": "https://dc.lft.to/lastmile_qr_scan"}, "lat": 38.9233745, "is_disabled": 0, "lon": -77.021184}, {"fusion_lat": 0.0, "type": "electric_scooter", "name": "a586c6683962be73256c1ba3941a95f5", "fusion_lon": 0.0, "bike_id": "a586c6683962be73256c1ba3941a95f5", "is_reserved": 0, "rental_uris": {"android": "https://dc.lft.to/lastmile_qr_scan", "ios": "https://dc.lft.to/lastmile_qr_scan"}, "lat": 38.915403, "is_disabled": 0, "lon": -77.01979383333334}, {"fusion_lat": 0.0, "type": "electric_scooter", "name": "6255e9056327838ed4bdc0a647b770ed", "fusion_lon": 0.0, "bike_id": "6255e9056327838ed4bdc0a647b770ed", "is_reserved": 0, "rental_uris": {"android": "https://dc.lft.to/lastmile_qr_scan", "ios": "https://dc.lft.to/lastmile_qr_scan"}, "lat": 38.933459166666665, "is_disabled": 0, "lon": -77.04117483333333}, {"fusion_lat": 0.0, "type": "electric_scooter", "name": "03a04f6cac10d2fd0fcd29240b3fd70e", "fusion_lon": 0.0, "bike_id": "03a04f6cac10d2fd0fcd29240b3fd70e", "is_reserved": 0, "rental_uris": {"android": "https://dc.lft.to/lastmile_qr_scan", "ios": "https://dc.lft.to/lastmile_qr_scan"}, "lat": 38.88459666666667, "is_disabled": 0, "lon": -76.92624016666667}, {"fusion_lat": 0.0, "type": "electric_bike", "name": "69445b5ad63172846ff67ab568c10de1", "fusion_lon": 0.0, "bike_id": "69445b5ad63172846ff67ab568c10de1", "is_reserved": 0, "rental_uris": {"android": "https://dc.lft.to/lastmile_qr_scan", "ios": "https://dc.lft.to/lastmile_qr_scan"}, "lat": 38.96221033333333, "is_disabled": 0, "lon": -77.02620833333333}, {"fusion_lat": 0.0, "type": "electric_scooter", "name": "72658ff3fb6df2abe8875d7b821f57d0", "fusion_lon": 0.0, "bike_id": "72658ff3fb6df2abe8875d7b821f57d0", "is_reserved": 0, "rental_uris": {"android": "https://dc.lft.to/lastmile_qr_scan", "ios": "https://dc.lft.to/lastmile_qr_scan"}, "lat": 38.921404333333335, "is_disabled": 0, "lon": -77.02872633333334}, {"fusion_lat": 0.0, "type": "electric_scooter", "name": "c60bed9a21a733ba18a65576e4591975", "fusion_lon": 0.0, "bike_id": "c60bed9a21a733ba18a65576e4591975", "is_reserved": 0, "rental_uris": {"android": "https://dc.lft.to/lastmile_qr_scan", "ios": "https://dc.lft.to/lastmile_qr_scan"}, "lat": 38.89553183333334, "is_disabled": 0, "lon": -76.94873983333333}, {"fusion_lat": 0.0, "type": "electric_bike", "name": "0dff08102beb27d8c50213f4fac29117", "fusion_lon": 0.0, "bike_id": "0dff08102beb27d8c50213f4fac29117", "is_reserved": 0, "rental_uris": {"android": "https://dc.lft.to/lastmile_qr_scan", "ios": "https://dc.lft.to/lastmile_qr_scan"}, "lat": 38.938674666666664, "is_disabled": 0, "lon": -76.94292583333333}, {"fusion_lat": 0.0, "type": "electric_bike", "name": "3033f3cb48435ca2460e5e050bcd9f90", "fusion_lon": 0.0, "bike_id": "3033f3cb48435ca2460e5e050bcd9f90", "is_reserved": 0, "rental_uris": {"android": "https://dc.lft.to/lastmile_qr_scan", "ios": "https://dc.lft.to/lastmile_qr_scan"}, "lat": 38.95955033333333, "is_disabled": 0, "lon": -77.100916}, {"fusion_lat": 0.0, "type": "electric_scooter", "name": "7119e83ed3fce2cff2ecc6c29fcf0744", "fusion_lon": 0.0, "bike_id": "7119e83ed3fce2cff2ecc6c29fcf0744", "is_reserved": 0, "rental_uris": {"android": "https://dc.lft.to/lastmile_qr_scan", "ios": "https://dc.lft.to/lastmile_qr_scan"}, "lat": 38.9360275, "is_disabled": 0, "lon": -77.0380425}, {"fusion_lat": 0.0, "type": "electric_scooter", "name": "4f605e45cb44e68a93667e1228059f3f", "fusion_lon": 0.0, "bike_id": "4f605e45cb44e68a93667e1228059f3f", "is_reserved": 0, "rental_uris": {"android": "https://dc.lft.to/lastmile_qr_scan", "ios": "https://dc.lft.to/lastmile_qr_scan"}, "lat": 38.88738416666666, "is_disabled": 0, "lon": -77.02214183333334}, {"fusion_lat": 0.0, "type": "electric_scooter", "name": "704678e814f72db88ae5773c8d3e7329", "fusion_lon": 0.0, "bike_id": "704678e814f72db88ae5773c8d3e7329", "is_reserved": 0, "rental_uris": {"android": "https://dc.lft.to/lastmile_qr_scan", "ios": "https://dc.lft.to/lastmile_qr_scan"}, "lat": 38.902257166666665, "is_disabled": 0, "lon": -77.03362}, {"fusion_lat": 0.0, "type": "electric_scooter", "name": "afdec5d91a91f9b3370377c1b502bcf1", "fusion_lon": 0.0, "bike_id": "afdec5d91a91f9b3370377c1b502bcf1", "is_reserved": 0, "rental_uris": {"android": "https://dc.lft.to/lastmile_qr_scan", "ios": "https://dc.lft.to/lastmile_qr_scan"}, "lat": 38.8860965, "is_disabled": 0, "lon": -76.9951745},