{"data": {"bikes": [{"fusion_lon": 0.0, "bike_id": "9e48ba9ee144f0a213e92f0fd1f20161", "name": "9e48ba9ee144f0a213e92f0fd1f20161", "rental_uris": {"android": "https://dc.lft.to/lastmile_qr_scan", "ios": "https://dc.lft.to/lastmile_qr_scan"}, "lon": -77.050069, "fusion_lat": 0.0, "is_disabled": 0, "is_reserved": 0, "lat": 38.89930866666667, "type": "electric_scooter"}, {"fusion_lon": 0.0, "bike_id": "bdd0fe87de6eb309be705cd09b0f2a04", "name": "bdd0fe87de6eb309be705cd09b0f2a04", "rental_uris": {"android": "https://dc.lft.to/lastmile_qr_scan", "ios": "https://dc.lft.to/lastmile_qr_scan"}, "lon": -77.042662, "fusion_lat": 0.0, "is_disabled": 0, "is_reserved": 0, "lat": 38.89938633333333, "type": "electric_scooter"}, {"fusion_lon": 0.0, "bike_id": "2dd71b27101cc7e051d3e1d1ad5d06ec", "name": "2dd71b27101cc7e051d3e1d1ad5d06ec", "rental_uris": {"android": "https://dc.lft.to/lastmile_qr_scan", "ios": "https://dc.lft.to/lastmile_qr_scan"}, "lon": -77.0395705, "fusion_lat": 0.0, "is_disabled": 0, "is_reserved": 0, "lat": 38.89306883333333, "type": "electric_scooter"}, {"fusion_lon": 0.0, "bike_id": "efffddaf9ffd07e7d576aac1c057ce8b", "name": "efffddaf9ffd07e7d576aac1c057ce8b", "rental_uris": {"android": "https://dc.lft.to/lastmile_qr_scan", "ios": "https://dc.lft.to/lastmile_qr_scan"}, "lon": -76.96258716666667, "fusion_lat": 0.0, "is_disabled": 0, "is_reserved": 0, "lat": 38.8786545, "type": "electric_scooter"}, {"fusion_lon": 0.0, "bike_id": "854e14f097f71bb5fe1dab21227ac2fd", "name": "854e14f097f71bb5fe1dab21227ac2fd", "rental_uris": {"android": "https://dc.lft.to/lastmile_qr_scan", "ios": "https://dc.lft.to/lastmile_qr_scan"}, "lon": -77.01841933333333, "fusion_lat": 0.0, "is_disabled": 0, "is_reserved": 0, "lat": 38.904279833333334, "type": "electric_scooter"}, {"fusion_lon": 0.0, "bike_id": "9b792bf7d356b546ab771469d5ff9286", "name": "9b792bf7d356b546ab771469d5ff9286", "rental_uris": {"android": "https://dc.lft.to/lastmile_qr_scan", "ios": "https://dc.lft.to/lastmile_qr_scan"}, "lon": -77.04530633333333, "fusion_lat": 0.0, "is_disabled": 0, "is_reserved": 0, "lat": 38.918343166666666, "type": "electric_scooter"}, {"fusion_lon": 0.0, "bike_id": "77c6cf57a59bb95f632f82a03a916752", "name": "77c6cf57a59bb95f632f82a03a916752", "rental_uris": {"android": "https://dc.lft.to/lastmile_qr_scan", "ios": "https://dc.lft.to/lastmile_qr_scan"}, "lon": -76.93755083333333, "fusion_lat": 0.0, "is_disabled": 0, "is_reserved": 0, "lat": 38.890408666666666, "type": "electric_scooter"}, {"fusion_lon": 0.0, "bike_id": "5035493fe8301b8ceab8cee47d8b630c", "name": "5035493fe8301b8ceab8cee47d8b630c", "rental_uris": {"android": "https://dc.lft.to/lastmile_qr_scan", "ios": "https://dc.lft.to/lastmile_qr_scan"}, "lon": -77.0047805, "fusion_lat": 0.0, "is_disabled": 0, "is_reserved": 0, "lat": 38.87488333333334, "type": "electric_scooter"}, {"fusion_lon": 0.0, "bike_id": "d12a303836f4f23dcedba45eb09804e0", "name": "d12a303836f4f23dcedba45eb09804e0", "rental_uris": {"android": "https://dc.lft.to/lastmile_qr_scan", "ios": "https://dc.lft.to/lastmile_qr_scan"}, "lon": -77.02181283333333, "fusion_lat": 0.0, "is_disabled": 0, "is_reserved": 0, "lat": 38.926371, "type": "electric_scooter"}, {"fusion_lon": 0.0, "bike_id": "e220946c249ec2e92837952eb03a91ab", "name": "e220946c249ec2e92837952eb03a91ab", "rental_uris": {"android": "https://dc.lft.to/lastmile_qr_scan", "ios": "https://dc.lft.to/lastmile_qr_scan"}, "lon": -77.028365, "fusion_lat": 0.0, "is_disabled": 0, "is_reserved": 0, "lat": 38.886646999999996, "type": "electric_scooter"}, {"fusion_lon": 0.0, "bike_id": "5941e1e08759c7e72d79f38a66918857", "name": "5941e1e08759c7e72d79f38a66918857", "rental_uris": {"android": "https://dc.lft.to/lastmile_qr_scan", "ios": "https://dc.lft.to/lastmile_qr_scan"}, "lon": -77.02844, "fusion_lat": 0.0, "is_disabled": 0, "is_reserved": 0, "lat": 38.88776566666667, "type": "electric_scooter"}, {"fusion_lon": 0.0, "bike_id": "708f851bab3cf120e6c05fd3302f65f6", "name": "708f851bab3cf120e6c05fd3302f65f6", "rental_uris": {"android": "https://dc.lft.to/lastmile_qr_scan", "ios": "https://dc.lft.to/lastmile_qr_scan"}, "lon": -77.04357066666667, "fusion_lat": 0.0, "is_disabled": 0, "is_reserved": 0, "lat": 38.897578, "type": "electric_scooter"}, {"fusion_lon": 0.0, "bike_id": "a378d1682005a82fab2977b522751ed4", "name": "a378d1682005a82fab2977b522751ed4", "rental_uris": {"android": "https://dc.lft.to/lastmile_qr_scan", "ios": "https://dc.lft.to/lastmile_qr_scan"}, "lon": -77.008416, "fusion_lat": 0.0, "is_disabled": 0, "is_reserved": 0, "lat": 38.914102, "type": "electric_scooter"}, {"fusion_lon": 0.0, "bike_id": "4ccf6f23c9b62a12353c590caa79bfd2", "name": "4ccf6f23c9b62a12353c590caa79bfd2", "rental_uris": {"android": "https://dc.lft.to/lastmile_qr_scan", "ios": "https://dc.lft.to/lastmile_qr_scan"}, "lon": -77.04462416666667, "fusion_lat": 0.0, "is_disabled": 0, "is_reserved": 0, "lat": 38.89219283333333, "type": "electric_scooter"}, {"fusion_lon": 0.0, "bike_id": "364d7d841ddfd864a72555f95f4f2f1a", "name": "364d7d841ddfd864a72555f95f4f2f1a", "rental_uris": {"android": "https://dc.lft.to/lastmile_qr_scan", "ios": "https://dc.lft.to/lastmile_qr_scan"}, "lon": -77.07524733333334, "fusion_lat": 0.0, "is_disabled": 0, "is_reserved": 0, "lat": 38.84287533333333, "type": "electric_bike"}, {"fusion_lon": 0.0, "bike_id": "e4a0e3ecf55d78d0f75694bd192251e6", "name": "e4a0e3ecf55d78d0f75694bd192251e6", "rental_uris": {"android": "https://dc.lft.to/lastmile_qr_scan", "ios": "https://dc.lft.to/lastmile_qr_scan"}, "lon": -77.01568283333333, "fusion_lat": 0.0, "is_disabled": 0, "is_reserved": 0, "lat": 38.9026685, "type": "electric_scooter"}, {"fusion_lon": 0.0, "bike_id": "d354b0cd7c5f943fb106aeeee8ed5b98", "name": "d354b0cd7c5f943fb106aeeee8ed5b98", "rental_uris": {"android": "https://dc.lft.to/lastmile_qr_scan", "ios": "https://dc.lft.to/lastmile_qr_scan"}, "lon": -76.91805983333333, "fusion_lat": 0.0, "is_disabled": 0, "is_reserved": 0, "lat": 39.00004066666666, "type": "electric_bike"}, {"fusion_lon": 0.0, "bike_id": "1e075ddcbddb0bf9a21bbc5d31fdfebb", "name": "1e075ddcbddb0bf9a21bbc5d31fdfebb", "rental_uris": {"android": "https://dc.lft.to/lastmile_qr_scan", "ios": "https://dc.lft.to/lastmile_qr_scan"}, "lon": -77.039585, "fusion_lat": 0.0, "is_disabled": 0, "is_reserved": 0, "lat": 38.89247133333333, "type": "electric_scooter"}, {"fusion_lon": 0.0, "bike_id": "75a3c6e1c29add518dd9189b4e94bc52", "name": "75a3c6e1c29add518dd9189b4e94bc52", "rental_uris": {"android": "https://dc.lft.to/lastmile_qr_scan", "ios": "https://dc.lft.to/lastmile_qr_scan"}, "lon": -76.987455, "fusion_lat": 0.0, "is_disabled": 0, "is_reserved": 0, "lat": 38.87964083333333, "type": "electric_scooter"}, {"fusion_lon": 0.0, "bike_id": "c9d2d53801ecc6d3c3270eda10c1dd19", "name": "c9d2d53801ecc6d3c3270eda10c1dd19", "rental_uris": {"android": "https://dc.lft.to/lastmile_qr_scan", "ios": "https://dc.lft.to/lastmile_qr_scan"}, "lon": -77.04693683333333, "fusion_lat": 0.0, "is_disabled": 0, "is_reserved": 0, "lat": 38.92158166666667, "type": "electric_scooter"}, {"fusion_lon": 0.0, "bike_id": "4fcfca4593300974cc894b187734ae09", "name": "4fcfca4593300974cc894b187734ae09", "rental_uris": {"android": "https://dc.lft.to/lastmile_qr_scan", "ios": "https://dc.lft.to/lastmile_qr_scan"}, "lon": -77.04431966666667, "fusion_lat": 0.0, "is_disabled": 0, "is_reserved": 0, "lat": 38.9014535, "type": "electric_scooter"}, {"fusion_lon": 0.0, "bike_id": "5662bfe59fcd48c678e4fce18ed44b46", "name": "5662bfe59fcd48c678e4fce18ed44b46", "rental_uris": {"android": "https://dc.lft.to/lastmile_qr_scan", "ios": "https://dc.lft.to/lastmile_qr_scan"}, "lon": -77.038655, "fusion_lat": 0.0, "is_disabled": 0, "is_reserved": 0, "lat": 38.908548833333334, "type": "electric_scooter"}, {"fusion_lon": 0.0, "bike_id": "8cc2fa8dde84fa6bd7a13cdbac8ead20", "name": "8cc2fa8dde84fa6bd7a13cdbac8ead20", "rental_uris": {"android": "https://dc.lft.to/lastmile_qr_scan", "ios": "https://dc.lft.to/lastmile_qr_scan"}, "lon": -76.95759616666666, "fusion_lat": 0.0, "is_disabled": 0, "is_reserved": 0, "lat": 38.884975833333336, "type": "electric_bike"}, {"fusion_lon": 0.0, "bike_id": "bd0affff3fd8737a5717e3fe44311b73", "name": "bd0affff3fd8737a5717e3fe44311b73", "rental_uris": {"android": "https://dc.lft.to/lastmile_qr_scan", "ios": "https://dc.lft.to/lastmile_qr_scan"}, "lon": -77.03870283333333, "fusion_lat": 0.0, "is_disabled": 0, "is_reserved": 0, "lat": 38.9423565, "type": "electric_scooter"}, {"fusion_lon": 0.0, "bike_id": "8800bf7b1a31e839587d5e6b6c29e3e9", "name": "8800bf7b1a31e839587d5e6b6c29e3e9", "rental_uris": {"android": "https://dc.lft.to/lastmile_qr_scan", "ios": "https://dc.lft.to/lastmile_qr_scan"}, "lon": -77.07016266666666, "fusion_lat": 0.0, "is_disabled": 0, "is_reserved": 0, "lat": 38.84112366666667, "type": "electric_bike"}, {"fusion_lon": 0.0, "bike_id": "527efd332f464d399ee1418ae424da72", "name": "527efd332f464d399ee1418ae424da72", "rental_uris": {"android": "https://dc.lft.to/lastmile_qr_scan", "ios": "https://dc.lft.to/lastmile_qr_scan"}, "lon": -77.0404385, "fusion_lat": 0.0, "is_disabled": 0, "is_reserved": 0, "lat": 38.906048166666665, "type": "electric_scooter"}, {"fusion_lon": 0.0, "bike_id": "ba9f8575ce1dbdf38f96b8dbb59f9db6", "name": "ba9f8575ce1dbdf38f96b8dbb59f9db6", "rental_uris": {"android": "https://dc.lft.to/lastmile_qr_scan", "ios": "https://dc.lft.to/lastmile_qr_scan"}, "lon": -77.02184033333333, "fusion_lat": 0.0, "is_disabled": 0, "is_reserved": 0, "lat": 38.91436, "type": "electric_scooter"}, {"fusion_lon": 0.0, "bike_id": "3dc2bd6f2612a20b39bb055e8c3c90a3", "name": "3dc2bd6f2612a20b39bb055e8c3c90a3", "rental_uris": {"android": "https://dc.lft.to/lastmile_qr_scan", "ios": "https://dc.lft.to/lastmile_qr_scan"}, "lon": -76.965063, "fusion_lat": 0.0, "is_disabled": 0, "is_reserved": 0, "lat": 38.87646566666667, "type": "electric_scooter"}, {"fusion_lon": 0.0, "bike_id": "9f4f69dc71cb0f8e4c81c9ee3fd6e388", "name": "9f4f69dc71cb0f8e4c81c9ee3fd6e388", "rental_uris": {"android": "https://dc.lft.to/lastmile_qr_scan", "ios": "https://dc.lft.to/lastmile_qr_scan"}, "lon": -77.0434015, "fusion_lat": 0.0, "is_disabled": 0, "is_reserved": 0, "lat": 38.89224866666667, "type": "electric_scooter"}, {"fusion_lon": 0.0, "bike_id": "fc46fab849cf2b857889b418ca0ea2cb", "name": "fc46fab849cf2b857889b418ca0ea2cb", "rental_uris": {"android": "https://dc.lft.to/lastmile_qr_scan", "ios": "https://dc.lft.to/lastmile_qr_scan"}, "lon": -76.96982166666666, "fusion_lat": 0.0, "is_disabled": 0, "is_reserved": 0, "lat": 38.873849666666665, "type": "electric_scooter"}, {"fusion_lon": 0.0, "bike_id": "6bd1d62c7546408ade84a16b45b45105", "name": "6bd1d62c7546408ade84a16b45b45105", "rental_uris": {"android": "https://dc.lft.to/lastmile_qr_scan", "ios": "https://dc.lft.to/lastmile_qr_scan"}, "lon": -77.024053, "fusion_lat": 0.0, "is_disabled": 0, "is_reserved": 0, "lat": 38.957163333333334, "type": "electric_scooter"}, {"fusion_lon": 0.0, "bike_id": "2bcff404cd76d7133361feff4cebbded", "name": "2bcff404cd76d7133361feff4cebbded", "rental_uris": {"android": "https://dc.lft.to/lastmile_qr_scan", "ios": "https://dc.lft.to/lastmile_qr_scan"}, "lon": -77.02046066666666, "fusion_lat": 0.0, "is_disabled": 0, "is_reserved": 0, "lat": 38.915589833333335, "type": "electric_scooter"}, {"fusion_lon": 0.0, "bike_id": "95a777338281812d7cd8af2943ab6012", "name": "95a777338281812d7cd8af2943ab6012", "rental_uris": {"android": "https://dc.lft.to/lastmile_qr_scan", "ios": "https://dc.lft.to/lastmile_qr_scan"}, "lon": -76.973353, "fusion_lat": 0.0, "is_disabled": 0, "is_reserved": 0, "lat": 38.904158333333335, "type": "electric_scooter"}, {"fusion_lon": 0.0, "bike_id": "bd3d85ba6430fb387768b8db8b38a159", "name": "bd3d85ba6430fb387768b8db8b38a159", "rental_uris": {"android": "https://dc.lft.to/lastmile_qr_scan", "ios": "https://dc.lft.to/lastmile_qr_scan"}, "lon": -76.99552083333333, "fusion_lat": 0.0, "is_disabled": 0, "is_reserved": 0, "lat": 38.862332, "type": "electric_scooter"}, {"fusion_lon": 0.0, "bike_id": "50540bce2a2d91d9761b53258925f25f", "name": "50540bce2a2d91d9761b53258925f25f", "rental_uris": {"android": "https://dc.lft.to/lastmile_qr_scan", "ios": "https://dc.lft.to/lastmile_qr_scan"}, "lon": -77.01767, "fusion_lat": 0.0, "is_disabled": 0, "is_reserved": 0, "lat": 38.93895766666667, "type": "electric_scooter"}, {"fusion_lon": 0.0, "bike_id": "7f355617173323fedd0a9768b5756dcd", "name": "7f355617173323fedd0a9768b5756dcd", "rental_uris": {"android": "https://dc.lft.to/lastmile_qr_scan", "ios": "https://dc.lft.to/lastmile_qr_scan"}, "lon": -77.13723833333333, "fusion_lat": 0.0, "is_disabled": 0, "is_reserved": 0, "lat": 39.079716833333336, "type": "electric_bike"}, {"fusion_lon": 0.0, "bike_id": "6d383047ded4837f148f4ddb15560652", "name": "6d383047ded4837f148f4ddb15560652", "rental_uris": {"android": "https://dc.lft.to/lastmile_qr_scan", "ios": "https://dc.lft.to/lastmile_qr_scan"}, "lon": -77.049057, "fusion_lat": 0.0, "is_disabled": 0, "is_reserved": 0, "lat": 38.899006166666666, "type": "electric_scooter"}, {"fusion_lon": 0.0, "bike_id": "c9d2c51d638d69862a3dc76a2d0d9e52", "name": "c9d2c51d638d69862a3dc76a2d0d9e52", "rental_uris": {"android": "https://dc.lft.to/lastmile_qr_scan", "ios": "https://dc.lft.to/lastmile_qr_scan"}, "lon": -77.04468083333333, "fusion_lat": 0.0, "is_disabled": 0, "is_reserved": 0, "lat": 38.9013395, "type": "electric_scooter"}, {"fusion_lon": 0.0, "bike_id": "81ab6cdcc2e6f3a03933efeb3dd1801f", "name": "81ab6cdcc2e6f3a03933efeb3dd1801f", "rental_uris": {"android": "https://dc.lft.to/lastmile_qr_scan", "ios": "https://dc.lft.to/lastmile_qr_scan"}, "lon": -77.04870783333334, "fusion_lat": 0.0, "is_disabled": 0, "is_reserved": 0, "lat": 38.89222216666667, "type": "electric_scooter"}, {"fusion_lon": 0.0, "bike_id": "e9dd7d5a2622b05293196a1e540ec510", "name": "e9dd7d5a2622b05293196a1e540ec510", "rental_uris": {"android": "https://dc.lft.to/lastmile_qr_scan", "ios": "https://dc.lft.to/lastmile_qr_scan"}, "lon": -76.96706683333333, "fusion_lat": 0.0, "is_disabled": 0, "is_reserved": 0, "lat": 38.86016266666667, "type": "electric_scooter"}, {"fusion_lon": 0.0, "bike_id": "2a843d676df24da54cc216209a762957", "name": "2a843d676df24da54cc216209a762957", "rental_uris": {"android": "https://dc.lft.to/lastmile_qr_scan", "ios": "https://dc.lft.to/lastmile_qr_scan"}, "lon": -77.045457, "fusion_lat": 0.0, "is_disabled": 0, "is_reserved": 0, "lat": 38.911131166666664, "type": "electric_scooter"}, {"fusion_lon": 0.0, "bike_id": "b83afc4f052029bbb48aac433233fdb3", "name": "b83afc4f052029bbb48aac433233fdb3", "rental_uris": {"android": "https://dc.lft.to/lastmile_qr_scan", "ios": "https://dc.lft.to/lastmile_qr_scan"}, "lon": -77.07042033333333, "fusion_lat": 0.0, "is_disabled": 0, "is_reserved": 0, "lat": 38.907680166666665, "type": "electric_scooter"}, {"fusion_lon": 0.0, "bike_id": "4c55b5ec2eddad8d99803adeb2ee34e3", "name": "4c55b5ec2eddad8d99803adeb2ee34e3", "rental_uris": {"android": "https://dc.lft.to/lastmile_qr_scan", "ios": "https://dc.lft.to/lastmile_qr_scan"}, "lon": -77.0328815, "fusion_lat": 0.0, "is_disabled": 0, "is_reserved": 0, "lat": 38.93767533333333, "type": "electric_scooter"}, {"fusion_lon": 0.0, "bike_id": "ab931df3380cd269fa7e99876eb3f380", "name": "ab931df3380cd269fa7e99876eb3f380", "rental_uris": {"android": "https://dc.lft.to/lastmile_qr_scan", "ios": "https://dc.lft.to/lastmile_qr_scan"}, "lon": -77.068713, "fusion_lat": 0.0, "is_disabled": 0, "is_reserved": 0, "lat": 38.93743766666667, "type": "electric_scooter"}, {"fusion_lon": 0.0, "bike_id": "1087057f23fca93032fc222b8bf180f2", "name": "1087057f23fca93032fc222b8bf180f2", "rental_uris": {"android": "https://dc.lft.to/lastmile_qr_scan", "ios": "https://dc.lft.to/lastmile_qr_scan"}, "lon": -77.01711516666667, "fusion_lat": 0.0, "is_disabled": 0, "is_reserved": 0, "lat": 38.909737166666666, "type": "electric_scooter"}, {"fusion_lon": 0.0, "bike_id": "e00469dfb831f7e9b66fe73f1db55289", "name": "e00469dfb831f7e9b66fe73f1db55289", "rental_uris": {"android": "https://dc.lft.to/lastmile_qr_scan", "ios": "https://dc.lft.to/lastmile_qr_scan"}, "lon": -76.99830516666667, "fusion_lat": 0.0, "is_disabled": 0, "is_reserved": 0, "lat": 38.885407, "type": "electric_scooter"}, {"fusion_lon": 0.0, "bike_id": "4ed96537719935b75ad0bd84c95de08e", "name": "4ed96537719935b75ad0bd84c95de08e", "rental_uris": {"android": "https://dc.lft.to/lastmile_qr_scan", "ios": "https://dc.lft.to/lastmile_qr_scan"}, "lon": -77.03778133333333, "fusion_lat": 0.0, "is_disabled": 0, "is_reserved": 0, "lat": 38.916997333333335, "type": "electric_scooter"}, {"fusion_lon": 0.0, "bike_id": "748c2165571d8f595686bebf154913e6", "name": "748c2165571d8f595686bebf154913e6", "rental_uris": {"android": "https://dc.lft.to/lastmile_qr_scan", "ios": "https://dc.lft.to/lastmile_qr_scan"}, "lon": -77.03182066666666, "fusion_lat": 0.0, "is_disabled": 0, "is_reserved": 0, "lat": 38.91103733333333, "type": "electric_scooter"}, {"fusion_lon": 0.0, "bike_id": "bf266d7cc849c04f2168aabaa29961ca", "name": "bf266d7cc849c04f2168aabaa29961ca", "rental_uris": {"android": "https://dc.lft.to/lastmile_qr_scan", "ios": "https://dc.lft.to/lastmile_qr_scan"}, "lon": -77.04160566666667, "fusion_lat": 0.0, "is_disabled": 0, "is_reserved": 0, "lat": 38.914934833333334, "type": "electric_scooter"}, {"fusion_lon": 0.0, "bike_id": "d93ef368b476cbebce1ef9b32c09732f", "name": "d93ef368b476cbebce1ef9b32c09732f", "rental_uris": {"android": "https://dc.lft.to/lastmile_qr_scan", "ios": "https://dc.lft.to/lastmile_qr_scan"}, "lon": -77.03830716666667, "fusion_lat": 0.0, "is_disabled": 0, "is_reserved": 0, "lat": 38.911172, "type": "electric_scooter"}, {"fusion_lon": 0.0, "bike_id": "dd699e83047ec90c5848f4270523b0f0", "name": "dd699e83047ec90c5848f4270523b0f0", "rental_uris": {"android": "https://dc.lft.to/lastmile_qr_scan", "ios": "https://dc.lft.to/lastmile_qr_scan"}, "lon": -77.01432283333334, "fusion_lat": 0.0, "is_disabled": 0, "is_reserved": 0, "lat": 38.9203165, "type": "electric_scooter"}, {"fusion_lon": 0.0, "bike_id": "fcdf3dcc60825be55a8433f14f058459", "name": "fcdf3dcc60825be55a8433f14f058459", "rental_uris": {"android": "https://dc.lft.to/lastmile_qr_scan", "ios": "https://dc.lft.to/lastmile_qr_scan"}, "lon": -77.09617133333333, "fusion_lat": 0.0, "is_disabled": 0, "is_reserved": 0, "lat": 38.89572416666667, "type": "electric_bike"}, {"fusion_lon": 0.0, "bike_id": "7e310a1ff185552e8ab19f2e811d1f48", "name": "7e310a1ff185552e8ab19f2e811d1f48", "rental_uris": {"android": "https://dc.lft.to/lastmile_qr_scan", "ios": "https://dc.lft.to/lastmile_qr_scan"}, "lon": -77.02814483333333, "fusion_lat": 0.0, "is_disabled": 0, "is_reserved": 0, "lat": 38.93177566666667, "type": "electric_scooter"}, {"fusion_lon": 0.0, "bike_id": "3895c7c7c747c6960a147d69fdeb72db", "name": "3895c7c7c747c6960a147d69fdeb72db", "rental_uris": {"android": "https://dc.lft.to/lastmile_qr_scan", "ios": "https://dc.lft.to/lastmile_qr_scan"}, "lon": -77.0602945, "fusion_lat": 0.0, "is_disabled": 0, "is_reserved": 0, "lat": 38.90244533333333, "type": "electric_scooter"}, {"fusion_lon": 0.0, "bike_id": "ce3aee80832db04e35a0d74038f85b00", "name": "ce3aee80832db04e35a0d74038f85b00", "rental_uris": {"android": "https://dc.lft.to/lastmile_qr_scan", "ios": "https://dc.lft.to/lastmile_qr_scan"}, "lon": -77.067777, "fusion_lat": 0.0, "is_disabled": 0, "is_reserved": 0, "lat": 38.90882716666667, "type": "electric_scooter"}, {"fusion_lon": 0.0, "bike_id": "0129a4aa9a0b13288735554a997a544e", "name": "0129a4aa9a0b13288735554a997a544e", "rental_uris": {"android": "https://dc.lft.to/lastmile_qr_scan", "ios": "https://dc.lft.to/lastmile_qr_scan"}, "lon": -77.0226775, "fusion_lat": 0.0, "is_disabled": 0, "is_reserved": 0, "lat": 38.92416866666667, "type": "electric_scooter"}, {"fusion_lon": 0.0, "bike_id": "a86b27bd66db7f3657b03e4c7330c033", "name": "a86b27bd66db7f3657b03e4c7330c033", "rental_uris": {"android": "https://dc.lft.to/lastmile_qr_scan", "ios": "https://dc.lft.to/lastmile_qr_scan"}, "lon": -77.0377555, "fusion_lat": 0.0, "is_disabled": 0, "is_reserved": 0, "lat": 38.936100833333334, "type": "electric_scooter"}, {"fusion_lon": 0.0, "bike_id": "fe77b1e4c9d2ad4eed215ea8749dc38a", "name": "fe77b1e4c9d2ad4eed215ea8749dc38a", "rental_uris": {"android": "https://dc.lft.to/lastmile_qr_scan", "ios": "https://dc.lft.to/lastmile_qr_scan"}, "lon": -77.0465785, "fusion_lat": 0.0, "is_disabled": 0, "is_reserved": 0, "lat": 38.90296633333333, "type": "electric_scooter"}, {"fusion_lon": 0.0, "bike_id": "3d451ca50cd96adee45a034919366e2e", "name": "3d451ca50cd96adee45a034919366e2e", "rental_uris": {"android": "https://dc.lft.to/lastmile_qr_scan", "ios": "https://dc.lft.to/lastmile_qr_scan"}, "lon": -77.02838866666667, "fusion_lat": 0.0, "is_disabled": 0, "is_reserved": 0, "lat": 38.932646, "type": "electric_scooter"}, {"fusion_lon": 0.0, "bike_id": "1737c9a1d2a996d116aa4cf0818abb5e", "name": "1737c9a1d2a996d116aa4cf0818abb5e", "rental_uris": {"android": "https://dc.lft.to/lastmile_qr_scan", "ios": "https://dc.lft.to/lastmile_qr_scan"}, "lon": -77.03351066666667, "fusion_lat": 0.0, "is_disabled": 0, "is_reserved": 0, "lat": 38.88770183333333, "type": "electric_scooter"}, {"fusion_lon": 0.0, "bike_id": "f240fa8d694511609489c88fffc744ac", "name": "f240fa8d694511609489c88fffc744ac", "rental_uris": {"android": "https://dc.lft.to/lastmile_qr_scan", "ios": "https://dc.lft.to/lastmile_qr_scan"}, "lon": -77.01700083333333, "fusion_lat": 0.0, "is_disabled": 0, "is_reserved": 0, "lat": 38.92066116666667, "type": "electric_scooter"}, {"fusion_lon": 0.0, "bike_id": "786a704147b18ff6bb21500741d15a47", "name": "786a704147b18ff6bb21500741d15a47", "rental_uris": {"android": "https://dc.lft.to/lastmile_qr_scan", "ios": "https://dc.lft.to/lastmile_qr_scan"}, "lon": -77.03803066666667, "fusion_lat": 0.0, "is_disabled": 0, "is_reserved": 0, "lat": 38.902744166666665, "type": "electric_scooter"}, {"fusion_lon": 0.0, "bike_id": "a58e6cd8fe82f7d8638794a6ef99866d", "name": "a58e6cd8fe82f7d8638794a6ef99866d", "rental_uris": {"android": "https://dc.lft.to/lastmile_qr_scan", "ios": "https://dc.lft.to/lastmile_qr_scan"}, "lon": -77.03177083333334, "fusion_lat": 0.0, "is_disabled": 0, "is_reserved": 0, "lat": 38.899765, "type": "electric_scooter"}, {"fusion_lon": 0.0, "bike_id": "6f4c3fe46b13954ec5e6ceae5b6ca59e", "name": "6f4c3fe46b13954ec5e6ceae5b6ca59e", "rental_uris": {"android": "https://dc.lft.to/lastmile_qr_scan", "ios": "https://dc.lft.to/lastmile_qr_scan"}, "lon": -77.057173, "fusion_lat": 0.0, "is_disabled": 0, "is_reserved": 0, "lat": 38.93611666666666, "type": "electric_scooter"}, {"fusion_lon": 0.0, "bike_id": "e725c8dadaf55bf854d08e14a59abbc6", "name": "e725c8dadaf55bf854d08e14a59abbc6", "rental_uris": {"android": "https://dc.lft.to/lastmile_qr_scan", "ios": "https://dc.lft.to/lastmile_qr_scan"}, "lon": -77.07355933333334, "fusion_lat": 0.0, "is_disabled": 0, "is_reserved": 0, "lat": 38.911147666666665, "type": "electric_scooter"}, {"fusion_lon": 0.0, "bike_id": "f91b72ceea8c384b1541f9ccfbb815d5", "name": "f91b72ceea8c384b1541f9ccfbb815d5", "rental_uris": {"android": "https://dc.lft.to/lastmile_qr_scan", "ios": "https://dc.lft.to/lastmile_qr_scan"}, "lon": -77.0241245, "fusion_lat": 0.0, "is_disabled": 0, "is_reserved": 0, "lat": 38.91606483333333, "type": "electric_scooter"}, {"fusion_lon": 0.0, "bike_id": "1bb0596adb58452f638f8c21c4ecf345", "name": "1bb0596adb58452f638f8c21c4ecf345", "rental_uris": {"android": "https://dc.lft.to/lastmile_qr_scan", "ios": "https://dc.lft.to/lastmile_qr_scan"}, "lon": -77.02482666666667, "fusion_lat": 0.0, "is_disabled": 0, "is_reserved": 0, "lat": 38.94197416666667, "type": "electric_scooter"}, {"fusion_lon": 0.0, "bike_id": "87e7ce9d5b3999fde3e3d070979b0fa3", "name": "87e7ce9d5b3999fde3e3d070979b0fa3", "rental_uris": {"android": "https://dc.lft.to/lastmile_qr_scan", "ios": "https://dc.lft.to/lastmile_qr_scan"}, "lon": -77.00326716666666, "fusion_lat": 0.0, "is_disabled": 0, "is_reserved": 0, "lat": 38.876452666666665, "type": "electric_scooter"}, {"fusion_lon": 0.0, "bike_id": "ee8231385150138d106b1cf3a11b6768", "name": "ee8231385150138d106b1cf3a11b6768", "rental_uris": {"android": "https://dc.lft.to/lastmile_qr_scan", "ios": "https://dc.lft.to/lastmile_qr_scan"}, "lon": -77.013749, "fusion_lat": 0.0, "is_disabled": 0, "is_reserved": 0, "lat": 38.95404883333333, "type": "electric_scooter"}, {"fusion_lon": 0.0, "bike_id": "2632b6034fc725c45dc8d39e1bc61faf", "name": "2632b6034fc725c45dc8d39e1bc61faf", "rental_uris": {"android": "https://dc.lft.to/lastmile_qr_scan", "ios": "https://dc.lft.to/lastmile_qr_scan"}, "lon": -77.008984, "fusion_lat": 0.0, "is_disabled": 0, "is_reserved": 0, "lat": 38.8955455, "type": "electric_scooter"}, {"fusion_lon": 0.0, "bike_id": "8f741d311ccb7edd6c369901726e02d1", "name": "8f741d311ccb7edd6c369901726e02d1", "rental_uris": {"android": "https://dc.lft.to/lastmile_qr_scan", "ios": "https://dc.lft.to/lastmile_qr_scan"}, "lon": -77.02402883333333, "fusion_lat": 0.0, "is_disabled": 0, "is_reserved": 0, "lat": 38.90063516666667, "type": "electric_scooter"}, {"fusion_lon": 0.0, "bike_id": "ea5f785b5e4108a98906c0db69472087", "name": "ea5f785b5e4108a98906c0db69472087", "rental_uris": {"android": "https://dc.lft.to/lastmile_qr_scan", "ios": "https://dc.lft.to/lastmile_qr_scan"}, "lon": -77.03217466666666, "fusion_lat": 0.0, "is_disabled": 0, "is_reserved": 0, "lat": 38.91719833333333, "type": "electric_scooter"}, {"fusion_lon": 0.0, "bike_id": "378d87523cd3961a4c6845050dbea246", "name": "378d87523cd3961a4c6845050dbea246", "rental_uris": {"android": "https://dc.lft.to/lastmile_qr_scan", "ios": "https://dc.lft.to/lastmile_qr_scan"}, "lon": -77.03933383333333, "fusion_lat": 0.0, "is_disabled": 0, "is_reserved": 0, "lat": 38.916138833333335, "type": "electric_scooter"}, {"fusion_lon": 0.0, "bike_id": "9d259a016e9338eda36640b1dbd71124", "name": "9d259a016e9338eda36640b1dbd71124", "rental_uris": {"android": "https://dc.lft.to/lastmile_qr_scan", "ios": "https://dc.lft.to/lastmile_qr_scan"}, "lon": -77.07347766666666, "fusion_lat": 0.0, "is_disabled": 0, "is_reserved": 0, "lat": 38.9225125, "type": "electric_scooter"}, {"fusion_lon": 0.0, "bike_id": "8ef095bf94abc872bede67c82120747c", "name": "8ef095bf94abc872bede67c82120747c", "rental_uris": {"android": "https://dc.lft.to/lastmile_qr_scan", "ios": "https://dc.lft.to/lastmile_qr_scan"}, "lon": -77.01720766666666, "fusion_lat": 0.0, "is_disabled": 0, "is_reserved": 0, "lat": 38.892256, "type": "electric_scooter"}, {"fusion_lon": 0.0, "bike_id": "6591bda6bdd694744cb17a241cb8684a", "name": "6591bda6bdd694744cb17a241cb8684a", "rental_uris": {"android": "https://dc.lft.to/lastmile_qr_scan", "ios": "https://dc.lft.to/lastmile_qr_scan"}, "lon": -76.99691466666667, "fusion_lat": 0.0, "is_disabled": 0, "is_reserved": 0, "lat": 38.888723666666664, "type": "electric_bike"}, {"fusion_lon": 0.0, "bike_id": "1d216dc0b58470d8affdd11d1284d213", "name": "1d216dc0b58470d8affdd11d1284d213", "rental_uris": {"android": "https://dc.lft.to/lastmile_qr_scan", "ios": "https://dc.lft.to/lastmile_qr_scan"}, "lon": -76.99406566666667, "fusion_lat": 0.0, "is_disabled": 0, "is_reserved": 0, "lat": 38.87789333333333, "type": "electric_scooter"}, {"fusion_lon": 0.0, "bike_id": "50c5bdeeb4844e7769903229ab11f2fb", "name": "50c5bdeeb4844e7769903229ab11f2fb", "rental_uris": {"android": "https://dc.lft.to/lastmile_qr_scan", "ios": "https://dc.lft.to/lastmile_qr_scan"}, "lon": -77.03192, "fusion_lat": 0.0, "is_disabled": 0, "is_reserved": 0, "lat": 38.916259833333335, "type": "electric_scooter"}, {"fusion_lon": 0.0, "bike_id": "9daf0dd79b569a87f9e373f2303cff22", "name": "9daf0dd79b569a87f9e373f2303cff22", "rental_uris": {"android": "https://dc.lft.to/lastmile_qr_scan", "ios": "https://dc.lft.to/lastmile_qr_scan"}, "lon": -77.08188033333333, "fusion_lat": 0.0, "is_disabled": 0, "is_reserved": 0, "lat": 38.92217566666667, "type": "electric_bike"}, {"fusion_lon": 0.0, "bike_id": "3f7a467cc58da7e0f4bdd5cb374c8968", "name": "3f7a467cc58da7e0f4bdd5cb374c8968", "rental_uris": {"android": "https://dc.lft.to/lastmile_qr_scan", "ios": "https://dc.lft.to/lastmile_qr_scan"}, "lon": -77.01853, "fusion_lat": 0.0, "is_disabled": 0, "is_reserved": 0, "lat": 38.92273083333333, "type": "electric_scooter"}, {"fusion_lon": 0.0, "bike_id": "5ff65513a19f1f4e1b0502aaff7b9428", "name": "5ff65513a19f1f4e1b0502aaff7b9428", "rental_uris": {"android": "https://dc.lft.to/lastmile_qr_scan", "ios": "https://dc.lft.to/lastmile_qr_scan"}, "lon": -77.0482785, "fusion_lat": 0.0, "is_disabled": 0, "is_reserved": 0, "lat": 38.91048033333333, "type": "electric_scooter"}, {"fusion_lon": 0.0, "bike_id": "942fae99c6f5ae0e3f12f9892072be21", "name": "942fae99c6f5ae0e3f12f9892072be21", "rental_uris": {"android": "https://dc.lft.to/lastmile_qr_scan", "ios": "https://dc.lft.to/lastmile_qr_scan"}, "lon": -77.02824033333333, "fusion_lat": 0.0, "is_disabled": 0, "is_reserved": 0, "lat": 38.92770266666667, "type": "electric_scooter"}, {"fusion_lon": 0.0, "bike_id": "8d231a34682d15f0cc140b3ace7fff0f", "name": "8d231a34682d15f0cc140b3ace7fff0f", "rental_uris": {"android": "https://dc.lft.to/lastmile_qr_scan", "ios": "https://dc.lft.to/lastmile_qr_scan"}, "lon": -77.02591233333334, "fusion_lat": 0.0, "is_disabled": 0, "is_reserved": 0, "lat": 38.94205083333333, "type": "electric_scooter"}, {"fusion_lon": 0.0, "bike_id": "a1cadc8ab669aaba50565b32b56ce9f9", "name": "a1cadc8ab669aaba50565b32b56ce9f9", "rental_uris": {"android": "https://dc.lft.to/lastmile_qr_scan", "ios": "https://dc.lft.to/lastmile_qr_scan"}, "lon": -77.04423733333333, "fusion_lat": 0.0, "is_disabled": 0, "is_reserved": 0, "lat": 38.931546166666664, "type": "electric_scooter"}, {"fusion_lon": 0.0, "bike_id": "3d55275468f6041626e74c4a004a1544", "name": "3d55275468f6041626e74c4a004a1544", "rental_uris": {"android": "https://dc.lft.to/lastmile_qr_scan", "ios": "https://dc.lft.to/lastmile_qr_scan"}, "lon": -77.04888233333334, "fusion_lat": 0.0, "is_disabled": 0, "is_reserved": 0, "lat": 38.900536333333335, "type": "electric_scooter"}, {"fusion_lon": 0.0, "bike_id": "db2119629f333cbea58076a441daa770", "name": "db2119629f333cbea58076a441daa770", "rental_uris": {"android": "https://dc.lft.to/lastmile_qr_scan", "ios": "https://dc.lft.to/lastmile_qr_scan"}, "lon": -77.01892783333334, "fusion_lat": 0.0, "is_disabled": 0, "is_reserved": 0, "lat": 38.8922835, "type": "electric_scooter"}, {"fusion_lon": 0.0, "bike_id": "f5ea59c4e4192a0795d5245032852de3", "name": "f5ea59c4e4192a0795d5245032852de3", "rental_uris": {"android": "https://dc.lft.to/lastmile_qr_scan", "ios": "https://dc.lft.to/lastmile_qr_scan"}, "lon": -77.023881, "fusion_lat": 0.0, "is_disabled": 0, "is_reserved": 0, "lat": 38.901875833333335, "type": "electric_scooter"}, {"fusion_lon": 0.0, "bike_id": "e6433170bbef641798ec8013d6584834", "name": "e6433170bbef641798ec8013d6584834", "rental_uris": {"android": "https://dc.lft.to/lastmile_qr_scan", "ios": "https://dc.lft.to/lastmile_qr_scan"}, "lon": -77.03012583333333, "fusion_lat": 0.0, "is_disabled": 0, "is_reserved": 0, "lat": 38.9165155, "type": "electric_scooter"}, {"fusion_lon": 0.0, "bike_id": "fd9d17531e01c9c15b4649e70a43d594", "name": "fd9d17531e01c9c15b4649e70a43d594", "rental_uris": {"android": "https://dc.lft.to/lastmile_qr_scan", "ios": "https://dc.lft.to/lastmile_qr_scan"}, "lon": -77.03759733333334, "fusion_lat": 0.0, "is_disabled": 0, "is_reserved": 0, "lat": 38.914086833333336, "type": "electric_scooter"}, {"fusion_lon": 0.0, "bike_id": "2bee64a9e61c6277d100db2c57a5f676", "name": "2bee64a9e61c6277d100db2c57a5f676", "rental_uris": {"android": "https://dc.lft.to/lastmile_qr_scan", "ios": "https://dc.lft.to/lastmile_qr_scan"}, "lon": -77.00393016666666, "fusion_lat": 0.0, "is_disabled": 0, "is_reserved": 0, "lat": 38.87671116666667, "type": "electric_scooter"}, {"fusion_lon": 0.0, "bike_id": "05c0fe50d0a4fcb6c91840c7b2238934", "name": "05c0fe50d0a4fcb6c91840c7b2238934", "rental_uris": {"android": "https://dc.lft.to/lastmile_qr_scan", "ios": "https://dc.lft.to/lastmile_qr_scan"}, "lon": -77.03216766666667, "fusion_lat": 0.0, "is_disabled": 0, "is_reserved": 0, "lat": 38.91628733333334, "type": "electric_scooter"}, {"fusion_lon": 0.0, "bike_id": "ec03c57554901c0686ed414f728dfb5b", "name": "ec03c57554901c0686ed414f728dfb5b", "rental_uris": {"android": "https://dc.lft.to/lastmile_qr_scan", "ios": "https://dc.lft.to/lastmile_qr_scan"}, "lon": -77.04546566666667, "fusion_lat": 0.0, "is_disabled": 0, "is_reserved": 0, "lat": 38.9194865, "type": "electric_scooter"}, {"fusion_lon": 0.0, "bike_id": "28dd3cd1f941bd372ed4e11bf56e6798", "name": "28dd3cd1f941bd372ed4e11bf56e6798", "rental_uris": {"android": "https://dc.lft.to/lastmile_qr_scan", "ios": "https://dc.lft.to/lastmile_qr_scan"}, "lon": -77.04272016666667, "fusion_lat": 0.0, "is_disabled": 0, "is_reserved": 0, "lat": 38.9224855, "type": "electric_scooter"}, {"fusion_lon": 0.0, "bike_id": "20a6942b33161696477e54d7b1040c8c", "name": "20a6942b33161696477e54d7b1040c8c", "rental_uris": {"android": "https://dc.lft.to/lastmile_qr_scan", "ios": "https://dc.lft.to/lastmile_qr_scan"}, "lon": -77.05753933333334, "fusion_lat": 0.0, "is_disabled": 0, "is_reserved": 0, "lat": 38.924625666666664, "type": "electric_scooter"}, {"fusion_lon": 0.0, "bike_id": "7f675cb54688236b485db40135546427", "name": "7f675cb54688236b485db40135546427", "rental_uris": {"android": "https://dc.lft.to/lastmile_qr_scan", "ios": "https://dc.lft.to/lastmile_qr_scan"}, "lon": -76.996542, "fusion_lat": 0.0, "is_disabled": 0, "is_reserved": 0, "lat": 38.85991333333333, "type": "electric_scooter"}, {"fusion_lon": 0.0, "bike_id": "83cb2e2d01ab0785e4c7b026d374a6c3", "name": "83cb2e2d01ab0785e4c7b026d374a6c3", "rental_uris": {"android": "https://dc.lft.to/lastmile_qr_scan", "ios": "https://dc.lft.to/lastmile_qr_scan"}, "lon": -77.05000633333333, "fusion_lat": 0.0, "is_disabled": 0, "is_reserved": 0, "lat": 38.892380333333335, "type": "electric_scooter"}, {"fusion_lon": 0.0, "bike_id": "f989a0fe7b3263b8438a808e99ad3bb1", "name": "f989a0fe7b3263b8438a808e99ad3bb1", "rental_uris": {"android": "https://dc.lft.to/lastmile_qr_scan", "ios": "https://dc.lft.to/lastmile_qr_scan"}, "lon": -77.035139, "fusion_lat": 0.0, "is_disabled": 0, "is_reserved": 0, "lat": 38.93217216666667, "type": "electric_scooter"}, {"fusion_lon": 0.0, "bike_id": "a2988e17628874c0431877298e7cefe0", "name": "a2988e17628874c0431877298e7cefe0", "rental_uris": {"android": "https://dc.lft.to/lastmile_qr_scan", "ios": "https://dc.lft.to/lastmile_qr_scan"}, "lon": -77.00757866666666, "fusion_lat": 0.0, "is_disabled": 0, "is_reserved": 0, "lat": 38.87485133333333, "type": "electric_bike"}, {"fusion_lon": 0.0, "bike_id": "2159fb52906875cfb0e113487d955fb7", "name": "2159fb52906875cfb0e113487d955fb7", "rental_uris": {"android": "https://dc.lft.to/lastmile_qr_scan", "ios": "https://dc.lft.to/lastmile_qr_scan"}, "lon": -77.0228915, "fusion_lat": 0.0, "is_disabled": 0, "is_reserved": 0, "lat": 38.92518283333333, "type": "electric_scooter"}, {"fusion_lon": 0.0, "bike_id": "13dcb9fdd6304a6f78933e083d6c4d72", "name": "13dcb9fdd6304a6f78933e083d6c4d72", "rental_uris": {"android": "https://dc.lft.to/lastmile_qr_scan", "ios": "https://dc.lft.to/lastmile_qr_scan"}, "lon": -77.04112166666667, "fusion_lat": 0.0, "is_disabled": 0, "is_reserved": 0, "lat": 38.898333666666666, "type": "electric_scooter"}, {"fusion_lon": 0.0, "bike_id": "a7f99f81cbe4027194f4ecb9c46c483c", "name": "a7f99f81cbe4027194f4ecb9c46c483c", "rental_uris": {"android": "https://dc.lft.to/lastmile_qr_scan", "ios": "https://dc.lft.to/lastmile_qr_scan"}, "lon": -77.00167783333333, "fusion_lat": 0.0, "is_disabled": 0, "is_reserved": 0, "lat": 38.8737205, "type": "electric_scooter"}, {"fusion_lon": 0.0, "bike_id": "c05d177ff6681f16e38441755f2e777e", "name": "c05d177ff6681f16e38441755f2e777e", "rental_uris": {"android": "https://dc.lft.to/lastmile_qr_scan", "ios": "https://dc.lft.to/lastmile_qr_scan"}, "lon": -77.02018916666667, "fusion_lat": 0.0, "is_disabled": 0, "is_reserved": 0, "lat": 38.899382333333335, "type": "electric_scooter"}, {"fusion_lon": 0.0, "bike_id": "776600844cca088502a4deac6d7a60fe", "name": "776600844cca088502a4deac6d7a60fe", "rental_uris": {"android": "https://dc.lft.to/lastmile_qr_scan", "ios": "https://dc.lft.to/lastmile_qr_scan"}, "lon": -76.95730633333334, "fusion_lat": 0.0, "is_disabled": 0, "is_reserved": 0, "lat": 38.85062516666667, "type": "electric_bike"}, {"fusion_lon": 0.0, "bike_id": "bece4119c795e32aa94db9592bbfe25d", "name": "bece4119c795e32aa94db9592bbfe25d", "rental_uris": {"android": "https://dc.lft.to/lastmile_qr_scan", "ios": "https://dc.lft.to/lastmile_qr_scan"}, "lon": -77.031744, "fusion_lat": 0.0, "is_disabled": 0, "is_reserved": 0, "lat": 38.911977666666665, "type": "electric_scooter"}, {"fusion_lon": 0.0, "bike_id": "8b9baa3a3aef386f83eac013aecb73de", "name": "8b9baa3a3aef386f83eac013aecb73de", "rental_uris": {"android": "https://dc.lft.to/lastmile_qr_scan", "ios": "https://dc.lft.to/lastmile_qr_scan"}, "lon": -77.02001916666667, "fusion_lat": 0.0, "is_disabled": 0, "is_reserved": 0, "lat": 38.96443383333333, "type": "electric_scooter"}, {"fusion_lon": 0.0, "bike_id": "d73d8378be4b163360e6db7442d35e72", "name": "d73d8378be4b163360e6db7442d35e72", "rental_uris": {"android": "https://dc.lft.to/lastmile_qr_scan", "ios": "https://dc.lft.to/lastmile_qr_scan"}, "lon": -77.0177195, "fusion_lat": 0.0, "is_disabled": 0, "is_reserved": 0, "lat": 38.87718516666666, "type": "electric_scooter"}, {"fusion_lon": 0.0, "bike_id": "a11c4af8766d6e5e0cdad23c0b23faa8", "name": "a11c4af8766d6e5e0cdad23c0b23faa8", "rental_uris": {"android": "https://dc.lft.to/lastmile_qr_scan", "ios": "https://dc.lft.to/lastmile_qr_scan"}, "lon": -77.0089615, "fusion_lat": 0.0, "is_disabled": 0, "is_reserved": 0, "lat": 38.95570766666667, "type": "electric_scooter"}, {"fusion_lon": 0.0, "bike_id": "3a2915e05652218e21b8a054d90aaf8d", "name": "3a2915e05652218e21b8a054d90aaf8d", "rental_uris": {"android": "https://dc.lft.to/lastmile_qr_scan", "ios": "https://dc.lft.to/lastmile_qr_scan"}, "lon": -77.01234233333334, "fusion_lat": 0.0, "is_disabled": 0, "is_reserved": 0, "lat": 38.893481333333334, "type": "electric_scooter"}, {"fusion_lon": 0.0, "bike_id": "79d25cadb2cff655aaf4b3687c7ce9f5", "name": "79d25cadb2cff655aaf4b3687c7ce9f5", "rental_uris": {"android": "https://dc.lft.to/lastmile_qr_scan", "ios": "https://dc.lft.to/lastmile_qr_scan"}, "lon": -77.01955333333333, "fusion_lat": 0.0, "is_disabled": 0, "is_reserved": 0, "lat": 38.9232415, "type": "electric_scooter"}, {"fusion_lon": 0.0, "bike_id": "9b4e431f9ea1abd43f61237fdc059dc7", "name": "9b4e431f9ea1abd43f61237fdc059dc7", "rental_uris": {"android": "https://dc.lft.to/lastmile_qr_scan", "ios": "https://dc.lft.to/lastmile_qr_scan"}, "lon": -77.0342565, "fusion_lat": 0.0, "is_disabled": 0, "is_reserved": 0, "lat": 38.909586, "type": "electric_scooter"}, {"fusion_lon": 0.0, "bike_id": "0f6f9669737743b45a723fcb9f5828f8", "name": "0f6f9669737743b45a723fcb9f5828f8", "rental_uris": {"android": "https://dc.lft.to/lastmile_qr_scan", "ios": "https://dc.lft.to/lastmile_qr_scan"}, "lon": -77.04185, "fusion_lat": 0.0, "is_disabled": 0, "is_reserved": 0, "lat": 38.899461, "type": "electric_scooter"}, {"fusion_lon": 0.0, "bike_id": "42a316d2af76ba849caeb8c3706a7d7f", "name": "42a316d2af76ba849caeb8c3706a7d7f", "rental_uris": {"android": "https://dc.lft.to/lastmile_qr_scan", "ios": "https://dc.lft.to/lastmile_qr_scan"}, "lon": -77.03500533333333, "fusion_lat": 0.0, "is_disabled": 0, "is_reserved": 0, "lat": 38.91700783333334, "type": "electric_scooter"}, {"fusion_lon": 0.0, "bike_id": "60cd006f283e0ab75bae05e0e99a4216", "name": "60cd006f283e0ab75bae05e0e99a4216", "rental_uris": {"android": "https://dc.lft.to/lastmile_qr_scan", "ios": "https://dc.lft.to/lastmile_qr_scan"}, "lon": -77.09011683333334, "fusion_lat": 0.0, "is_disabled": 0, "is_reserved": 0, "lat": 38.926565833333335, "type": "electric_bike"}, {"fusion_lon": 0.0, "bike_id": "2888aa4bfaf25d47929da52a6be0c8df", "name": "2888aa4bfaf25d47929da52a6be0c8df", "rental_uris": {"android": "https://dc.lft.to/lastmile_qr_scan", "ios": "https://dc.lft.to/lastmile_qr_scan"}, "lon": -77.02165983333333, "fusion_lat": 0.0, "is_disabled": 0, "is_reserved": 0, "lat": 38.942914, "type": "electric_scooter"}, {"fusion_lon": 0.0, "bike_id": "149512143116a9c3287c203649a2a609", "name": "149512143116a9c3287c203649a2a609", "rental_uris": {"android": "https://dc.lft.to/lastmile_qr_scan", "ios": "https://dc.lft.to/lastmile_qr_scan"}, "lon": -77.02323883333334, "fusion_lat": 0.0, "is_disabled": 0, "is_reserved": 0, "lat": 38.930652333333335, "type": "electric_scooter"}, {"fusion_lon": 0.0, "bike_id": "95b914f9ba487c7f4946530cb8f7016a", "name": "95b914f9ba487c7f4946530cb8f7016a", "rental_uris": {"android": "https://dc.lft.to/lastmile_qr_scan", "ios": "https://dc.lft.to/lastmile_qr_scan"}, "lon": -77.021166, "fusion_lat": 0.0, "is_disabled": 0, "is_reserved": 0, "lat": 38.904884, "type": "electric_scooter"}, {"fusion_lon": 0.0, "bike_id": "6115678dc45688fd3e4d5608a6f27c39", "name": "6115678dc45688fd3e4d5608a6f27c39", "rental_uris": {"android": "https://dc.lft.to/lastmile_qr_scan", "ios": "https://dc.lft.to/lastmile_qr_scan"}, "lon": -77.00608266666667, "fusion_lat": 0.0, "is_disabled": 0, "is_reserved": 0, "lat": 38.9062655, "type": "electric_scooter"}, {"fusion_lon": 0.0, "bike_id": "0da5fa6fabfcd49511f41d4a447a0a60", "name": "0da5fa6fabfcd49511f41d4a447a0a60", "rental_uris": {"android": "https://dc.lft.to/lastmile_qr_scan", "ios": "https://dc.lft.to/lastmile_qr_scan"}, "lon": -77.02467183333333, "fusion_lat": 0.0, "is_disabled": 0, "is_reserved": 0, "lat": 38.920056333333335, "type": "electric_scooter"}, {"fusion_lon": 0.0, "bike_id": "b1964d45e1fa1adf9cde2cb04012b54d", "name": "b1964d45e1fa1adf9cde2cb04012b54d", "rental_uris": {"android": "https://dc.lft.to/lastmile_qr_scan", "ios": "https://dc.lft.to/lastmile_qr_scan"}, "lon": -77.03187033333333, "fusion_lat": 0.0, "is_disabled": 0, "is_reserved": 0, "lat": 38.911289333333336, "type": "electric_scooter"}, {"fusion_lon": 0.0, "bike_id": "eea28270e7e4147046cd0d9aaba02f7c", "name": "eea28270e7e4147046cd0d9aaba02f7c", "rental_uris": {"android": "https://dc.lft.to/lastmile_qr_scan", "ios": "https://dc.lft.to/lastmile_qr_scan"}, "lon": -76.985526, "fusion_lat": 0.0, "is_disabled": 0, "is_reserved": 0, "lat": 38.900489666666665, "type": "electric_scooter"}, {"fusion_lon": 0.0, "bike_id": "f8d5137a51265c43121cb53e10228063", "name": "f8d5137a51265c43121cb53e10228063", "rental_uris": {"android": "https://dc.lft.to/lastmile_qr_scan", "ios": "https://dc.lft.to/lastmile_qr_scan"}, "lon": -77.031946, "fusion_lat": 0.0, "is_disabled": 0, "is_reserved": 0, "lat": 38.9108155, "type": "electric_scooter"}, {"fusion_lon": 0.0, "bike_id": "39b365c608aa726f84db4c6993f4d4ea", "name": "39b365c608aa726f84db4c6993f4d4ea", "rental_uris": {"android": "https://dc.lft.to/lastmile_qr_scan", "ios": "https://dc.lft.to/lastmile_qr_scan"}, "lon": -77.038678, "fusion_lat": 0.0, "is_disabled": 0, "is_reserved": 0, "lat": 38.91712, "type": "electric_scooter"}, {"fusion_lon": 0.0, "bike_id": "52c1d22dab29bad1822e7f30c83ae704", "name": "52c1d22dab29bad1822e7f30c83ae704", "rental_uris": {"android": "https://dc.lft.to/lastmile_qr_scan", "ios": "https://dc.lft.to/lastmile_qr_scan"}, "lon": -77.041505, "fusion_lat": 0.0, "is_disabled": 0, "is_reserved": 0, "lat": 38.90906783333333, "type": "electric_scooter"}, {"fusion_lon": 0.0, "bike_id": "2f0f8c5e0d0b09cbb792e8b4ee1214a2", "name": "2f0f8c5e0d0b09cbb792e8b4ee1214a2", "rental_uris": {"android": "https://dc.lft.to/lastmile_qr_scan", "ios": "https://dc.lft.to/lastmile_qr_scan"}, "lon": -77.041544, "fusion_lat": 0.0, "is_disabled": 0, "is_reserved": 0, "lat": 38.913133, "type": "electric_scooter"}, {"fusion_lon": 0.0, "bike_id": "6d1d52da61ca6f7d4cf3cac399d9d629", "name": "6d1d52da61ca6f7d4cf3cac399d9d629", "rental_uris": {"android": "https://dc.lft.to/lastmile_qr_scan", "ios": "https://dc.lft.to/lastmile_qr_scan"}, "lon": -77.03956783333334, "fusion_lat": 0.0, "is_disabled": 0, "is_reserved": 0, "lat": 38.8924735, "type": "electric_scooter"}, {"fusion_lon": 0.0, "bike_id": "c0a8144d3f41883b331878cb1c88d8ac", "name": "c0a8144d3f41883b331878cb1c88d8ac", "rental_uris": {"android": "https://dc.lft.to/lastmile_qr_scan", "ios": "https://dc.lft.to/lastmile_qr_scan"}, "lon": -77.0404785, "fusion_lat": 0.0, "is_disabled": 0, "is_reserved": 0, "lat": 38.9246385, "type": "electric_scooter"}, {"fusion_lon": 0.0, "bike_id": "06f55fe7a39b01cb7efe40a69dbff2a1", "name": "06f55fe7a39b01cb7efe40a69dbff2a1", "rental_uris": {"android": "https://dc.lft.to/lastmile_qr_scan", "ios": "https://dc.lft.to/lastmile_qr_scan"}, "lon": -77.01973016666666, "fusion_lat": 0.0, "is_disabled": 0, "is_reserved": 0, "lat": 38.8990855, "type": "electric_scooter"}, {"fusion_lon": 0.0, "bike_id": "a3cafb2d0b24304b66069975b48f7565", "name": "a3cafb2d0b24304b66069975b48f7565", "rental_uris": {"android": "https://dc.lft.to/lastmile_qr_scan", "ios": "https://dc.lft.to/lastmile_qr_scan"}, "lon": -76.97934083333334, "fusion_lat": 0.0, "is_disabled": 0, "is_reserved": 0, "lat": 38.93307216666667, "type": "electric_scooter"}, {"fusion_lon": 0.0, "bike_id": "554361962b05cbc2af1e6d2cbc065680", "name": "554361962b05cbc2af1e6d2cbc065680", "rental_uris": {"android": "https://dc.lft.to/lastmile_qr_scan", "ios": "https://dc.lft.to/lastmile_qr_scan"}, "lon": -77.13747283333333, "fusion_lat": 0.0, "is_disabled": 0, "is_reserved": 0, "lat": 39.079756, "type": "electric_bike"}, {"fusion_lon": 0.0, "bike_id": "3eee8bd9b81eee6c80530e769a245c51", "name": "3eee8bd9b81eee6c80530e769a245c51", "rental_uris": {"android": "https://dc.lft.to/lastmile_qr_scan", "ios": "https://dc.lft.to/lastmile_qr_scan"}, "lon": -77.02548466666667, "fusion_lat": 0.0, "is_disabled": 0, "is_reserved": 0, "lat": 38.9072785, "type": "electric_scooter"}, {"fusion_lon": 0.0, "bike_id": "0e2352458458b9198fb9800c7ad3c2a8", "name": "0e2352458458b9198fb9800c7ad3c2a8", "rental_uris": {"android": "https://dc.lft.to/lastmile_qr_scan", "ios": "https://dc.lft.to/lastmile_qr_scan"}, "lon": -77.04160516666667, "fusion_lat": 0.0, "is_disabled": 0, "is_reserved": 0, "lat": 38.89243183333333, "type": "electric_scooter"}, {"fusion_lon": 0.0, "bike_id": "f527f9ca5723053d52b4a0588d1958a1", "name": "f527f9ca5723053d52b4a0588d1958a1", "rental_uris": {"android": "https://dc.lft.to/lastmile_qr_scan", "ios": "https://dc.lft.to/lastmile_qr_scan"}, "lon": -77.02890716666667, "fusion_lat": 0.0, "is_disabled": 0, "is_reserved": 0, "lat": 38.916961666666666, "type": "electric_scooter"}, {"fusion_lon": 0.0, "bike_id": "a57997b2a4468b9675c1e8d9382f9248", "name": "a57997b2a4468b9675c1e8d9382f9248", "rental_uris": {"android": "https://dc.lft.to/lastmile_qr_scan", "ios": "https://dc.lft.to/lastmile_qr_scan"}, "lon": -77.02165433333333, "fusion_lat": 0.0, "is_disabled": 0, "is_reserved": 0, "lat": 38.9143135, "type": "electric_scooter"}, {"fusion_lon": 0.0, "bike_id": "deaf44cca878279230441198cb7bef19", "name": "deaf44cca878279230441198cb7bef19", "rental_uris": {"android": "https://dc.lft.to/lastmile_qr_scan", "ios": "https://dc.lft.to/lastmile_qr_scan"}, "lon": -77.03763333333333, "fusion_lat": 0.0, "is_disabled": 0, "is_reserved": 0, "lat": 38.91563566666667, "type": "electric_scooter"}, {"fusion_lon": 0.0, "bike_id": "af0d9ef2a2f76b19411618709a929f08", "name": "af0d9ef2a2f76b19411618709a929f08", "rental_uris": {"android": "https://dc.lft.to/lastmile_qr_scan", "ios": "https://dc.lft.to/lastmile_qr_scan"}, "lon": -77.04157266666667, "fusion_lat": 0.0, "is_disabled": 0, "is_reserved": 0, "lat": 38.915605166666666, "type": "electric_scooter"}, {"fusion_lon": 0.0, "bike_id": "870196245aa69483c782161df1010bf4", "name": "870196245aa69483c782161df1010bf4", "rental_uris": {"android": "https://dc.lft.to/lastmile_qr_scan", "ios": "https://dc.lft.to/lastmile_qr_scan"}, "lon": -77.009343, "fusion_lat": 0.0, "is_disabled": 0, "is_reserved": 0, "lat": 38.90768, "type": "electric_scooter"}, {"fusion_lon": 0.0, "bike_id": "4d351475a8001968faa47420b36f355c", "name": "4d351475a8001968faa47420b36f355c", "rental_uris": {"android": "https://dc.lft.to/lastmile_qr_scan", "ios": "https://dc.lft.to/lastmile_qr_scan"}, "lon": -77.02015316666666, "fusion_lat": 0.0, "is_disabled": 0, "is_reserved": 0, "lat": 38.89226766666667, "type": "electric_scooter"}, {"fusion_lon": 0.0, "bike_id": "d0e7d6636c5f9eaf2c6c91c6f358b7e0", "name": "d0e7d6636c5f9eaf2c6c91c6f358b7e0", "rental_uris": {"android": "https://dc.lft.to/lastmile_qr_scan", "ios": "https://dc.lft.to/lastmile_qr_scan"}, "lon": -77.04411183333333, "fusion_lat": 0.0, "is_disabled": 0, "is_reserved": 0, "lat": 38.90554216666666, "type": "electric_scooter"}, {"fusion_lon": 0.0, "bike_id": "da1c9902d37c9c15830f19a24a52670b", "name": "da1c9902d37c9c15830f19a24a52670b", "rental_uris": {"android": "https://dc.lft.to/lastmile_qr_scan", "ios": "https://dc.lft.to/lastmile_qr_scan"}, "lon": -77.03391916666666, "fusion_lat": 0.0, "is_disabled": 0, "is_reserved": 0, "lat": 38.938547666666665, "type": "electric_scooter"}, {"fusion_lon": 0.0, "bike_id": "1cd0c533b3d76f6c288d963e213032ef", "name": "1cd0c533b3d76f6c288d963e213032ef", "rental_uris": {"android": "https://dc.lft.to/lastmile_qr_scan", "ios": "https://dc.lft.to/lastmile_qr_scan"}, "lon": -77.23674533333333, "fusion_lat": 0.0, "is_disabled": 0, "is_reserved": 0, "lat": 38.921228166666666, "type": "electric_bike"}, {"fusion_lon": 0.0, "bike_id": "75d9547bcb9b7ad40134b8f3628bba53", "name": "75d9547bcb9b7ad40134b8f3628bba53", "rental_uris": {"android": "https://dc.lft.to/lastmile_qr_scan", "ios": "https://dc.lft.to/lastmile_qr_scan"}, "lon": -77.00570433333333, "fusion_lat": 0.0, "is_disabled": 0, "is_reserved": 0, "lat": 38.91815533333333, "type": "electric_scooter"}, {"fusion_lon": 0.0, "bike_id": "5504693d8a18d241155abaf6bceba4ce", "name": "5504693d8a18d241155abaf6bceba4ce", "rental_uris": {"android": "https://dc.lft.to/lastmile_qr_scan", "ios": "https://dc.lft.to/lastmile_qr_scan"}, "lon": -77.02826516666667, "fusion_lat": 0.0, "is_disabled": 0, "is_reserved": 0, "lat": 38.885202, "type": "electric_scooter"}, {"fusion_lon": 0.0, "bike_id": "9f3249419e70822a52677653c915ca2a", "name": "9f3249419e70822a52677653c915ca2a", "rental_uris": {"android": "https://dc.lft.to/lastmile_qr_scan", "ios": "https://dc.lft.to/lastmile_qr_scan"}, "lon": -76.98725366666666, "fusion_lat": 0.0, "is_disabled": 0, "is_reserved": 0, "lat": 38.863333, "type": "electric_bike"}, {"fusion_lon": 0.0, "bike_id": "d3c433b7c95d0ff2fc6ebbd760b84c0e", "name": "d3c433b7c95d0ff2fc6ebbd760b84c0e", "rental_uris": {"android": "https://dc.lft.to/lastmile_qr_scan", "ios": "https://dc.lft.to/lastmile_qr_scan"}, "lon": -77.051163, "fusion_lat": 0.0, "is_disabled": 0, "is_reserved": 0, "lat": 38.897906666666664, "type": "electric_scooter"}, {"fusion_lon": 0.0, "bike_id": "bba9ce2e7fa7bc51e3af1f3af0b6318d", "name": "bba9ce2e7fa7bc51e3af1f3af0b6318d", "rental_uris": {"android": "https://dc.lft.to/lastmile_qr_scan", "ios": "https://dc.lft.to/lastmile_qr_scan"}, "lon": -77.05902666666667, "fusion_lat": 0.0, "is_disabled": 0, "is_reserved": 0, "lat": 38.900834833333334, "type": "electric_bike"}, {"fusion_lon": 0.0, "bike_id": "9e875d77be96d60bb63c08071897d914", "name": "9e875d77be96d60bb63c08071897d914", "rental_uris": {"android": "https://dc.lft.to/lastmile_qr_scan", "ios": "https://dc.lft.to/lastmile_qr_scan"}, "lon": -77.0078715, "fusion_lat": 0.0, "is_disabled": 0, "is_reserved": 0, "lat": 38.87936633333333, "type": "electric_scooter"}, {"fusion_lon": 0.0, "bike_id": "a16061bf4bcc5e98b8e77eb7825c4ce5", "name": "a16061bf4bcc5e98b8e77eb7825c4ce5", "rental_uris": {"android": "https://dc.lft.to/lastmile_qr_scan", "ios": "https://dc.lft.to/lastmile_qr_scan"}, "lon": -77.05953483333333, "fusion_lat": 0.0, "is_disabled": 0, "is_reserved": 0, "lat": 38.91962083333333, "type": "electric_scooter"}, {"fusion_lon": 0.0, "bike_id": "ef16c68401c319959d7abd2a3bb77191", "name": "ef16c68401c319959d7abd2a3bb77191", "rental_uris": {"android": "https://dc.lft.to/lastmile_qr_scan", "ios": "https://dc.lft.to/lastmile_qr_scan"}, "lon": -77.10615166666666, "fusion_lat": 0.0, "is_disabled": 0, "is_reserved": 0, "lat": 38.935688999999996, "type": "electric_bike"}, {"fusion_lon": 0.0, "bike_id": "052f411d1d9e606c356ce5abb9de6604", "name": "052f411d1d9e606c356ce5abb9de6604", "rental_uris": {"android": "https://dc.lft.to/lastmile_qr_scan", "ios": "https://dc.lft.to/lastmile_qr_scan"}, "lon": -77.01947816666667, "fusion_lat": 0.0, "is_disabled": 0, "is_reserved": 0, "lat": 38.89942833333333, "type": "electric_scooter"}, {"fusion_lon": 0.0, "bike_id": "31ce5b3e09bcf461ee4f764657a54dd5", "name": "31ce5b3e09bcf461ee4f764657a54dd5", "rental_uris": {"android": "https://dc.lft.to/lastmile_qr_scan", "ios": "https://dc.lft.to/lastmile_qr_scan"}, "lon": -76.9522895, "fusion_lat": 0.0, "is_disabled": 0, "is_reserved": 0, "lat": 38.89346466666667, "type": "electric_scooter"}, {"fusion_lon": 0.0, "bike_id": "5b0a44de75dc33f6570d3be4daa00942", "name": "5b0a44de75dc33f6570d3be4daa00942", "rental_uris": {"android": "https://dc.lft.to/lastmile_qr_scan", "ios": "https://dc.lft.to/lastmile_qr_scan"}, "lon": -77.00035333333334, "fusion_lat": 0.0, "is_disabled": 0, "is_reserved": 0, "lat": 38.87495116666667, "type": "electric_scooter"}, {"fusion_lon": 0.0, "bike_id": "f06bd210afbf9eb46b0fcb9e69cf82ec", "name": "f06bd210afbf9eb46b0fcb9e69cf82ec", "rental_uris": {"android": "https://dc.lft.to/lastmile_qr_scan", "ios": "https://dc.lft.to/lastmile_qr_scan"}, "lon": -76.99262716666667, "fusion_lat": 0.0, "is_disabled": 0, "is_reserved": 0, "lat": 38.903065166666664, "type": "electric_scooter"}, {"fusion_lon": 0.0, "bike_id": "27213a1fe3adc7ec7d8a095ca3aa154a", "name": "27213a1fe3adc7ec7d8a095ca3aa154a", "rental_uris": {"android": "https://dc.lft.to/lastmile_qr_scan", "ios": "https://dc.lft.to/lastmile_qr_scan"}, "lon": -77.03588316666666, "fusion_lat": 0.0, "is_disabled": 0, "is_reserved": 0, "lat": 38.926305166666666, "type": "electric_scooter"}, {"fusion_lon": 0.0, "bike_id": "7294861382a3fe7dd237ed10c45b3df1", "name": "7294861382a3fe7dd237ed10c45b3df1", "rental_uris": {"android": "https://dc.lft.to/lastmile_qr_scan", "ios": "https://dc.lft.to/lastmile_qr_scan"}, "lon": -77.00555633333333, "fusion_lat": 0.0, "is_disabled": 0, "is_reserved": 0, "lat": 38.87552433333333, "type": "electric_scooter"}, {"fusion_lon": 0.0, "bike_id": "1c31051a2e4c71e51975cfcfa7e01c81", "name": "1c31051a2e4c71e51975cfcfa7e01c81", "rental_uris": {"android": "https://dc.lft.to/lastmile_qr_scan", "ios": "https://dc.lft.to/lastmile_qr_scan"}, "lon": -77.00202166666666, "fusion_lat": 0.0, "is_disabled": 0, "is_reserved": 0, "lat": 38.90027883333333, "type": "electric_scooter"}, {"fusion_lon": 0.0, "bike_id": "70fa4763b63999574ff9ae65d1b2373d", "name": "70fa4763b63999574ff9ae65d1b2373d", "rental_uris": {"android": "https://dc.lft.to/lastmile_qr_scan", "ios": "https://dc.lft.to/lastmile_qr_scan"}, "lon": -76.98291716666667, "fusion_lat": 0.0, "is_disabled": 0, "is_reserved": 0, "lat": 38.846073, "type": "electric_bike"}, {"fusion_lon": 0.0, "bike_id": "9f156c5e31a4e48b8cfd16c52c8b405a", "name": "9f156c5e31a4e48b8cfd16c52c8b405a", "rental_uris": {"android": "https://dc.lft.to/lastmile_qr_scan", "ios": "https://dc.lft.to/lastmile_qr_scan"}, "lon": -77.03334733333334, "fusion_lat": 0.0, "is_disabled": 0, "is_reserved": 0, "lat": 38.972169, "type": "electric_scooter"}, {"fusion_lon": 0.0, "bike_id": "ad53fe788981f13da9a6f50c0b23a361", "name": "ad53fe788981f13da9a6f50c0b23a361", "rental_uris": {"android": "https://dc.lft.to/lastmile_qr_scan", "ios": "https://dc.lft.to/lastmile_qr_scan"}, "lon": -77.05831466666666, "fusion_lat": 0.0, "is_disabled": 0, "is_reserved": 0, "lat": 38.90455033333333, "type": "electric_scooter"}, {"fusion_lon": 0.0, "bike_id": "ab7e1db6282c0c302f15c2713980f0b8", "name": "ab7e1db6282c0c302f15c2713980f0b8", "rental_uris": {"android": "https://dc.lft.to/lastmile_qr_scan", "ios": "https://dc.lft.to/lastmile_qr_scan"}, "lon": -77.015136, "fusion_lat": 0.0, "is_disabled": 0, "is_reserved": 0, "lat": 38.958023833333336, "type": "electric_scooter"}, {"fusion_lon": 0.0, "bike_id": "bcff113a9f1266af5b66ca9da4247c6e", "name": "bcff113a9f1266af5b66ca9da4247c6e", "rental_uris": {"android": "https://dc.lft.to/lastmile_qr_scan", "ios": "https://dc.lft.to/lastmile_qr_scan"}, "lon": -77.03721266666666, "fusion_lat": 0.0, "is_disabled": 0, "is_reserved": 0, "lat": 38.91696016666667, "type": "electric_scooter"}, {"fusion_lon": 0.0, "bike_id": "35ae76defaeaaf93b36f82ff473fa923", "name": "35ae76defaeaaf93b36f82ff473fa923", "rental_uris": {"android": "https://dc.lft.to/lastmile_qr_scan", "ios": "https://dc.lft.to/lastmile_qr_scan"}, "lon": -77.02354383333333, "fusion_lat": 0.0, "is_disabled": 0, "is_reserved": 0, "lat": 38.920502666666664, "type": "electric_scooter"}, {"fusion_lon": 0.0, "bike_id": "63af7973471e92b72536748835e1cd4c", "name": "63af7973471e92b72536748835e1cd4c", "rental_uris": {"android": "https://dc.lft.to/lastmile_qr_scan", "ios": "https://dc.lft.to/lastmile_qr_scan"}, "lon": -77.05017316666667, "fusion_lat": 0.0, "is_disabled": 0, "is_reserved": 0, "lat": 38.923464833333334, "type": "electric_scooter"}, {"fusion_lon": 0.0, "bike_id": "8a478b62048671bd4f9e369161e66c47", "name": "8a478b62048671bd4f9e369161e66c47", "rental_uris": {"android": "https://dc.lft.to/lastmile_qr_scan", "ios": "https://dc.lft.to/lastmile_qr_scan"}, "lon": -77.00787333333334, "fusion_lat": 0.0, "is_disabled": 0, "is_reserved": 0, "lat": 38.876392833333334, "type": "electric_scooter"}, {"fusion_lon": 0.0, "bike_id": "732c4c8f63630131c348522b594be5ed", "name": "732c4c8f63630131c348522b594be5ed", "rental_uris": {"android": "https://dc.lft.to/lastmile_qr_scan", "ios": "https://dc.lft.to/lastmile_qr_scan"}, "lon": -76.92576483333333, "fusion_lat": 0.0, "is_disabled": 0, "is_reserved": 0, "lat": 38.897757166666665, "type": "electric_scooter"}, {"fusion_lon": 0.0, "bike_id": "a421fe9172c8e16eff196f13f12649b8", "name": "a421fe9172c8e16eff196f13f12649b8", "rental_uris": {"android": "https://dc.lft.to/lastmile_qr_scan", "ios": "https://dc.lft.to/lastmile_qr_scan"}, "lon": -77.04143733333333, "fusion_lat": 0.0, "is_disabled": 0, "is_reserved": 0, "lat": 38.906192, "type": "electric_scooter"}, {"fusion_lon": 0.0, "bike_id": "8e4dfd8e78c8a2d9be55dc15745086ae", "name": "8e4dfd8e78c8a2d9be55dc15745086ae", "rental_uris": {"android": "https://dc.lft.to/lastmile_qr_scan", "ios": "https://dc.lft.to/lastmile_qr_scan"}, "lon": -77.03272533333333, "fusion_lat": 0.0, "is_disabled": 0, "is_reserved": 0, "lat": 38.93971616666666, "type": "electric_scooter"}, {"fusion_lon": 0.0, "bike_id": "b8327afa882f611be706ddb75000a08d", "name": "b8327afa882f611be706ddb75000a08d", "rental_uris": {"android": "https://dc.lft.to/lastmile_qr_scan", "ios": "https://dc.lft.to/lastmile_qr_scan"}, "lon": -77.0460715, "fusion_lat": 0.0, "is_disabled": 0, "is_reserved": 0, "lat": 38.917264833333334, "type": "electric_scooter"}, {"fusion_lon": 0.0, "bike_id": "5279e704b50469c3c3486849bb0a71ff", "name": "5279e704b50469c3c3486849bb0a71ff", "rental_uris": {"android": "https://dc.lft.to/lastmile_qr_scan", "ios": "https://dc.lft.to/lastmile_qr_scan"}, "lon": -77.048651, "fusion_lat": 0.0, "is_disabled": 0, "is_reserved": 0, "lat": 38.89220916666667, "type": "electric_scooter"}, {"fusion_lon": 0.0, "bike_id": "149e5dd782188146554e77d519f8f402", "name": "149e5dd782188146554e77d519f8f402", "rental_uris": {"android": "https://dc.lft.to/lastmile_qr_scan", "ios": "https://dc.lft.to/lastmile_qr_scan"}, "lon": -76.98655666666667, "fusion_lat": 0.0, "is_disabled": 0, "is_reserved": 0, "lat": 38.893563666666665, "type": "electric_scooter"}, {"fusion_lon": 0.0, "bike_id": "a6092db48080678a72f807e023739586", "name": "a6092db48080678a72f807e023739586", "rental_uris": {"android": "https://dc.lft.to/lastmile_qr_scan", "ios": "https://dc.lft.to/lastmile_qr_scan"}, "lon": -77.00037183333333, "fusion_lat": 0.0, "is_disabled": 0, "is_reserved": 0, "lat": 38.8751435, "type": "electric_scooter"}, {"fusion_lon": 0.0, "bike_id": "0c321a32b2acbb6abc89fd0b3493b5d0", "name": "0c321a32b2acbb6abc89fd0b3493b5d0", "rental_uris": {"android": "https://dc.lft.to/lastmile_qr_scan", "ios": "https://dc.lft.to/lastmile_qr_scan"}, "lon": -77.04866466666667, "fusion_lat": 0.0, "is_disabled": 0, "is_reserved": 0, "lat": 38.909618, "type": "electric_scooter"}, {"fusion_lon": 0.0, "bike_id": "fd10521f4d57eb386cc2d8604560bce7", "name": "fd10521f4d57eb386cc2d8604560bce7", "rental_uris": {"android": "https://dc.lft.to/lastmile_qr_scan", "ios": "https://dc.lft.to/lastmile_qr_scan"}, "lon": -77.01922466666667, "fusion_lat": 0.0, "is_disabled": 0, "is_reserved": 0, "lat": 38.92271083333333, "type": "electric_scooter"}, {"fusion_lon": 0.0, "bike_id": "30a698a97b7b6d17156fc0eb58e4a799", "name": "30a698a97b7b6d17156fc0eb58e4a799", "rental_uris": {"android": "https://dc.lft.to/lastmile_qr_scan", "ios": "https://dc.lft.to/lastmile_qr_scan"}, "lon": -77.00734083333333, "fusion_lat": 0.0, "is_disabled": 0, "is_reserved": 0, "lat": 38.87662816666667, "type": "electric_scooter"}, {"fusion_lon": 0.0, "bike_id": "a0147df30ddbeba0d60f1ee41afc5235", "name": "a0147df30ddbeba0d60f1ee41afc5235", "rental_uris": {"android": "https://dc.lft.to/lastmile_qr_scan", "ios": "https://dc.lft.to/lastmile_qr_scan"}, "lon": -77.0255945, "fusion_lat": 0.0, "is_disabled": 0, "is_reserved": 0, "lat": 38.93085216666667, "type": "electric_scooter"}, {"fusion_lon": 0.0, "bike_id": "7d153d945b5fdeb3760cc75580cab8d4", "name": "7d153d945b5fdeb3760cc75580cab8d4", "rental_uris": {"android": "https://dc.lft.to/lastmile_qr_scan", "ios": "https://dc.lft.to/lastmile_qr_scan"}, "lon": -77.043185, "fusion_lat": 0.0, "is_disabled": 0, "is_reserved": 0, "lat": 38.92369216666667, "type": "electric_scooter"}, {"fusion_lon": 0.0, "bike_id": "6191dcf69b57c1df5f2215c72a7be724", "name": "6191dcf69b57c1df5f2215c72a7be724", "rental_uris": {"android": "https://dc.lft.to/lastmile_qr_scan", "ios": "https://dc.lft.to/lastmile_qr_scan"}, "lon": -77.04125183333333, "fusion_lat": 0.0, "is_disabled": 0, "is_reserved": 0, "lat": 38.921409833333335, "type": "electric_scooter"}, {"fusion_lon": 0.0, "bike_id": "978bf42e626a525cfa944dc2026ab670", "name": "978bf42e626a525cfa944dc2026ab670", "rental_uris": {"android": "https://dc.lft.to/lastmile_qr_scan", "ios": "https://dc.lft.to/lastmile_qr_scan"}, "lon": -77.00609866666667, "fusion_lat": 0.0, "is_disabled": 0, "is_reserved": 0, "lat": 38.906281, "type": "electric_scooter"}, {"fusion_lon": 0.0, "bike_id": "ee59f1126c69e3a16e3e6e557fb801df", "name": "ee59f1126c69e3a16e3e6e557fb801df", "rental_uris": {"android": "https://dc.lft.to/lastmile_qr_scan", "ios": "https://dc.lft.to/lastmile_qr_scan"}, "lon": -77.03349366666667, "fusion_lat": 0.0, "is_disabled": 0, "is_reserved": 0, "lat": 38.8953335, "type": "electric_scooter"}, {"fusion_lon": 0.0, "bike_id": "9954bc0bf9cb19b71598f23d0d063e39", "name": "9954bc0bf9cb19b71598f23d0d063e39", "rental_uris": {"android": "https://dc.lft.to/lastmile_qr_scan", "ios": "https://dc.lft.to/lastmile_qr_scan"}, "lon": -77.04644166666667, "fusion_lat": 0.0, "is_disabled": 0, "is_reserved": 0, "lat": 38.8995895, "type": "electric_scooter"}, {"fusion_lon": 0.0, "bike_id": "d5e3c671a9b314010006474ba6fb4245", "name": "d5e3c671a9b314010006474ba6fb4245", "rental_uris": {"android": "https://dc.lft.to/lastmile_qr_scan", "ios": "https://dc.lft.to/lastmile_qr_scan"}, "lon": -77.04650933333333, "fusion_lat": 0.0, "is_disabled": 0, "is_reserved": 0, "lat": 38.892304833333334, "type": "electric_scooter"}, {"fusion_lon": 0.0, "bike_id": "96ba20217f369c61c9db42c95447777a", "name": "96ba20217f369c61c9db42c95447777a", "rental_uris": {"android": "https://dc.lft.to/lastmile_qr_scan", "ios": "https://dc.lft.to/lastmile_qr_scan"}, "lon": -77.04052583333333, "fusion_lat": 0.0, "is_disabled": 0, "is_reserved": 0, "lat": 38.91760433333334, "type": "electric_scooter"}, {"fusion_lon": 0.0, "bike_id": "4a445d936423e2962bca27f58a4692be", "name": "4a445d936423e2962bca27f58a4692be", "rental_uris": {"android": "https://dc.lft.to/lastmile_qr_scan", "ios": "https://dc.lft.to/lastmile_qr_scan"}, "lon": -76.97957566666666, "fusion_lat": 0.0, "is_disabled": 0, "is_reserved": 0, "lat": 38.892260666666665, "type": "electric_scooter"}, {"fusion_lon": 0.0, "bike_id": "baeae9663a6f11975bbe590f88c26be9", "name": "baeae9663a6f11975bbe590f88c26be9", "rental_uris": {"android": "https://dc.lft.to/lastmile_qr_scan", "ios": "https://dc.lft.to/lastmile_qr_scan"}, "lon": -76.98360583333333, "fusion_lat": 0.0, "is_disabled": 0, "is_reserved": 0, "lat": 38.88729583333333, "type": "electric_scooter"}, {"fusion_lon": 0.0, "bike_id": "6ea4a3ea9e0f8b26a2c4ee778d613eeb", "name": "6ea4a3ea9e0f8b26a2c4ee778d613eeb", "rental_uris": {"android": "https://dc.lft.to/lastmile_qr_scan", "ios": "https://dc.lft.to/lastmile_qr_scan"}, "lon": -77.02200583333334, "fusion_lat": 0.0, "is_disabled": 0, "is_reserved": 0, "lat": 38.9110485, "type": "electric_scooter"}, {"fusion_lon": 0.0, "bike_id": "f6a5ec32a44548baf6972449d36e534d", "name": "f6a5ec32a44548baf6972449d36e534d", "rental_uris": {"android": "https://dc.lft.to/lastmile_qr_scan", "ios": "https://dc.lft.to/lastmile_qr_scan"}, "lon": -77.07464716666667, "fusion_lat": 0.0, "is_disabled": 0, "is_reserved": 0, "lat": 38.93563433333333, "type": "electric_scooter"}, {"fusion_lon": 0.0, "bike_id": "4b00c97ba8cf22b7c378e9bf44c0d6c3", "name": "4b00c97ba8cf22b7c378e9bf44c0d6c3", "rental_uris": {"android": "https://dc.lft.to/lastmile_qr_scan", "ios": "https://dc.lft.to/lastmile_qr_scan"}, "lon": -77.0435885, "fusion_lat": 0.0, "is_disabled": 0, "is_reserved": 0, "lat": 38.9053825, "type": "electric_scooter"}, {"fusion_lon": 0.0, "bike_id": "965f4fe79118c23bec2535be3306de7b", "name": "965f4fe79118c23bec2535be3306de7b", "rental_uris": {"android": "https://dc.lft.to/lastmile_qr_scan", "ios": "https://dc.lft.to/lastmile_qr_scan"}, "lon": -77.07124033333334, "fusion_lat": 0.0, "is_disabled": 0, "is_reserved": 0, "lat": 38.919744666666666, "type": "electric_scooter"}, {"fusion_lon": 0.0, "bike_id": "574d8cf0abe5b09bc2d00d3b7c10bb78", "name": "574d8cf0abe5b09bc2d00d3b7c10bb78", "rental_uris": {"android": "https://dc.lft.to/lastmile_qr_scan", "ios": "https://dc.lft.to/lastmile_qr_scan"}, "lon": -76.97779133333333, "fusion_lat": 0.0, "is_disabled": 0, "is_reserved": 0, "lat": 38.8572545, "type": "electric_bike"}, {"fusion_lon": 0.0, "bike_id": "645b2d1f2e9358fed212adca18c2886a", "name": "645b2d1f2e9358fed212adca18c2886a", "rental_uris": {"android": "https://dc.lft.to/lastmile_qr_scan", "ios": "https://dc.lft.to/lastmile_qr_scan"}, "lon": -77.04234816666667, "fusion_lat": 0.0, "is_disabled": 0, "is_reserved": 0, "lat": 38.9119105, "type": "electric_scooter"}, {"fusion_lon": 0.0, "bike_id": "e28fad794c2d3b62c2aeaac0934fd4c4", "name": "e28fad794c2d3b62c2aeaac0934fd4c4", "rental_uris": {"android": "https://dc.lft.to/lastmile_qr_scan", "ios": "https://dc.lft.to/lastmile_qr_scan"}, "lon": -77.039324, "fusion_lat": 0.0, "is_disabled": 0, "is_reserved": 0, "lat": 38.918168666666666, "type": "electric_scooter"}, {"fusion_lon": 0.0, "bike_id": "cd9390c900e280f41801c1e2bb901617", "name": "cd9390c900e280f41801c1e2bb901617", "rental_uris": {"android": "https://dc.lft.to/lastmile_qr_scan", "ios": "https://dc.lft.to/lastmile_qr_scan"}, "lon": -77.0216535, "fusion_lat": 0.0, "is_disabled": 0, "is_reserved": 0, "lat": 38.90352566666667, "type": "electric_scooter"}, {"fusion_lon": 0.0, "bike_id": "442c7a5e71d77c7553851b00f335ffe4", "name": "442c7a5e71d77c7553851b00f335ffe4", "rental_uris": {"android": "https://dc.lft.to/lastmile_qr_scan", "ios": "https://dc.lft.to/lastmile_qr_scan"}, "lon": -77.03634583333333, "fusion_lat": 0.0, "is_disabled": 0, "is_reserved": 0, "lat": 38.93768566666667, "type": "electric_bike"}, {"fusion_lon": 0.0, "bike_id": "1f86de830a18d05da9d9962cc2476465", "name": "1f86de830a18d05da9d9962cc2476465", "rental_uris": {"android": "https://dc.lft.to/lastmile_qr_scan", "ios": "https://dc.lft.to/lastmile_qr_scan"}, "lon": -77.03890933333334, "fusion_lat": 0.0, "is_disabled": 0, "is_reserved": 0, "lat": 38.903740666666664, "type": "electric_scooter"}, {"fusion_lon": 0.0, "bike_id": "911c8bfd5f2c6b60d8cddc41435c023d", "name": "911c8bfd5f2c6b60d8cddc41435c023d", "rental_uris": {"android": "https://dc.lft.to/lastmile_qr_scan", "ios": "https://dc.lft.to/lastmile_qr_scan"}, "lon": -77.021365, "fusion_lat": 0.0, "is_disabled": 0, "is_reserved": 0, "lat": 38.89989116666667, "type": "electric_scooter"}, {"fusion_lon": 0.0, "bike_id": "38ef319856595885e1cad547d24010e5", "name": "38ef319856595885e1cad547d24010e5", "rental_uris": {"android": "https://dc.lft.to/lastmile_qr_scan", "ios": "https://dc.lft.to/lastmile_qr_scan"}, "lon": -77.03673733333333, "fusion_lat": 0.0, "is_disabled": 0, "is_reserved": 0, "lat": 38.939272833333334, "type": "electric_scooter"}, {"fusion_lon": 0.0, "bike_id": "26085adc3694d3f81733a124d0509407", "name": "26085adc3694d3f81733a124d0509407", "rental_uris": {"android": "https://dc.lft.to/lastmile_qr_scan", "ios": "https://dc.lft.to/lastmile_qr_scan"}, "lon": -77.18305483333333, "fusion_lat": 0.0, "is_disabled": 0, "is_reserved": 0, "lat": 39.099739166666666, "type": "electric_bike"}, {"fusion_lon": 0.0, "bike_id": "f70dad0c77b546bec4bbe9b82a9a40ca", "name": "f70dad0c77b546bec4bbe9b82a9a40ca", "rental_uris": {"android": "https://dc.lft.to/lastmile_qr_scan", "ios": "https://dc.lft.to/lastmile_qr_scan"}, "lon": -77.0188885, "fusion_lat": 0.0, "is_disabled": 0, "is_reserved": 0, "lat": 38.90352766666667, "type": "electric_scooter"}, {"fusion_lon": 0.0, "bike_id": "c0d99547d25578ea107bfcbc3901e5ad", "name": "c0d99547d25578ea107bfcbc3901e5ad", "rental_uris": {"android": "https://dc.lft.to/lastmile_qr_scan", "ios": "https://dc.lft.to/lastmile_qr_scan"}, "lon": -77.12072783333333, "fusion_lat": 0.0, "is_disabled": 0, "is_reserved": 0, "lat": 39.062064666666664, "type": "electric_bike"}, {"fusion_lon": 0.0, "bike_id": "df58d2720646531448c8e3b4634d2aff", "name": "df58d2720646531448c8e3b4634d2aff", "rental_uris": {"android": "https://dc.lft.to/lastmile_qr_scan", "ios": "https://dc.lft.to/lastmile_qr_scan"}, "lon": -77.02207483333333, "fusion_lat": 0.0, "is_disabled": 0, "is_reserved": 0, "lat": 38.92170566666667, "type": "electric_scooter"}, {"fusion_lon": 0.0, "bike_id": "501aa147dd0d79c2423868057333d404", "name": "501aa147dd0d79c2423868057333d404", "rental_uris": {"android": "https://dc.lft.to/lastmile_qr_scan", "ios": "https://dc.lft.to/lastmile_qr_scan"}, "lon": -76.93736433333333, "fusion_lat": 0.0, "is_disabled": 0, "is_reserved": 0, "lat": 38.890181, "type": "electric_scooter"}, {"fusion_lon": 0.0, "bike_id": "fe296afd5ac303e6a4b2314227298413", "name": "fe296afd5ac303e6a4b2314227298413", "rental_uris": {"android": "https://dc.lft.to/lastmile_qr_scan", "ios": "https://dc.lft.to/lastmile_qr_scan"}, "lon": -77.00308916666667, "fusion_lat": 0.0, "is_disabled": 0, "is_reserved": 0, "lat": 38.8922865, "type": "electric_scooter"}, {"fusion_lon": 0.0, "bike_id": "c38ba4f32895aa2994471bdfb4e496a9", "name": "c38ba4f32895aa2994471bdfb4e496a9", "rental_uris": {"android": "https://dc.lft.to/lastmile_qr_scan", "ios": "https://dc.lft.to/lastmile_qr_scan"}, "lon": -77.02540966666666, "fusion_lat": 0.0, "is_disabled": 0, "is_reserved": 0, "lat": 38.907313, "type": "electric_scooter"}, {"fusion_lon": 0.0, "bike_id": "cdf5b24ea3969f19fe9a86283e80389f", "name": "cdf5b24ea3969f19fe9a86283e80389f", "rental_uris": {"android": "https://dc.lft.to/lastmile_qr_scan", "ios": "https://dc.lft.to/lastmile_qr_scan"}, "lon": -77.03828383333334, "fusion_lat": 0.0, "is_disabled": 0, "is_reserved": 0, "lat": 38.9125785, "type": "electric_scooter"}, {"fusion_lon": 0.0, "bike_id": "224486438b43685f9ff854dc825e9bc4", "name": "224486438b43685f9ff854dc825e9bc4", "rental_uris": {"android": "https://dc.lft.to/lastmile_qr_scan", "ios": "https://dc.lft.to/lastmile_qr_scan"}, "lon": -76.93751183333333, "fusion_lat": 0.0, "is_disabled": 0, "is_reserved": 0, "lat": 38.8900675, "type": "electric_scooter"}, {"fusion_lon": 0.0, "bike_id": "4927447a96d565f50757e3c13f1b2cfe", "name": "4927447a96d565f50757e3c13f1b2cfe", "rental_uris": {"android": "https://dc.lft.to/lastmile_qr_scan", "ios": "https://dc.lft.to/lastmile_qr_scan"}, "lon": -77.02959633333333, "fusion_lat": 0.0, "is_disabled": 0, "is_reserved": 0, "lat": 38.93229816666667, "type": "electric_scooter"}, {"fusion_lon": 0.0, "bike_id": "8775caeb0a0210a1a1e19bd47b1ac392", "name": "8775caeb0a0210a1a1e19bd47b1ac392", "rental_uris": {"android": "https://dc.lft.to/lastmile_qr_scan", "ios": "https://dc.lft.to/lastmile_qr_scan"}, "lon": -77.03328416666666, "fusion_lat": 0.0, "is_disabled": 0, "is_reserved": 0, "lat": 38.896455333333336, "type": "electric_scooter"}, {"fusion_lon": 0.0, "bike_id": "43d8c5befd80e0385ca46564c860db08", "name": "43d8c5befd80e0385ca46564c860db08", "rental_uris": {"android": "https://dc.lft.to/lastmile_qr_scan", "ios": "https://dc.lft.to/lastmile_qr_scan"}, "lon": -77.04897116666666, "fusion_lat": 0.0, "is_disabled": 0, "is_reserved": 0, "lat": 38.903999666666664, "type": "electric_scooter"}, {"fusion_lon": 0.0, "bike_id": "f9c3517e3decd083b619f4e6e336fc06", "name": "f9c3517e3decd083b619f4e6e336fc06", "rental_uris": {"android": "https://dc.lft.to/lastmile_qr_scan", "ios": "https://dc.lft.to/lastmile_qr_scan"}, "lon": -77.02973116666666, "fusion_lat": 0.0, "is_disabled": 0, "is_reserved": 0, "lat": 38.88556616666666, "type": "electric_scooter"}, {"fusion_lon": 0.0, "bike_id": "6b8b10467718fca66932315512bef4df", "name": "6b8b10467718fca66932315512bef4df", "rental_uris": {"android": "https://dc.lft.to/lastmile_qr_scan", "ios": "https://dc.lft.to/lastmile_qr_scan"}, "lon": -76.98513633333333, "fusion_lat": 0.0, "is_disabled": 0, "is_reserved": 0, "lat": 38.86889766666667, "type": "electric_bike"}, {"fusion_lon": 0.0, "bike_id": "aae4d468a799947eacedfab0eb08af96", "name": "aae4d468a799947eacedfab0eb08af96", "rental_uris": {"android": "https://dc.lft.to/lastmile_qr_scan", "ios": "https://dc.lft.to/lastmile_qr_scan"}, "lon": -76.98549033333333, "fusion_lat": 0.0, "is_disabled": 0, "is_reserved": 0, "lat": 38.899794666666665, "type": "electric_scooter"}, {"fusion_lon": 0.0, "bike_id": "fa65fcb025696165be053cddc5a031c2", "name": "fa65fcb025696165be053cddc5a031c2", "rental_uris": {"android": "https://dc.lft.to/lastmile_qr_scan", "ios": "https://dc.lft.to/lastmile_qr_scan"}, "lon": -77.0446695, "fusion_lat": 0.0, "is_disabled": 0, "is_reserved": 0, "lat": 38.91851316666666, "type": "electric_scooter"}, {"fusion_lon": 0.0, "bike_id": "faeab4f7dd031e1cbb96c72f1c805fcb", "name": "faeab4f7dd031e1cbb96c72f1c805fcb", "rental_uris": {"android": "https://dc.lft.to/lastmile_qr_scan", "ios": "https://dc.lft.to/lastmile_qr_scan"}, "lon": -76.99643233333333, "fusion_lat": 0.0, "is_disabled": 0, "is_reserved": 0, "lat": 38.90009166666667, "type": "electric_scooter"}, {"fusion_lon": 0.0, "bike_id": "7ff64fa01a6a03c83eb41297f4594a5e", "name": "7ff64fa01a6a03c83eb41297f4594a5e", "rental_uris": {"android": "https://dc.lft.to/lastmile_qr_scan", "ios": "https://dc.lft.to/lastmile_qr_scan"}, "lon": -77.03425216666666, "fusion_lat": 0.0, "is_disabled": 0, "is_reserved": 0, "lat": 38.93540516666667, "type": "electric_scooter"}, {"fusion_lon": 0.0, "bike_id": "d662571b6aa91fc08b3775a81119bc7d", "name": "d662571b6aa91fc08b3775a81119bc7d", "rental_uris": {"android": "https://dc.lft.to/lastmile_qr_scan", "ios": "https://dc.lft.to/lastmile_qr_scan"}, "lon": -77.0400455, "fusion_lat": 0.0, "is_disabled": 0, "is_reserved": 0, "lat": 38.93431866666667, "type": "electric_scooter"}, {"fusion_lon": 0.0, "bike_id": "7960af64a575b7517a98effa7f78a149", "name": "7960af64a575b7517a98effa7f78a149", "rental_uris": {"android": "https://dc.lft.to/lastmile_qr_scan", "ios": "https://dc.lft.to/lastmile_qr_scan"}, "lon": -77.13722633333333, "fusion_lat": 0.0, "is_disabled": 0, "is_reserved": 0, "lat": 39.079814, "type": "electric_bike"}, {"fusion_lon": 0.0, "bike_id": "39bdfeeb758b694d32a05039a91952e5", "name": "39bdfeeb758b694d32a05039a91952e5", "rental_uris": {"android": "https://dc.lft.to/lastmile_qr_scan", "ios": "https://dc.lft.to/lastmile_qr_scan"}, "lon": -77.048528, "fusion_lat": 0.0, "is_disabled": 0, "is_reserved": 0, "lat": 38.919639333333336, "type": "electric_scooter"}, {"fusion_lon": 0.0, "bike_id": "795c45e265b6e8e8c4826cca348138d8", "name": "795c45e265b6e8e8c4826cca348138d8", "rental_uris": {"android": "https://dc.lft.to/lastmile_qr_scan", "ios": "https://dc.lft.to/lastmile_qr_scan"}, "lon": -76.99843166666666, "fusion_lat": 0.0, "is_disabled": 0, "is_reserved": 0, "lat": 38.83860716666667, "type": "electric_scooter"}, {"fusion_lon": 0.0, "bike_id": "3293a18bb203df3eb40f29f6cec7d3fb", "name": "3293a18bb203df3eb40f29f6cec7d3fb", "rental_uris": {"android": "https://dc.lft.to/lastmile_qr_scan", "ios": "https://dc.lft.to/lastmile_qr_scan"}, "lon": -77.04454983333333, "fusion_lat": 0.0, "is_disabled": 0, "is_reserved": 0, "lat": 38.909695666666664, "type": "electric_scooter"}, {"fusion_lon": 0.0, "bike_id": "e577f7ad5b4e14d2d191d0e727f40154", "name": "e577f7ad5b4e14d2d191d0e727f40154", "rental_uris": {"android": "https://dc.lft.to/lastmile_qr_scan", "ios": "https://dc.lft.to/lastmile_qr_scan"}, "lon": -77.04544866666667, "fusion_lat": 0.0, "is_disabled": 0, "is_reserved": 0, "lat": 38.9112095, "type": "electric_scooter"}, {"fusion_lon": 0.0, "bike_id": "da9f167ba3c6e9ce29d940eb59905573", "name": "da9f167ba3c6e9ce29d940eb59905573", "rental_uris": {"android": "https://dc.lft.to/lastmile_qr_scan", "ios": "https://dc.lft.to/lastmile_qr_scan"}, "lon": -77.022026, "fusion_lat": 0.0, "is_disabled": 0, "is_reserved": 0, "lat": 38.89416666666666, "type": "electric_scooter"}, {"fusion_lon": 0.0, "bike_id": "f36272007d3ec186d0702eebf1a16fc3", "name": "f36272007d3ec186d0702eebf1a16fc3", "rental_uris": {"android": "https://dc.lft.to/lastmile_qr_scan", "ios": "https://dc.lft.to/lastmile_qr_scan"}, "lon": -77.0450425, "fusion_lat": 0.0, "is_disabled": 0, "is_reserved": 0, "lat": 38.90022883333334, "type": "electric_scooter"}, {"fusion_lon": 0.0, "bike_id": "2dfc2adfc2b397e66849a5530c9ec13e", "name": "2dfc2adfc2b397e66849a5530c9ec13e", "rental_uris": {"android": "https://dc.lft.to/lastmile_qr_scan", "ios": "https://dc.lft.to/lastmile_qr_scan"}, "lon": -77.02096783333333, "fusion_lat": 0.0, "is_disabled": 0, "is_reserved": 0, "lat": 38.910110333333336, "type": "electric_scooter"}, {"fusion_lon": 0.0, "bike_id": "29ac6875a76331a6be899d9e11df0c0e", "name": "29ac6875a76331a6be899d9e11df0c0e", "rental_uris": {"android": "https://dc.lft.to/lastmile_qr_scan", "ios": "https://dc.lft.to/lastmile_qr_scan"}, "lon": -77.00564916666667, "fusion_lat": 0.0, "is_disabled": 0, "is_reserved": 0, "lat": 38.87561683333333, "type": "electric_scooter"}, {"fusion_lon": 0.0, "bike_id": "b4141892e6299a80ebba6aaa7ca88f0e", "name": "b4141892e6299a80ebba6aaa7ca88f0e", "rental_uris": {"android": "https://dc.lft.to/lastmile_qr_scan", "ios": "https://dc.lft.to/lastmile_qr_scan"}, "lon": -77.00932866666666, "fusion_lat": 0.0, "is_disabled": 0, "is_reserved": 0, "lat": 38.89610033333334, "type": "electric_scooter"}, {"fusion_lon": 0.0, "bike_id": "53ccb0a07c4dbaffca81789748bea40a", "name": "53ccb0a07c4dbaffca81789748bea40a", "rental_uris": {"android": "https://dc.lft.to/lastmile_qr_scan", "ios": "https://dc.lft.to/lastmile_qr_scan"}, "lon": -76.973341, "fusion_lat": 0.0, "is_disabled": 0, "is_reserved": 0, "lat": 38.904116, "type": "electric_scooter"}, {"fusion_lon": 0.0, "bike_id": "bea35df3498b4466484ed14a365685d9", "name": "bea35df3498b4466484ed14a365685d9", "rental_uris": {"android": "https://dc.lft.to/lastmile_qr_scan", "ios": "https://dc.lft.to/lastmile_qr_scan"}, "lon": -77.0258835, "fusion_lat": 0.0, "is_disabled": 0, "is_reserved": 0, "lat": 38.918172166666665, "type": "electric_scooter"}, {"fusion_lon": 0.0, "bike_id": "343607cc3a6f681f88382edeac425e37", "name": "343607cc3a6f681f88382edeac425e37", "rental_uris": {"android": "https://dc.lft.to/lastmile_qr_scan", "ios": "https://dc.lft.to/lastmile_qr_scan"}, "lon": -77.0213435, "fusion_lat": 0.0, "is_disabled": 0, "is_reserved": 0, "lat": 38.92493783333333, "type": "electric_scooter"}, {"fusion_lon": 0.0, "bike_id": "63745f3561591a87e44ad28cc2773f2e", "name": "63745f3561591a87e44ad28cc2773f2e", "rental_uris": {"android": "https://dc.lft.to/lastmile_qr_scan", "ios": "https://dc.lft.to/lastmile_qr_scan"}, "lon": -77.05002983333334, "fusion_lat": 0.0, "is_disabled": 0, "is_reserved": 0, "lat": 38.89231183333333, "type": "electric_scooter"}, {"fusion_lon": 0.0, "bike_id": "0e3565ef6efe8d0a52493b76ed640b47", "name": "0e3565ef6efe8d0a52493b76ed640b47", "rental_uris": {"android": "https://dc.lft.to/lastmile_qr_scan", "ios": "https://dc.lft.to/lastmile_qr_scan"}, "lon": -77.02196666666667, "fusion_lat": 0.0, "is_disabled": 0, "is_reserved": 0, "lat": 38.90523983333333, "type": "electric_scooter"}, {"fusion_lon": 0.0, "bike_id": "1e6d7e808c9214e7d8d1d581a29c9c64", "name": "1e6d7e808c9214e7d8d1d581a29c9c64", "rental_uris": {"android": "https://dc.lft.to/lastmile_qr_scan", "ios": "https://dc.lft.to/lastmile_qr_scan"}, "lon": -77.031586, "fusion_lat": 0.0, "is_disabled": 0, "is_reserved": 0, "lat": 38.9203605, "type": "electric_scooter"}, {"fusion_lon": 0.0, "bike_id": "3aa631f427c0a7d3c9312f69e1032626", "name": "3aa631f427c0a7d3c9312f69e1032626", "rental_uris": {"android": "https://dc.lft.to/lastmile_qr_scan", "ios": "https://dc.lft.to/lastmile_qr_scan"}, "lon": -77.04056433333334, "fusion_lat": 0.0, "is_disabled": 0, "is_reserved": 0, "lat": 38.9175635, "type": "electric_scooter"}, {"fusion_lon": 0.0, "bike_id": "28e4e1fc1ba1b4fcc104ea4ddc9c3ed4", "name": "28e4e1fc1ba1b4fcc104ea4ddc9c3ed4", "rental_uris": {"android": "https://dc.lft.to/lastmile_qr_scan", "ios": "https://dc.lft.to/lastmile_qr_scan"}, "lon": -76.99902416666667, "fusion_lat": 0.0, "is_disabled": 0, "is_reserved": 0, "lat": 38.843405833333335, "type": "electric_scooter"}, {"fusion_lon": 0.0, "bike_id": "79a588e43d005204b5c7564a38cbc124", "name": "79a588e43d005204b5c7564a38cbc124", "rental_uris": {"android": "https://dc.lft.to/lastmile_qr_scan", "ios": "https://dc.lft.to/lastmile_qr_scan"}, "lon": -77.03820166666667, "fusion_lat": 0.0, "is_disabled": 0, "is_reserved": 0, "lat": 38.918967333333335, "type": "electric_scooter"}, {"fusion_lon": 0.0, "bike_id": "b65180fff6455f2e40659917219ae83e", "name": "b65180fff6455f2e40659917219ae83e", "rental_uris": {"android": "https://dc.lft.to/lastmile_qr_scan", "ios": "https://dc.lft.to/lastmile_qr_scan"}, "lon": -76.93494966666667, "fusion_lat": 0.0, "is_disabled": 0, "is_reserved": 0, "lat": 38.88339233333333, "type": "electric_scooter"}, {"fusion_lon": 0.0, "bike_id": "0af98d34a333747fd9d3dcff81765182", "name": "0af98d34a333747fd9d3dcff81765182", "rental_uris": {"android": "https://dc.lft.to/lastmile_qr_scan", "ios": "https://dc.lft.to/lastmile_qr_scan"}, "lon": -77.0473975, "fusion_lat": 0.0, "is_disabled": 0, "is_reserved": 0, "lat": 38.91263583333333, "type": "electric_scooter"}, {"fusion_lon": 0.0, "bike_id": "804babd5e23eedc1d2564538dde771b6", "name": "804babd5e23eedc1d2564538dde771b6", "rental_uris": {"android": "https://dc.lft.to/lastmile_qr_scan", "ios": "https://dc.lft.to/lastmile_qr_scan"}, "lon": -76.97328983333334, "fusion_lat": 0.0, "is_disabled": 0, "is_reserved": 0, "lat": 38.904135, "type": "electric_scooter"}, {"fusion_lon": 0.0, "bike_id": "556d85e54ec5f619c84037b0c8eb5dc0", "name": "556d85e54ec5f619c84037b0c8eb5dc0", "rental_uris": {"android": "https://dc.lft.to/lastmile_qr_scan", "ios": "https://dc.lft.to/lastmile_qr_scan"}, "lon": -77.01981016666667, "fusion_lat": 0.0, "is_disabled": 0, "is_reserved": 0, "lat": 38.894096166666664, "type": "electric_scooter"}, {"fusion_lon": 0.0, "bike_id": "cb7af2edcb0c148b22e348025373072b", "name": "cb7af2edcb0c148b22e348025373072b", "rental_uris": {"android": "https://dc.lft.to/lastmile_qr_scan", "ios": "https://dc.lft.to/lastmile_qr_scan"}, "lon": -77.03176216666667, "fusion_lat": 0.0, "is_disabled": 0, "is_reserved": 0, "lat": 38.93611966666667, "type": "electric_scooter"}, {"fusion_lon": 0.0, "bike_id": "11fdba6f38a16645acfb769490d7c88b", "name": "11fdba6f38a16645acfb769490d7c88b", "rental_uris": {"android": "https://dc.lft.to/lastmile_qr_scan", "ios": "https://dc.lft.to/lastmile_qr_scan"}, "lon": -77.03473816666667, "fusion_lat": 0.0, "is_disabled": 0, "is_reserved": 0, "lat": 38.8849195, "type": "electric_scooter"}, {"fusion_lon": 0.0, "bike_id": "914855a07ef5e9df7df85de38ac00199", "name": "914855a07ef5e9df7df85de38ac00199", "rental_uris": {"android": "https://dc.lft.to/lastmile_qr_scan", "ios": "https://dc.lft.to/lastmile_qr_scan"}, "lon": -77.048696, "fusion_lat": 0.0, "is_disabled": 0, "is_reserved": 0, "lat": 38.892238666666664, "type": "electric_scooter"}, {"fusion_lon": 0.0, "bike_id": "f81c303a4d2aa23d2a9aa1136756e251", "name": "f81c303a4d2aa23d2a9aa1136756e251", "rental_uris": {"android": "https://dc.lft.to/lastmile_qr_scan", "ios": "https://dc.lft.to/lastmile_qr_scan"}, "lon": -77.02540116666667, "fusion_lat": 0.0, "is_disabled": 0, "is_reserved": 0, "lat": 38.9207965, "type": "electric_scooter"}, {"fusion_lon": 0.0, "bike_id": "f3c850097c859f5854bf41ac5736ead6", "name": "f3c850097c859f5854bf41ac5736ead6", "rental_uris": {"android": "https://dc.lft.to/lastmile_qr_scan", "ios": "https://dc.lft.to/lastmile_qr_scan"}, "lon": -77.0508925, "fusion_lat": 0.0, "is_disabled": 0, "is_reserved": 0, "lat": 38.89953333333333, "type": "electric_scooter"}, {"fusion_lon": 0.0, "bike_id": "d391cc5c4f9d386762585baa8c6240ba", "name": "d391cc5c4f9d386762585baa8c6240ba", "rental_uris": {"android": "https://dc.lft.to/lastmile_qr_scan", "ios": "https://dc.lft.to/lastmile_qr_scan"}, "lon": -77.03528133333333, "fusion_lat": 0.0, "is_disabled": 0, "is_reserved": 0, "lat": 38.90357683333333, "type": "electric_scooter"}, {"fusion_lon": 0.0, "bike_id": "d49b1adf1fa1bead9223a8c250138276", "name": "d49b1adf1fa1bead9223a8c250138276", "rental_uris": {"android": "https://dc.lft.to/lastmile_qr_scan", "ios": "https://dc.lft.to/lastmile_qr_scan"}, "lon": -77.0004985, "fusion_lat": 0.0, "is_disabled": 0, "is_reserved": 0, "lat": 38.873848833333334, "type": "electric_scooter"}, {"fusion_lon": 0.0, "bike_id": "4444e1300a262bbd8601b04372a6ece2", "name": "4444e1300a262bbd8601b04372a6ece2", "rental_uris": {"android": "https://dc.lft.to/lastmile_qr_scan", "ios": "https://dc.lft.to/lastmile_qr_scan"}, "lon": -76.99439383333333, "fusion_lat": 0.0, "is_disabled": 0, "is_reserved": 0, "lat": 38.94178983333333, "type": "electric_scooter"}, {"fusion_lon": 0.0, "bike_id": "4ed3b2ac0fe7704ece08ab552e684115", "name": "4ed3b2ac0fe7704ece08ab552e684115", "rental_uris": {"android": "https://dc.lft.to/lastmile_qr_scan", "ios": "https://dc.lft.to/lastmile_qr_scan"}, "lon": -76.961574, "fusion_lat": 0.0, "is_disabled": 0, "is_reserved": 0, "lat": 38.85622333333333, "type": "electric_bike"}, {"fusion_lon": 0.0, "bike_id": "5d8c02b7934cd1bb93460ef81f1eb0b6", "name": "5d8c02b7934cd1bb93460ef81f1eb0b6", "rental_uris": {"android": "https://dc.lft.to/lastmile_qr_scan", "ios": "https://dc.lft.to/lastmile_qr_scan"}, "lon": -77.07258166666666, "fusion_lat": 0.0, "is_disabled": 0, "is_reserved": 0, "lat": 38.90922116666667, "type": "electric_scooter"}, {"fusion_lon": 0.0, "bike_id": "d31313ca623095a88aff5783d3391025", "name": "d31313ca623095a88aff5783d3391025", "rental_uris": {"android": "https://dc.lft.to/lastmile_qr_scan", "ios": "https://dc.lft.to/lastmile_qr_scan"}, "lon": -77.03584866666667, "fusion_lat": 0.0, "is_disabled": 0, "is_reserved": 0, "lat": 38.9922925, "type": "electric_bike"}, {"fusion_lon": 0.0, "bike_id": "79f7f1613d9b86005d015a8c0e8d9f9c", "name": "79f7f1613d9b86005d015a8c0e8d9f9c", "rental_uris": {"android": "https://dc.lft.to/lastmile_qr_scan", "ios": "https://dc.lft.to/lastmile_qr_scan"}, "lon": -76.99229333333334, "fusion_lat": 0.0, "is_disabled": 0, "is_reserved": 0, "lat": 38.86289266666667, "type": "electric_scooter"}, {"fusion_lon": 0.0, "bike_id": "3addcde9b94213a41825dc67fc930cc8", "name": "3addcde9b94213a41825dc67fc930cc8", "rental_uris": {"android": "https://dc.lft.to/lastmile_qr_scan", "ios": "https://dc.lft.to/lastmile_qr_scan"}, "lon": -77.0211755, "fusion_lat": 0.0, "is_disabled": 0, "is_reserved": 0, "lat": 38.923638833333335, "type": "electric_scooter"}, {"fusion_lon": 0.0, "bike_id": "d04ec0f53d93a0373102cc250d094719", "name": "d04ec0f53d93a0373102cc250d094719", "rental_uris": {"android": "https://dc.lft.to/lastmile_qr_scan", "ios": "https://dc.lft.to/lastmile_qr_scan"}, "lon": -77.0384495, "fusion_lat": 0.0, "is_disabled": 0, "is_reserved": 0, "lat": 38.902851, "type": "electric_scooter"}, {"fusion_lon": 0.0, "bike_id": "5e18dbcdec46b79c245e9f58cdf0cde9", "name": "5e18dbcdec46b79c245e9f58cdf0cde9", "rental_uris": {"android": "https://dc.lft.to/lastmile_qr_scan", "ios": "https://dc.lft.to/lastmile_qr_scan"}, "lon": -77.05035166666667, "fusion_lat": 0.0, "is_disabled": 0, "is_reserved": 0, "lat": 38.89839766666667, "type": "electric_scooter"}, {"fusion_lon": 0.0, "bike_id": "fff557f3c543f917d954b29b3beb2857", "name": "fff557f3c543f917d954b29b3beb2857", "rental_uris": {"android": "https://dc.lft.to/lastmile_qr_scan", "ios": "https://dc.lft.to/lastmile_qr_scan"}, "lon": -76.98089116666667, "fusion_lat": 0.0, "is_disabled": 0, "is_reserved": 0, "lat": 38.86702016666667, "type": "electric_scooter"}, {"fusion_lon": 0.0, "bike_id": "d288d3e2cbf0641e65fd00b47a103aab", "name": "d288d3e2cbf0641e65fd00b47a103aab", "rental_uris": {"android": "https://dc.lft.to/lastmile_qr_scan", "ios": "https://dc.lft.to/lastmile_qr_scan"}, "lon": -77.0795635, "fusion_lat": 0.0, "is_disabled": 0, "is_reserved": 0, "lat": 38.849076333333336, "type": "electric_bike"}, {"fusion_lon": 0.0, "bike_id": "66a12adbc0e4a1fe7337c1bd2d94462d", "name": "66a12adbc0e4a1fe7337c1bd2d94462d", "rental_uris": {"android": "https://dc.lft.to/lastmile_qr_scan", "ios": "https://dc.lft.to/lastmile_qr_scan"}, "lon": -77.01859716666667, "fusion_lat": 0.0, "is_disabled": 0, "is_reserved": 0, "lat": 38.948951666666666, "type": "electric_scooter"}, {"fusion_lon": 0.0, "bike_id": "d995baf3a6457c6c2fdf8ebb84c1bb75", "name": "d995baf3a6457c6c2fdf8ebb84c1bb75", "rental_uris": {"android": "https://dc.lft.to/lastmile_qr_scan", "ios": "https://dc.lft.to/lastmile_qr_scan"}, "lon": -77.04375533333334, "fusion_lat": 0.0, "is_disabled": 0, "is_reserved": 0, "lat": 38.911274666666664, "type": "electric_scooter"}, {"fusion_lon": 0.0, "bike_id": "96041f1ddbb41f9c87b8e2ff92c5aa98", "name": "96041f1ddbb41f9c87b8e2ff92c5aa98", "rental_uris": {"android": "https://dc.lft.to/lastmile_qr_scan", "ios": "https://dc.lft.to/lastmile_qr_scan"}, "lon": -77.0252455, "fusion_lat": 0.0, "is_disabled": 0, "is_reserved": 0, "lat": 38.925958333333334, "type": "electric_scooter"}, {"fusion_lon": 0.0, "bike_id": "c0787e9de2676746753a96407f1afc26", "name": "c0787e9de2676746753a96407f1afc26", "rental_uris": {"android": "https://dc.lft.to/lastmile_qr_scan", "ios": "https://dc.lft.to/lastmile_qr_scan"}, "lon": -76.95562633333333, "fusion_lat": 0.0, "is_disabled": 0, "is_reserved": 0, "lat": 38.927489666666666, "type": "electric_scooter"}, {"fusion_lon": 0.0, "bike_id": "70e4aa1ca7ce9ee002a5ee0811a6af38", "name": "70e4aa1ca7ce9ee002a5ee0811a6af38", "rental_uris": {"android": "https://dc.lft.to/lastmile_qr_scan", "ios": "https://dc.lft.to/lastmile_qr_scan"}, "lon": -77.02591933333333, "fusion_lat": 0.0, "is_disabled": 0, "is_reserved": 0, "lat": 38.91723833333333, "type": "electric_scooter"}, {"fusion_lon": 0.0, "bike_id": "06461358d14902fcd65f28c62e1e83c9", "name": "06461358d14902fcd65f28c62e1e83c9", "rental_uris": {"android": "https://dc.lft.to/lastmile_qr_scan", "ios": "https://dc.lft.to/lastmile_qr_scan"}, "lon": -76.99672233333334, "fusion_lat": 0.0, "is_disabled": 0, "is_reserved": 0, "lat": 38.85659183333333, "type": "electric_scooter"}, {"fusion_lon": 0.0, "bike_id": "a87f8721eab4f68316ac9e8b535bf14c", "name": "a87f8721eab4f68316ac9e8b535bf14c", "rental_uris": {"android": "https://dc.lft.to/lastmile_qr_scan", "ios": "https://dc.lft.to/lastmile_qr_scan"}, "lon": -77.09062666666667, "fusion_lat": 0.0, "is_disabled": 0, "is_reserved": 0, "lat": 38.93445416666667, "type": "electric_scooter"}, {"fusion_lon": 0.0, "bike_id": "cc9f2071c59fa3121ce418c3ab1198be", "name": "cc9f2071c59fa3121ce418c3ab1198be", "rental_uris": {"android": "https://dc.lft.to/lastmile_qr_scan", "ios": "https://dc.lft.to/lastmile_qr_scan"}, "lon": -77.0416295, "fusion_lat": 0.0, "is_disabled": 0, "is_reserved": 0, "lat": 38.899185, "type": "electric_scooter"}, {"fusion_lon": 0.0, "bike_id": "ba76aca11164790e59dbdd4de742f9d4", "name": "ba76aca11164790e59dbdd4de742f9d4", "rental_uris": {"android": "https://dc.lft.to/lastmile_qr_scan", "ios": "https://dc.lft.to/lastmile_qr_scan"}, "lon": -77.04154133333333, "fusion_lat": 0.0, "is_disabled": 0, "is_reserved": 0, "lat": 38.917213833333335, "type": "electric_scooter"}, {"fusion_lon": 0.0, "bike_id": "7ed5e4d25d133b889feae2c349039976", "name": "7ed5e4d25d133b889feae2c349039976", "rental_uris": {"android": "https://dc.lft.to/lastmile_qr_scan", "ios": "https://dc.lft.to/lastmile_qr_scan"}, "lon": -77.23412166666667, "fusion_lat": 0.0, "is_disabled": 0, "is_reserved": 0, "lat": 38.875832, "type": "electric_bike"}, {"fusion_lon": 0.0, "bike_id": "d54fb1be54e972a38b7cb78aa7becb50", "name": "d54fb1be54e972a38b7cb78aa7becb50", "rental_uris": {"android": "https://dc.lft.to/lastmile_qr_scan", "ios": "https://dc.lft.to/lastmile_qr_scan"}, "lon": -77.00347683333334, "fusion_lat": 0.0, "is_disabled": 0, "is_reserved": 0, "lat": 38.89535683333333, "type": "electric_scooter"}, {"fusion_lon": 0.0, "bike_id": "aa4078beb29bd223fc48b71ebc580778", "name": "aa4078beb29bd223fc48b71ebc580778", "rental_uris": {"android": "https://dc.lft.to/lastmile_qr_scan", "ios": "https://dc.lft.to/lastmile_qr_scan"}, "lon": -77.003235, "fusion_lat": 0.0, "is_disabled": 0, "is_reserved": 0, "lat": 38.9084185, "type": "electric_scooter"}, {"fusion_lon": 0.0, "bike_id": "bb85c514c630e6c3a2fe4b30216474b0", "name": "bb85c514c630e6c3a2fe4b30216474b0", "rental_uris": {"android": "https://dc.lft.to/lastmile_qr_scan", "ios": "https://dc.lft.to/lastmile_qr_scan"}, "lon": -77.06028516666667, "fusion_lat": 0.0, "is_disabled": 0, "is_reserved": 0, "lat": 38.903195333333336, "type": "electric_scooter"}, {"fusion_lon": 0.0, "bike_id": "77dd07be0e560b544e64b343c891d8fe", "name": "77dd07be0e560b544e64b343c891d8fe", "rental_uris": {"android": "https://dc.lft.to/lastmile_qr_scan", "ios": "https://dc.lft.to/lastmile_qr_scan"}, "lon": -77.032871, "fusion_lat": 0.0, "is_disabled": 0, "is_reserved": 0, "lat": 38.93264716666667, "type": "electric_scooter"}, {"fusion_lon": 0.0, "bike_id": "1fed5b478c1f0988af3a1d84669aa8f9", "name": "1fed5b478c1f0988af3a1d84669aa8f9", "rental_uris": {"android": "https://dc.lft.to/lastmile_qr_scan", "ios": "https://dc.lft.to/lastmile_qr_scan"}, "lon": -77.046798, "fusion_lat": 0.0, "is_disabled": 0, "is_reserved": 0, "lat": 38.920946666666666, "type": "electric_scooter"}, {"fusion_lon": 0.0, "bike_id": "64584e8404a792d660e3f95abe12c9eb", "name": "64584e8404a792d660e3f95abe12c9eb", "rental_uris": {"android": "https://dc.lft.to/lastmile_qr_scan", "ios": "https://dc.lft.to/lastmile_qr_scan"}, "lon": -77.0365635, "fusion_lat": 0.0, "is_disabled": 0, "is_reserved": 0, "lat": 38.916723166666664, "type": "electric_scooter"}, {"fusion_lon": 0.0, "bike_id": "0d798f665982c61a1413b4aca2e38515", "name": "0d798f665982c61a1413b4aca2e38515", "rental_uris": {"android": "https://dc.lft.to/lastmile_qr_scan", "ios": "https://dc.lft.to/lastmile_qr_scan"}, "lon": -77.03203866666666, "fusion_lat": 0.0, "is_disabled": 0, "is_reserved": 0, "lat": 38.9104655, "type": "electric_scooter"}, {"fusion_lon": 0.0, "bike_id": "43c87e5db1903db0d4943473e41a8859", "name": "43c87e5db1903db0d4943473e41a8859", "rental_uris": {"android": "https://dc.lft.to/lastmile_qr_scan", "ios": "https://dc.lft.to/lastmile_qr_scan"}, "lon": -77.02032016666666, "fusion_lat": 0.0, "is_disabled": 0, "is_reserved": 0, "lat": 38.92253216666667, "type": "electric_scooter"}, {"fusion_lon": 0.0, "bike_id": "817a74ac591d40ceb7b2499b4c9afe7e", "name": "817a74ac591d40ceb7b2499b4c9afe7e", "rental_uris": {"android": "https://dc.lft.to/lastmile_qr_scan", "ios": "https://dc.lft.to/lastmile_qr_scan"}, "lon": -77.035915, "fusion_lat": 0.0, "is_disabled": 0, "is_reserved": 0, "lat": 38.918805666666664, "type": "electric_scooter"}, {"fusion_lon": 0.0, "bike_id": "edeb2c7256dbaf352007a2505cc61a12", "name": "edeb2c7256dbaf352007a2505cc61a12", "rental_uris": {"android": "https://dc.lft.to/lastmile_qr_scan", "ios": "https://dc.lft.to/lastmile_qr_scan"}, "lon": -77.089806, "fusion_lat": 0.0, "is_disabled": 0, "is_reserved": 0, "lat": 38.937125333333334, "type": "electric_scooter"}, {"fusion_lon": 0.0, "bike_id": "c90e49c85a2b2f85a32456e82bfa42d8", "name": "c90e49c85a2b2f85a32456e82bfa42d8", "rental_uris": {"android": "https://dc.lft.to/lastmile_qr_scan", "ios": "https://dc.lft.to/lastmile_qr_scan"}, "lon": -76.99571833333333, "fusion_lat": 0.0, "is_disabled": 0, "is_reserved": 0, "lat": 38.862711833333336, "type": "electric_scooter"}, {"fusion_lon": 0.0, "bike_id": "216e267b9c3ecbf3c14f8cbc045d14d1", "name": "216e267b9c3ecbf3c14f8cbc045d14d1", "rental_uris": {"android": "https://dc.lft.to/lastmile_qr_scan", "ios": "https://dc.lft.to/lastmile_qr_scan"}, "lon": -77.01905133333334, "fusion_lat": 0.0, "is_disabled": 0, "is_reserved": 0, "lat": 38.92349883333333, "type": "electric_scooter"}, {"fusion_lon": 0.0, "bike_id": "13da01f481874de8cd2c3667b19acaee", "name": "13da01f481874de8cd2c3667b19acaee", "rental_uris": {"android": "https://dc.lft.to/lastmile_qr_scan", "ios": "https://dc.lft.to/lastmile_qr_scan"}, "lon": -77.017419, "fusion_lat": 0.0, "is_disabled": 0, "is_reserved": 0, "lat": 38.892264, "type": "electric_scooter"}, {"fusion_lon": 0.0, "bike_id": "8850deba5811ad6319e658734b0284a2", "name": "8850deba5811ad6319e658734b0284a2", "rental_uris": {"android": "https://dc.lft.to/lastmile_qr_scan", "ios": "https://dc.lft.to/lastmile_qr_scan"}, "lon": -77.03544983333333, "fusion_lat": 0.0, "is_disabled": 0, "is_reserved": 0, "lat": 38.9264795, "type": "electric_scooter"}, {"fusion_lon": 0.0, "bike_id": "6c99b6278a4c5598021c0387d6931b68", "name": "6c99b6278a4c5598021c0387d6931b68", "rental_uris": {"android": "https://dc.lft.to/lastmile_qr_scan", "ios": "https://dc.lft.to/lastmile_qr_scan"}, "lon": -77.09726533333334, "fusion_lat": 0.0, "is_disabled": 0, "is_reserved": 0, "lat": 38.80740733333333, "type": "electric_bike"}, {"fusion_lon": 0.0, "bike_id": "f467eb74e50a816acdfb9ad802faeef2", "name": "f467eb74e50a816acdfb9ad802faeef2", "rental_uris": {"android": "https://dc.lft.to/lastmile_qr_scan", "ios": "https://dc.lft.to/lastmile_qr_scan"}, "lon": -77.00619533333334, "fusion_lat": 0.0, "is_disabled": 0, "is_reserved": 0, "lat": 38.875801, "type": "electric_scooter"}, {"fusion_lon": 0.0, "bike_id": "14c7b69e92a68c4efca51ba7fcf5af10", "name": "14c7b69e92a68c4efca51ba7fcf5af10", "rental_uris": {"android": "https://dc.lft.to/lastmile_qr_scan", "ios": "https://dc.lft.to/lastmile_qr_scan"}, "lon": -77.03161966666667, "fusion_lat": 0.0, "is_disabled": 0, "is_reserved": 0, "lat": 38.916466166666666, "type": "electric_scooter"}, {"fusion_lon": 0.0, "bike_id": "d0ee5dc63872288efc6a4c5e890b15e8", "name": "d0ee5dc63872288efc6a4c5e890b15e8", "rental_uris": {"android": "https://dc.lft.to/lastmile_qr_scan", "ios": "https://dc.lft.to/lastmile_qr_scan"},