{"data": {"bikes": [{"name": "a221eae2e95ff89851a8b26383c80d81", "fusion_lat": 0.0, "type": "electric_scooter", "lat": 38.9390795, "is_reserved": 0, "is_disabled": 0, "fusion_lon": 0.0, "bike_id": "a221eae2e95ff89851a8b26383c80d81", "lon": -77.033543, "rental_uris": {"ios": "https://dc.lft.to/lastmile_qr_scan", "android": "https://dc.lft.to/lastmile_qr_scan"}}, {"name": "39263cec9caecce8e623375f589b8594", "fusion_lat": 0.0, "type": "electric_scooter", "lat": 38.908702, "is_reserved": 0, "is_disabled": 0, "fusion_lon": 0.0, "bike_id": "39263cec9caecce8e623375f589b8594", "lon": -77.01320783333334, "rental_uris": {"ios": "https://dc.lft.to/lastmile_qr_scan", "android": "https://dc.lft.to/lastmile_qr_scan"}}, {"name": "5e0032b686b872f26737bfd804c56d05", "fusion_lat": 0.0, "type": "electric_scooter", "lat": 38.905376, "is_reserved": 0, "is_disabled": 0, "fusion_lon": 0.0, "bike_id": "5e0032b686b872f26737bfd804c56d05", "lon": -77.05878483333333, "rental_uris": {"ios": "https://dc.lft.to/lastmile_qr_scan", "android": "https://dc.lft.to/lastmile_qr_scan"}}, {"name": "d0dac392b7b1329574ac8b3111e87db0", "fusion_lat": 0.0, "type": "electric_scooter", "lat": 38.92453366666667, "is_reserved": 0, "is_disabled": 0, "fusion_lon": 0.0, "bike_id": "d0dac392b7b1329574ac8b3111e87db0", "lon": -76.99334016666667, "rental_uris": {"ios": "https://dc.lft.to/lastmile_qr_scan", "android": "https://dc.lft.to/lastmile_qr_scan"}}, {"name": "e8eb8b6f773564bd5ef5dde45120325d", "fusion_lat": 0.0, "type": "electric_scooter", "lat": 38.8992305, "is_reserved": 0, "is_disabled": 0, "fusion_lon": 0.0, "bike_id": "e8eb8b6f773564bd5ef5dde45120325d", "lon": -77.0333975, "rental_uris": {"ios": "https://dc.lft.to/lastmile_qr_scan", "android": "https://dc.lft.to/lastmile_qr_scan"}}, {"name": "ee4d06af41d1215cc3cf595081227837", "fusion_lat": 0.0, "type": "electric_scooter", "lat": 38.9236825, "is_reserved": 0, "is_disabled": 0, "fusion_lon": 0.0, "bike_id": "ee4d06af41d1215cc3cf595081227837", "lon": -77.05233966666667, "rental_uris": {"ios": "https://dc.lft.to/lastmile_qr_scan", "android": "https://dc.lft.to/lastmile_qr_scan"}}, {"name": "535ba0013fc2f656ae44ad07d3a297ab", "fusion_lat": 0.0, "type": "electric_scooter", "lat": 38.918086833333334, "is_reserved": 0, "is_disabled": 0, "fusion_lon": 0.0, "bike_id": "535ba0013fc2f656ae44ad07d3a297ab", "lon": -77.04003166666666, "rental_uris": {"ios": "https://dc.lft.to/lastmile_qr_scan", "android": "https://dc.lft.to/lastmile_qr_scan"}}, {"name": "5f0cad43b0d868085a5aa892c87a4a93", "fusion_lat": 0.0, "type": "electric_scooter", "lat": 38.908956, "is_reserved": 0, "is_disabled": 0, "fusion_lon": 0.0, "bike_id": "5f0cad43b0d868085a5aa892c87a4a93", "lon": -77.00573316666667, "rental_uris": {"ios": "https://dc.lft.to/lastmile_qr_scan", "android": "https://dc.lft.to/lastmile_qr_scan"}}, {"name": "aa857c2dc70430daeaceb632bc389a78", "fusion_lat": 0.0, "type": "electric_scooter", "lat": 38.92979416666667, "is_reserved": 0, "is_disabled": 0, "fusion_lon": 0.0, "bike_id": "aa857c2dc70430daeaceb632bc389a78", "lon": -77.032576, "rental_uris": {"ios": "https://dc.lft.to/lastmile_qr_scan", "android": "https://dc.lft.to/lastmile_qr_scan"}}, {"name": "412e16d3ac26616858c3dfba1d9ef6e2", "fusion_lat": 0.0, "type": "electric_scooter", "lat": 38.91912883333333, "is_reserved": 0, "is_disabled": 0, "fusion_lon": 0.0, "bike_id": "412e16d3ac26616858c3dfba1d9ef6e2", "lon": -77.02167916666667, "rental_uris": {"ios": "https://dc.lft.to/lastmile_qr_scan", "android": "https://dc.lft.to/lastmile_qr_scan"}}, {"name": "499dfb8b417124e3b7897cff8f158ebe", "fusion_lat": 0.0, "type": "electric_bike", "lat": 38.961314333333334, "is_reserved": 0, "is_disabled": 0, "fusion_lon": 0.0, "bike_id": "499dfb8b417124e3b7897cff8f158ebe", "lon": -77.032707, "rental_uris": {"ios": "https://dc.lft.to/lastmile_qr_scan", "android": "https://dc.lft.to/lastmile_qr_scan"}}, {"name": "51a38aa0c8a470a6e1d29fc68c0e27f2", "fusion_lat": 0.0, "type": "electric_scooter", "lat": 38.91734433333333, "is_reserved": 0, "is_disabled": 0, "fusion_lon": 0.0, "bike_id": "51a38aa0c8a470a6e1d29fc68c0e27f2", "lon": -77.01028316666667, "rental_uris": {"ios": "https://dc.lft.to/lastmile_qr_scan", "android": "https://dc.lft.to/lastmile_qr_scan"}}, {"name": "3ac63af8db1428d7dbfe532e757a2947", "fusion_lat": 0.0, "type": "electric_scooter", "lat": 38.9281055, "is_reserved": 0, "is_disabled": 0, "fusion_lon": 0.0, "bike_id": "3ac63af8db1428d7dbfe532e757a2947", "lon": -77.03980333333334, "rental_uris": {"ios": "https://dc.lft.to/lastmile_qr_scan", "android": "https://dc.lft.to/lastmile_qr_scan"}}, {"name": "59e8c17ad163fcbed25f8a5879319a99", "fusion_lat": 0.0, "type": "electric_scooter", "lat": 38.90163283333333, "is_reserved": 0, "is_disabled": 0, "fusion_lon": 0.0, "bike_id": "59e8c17ad163fcbed25f8a5879319a99", "lon": -77.03176316666666, "rental_uris": {"ios": "https://dc.lft.to/lastmile_qr_scan", "android": "https://dc.lft.to/lastmile_qr_scan"}}, {"name": "79451b041c8a15df075ae67fbc4366af", "fusion_lat": 0.0, "type": "electric_scooter", "lat": 38.89486483333334, "is_reserved": 0, "is_disabled": 0, "fusion_lon": 0.0, "bike_id": "79451b041c8a15df075ae67fbc4366af", "lon": -77.0231235, "rental_uris": {"ios": "https://dc.lft.to/lastmile_qr_scan", "android": "https://dc.lft.to/lastmile_qr_scan"}}, {"name": "f3a72203b535cd4844fc92e91e8cdd0b", "fusion_lat": 0.0, "type": "electric_scooter", "lat": 38.898771333333336, "is_reserved": 0, "is_disabled": 0, "fusion_lon": 0.0, "bike_id": "f3a72203b535cd4844fc92e91e8cdd0b", "lon": -76.9315905, "rental_uris": {"ios": "https://dc.lft.to/lastmile_qr_scan", "android": "https://dc.lft.to/lastmile_qr_scan"}}, {"name": "bc0e1186c801bf511e5aa53fba2d4cf3", "fusion_lat": 0.0, "type": "electric_scooter", "lat": 38.91760416666666, "is_reserved": 0, "is_disabled": 0, "fusion_lon": 0.0, "bike_id": "bc0e1186c801bf511e5aa53fba2d4cf3", "lon": -77.01876, "rental_uris": {"ios": "https://dc.lft.to/lastmile_qr_scan", "android": "https://dc.lft.to/lastmile_qr_scan"}}, {"name": "4a7b82b027ba312140da1a03e974b36f", "fusion_lat": 0.0, "type": "electric_scooter", "lat": 38.900381333333335, "is_reserved": 0, "is_disabled": 0, "fusion_lon": 0.0, "bike_id": "4a7b82b027ba312140da1a03e974b36f", "lon": -77.01185383333333, "rental_uris": {"ios": "https://dc.lft.to/lastmile_qr_scan", "android": "https://dc.lft.to/lastmile_qr_scan"}}, {"name": "202bdf24f5f7533528ef57ce0445131d", "fusion_lat": 0.0, "type": "electric_scooter", "lat": 38.9033985, "is_reserved": 0, "is_disabled": 0, "fusion_lon": 0.0, "bike_id": "202bdf24f5f7533528ef57ce0445131d", "lon": -77.06647783333334, "rental_uris": {"ios": "https://dc.lft.to/lastmile_qr_scan", "android": "https://dc.lft.to/lastmile_qr_scan"}}, {"name": "7bb449a2eaabf1b5abed632b0544a32e", "fusion_lat": 0.0, "type": "electric_scooter", "lat": 38.903763, "is_reserved": 0, "is_disabled": 0, "fusion_lon": 0.0, "bike_id": "7bb449a2eaabf1b5abed632b0544a32e", "lon": -77.01099433333333, "rental_uris": {"ios": "https://dc.lft.to/lastmile_qr_scan", "android": "https://dc.lft.to/lastmile_qr_scan"}}, {"name": "f348e18cab7605221c50e4caa56599e5", "fusion_lat": 0.0, "type": "electric_scooter", "lat": 38.901416166666664, "is_reserved": 0, "is_disabled": 0, "fusion_lon": 0.0, "bike_id": "f348e18cab7605221c50e4caa56599e5", "lon": -77.03961483333333, "rental_uris": {"ios": "https://dc.lft.to/lastmile_qr_scan", "android": "https://dc.lft.to/lastmile_qr_scan"}}, {"name": "510294e81365b60476dd45bbf9a1b81c", "fusion_lat": 0.0, "type": "electric_bike", "lat": 38.94901616666667, "is_reserved": 0, "is_disabled": 0, "fusion_lon": 0.0, "bike_id": "510294e81365b60476dd45bbf9a1b81c", "lon": -76.96373016666666, "rental_uris": {"ios": "https://dc.lft.to/lastmile_qr_scan", "android": "https://dc.lft.to/lastmile_qr_scan"}}, {"name": "6a0bf7d3d3f571a6893c813a295bf71c", "fusion_lat": 0.0, "type": "electric_scooter", "lat": 38.922592333333334, "is_reserved": 0, "is_disabled": 0, "fusion_lon": 0.0, "bike_id": "6a0bf7d3d3f571a6893c813a295bf71c", "lon": -77.01949816666666, "rental_uris": {"ios": "https://dc.lft.to/lastmile_qr_scan", "android": "https://dc.lft.to/lastmile_qr_scan"}}, {"name": "f8e10d54a06cea307aae62280414cee2", "fusion_lat": 0.0, "type": "electric_bike", "lat": 38.94377183333334, "is_reserved": 0, "is_disabled": 0, "fusion_lon": 0.0, "bike_id": "f8e10d54a06cea307aae62280414cee2", "lon": -77.0774755, "rental_uris": {"ios": "https://dc.lft.to/lastmile_qr_scan", "android": "https://dc.lft.to/lastmile_qr_scan"}}, {"name": "978d6d7d34b87b2a3340ff4e4d589f0f", "fusion_lat": 0.0, "type": "electric_scooter", "lat": 38.91030966666667, "is_reserved": 0, "is_disabled": 0, "fusion_lon": 0.0, "bike_id": "978d6d7d34b87b2a3340ff4e4d589f0f", "lon": -77.0479885, "rental_uris": {"ios": "https://dc.lft.to/lastmile_qr_scan", "android": "https://dc.lft.to/lastmile_qr_scan"}}, {"name": "41c164e7ef7236ceb789e06cd8574af3", "fusion_lat": 0.0, "type": "electric_scooter", "lat": 38.90293783333333, "is_reserved": 0, "is_disabled": 0, "fusion_lon": 0.0, "bike_id": "41c164e7ef7236ceb789e06cd8574af3", "lon": -77.0343415, "rental_uris": {"ios": "https://dc.lft.to/lastmile_qr_scan", "android": "https://dc.lft.to/lastmile_qr_scan"}}, {"name": "2a9ba181139d001b8043b9c6d1e27091", "fusion_lat": 0.0, "type": "electric_scooter", "lat": 38.941792166666666, "is_reserved": 0, "is_disabled": 0, "fusion_lon": 0.0, "bike_id": "2a9ba181139d001b8043b9c6d1e27091", "lon": -77.04130833333333, "rental_uris": {"ios": "https://dc.lft.to/lastmile_qr_scan", "android": "https://dc.lft.to/lastmile_qr_scan"}}, {"name": "8a331b2d4fb597e3127b3228a5b66681", "fusion_lat": 0.0, "type": "electric_scooter", "lat": 38.898773, "is_reserved": 0, "is_disabled": 0, "fusion_lon": 0.0, "bike_id": "8a331b2d4fb597e3127b3228a5b66681", "lon": -76.93158666666666, "rental_uris": {"ios": "https://dc.lft.to/lastmile_qr_scan", "android": "https://dc.lft.to/lastmile_qr_scan"}}, {"name": "e5a29119f3dcfb14f55de81d5744d462", "fusion_lat": 0.0, "type": "electric_scooter", "lat": 38.9290515, "is_reserved": 0, "is_disabled": 0, "fusion_lon": 0.0, "bike_id": "e5a29119f3dcfb14f55de81d5744d462", "lon": -77.05454233333333, "rental_uris": {"ios": "https://dc.lft.to/lastmile_qr_scan", "android": "https://dc.lft.to/lastmile_qr_scan"}}, {"name": "137a185716a30a55b4950e05d0e9126c", "fusion_lat": 0.0, "type": "electric_bike", "lat": 38.99831566666667, "is_reserved": 0, "is_disabled": 0, "fusion_lon": 0.0, "bike_id": "137a185716a30a55b4950e05d0e9126c", "lon": -76.8836295, "rental_uris": {"ios": "https://dc.lft.to/lastmile_qr_scan", "android": "https://dc.lft.to/lastmile_qr_scan"}}, {"name": "2ba81109304afff366adb63b0b940be4", "fusion_lat": 0.0, "type": "electric_scooter", "lat": 38.9185075, "is_reserved": 0, "is_disabled": 0, "fusion_lon": 0.0, "bike_id": "2ba81109304afff366adb63b0b940be4", "lon": -77.025946, "rental_uris": {"ios": "https://dc.lft.to/lastmile_qr_scan", "android": "https://dc.lft.to/lastmile_qr_scan"}}, {"name": "50070d3bfaacb7a36b0f0703ebb8c66f", "fusion_lat": 0.0, "type": "electric_scooter", "lat": 38.836016666666666, "is_reserved": 0, "is_disabled": 0, "fusion_lon": 0.0, "bike_id": "50070d3bfaacb7a36b0f0703ebb8c66f", "lon": -76.993516, "rental_uris": {"ios": "https://dc.lft.to/lastmile_qr_scan", "android": "https://dc.lft.to/lastmile_qr_scan"}}, {"name": "0aa4ebca1d25f27b14ceee89df46b961", "fusion_lat": 0.0, "type": "electric_bike", "lat": 38.863899, "is_reserved": 0, "is_disabled": 0, "fusion_lon": 0.0, "bike_id": "0aa4ebca1d25f27b14ceee89df46b961", "lon": -76.989909, "rental_uris": {"ios": "https://dc.lft.to/lastmile_qr_scan", "android": "https://dc.lft.to/lastmile_qr_scan"}}, {"name": "62e694f80568ff11936ee2910390b454", "fusion_lat": 0.0, "type": "electric_scooter", "lat": 38.901466666666664, "is_reserved": 0, "is_disabled": 0, "fusion_lon": 0.0, "bike_id": "62e694f80568ff11936ee2910390b454", "lon": -77.03316216666667, "rental_uris": {"ios": "https://dc.lft.to/lastmile_qr_scan", "android": "https://dc.lft.to/lastmile_qr_scan"}}, {"name": "68c5397891673bde5578077fb15f2a0d", "fusion_lat": 0.0, "type": "electric_scooter", "lat": 38.924525, "is_reserved": 0, "is_disabled": 0, "fusion_lon": 0.0, "bike_id": "68c5397891673bde5578077fb15f2a0d", "lon": -77.02031183333334, "rental_uris": {"ios": "https://dc.lft.to/lastmile_qr_scan", "android": "https://dc.lft.to/lastmile_qr_scan"}}, {"name": "677e26cd06e768792eb7615e1c9c107a", "fusion_lat": 0.0, "type": "electric_scooter", "lat": 38.894038, "is_reserved": 0, "is_disabled": 0, "fusion_lon": 0.0, "bike_id": "677e26cd06e768792eb7615e1c9c107a", "lon": -76.94803116666667, "rental_uris": {"ios": "https://dc.lft.to/lastmile_qr_scan", "android": "https://dc.lft.to/lastmile_qr_scan"}}, {"name": "2d152f7edf6bbd53598b30cc59f5a911", "fusion_lat": 0.0, "type": "electric_bike", "lat": 38.94520633333333, "is_reserved": 0, "is_disabled": 0, "fusion_lon": 0.0, "bike_id": "2d152f7edf6bbd53598b30cc59f5a911", "lon": -77.0067975, "rental_uris": {"ios": "https://dc.lft.to/lastmile_qr_scan", "android": "https://dc.lft.to/lastmile_qr_scan"}}, {"name": "42fca525dc722b315f387b925eaad643", "fusion_lat": 0.0, "type": "electric_bike", "lat": 38.8964085, "is_reserved": 0, "is_disabled": 0, "fusion_lon": 0.0, "bike_id": "42fca525dc722b315f387b925eaad643", "lon": -77.104569, "rental_uris": {"ios": "https://dc.lft.to/lastmile_qr_scan", "android": "https://dc.lft.to/lastmile_qr_scan"}}, {"name": "6935f8345c2caae5b5be19a3de938937", "fusion_lat": 0.0, "type": "electric_scooter", "lat": 38.864163, "is_reserved": 0, "is_disabled": 0, "fusion_lon": 0.0, "bike_id": "6935f8345c2caae5b5be19a3de938937", "lon": -76.9805355, "rental_uris": {"ios": "https://dc.lft.to/lastmile_qr_scan", "android": "https://dc.lft.to/lastmile_qr_scan"}}, {"name": "2125cefb86b9360a97e0cbc5ff81d029", "fusion_lat": 0.0, "type": "electric_scooter", "lat": 38.92172583333333, "is_reserved": 0, "is_disabled": 0, "fusion_lon": 0.0, "bike_id": "2125cefb86b9360a97e0cbc5ff81d029", "lon": -76.99396633333333, "rental_uris": {"ios": "https://dc.lft.to/lastmile_qr_scan", "android": "https://dc.lft.to/lastmile_qr_scan"}}, {"name": "76d59a0c9189a12ae2ec53dc7aebfab8", "fusion_lat": 0.0, "type": "electric_scooter", "lat": 38.88404883333333, "is_reserved": 0, "is_disabled": 0, "fusion_lon": 0.0, "bike_id": "76d59a0c9189a12ae2ec53dc7aebfab8", "lon": -76.98585883333334, "rental_uris": {"ios": "https://dc.lft.to/lastmile_qr_scan", "android": "https://dc.lft.to/lastmile_qr_scan"}}, {"name": "317835f87dbf73870ee4b2a12a9f38f6", "fusion_lat": 0.0, "type": "electric_scooter", "lat": 38.92488383333333, "is_reserved": 0, "is_disabled": 0, "fusion_lon": 0.0, "bike_id": "317835f87dbf73870ee4b2a12a9f38f6", "lon": -77.05216566666667, "rental_uris": {"ios": "https://dc.lft.to/lastmile_qr_scan", "android": "https://dc.lft.to/lastmile_qr_scan"}}, {"name": "8987338026aa9b753f1593782719d6c2", "fusion_lat": 0.0, "type": "electric_scooter", "lat": 38.85530966666666, "is_reserved": 0, "is_disabled": 0, "fusion_lon": 0.0, "bike_id": "8987338026aa9b753f1593782719d6c2", "lon": -76.96914433333333, "rental_uris": {"ios": "https://dc.lft.to/lastmile_qr_scan", "android": "https://dc.lft.to/lastmile_qr_scan"}}, {"name": "42a6264340e2d66dba47964d1b6b0db8", "fusion_lat": 0.0, "type": "electric_scooter", "lat": 38.90525516666666, "is_reserved": 0, "is_disabled": 0, "fusion_lon": 0.0, "bike_id": "42a6264340e2d66dba47964d1b6b0db8", "lon": -77.04992433333334, "rental_uris": {"ios": "https://dc.lft.to/lastmile_qr_scan", "android": "https://dc.lft.to/lastmile_qr_scan"}}, {"name": "6f45fc875eade7aa7d32b542c93c52a4", "fusion_lat": 0.0, "type": "electric_scooter", "lat": 38.95790083333333, "is_reserved": 0, "is_disabled": 0, "fusion_lon": 0.0, "bike_id": "6f45fc875eade7aa7d32b542c93c52a4", "lon": -77.02759616666667, "rental_uris": {"ios": "https://dc.lft.to/lastmile_qr_scan", "android": "https://dc.lft.to/lastmile_qr_scan"}}, {"name": "c02416cefb48e9f3df670bbb31088029", "fusion_lat": 0.0, "type": "electric_scooter", "lat": 38.91823, "is_reserved": 0, "is_disabled": 0, "fusion_lon": 0.0, "bike_id": "c02416cefb48e9f3df670bbb31088029", "lon": -77.036048, "rental_uris": {"ios": "https://dc.lft.to/lastmile_qr_scan", "android": "https://dc.lft.to/lastmile_qr_scan"}}, {"name": "bdfd3457a48dd51fac7e8ae61aadadbb", "fusion_lat": 0.0, "type": "electric_scooter", "lat": 38.920875833333334, "is_reserved": 0, "is_disabled": 0, "fusion_lon": 0.0, "bike_id": "bdfd3457a48dd51fac7e8ae61aadadbb", "lon": -77.0250945, "rental_uris": {"ios": "https://dc.lft.to/lastmile_qr_scan", "android": "https://dc.lft.to/lastmile_qr_scan"}}, {"name": "52a7bbf273d9d22be0dd5d97f1720442", "fusion_lat": 0.0, "type": "electric_scooter", "lat": 38.91129983333333, "is_reserved": 0, "is_disabled": 0, "fusion_lon": 0.0, "bike_id": "52a7bbf273d9d22be0dd5d97f1720442", "lon": -77.03180966666666, "rental_uris": {"ios": "https://dc.lft.to/lastmile_qr_scan", "android": "https://dc.lft.to/lastmile_qr_scan"}}, {"name": "38b4157a7c97c53c168b44524e8e43a8", "fusion_lat": 0.0, "type": "electric_scooter", "lat": 38.91418083333333, "is_reserved": 0, "is_disabled": 0, "fusion_lon": 0.0, "bike_id": "38b4157a7c97c53c168b44524e8e43a8", "lon": -77.0279625, "rental_uris": {"ios": "https://dc.lft.to/lastmile_qr_scan", "android": "https://dc.lft.to/lastmile_qr_scan"}}, {"name": "be86825e4f60d0a70f9275a0973dd04e", "fusion_lat": 0.0, "type": "electric_scooter", "lat": 38.947427166666664, "is_reserved": 0, "is_disabled": 0, "fusion_lon": 0.0, "bike_id": "be86825e4f60d0a70f9275a0973dd04e", "lon": -77.00009766666666, "rental_uris": {"ios": "https://dc.lft.to/lastmile_qr_scan", "android": "https://dc.lft.to/lastmile_qr_scan"}}, {"name": "022e6deb0ec4ca8488495d94ac1e54bb", "fusion_lat": 0.0, "type": "electric_scooter", "lat": 38.88220916666667, "is_reserved": 0, "is_disabled": 0, "fusion_lon": 0.0, "bike_id": "022e6deb0ec4ca8488495d94ac1e54bb", "lon": -76.941772, "rental_uris": {"ios": "https://dc.lft.to/lastmile_qr_scan", "android": "https://dc.lft.to/lastmile_qr_scan"}}, {"name": "677bb673e7c407cb3d351668f7f902a4", "fusion_lat": 0.0, "type": "electric_scooter", "lat": 38.89886283333333, "is_reserved": 0, "is_disabled": 0, "fusion_lon": 0.0, "bike_id": "677bb673e7c407cb3d351668f7f902a4", "lon": -77.00915916666666, "rental_uris": {"ios": "https://dc.lft.to/lastmile_qr_scan", "android": "https://dc.lft.to/lastmile_qr_scan"}}, {"name": "022ba287fbba6fd167fdbbebe2a3c041", "fusion_lat": 0.0, "type": "electric_scooter", "lat": 38.9211645, "is_reserved": 0, "is_disabled": 0, "fusion_lon": 0.0, "bike_id": "022ba287fbba6fd167fdbbebe2a3c041", "lon": -77.017663, "rental_uris": {"ios": "https://dc.lft.to/lastmile_qr_scan", "android": "https://dc.lft.to/lastmile_qr_scan"}}, {"name": "571b7a2badece2508e4b62134abd1913", "fusion_lat": 0.0, "type": "electric_scooter", "lat": 38.9034245, "is_reserved": 0, "is_disabled": 0, "fusion_lon": 0.0, "bike_id": "571b7a2badece2508e4b62134abd1913", "lon": -76.98971233333333, "rental_uris": {"ios": "https://dc.lft.to/lastmile_qr_scan", "android": "https://dc.lft.to/lastmile_qr_scan"}}, {"name": "05fcc52a8382e732a685331370062e0f", "fusion_lat": 0.0, "type": "electric_scooter", "lat": 38.90543383333333, "is_reserved": 0, "is_disabled": 0, "fusion_lon": 0.0, "bike_id": "05fcc52a8382e732a685331370062e0f", "lon": -77.05001516666667, "rental_uris": {"ios": "https://dc.lft.to/lastmile_qr_scan", "android": "https://dc.lft.to/lastmile_qr_scan"}}, {"name": "a26209d33ec72210bf84d0bb82080c80", "fusion_lat": 0.0, "type": "electric_scooter", "lat": 38.903856166666664, "is_reserved": 0, "is_disabled": 0, "fusion_lon": 0.0, "bike_id": "a26209d33ec72210bf84d0bb82080c80", "lon": -77.04482566666667, "rental_uris": {"ios": "https://dc.lft.to/lastmile_qr_scan", "android": "https://dc.lft.to/lastmile_qr_scan"}}, {"name": "b5eba69abf0f61b7c90e54b228a4623b", "fusion_lat": 0.0, "type": "electric_scooter", "lat": 38.9293245, "is_reserved": 0, "is_disabled": 0, "fusion_lon": 0.0, "bike_id": "b5eba69abf0f61b7c90e54b228a4623b", "lon": -77.023369, "rental_uris": {"ios": "https://dc.lft.to/lastmile_qr_scan", "android": "https://dc.lft.to/lastmile_qr_scan"}}, {"name": "e5c52eba6e031ebf48114d10d717faf3", "fusion_lat": 0.0, "type": "electric_scooter", "lat": 38.916357833333336, "is_reserved": 0, "is_disabled": 0, "fusion_lon": 0.0, "bike_id": "e5c52eba6e031ebf48114d10d717faf3", "lon": -77.03594283333334, "rental_uris": {"ios": "https://dc.lft.to/lastmile_qr_scan", "android": "https://dc.lft.to/lastmile_qr_scan"}}, {"name": "a0df4cb0baf6d23afc548f48f2bab16a", "fusion_lat": 0.0, "type": "electric_scooter", "lat": 38.9248355, "is_reserved": 0, "is_disabled": 0, "fusion_lon": 0.0, "bike_id": "a0df4cb0baf6d23afc548f48f2bab16a", "lon": -77.03049316666667, "rental_uris": {"ios": "https://dc.lft.to/lastmile_qr_scan", "android": "https://dc.lft.to/lastmile_qr_scan"}}, {"name": "a64d90b9a26fecfda30472243b5be048", "fusion_lat": 0.0, "type": "electric_scooter", "lat": 38.9072745, "is_reserved": 0, "is_disabled": 0, "fusion_lon": 0.0, "bike_id": "a64d90b9a26fecfda30472243b5be048", "lon": -77.01141433333333, "rental_uris": {"ios": "https://dc.lft.to/lastmile_qr_scan", "android": "https://dc.lft.to/lastmile_qr_scan"}}, {"name": "225624a81832fe8b23119c572625c2b6", "fusion_lat": 0.0, "type": "electric_scooter", "lat": 38.8971455, "is_reserved": 0, "is_disabled": 0, "fusion_lon": 0.0, "bike_id": "225624a81832fe8b23119c572625c2b6", "lon": -77.022034, "rental_uris": {"ios": "https://dc.lft.to/lastmile_qr_scan", "android": "https://dc.lft.to/lastmile_qr_scan"}}, {"name": "1d782d6bfd7c7770ab7f1451a78b8f77", "fusion_lat": 0.0, "type": "electric_scooter", "lat": 38.90331283333333, "is_reserved": 0, "is_disabled": 0, "fusion_lon": 0.0, "bike_id": "1d782d6bfd7c7770ab7f1451a78b8f77", "lon": -77.031755, "rental_uris": {"ios": "https://dc.lft.to/lastmile_qr_scan", "android": "https://dc.lft.to/lastmile_qr_scan"}}, {"name": "d65aa47d591f8f42a81a411635d33556", "fusion_lat": 0.0, "type": "electric_scooter", "lat": 38.887592, "is_reserved": 0, "is_disabled": 0, "fusion_lon": 0.0, "bike_id": "d65aa47d591f8f42a81a411635d33556", "lon": -76.97982683333333, "rental_uris": {"ios": "https://dc.lft.to/lastmile_qr_scan", "android": "https://dc.lft.to/lastmile_qr_scan"}}, {"name": "736e692cb49e4bd3881d67be24a2cc62", "fusion_lat": 0.0, "type": "electric_scooter", "lat": 38.91923416666667, "is_reserved": 0, "is_disabled": 0, "fusion_lon": 0.0, "bike_id": "736e692cb49e4bd3881d67be24a2cc62", "lon": -77.03390866666666, "rental_uris": {"ios": "https://dc.lft.to/lastmile_qr_scan", "android": "https://dc.lft.to/lastmile_qr_scan"}}, {"name": "9f814670fb84b2a0e7634d3dadade850", "fusion_lat": 0.0, "type": "electric_bike", "lat": 38.88619716666667, "is_reserved": 0, "is_disabled": 0, "fusion_lon": 0.0, "bike_id": "9f814670fb84b2a0e7634d3dadade850", "lon": -77.107541, "rental_uris": {"ios": "https://dc.lft.to/lastmile_qr_scan", "android": "https://dc.lft.to/lastmile_qr_scan"}}, {"name": "2da8158e8f8fa006ad587535dafb0205", "fusion_lat": 0.0, "type": "electric_scooter", "lat": 38.883960333333334, "is_reserved": 0, "is_disabled": 0, "fusion_lon": 0.0, "bike_id": "2da8158e8f8fa006ad587535dafb0205", "lon": -76.93044033333334, "rental_uris": {"ios": "https://dc.lft.to/lastmile_qr_scan", "android": "https://dc.lft.to/lastmile_qr_scan"}}, {"name": "1301eccdef07c1c09a27a1ad9a01c484", "fusion_lat": 0.0, "type": "electric_bike", "lat": 38.92211533333333, "is_reserved": 0, "is_disabled": 0, "fusion_lon": 0.0, "bike_id": "1301eccdef07c1c09a27a1ad9a01c484", "lon": -76.987977, "rental_uris": {"ios": "https://dc.lft.to/lastmile_qr_scan", "android": "https://dc.lft.to/lastmile_qr_scan"}}, {"name": "7f96c83dbdf259b68575ea0ca3f8b049", "fusion_lat": 0.0, "type": "electric_scooter", "lat": 38.902641833333334, "is_reserved": 0, "is_disabled": 0, "fusion_lon": 0.0, "bike_id": "7f96c83dbdf259b68575ea0ca3f8b049", "lon": -77.038478, "rental_uris": {"ios": "https://dc.lft.to/lastmile_qr_scan", "android": "https://dc.lft.to/lastmile_qr_scan"}}, {"name": "b8b2493fcbdec9a56b4f193dc7050b67", "fusion_lat": 0.0, "type": "electric_scooter", "lat": 38.8949565, "is_reserved": 0, "is_disabled": 0, "fusion_lon": 0.0, "bike_id": "b8b2493fcbdec9a56b4f193dc7050b67", "lon": -77.010117, "rental_uris": {"ios": "https://dc.lft.to/lastmile_qr_scan", "android": "https://dc.lft.to/lastmile_qr_scan"}}, {"name": "8a3e726c505d524c38df6b5fab56ba5b", "fusion_lat": 0.0, "type": "electric_scooter", "lat": 38.93892016666667, "is_reserved": 0, "is_disabled": 0, "fusion_lon": 0.0, "bike_id": "8a3e726c505d524c38df6b5fab56ba5b", "lon": -77.02463083333333, "rental_uris": {"ios": "https://dc.lft.to/lastmile_qr_scan", "android": "https://dc.lft.to/lastmile_qr_scan"}}, {"name": "5e7aa661fcb4796b8eec69e0e5ef42e6", "fusion_lat": 0.0, "type": "electric_scooter", "lat": 38.908199333333336, "is_reserved": 0, "is_disabled": 0, "fusion_lon": 0.0, "bike_id": "5e7aa661fcb4796b8eec69e0e5ef42e6", "lon": -77.0384245, "rental_uris": {"ios": "https://dc.lft.to/lastmile_qr_scan", "android": "https://dc.lft.to/lastmile_qr_scan"}}, {"name": "73be9a2ad32849edfaccb3ec3b344ea2", "fusion_lat": 0.0, "type": "electric_scooter", "lat": 38.9040755, "is_reserved": 0, "is_disabled": 0, "fusion_lon": 0.0, "bike_id": "73be9a2ad32849edfaccb3ec3b344ea2", "lon": -77.03181666666667, "rental_uris": {"ios": "https://dc.lft.to/lastmile_qr_scan", "android": "https://dc.lft.to/lastmile_qr_scan"}}, {"name": "e1346cb516e0c4d54ab3edf717395af5", "fusion_lat": 0.0, "type": "electric_scooter", "lat": 38.903145333333335, "is_reserved": 0, "is_disabled": 0, "fusion_lon": 0.0, "bike_id": "e1346cb516e0c4d54ab3edf717395af5", "lon": -77.04986666666667, "rental_uris": {"ios": "https://dc.lft.to/lastmile_qr_scan", "android": "https://dc.lft.to/lastmile_qr_scan"}}, {"name": "a65c7ad9d3ca6b42c1b926f2c68cf41e", "fusion_lat": 0.0, "type": "electric_bike", "lat": 38.83237033333333, "is_reserved": 0, "is_disabled": 0, "fusion_lon": 0.0, "bike_id": "a65c7ad9d3ca6b42c1b926f2c68cf41e", "lon": -76.9462125, "rental_uris": {"ios": "https://dc.lft.to/lastmile_qr_scan", "android": "https://dc.lft.to/lastmile_qr_scan"}}, {"name": "8df6a010221472b9fb2f7bd3271bc49a", "fusion_lat": 0.0, "type": "electric_scooter", "lat": 38.9098685, "is_reserved": 0, "is_disabled": 0, "fusion_lon": 0.0, "bike_id": "8df6a010221472b9fb2f7bd3271bc49a", "lon": -77.04873383333333, "rental_uris": {"ios": "https://dc.lft.to/lastmile_qr_scan", "android": "https://dc.lft.to/lastmile_qr_scan"}}, {"name": "675996b224bea25d31078b93c09fdf97", "fusion_lat": 0.0, "type": "electric_scooter", "lat": 38.9095835, "is_reserved": 0, "is_disabled": 0, "fusion_lon": 0.0, "bike_id": "675996b224bea25d31078b93c09fdf97", "lon": -77.0431655, "rental_uris": {"ios": "https://dc.lft.to/lastmile_qr_scan", "android": "https://dc.lft.to/lastmile_qr_scan"}}, {"name": "15d7edb37322b6ad13d433f4d9f7b426", "fusion_lat": 0.0, "type": "electric_scooter", "lat": 38.887268666666664, "is_reserved": 0, "is_disabled": 0, "fusion_lon": 0.0, "bike_id": "15d7edb37322b6ad13d433f4d9f7b426", "lon": -76.953721, "rental_uris": {"ios": "https://dc.lft.to/lastmile_qr_scan", "android": "https://dc.lft.to/lastmile_qr_scan"}}, {"name": "5bc355a274093ff379cd6e836299c1c6", "fusion_lat": 0.0, "type": "electric_scooter", "lat": 38.931148, "is_reserved": 0, "is_disabled": 0, "fusion_lon": 0.0, "bike_id": "5bc355a274093ff379cd6e836299c1c6", "lon": -77.03812433333333, "rental_uris": {"ios": "https://dc.lft.to/lastmile_qr_scan", "android": "https://dc.lft.to/lastmile_qr_scan"}}, {"name": "700707785956b37de63cfb1707ba4ca0", "fusion_lat": 0.0, "type": "electric_scooter", "lat": 38.939659, "is_reserved": 0, "is_disabled": 0, "fusion_lon": 0.0, "bike_id": "700707785956b37de63cfb1707ba4ca0", "lon": -77.027523, "rental_uris": {"ios": "https://dc.lft.to/lastmile_qr_scan", "android": "https://dc.lft.to/lastmile_qr_scan"}}, {"name": "b39e0fd39308169af666ce3516cab0bb", "fusion_lat": 0.0, "type": "electric_scooter", "lat": 38.9444945, "is_reserved": 0, "is_disabled": 0, "fusion_lon": 0.0, "bike_id": "b39e0fd39308169af666ce3516cab0bb", "lon": -77.06353433333334, "rental_uris": {"ios": "https://dc.lft.to/lastmile_qr_scan", "android": "https://dc.lft.to/lastmile_qr_scan"}}, {"name": "144745138137df28d94f8fabe4c75653", "fusion_lat": 0.0, "type": "electric_scooter", "lat": 38.897200833333336, "is_reserved": 0, "is_disabled": 0, "fusion_lon": 0.0, "bike_id": "144745138137df28d94f8fabe4c75653", "lon": -77.00795533333333, "rental_uris": {"ios": "https://dc.lft.to/lastmile_qr_scan", "android": "https://dc.lft.to/lastmile_qr_scan"}}, {"name": "b8bc67ab1801cbb765621bf7a103412a", "fusion_lat": 0.0, "type": "electric_scooter", "lat": 38.899606, "is_reserved": 0, "is_disabled": 0, "fusion_lon": 0.0, "bike_id": "b8bc67ab1801cbb765621bf7a103412a", "lon": -77.021765, "rental_uris": {"ios": "https://dc.lft.to/lastmile_qr_scan", "android": "https://dc.lft.to/lastmile_qr_scan"}}, {"name": "e557142f62b65a8fe47fed86ca9a9b07", "fusion_lat": 0.0, "type": "electric_scooter", "lat": 38.883543, "is_reserved": 0, "is_disabled": 0, "fusion_lon": 0.0, "bike_id": "e557142f62b65a8fe47fed86ca9a9b07", "lon": -76.98568866666666, "rental_uris": {"ios": "https://dc.lft.to/lastmile_qr_scan", "android": "https://dc.lft.to/lastmile_qr_scan"}}, {"name": "178a45cf5928619cc19098fc5e4f29fb", "fusion_lat": 0.0, "type": "electric_scooter", "lat": 38.903809833333334, "is_reserved": 0, "is_disabled": 0, "fusion_lon": 0.0, "bike_id": "178a45cf5928619cc19098fc5e4f29fb", "lon": -77.045158, "rental_uris": {"ios": "https://dc.lft.to/lastmile_qr_scan", "android": "https://dc.lft.to/lastmile_qr_scan"}}, {"name": "6dc8fa4e8845a0e2551f4ae452335f8a", "fusion_lat": 0.0, "type": "electric_scooter", "lat": 38.92493316666667, "is_reserved": 0, "is_disabled": 0, "fusion_lon": 0.0, "bike_id": "6dc8fa4e8845a0e2551f4ae452335f8a", "lon": -77.0261755, "rental_uris": {"ios": "https://dc.lft.to/lastmile_qr_scan", "android": "https://dc.lft.to/lastmile_qr_scan"}}, {"name": "4fd0df4d01c92b1d434c9aad9edf14cc", "fusion_lat": 0.0, "type": "electric_scooter", "lat": 38.90126166666667, "is_reserved": 0, "is_disabled": 0, "fusion_lon": 0.0, "bike_id": "4fd0df4d01c92b1d434c9aad9edf14cc", "lon": -77.03050616666667, "rental_uris": {"ios": "https://dc.lft.to/lastmile_qr_scan", "android": "https://dc.lft.to/lastmile_qr_scan"}}, {"name": "891f85f2ad4dcfd741d93af45569a169", "fusion_lat": 0.0, "type": "electric_bike", "lat": 38.936785, "is_reserved": 0, "is_disabled": 0, "fusion_lon": 0.0, "bike_id": "891f85f2ad4dcfd741d93af45569a169", "lon": -76.95205283333334, "rental_uris": {"ios": "https://dc.lft.to/lastmile_qr_scan", "android": "https://dc.lft.to/lastmile_qr_scan"}}, {"name": "466efe12ff2add6cea31ba09c3fcf5a4", "fusion_lat": 0.0, "type": "electric_scooter", "lat": 38.925933, "is_reserved": 0, "is_disabled": 0, "fusion_lon": 0.0, "bike_id": "466efe12ff2add6cea31ba09c3fcf5a4", "lon": -77.029593, "rental_uris": {"ios": "https://dc.lft.to/lastmile_qr_scan", "android": "https://dc.lft.to/lastmile_qr_scan"}}, {"name": "57815fa5848d012a269697b94a859031", "fusion_lat": 0.0, "type": "electric_scooter", "lat": 38.930872, "is_reserved": 0, "is_disabled": 0, "fusion_lon": 0.0, "bike_id": "57815fa5848d012a269697b94a859031", "lon": -77.028059, "rental_uris": {"ios": "https://dc.lft.to/lastmile_qr_scan", "android": "https://dc.lft.to/lastmile_qr_scan"}}, {"name": "e2bd9b4bb42600cbae1f09ac4e3b6182", "fusion_lat": 0.0, "type": "electric_scooter", "lat": 38.912364833333335, "is_reserved": 0, "is_disabled": 0, "fusion_lon": 0.0, "bike_id": "e2bd9b4bb42600cbae1f09ac4e3b6182", "lon": -77.03840316666667, "rental_uris": {"ios": "https://dc.lft.to/lastmile_qr_scan", "android": "https://dc.lft.to/lastmile_qr_scan"}}, {"name": "7fb62624fdeb457c7e131e66978675bc", "fusion_lat": 0.0, "type": "electric_bike", "lat": 38.891010666666666, "is_reserved": 0, "is_disabled": 0, "fusion_lon": 0.0, "bike_id": "7fb62624fdeb457c7e131e66978675bc", "lon": -77.00309916666667, "rental_uris": {"ios": "https://dc.lft.to/lastmile_qr_scan", "android": "https://dc.lft.to/lastmile_qr_scan"}}, {"name": "b4bdb92db1d0e54c0276b6f297abd6eb", "fusion_lat": 0.0, "type": "electric_scooter", "lat": 38.906966833333335, "is_reserved": 0, "is_disabled": 0, "fusion_lon": 0.0, "bike_id": "b4bdb92db1d0e54c0276b6f297abd6eb", "lon": -77.0375935, "rental_uris": {"ios": "https://dc.lft.to/lastmile_qr_scan", "android": "https://dc.lft.to/lastmile_qr_scan"}}, {"name": "68e68b2e4c553046a451866157181908", "fusion_lat": 0.0, "type": "electric_scooter", "lat": 38.923659, "is_reserved": 0, "is_disabled": 0, "fusion_lon": 0.0, "bike_id": "68e68b2e4c553046a451866157181908", "lon": -77.05081766666666, "rental_uris": {"ios": "https://dc.lft.to/lastmile_qr_scan", "android": "https://dc.lft.to/lastmile_qr_scan"}}, {"name": "6e174e5e433a22bd3b2b42cac3216494", "fusion_lat": 0.0, "type": "electric_scooter", "lat": 38.949533, "is_reserved": 0, "is_disabled": 0, "fusion_lon": 0.0, "bike_id": "6e174e5e433a22bd3b2b42cac3216494", "lon": -77.016239, "rental_uris": {"ios": "https://dc.lft.to/lastmile_qr_scan", "android": "https://dc.lft.to/lastmile_qr_scan"}}, {"name": "5539ab4e2f72cde745bb0cc6f788ff6b", "fusion_lat": 0.0, "type": "electric_scooter", "lat": 38.90334166666667, "is_reserved": 0, "is_disabled": 0, "fusion_lon": 0.0, "bike_id": "5539ab4e2f72cde745bb0cc6f788ff6b", "lon": -77.03820366666666, "rental_uris": {"ios": "https://dc.lft.to/lastmile_qr_scan", "android": "https://dc.lft.to/lastmile_qr_scan"}}, {"name": "623490543eb4164d07ef424fca54178a", "fusion_lat": 0.0, "type": "electric_scooter", "lat": 38.92803133333334, "is_reserved": 0, "is_disabled": 0, "fusion_lon": 0.0, "bike_id": "623490543eb4164d07ef424fca54178a", "lon": -77.04347066666666, "rental_uris": {"ios": "https://dc.lft.to/lastmile_qr_scan", "android": "https://dc.lft.to/lastmile_qr_scan"}}, {"name": "8bdeaebb65e1e942c615f5f627ddab33", "fusion_lat": 0.0, "type": "electric_scooter", "lat": 38.942951666666666, "is_reserved": 0, "is_disabled": 0, "fusion_lon": 0.0, "bike_id": "8bdeaebb65e1e942c615f5f627ddab33", "lon": -77.02787266666667, "rental_uris": {"ios": "https://dc.lft.to/lastmile_qr_scan", "android": "https://dc.lft.to/lastmile_qr_scan"}}, {"name": "23dfe27db6a922ecbd7ca4240c063a27", "fusion_lat": 0.0, "type": "electric_scooter", "lat": 38.92634366666667, "is_reserved": 0, "is_disabled": 0, "fusion_lon": 0.0, "bike_id": "23dfe27db6a922ecbd7ca4240c063a27", "lon": -77.03500566666666, "rental_uris": {"ios": "https://dc.lft.to/lastmile_qr_scan", "android": "https://dc.lft.to/lastmile_qr_scan"}}, {"name": "00bcff28891cc0f5a169b6d6f06de936", "fusion_lat": 0.0, "type": "electric_scooter", "lat": 38.909757666666664, "is_reserved": 0, "is_disabled": 0, "fusion_lon": 0.0, "bike_id": "00bcff28891cc0f5a169b6d6f06de936", "lon": -77.01118966666667, "rental_uris": {"ios": "https://dc.lft.to/lastmile_qr_scan", "android": "https://dc.lft.to/lastmile_qr_scan"}}, {"name": "05993606a5e0873dedd7d72003d31f28", "fusion_lat": 0.0, "type": "electric_scooter", "lat": 38.9027845, "is_reserved": 0, "is_disabled": 0, "fusion_lon": 0.0, "bike_id": "05993606a5e0873dedd7d72003d31f28", "lon": -77.04594183333333, "rental_uris": {"ios": "https://dc.lft.to/lastmile_qr_scan", "android": "https://dc.lft.to/lastmile_qr_scan"}}, {"name": "15706ed4036cf365d87dbc78232db3da", "fusion_lat": 0.0, "type": "electric_scooter", "lat": 38.91537566666667, "is_reserved": 0, "is_disabled": 0, "fusion_lon": 0.0, "bike_id": "15706ed4036cf365d87dbc78232db3da", "lon": -77.01219733333333, "rental_uris": {"ios": "https://dc.lft.to/lastmile_qr_scan", "android": "https://dc.lft.to/lastmile_qr_scan"}}, {"name": "8a6578871c104d6e880bd980117c321a", "fusion_lat": 0.0, "type": "electric_scooter", "lat": 38.92065183333333, "is_reserved": 0, "is_disabled": 0, "fusion_lon": 0.0, "bike_id": "8a6578871c104d6e880bd980117c321a", "lon": -76.97802083333333, "rental_uris": {"ios": "https://dc.lft.to/lastmile_qr_scan", "android": "https://dc.lft.to/lastmile_qr_scan"}}, {"name": "0ea4434f77e69131b7192b3193d439a1", "fusion_lat": 0.0, "type": "electric_scooter", "lat": 38.8989665, "is_reserved": 0, "is_disabled": 0, "fusion_lon": 0.0, "bike_id": "0ea4434f77e69131b7192b3193d439a1", "lon": -77.03329366666667, "rental_uris": {"ios": "https://dc.lft.to/lastmile_qr_scan", "android": "https://dc.lft.to/lastmile_qr_scan"}}, {"name": "0598579f7d2a23a3411c3ea1e9e4621f", "fusion_lat": 0.0, "type": "electric_scooter", "lat": 38.917296, "is_reserved": 0, "is_disabled": 0, "fusion_lon": 0.0, "bike_id": "0598579f7d2a23a3411c3ea1e9e4621f", "lon": -77.00819816666667, "rental_uris": {"ios": "https://dc.lft.to/lastmile_qr_scan", "android": "https://dc.lft.to/lastmile_qr_scan"}}, {"name": "becb84365e11a12f8541256e1a763181", "fusion_lat": 0.0, "type": "electric_scooter", "lat": 38.90023133333333, "is_reserved": 0, "is_disabled": 0, "fusion_lon": 0.0, "bike_id": "becb84365e11a12f8541256e1a763181", "lon": -77.03206833333333, "rental_uris": {"ios": "https://dc.lft.to/lastmile_qr_scan", "android": "https://dc.lft.to/lastmile_qr_scan"}}, {"name": "7b5bc58565cb4406daeba2a942e49f8a", "fusion_lat": 0.0, "type": "electric_scooter", "lat": 38.88339466666667, "is_reserved": 0, "is_disabled": 0, "fusion_lon": 0.0, "bike_id": "7b5bc58565cb4406daeba2a942e49f8a", "lon": -77.01524483333333, "rental_uris": {"ios": "https://dc.lft.to/lastmile_qr_scan", "android": "https://dc.lft.to/lastmile_qr_scan"}}, {"name": "6e981755f8bdcc70f7c63007923d1181", "fusion_lat": 0.0, "type": "electric_scooter", "lat": 38.86542883333333, "is_reserved": 0, "is_disabled": 0, "fusion_lon": 0.0, "bike_id": "6e981755f8bdcc70f7c63007923d1181", "lon": -76.98704033333334, "rental_uris": {"ios": "https://dc.lft.to/lastmile_qr_scan", "android": "https://dc.lft.to/lastmile_qr_scan"}}, {"name": "e9b334e22b8e12d3210934b3676635a8", "fusion_lat": 0.0, "type": "electric_scooter", "lat": 38.9024335, "is_reserved": 0, "is_disabled": 0, "fusion_lon": 0.0, "bike_id": "e9b334e22b8e12d3210934b3676635a8", "lon": -77.04359166666667, "rental_uris": {"ios": "https://dc.lft.to/lastmile_qr_scan", "android": "https://dc.lft.to/lastmile_qr_scan"}}, {"name": "1e239412f7d19f13ff8713edb9739624", "fusion_lat": 0.0, "type": "electric_bike", "lat": 38.87888783333333, "is_reserved": 0, "is_disabled": 0, "fusion_lon": 0.0, "bike_id": "1e239412f7d19f13ff8713edb9739624", "lon": -77.02316016666667, "rental_uris": {"ios": "https://dc.lft.to/lastmile_qr_scan", "android": "https://dc.lft.to/lastmile_qr_scan"}}, {"name": "3ef8feb65592d26366af400f6aca49e3", "fusion_lat": 0.0, "type": "electric_scooter", "lat": 38.89713183333333, "is_reserved": 0, "is_disabled": 0, "fusion_lon": 0.0, "bike_id": "3ef8feb65592d26366af400f6aca49e3", "lon": -77.05108366666667, "rental_uris": {"ios": "https://dc.lft.to/lastmile_qr_scan", "android": "https://dc.lft.to/lastmile_qr_scan"}}, {"name": "48c38f6794ff64194707c35f909b79bd", "fusion_lat": 0.0, "type": "electric_scooter", "lat": 38.923497, "is_reserved": 0, "is_disabled": 0, "fusion_lon": 0.0, "bike_id": "48c38f6794ff64194707c35f909b79bd", "lon": -77.01905066666667, "rental_uris": {"ios": "https://dc.lft.to/lastmile_qr_scan", "android": "https://dc.lft.to/lastmile_qr_scan"}}, {"name": "c610fb2875a3423edf28f4c88876e5ac", "fusion_lat": 0.0, "type": "electric_scooter", "lat": 38.870166833333336, "is_reserved": 0, "is_disabled": 0, "fusion_lon": 0.0, "bike_id": "c610fb2875a3423edf28f4c88876e5ac", "lon": -77.01221966666667, "rental_uris": {"ios": "https://dc.lft.to/lastmile_qr_scan", "android": "https://dc.lft.to/lastmile_qr_scan"}}, {"name": "8f0045dd0227336ed21103887ab1fa60", "fusion_lat": 0.0, "type": "electric_scooter", "lat": 38.92437316666667, "is_reserved": 0, "is_disabled": 0, "fusion_lon": 0.0, "bike_id": "8f0045dd0227336ed21103887ab1fa60", "lon": -77.04134633333334, "rental_uris": {"ios": "https://dc.lft.to/lastmile_qr_scan", "android": "https://dc.lft.to/lastmile_qr_scan"}}, {"name": "c338a3bbf20f402653d042b0fa1f6da8", "fusion_lat": 0.0, "type": "electric_bike", "lat": 38.82051216666667, "is_reserved": 0, "is_disabled": 0, "fusion_lon": 0.0, "bike_id": "c338a3bbf20f402653d042b0fa1f6da8", "lon": -77.053118, "rental_uris": {"ios": "https://dc.lft.to/lastmile_qr_scan", "android": "https://dc.lft.to/lastmile_qr_scan"}}, {"name": "7a86074250747e1eafb7834aa6527901", "fusion_lat": 0.0, "type": "electric_scooter", "lat": 38.900357666666665, "is_reserved": 0, "is_disabled": 0, "fusion_lon": 0.0, "bike_id": "7a86074250747e1eafb7834aa6527901", "lon": -77.00193583333333, "rental_uris": {"ios": "https://dc.lft.to/lastmile_qr_scan", "android": "https://dc.lft.to/lastmile_qr_scan"}}, {"name": "b101b7de40fb260242fb609b702e4d34", "fusion_lat": 0.0, "type": "electric_bike", "lat": 38.9650955, "is_reserved": 0, "is_disabled": 0, "fusion_lon": 0.0, "bike_id": "b101b7de40fb260242fb609b702e4d34", "lon": -77.10331416666666, "rental_uris": {"ios": "https://dc.lft.to/lastmile_qr_scan", "android": "https://dc.lft.to/lastmile_qr_scan"}}, {"name": "c285513f80a18828262e1261ee4f18b5", "fusion_lat": 0.0, "type": "electric_scooter", "lat": 38.892310333333334, "is_reserved": 0, "is_disabled": 0, "fusion_lon": 0.0, "bike_id": "c285513f80a18828262e1261ee4f18b5", "lon": -77.02653783333334, "rental_uris": {"ios": "https://dc.lft.to/lastmile_qr_scan", "android": "https://dc.lft.to/lastmile_qr_scan"}}, {"name": "1f64080e606a73acffd89bfe9a6e8e6b", "fusion_lat": 0.0, "type": "electric_scooter", "lat": 38.90325983333334, "is_reserved": 0, "is_disabled": 0, "fusion_lon": 0.0, "bike_id": "1f64080e606a73acffd89bfe9a6e8e6b", "lon": -77.03200483333333, "rental_uris": {"ios": "https://dc.lft.to/lastmile_qr_scan", "android": "https://dc.lft.to/lastmile_qr_scan"}}, {"name": "4b36b6d08bbf9f69d202ef477c3b394f", "fusion_lat": 0.0, "type": "electric_scooter", "lat": 38.932839333333334, "is_reserved": 0, "is_disabled": 0, "fusion_lon": 0.0, "bike_id": "4b36b6d08bbf9f69d202ef477c3b394f", "lon": -77.03501133333333, "rental_uris": {"ios": "https://dc.lft.to/lastmile_qr_scan", "android": "https://dc.lft.to/lastmile_qr_scan"}}, {"name": "f5ce607c87119cc9394f838d3c4597ce", "fusion_lat": 0.0, "type": "electric_bike", "lat": 38.96554416666667, "is_reserved": 0, "is_disabled": 0, "fusion_lon": 0.0, "bike_id": "f5ce607c87119cc9394f838d3c4597ce", "lon": -77.035121, "rental_uris": {"ios": "https://dc.lft.to/lastmile_qr_scan", "android": "https://dc.lft.to/lastmile_qr_scan"}}, {"name": "34c0610869b744c54bff3024cd104dd1", "fusion_lat": 0.0, "type": "electric_scooter", "lat": 38.93080766666667, "is_reserved": 0, "is_disabled": 0, "fusion_lon": 0.0, "bike_id": "34c0610869b744c54bff3024cd104dd1", "lon": -77.03395766666667, "rental_uris": {"ios": "https://dc.lft.to/lastmile_qr_scan", "android": "https://dc.lft.to/lastmile_qr_scan"}}, {"name": "a765a1faad345e4cdbab435918e226d4", "fusion_lat": 0.0, "type": "electric_scooter", "lat": 38.9006465, "is_reserved": 0, "is_disabled": 0, "fusion_lon": 0.0, "bike_id": "a765a1faad345e4cdbab435918e226d4", "lon": -77.03165, "rental_uris": {"ios": "https://dc.lft.to/lastmile_qr_scan", "android": "https://dc.lft.to/lastmile_qr_scan"}}, {"name": "8c1d288ea2f6e30e3dc13eb99aa5e626", "fusion_lat": 0.0, "type": "electric_scooter", "lat": 38.900696333333336, "is_reserved": 0, "is_disabled": 0, "fusion_lon": 0.0, "bike_id": "8c1d288ea2f6e30e3dc13eb99aa5e626", "lon": -77.04507233333334, "rental_uris": {"ios": "https://dc.lft.to/lastmile_qr_scan", "android": "https://dc.lft.to/lastmile_qr_scan"}}, {"name": "b810a9412340bf98b4a2111052e545ab", "fusion_lat": 0.0, "type": "electric_scooter", "lat": 38.9003135, "is_reserved": 0, "is_disabled": 0, "fusion_lon": 0.0, "bike_id": "b810a9412340bf98b4a2111052e545ab", "lon": -77.01148083333334, "rental_uris": {"ios": "https://dc.lft.to/lastmile_qr_scan", "android": "https://dc.lft.to/lastmile_qr_scan"}}, {"name": "9a2d552604ab3a69c7f901329966969e", "fusion_lat": 0.0, "type": "electric_scooter", "lat": 38.865716166666665, "is_reserved": 0, "is_disabled": 0, "fusion_lon": 0.0, "bike_id": "9a2d552604ab3a69c7f901329966969e", "lon": -76.98549466666667, "rental_uris": {"ios": "https://dc.lft.to/lastmile_qr_scan", "android": "https://dc.lft.to/lastmile_qr_scan"}}, {"name": "ad20d227974cdf577e8c96467b6372e3", "fusion_lat": 0.0, "type": "electric_scooter", "lat": 38.890973833333334, "is_reserved": 0, "is_disabled": 0, "fusion_lon": 0.0, "bike_id": "ad20d227974cdf577e8c96467b6372e3", "lon": -76.99785633333333, "rental_uris": {"ios": "https://dc.lft.to/lastmile_qr_scan", "android": "https://dc.lft.to/lastmile_qr_scan"}}, {"name": "e6187609a5f878218258a17050596325", "fusion_lat": 0.0, "type": "electric_scooter", "lat": 38.89889566666667, "is_reserved": 0, "is_disabled": 0, "fusion_lon": 0.0, "bike_id": "e6187609a5f878218258a17050596325", "lon": -77.03334983333333, "rental_uris": {"ios": "https://dc.lft.to/lastmile_qr_scan", "android": "https://dc.lft.to/lastmile_qr_scan"}}, {"name": "c770beeab3ee54660db11dbaa866c4cd", "fusion_lat": 0.0, "type": "electric_scooter", "lat": 38.912623333333336, "is_reserved": 0, "is_disabled": 0, "fusion_lon": 0.0, "bike_id": "c770beeab3ee54660db11dbaa866c4cd", "lon": -77.0095485, "rental_uris": {"ios": "https://dc.lft.to/lastmile_qr_scan", "android": "https://dc.lft.to/lastmile_qr_scan"}}, {"name": "dbc5b33bbadadffb3823b0ee76abb2d6", "fusion_lat": 0.0, "type": "electric_bike", "lat": 38.965947, "is_reserved": 0, "is_disabled": 0, "fusion_lon": 0.0, "bike_id": "dbc5b33bbadadffb3823b0ee76abb2d6", "lon": -76.97954816666666, "rental_uris": {"ios": "https://dc.lft.to/lastmile_qr_scan", "android": "https://dc.lft.to/lastmile_qr_scan"}}, {"name": "89360f8a660ff29c9d2bddf4affcd92d", "fusion_lat": 0.0, "type": "electric_bike", "lat": 38.89353116666667, "is_reserved": 0, "is_disabled": 0, "fusion_lon": 0.0, "bike_id": "89360f8a660ff29c9d2bddf4affcd92d", "lon": -77.18737533333334, "rental_uris": {"ios": "https://dc.lft.to/lastmile_qr_scan", "android": "https://dc.lft.to/lastmile_qr_scan"}}, {"name": "7ba5000a7e61b714322f9742cd0ca20c", "fusion_lat": 0.0, "type": "electric_bike", "lat": 38.87852816666667, "is_reserved": 0, "is_disabled": 0, "fusion_lon": 0.0, "bike_id": "7ba5000a7e61b714322f9742cd0ca20c", "lon": -77.00231233333334, "rental_uris": {"ios": "https://dc.lft.to/lastmile_qr_scan", "android": "https://dc.lft.to/lastmile_qr_scan"}}, {"name": "2e505324ca1528fd80d5ae4dd564892f", "fusion_lat": 0.0, "type": "electric_scooter", "lat": 38.936872666666666, "is_reserved": 0, "is_disabled": 0, "fusion_lon": 0.0, "bike_id": "2e505324ca1528fd80d5ae4dd564892f", "lon": -77.031649, "rental_uris": {"ios": "https://dc.lft.to/lastmile_qr_scan", "android": "https://dc.lft.to/lastmile_qr_scan"}}, {"name": "77730ea7aa132a47ee887efa5daa0728", "fusion_lat": 0.0, "type": "electric_scooter", "lat": 38.93536983333333, "is_reserved": 0, "is_disabled": 0, "fusion_lon": 0.0, "bike_id": "77730ea7aa132a47ee887efa5daa0728", "lon": -77.028546, "rental_uris": {"ios": "https://dc.lft.to/lastmile_qr_scan", "android": "https://dc.lft.to/lastmile_qr_scan"}}, {"name": "0efb070c8d4b5d74334471208ce96304", "fusion_lat": 0.0, "type": "electric_scooter", "lat": 38.874062333333335, "is_reserved": 0, "is_disabled": 0, "fusion_lon": 0.0, "bike_id": "0efb070c8d4b5d74334471208ce96304", "lon": -77.0008075, "rental_uris": {"ios": "https://dc.lft.to/lastmile_qr_scan", "android": "https://dc.lft.to/lastmile_qr_scan"}}, {"name": "f2b57cdfbe85d477fa1a51249f8539e0", "fusion_lat": 0.0, "type": "electric_scooter", "lat": 38.892342, "is_reserved": 0, "is_disabled": 0, "fusion_lon": 0.0, "bike_id": "f2b57cdfbe85d477fa1a51249f8539e0", "lon": -77.050016, "rental_uris": {"ios": "https://dc.lft.to/lastmile_qr_scan", "android": "https://dc.lft.to/lastmile_qr_scan"}}, {"name": "6509f7f4709f6b7447a98bda4d7df5d9", "fusion_lat": 0.0, "type": "electric_scooter", "lat": 38.89991833333333, "is_reserved": 0, "is_disabled": 0, "fusion_lon": 0.0, "bike_id": "6509f7f4709f6b7447a98bda4d7df5d9", "lon": -77.00919083333334, "rental_uris": {"ios": "https://dc.lft.to/lastmile_qr_scan", "android": "https://dc.lft.to/lastmile_qr_scan"}}, {"name": "d56f795bcd8a785afb54d813c08f102d", "fusion_lat": 0.0, "type": "electric_scooter", "lat": 38.883730166666666, "is_reserved": 0, "is_disabled": 0, "fusion_lon": 0.0, "bike_id": "d56f795bcd8a785afb54d813c08f102d", "lon": -77.0317075, "rental_uris": {"ios": "https://dc.lft.to/lastmile_qr_scan", "android": "https://dc.lft.to/lastmile_qr_scan"}}, {"name": "002f78419c92915d66e3757d23e7e3c9", "fusion_lat": 0.0, "type": "electric_scooter", "lat": 38.90614933333333, "is_reserved": 0, "is_disabled": 0, "fusion_lon": 0.0, "bike_id": "002f78419c92915d66e3757d23e7e3c9", "lon": -77.0638455, "rental_uris": {"ios": "https://dc.lft.to/lastmile_qr_scan", "android": "https://dc.lft.to/lastmile_qr_scan"}}, {"name": "03b39f19b190822952d0c409ceb5ee85", "fusion_lat": 0.0, "type": "electric_scooter", "lat": 38.94196516666667, "is_reserved": 0, "is_disabled": 0, "fusion_lon": 0.0, "bike_id": "03b39f19b190822952d0c409ceb5ee85", "lon": -77.04016166666666, "rental_uris": {"ios": "https://dc.lft.to/lastmile_qr_scan", "android": "https://dc.lft.to/lastmile_qr_scan"}}, {"name": "9e2ce2240b9577f74587ec788fd181e8", "fusion_lat": 0.0, "type": "electric_scooter", "lat": 38.915659833333336, "is_reserved": 0, "is_disabled": 0, "fusion_lon": 0.0, "bike_id": "9e2ce2240b9577f74587ec788fd181e8", "lon": -77.02943316666666, "rental_uris": {"ios": "https://dc.lft.to/lastmile_qr_scan", "android": "https://dc.lft.to/lastmile_qr_scan"}}, {"name": "93c417fd84a928c6b0008189f9c4c8a0", "fusion_lat": 0.0, "type": "electric_scooter", "lat": 38.94192566666667, "is_reserved": 0, "is_disabled": 0, "fusion_lon": 0.0, "bike_id": "93c417fd84a928c6b0008189f9c4c8a0", "lon": -77.03028516666667, "rental_uris": {"ios": "https://dc.lft.to/lastmile_qr_scan", "android": "https://dc.lft.to/lastmile_qr_scan"}}, {"name": "1ae1b2ea9493f15dd3aad9b640036d45", "fusion_lat": 0.0, "type": "electric_bike", "lat": 39.05818283333333, "is_reserved": 0, "is_disabled": 0, "fusion_lon": 0.0, "bike_id": "1ae1b2ea9493f15dd3aad9b640036d45", "lon": -77.1262505, "rental_uris": {"ios": "https://dc.lft.to/lastmile_qr_scan", "android": "https://dc.lft.to/lastmile_qr_scan"}}, {"name": "a3d1bc328fb6ed95a29ceff54d98189e", "fusion_lat": 0.0, "type": "electric_scooter", "lat": 38.9090755, "is_reserved": 0, "is_disabled": 0, "fusion_lon": 0.0, "bike_id": "a3d1bc328fb6ed95a29ceff54d98189e", "lon": -77.02814916666667, "rental_uris": {"ios": "https://dc.lft.to/lastmile_qr_scan", "android": "https://dc.lft.to/lastmile_qr_scan"}}, {"name": "4fb85a8f21adaca83a9aed5223947442", "fusion_lat": 0.0, "type": "electric_bike", "lat": 38.84622983333333, "is_reserved": 0, "is_disabled": 0, "fusion_lon": 0.0, "bike_id": "4fb85a8f21adaca83a9aed5223947442", "lon": -76.9782765, "rental_uris": {"ios": "https://dc.lft.to/lastmile_qr_scan", "android": "https://dc.lft.to/lastmile_qr_scan"}}, {"name": "39ac5acd98e56fde6c5f376e2889d3d8", "fusion_lat": 0.0, "type": "electric_scooter", "lat": 38.91272766666667, "is_reserved": 0, "is_disabled": 0, "fusion_lon": 0.0, "bike_id": "39ac5acd98e56fde6c5f376e2889d3d8", "lon": -77.044959, "rental_uris": {"ios": "https://dc.lft.to/lastmile_qr_scan", "android": "https://dc.lft.to/lastmile_qr_scan"}}, {"name": "83ea500a27f9882e45dbb28afc794ea1", "fusion_lat": 0.0, "type": "electric_scooter", "lat": 38.911433333333335, "is_reserved": 0, "is_disabled": 0, "fusion_lon": 0.0, "bike_id": "83ea500a27f9882e45dbb28afc794ea1", "lon": -77.032151, "rental_uris": {"ios": "https://dc.lft.to/lastmile_qr_scan", "android": "https://dc.lft.to/lastmile_qr_scan"}}, {"name": "fc85b3aa1f5c9821b3fa5fa7264f8923", "fusion_lat": 0.0, "type": "electric_scooter", "lat": 38.897307166666664, "is_reserved": 0, "is_disabled": 0, "fusion_lon": 0.0, "bike_id": "fc85b3aa1f5c9821b3fa5fa7264f8923", "lon": -77.00925683333334, "rental_uris": {"ios": "https://dc.lft.to/lastmile_qr_scan", "android": "https://dc.lft.to/lastmile_qr_scan"}}, {"name": "caaf101bc83bdaf5b3f1780a9374f538", "fusion_lat": 0.0, "type": "electric_scooter", "lat": 38.89920333333333, "is_reserved": 0, "is_disabled": 0, "fusion_lon": 0.0, "bike_id": "caaf101bc83bdaf5b3f1780a9374f538", "lon": -77.03300616666667, "rental_uris": {"ios": "https://dc.lft.to/lastmile_qr_scan", "android": "https://dc.lft.to/lastmile_qr_scan"}}, {"name": "d4b39dfa7bd78b43716d8c2447af3096", "fusion_lat": 0.0, "type": "electric_scooter", "lat": 38.91338433333333, "is_reserved": 0, "is_disabled": 0, "fusion_lon": 0.0, "bike_id": "d4b39dfa7bd78b43716d8c2447af3096", "lon": -77.04586633333334, "rental_uris": {"ios": "https://dc.lft.to/lastmile_qr_scan", "android": "https://dc.lft.to/lastmile_qr_scan"}}, {"name": "ea82eeec957266bd3aa375d0c8bc1ef4", "fusion_lat": 0.0, "type": "electric_scooter", "lat": 38.899718166666666, "is_reserved": 0, "is_disabled": 0, "fusion_lon": 0.0, "bike_id": "ea82eeec957266bd3aa375d0c8bc1ef4", "lon": -76.9871095, "rental_uris": {"ios": "https://dc.lft.to/lastmile_qr_scan", "android": "https://dc.lft.to/lastmile_qr_scan"}}, {"name": "e60c3028b87f7884c1fdbcd4baea7f3b", "fusion_lat": 0.0, "type": "electric_scooter", "lat": 38.934565166666665, "is_reserved": 0, "is_disabled": 0, "fusion_lon": 0.0, "bike_id": "e60c3028b87f7884c1fdbcd4baea7f3b", "lon": -77.03050216666666, "rental_uris": {"ios": "https://dc.lft.to/lastmile_qr_scan", "android": "https://dc.lft.to/lastmile_qr_scan"}}, {"name": "e65ca170679927b466c6412a0a02ba8a", "fusion_lat": 0.0, "type": "electric_scooter", "lat": 38.91117633333333, "is_reserved": 0, "is_disabled": 0, "fusion_lon": 0.0, "bike_id": "e65ca170679927b466c6412a0a02ba8a", "lon": -77.04923533333333, "rental_uris": {"ios": "https://dc.lft.to/lastmile_qr_scan", "android": "https://dc.lft.to/lastmile_qr_scan"}}, {"name": "58fb676b56f67969f9907e48e1333f2d", "fusion_lat": 0.0, "type": "electric_scooter", "lat": 38.90523866666667, "is_reserved": 0, "is_disabled": 0, "fusion_lon": 0.0, "bike_id": "58fb676b56f67969f9907e48e1333f2d", "lon": -77.05039016666667, "rental_uris": {"ios": "https://dc.lft.to/lastmile_qr_scan", "android": "https://dc.lft.to/lastmile_qr_scan"}}, {"name": "acf3da4b14e0c502ab77f1c7f7b054c0", "fusion_lat": 0.0, "type": "electric_scooter", "lat": 38.929836, "is_reserved": 0, "is_disabled": 0, "fusion_lon": 0.0, "bike_id": "acf3da4b14e0c502ab77f1c7f7b054c0", "lon": -77.0325515, "rental_uris": {"ios": "https://dc.lft.to/lastmile_qr_scan", "android": "https://dc.lft.to/lastmile_qr_scan"}}, {"name": "d2dcca7a83c70bc6fc44ea26ea5969fd", "fusion_lat": 0.0, "type": "electric_scooter", "lat": 38.89612833333333, "is_reserved": 0, "is_disabled": 0, "fusion_lon": 0.0, "bike_id": "d2dcca7a83c70bc6fc44ea26ea5969fd", "lon": -77.04693316666666, "rental_uris": {"ios": "https://dc.lft.to/lastmile_qr_scan", "android": "https://dc.lft.to/lastmile_qr_scan"}}, {"name": "810796eac128006c5dc237b0073ed7d3", "fusion_lat": 0.0, "type": "electric_bike", "lat": 38.955547, "is_reserved": 0, "is_disabled": 0, "fusion_lon": 0.0, "bike_id": "810796eac128006c5dc237b0073ed7d3", "lon": -76.93534116666666, "rental_uris": {"ios": "https://dc.lft.to/lastmile_qr_scan", "android": "https://dc.lft.to/lastmile_qr_scan"}}, {"name": "81921a9720c1cb5ee8cb0b04adf9b6c7", "fusion_lat": 0.0, "type": "electric_scooter", "lat": 38.91539266666667, "is_reserved": 0, "is_disabled": 0, "fusion_lon": 0.0, "bike_id": "81921a9720c1cb5ee8cb0b04adf9b6c7", "lon": -77.01222533333333, "rental_uris": {"ios": "https://dc.lft.to/lastmile_qr_scan", "android": "https://dc.lft.to/lastmile_qr_scan"}}, {"name": "cc29a1dca749462f9ed1545369e454ee", "fusion_lat": 0.0, "type": "electric_scooter", "lat": 38.921830666666665, "is_reserved": 0, "is_disabled": 0, "fusion_lon": 0.0, "bike_id": "cc29a1dca749462f9ed1545369e454ee", "lon": -77.042522, "rental_uris": {"ios": "https://dc.lft.to/lastmile_qr_scan", "android": "https://dc.lft.to/lastmile_qr_scan"}}, {"name": "bbafe9e83650cbd16c6a44570a73d050", "fusion_lat": 0.0, "type": "electric_scooter", "lat": 38.9110755, "is_reserved": 0, "is_disabled": 0, "fusion_lon": 0.0, "bike_id": "bbafe9e83650cbd16c6a44570a73d050", "lon": -77.03177866666667, "rental_uris": {"ios": "https://dc.lft.to/lastmile_qr_scan", "android": "https://dc.lft.to/lastmile_qr_scan"}}, {"name": "58566847a810b68dbb7b10e2643a0941", "fusion_lat": 0.0, "type": "electric_scooter", "lat": 38.90986916666667, "is_reserved": 0, "is_disabled": 0, "fusion_lon": 0.0, "bike_id": "58566847a810b68dbb7b10e2643a0941", "lon": -77.04238933333333, "rental_uris": {"ios": "https://dc.lft.to/lastmile_qr_scan", "android": "https://dc.lft.to/lastmile_qr_scan"}}, {"name": "9df39197479a904efd469e7ff40f6b03", "fusion_lat": 0.0, "type": "electric_scooter", "lat": 38.90076583333333, "is_reserved": 0, "is_disabled": 0, "fusion_lon": 0.0, "bike_id": "9df39197479a904efd469e7ff40f6b03", "lon": -77.046503, "rental_uris": {"ios": "https://dc.lft.to/lastmile_qr_scan", "android": "https://dc.lft.to/lastmile_qr_scan"}}, {"name": "f6edc6fc6a281b561e390d3d873b103c", "fusion_lat": 0.0, "type": "electric_scooter", "lat": 38.9427515, "is_reserved": 0, "is_disabled": 0, "fusion_lon": 0.0, "bike_id": "f6edc6fc6a281b561e390d3d873b103c", "lon": -77.0250185, "rental_uris": {"ios": "https://dc.lft.to/lastmile_qr_scan", "android": "https://dc.lft.to/lastmile_qr_scan"}}, {"name": "fb8036890aefbc7924105457d6648ccb", "fusion_lat": 0.0, "type": "electric_scooter", "lat": 38.905316666666664, "is_reserved": 0, "is_disabled": 0, "fusion_lon": 0.0, "bike_id": "fb8036890aefbc7924105457d6648ccb", "lon": -77.04744466666666, "rental_uris": {"ios": "https://dc.lft.to/lastmile_qr_scan", "android": "https://dc.lft.to/lastmile_qr_scan"}}, {"name": "0824b7e1ab3174821d0f5f512d1464e7", "fusion_lat": 0.0, "type": "electric_bike", "lat": 38.83200816666667, "is_reserved": 0, "is_disabled": 0, "fusion_lon": 0.0, "bike_id": "0824b7e1ab3174821d0f5f512d1464e7", "lon": -77.0768315, "rental_uris": {"ios": "https://dc.lft.to/lastmile_qr_scan", "android": "https://dc.lft.to/lastmile_qr_scan"}}, {"name": "3ec1ea9bc0cfe624baf7f8570dcfe4f4", "fusion_lat": 0.0, "type": "electric_scooter", "lat": 38.90870916666667, "is_reserved": 0, "is_disabled": 0, "fusion_lon": 0.0, "bike_id": "3ec1ea9bc0cfe624baf7f8570dcfe4f4", "lon": -76.99959916666667, "rental_uris": {"ios": "https://dc.lft.to/lastmile_qr_scan", "android": "https://dc.lft.to/lastmile_qr_scan"}}, {"name": "2390bd49ba4c22b0eb59e8e8160cf272", "fusion_lat": 0.0, "type": "electric_scooter", "lat": 38.90788716666667, "is_reserved": 0, "is_disabled": 0, "fusion_lon": 0.0, "bike_id": "2390bd49ba4c22b0eb59e8e8160cf272", "lon": -77.07262083333333, "rental_uris": {"ios": "https://dc.lft.to/lastmile_qr_scan", "android": "https://dc.lft.to/lastmile_qr_scan"}}, {"name": "66f14d60e7a498b3398d94d7a7c053ac", "fusion_lat": 0.0, "type": "electric_scooter", "lat": 38.90680283333333, "is_reserved": 0, "is_disabled": 0, "fusion_lon": 0.0, "bike_id": "66f14d60e7a498b3398d94d7a7c053ac", "lon": -76.9781135, "rental_uris": {"ios": "https://dc.lft.to/lastmile_qr_scan", "android": "https://dc.lft.to/lastmile_qr_scan"}}, {"name": "44c56f77cebd690b109eb536a911d93d", "fusion_lat": 0.0, "type": "electric_bike", "lat": 38.81520283333333, "is_reserved": 0, "is_disabled": 0, "fusion_lon": 0.0, "bike_id": "44c56f77cebd690b109eb536a911d93d", "lon": -77.12655233333334, "rental_uris": {"ios": "https://dc.lft.to/lastmile_qr_scan", "android": "https://dc.lft.to/lastmile_qr_scan"}}, {"name": "b9f48f6905339c35a1e87c4ccb26e75a", "fusion_lat": 0.0, "type": "electric_bike", "lat": 38.89193916666667, "is_reserved": 0, "is_disabled": 0, "fusion_lon": 0.0, "bike_id": "b9f48f6905339c35a1e87c4ccb26e75a", "lon": -77.12262216666667, "rental_uris": {"ios": "https://dc.lft.to/lastmile_qr_scan", "android": "https://dc.lft.to/lastmile_qr_scan"}}, {"name": "39608698f90adc2e5f379d6486b5a50f", "fusion_lat": 0.0, "type": "electric_scooter", "lat": 38.91612833333333, "is_reserved": 0, "is_disabled": 0, "fusion_lon": 0.0, "bike_id": "39608698f90adc2e5f379d6486b5a50f", "lon": -77.0416375, "rental_uris": {"ios": "https://dc.lft.to/lastmile_qr_scan", "android": "https://dc.lft.to/lastmile_qr_scan"}}, {"name": "466ca1e7cec16028b882feeb9f3c8cbe", "fusion_lat": 0.0, "type": "electric_scooter", "lat": 38.911933833333336, "is_reserved": 0, "is_disabled": 0, "fusion_lon": 0.0, "bike_id": "466ca1e7cec16028b882feeb9f3c8cbe", "lon": -77.0119375, "rental_uris": {"ios": "https://dc.lft.to/lastmile_qr_scan", "android": "https://dc.lft.to/lastmile_qr_scan"}}, {"name": "982d2f479846373eeaaadc7508946112", "fusion_lat": 0.0, "type": "electric_scooter", "lat": 38.907618166666666, "is_reserved": 0, "is_disabled": 0, "fusion_lon": 0.0, "bike_id": "982d2f479846373eeaaadc7508946112", "lon": -77.036027, "rental_uris": {"ios": "https://dc.lft.to/lastmile_qr_scan", "android": "https://dc.lft.to/lastmile_qr_scan"}}, {"name": "f9a4e13174c5d2b56a5c8fead536b88c", "fusion_lat": 0.0, "type": "electric_scooter", "lat": 38.899844333333334, "is_reserved": 0, "is_disabled": 0, "fusion_lon": 0.0, "bike_id": "f9a4e13174c5d2b56a5c8fead536b88c", "lon": -77.055277, "rental_uris": {"ios": "https://dc.lft.to/lastmile_qr_scan", "android": "https://dc.lft.to/lastmile_qr_scan"}}, {"name": "3f1768d343100bb90c636470cca97e6d", "fusion_lat": 0.0, "type": "electric_scooter", "lat": 38.8635615, "is_reserved": 0, "is_disabled": 0, "fusion_lon": 0.0, "bike_id": "3f1768d343100bb90c636470cca97e6d", "lon": -76.99065433333334, "rental_uris": {"ios": "https://dc.lft.to/lastmile_qr_scan", "android": "https://dc.lft.to/lastmile_qr_scan"}}, {"name": "216e6581d0042e26de01f29e31936aed", "fusion_lat": 0.0, "type": "electric_scooter", "lat": 38.898940333333336, "is_reserved": 0, "is_disabled": 0, "fusion_lon": 0.0, "bike_id": "216e6581d0042e26de01f29e31936aed", "lon": -76.93173483333334, "rental_uris": {"ios": "https://dc.lft.to/lastmile_qr_scan", "android": "https://dc.lft.to/lastmile_qr_scan"}}, {"name": "26d50c8b8d957ed1ab02001973c8b8c8", "fusion_lat": 0.0, "type": "electric_scooter", "lat": 38.880621833333336, "is_reserved": 0, "is_disabled": 0, "fusion_lon": 0.0, "bike_id": "26d50c8b8d957ed1ab02001973c8b8c8", "lon": -77.01327983333333, "rental_uris": {"ios": "https://dc.lft.to/lastmile_qr_scan", "android": "https://dc.lft.to/lastmile_qr_scan"}}, {"name": "57ddf6e4f068088d0d5d667007d91091", "fusion_lat": 0.0, "type": "electric_scooter", "lat": 38.905473666666666, "is_reserved": 0, "is_disabled": 0, "fusion_lon": 0.0, "bike_id": "57ddf6e4f068088d0d5d667007d91091", "lon": -77.0533685, "rental_uris": {"ios": "https://dc.lft.to/lastmile_qr_scan", "android": "https://dc.lft.to/lastmile_qr_scan"}}, {"name": "f7a7da6c6a32356aa6de74a0dbb3e459", "fusion_lat": 0.0, "type": "electric_scooter", "lat": 38.94211116666666, "is_reserved": 0, "is_disabled": 0, "fusion_lon": 0.0, "bike_id": "f7a7da6c6a32356aa6de74a0dbb3e459", "lon": -77.03595116666666, "rental_uris": {"ios": "https://dc.lft.to/lastmile_qr_scan", "android": "https://dc.lft.to/lastmile_qr_scan"}}, {"name": "33cb4a7294c7a52ed7e5bb5556d53c72", "fusion_lat": 0.0, "type": "electric_scooter", "lat": 38.9134335, "is_reserved": 0, "is_disabled": 0, "fusion_lon": 0.0, "bike_id": "33cb4a7294c7a52ed7e5bb5556d53c72", "lon": -77.04833983333333, "rental_uris": {"ios": "https://dc.lft.to/lastmile_qr_scan", "android": "https://dc.lft.to/lastmile_qr_scan"}}, {"name": "e96261486e18672dbc700181785beb70", "fusion_lat": 0.0, "type": "electric_scooter", "lat": 38.896085666666664, "is_reserved": 0, "is_disabled": 0, "fusion_lon": 0.0, "bike_id": "e96261486e18672dbc700181785beb70", "lon": -77.02691133333333, "rental_uris": {"ios": "https://dc.lft.to/lastmile_qr_scan", "android": "https://dc.lft.to/lastmile_qr_scan"}}, {"name": "791d0b0959e466d015d9cfd0b8a2fa40", "fusion_lat": 0.0, "type": "electric_scooter", "lat": 38.923071166666666, "is_reserved": 0, "is_disabled": 0, "fusion_lon": 0.0, "bike_id": "791d0b0959e466d015d9cfd0b8a2fa40", "lon": -77.04202, "rental_uris": {"ios": "https://dc.lft.to/lastmile_qr_scan", "android": "https://dc.lft.to/lastmile_qr_scan"}}, {"name": "3c1442484a802d8f8fe3cb3f505c8b3b", "fusion_lat": 0.0, "type": "electric_scooter", "lat": 38.923732333333334, "is_reserved": 0, "is_disabled": 0, "fusion_lon": 0.0, "bike_id": "3c1442484a802d8f8fe3cb3f505c8b3b", "lon": -77.01914433333333, "rental_uris": {"ios": "https://dc.lft.to/lastmile_qr_scan", "android": "https://dc.lft.to/lastmile_qr_scan"}}, {"name": "ac9e3e69f0d9a967e76327ec825e5ea4", "fusion_lat": 0.0, "type": "electric_scooter", "lat": 38.89834883333333, "is_reserved": 0, "is_disabled": 0, "fusion_lon": 0.0, "bike_id": "ac9e3e69f0d9a967e76327ec825e5ea4", "lon": -76.9877785, "rental_uris": {"ios": "https://dc.lft.to/lastmile_qr_scan", "android": "https://dc.lft.to/lastmile_qr_scan"}}, {"name": "e3edbca363a5ac73cf36dfc75295f9f1", "fusion_lat": 0.0, "type": "electric_scooter", "lat": 38.903847666666664, "is_reserved": 0, "is_disabled": 0, "fusion_lon": 0.0, "bike_id": "e3edbca363a5ac73cf36dfc75295f9f1", "lon": -77.03623816666666, "rental_uris": {"ios": "https://dc.lft.to/lastmile_qr_scan", "android": "https://dc.lft.to/lastmile_qr_scan"}}, {"name": "42333122ba30748b14363d2b378e42c0", "fusion_lat": 0.0, "type": "electric_scooter", "lat": 38.899231666666665, "is_reserved": 0, "is_disabled": 0, "fusion_lon": 0.0, "bike_id": "42333122ba30748b14363d2b378e42c0", "lon": -77.0391675, "rental_uris": {"ios": "https://dc.lft.to/lastmile_qr_scan", "android": "https://dc.lft.to/lastmile_qr_scan"}}, {"name": "f79211e46e58666f4a358883dcc37d7d", "fusion_lat": 0.0, "type": "electric_scooter", "lat": 38.901278, "is_reserved": 0, "is_disabled": 0, "fusion_lon": 0.0, "bike_id": "f79211e46e58666f4a358883dcc37d7d", "lon": -77.04983116666666, "rental_uris": {"ios": "https://dc.lft.to/lastmile_qr_scan", "android": "https://dc.lft.to/lastmile_qr_scan"}}, {"name": "a28d756218bfc0144797e46140410a7e", "fusion_lat": 0.0, "type": "electric_scooter", "lat": 38.898606, "is_reserved": 0, "is_disabled": 0, "fusion_lon": 0.0, "bike_id": "a28d756218bfc0144797e46140410a7e", "lon": -77.01606766666667, "rental_uris": {"ios": "https://dc.lft.to/lastmile_qr_scan", "android": "https://dc.lft.to/lastmile_qr_scan"}}, {"name": "1e933266333707b4d46c39c3e3c53223", "fusion_lat": 0.0, "type": "electric_scooter", "lat": 38.903783833333335, "is_reserved": 0, "is_disabled": 0, "fusion_lon": 0.0, "bike_id": "1e933266333707b4d46c39c3e3c53223", "lon": -77.035169, "rental_uris": {"ios": "https://dc.lft.to/lastmile_qr_scan", "android": "https://dc.lft.to/lastmile_qr_scan"}}, {"name": "d0c0ff30fba974ddf1cbc137bc4c987e", "fusion_lat": 0.0, "type": "electric_bike", "lat": 38.87240333333333, "is_reserved": 0, "is_disabled": 0, "fusion_lon": 0.0, "bike_id": "d0c0ff30fba974ddf1cbc137bc4c987e", "lon": -77.01166766666667, "rental_uris": {"ios": "https://dc.lft.to/lastmile_qr_scan", "android": "https://dc.lft.to/lastmile_qr_scan"}}, {"name": "0f2060c04e29cd081cc963510df389c3", "fusion_lat": 0.0, "type": "electric_scooter", "lat": 38.90659, "is_reserved": 0, "is_disabled": 0, "fusion_lon": 0.0, "bike_id": "0f2060c04e29cd081cc963510df389c3", "lon": -77.05321216666667, "rental_uris": {"ios": "https://dc.lft.to/lastmile_qr_scan", "android": "https://dc.lft.to/lastmile_qr_scan"}}, {"name": "c40b692b52c2374d4353fe52fa002806", "fusion_lat": 0.0, "type": "electric_bike", "lat": 38.9104065, "is_reserved": 0, "is_disabled": 0, "fusion_lon": 0.0, "bike_id": "c40b692b52c2374d4353fe52fa002806", "lon": -77.03438416666667, "rental_uris": {"ios": "https://dc.lft.to/lastmile_qr_scan", "android": "https://dc.lft.to/lastmile_qr_scan"}}, {"name": "da36f653ebc412b97977d17d7b46fe24", "fusion_lat": 0.0, "type": "electric_scooter", "lat": 38.8977075, "is_reserved": 0, "is_disabled": 0, "fusion_lon": 0.0, "bike_id": "da36f653ebc412b97977d17d7b46fe24", "lon": -77.04796033333334, "rental_uris": {"ios": "https://dc.lft.to/lastmile_qr_scan", "android": "https://dc.lft.to/lastmile_qr_scan"}}, {"name": "d5fcfb0f5c5fea2ca794d4f78e3d034e", "fusion_lat": 0.0, "type": "electric_scooter", "lat": 38.897346666666664, "is_reserved": 0, "is_disabled": 0, "fusion_lon": 0.0, "bike_id": "d5fcfb0f5c5fea2ca794d4f78e3d034e", "lon": -77.021677, "rental_uris": {"ios": "https://dc.lft.to/lastmile_qr_scan", "android": "https://dc.lft.to/lastmile_qr_scan"}}, {"name": "a1986f69525e0769bb07d515237b9bf3", "fusion_lat": 0.0, "type": "electric_scooter", "lat": 38.862226666666665, "is_reserved": 0, "is_disabled": 0, "fusion_lon": 0.0, "bike_id": "a1986f69525e0769bb07d515237b9bf3", "lon": -76.99483366666666, "rental_uris": {"ios": "https://dc.lft.to/lastmile_qr_scan", "android": "https://dc.lft.to/lastmile_qr_scan"}}, {"name": "ccca1eef2b5ff74e7e0918d7c7af5ba3", "fusion_lat": 0.0, "type": "electric_scooter", "lat": 38.8965765, "is_reserved": 0, "is_disabled": 0, "fusion_lon": 0.0, "bike_id": "ccca1eef2b5ff74e7e0918d7c7af5ba3", "lon": -77.0269395, "rental_uris": {"ios": "https://dc.lft.to/lastmile_qr_scan", "android": "https://dc.lft.to/lastmile_qr_scan"}}, {"name": "a65a0f6cf9a06b030ed7641690a11bca", "fusion_lat": 0.0, "type": "electric_scooter", "lat": 38.89808466666667, "is_reserved": 0, "is_disabled": 0, "fusion_lon": 0.0, "bike_id": "a65a0f6cf9a06b030ed7641690a11bca", "lon": -76.995027, "rental_uris": {"ios": "https://dc.lft.to/lastmile_qr_scan", "android": "https://dc.lft.to/lastmile_qr_scan"}}, {"name": "0adb97e99f40669b499d7c73f2862542", "fusion_lat": 0.0, "type": "electric_scooter", "lat": 38.95928416666667, "is_reserved": 0, "is_disabled": 0, "fusion_lon": 0.0, "bike_id": "0adb97e99f40669b499d7c73f2862542", "lon": -77.03322666666666, "rental_uris": {"ios": "https://dc.lft.to/lastmile_qr_scan", "android": "https://dc.lft.to/lastmile_qr_scan"}}, {"name": "583ce663bf688f12bd580bcfe0138acf", "fusion_lat": 0.0, "type": "electric_scooter", "lat": 38.903456166666665, "is_reserved": 0, "is_disabled": 0, "fusion_lon": 0.0, "bike_id": "583ce663bf688f12bd580bcfe0138acf", "lon": -77.03810233333333, "rental_uris": {"ios": "https://dc.lft.to/lastmile_qr_scan", "android": "https://dc.lft.to/lastmile_qr_scan"}}, {"name": "34bf1813ac0e4ad13f02e47ec0891d68", "fusion_lat": 0.0, "type": "electric_scooter", "lat": 38.906751166666666, "is_reserved": 0, "is_disabled": 0, "fusion_lon": 0.0, "bike_id": "34bf1813ac0e4ad13f02e47ec0891d68", "lon": -77.038284, "rental_uris": {"ios": "https://dc.lft.to/lastmile_qr_scan", "android": "https://dc.lft.to/lastmile_qr_scan"}}, {"name": "f03f9c70de7d23a5081f885a2d6320ca", "fusion_lat": 0.0, "type": "electric_scooter", "lat": 38.92345366666667, "is_reserved": 0, "is_disabled": 0, "fusion_lon": 0.0, "bike_id": "f03f9c70de7d23a5081f885a2d6320ca", "lon": -77.05100316666666, "rental_uris": {"ios": "https://dc.lft.to/lastmile_qr_scan", "android": "https://dc.lft.to/lastmile_qr_scan"}}, {"name": "cc266f87bd0099679c619f7ab02e94f0", "fusion_lat": 0.0, "type": "electric_scooter", "lat": 38.9248875, "is_reserved": 0, "is_disabled": 0, "fusion_lon": 0.0, "bike_id": "cc266f87bd0099679c619f7ab02e94f0", "lon": -77.0521255, "rental_uris": {"ios": "https://dc.lft.to/lastmile_qr_scan", "android": "https://dc.lft.to/lastmile_qr_scan"}}, {"name": "3dca9c2229638e7b7c627319250a2817", "fusion_lat": 0.0, "type": "electric_scooter", "lat": 38.90539116666667, "is_reserved": 0, "is_disabled": 0, "fusion_lon": 0.0, "bike_id": "3dca9c2229638e7b7c627319250a2817", "lon": -77.05230566666667, "rental_uris": {"ios": "https://dc.lft.to/lastmile_qr_scan", "android": "https://dc.lft.to/lastmile_qr_scan"}}, {"name": "d73d139f87d7291384cf345dec36982e", "fusion_lat": 0.0, "type": "electric_bike", "lat": 38.94465833333334, "is_reserved": 0, "is_disabled": 0, "fusion_lon": 0.0, "bike_id": "d73d139f87d7291384cf345dec36982e", "lon": -76.99172583333333, "rental_uris": {"ios": "https://dc.lft.to/lastmile_qr_scan", "android": "https://dc.lft.to/lastmile_qr_scan"}}, {"name": "623e6f37c569d6c54dbdff26e957611c", "fusion_lat": 0.0, "type": "electric_scooter", "lat": 38.89828933333333, "is_reserved": 0, "is_disabled": 0, "fusion_lon": 0.0, "bike_id": "623e6f37c569d6c54dbdff26e957611c", "lon": -77.03345483333334, "rental_uris": {"ios": "https://dc.lft.to/lastmile_qr_scan", "android": "https://dc.lft.to/lastmile_qr_scan"}}, {"name": "1e0f76f83723b5f1e97f6782c8f7bddf", "fusion_lat": 0.0, "type": "electric_scooter", "lat": 38.917540333333335, "is_reserved": 0, "is_disabled": 0, "fusion_lon": 0.0, "bike_id": "1e0f76f83723b5f1e97f6782c8f7bddf", "lon": -77.03642083333334, "rental_uris": {"ios": "https://dc.lft.to/lastmile_qr_scan", "android": "https://dc.lft.to/lastmile_qr_scan"}}, {"name": "8eece6bade76d6921968a7a8c4ceffe2", "fusion_lat": 0.0, "type": "electric_scooter", "lat": 38.9191895, "is_reserved": 0, "is_disabled": 0, "fusion_lon": 0.0, "bike_id": "8eece6bade76d6921968a7a8c4ceffe2", "lon": -77.02139316666667, "rental_uris": {"ios": "https://dc.lft.to/lastmile_qr_scan", "android": "https://dc.lft.to/lastmile_qr_scan"}}, {"name": "59b7bcc3c30bead8af55cef0d2ce90b7", "fusion_lat": 0.0, "type": "electric_scooter", "lat": 38.903517666666666, "is_reserved": 0, "is_disabled": 0, "fusion_lon": 0.0, "bike_id": "59b7bcc3c30bead8af55cef0d2ce90b7", "lon": -76.975657, "rental_uris": {"ios": "https://dc.lft.to/lastmile_qr_scan", "android": "https://dc.lft.to/lastmile_qr_scan"}}, {"name": "3823b341a450b2e31ac0d8840aaa6825", "fusion_lat": 0.0, "type": "electric_scooter", "lat": 38.911180333333334, "is_reserved": 0, "is_disabled": 0, "fusion_lon": 0.0, "bike_id": "3823b341a450b2e31ac0d8840aaa6825", "lon": -77.03147383333334, "rental_uris": {"ios": "https://dc.lft.to/lastmile_qr_scan", "android": "https://dc.lft.to/lastmile_qr_scan"}}, {"name": "681439b065949d02c8934cc226157eb1", "fusion_lat": 0.0, "type": "electric_scooter", "lat": 38.880031, "is_reserved": 0, "is_disabled": 0, "fusion_lon": 0.0, "bike_id": "681439b065949d02c8934cc226157eb1", "lon": -76.98542583333334, "rental_uris": {"ios": "https://dc.lft.to/lastmile_qr_scan", "android": "https://dc.lft.to/lastmile_qr_scan"}}, {"name": "698f754c6390f69870899175387ebf62", "fusion_lat": 0.0, "type": "electric_scooter", "lat": 38.88519316666667, "is_reserved": 0, "is_disabled": 0, "fusion_lon": 0.0, "bike_id": "698f754c6390f69870899175387ebf62", "lon": -77.03349633333333, "rental_uris": {"ios": "https://dc.lft.to/lastmile_qr_scan", "android": "https://dc.lft.to/lastmile_qr_scan"}}, {"name": "f72f303a6cc2eb37ca87c219b061cde4", "fusion_lat": 0.0, "type": "electric_scooter", "lat": 38.917848666666664, "is_reserved": 0, "is_disabled": 0, "fusion_lon": 0.0, "bike_id": "f72f303a6cc2eb37ca87c219b061cde4", "lon": -77.023069, "rental_uris": {"ios": "https://dc.lft.to/lastmile_qr_scan", "android": "https://dc.lft.to/lastmile_qr_scan"}}, {"name": "2a15f57d7daf0d919741b14ff24817cc", "fusion_lat": 0.0, "type": "electric_scooter", "lat": 38.92158416666667, "is_reserved": 0, "is_disabled": 0, "fusion_lon": 0.0, "bike_id": "2a15f57d7daf0d919741b14ff24817cc", "lon": -77.04225266666667, "rental_uris": {"ios": "https://dc.lft.to/lastmile_qr_scan", "android": "https://dc.lft.to/lastmile_qr_scan"}}, {"name": "5331a79bcfb381e0fd392201fb79d7c0", "fusion_lat": 0.0, "type": "electric_scooter", "lat": 38.93089633333334, "is_reserved": 0, "is_disabled": 0, "fusion_lon": 0.0, "bike_id": "5331a79bcfb381e0fd392201fb79d7c0", "lon": -77.02807133333333, "rental_uris": {"ios": "https://dc.lft.to/lastmile_qr_scan", "android": "https://dc.lft.to/lastmile_qr_scan"}}, {"name": "4a9a81b07a0feb9c4afded4c77d37fea", "fusion_lat": 0.0, "type": "electric_scooter", "lat": 38.892448, "is_reserved": 0, "is_disabled": 0, "fusion_lon": 0.0, "bike_id": "4a9a81b07a0feb9c4afded4c77d37fea", "lon": -77.031861, "rental_uris": {"ios": "https://dc.lft.to/lastmile_qr_scan", "android": "https://dc.lft.to/lastmile_qr_scan"}}, {"name": "1ff84bc77db0a1a1d169ceb0c526d03e", "fusion_lat": 0.0, "type": "electric_scooter", "lat": 38.9112045, "is_reserved": 0, "is_disabled": 0, "fusion_lon": 0.0, "bike_id": "1ff84bc77db0a1a1d169ceb0c526d03e", "lon": -77.03856766666667, "rental_uris": {"ios": "https://dc.lft.to/lastmile_qr_scan", "android": "https://dc.lft.to/lastmile_qr_scan"}}, {"name": "7c82626091676d4b5cf34c89bf359043", "fusion_lat": 0.0, "type": "electric_bike", "lat": 38.858596, "is_reserved": 0, "is_disabled": 0, "fusion_lon": 0.0, "bike_id": "7c82626091676d4b5cf34c89bf359043", "lon": -77.097459, "rental_uris": {"ios": "https://dc.lft.to/lastmile_qr_scan", "android": "https://dc.lft.to/lastmile_qr_scan"}}, {"name": "f0a5c1139f4fd30b873fa745a044bd48", "fusion_lat": 0.0, "type": "electric_scooter", "lat": 38.90265983333333, "is_reserved": 0, "is_disabled": 0, "fusion_lon": 0.0, "bike_id": "f0a5c1139f4fd30b873fa745a044bd48", "lon": -77.05315583333334, "rental_uris": {"ios": "https://dc.lft.to/lastmile_qr_scan", "android": "https://dc.lft.to/lastmile_qr_scan"}}, {"name": "ca1e0bae22df4d97c565d1d6360d4f49", "fusion_lat": 0.0, "type": "electric_scooter", "lat": 38.921236666666665, "is_reserved": 0, "is_disabled": 0, "fusion_lon": 0.0, "bike_id": "ca1e0bae22df4d97c565d1d6360d4f49", "lon": -77.031934, "rental_uris": {"ios": "https://dc.lft.to/lastmile_qr_scan", "android": "https://dc.lft.to/lastmile_qr_scan"}}, {"name": "92a5431376a853c6b34cb80f2c20901b", "fusion_lat": 0.0, "type": "electric_scooter", "lat": 38.8638025, "is_reserved": 0, "is_disabled": 0, "fusion_lon": 0.0, "bike_id": "92a5431376a853c6b34cb80f2c20901b", "lon": -76.99057333333333, "rental_uris": {"ios": "https://dc.lft.to/lastmile_qr_scan", "android": "https://dc.lft.to/lastmile_qr_scan"}}, {"name": "0d0bf5364a9379275245cf1c93143f2e", "fusion_lat": 0.0, "type": "electric_scooter", "lat": 38.89396, "is_reserved": 0, "is_disabled": 0, "fusion_lon": 0.0, "bike_id": "0d0bf5364a9379275245cf1c93143f2e", "lon": -77.029953, "rental_uris": {"ios": "https://dc.lft.to/lastmile_qr_scan", "android": "https://dc.lft.to/lastmile_qr_scan"}}, {"name": "b4ad1376386b02476d42eb9090546f23", "fusion_lat": 0.0, "type": "electric_scooter", "lat": 38.90633166666667, "is_reserved": 0, "is_disabled": 0, "fusion_lon": 0.0, "bike_id": "b4ad1376386b02476d42eb9090546f23", "lon": -77.04352616666667, "rental_uris": {"ios": "https://dc.lft.to/lastmile_qr_scan", "android": "https://dc.lft.to/lastmile_qr_scan"}}, {"name": "e15e12ff71bf304b7965c317ddc14402", "fusion_lat": 0.0, "type": "electric_scooter", "lat": 38.86667766666667, "is_reserved": 0, "is_disabled": 0, "fusion_lon": 0.0, "bike_id": "e15e12ff71bf304b7965c317ddc14402", "lon": -76.98884033333333, "rental_uris": {"ios": "https://dc.lft.to/lastmile_qr_scan", "android": "https://dc.lft.to/lastmile_qr_scan"}}, {"name": "01693d70ece10ee28e564b8c46ad8378", "fusion_lat": 0.0, "type": "electric_scooter", "lat": 38.92597833333333, "is_reserved": 0, "is_disabled": 0, "fusion_lon": 0.0, "bike_id": "01693d70ece10ee28e564b8c46ad8378", "lon": -77.0260345, "rental_uris": {"ios": "https://dc.lft.to/lastmile_qr_scan", "android": "https://dc.lft.to/lastmile_qr_scan"}}, {"name": "58e61aeda0df5389e9a41e177d2bc1a9", "fusion_lat": 0.0, "type": "electric_scooter", "lat": 38.937746, "is_reserved": 0, "is_disabled": 0, "fusion_lon": 0.0, "bike_id": "58e61aeda0df5389e9a41e177d2bc1a9", "lon": -77.03279866666666, "rental_uris": {"ios": "https://dc.lft.to/lastmile_qr_scan", "android": "https://dc.lft.to/lastmile_qr_scan"}}, {"name": "cba9d3980add179c2080719ba7f5595e", "fusion_lat": 0.0, "type": "electric_scooter", "lat": 38.892035, "is_reserved": 0, "is_disabled": 0, "fusion_lon": 0.0, "bike_id": "cba9d3980add179c2080719ba7f5595e", "lon": -77.00240733333334, "rental_uris": {"ios": "https://dc.lft.to/lastmile_qr_scan", "android": "https://dc.lft.to/lastmile_qr_scan"}}, {"name": "6037d9b740fd3c70fe83072b4ca1cb81", "fusion_lat": 0.0, "type": "electric_scooter", "lat": 38.902862, "is_reserved": 0, "is_disabled": 0, "fusion_lon": 0.0, "bike_id": "6037d9b740fd3c70fe83072b4ca1cb81", "lon": -77.03839566666667, "rental_uris": {"ios": "https://dc.lft.to/lastmile_qr_scan", "android": "https://dc.lft.to/lastmile_qr_scan"}}, {"name": "3f29a5d3e5dba0bc59ad6e80e896c5e9", "fusion_lat": 0.0, "type": "electric_scooter", "lat": 38.89175916666667, "is_reserved": 0, "is_disabled": 0, "fusion_lon": 0.0, "bike_id": "3f29a5d3e5dba0bc59ad6e80e896c5e9", "lon": -77.01565083333334, "rental_uris": {"ios": "https://dc.lft.to/lastmile_qr_scan", "android": "https://dc.lft.to/lastmile_qr_scan"}}, {"name": "2ad6ea238378bf4ac23d8f28fc41f2af", "fusion_lat": 0.0, "type": "electric_scooter", "lat": 38.8891915, "is_reserved": 0, "is_disabled": 0, "fusion_lon": 0.0, "bike_id": "2ad6ea238378bf4ac23d8f28fc41f2af", "lon": -76.95372, "rental_uris": {"ios": "https://dc.lft.to/lastmile_qr_scan", "android": "https://dc.lft.to/lastmile_qr_scan"}}, {"name": "9d7ff6efce2e303098f7d066cf6949f1", "fusion_lat": 0.0, "type": "electric_scooter", "lat": 38.934768, "is_reserved": 0, "is_disabled": 0, "fusion_lon": 0.0, "bike_id": "9d7ff6efce2e303098f7d066cf6949f1", "lon": -77.02837766666667, "rental_uris": {"ios": "https://dc.lft.to/lastmile_qr_scan", "android": "https://dc.lft.to/lastmile_qr_scan"}}, {"name": "5b4b0367501a565dc77e5e625d520a73", "fusion_lat": 0.0, "type": "electric_scooter", "lat": 38.911916166666664, "is_reserved": 0, "is_disabled": 0, "fusion_lon": 0.0, "bike_id": "5b4b0367501a565dc77e5e625d520a73", "lon": -77.04535366666667, "rental_uris": {"ios": "https://dc.lft.to/lastmile_qr_scan", "android": "https://dc.lft.to/lastmile_qr_scan"}}, {"name": "e9642df8c2fb1838eca28248c8843033", "fusion_lat": 0.0, "type": "electric_scooter", "lat": 38.9073105, "is_reserved": 0, "is_disabled": 0, "fusion_lon": 0.0, "bike_id": "e9642df8c2fb1838eca28248c8843033", "lon": -77.040648, "rental_uris": {"ios": "https://dc.lft.to/lastmile_qr_scan", "android": "https://dc.lft.to/lastmile_qr_scan"}}, {"name": "113eb71bc9ed9c2e1999c0b41bc23b96", "fusion_lat": 0.0, "type": "electric_scooter", "lat": 38.926465666666665, "is_reserved": 0, "is_disabled": 0, "fusion_lon": 0.0, "bike_id": "113eb71bc9ed9c2e1999c0b41bc23b96", "lon": -77.03695016666667, "rental_uris": {"ios": "https://dc.lft.to/lastmile_qr_scan", "android": "https://dc.lft.to/lastmile_qr_scan"}}, {"name": "90a0327e0c10d2bc6941f934e278a785", "fusion_lat": 0.0, "type": "electric_scooter", "lat": 38.9289565, "is_reserved": 0, "is_disabled": 0, "fusion_lon": 0.0, "bike_id": "90a0327e0c10d2bc6941f934e278a785", "lon": -77.0230535, "rental_uris": {"ios": "https://dc.lft.to/lastmile_qr_scan", "android": "https://dc.lft.to/lastmile_qr_scan"}}, {"name": "a5a06c332bb20cc13a2018900f2a5732", "fusion_lat": 0.0, "type": "electric_bike", "lat": 38.8968665, "is_reserved": 0, "is_disabled": 0, "fusion_lon": 0.0, "bike_id": "a5a06c332bb20cc13a2018900f2a5732", "lon": -77.01513666666666, "rental_uris": {"ios": "https://dc.lft.to/lastmile_qr_scan", "android": "https://dc.lft.to/lastmile_qr_scan"}}, {"name": "caae8edfad9d91f86025e1b23aad0caa", "fusion_lat": 0.0, "type": "electric_scooter", "lat": 38.92933, "is_reserved": 0, "is_disabled": 0, "fusion_lon": 0.0, "bike_id": "caae8edfad9d91f86025e1b23aad0caa", "lon": -77.0325465, "rental_uris": {"ios": "https://dc.lft.to/lastmile_qr_scan", "android": "https://dc.lft.to/lastmile_qr_scan"}}, {"name": "7755d0e351ca052db4d00ee9dee91b4d", "fusion_lat": 0.0, "type": "electric_scooter", "lat": 38.906931166666666, "is_reserved": 0, "is_disabled": 0, "fusion_lon": 0.0, "bike_id": "7755d0e351ca052db4d00ee9dee91b4d", "lon": -77.03806883333333, "rental_uris": {"ios": "https://dc.lft.to/lastmile_qr_scan", "android": "https://dc.lft.to/lastmile_qr_scan"}}, {"name": "89141548372869224c6066119015076d", "fusion_lat": 0.0, "type": "electric_scooter", "lat": 38.902714333333336, "is_reserved": 0, "is_disabled": 0, "fusion_lon": 0.0, "bike_id": "89141548372869224c6066119015076d", "lon": -77.05312366666666, "rental_uris": {"ios": "https://dc.lft.to/lastmile_qr_scan", "android": "https://dc.lft.to/lastmile_qr_scan"}}, {"name": "60f53243cf1c4292e5e70243eda765c8", "fusion_lat": 0.0, "type": "electric_scooter", "lat": 38.9096565, "is_reserved": 0, "is_disabled": 0, "fusion_lon": 0.0, "bike_id": "60f53243cf1c4292e5e70243eda765c8", "lon": -77.04654233333333, "rental_uris": {"ios": "https://dc.lft.to/lastmile_qr_scan", "android": "https://dc.lft.to/lastmile_qr_scan"}}, {"name": "850ab8c6752768492f915dd0a686319d", "fusion_lat": 0.0, "type": "electric_scooter", "lat": 38.9262705, "is_reserved": 0, "is_disabled": 0, "fusion_lon": 0.0, "bike_id": "850ab8c6752768492f915dd0a686319d", "lon": -77.03781816666667, "rental_uris": {"ios": "https://dc.lft.to/lastmile_qr_scan", "android": "https://dc.lft.to/lastmile_qr_scan"}}, {"name": "845b330d300fbb8eaaffed4432461fd2", "fusion_lat": 0.0, "type": "electric_scooter", "lat": 38.905333, "is_reserved": 0, "is_disabled": 0, "fusion_lon": 0.0, "bike_id": "845b330d300fbb8eaaffed4432461fd2", "lon": -77.03449633333334, "rental_uris": {"ios": "https://dc.lft.to/lastmile_qr_scan", "android": "https://dc.lft.to/lastmile_qr_scan"}}, {"name": "58155a539ec37ef5e7c737e3b36f0e83", "fusion_lat": 0.0, "type": "electric_scooter", "lat": 38.902605333333334, "is_reserved": 0, "is_disabled": 0, "fusion_lon": 0.0, "bike_id": "58155a539ec37ef5e7c737e3b36f0e83", "lon": -77.04604466666666, "rental_uris": {"ios": "https://dc.lft.to/lastmile_qr_scan", "android": "https://dc.lft.to/lastmile_qr_scan"}}, {"name": "5d7559411fdb09177d94bde9415e90f0", "fusion_lat": 0.0, "type": "electric_scooter", "lat": 38.93545566666667, "is_reserved": 0, "is_disabled": 0, "fusion_lon": 0.0, "bike_id": "5d7559411fdb09177d94bde9415e90f0", "lon": -77.03409166666667, "rental_uris": {"ios": "https://dc.lft.to/lastmile_qr_scan", "android": "https://dc.lft.to/lastmile_qr_scan"}}, {"name": "13618d13168950ccb27c8419b6659dab", "fusion_lat": 0.0, "type": "electric_scooter", "lat": 38.90033316666667, "is_reserved": 0, "is_disabled": 0, "fusion_lon": 0.0, "bike_id": "13618d13168950ccb27c8419b6659dab", "lon": -77.01111966666667, "rental_uris": {"ios": "https://dc.lft.to/lastmile_qr_scan", "android": "https://dc.lft.to/lastmile_qr_scan"}}, {"name": "afe7d2498c91d6ea27cd63b6184cf105", "fusion_lat": 0.0, "type": "electric_scooter", "lat": 38.87664316666667, "is_reserved": 0, "is_disabled": 0, "fusion_lon": 0.0, "bike_id": "afe7d2498c91d6ea27cd63b6184cf105", "lon": -77.00465716666666, "rental_uris": {"ios": "https://dc.lft.to/lastmile_qr_scan", "android": "https://dc.lft.to/lastmile_qr_scan"}}, {"name": "6bc5177ce1e8c57852ba056ed1862079", "fusion_lat": 0.0, "type": "electric_scooter", "lat": 38.89511483333333, "is_reserved": 0, "is_disabled": 0, "fusion_lon": 0.0, "bike_id": "6bc5177ce1e8c57852ba056ed1862079", "lon": -77.0109865, "rental_uris": {"ios": "https://dc.lft.to/lastmile_qr_scan", "android": "https://dc.lft.to/lastmile_qr_scan"}}, {"name": "18893c9c17bd6dde18521acb8132018f", "fusion_lat": 0.0, "type": "electric_scooter", "lat": 38.90589333333333, "is_reserved": 0, "is_disabled": 0, "fusion_lon": 0.0, "bike_id": "18893c9c17bd6dde18521acb8132018f", "lon": -77.00277333333334, "rental_uris": {"ios": "https://dc.lft.to/lastmile_qr_scan", "android": "https://dc.lft.to/lastmile_qr_scan"}}, {"name": "8ed83531c64488c7062b94fe921a36df", "fusion_lat": 0.0, "type": "electric_scooter", "lat": 38.913371, "is_reserved": 0, "is_disabled": 0, "fusion_lon": 0.0, "bike_id": "8ed83531c64488c7062b94fe921a36df", "lon": -77.04870233333334, "rental_uris": {"ios": "https://dc.lft.to/lastmile_qr_scan", "android": "https://dc.lft.to/lastmile_qr_scan"}}, {"name": "012dea646edbc1799c62031a5f3bb15b", "fusion_lat": 0.0, "type": "electric_bike", "lat": 38.970965666666665, "is_reserved": 0, "is_disabled": 0, "fusion_lon": 0.0, "bike_id": "012dea646edbc1799c62031a5f3bb15b", "lon": -77.06965466666666, "rental_uris": {"ios": "https://dc.lft.to/lastmile_qr_scan", "android": "https://dc.lft.to/lastmile_qr_scan"}}, {"name": "3fc91b464d2b1506342854dcec2f61ee", "fusion_lat": 0.0, "type": "electric_scooter", "lat": 38.938956833333336, "is_reserved": 0, "is_disabled": 0, "fusion_lon": 0.0, "bike_id": "3fc91b464d2b1506342854dcec2f61ee", "lon": -77.017565, "rental_uris": {"ios": "https://dc.lft.to/lastmile_qr_scan", "android": "https://dc.lft.to/lastmile_qr_scan"}}, {"name": "2a6cda1b66a2d0bdb47d7713ef11778b", "fusion_lat": 0.0, "type": "electric_scooter", "lat": 38.89942283333333, "is_reserved": 0, "is_disabled": 0, "fusion_lon": 0.0, "bike_id": "2a6cda1b66a2d0bdb47d7713ef11778b", "lon": -77.04663883333333, "rental_uris": {"ios": "https://dc.lft.to/lastmile_qr_scan", "android": "https://dc.lft.to/lastmile_qr_scan"}}, {"name": "b15b9d670b93cc8ef24c77266206b419", "fusion_lat": 0.0, "type": "electric_scooter", "lat": 38.893563666666665, "is_reserved": 0, "is_disabled": 0, "fusion_lon": 0.0, "bike_id": "b15b9d670b93cc8ef24c77266206b419", "lon": -77.0033675, "rental_uris": {"ios": "https://dc.lft.to/lastmile_qr_scan", "android": "https://dc.lft.to/lastmile_qr_scan"}}, {"name": "3f73a24691ced15c4e5f3a2c2f31f368", "fusion_lat": 0.0, "type": "electric_scooter", "lat": 38.901999, "is_reserved": 0, "is_disabled": 0, "fusion_lon": 0.0, "bike_id": "3f73a24691ced15c4e5f3a2c2f31f368", "lon": -77.046456, "rental_uris": {"ios": "https://dc.lft.to/lastmile_qr_scan", "android": "https://dc.lft.to/lastmile_qr_scan"}}, {"name": "3d0dd87846e7d8217266144557f68126", "fusion_lat": 0.0, "type": "electric_scooter", "lat": 38.91822483333333, "is_reserved": 0, "is_disabled": 0, "fusion_lon": 0.0, "bike_id": "3d0dd87846e7d8217266144557f68126", "lon": -77.03282733333333, "rental_uris": {"ios": "https://dc.lft.to/lastmile_qr_scan", "android": "https://dc.lft.to/lastmile_qr_scan"}}, {"name": "9cea314e1335b6043b3910ee8728f787", "fusion_lat": 0.0, "type": "electric_scooter", "lat": 38.9248765, "is_reserved": 0, "is_disabled": 0, "fusion_lon": 0.0, "bike_id": "9cea314e1335b6043b3910ee8728f787", "lon": -77.02995, "rental_uris": {"ios": "https://dc.lft.to/lastmile_qr_scan", "android": "https://dc.lft.to/lastmile_qr_scan"}}, {"name": "682fa456e5e31231119e5c393fe85769", "fusion_lat": 0.0, "type": "electric_scooter", "lat": 38.91294333333333, "is_reserved": 0, "is_disabled": 0, "fusion_lon": 0.0, "bike_id": "682fa456e5e31231119e5c393fe85769", "lon": -76.937966, "rental_uris": {"ios": "https://dc.lft.to/lastmile_qr_scan", "android": "https://dc.lft.to/lastmile_qr_scan"}}, {"name": "068074a597e46538e574e54e5eede538", "fusion_lat": 0.0, "type": "electric_scooter", "lat": 38.912232, "is_reserved": 0, "is_disabled": 0, "fusion_lon": 0.0, "bike_id": "068074a597e46538e574e54e5eede538", "lon": -77.0280025, "rental_uris": {"ios": "https://dc.lft.to/lastmile_qr_scan", "android": "https://dc.lft.to/lastmile_qr_scan"}}, {"name": "011b0876f5558450ca333548c5ffa6cd", "fusion_lat": 0.0, "type": "electric_scooter", "lat": 38.898383, "is_reserved": 0, "is_disabled": 0, "fusion_lon": 0.0, "bike_id": "011b0876f5558450ca333548c5ffa6cd", "lon": -76.94636233333334, "rental_uris": {"ios": "https://dc.lft.to/lastmile_qr_scan", "android": "https://dc.lft.to/lastmile_qr_scan"}}, {"name": "33bbcc1ea209cc87c7b213fd85ad5654", "fusion_lat": 0.0, "type": "electric_scooter", "lat": 38.904268, "is_reserved": 0, "is_disabled": 0, "fusion_lon": 0.0, "bike_id": "33bbcc1ea209cc87c7b213fd85ad5654", "lon": -77.04471716666667, "rental_uris": {"ios": "https://dc.lft.to/lastmile_qr_scan", "android": "https://dc.lft.to/lastmile_qr_scan"}}, {"name": "62761938aee40ec6acdeb88c694b1ba8", "fusion_lat": 0.0, "type": "electric_scooter", "lat": 38.91568866666667, "is_reserved": 0, "is_disabled": 0, "fusion_lon": 0.0, "bike_id": "62761938aee40ec6acdeb88c694b1ba8", "lon": -77.03332533333334, "rental_uris": {"ios": "https://dc.lft.to/lastmile_qr_scan", "android": "https://dc.lft.to/lastmile_qr_scan"}}, {"name": "d4ed3de9d41218591194dfaa11dee0f0", "fusion_lat": 0.0, "type": "electric_scooter", "lat": 38.9358725, "is_reserved": 0, "is_disabled": 0, "fusion_lon": 0.0, "bike_id": "d4ed3de9d41218591194dfaa11dee0f0", "lon": -77.02847016666666, "rental_uris": {"ios": "https://dc.lft.to/lastmile_qr_scan", "android": "https://dc.lft.to/lastmile_qr_scan"}}, {"name": "e914f74c3246917c420db18a7f736544", "fusion_lat": 0.0, "type": "electric_bike", "lat": 38.877357833333335, "is_reserved": 0, "is_disabled": 0, "fusion_lon": 0.0, "bike_id": "e914f74c3246917c420db18a7f736544", "lon": -77.11845716666667, "rental_uris": {"ios": "https://dc.lft.to/lastmile_qr_scan", "android": "https://dc.lft.to/lastmile_qr_scan"}}, {"name": "8b16112e4bd6cae155ae5f106d8a338b", "fusion_lat": 0.0, "type": "electric_scooter", "lat": 38.8942405, "is_reserved": 0, "is_disabled": 0, "fusion_lon": 0.0, "bike_id": "8b16112e4bd6cae155ae5f106d8a338b", "lon": -77.02178133333334, "rental_uris": {"ios": "https://dc.lft.to/lastmile_qr_scan", "android": "https://dc.lft.to/lastmile_qr_scan"}}, {"name": "213153df9effbe1ab411e7f4402c416f", "fusion_lat": 0.0, "type": "electric_scooter", "lat": 38.904295166666664, "is_reserved": 0, "is_disabled": 0, "fusion_lon": 0.0, "bike_id": "213153df9effbe1ab411e7f4402c416f", "lon": -77.05337666666667, "rental_uris": {"ios": "https://dc.lft.to/lastmile_qr_scan", "android": "https://dc.lft.to/lastmile_qr_scan"}}, {"name": "9b9cd2368305227d08d1eb6c36e7766d", "fusion_lat": 0.0, "type": "electric_scooter", "lat": 38.874705666666664, "is_reserved": 0, "is_disabled": 0, "fusion_lon": 0.0, "bike_id": "9b9cd2368305227d08d1eb6c36e7766d", "lon": -77.0074975, "rental_uris": {"ios": "https://dc.lft.to/lastmile_qr_scan", "android": "https://dc.lft.to/lastmile_qr_scan"}}, {"name": "c9f6e2d75dc5464aa223e9c5f95feebc", "fusion_lat": 0.0, "type": "electric_scooter", "lat": 38.902581, "is_reserved": 0, "is_disabled": 0, "fusion_lon": 0.0, "bike_id": "c9f6e2d75dc5464aa223e9c5f95feebc", "lon": -77.00253266666667, "rental_uris": {"ios": "https://dc.lft.to/lastmile_qr_scan", "android": "https://dc.lft.to/lastmile_qr_scan"}}, {"name": "0a25f9ad7d6ebd92991009bd9208fdab", "fusion_lat": 0.0, "type": "electric_scooter", "lat": 38.907432166666666, "is_reserved": 0, "is_disabled": 0, "fusion_lon": 0.0, "bike_id": "0a25f9ad7d6ebd92991009bd9208fdab", "lon": -77.041313, "rental_uris": {"ios": "https://dc.lft.to/lastmile_qr_scan", "android": "https://dc.lft.to/lastmile_qr_scan"}}, {"name": "3c8fba749743fbeb6a66cf2c9a0ed690", "fusion_lat": 0.0, "type": "electric_scooter", "lat": 38.901352, "is_reserved": 0, "is_disabled": 0, "fusion_lon": 0.0, "bike_id": "3c8fba749743fbeb6a66cf2c9a0ed690", "lon": -77.0438675, "rental_uris": {"ios": "https://dc.lft.to/lastmile_qr_scan", "android": "https://dc.lft.to/lastmile_qr_scan"}}, {"name": "5107d26c8b7f6e1f98314fbe37bacc43", "fusion_lat": 0.0, "type": "electric_scooter", "lat": 38.9587545, "is_reserved": 0, "is_disabled": 0, "fusion_lon": 0.0, "bike_id": "5107d26c8b7f6e1f98314fbe37bacc43", "lon": -77.02047633333333, "rental_uris": {"ios": "https://dc.lft.to/lastmile_qr_scan", "android": "https://dc.lft.to/lastmile_qr_scan"}}, {"name": "f43a2e296ea2aa1852d645af27b1d126", "fusion_lat": 0.0, "type": "electric_bike", "lat": 38.852472166666665, "is_reserved": 0, "is_disabled": 0, "fusion_lon": 0.0, "bike_id": "f43a2e296ea2aa1852d645af27b1d126", "lon": -77.11426766666666, "rental_uris": {"ios": "https://dc.lft.to/lastmile_qr_scan", "android": "https://dc.lft.to/lastmile_qr_scan"}}, {"name": "42ecd4f5f1214a0fcddc1415774e1b45", "fusion_lat": 0.0, "type": "electric_scooter", "lat": 38.902756, "is_reserved": 0, "is_disabled": 0, "fusion_lon": 0.0, "bike_id": "42ecd4f5f1214a0fcddc1415774e1b45", "lon": -77.03850383333334, "rental_uris": {"ios": "https://dc.lft.to/lastmile_qr_scan", "android": "https://dc.lft.to/lastmile_qr_scan"}}, {"name": "dbe3fff7ae065ebaabc18ee3b3776253", "fusion_lat": 0.0, "type": "electric_scooter", "lat": 38.92426183333333, "is_reserved": 0, "is_disabled": 0, "fusion_lon": 0.0, "bike_id": "dbe3fff7ae065ebaabc18ee3b3776253", "lon": -77.022797, "rental_uris": {"ios": "https://dc.lft.to/lastmile_qr_scan", "android": "https://dc.lft.to/lastmile_qr_scan"}}, {"name": "e68d0b31c723bbc6bd6de090a0e4f71f", "fusion_lat": 0.0, "type": "electric_scooter", "lat": 38.9687935, "is_reserved": 0, "is_disabled": 0, "fusion_lon": 0.0, "bike_id": "e68d0b31c723bbc6bd6de090a0e4f71f", "lon": -77.0272625, "rental_uris": {"ios": "https://dc.lft.to/lastmile_qr_scan", "android": "https://dc.lft.to/lastmile_qr_scan"}}, {"name": "cc2e0e274e3e49eeddab311f69ea31e2", "fusion_lat": 0.0, "type": "electric_scooter", "lat": 38.90967, "is_reserved": 0, "is_disabled": 0, "fusion_lon": 0.0, "bike_id": "cc2e0e274e3e49eeddab311f69ea31e2", "lon": -77.04124883333333, "rental_uris": {"ios": "https://dc.lft.to/lastmile_qr_scan", "android": "https://dc.lft.to/lastmile_qr_scan"}}, {"name": "108a5485e8c344eff5da83e71e025fc2", "fusion_lat": 0.0, "type": "electric_scooter", "lat": 38.92237133333333, "is_reserved": 0, "is_disabled": 0, "fusion_lon": 0.0, "bike_id": "108a5485e8c344eff5da83e71e025fc2", "lon": -77.04250833333333, "rental_uris": {"ios": "https://dc.lft.to/lastmile_qr_scan", "android": "https://dc.lft.to/lastmile_qr_scan"}}, {"name": "6112706c7990779b858630bf1641d629", "fusion_lat": 0.0, "type": "electric_scooter", "lat": 38.9291505, "is_reserved": 0, "is_disabled": 0, "fusion_lon": 0.0, "bike_id": "6112706c7990779b858630bf1641d629", "lon": -77.02608916666667, "rental_uris": {"ios": "https://dc.lft.to/lastmile_qr_scan", "android": "https://dc.lft.to/lastmile_qr_scan"}}, {"name": "b97ec53c7709e392e16694f3f5ec44bf", "fusion_lat": 0.0, "type": "electric_scooter", "lat": 38.928824, "is_reserved": 0, "is_disabled": 0, "fusion_lon": 0.0, "bike_id": "b97ec53c7709e392e16694f3f5ec44bf", "lon": -77.03403066666667, "rental_uris": {"ios": "https://dc.lft.to/lastmile_qr_scan", "android": "https://dc.lft.to/lastmile_qr_scan"}}, {"name": "a9d27c59a62fecf3fcc0ca8da6b66e46", "fusion_lat": 0.0, "type": "electric_scooter", "lat": 38.842994, "is_reserved": 0, "is_disabled": 0, "fusion_lon": 0.0, "bike_id": "a9d27c59a62fecf3fcc0ca8da6b66e46", "lon": -76.9994125, "rental_uris": {"ios": "https://dc.lft.to/lastmile_qr_scan", "android": "https://dc.lft.to/lastmile_qr_scan"}}, {"name": "cfa0df487e3df97d5056f893bd00bad2", "fusion_lat": 0.0, "type": "electric_scooter", "lat": 38.90360666666667, "is_reserved": 0, "is_disabled": 0, "fusion_lon": 0.0, "bike_id": "cfa0df487e3df97d5056f893bd00bad2", "lon": -77.04312266666666, "rental_uris": {"ios": "https://dc.lft.to/lastmile_qr_scan", "android": "https://dc.lft.to/lastmile_qr_scan"}}, {"name": "e585e2911a0d69f31ffe3e3a9425a932", "fusion_lat": 0.0, "type": "electric_scooter", "lat": 38.88697633333334, "is_reserved": 0, "is_disabled": 0, "fusion_lon": 0.0, "bike_id": "e585e2911a0d69f31ffe3e3a9425a932", "lon": -76.95760183333333, "rental_uris": {"ios": "https://dc.lft.to/lastmile_qr_scan", "android": "https://dc.lft.to/lastmile_qr_scan"}}, {"name": "ee3bdb8803120e1a54887837615b0e40", "fusion_lat": 0.0, "type": "electric_scooter", "lat": 38.89470266666667, "is_reserved": 0, "is_disabled": 0, "fusion_lon": 0.0, "bike_id": "ee3bdb8803120e1a54887837615b0e40", "lon": -77.019107, "rental_uris": {"ios": "https://dc.lft.to/lastmile_qr_scan", "android": "https://dc.lft.to/lastmile_qr_scan"}}, {"name": "6fb6f2870263483a2d3cada79b2f3520", "fusion_lat": 0.0, "type": "electric_scooter", "lat": 38.89744783333333, "is_reserved": 0, "is_disabled": 0, "fusion_lon": 0.0, "bike_id": "6fb6f2870263483a2d3cada79b2f3520", "lon": -76.93845883333333, "rental_uris": {"ios": "https://dc.lft.to/lastmile_qr_scan", "android": "https://dc.lft.to/lastmile_qr_scan"}}, {"name": "dc7a4829ae27a59bf928f810257fe748", "fusion_lat": 0.0, "type": "electric_scooter", "lat": 38.905899166666664, "is_reserved": 0, "is_disabled": 0, "fusion_lon": 0.0, "bike_id": "dc7a4829ae27a59bf928f810257fe748", "lon": -77.065156, "rental_uris": {"ios": "https://dc.lft.to/lastmile_qr_scan", "android": "https://dc.lft.to/lastmile_qr_scan"}},