{"data": {"bikes": [{"rental_uris": {"ios": "https://dc.lft.to/lastmile_qr_scan", "android": "https://dc.lft.to/lastmile_qr_scan"}, "lon": -76.9974945, "type": "electric_scooter", "fusion_lat": 0.0, "lat": 38.9093245, "name": "2405a4fef3e12d02162c6d4afd5de161", "fusion_lon": 0.0, "bike_id": "2405a4fef3e12d02162c6d4afd5de161", "is_disabled": 0, "is_reserved": 0}, {"rental_uris": {"ios": "https://dc.lft.to/lastmile_qr_scan", "android": "https://dc.lft.to/lastmile_qr_scan"}, "lon": -76.965266, "type": "electric_scooter", "fusion_lat": 0.0, "lat": 38.87632116666666, "name": "2e03978a71b3e2d3363f7bef1dcaf6a9", "fusion_lon": 0.0, "bike_id": "2e03978a71b3e2d3363f7bef1dcaf6a9", "is_disabled": 0, "is_reserved": 0}, {"rental_uris": {"ios": "https://dc.lft.to/lastmile_qr_scan", "android": "https://dc.lft.to/lastmile_qr_scan"}, "lon": -77.00106983333333, "type": "electric_scooter", "fusion_lat": 0.0, "lat": 38.89432016666667, "name": "959586c553f7fbabebf5786e35a6cc11", "fusion_lon": 0.0, "bike_id": "959586c553f7fbabebf5786e35a6cc11", "is_disabled": 0, "is_reserved": 0}, {"rental_uris": {"ios": "https://dc.lft.to/lastmile_qr_scan", "android": "https://dc.lft.to/lastmile_qr_scan"}, "lon": -77.05931383333333, "type": "electric_scooter", "fusion_lat": 0.0, "lat": 38.909156, "name": "883a5ae2f9f2237dc7d188c8ad10ebeb", "fusion_lon": 0.0, "bike_id": "883a5ae2f9f2237dc7d188c8ad10ebeb", "is_disabled": 0, "is_reserved": 0}, {"rental_uris": {"ios": "https://dc.lft.to/lastmile_qr_scan", "android": "https://dc.lft.to/lastmile_qr_scan"}, "lon": -77.03184133333333, "type": "electric_scooter", "fusion_lat": 0.0, "lat": 38.917447, "name": "c80e487720f57b3a9075f490c775315e", "fusion_lon": 0.0, "bike_id": "c80e487720f57b3a9075f490c775315e", "is_disabled": 0, "is_reserved": 0}, {"rental_uris": {"ios": "https://dc.lft.to/lastmile_qr_scan", "android": "https://dc.lft.to/lastmile_qr_scan"}, "lon": -77.029298, "type": "electric_scooter", "fusion_lat": 0.0, "lat": 38.882214833333336, "name": "a5f0d1f6dcac9334818268223274e9ef", "fusion_lon": 0.0, "bike_id": "a5f0d1f6dcac9334818268223274e9ef", "is_disabled": 0, "is_reserved": 0}, {"rental_uris": {"ios": "https://dc.lft.to/lastmile_qr_scan", "android": "https://dc.lft.to/lastmile_qr_scan"}, "lon": -77.0438035, "type": "electric_scooter", "fusion_lat": 0.0, "lat": 38.92069083333333, "name": "133cb47a4ba4ef5fb90caae1b35750ba", "fusion_lon": 0.0, "bike_id": "133cb47a4ba4ef5fb90caae1b35750ba", "is_disabled": 0, "is_reserved": 0}, {"rental_uris": {"ios": "https://dc.lft.to/lastmile_qr_scan", "android": "https://dc.lft.to/lastmile_qr_scan"}, "lon": -77.0662095, "type": "electric_scooter", "fusion_lat": 0.0, "lat": 38.9053935, "name": "b08680323368a4a6779e87f5aeca876e", "fusion_lon": 0.0, "bike_id": "b08680323368a4a6779e87f5aeca876e", "is_disabled": 0, "is_reserved": 0}, {"rental_uris": {"ios": "https://dc.lft.to/lastmile_qr_scan", "android": "https://dc.lft.to/lastmile_qr_scan"}, "lon": -76.9835685, "type": "electric_bike", "fusion_lat": 0.0, "lat": 38.8943735, "name": "0f4142f2ef6d09ece18958e004f9826e", "fusion_lon": 0.0, "bike_id": "0f4142f2ef6d09ece18958e004f9826e", "is_disabled": 0, "is_reserved": 0}, {"rental_uris": {"ios": "https://dc.lft.to/lastmile_qr_scan", "android": "https://dc.lft.to/lastmile_qr_scan"}, "lon": -77.04792433333333, "type": "electric_scooter", "fusion_lat": 0.0, "lat": 38.89772116666666, "name": "96c728acaa0e4fd88a16ecb670d280a2", "fusion_lon": 0.0, "bike_id": "96c728acaa0e4fd88a16ecb670d280a2", "is_disabled": 0, "is_reserved": 0}, {"rental_uris": {"ios": "https://dc.lft.to/lastmile_qr_scan", "android": "https://dc.lft.to/lastmile_qr_scan"}, "lon": -77.0187235, "type": "electric_scooter", "fusion_lat": 0.0, "lat": 38.9489265, "name": "7ed014addcdeb9d8dc47d640b80a401e", "fusion_lon": 0.0, "bike_id": "7ed014addcdeb9d8dc47d640b80a401e", "is_disabled": 0, "is_reserved": 0}, {"rental_uris": {"ios": "https://dc.lft.to/lastmile_qr_scan", "android": "https://dc.lft.to/lastmile_qr_scan"}, "lon": -77.02109383333334, "type": "electric_scooter", "fusion_lat": 0.0, "lat": 38.91310633333333, "name": "5f28457524d6586d61c06d7009b903ff", "fusion_lon": 0.0, "bike_id": "5f28457524d6586d61c06d7009b903ff", "is_disabled": 0, "is_reserved": 0}, {"rental_uris": {"ios": "https://dc.lft.to/lastmile_qr_scan", "android": "https://dc.lft.to/lastmile_qr_scan"}, "lon": -77.02212133333333, "type": "electric_scooter", "fusion_lat": 0.0, "lat": 38.897895166666665, "name": "6480506893206d04c06b31a03855d5e8", "fusion_lon": 0.0, "bike_id": "6480506893206d04c06b31a03855d5e8", "is_disabled": 0, "is_reserved": 0}, {"rental_uris": {"ios": "https://dc.lft.to/lastmile_qr_scan", "android": "https://dc.lft.to/lastmile_qr_scan"}, "lon": -77.023011, "type": "electric_scooter", "fusion_lat": 0.0, "lat": 38.9329875, "name": "67d83f8e1e1e14875b8d07dd108bbe82", "fusion_lon": 0.0, "bike_id": "67d83f8e1e1e14875b8d07dd108bbe82", "is_disabled": 0, "is_reserved": 0}, {"rental_uris": {"ios": "https://dc.lft.to/lastmile_qr_scan", "android": "https://dc.lft.to/lastmile_qr_scan"}, "lon": -77.00981333333333, "type": "electric_scooter", "fusion_lat": 0.0, "lat": 38.91490983333333, "name": "0f0f85992faba51d92ba0b73da8be5af", "fusion_lon": 0.0, "bike_id": "0f0f85992faba51d92ba0b73da8be5af", "is_disabled": 0, "is_reserved": 0}, {"rental_uris": {"ios": "https://dc.lft.to/lastmile_qr_scan", "android": "https://dc.lft.to/lastmile_qr_scan"}, "lon": -76.93804683333333, "type": "electric_scooter", "fusion_lat": 0.0, "lat": 38.882381, "name": "85bfcb52d1ed09c06d7a662b550c9f70", "fusion_lon": 0.0, "bike_id": "85bfcb52d1ed09c06d7a662b550c9f70", "is_disabled": 0, "is_reserved": 0}, {"rental_uris": {"ios": "https://dc.lft.to/lastmile_qr_scan", "android": "https://dc.lft.to/lastmile_qr_scan"}, "lon": -76.96627533333333, "type": "electric_bike", "fusion_lat": 0.0, "lat": 38.941987, "name": "44637d6cff16d03d1f8737ba996a51eb", "fusion_lon": 0.0, "bike_id": "44637d6cff16d03d1f8737ba996a51eb", "is_disabled": 0, "is_reserved": 0}, {"rental_uris": {"ios": "https://dc.lft.to/lastmile_qr_scan", "android": "https://dc.lft.to/lastmile_qr_scan"}, "lon": -77.010564, "type": "electric_scooter", "fusion_lat": 0.0, "lat": 38.87939133333333, "name": "18a1821c62abe0652130142804ff8983", "fusion_lon": 0.0, "bike_id": "18a1821c62abe0652130142804ff8983", "is_disabled": 0, "is_reserved": 0}, {"rental_uris": {"ios": "https://dc.lft.to/lastmile_qr_scan", "android": "https://dc.lft.to/lastmile_qr_scan"}, "lon": -77.02700616666667, "type": "electric_scooter", "fusion_lat": 0.0, "lat": 38.9498025, "name": "183cce767d48d564c34425b92875adb0", "fusion_lon": 0.0, "bike_id": "183cce767d48d564c34425b92875adb0", "is_disabled": 0, "is_reserved": 0}, {"rental_uris": {"ios": "https://dc.lft.to/lastmile_qr_scan", "android": "https://dc.lft.to/lastmile_qr_scan"}, "lon": -77.0316855, "type": "electric_scooter", "fusion_lat": 0.0, "lat": 38.91564116666667, "name": "0765f95591ff7cd2e3eaa880c570557e", "fusion_lon": 0.0, "bike_id": "0765f95591ff7cd2e3eaa880c570557e", "is_disabled": 0, "is_reserved": 0}, {"rental_uris": {"ios": "https://dc.lft.to/lastmile_qr_scan", "android": "https://dc.lft.to/lastmile_qr_scan"}, "lon": -77.03145016666667, "type": "electric_scooter", "fusion_lat": 0.0, "lat": 38.91261083333333, "name": "1b97df9d462de391cfc9ad6a5af005e6", "fusion_lon": 0.0, "bike_id": "1b97df9d462de391cfc9ad6a5af005e6", "is_disabled": 0, "is_reserved": 0}, {"rental_uris": {"ios": "https://dc.lft.to/lastmile_qr_scan", "android": "https://dc.lft.to/lastmile_qr_scan"}, "lon": -76.94891366666667, "type": "electric_scooter", "fusion_lat": 0.0, "lat": 38.895297166666666, "name": "1f1a25a61aee8121f3d9b2bddd54c6b1", "fusion_lon": 0.0, "bike_id": "1f1a25a61aee8121f3d9b2bddd54c6b1", "is_disabled": 0, "is_reserved": 0}, {"rental_uris": {"ios": "https://dc.lft.to/lastmile_qr_scan", "android": "https://dc.lft.to/lastmile_qr_scan"}, "lon": -76.98182133333333, "type": "electric_scooter", "fusion_lat": 0.0, "lat": 38.8957795, "name": "c77dca375955a8528ceca847d7452544", "fusion_lon": 0.0, "bike_id": "c77dca375955a8528ceca847d7452544", "is_disabled": 0, "is_reserved": 0}, {"rental_uris": {"ios": "https://dc.lft.to/lastmile_qr_scan", "android": "https://dc.lft.to/lastmile_qr_scan"}, "lon": -77.03209566666666, "type": "electric_scooter", "fusion_lat": 0.0, "lat": 38.9132875, "name": "40839b0603aad7d30e89e27d747164cb", "fusion_lon": 0.0, "bike_id": "40839b0603aad7d30e89e27d747164cb", "is_disabled": 0, "is_reserved": 0}, {"rental_uris": {"ios": "https://dc.lft.to/lastmile_qr_scan", "android": "https://dc.lft.to/lastmile_qr_scan"}, "lon": -77.02723733333333, "type": "electric_scooter", "fusion_lat": 0.0, "lat": 38.905234666666665, "name": "5684f84f2bdb0b408a5d0f83dff3a963", "fusion_lon": 0.0, "bike_id": "5684f84f2bdb0b408a5d0f83dff3a963", "is_disabled": 0, "is_reserved": 0}, {"rental_uris": {"ios": "https://dc.lft.to/lastmile_qr_scan", "android": "https://dc.lft.to/lastmile_qr_scan"}, "lon": -76.90971566666667, "type": "electric_bike", "fusion_lat": 0.0, "lat": 38.854333, "name": "c7b33c5afe7e88521d2eab1b1d20341b", "fusion_lon": 0.0, "bike_id": "c7b33c5afe7e88521d2eab1b1d20341b", "is_disabled": 0, "is_reserved": 0}, {"rental_uris": {"ios": "https://dc.lft.to/lastmile_qr_scan", "android": "https://dc.lft.to/lastmile_qr_scan"}, "lon": -77.0409725, "type": "electric_scooter", "fusion_lat": 0.0, "lat": 38.917803666666664, "name": "86c1fed2eeaf0222e4c772e9d641ab26", "fusion_lon": 0.0, "bike_id": "86c1fed2eeaf0222e4c772e9d641ab26", "is_disabled": 0, "is_reserved": 0}, {"rental_uris": {"ios": "https://dc.lft.to/lastmile_qr_scan", "android": "https://dc.lft.to/lastmile_qr_scan"}, "lon": -76.98257066666666, "type": "electric_scooter", "fusion_lat": 0.0, "lat": 38.90866116666667, "name": "47da06faadcbb9425120cc8141c66685", "fusion_lon": 0.0, "bike_id": "47da06faadcbb9425120cc8141c66685", "is_disabled": 0, "is_reserved": 0}, {"rental_uris": {"ios": "https://dc.lft.to/lastmile_qr_scan", "android": "https://dc.lft.to/lastmile_qr_scan"}, "lon": -77.009756, "type": "electric_scooter", "fusion_lat": 0.0, "lat": 38.9192705, "name": "a60fb432c87bf679eeb8ab8a15eae7b1", "fusion_lon": 0.0, "bike_id": "a60fb432c87bf679eeb8ab8a15eae7b1", "is_disabled": 0, "is_reserved": 0}, {"rental_uris": {"ios": "https://dc.lft.to/lastmile_qr_scan", "android": "https://dc.lft.to/lastmile_qr_scan"}, "lon": -77.0218765, "type": "electric_scooter", "fusion_lat": 0.0, "lat": 38.93950783333333, "name": "fe4e6ccd9d74d3163e27140ae47f9be1", "fusion_lon": 0.0, "bike_id": "fe4e6ccd9d74d3163e27140ae47f9be1", "is_disabled": 0, "is_reserved": 0}, {"rental_uris": {"ios": "https://dc.lft.to/lastmile_qr_scan", "android": "https://dc.lft.to/lastmile_qr_scan"}, "lon": -77.04676383333333, "type": "electric_scooter", "fusion_lat": 0.0, "lat": 38.90135983333333, "name": "501caa1a842078094ed94cdd9963cf53", "fusion_lon": 0.0, "bike_id": "501caa1a842078094ed94cdd9963cf53", "is_disabled": 0, "is_reserved": 0}, {"rental_uris": {"ios": "https://dc.lft.to/lastmile_qr_scan", "android": "https://dc.lft.to/lastmile_qr_scan"}, "lon": -77.0112655, "type": "electric_scooter", "fusion_lat": 0.0, "lat": 38.903739, "name": "b8b41303a620a857b461ee71366131b2", "fusion_lon": 0.0, "bike_id": "b8b41303a620a857b461ee71366131b2", "is_disabled": 0, "is_reserved": 0}, {"rental_uris": {"ios": "https://dc.lft.to/lastmile_qr_scan", "android": "https://dc.lft.to/lastmile_qr_scan"}, "lon": -77.0390085, "type": "electric_scooter", "fusion_lat": 0.0, "lat": 38.921932166666664, "name": "c3427867c32939515ab64810553d3607", "fusion_lon": 0.0, "bike_id": "c3427867c32939515ab64810553d3607", "is_disabled": 0, "is_reserved": 0}, {"rental_uris": {"ios": "https://dc.lft.to/lastmile_qr_scan", "android": "https://dc.lft.to/lastmile_qr_scan"}, "lon": -77.01344, "type": "electric_bike", "fusion_lat": 0.0, "lat": 38.99993883333333, "name": "d29a77d614debabda4f3cb8ecc3aa193", "fusion_lon": 0.0, "bike_id": "d29a77d614debabda4f3cb8ecc3aa193", "is_disabled": 0, "is_reserved": 0}, {"rental_uris": {"ios": "https://dc.lft.to/lastmile_qr_scan", "android": "https://dc.lft.to/lastmile_qr_scan"}, "lon": -77.02554283333333, "type": "electric_scooter", "fusion_lat": 0.0, "lat": 38.91819366666667, "name": "0253df15eee885603a6f60225f10fefd", "fusion_lon": 0.0, "bike_id": "0253df15eee885603a6f60225f10fefd", "is_disabled": 0, "is_reserved": 0}, {"rental_uris": {"ios": "https://dc.lft.to/lastmile_qr_scan", "android": "https://dc.lft.to/lastmile_qr_scan"}, "lon": -76.99981566666666, "type": "electric_scooter", "fusion_lat": 0.0, "lat": 38.838383666666665, "name": "8e44dad0a82b9b3672be1eaf2453abed", "fusion_lon": 0.0, "bike_id": "8e44dad0a82b9b3672be1eaf2453abed", "is_disabled": 0, "is_reserved": 0}, {"rental_uris": {"ios": "https://dc.lft.to/lastmile_qr_scan", "android": "https://dc.lft.to/lastmile_qr_scan"}, "lon": -77.04150016666667, "type": "electric_scooter", "fusion_lat": 0.0, "lat": 38.917095, "name": "cdc0d81a318459cfec898de3f20f854e", "fusion_lon": 0.0, "bike_id": "cdc0d81a318459cfec898de3f20f854e", "is_disabled": 0, "is_reserved": 0}, {"rental_uris": {"ios": "https://dc.lft.to/lastmile_qr_scan", "android": "https://dc.lft.to/lastmile_qr_scan"}, "lon": -77.01234083333334, "type": "electric_scooter", "fusion_lat": 0.0, "lat": 38.915542, "name": "c2925f98334d1d6e47c8fe83262383b4", "fusion_lon": 0.0, "bike_id": "c2925f98334d1d6e47c8fe83262383b4", "is_disabled": 0, "is_reserved": 0}, {"rental_uris": {"ios": "https://dc.lft.to/lastmile_qr_scan", "android": "https://dc.lft.to/lastmile_qr_scan"}, "lon": -77.00511716666666, "type": "electric_scooter", "fusion_lat": 0.0, "lat": 38.917164666666665, "name": "aafd24d44095ef82f36155cdddcf5a37", "fusion_lon": 0.0, "bike_id": "aafd24d44095ef82f36155cdddcf5a37", "is_disabled": 0, "is_reserved": 0}, {"rental_uris": {"ios": "https://dc.lft.to/lastmile_qr_scan", "android": "https://dc.lft.to/lastmile_qr_scan"}, "lon": -77.053422, "type": "electric_scooter", "fusion_lat": 0.0, "lat": 38.90595416666667, "name": "61d1c1a3246d676726b6d819f4b31551", "fusion_lon": 0.0, "bike_id": "61d1c1a3246d676726b6d819f4b31551", "is_disabled": 0, "is_reserved": 0}, {"rental_uris": {"ios": "https://dc.lft.to/lastmile_qr_scan", "android": "https://dc.lft.to/lastmile_qr_scan"}, "lon": -77.069847, "type": "electric_scooter", "fusion_lat": 0.0, "lat": 38.9548745, "name": "0f51df9fa8b7057bf2f8789988431920", "fusion_lon": 0.0, "bike_id": "0f51df9fa8b7057bf2f8789988431920", "is_disabled": 0, "is_reserved": 0}, {"rental_uris": {"ios": "https://dc.lft.to/lastmile_qr_scan", "android": "https://dc.lft.to/lastmile_qr_scan"}, "lon": -77.02614883333334, "type": "electric_scooter", "fusion_lat": 0.0, "lat": 38.933989833333335, "name": "f5c3c7e45a2f4d107f2b268ae2e309a7", "fusion_lon": 0.0, "bike_id": "f5c3c7e45a2f4d107f2b268ae2e309a7", "is_disabled": 0, "is_reserved": 0}, {"rental_uris": {"ios": "https://dc.lft.to/lastmile_qr_scan", "android": "https://dc.lft.to/lastmile_qr_scan"}, "lon": -77.03263566666666, "type": "electric_scooter", "fusion_lat": 0.0, "lat": 38.91405983333333, "name": "4128f0c4087b2f3ce673b7dddd20427f", "fusion_lon": 0.0, "bike_id": "4128f0c4087b2f3ce673b7dddd20427f", "is_disabled": 0, "is_reserved": 0}, {"rental_uris": {"ios": "https://dc.lft.to/lastmile_qr_scan", "android": "https://dc.lft.to/lastmile_qr_scan"}, "lon": -77.0169915, "type": "electric_scooter", "fusion_lat": 0.0, "lat": 38.913849, "name": "098629331b37af0ec232a742a967f137", "fusion_lon": 0.0, "bike_id": "098629331b37af0ec232a742a967f137", "is_disabled": 0, "is_reserved": 0}, {"rental_uris": {"ios": "https://dc.lft.to/lastmile_qr_scan", "android": "https://dc.lft.to/lastmile_qr_scan"}, "lon": -77.03181333333333, "type": "electric_scooter", "fusion_lat": 0.0, "lat": 38.9125745, "name": "9c0d23a9a5bef143c1320c4a39ca00c2", "fusion_lon": 0.0, "bike_id": "9c0d23a9a5bef143c1320c4a39ca00c2", "is_disabled": 0, "is_reserved": 0}, {"rental_uris": {"ios": "https://dc.lft.to/lastmile_qr_scan", "android": "https://dc.lft.to/lastmile_qr_scan"}, "lon": -76.99507733333333, "type": "electric_bike", "fusion_lat": 0.0, "lat": 39.000023, "name": "4e8c728b188dd01baf72b2d014e3d82c", "fusion_lon": 0.0, "bike_id": "4e8c728b188dd01baf72b2d014e3d82c", "is_disabled": 0, "is_reserved": 0}, {"rental_uris": {"ios": "https://dc.lft.to/lastmile_qr_scan", "android": "https://dc.lft.to/lastmile_qr_scan"}, "lon": -77.02301166666666, "type": "electric_scooter", "fusion_lat": 0.0, "lat": 38.918387833333334, "name": "ee7509d6eb4eee349ba2effe0125f44e", "fusion_lon": 0.0, "bike_id": "ee7509d6eb4eee349ba2effe0125f44e", "is_disabled": 0, "is_reserved": 0}, {"rental_uris": {"ios": "https://dc.lft.to/lastmile_qr_scan", "android": "https://dc.lft.to/lastmile_qr_scan"}, "lon": -77.0409575, "type": "electric_scooter", "fusion_lat": 0.0, "lat": 38.91780166666667, "name": "12f1ba20b1edd68233fe00b66dc641b3", "fusion_lon": 0.0, "bike_id": "12f1ba20b1edd68233fe00b66dc641b3", "is_disabled": 0, "is_reserved": 0}, {"rental_uris": {"ios": "https://dc.lft.to/lastmile_qr_scan", "android": "https://dc.lft.to/lastmile_qr_scan"}, "lon": -77.02271433333334, "type": "electric_scooter", "fusion_lat": 0.0, "lat": 38.92465883333333, "name": "dbb596ba2a25a62bf9db40207aa05787", "fusion_lon": 0.0, "bike_id": "dbb596ba2a25a62bf9db40207aa05787", "is_disabled": 0, "is_reserved": 0}, {"rental_uris": {"ios": "https://dc.lft.to/lastmile_qr_scan", "android": "https://dc.lft.to/lastmile_qr_scan"}, "lon": -77.0334585, "type": "electric_scooter", "fusion_lat": 0.0, "lat": 38.934175833333335, "name": "17cb86a207da11bedf6ecb33c57d7476", "fusion_lon": 0.0, "bike_id": "17cb86a207da11bedf6ecb33c57d7476", "is_disabled": 0, "is_reserved": 0}, {"rental_uris": {"ios": "https://dc.lft.to/lastmile_qr_scan", "android": "https://dc.lft.to/lastmile_qr_scan"}, "lon": -77.0133655, "type": "electric_scooter", "fusion_lat": 0.0, "lat": 38.90059133333333, "name": "62fc4770ef369aa06097717803997849", "fusion_lon": 0.0, "bike_id": "62fc4770ef369aa06097717803997849", "is_disabled": 0, "is_reserved": 0}, {"rental_uris": {"ios": "https://dc.lft.to/lastmile_qr_scan", "android": "https://dc.lft.to/lastmile_qr_scan"}, "lon": -77.01697783333333, "type": "electric_scooter", "fusion_lat": 0.0, "lat": 38.9205645, "name": "c9e877c5b8068cf82534a49206475c1e", "fusion_lon": 0.0, "bike_id": "c9e877c5b8068cf82534a49206475c1e", "is_disabled": 0, "is_reserved": 0}, {"rental_uris": {"ios": "https://dc.lft.to/lastmile_qr_scan", "android": "https://dc.lft.to/lastmile_qr_scan"}, "lon": -77.0480535, "type": "electric_scooter", "fusion_lat": 0.0, "lat": 38.892235666666664, "name": "d2ccfa63fc9821cfa7df65b12d3ad2f4", "fusion_lon": 0.0, "bike_id": "d2ccfa63fc9821cfa7df65b12d3ad2f4", "is_disabled": 0, "is_reserved": 0}, {"rental_uris": {"ios": "https://dc.lft.to/lastmile_qr_scan", "android": "https://dc.lft.to/lastmile_qr_scan"}, "lon": -77.02538716666666, "type": "electric_scooter", "fusion_lat": 0.0, "lat": 38.918228, "name": "009919724eef8e0c2a7385c4093e21ec", "fusion_lon": 0.0, "bike_id": "009919724eef8e0c2a7385c4093e21ec", "is_disabled": 0, "is_reserved": 0}, {"rental_uris": {"ios": "https://dc.lft.to/lastmile_qr_scan", "android": "https://dc.lft.to/lastmile_qr_scan"}, "lon": -77.0250045, "type": "electric_scooter", "fusion_lat": 0.0, "lat": 38.918083, "name": "318b82d8bdb903de664cb49fed233003", "fusion_lon": 0.0, "bike_id": "318b82d8bdb903de664cb49fed233003", "is_disabled": 0, "is_reserved": 0}, {"rental_uris": {"ios": "https://dc.lft.to/lastmile_qr_scan", "android": "https://dc.lft.to/lastmile_qr_scan"}, "lon": -77.030848, "type": "electric_scooter", "fusion_lat": 0.0, "lat": 38.894505833333334, "name": "82658cffc8e4d28149ea1f515ef8be34", "fusion_lon": 0.0, "bike_id": "82658cffc8e4d28149ea1f515ef8be34", "is_disabled": 0, "is_reserved": 0}, {"rental_uris": {"ios": "https://dc.lft.to/lastmile_qr_scan", "android": "https://dc.lft.to/lastmile_qr_scan"}, "lon": -77.02795283333333, "type": "electric_scooter", "fusion_lat": 0.0, "lat": 38.930892, "name": "8a28df89011a5c63ccd2f0c800ac6b55", "fusion_lon": 0.0, "bike_id": "8a28df89011a5c63ccd2f0c800ac6b55", "is_disabled": 0, "is_reserved": 0}, {"rental_uris": {"ios": "https://dc.lft.to/lastmile_qr_scan", "android": "https://dc.lft.to/lastmile_qr_scan"}, "lon": -77.011097, "type": "electric_scooter", "fusion_lat": 0.0, "lat": 38.90788233333333, "name": "b0231ccbba969e4a793f63e114df0878", "fusion_lon": 0.0, "bike_id": "b0231ccbba969e4a793f63e114df0878", "is_disabled": 0, "is_reserved": 0}, {"rental_uris": {"ios": "https://dc.lft.to/lastmile_qr_scan", "android": "https://dc.lft.to/lastmile_qr_scan"}, "lon": -77.0568505, "type": "electric_scooter", "fusion_lat": 0.0, "lat": 38.923291, "name": "1cd86e1ffa77cfea8beb295612cc94a8", "fusion_lon": 0.0, "bike_id": "1cd86e1ffa77cfea8beb295612cc94a8", "is_disabled": 0, "is_reserved": 0}, {"rental_uris": {"ios": "https://dc.lft.to/lastmile_qr_scan", "android": "https://dc.lft.to/lastmile_qr_scan"}, "lon": -77.00634816666667, "type": "electric_scooter", "fusion_lat": 0.0, "lat": 38.829353166666664, "name": "7e1d6c0be7ec63d2b03f4f2fcf58d83e", "fusion_lon": 0.0, "bike_id": "7e1d6c0be7ec63d2b03f4f2fcf58d83e", "is_disabled": 0, "is_reserved": 0}, {"rental_uris": {"ios": "https://dc.lft.to/lastmile_qr_scan", "android": "https://dc.lft.to/lastmile_qr_scan"}, "lon": -77.01929383333334, "type": "electric_scooter", "fusion_lat": 0.0, "lat": 38.9568805, "name": "0b28968953a88c05828f9d84f76a7820", "fusion_lon": 0.0, "bike_id": "0b28968953a88c05828f9d84f76a7820", "is_disabled": 0, "is_reserved": 0}, {"rental_uris": {"ios": "https://dc.lft.to/lastmile_qr_scan", "android": "https://dc.lft.to/lastmile_qr_scan"}, "lon": -77.02371816666667, "type": "electric_scooter", "fusion_lat": 0.0, "lat": 38.903043833333335, "name": "b8587ef7868802d0ce4156cae8a0a8ca", "fusion_lon": 0.0, "bike_id": "b8587ef7868802d0ce4156cae8a0a8ca", "is_disabled": 0, "is_reserved": 0}, {"rental_uris": {"ios": "https://dc.lft.to/lastmile_qr_scan", "android": "https://dc.lft.to/lastmile_qr_scan"}, "lon": -76.99000733333334, "type": "electric_scooter", "fusion_lat": 0.0, "lat": 38.8650355, "name": "8bdf97d73c52d224c242e06c2b1e211d", "fusion_lon": 0.0, "bike_id": "8bdf97d73c52d224c242e06c2b1e211d", "is_disabled": 0, "is_reserved": 0}, {"rental_uris": {"ios": "https://dc.lft.to/lastmile_qr_scan", "android": "https://dc.lft.to/lastmile_qr_scan"}, "lon": -77.042641, "type": "electric_scooter", "fusion_lat": 0.0, "lat": 38.922152833333335, "name": "d6f32c7420e2d2e7bac230e380ae54b3", "fusion_lon": 0.0, "bike_id": "d6f32c7420e2d2e7bac230e380ae54b3", "is_disabled": 0, "is_reserved": 0}, {"rental_uris": {"ios": "https://dc.lft.to/lastmile_qr_scan", "android": "https://dc.lft.to/lastmile_qr_scan"}, "lon": -77.08193366666667, "type": "electric_scooter", "fusion_lat": 0.0, "lat": 38.94926066666667, "name": "68ee98bc8566bfbbed889afff6fe41f4", "fusion_lon": 0.0, "bike_id": "68ee98bc8566bfbbed889afff6fe41f4", "is_disabled": 0, "is_reserved": 0}, {"rental_uris": {"ios": "https://dc.lft.to/lastmile_qr_scan", "android": "https://dc.lft.to/lastmile_qr_scan"}, "lon": -77.01132533333333, "type": "electric_scooter", "fusion_lat": 0.0, "lat": 38.895451666666666, "name": "05e2b59f1d1046093acfc5cce7c800d9", "fusion_lon": 0.0, "bike_id": "05e2b59f1d1046093acfc5cce7c800d9", "is_disabled": 0, "is_reserved": 0}, {"rental_uris": {"ios": "https://dc.lft.to/lastmile_qr_scan", "android": "https://dc.lft.to/lastmile_qr_scan"}, "lon": -76.96057383333333, "type": "electric_bike", "fusion_lat": 0.0, "lat": 38.88404833333333, "name": "a0eba7f5f48b915ccca485a497dcaa51", "fusion_lon": 0.0, "bike_id": "a0eba7f5f48b915ccca485a497dcaa51", "is_disabled": 0, "is_reserved": 0}, {"rental_uris": {"ios": "https://dc.lft.to/lastmile_qr_scan", "android": "https://dc.lft.to/lastmile_qr_scan"}, "lon": -77.04821283333334, "type": "electric_scooter", "fusion_lat": 0.0, "lat": 38.91334666666667, "name": "2bced0d2c0201548c352e40cf2ce69e4", "fusion_lon": 0.0, "bike_id": "2bced0d2c0201548c352e40cf2ce69e4", "is_disabled": 0, "is_reserved": 0}, {"rental_uris": {"ios": "https://dc.lft.to/lastmile_qr_scan", "android": "https://dc.lft.to/lastmile_qr_scan"}, "lon": -77.06298466666667, "type": "electric_scooter", "fusion_lat": 0.0, "lat": 38.903953333333334, "name": "1a76ddabf4d8224f2194c73d987de7a2", "fusion_lon": 0.0, "bike_id": "1a76ddabf4d8224f2194c73d987de7a2", "is_disabled": 0, "is_reserved": 0}, {"rental_uris": {"ios": "https://dc.lft.to/lastmile_qr_scan", "android": "https://dc.lft.to/lastmile_qr_scan"}, "lon": -76.908153, "type": "electric_bike", "fusion_lat": 0.0, "lat": 38.99459216666666, "name": "72221efd5d14c553bcc04f1289d979ed", "fusion_lon": 0.0, "bike_id": "72221efd5d14c553bcc04f1289d979ed", "is_disabled": 0, "is_reserved": 0}, {"rental_uris": {"ios": "https://dc.lft.to/lastmile_qr_scan", "android": "https://dc.lft.to/lastmile_qr_scan"}, "lon": -77.02707433333333, "type": "electric_scooter", "fusion_lat": 0.0, "lat": 38.927819, "name": "b868cb4b81c46c8cca49a527d8c7d49f", "fusion_lon": 0.0, "bike_id": "b868cb4b81c46c8cca49a527d8c7d49f", "is_disabled": 0, "is_reserved": 0}, {"rental_uris": {"ios": "https://dc.lft.to/lastmile_qr_scan", "android": "https://dc.lft.to/lastmile_qr_scan"}, "lon": -77.0366665, "type": "electric_scooter", "fusion_lat": 0.0, "lat": 38.930827666666666, "name": "b42fdf6872b212438a3cc67951ddb8c3", "fusion_lon": 0.0, "bike_id": "b42fdf6872b212438a3cc67951ddb8c3", "is_disabled": 0, "is_reserved": 0}, {"rental_uris": {"ios": "https://dc.lft.to/lastmile_qr_scan", "android": "https://dc.lft.to/lastmile_qr_scan"}, "lon": -77.02838116666666, "type": "electric_scooter", "fusion_lat": 0.0, "lat": 38.93191733333333, "name": "e43a7dfb94d03a01946f3a8195801fcc", "fusion_lon": 0.0, "bike_id": "e43a7dfb94d03a01946f3a8195801fcc", "is_disabled": 0, "is_reserved": 0}, {"rental_uris": {"ios": "https://dc.lft.to/lastmile_qr_scan", "android": "https://dc.lft.to/lastmile_qr_scan"}, "lon": -76.9802585, "type": "electric_scooter", "fusion_lat": 0.0, "lat": 38.887743, "name": "7cf99ccc5b85255cff22972c833f2a08", "fusion_lon": 0.0, "bike_id": "7cf99ccc5b85255cff22972c833f2a08", "is_disabled": 0, "is_reserved": 0}, {"rental_uris": {"ios": "https://dc.lft.to/lastmile_qr_scan", "android": "https://dc.lft.to/lastmile_qr_scan"}, "lon": -76.99254366666666, "type": "electric_bike", "fusion_lat": 0.0, "lat": 38.925511166666666, "name": "aa9e331e18ca6fd2ff52f811e7ca2462", "fusion_lon": 0.0, "bike_id": "aa9e331e18ca6fd2ff52f811e7ca2462", "is_disabled": 0, "is_reserved": 0}, {"rental_uris": {"ios": "https://dc.lft.to/lastmile_qr_scan", "android": "https://dc.lft.to/lastmile_qr_scan"}, "lon": -77.007136, "type": "electric_scooter", "fusion_lat": 0.0, "lat": 38.90577583333334, "name": "253581537c0e381166a5651fe2f0f14a", "fusion_lon": 0.0, "bike_id": "253581537c0e381166a5651fe2f0f14a", "is_disabled": 0, "is_reserved": 0}, {"rental_uris": {"ios": "https://dc.lft.to/lastmile_qr_scan", "android": "https://dc.lft.to/lastmile_qr_scan"}, "lon": -77.08206633333333, "type": "electric_scooter", "fusion_lat": 0.0, "lat": 38.93330683333333, "name": "eddadbd08d8bb6f410a31a7b9b0593d5", "fusion_lon": 0.0, "bike_id": "eddadbd08d8bb6f410a31a7b9b0593d5", "is_disabled": 0, "is_reserved": 0}, {"rental_uris": {"ios": "https://dc.lft.to/lastmile_qr_scan", "android": "https://dc.lft.to/lastmile_qr_scan"}, "lon": -76.99002566666667, "type": "electric_scooter", "fusion_lat": 0.0, "lat": 38.865054666666666, "name": "c28bdc33bed8e67ef8a57f5607df13ce", "fusion_lon": 0.0, "bike_id": "c28bdc33bed8e67ef8a57f5607df13ce", "is_disabled": 0, "is_reserved": 0}, {"rental_uris": {"ios": "https://dc.lft.to/lastmile_qr_scan", "android": "https://dc.lft.to/lastmile_qr_scan"}, "lon": -77.02640516666666, "type": "electric_scooter", "fusion_lat": 0.0, "lat": 38.93043216666667, "name": "7e69b43cf017463c3deecc26012e9d82", "fusion_lon": 0.0, "bike_id": "7e69b43cf017463c3deecc26012e9d82", "is_disabled": 0, "is_reserved": 0}, {"rental_uris": {"ios": "https://dc.lft.to/lastmile_qr_scan", "android": "https://dc.lft.to/lastmile_qr_scan"}, "lon": -77.04047066666666, "type": "electric_scooter", "fusion_lat": 0.0, "lat": 38.92471783333333, "name": "1b8a3e18b2b57a0be2d8e05564d68d6b", "fusion_lon": 0.0, "bike_id": "1b8a3e18b2b57a0be2d8e05564d68d6b", "is_disabled": 0, "is_reserved": 0}, {"rental_uris": {"ios": "https://dc.lft.to/lastmile_qr_scan", "android": "https://dc.lft.to/lastmile_qr_scan"}, "lon": -77.02229883333334, "type": "electric_bike", "fusion_lat": 0.0, "lat": 38.956922166666665, "name": "8899446fa46aff81593bac671c44dcdf", "fusion_lon": 0.0, "bike_id": "8899446fa46aff81593bac671c44dcdf", "is_disabled": 0, "is_reserved": 0}, {"rental_uris": {"ios": "https://dc.lft.to/lastmile_qr_scan", "android": "https://dc.lft.to/lastmile_qr_scan"}, "lon": -77.0442235, "type": "electric_scooter", "fusion_lat": 0.0, "lat": 38.89227183333333, "name": "1d4755aefed5fe3c01602cc21ab82501", "fusion_lon": 0.0, "bike_id": "1d4755aefed5fe3c01602cc21ab82501", "is_disabled": 0, "is_reserved": 0}, {"rental_uris": {"ios": "https://dc.lft.to/lastmile_qr_scan", "android": "https://dc.lft.to/lastmile_qr_scan"}, "lon": -76.99554216666667, "type": "electric_scooter", "fusion_lat": 0.0, "lat": 38.9231485, "name": "81f639e576b8c91a1d2b9716ff04cece", "fusion_lon": 0.0, "bike_id": "81f639e576b8c91a1d2b9716ff04cece", "is_disabled": 0, "is_reserved": 0}, {"rental_uris": {"ios": "https://dc.lft.to/lastmile_qr_scan", "android": "https://dc.lft.to/lastmile_qr_scan"}, "lon": -77.07207233333334, "type": "electric_scooter", "fusion_lat": 0.0, "lat": 38.93476533333333, "name": "d27c2c3e368baab093e272d80ae0bd2a", "fusion_lon": 0.0, "bike_id": "d27c2c3e368baab093e272d80ae0bd2a", "is_disabled": 0, "is_reserved": 0}, {"rental_uris": {"ios": "https://dc.lft.to/lastmile_qr_scan", "android": "https://dc.lft.to/lastmile_qr_scan"}, "lon": -77.04689166666667, "type": "electric_scooter", "fusion_lat": 0.0, "lat": 38.892243666666666, "name": "0a7009659f157e649e4bd8c04d9e7393", "fusion_lon": 0.0, "bike_id": "0a7009659f157e649e4bd8c04d9e7393", "is_disabled": 0, "is_reserved": 0}, {"rental_uris": {"ios": "https://dc.lft.to/lastmile_qr_scan", "android": "https://dc.lft.to/lastmile_qr_scan"}, "lon": -77.03184283333333, "type": "electric_scooter", "fusion_lat": 0.0, "lat": 38.92960633333333, "name": "5401aa47fabb2d00be515e62b2b41a05", "fusion_lon": 0.0, "bike_id": "5401aa47fabb2d00be515e62b2b41a05", "is_disabled": 0, "is_reserved": 0}, {"rental_uris": {"ios": "https://dc.lft.to/lastmile_qr_scan", "android": "https://dc.lft.to/lastmile_qr_scan"}, "lon": -77.06355383333333, "type": "electric_scooter", "fusion_lat": 0.0, "lat": 38.944503166666664, "name": "193ac0289ddce4a6aec66d6223e1d5e7", "fusion_lon": 0.0, "bike_id": "193ac0289ddce4a6aec66d6223e1d5e7", "is_disabled": 0, "is_reserved": 0}, {"rental_uris": {"ios": "https://dc.lft.to/lastmile_qr_scan", "android": "https://dc.lft.to/lastmile_qr_scan"}, "lon": -77.01355616666666, "type": "electric_scooter", "fusion_lat": 0.0, "lat": 38.92742166666667, "name": "b74dff8ae698ecf45a70222a5cc5a3c4", "fusion_lon": 0.0, "bike_id": "b74dff8ae698ecf45a70222a5cc5a3c4", "is_disabled": 0, "is_reserved": 0}, {"rental_uris": {"ios": "https://dc.lft.to/lastmile_qr_scan", "android": "https://dc.lft.to/lastmile_qr_scan"}, "lon": -76.98265433333333, "type": "electric_scooter", "fusion_lat": 0.0, "lat": 38.863555, "name": "213bf822cb8ce9d74102e6619780a57a", "fusion_lon": 0.0, "bike_id": "213bf822cb8ce9d74102e6619780a57a", "is_disabled": 0, "is_reserved": 0}, {"rental_uris": {"ios": "https://dc.lft.to/lastmile_qr_scan", "android": "https://dc.lft.to/lastmile_qr_scan"}, "lon": -76.99383233333333, "type": "electric_scooter", "fusion_lat": 0.0, "lat": 38.89742, "name": "613ca2355bd329b03ef4702162c44b28", "fusion_lon": 0.0, "bike_id": "613ca2355bd329b03ef4702162c44b28", "is_disabled": 0, "is_reserved": 0}, {"rental_uris": {"ios": "https://dc.lft.to/lastmile_qr_scan", "android": "https://dc.lft.to/lastmile_qr_scan"}, "lon": -77.0543905, "type": "electric_scooter", "fusion_lat": 0.0, "lat": 38.896085666666664, "name": "c60a8d53e6490e2972bb128c9a4692ab", "fusion_lon": 0.0, "bike_id": "c60a8d53e6490e2972bb128c9a4692ab", "is_disabled": 0, "is_reserved": 0}, {"rental_uris": {"ios": "https://dc.lft.to/lastmile_qr_scan", "android": "https://dc.lft.to/lastmile_qr_scan"}, "lon": -77.04420216666666, "type": "electric_scooter", "fusion_lat": 0.0, "lat": 38.90585633333333, "name": "ca100a619ad73d0e9060efdc57bb9a19", "fusion_lon": 0.0, "bike_id": "ca100a619ad73d0e9060efdc57bb9a19", "is_disabled": 0, "is_reserved": 0}, {"rental_uris": {"ios": "https://dc.lft.to/lastmile_qr_scan", "android": "https://dc.lft.to/lastmile_qr_scan"}, "lon": -77.011065, "type": "electric_scooter", "fusion_lat": 0.0, "lat": 38.900013, "name": "120fbf0f368654d00c2566fece71667b", "fusion_lon": 0.0, "bike_id": "120fbf0f368654d00c2566fece71667b", "is_disabled": 0, "is_reserved": 0}, {"rental_uris": {"ios": "https://dc.lft.to/lastmile_qr_scan", "android": "https://dc.lft.to/lastmile_qr_scan"}, "lon": -77.0347435, "type": "electric_scooter", "fusion_lat": 0.0, "lat": 38.9199145, "name": "655f85694a84ce01ad1f1ab1cfbbd170", "fusion_lon": 0.0, "bike_id": "655f85694a84ce01ad1f1ab1cfbbd170", "is_disabled": 0, "is_reserved": 0}, {"rental_uris": {"ios": "https://dc.lft.to/lastmile_qr_scan", "android": "https://dc.lft.to/lastmile_qr_scan"}, "lon": -77.01655633333333, "type": "electric_scooter", "fusion_lat": 0.0, "lat": 38.9533235, "name": "f7e60608e12204b74501b48901a493f5", "fusion_lon": 0.0, "bike_id": "f7e60608e12204b74501b48901a493f5", "is_disabled": 0, "is_reserved": 0}, {"rental_uris": {"ios": "https://dc.lft.to/lastmile_qr_scan", "android": "https://dc.lft.to/lastmile_qr_scan"}, "lon": -77.047921, "type": "electric_scooter", "fusion_lat": 0.0, "lat": 38.8936415, "name": "0408b767f26a0d1b245b327b9c78999e", "fusion_lon": 0.0, "bike_id": "0408b767f26a0d1b245b327b9c78999e", "is_disabled": 0, "is_reserved": 0}, {"rental_uris": {"ios": "https://dc.lft.to/lastmile_qr_scan", "android": "https://dc.lft.to/lastmile_qr_scan"}, "lon": -77.02026083333334, "type": "electric_scooter", "fusion_lat": 0.0, "lat": 38.916480166666666, "name": "b52f59d4e58929993288d39b81889561", "fusion_lon": 0.0, "bike_id": "b52f59d4e58929993288d39b81889561", "is_disabled": 0, "is_reserved": 0}, {"rental_uris": {"ios": "https://dc.lft.to/lastmile_qr_scan", "android": "https://dc.lft.to/lastmile_qr_scan"}, "lon": -77.02975516666666, "type": "electric_scooter", "fusion_lat": 0.0, "lat": 38.962292, "name": "c1e4377c1c10c29b9be13a1dfd4e685e", "fusion_lon": 0.0, "bike_id": "c1e4377c1c10c29b9be13a1dfd4e685e", "is_disabled": 0, "is_reserved": 0}, {"rental_uris": {"ios": "https://dc.lft.to/lastmile_qr_scan", "android": "https://dc.lft.to/lastmile_qr_scan"}, "lon": -77.02238633333333, "type": "electric_scooter", "fusion_lat": 0.0, "lat": 38.91555366666667, "name": "6220df6105cab8c38d43b60880444440", "fusion_lon": 0.0, "bike_id": "6220df6105cab8c38d43b60880444440", "is_disabled": 0, "is_reserved": 0}, {"rental_uris": {"ios": "https://dc.lft.to/lastmile_qr_scan", "android": "https://dc.lft.to/lastmile_qr_scan"}, "lon": -77.04101416666667, "type": "electric_scooter", "fusion_lat": 0.0, "lat": 38.918594666666664, "name": "a51148486f2a056b8c8eab51b67103cc", "fusion_lon": 0.0, "bike_id": "a51148486f2a056b8c8eab51b67103cc", "is_disabled": 0, "is_reserved": 0}, {"rental_uris": {"ios": "https://dc.lft.to/lastmile_qr_scan", "android": "https://dc.lft.to/lastmile_qr_scan"}, "lon": -76.98884133333334, "type": "electric_scooter", "fusion_lat": 0.0, "lat": 38.86662916666667, "name": "ab0d7a4a551d9eddef8cb4707d16ac25", "fusion_lon": 0.0, "bike_id": "ab0d7a4a551d9eddef8cb4707d16ac25", "is_disabled": 0, "is_reserved": 0}, {"rental_uris": {"ios": "https://dc.lft.to/lastmile_qr_scan", "android": "https://dc.lft.to/lastmile_qr_scan"}, "lon": -77.04156016666667, "type": "electric_scooter", "fusion_lat": 0.0, "lat": 38.9141725, "name": "46dc4dc685f1421ffc2bfef251dc4adf", "fusion_lon": 0.0, "bike_id": "46dc4dc685f1421ffc2bfef251dc4adf", "is_disabled": 0, "is_reserved": 0}, {"rental_uris": {"ios": "https://dc.lft.to/lastmile_qr_scan", "android": "https://dc.lft.to/lastmile_qr_scan"}, "lon": -77.01162266666667, "type": "electric_scooter", "fusion_lat": 0.0, "lat": 38.900181333333336, "name": "4fb3fe468992a1db829c44e27415be80", "fusion_lon": 0.0, "bike_id": "4fb3fe468992a1db829c44e27415be80", "is_disabled": 0, "is_reserved": 0}, {"rental_uris": {"ios": "https://dc.lft.to/lastmile_qr_scan", "android": "https://dc.lft.to/lastmile_qr_scan"}, "lon": -77.08542683333333, "type": "electric_bike", "fusion_lat": 0.0, "lat": 38.85621733333333, "name": "2c9e6ea35c67155633677dd8dc434680", "fusion_lon": 0.0, "bike_id": "2c9e6ea35c67155633677dd8dc434680", "is_disabled": 0, "is_reserved": 0}, {"rental_uris": {"ios": "https://dc.lft.to/lastmile_qr_scan", "android": "https://dc.lft.to/lastmile_qr_scan"}, "lon": -77.00658116666666, "type": "electric_scooter", "fusion_lat": 0.0, "lat": 38.8746645, "name": "4c4ae428a152d0ac1c197df596915a34", "fusion_lon": 0.0, "bike_id": "4c4ae428a152d0ac1c197df596915a34", "is_disabled": 0, "is_reserved": 0}, {"rental_uris": {"ios": "https://dc.lft.to/lastmile_qr_scan", "android": "https://dc.lft.to/lastmile_qr_scan"}, "lon": -77.03178466666667, "type": "electric_scooter", "fusion_lat": 0.0, "lat": 38.9149495, "name": "32a0b6a46462b01213e52149b7720dd4", "fusion_lon": 0.0, "bike_id": "32a0b6a46462b01213e52149b7720dd4", "is_disabled": 0, "is_reserved": 0}, {"rental_uris": {"ios": "https://dc.lft.to/lastmile_qr_scan", "android": "https://dc.lft.to/lastmile_qr_scan"}, "lon": -77.0261665, "type": "electric_scooter", "fusion_lat": 0.0, "lat": 38.91705283333334, "name": "d8b14968406ec3777d6968a26d1f374e", "fusion_lon": 0.0, "bike_id": "d8b14968406ec3777d6968a26d1f374e", "is_disabled": 0, "is_reserved": 0}, {"rental_uris": {"ios": "https://dc.lft.to/lastmile_qr_scan", "android": "https://dc.lft.to/lastmile_qr_scan"}, "lon": -77.11525766666666, "type": "electric_bike", "fusion_lat": 0.0, "lat": 38.854939333333334, "name": "0a3f53f2e27a16bb27ac70eacced2d84", "fusion_lon": 0.0, "bike_id": "0a3f53f2e27a16bb27ac70eacced2d84", "is_disabled": 0, "is_reserved": 0}, {"rental_uris": {"ios": "https://dc.lft.to/lastmile_qr_scan", "android": "https://dc.lft.to/lastmile_qr_scan"}, "lon": -77.03197933333334, "type": "electric_scooter", "fusion_lat": 0.0, "lat": 38.88555316666667, "name": "ca9680b02fc2b21beaedf248d5e05151", "fusion_lon": 0.0, "bike_id": "ca9680b02fc2b21beaedf248d5e05151", "is_disabled": 0, "is_reserved": 0}, {"rental_uris": {"ios": "https://dc.lft.to/lastmile_qr_scan", "android": "https://dc.lft.to/lastmile_qr_scan"}, "lon": -77.01212816666667, "type": "electric_scooter", "fusion_lat": 0.0, "lat": 38.92122466666667, "name": "201d399ce53db586d369afb1fd8e49e8", "fusion_lon": 0.0, "bike_id": "201d399ce53db586d369afb1fd8e49e8", "is_disabled": 0, "is_reserved": 0}, {"rental_uris": {"ios": "https://dc.lft.to/lastmile_qr_scan", "android": "https://dc.lft.to/lastmile_qr_scan"}, "lon": -77.032108, "type": "electric_scooter", "fusion_lat": 0.0, "lat": 38.91332766666667, "name": "2ba2b3f7520813944b0dc5ee8d0f1f6f", "fusion_lon": 0.0, "bike_id": "2ba2b3f7520813944b0dc5ee8d0f1f6f", "is_disabled": 0, "is_reserved": 0}, {"rental_uris": {"ios": "https://dc.lft.to/lastmile_qr_scan", "android": "https://dc.lft.to/lastmile_qr_scan"}, "lon": -77.04816066666666, "type": "electric_scooter", "fusion_lat": 0.0, "lat": 38.91636583333333, "name": "819becf1e68409db6c083bc636756b70", "fusion_lon": 0.0, "bike_id": "819becf1e68409db6c083bc636756b70", "is_disabled": 0, "is_reserved": 0}, {"rental_uris": {"ios": "https://dc.lft.to/lastmile_qr_scan", "android": "https://dc.lft.to/lastmile_qr_scan"}, "lon": -77.01833133333334, "type": "electric_scooter", "fusion_lat": 0.0, "lat": 38.90442133333333, "name": "6fa222dd1720b7e9017e3a5badafcf55", "fusion_lon": 0.0, "bike_id": "6fa222dd1720b7e9017e3a5badafcf55", "is_disabled": 0, "is_reserved": 0}, {"rental_uris": {"ios": "https://dc.lft.to/lastmile_qr_scan", "android": "https://dc.lft.to/lastmile_qr_scan"}, "lon": -76.9925635, "type": "electric_scooter", "fusion_lat": 0.0, "lat": 38.91974116666667, "name": "811b100feed353abc484e1541807edbc", "fusion_lon": 0.0, "bike_id": "811b100feed353abc484e1541807edbc", "is_disabled": 0, "is_reserved": 0}, {"rental_uris": {"ios": "https://dc.lft.to/lastmile_qr_scan", "android": "https://dc.lft.to/lastmile_qr_scan"}, "lon": -77.0574395, "type": "electric_scooter", "fusion_lat": 0.0, "lat": 38.93397216666666, "name": "d2973cd057290917092b5b825a2602ba", "fusion_lon": 0.0, "bike_id": "d2973cd057290917092b5b825a2602ba", "is_disabled": 0, "is_reserved": 0}, {"rental_uris": {"ios": "https://dc.lft.to/lastmile_qr_scan", "android": "https://dc.lft.to/lastmile_qr_scan"}, "lon": -77.02383316666666, "type": "electric_scooter", "fusion_lat": 0.0, "lat": 38.93778233333333, "name": "1699be73933ac0773dc5e114af89ebdb", "fusion_lon": 0.0, "bike_id": "1699be73933ac0773dc5e114af89ebdb", "is_disabled": 0, "is_reserved": 0}, {"rental_uris": {"ios": "https://dc.lft.to/lastmile_qr_scan", "android": "https://dc.lft.to/lastmile_qr_scan"}, "lon": -77.012327, "type": "electric_scooter", "fusion_lat": 0.0, "lat": 38.86980616666666, "name": "f74f5a49e736b4c884d9050d4c047778", "fusion_lon": 0.0, "bike_id": "f74f5a49e736b4c884d9050d4c047778", "is_disabled": 0, "is_reserved": 0}, {"rental_uris": {"ios": "https://dc.lft.to/lastmile_qr_scan", "android": "https://dc.lft.to/lastmile_qr_scan"}, "lon": -77.04315333333334, "type": "electric_scooter", "fusion_lat": 0.0, "lat": 38.90947633333333, "name": "516e4fdb305efd7279672bcebecf58c0", "fusion_lon": 0.0, "bike_id": "516e4fdb305efd7279672bcebecf58c0", "is_disabled": 0, "is_reserved": 0}, {"rental_uris": {"ios": "https://dc.lft.to/lastmile_qr_scan", "android": "https://dc.lft.to/lastmile_qr_scan"}, "lon": -77.03335833333334, "type": "electric_scooter", "fusion_lat": 0.0, "lat": 38.9193005, "name": "0393ed99f3acb3a3664357446d759397", "fusion_lon": 0.0, "bike_id": "0393ed99f3acb3a3664357446d759397", "is_disabled": 0, "is_reserved": 0}, {"rental_uris": {"ios": "https://dc.lft.to/lastmile_qr_scan", "android": "https://dc.lft.to/lastmile_qr_scan"}, "lon": -77.02155216666667, "type": "electric_scooter", "fusion_lat": 0.0, "lat": 38.89618683333333, "name": "e9223f9523ec052067655a5907fb08a4", "fusion_lon": 0.0, "bike_id": "e9223f9523ec052067655a5907fb08a4", "is_disabled": 0, "is_reserved": 0}, {"rental_uris": {"ios": "https://dc.lft.to/lastmile_qr_scan", "android": "https://dc.lft.to/lastmile_qr_scan"}, "lon": -77.095283, "type": "electric_bike", "fusion_lat": 0.0, "lat": 38.838122, "name": "4fc9b10a83df0d3b3884b0d274fc9251", "fusion_lon": 0.0, "bike_id": "4fc9b10a83df0d3b3884b0d274fc9251", "is_disabled": 0, "is_reserved": 0}, {"rental_uris": {"ios": "https://dc.lft.to/lastmile_qr_scan", "android": "https://dc.lft.to/lastmile_qr_scan"}, "lon": -77.04129416666666, "type": "electric_scooter", "fusion_lat": 0.0, "lat": 38.921596, "name": "93a26316807d4ad866f73dfd6e098eaf", "fusion_lon": 0.0, "bike_id": "93a26316807d4ad866f73dfd6e098eaf", "is_disabled": 0, "is_reserved": 0}, {"rental_uris": {"ios": "https://dc.lft.to/lastmile_qr_scan", "android": "https://dc.lft.to/lastmile_qr_scan"}, "lon": -77.032503, "type": "electric_scooter", "fusion_lat": 0.0, "lat": 38.918181833333335, "name": "492cc11711c5ab30d35e4986a902ed2f", "fusion_lon": 0.0, "bike_id": "492cc11711c5ab30d35e4986a902ed2f", "is_disabled": 0, "is_reserved": 0}, {"rental_uris": {"ios": "https://dc.lft.to/lastmile_qr_scan", "android": "https://dc.lft.to/lastmile_qr_scan"}, "lon": -77.058243, "type": "electric_scooter", "fusion_lat": 0.0, "lat": 38.93420316666667, "name": "1b0b241a74353e0afa08b6d4413fd767", "fusion_lon": 0.0, "bike_id": "1b0b241a74353e0afa08b6d4413fd767", "is_disabled": 0, "is_reserved": 0}, {"rental_uris": {"ios": "https://dc.lft.to/lastmile_qr_scan", "android": "https://dc.lft.to/lastmile_qr_scan"}, "lon": -76.95821366666667, "type": "electric_scooter", "fusion_lat": 0.0, "lat": 38.89056183333334, "name": "0020a329e317071724bd79d87f29f860", "fusion_lon": 0.0, "bike_id": "0020a329e317071724bd79d87f29f860", "is_disabled": 0, "is_reserved": 0}, {"rental_uris": {"ios": "https://dc.lft.to/lastmile_qr_scan", "android": "https://dc.lft.to/lastmile_qr_scan"}, "lon": -77.056032, "type": "electric_scooter", "fusion_lat": 0.0, "lat": 38.9279075, "name": "727a8948b8f4f0fe34694759e08167b5", "fusion_lon": 0.0, "bike_id": "727a8948b8f4f0fe34694759e08167b5", "is_disabled": 0, "is_reserved": 0}, {"rental_uris": {"ios": "https://dc.lft.to/lastmile_qr_scan", "android": "https://dc.lft.to/lastmile_qr_scan"}, "lon": -77.027736, "type": "electric_scooter", "fusion_lat": 0.0, "lat": 38.929887666666666, "name": "7fd78de644f2c4449a6431aa5872cb6d", "fusion_lon": 0.0, "bike_id": "7fd78de644f2c4449a6431aa5872cb6d", "is_disabled": 0, "is_reserved": 0}, {"rental_uris": {"ios": "https://dc.lft.to/lastmile_qr_scan", "android": "https://dc.lft.to/lastmile_qr_scan"}, "lon": -77.03104333333333, "type": "electric_scooter", "fusion_lat": 0.0, "lat": 38.91808566666667, "name": "2f09db8ee1ee493c9a07643d714d9d03", "fusion_lon": 0.0, "bike_id": "2f09db8ee1ee493c9a07643d714d9d03", "is_disabled": 0, "is_reserved": 0}, {"rental_uris": {"ios": "https://dc.lft.to/lastmile_qr_scan", "android": "https://dc.lft.to/lastmile_qr_scan"}, "lon": -76.98628566666666, "type": "electric_scooter", "fusion_lat": 0.0, "lat": 38.86821316666666, "name": "fded006fb2f033b69776e3abb9f26c64", "fusion_lon": 0.0, "bike_id": "fded006fb2f033b69776e3abb9f26c64", "is_disabled": 0, "is_reserved": 0}, {"rental_uris": {"ios": "https://dc.lft.to/lastmile_qr_scan", "android": "https://dc.lft.to/lastmile_qr_scan"}, "lon": -77.03867283333334, "type": "electric_scooter", "fusion_lat": 0.0, "lat": 38.91704683333333, "name": "d927d62bef8426fae5c041401bc94a8a", "fusion_lon": 0.0, "bike_id": "d927d62bef8426fae5c041401bc94a8a", "is_disabled": 0, "is_reserved": 0}, {"rental_uris": {"ios": "https://dc.lft.to/lastmile_qr_scan", "android": "https://dc.lft.to/lastmile_qr_scan"}, "lon": -77.0269705, "type": "electric_scooter", "fusion_lat": 0.0, "lat": 38.908472, "name": "0a41ca9ec20bd565f3e474c9a4715c17", "fusion_lon": 0.0, "bike_id": "0a41ca9ec20bd565f3e474c9a4715c17", "is_disabled": 0, "is_reserved": 0}, {"rental_uris": {"ios": "https://dc.lft.to/lastmile_qr_scan", "android": "https://dc.lft.to/lastmile_qr_scan"}, "lon": -76.9678965, "type": "electric_scooter", "fusion_lat": 0.0, "lat": 38.8614145, "name": "f3dd7cfb614ec68d027af74799654d47", "fusion_lon": 0.0, "bike_id": "f3dd7cfb614ec68d027af74799654d47", "is_disabled": 0, "is_reserved": 0}, {"rental_uris": {"ios": "https://dc.lft.to/lastmile_qr_scan", "android": "https://dc.lft.to/lastmile_qr_scan"}, "lon": -77.02247916666667, "type": "electric_scooter", "fusion_lat": 0.0, "lat": 38.916722666666665, "name": "422fffc8a14ab2fa7fc25c03d6d823a2", "fusion_lon": 0.0, "bike_id": "422fffc8a14ab2fa7fc25c03d6d823a2", "is_disabled": 0, "is_reserved": 0}, {"rental_uris": {"ios": "https://dc.lft.to/lastmile_qr_scan", "android": "https://dc.lft.to/lastmile_qr_scan"}, "lon": -77.02817716666667, "type": "electric_scooter", "fusion_lat": 0.0, "lat": 38.881799, "name": "6760e4b13d4f714c0de0e5e0d78f60e0", "fusion_lon": 0.0, "bike_id": "6760e4b13d4f714c0de0e5e0d78f60e0", "is_disabled": 0, "is_reserved": 0}, {"rental_uris": {"ios": "https://dc.lft.to/lastmile_qr_scan", "android": "https://dc.lft.to/lastmile_qr_scan"}, "lon": -77.11432683333334, "type": "electric_bike", "fusion_lat": 0.0, "lat": 38.85245883333333, "name": "6251673491556fe5beecd9fdb89a7e17", "fusion_lon": 0.0, "bike_id": "6251673491556fe5beecd9fdb89a7e17", "is_disabled": 0, "is_reserved": 0}, {"rental_uris": {"ios": "https://dc.lft.to/lastmile_qr_scan", "android": "https://dc.lft.to/lastmile_qr_scan"}, "lon": -77.027959, "type": "electric_scooter", "fusion_lat": 0.0, "lat": 38.93085266666667, "name": "2d4a705e71bcad884514f5952cefaa8d", "fusion_lon": 0.0, "bike_id": "2d4a705e71bcad884514f5952cefaa8d", "is_disabled": 0, "is_reserved": 0}, {"rental_uris": {"ios": "https://dc.lft.to/lastmile_qr_scan", "android": "https://dc.lft.to/lastmile_qr_scan"}, "lon": -77.05025883333333, "type": "electric_scooter", "fusion_lat": 0.0, "lat": 38.8965415, "name": "5aa4f1a05a08ef3ffcd95921636d8f00", "fusion_lon": 0.0, "bike_id": "5aa4f1a05a08ef3ffcd95921636d8f00", "is_disabled": 0, "is_reserved": 0}, {"rental_uris": {"ios": "https://dc.lft.to/lastmile_qr_scan", "android": "https://dc.lft.to/lastmile_qr_scan"}, "lon": -77.027669, "type": "electric_scooter", "fusion_lat": 0.0, "lat": 38.881611, "name": "9eb87ce8170350db64fda6fb588187c3", "fusion_lon": 0.0, "bike_id": "9eb87ce8170350db64fda6fb588187c3", "is_disabled": 0, "is_reserved": 0}, {"rental_uris": {"ios": "https://dc.lft.to/lastmile_qr_scan", "android": "https://dc.lft.to/lastmile_qr_scan"}, "lon": -77.0422325, "type": "electric_scooter", "fusion_lat": 0.0, "lat": 38.921280833333334, "name": "3f294e4b061aaa98d6737a53e15e610e", "fusion_lon": 0.0, "bike_id": "3f294e4b061aaa98d6737a53e15e610e", "is_disabled": 0, "is_reserved": 0}, {"rental_uris": {"ios": "https://dc.lft.to/lastmile_qr_scan", "android": "https://dc.lft.to/lastmile_qr_scan"}, "lon": -76.9840805, "type": "electric_scooter", "fusion_lat": 0.0, "lat": 38.913889166666664, "name": "4eb19b8e0b00314c87b00e751aff90fd", "fusion_lon": 0.0, "bike_id": "4eb19b8e0b00314c87b00e751aff90fd", "is_disabled": 0, "is_reserved": 0}, {"rental_uris": {"ios": "https://dc.lft.to/lastmile_qr_scan", "android": "https://dc.lft.to/lastmile_qr_scan"}, "lon": -77.02147816666667, "type": "electric_scooter", "fusion_lat": 0.0, "lat": 38.877351, "name": "f53714eb53586b18accf394db0fe59b7", "fusion_lon": 0.0, "bike_id": "f53714eb53586b18accf394db0fe59b7", "is_disabled": 0, "is_reserved": 0}, {"rental_uris": {"ios": "https://dc.lft.to/lastmile_qr_scan", "android": "https://dc.lft.to/lastmile_qr_scan"}, "lon": -77.03381816666666, "type": "electric_scooter", "fusion_lat": 0.0, "lat": 38.9215265, "name": "4406280538d1f0bc03aeee90dc6e0321", "fusion_lon": 0.0, "bike_id": "4406280538d1f0bc03aeee90dc6e0321", "is_disabled": 0, "is_reserved": 0}, {"rental_uris": {"ios": "https://dc.lft.to/lastmile_qr_scan", "android": "https://dc.lft.to/lastmile_qr_scan"}, "lon": -77.031919, "type": "electric_scooter", "fusion_lat": 0.0, "lat": 38.899648666666664, "name": "8b06881fa8ff89d471d48f68eafdfeb0", "fusion_lon": 0.0, "bike_id": "8b06881fa8ff89d471d48f68eafdfeb0", "is_disabled": 0, "is_reserved": 0}, {"rental_uris": {"ios": "https://dc.lft.to/lastmile_qr_scan", "android": "https://dc.lft.to/lastmile_qr_scan"}, "lon": -76.94637516666667, "type": "electric_scooter", "fusion_lat": 0.0, "lat": 38.898327333333334, "name": "d309f43f2d97f2ae49da64ebf1b57f3a", "fusion_lon": 0.0, "bike_id": "d309f43f2d97f2ae49da64ebf1b57f3a", "is_disabled": 0, "is_reserved": 0}, {"rental_uris": {"ios": "https://dc.lft.to/lastmile_qr_scan", "android": "https://dc.lft.to/lastmile_qr_scan"}, "lon": -77.03189766666667, "type": "electric_scooter", "fusion_lat": 0.0, "lat": 38.913262, "name": "428dbe4f3cc77339a9dc62dd6dda301f", "fusion_lon": 0.0, "bike_id": "428dbe4f3cc77339a9dc62dd6dda301f", "is_disabled": 0, "is_reserved": 0}, {"rental_uris": {"ios": "https://dc.lft.to/lastmile_qr_scan", "android": "https://dc.lft.to/lastmile_qr_scan"}, "lon": -77.01222283333334, "type": "electric_scooter", "fusion_lat": 0.0, "lat": 38.91716133333333, "name": "c14035b57a77f7ec55c0c8faa20ce943", "fusion_lon": 0.0, "bike_id": "c14035b57a77f7ec55c0c8faa20ce943", "is_disabled": 0, "is_reserved": 0}, {"rental_uris": {"ios": "https://dc.lft.to/lastmile_qr_scan", "android": "https://dc.lft.to/lastmile_qr_scan"}, "lon": -76.97944933333333, "type": "electric_scooter", "fusion_lat": 0.0, "lat": 38.906778333333335, "name": "6e454b36e392a60711cd3e13f9cfe43e", "fusion_lon": 0.0, "bike_id": "6e454b36e392a60711cd3e13f9cfe43e", "is_disabled": 0, "is_reserved": 0}, {"rental_uris": {"ios": "https://dc.lft.to/lastmile_qr_scan", "android": "https://dc.lft.to/lastmile_qr_scan"}, "lon": -77.01380033333334, "type": "electric_scooter", "fusion_lat": 0.0, "lat": 38.89916933333333, "name": "c3d2a70a9131a257a3fd8f3a2d38c1af", "fusion_lon": 0.0, "bike_id": "c3d2a70a9131a257a3fd8f3a2d38c1af", "is_disabled": 0, "is_reserved": 0}, {"rental_uris": {"ios": "https://dc.lft.to/lastmile_qr_scan", "android": "https://dc.lft.to/lastmile_qr_scan"}, "lon": -77.02706133333334, "type": "electric_scooter", "fusion_lat": 0.0, "lat": 38.94998366666667, "name": "80531f9f7f971de11e5efa0aba498cd7", "fusion_lon": 0.0, "bike_id": "80531f9f7f971de11e5efa0aba498cd7", "is_disabled": 0, "is_reserved": 0}, {"rental_uris": {"ios": "https://dc.lft.to/lastmile_qr_scan", "android": "https://dc.lft.to/lastmile_qr_scan"}, "lon": -77.02207316666667, "type": "electric_scooter", "fusion_lat": 0.0, "lat": 38.91044816666667, "name": "c3274b4f389c7886c84277b6d332f919", "fusion_lon": 0.0, "bike_id": "c3274b4f389c7886c84277b6d332f919", "is_disabled": 0, "is_reserved": 0}, {"rental_uris": {"ios": "https://dc.lft.to/lastmile_qr_scan", "android": "https://dc.lft.to/lastmile_qr_scan"}, "lon": -77.10455166666667, "type": "electric_bike", "fusion_lat": 0.0, "lat": 38.896357333333334, "name": "e1d7fe490749b2b1e4cf8cdfc61151bd", "fusion_lon": 0.0, "bike_id": "e1d7fe490749b2b1e4cf8cdfc61151bd", "is_disabled": 0, "is_reserved": 0}, {"rental_uris": {"ios": "https://dc.lft.to/lastmile_qr_scan", "android": "https://dc.lft.to/lastmile_qr_scan"}, "lon": -77.04552066666666, "type": "electric_scooter", "fusion_lat": 0.0, "lat": 38.934147833333334, "name": "80688a6eccb71abac6f1bb7028a7f681", "fusion_lon": 0.0, "bike_id": "80688a6eccb71abac6f1bb7028a7f681", "is_disabled": 0, "is_reserved": 0}, {"rental_uris": {"ios": "https://dc.lft.to/lastmile_qr_scan", "android": "https://dc.lft.to/lastmile_qr_scan"}, "lon": -77.02584383333334, "type": "electric_scooter", "fusion_lat": 0.0, "lat": 38.9298685, "name": "de788d0c763539caed1e6a571c8905fb", "fusion_lon": 0.0, "bike_id": "de788d0c763539caed1e6a571c8905fb", "is_disabled": 0, "is_reserved": 0}, {"rental_uris": {"ios": "https://dc.lft.to/lastmile_qr_scan", "android": "https://dc.lft.to/lastmile_qr_scan"}, "lon": -76.98903766666666, "type": "electric_scooter", "fusion_lat": 0.0, "lat": 38.9001185, "name": "d2212628558c981b3e9d824e9b30b746", "fusion_lon": 0.0, "bike_id": "d2212628558c981b3e9d824e9b30b746", "is_disabled": 0, "is_reserved": 0}, {"rental_uris": {"ios": "https://dc.lft.to/lastmile_qr_scan", "android": "https://dc.lft.to/lastmile_qr_scan"}, "lon": -76.95417566666667, "type": "electric_scooter", "fusion_lat": 0.0, "lat": 38.890037166666666, "name": "7c08dffcab46d1acc83a570343e1bb0c", "fusion_lon": 0.0, "bike_id": "7c08dffcab46d1acc83a570343e1bb0c", "is_disabled": 0, "is_reserved": 0}, {"rental_uris": {"ios": "https://dc.lft.to/lastmile_qr_scan", "android": "https://dc.lft.to/lastmile_qr_scan"}, "lon": -77.04267266666666, "type": "electric_scooter", "fusion_lat": 0.0, "lat": 38.91425366666667, "name": "ce6fea4a12739d634028ab4bf2c962f3", "fusion_lon": 0.0, "bike_id": "ce6fea4a12739d634028ab4bf2c962f3", "is_disabled": 0, "is_reserved": 0}, {"rental_uris": {"ios": "https://dc.lft.to/lastmile_qr_scan", "android": "https://dc.lft.to/lastmile_qr_scan"}, "lon": -77.03144816666666, "type": "electric_scooter", "fusion_lat": 0.0, "lat": 38.9140825, "name": "862f87d367dae7e916229a7179abae19", "fusion_lon": 0.0, "bike_id": "862f87d367dae7e916229a7179abae19", "is_disabled": 0, "is_reserved": 0}, {"rental_uris": {"ios": "https://dc.lft.to/lastmile_qr_scan", "android": "https://dc.lft.to/lastmile_qr_scan"}, "lon": -77.0237085, "type": "electric_scooter", "fusion_lat": 0.0, "lat": 38.90597666666667, "name": "1295df367f1278d7ca0d59d1a219d9f3", "fusion_lon": 0.0, "bike_id": "1295df367f1278d7ca0d59d1a219d9f3", "is_disabled": 0, "is_reserved": 0}, {"rental_uris": {"ios": "https://dc.lft.to/lastmile_qr_scan", "android": "https://dc.lft.to/lastmile_qr_scan"}, "lon": -76.99733966666666, "type": "electric_scooter", "fusion_lat": 0.0, "lat": 38.90042483333333, "name": "6cbe8b8744186712152060d05610f314", "fusion_lon": 0.0, "bike_id": "6cbe8b8744186712152060d05610f314", "is_disabled": 0, "is_reserved": 0}, {"rental_uris": {"ios": "https://dc.lft.to/lastmile_qr_scan", "android": "https://dc.lft.to/lastmile_qr_scan"}, "lon": -77.06386883333333, "type": "electric_scooter", "fusion_lat": 0.0, "lat": 38.905288666666664, "name": "d4b19b5e0200402c137143fa3a9b6f5e", "fusion_lon": 0.0, "bike_id": "d4b19b5e0200402c137143fa3a9b6f5e", "is_disabled": 0, "is_reserved": 0}, {"rental_uris": {"ios": "https://dc.lft.to/lastmile_qr_scan", "android": "https://dc.lft.to/lastmile_qr_scan"}, "lon": -77.10722316666667, "type": "electric_bike", "fusion_lat": 0.0, "lat": 38.85571433333333, "name": "d3a8b85472744d6d6bc7bbe8885847db", "fusion_lon": 0.0, "bike_id": "d3a8b85472744d6d6bc7bbe8885847db", "is_disabled": 0, "is_reserved": 0}, {"rental_uris": {"ios": "https://dc.lft.to/lastmile_qr_scan", "android": "https://dc.lft.to/lastmile_qr_scan"}, "lon": -77.036396, "type": "electric_scooter", "fusion_lat": 0.0, "lat": 38.907962, "name": "d37c00735a4ea3c54036ecf113ff500f", "fusion_lon": 0.0, "bike_id": "d37c00735a4ea3c54036ecf113ff500f", "is_disabled": 0, "is_reserved": 0}, {"rental_uris": {"ios": "https://dc.lft.to/lastmile_qr_scan", "android": "https://dc.lft.to/lastmile_qr_scan"}, "lon": -77.06582133333333, "type": "electric_bike", "fusion_lat": 0.0, "lat": 38.911336, "name": "80dce706fefd5697a13fbba70bb3c432", "fusion_lon": 0.0, "bike_id": "80dce706fefd5697a13fbba70bb3c432", "is_disabled": 0, "is_reserved": 0}, {"rental_uris": {"ios": "https://dc.lft.to/lastmile_qr_scan", "android": "https://dc.lft.to/lastmile_qr_scan"}, "lon": -77.02373733333333, "type": "electric_scooter", "fusion_lat": 0.0, "lat": 38.93158, "name": "1e5b80acc2790c2bbe3fab2d2817e624", "fusion_lon": 0.0, "bike_id": "1e5b80acc2790c2bbe3fab2d2817e624", "is_disabled": 0, "is_reserved": 0}, {"rental_uris": {"ios": "https://dc.lft.to/lastmile_qr_scan", "android": "https://dc.lft.to/lastmile_qr_scan"}, "lon": -77.03233833333333, "type": "electric_scooter", "fusion_lat": 0.0, "lat": 38.916184, "name": "2accd87a49beb448bba79d5c07fe4009", "fusion_lon": 0.0, "bike_id": "2accd87a49beb448bba79d5c07fe4009", "is_disabled": 0, "is_reserved": 0}, {"rental_uris": {"ios": "https://dc.lft.to/lastmile_qr_scan", "android": "https://dc.lft.to/lastmile_qr_scan"}, "lon": -77.0347325, "type": "electric_scooter", "fusion_lat": 0.0, "lat": 38.90278, "name": "5ba84e6ea1ae75b6d16c4df031a14f06", "fusion_lon": 0.0, "bike_id": "5ba84e6ea1ae75b6d16c4df031a14f06", "is_disabled": 0, "is_reserved": 0}, {"rental_uris": {"ios": "https://dc.lft.to/lastmile_qr_scan", "android": "https://dc.lft.to/lastmile_qr_scan"}, "lon": -76.97613433333333, "type": "electric_scooter", "fusion_lat": 0.0, "lat": 38.903859, "name": "ff9a36e3ab404b0aad5a92fe0f19396a", "fusion_lon": 0.0, "bike_id": "ff9a36e3ab404b0aad5a92fe0f19396a", "is_disabled": 0, "is_reserved": 0}, {"rental_uris": {"ios": "https://dc.lft.to/lastmile_qr_scan", "android": "https://dc.lft.to/lastmile_qr_scan"}, "lon": -76.97745033333334, "type": "electric_scooter", "fusion_lat": 0.0, "lat": 38.9001015, "name": "c5483b7be004b54a06bd04223d24d882", "fusion_lon": 0.0, "bike_id": "c5483b7be004b54a06bd04223d24d882", "is_disabled": 0, "is_reserved": 0}, {"rental_uris": {"ios": "https://dc.lft.to/lastmile_qr_scan", "android": "https://dc.lft.to/lastmile_qr_scan"}, "lon": -76.94636333333334, "type": "electric_scooter", "fusion_lat": 0.0, "lat": 38.898338333333335, "name": "ba59960a7e327ecf24bdbda2f462573c", "fusion_lon": 0.0, "bike_id": "ba59960a7e327ecf24bdbda2f462573c", "is_disabled": 0, "is_reserved": 0}, {"rental_uris": {"ios": "https://dc.lft.to/lastmile_qr_scan", "android": "https://dc.lft.to/lastmile_qr_scan"}, "lon": -77.03786166666667, "type": "electric_scooter", "fusion_lat": 0.0, "lat": 38.926291, "name": "05d22ee22b60ea66450bd8f63dc6ee4d", "fusion_lon": 0.0, "bike_id": "05d22ee22b60ea66450bd8f63dc6ee4d", "is_disabled": 0, "is_reserved": 0}, {"rental_uris": {"ios": "https://dc.lft.to/lastmile_qr_scan", "android": "https://dc.lft.to/lastmile_qr_scan"}, "lon": -77.03124883333334, "type": "electric_bike", "fusion_lat": 0.0, "lat": 38.95924266666667, "name": "b58283419d08be4ea3a132da0c0c5aae", "fusion_lon": 0.0, "bike_id": "b58283419d08be4ea3a132da0c0c5aae", "is_disabled": 0, "is_reserved": 0}, {"rental_uris": {"ios": "https://dc.lft.to/lastmile_qr_scan", "android": "https://dc.lft.to/lastmile_qr_scan"}, "lon": -77.02372383333334, "type": "electric_scooter", "fusion_lat": 0.0, "lat": 38.903067666666665, "name": "e61a22ec59d8f8f296b5d5f275f5ae59", "fusion_lon": 0.0, "bike_id": "e61a22ec59d8f8f296b5d5f275f5ae59", "is_disabled": 0, "is_reserved": 0}, {"rental_uris": {"ios": "https://dc.lft.to/lastmile_qr_scan", "android": "https://dc.lft.to/lastmile_qr_scan"}, "lon": -76.87818266666666, "type": "electric_bike", "fusion_lat": 0.0, "lat": 38.9923245, "name": "fcb7067536cebd2058dea74c0914674d", "fusion_lon": 0.0, "bike_id": "fcb7067536cebd2058dea74c0914674d", "is_disabled": 0, "is_reserved": 0}, {"rental_uris": {"ios": "https://dc.lft.to/lastmile_qr_scan", "android": "https://dc.lft.to/lastmile_qr_scan"}, "lon": -76.9835175, "type": "electric_scooter", "fusion_lat": 0.0, "lat": 38.9149355, "name": "d25d84429f03f14f2d4fc03ce1d98e53", "fusion_lon": 0.0, "bike_id": "d25d84429f03f14f2d4fc03ce1d98e53", "is_disabled": 0, "is_reserved": 0}, {"rental_uris": {"ios": "https://dc.lft.to/lastmile_qr_scan", "android": "https://dc.lft.to/lastmile_qr_scan"}, "lon": -77.03879883333333, "type": "electric_scooter", "fusion_lat": 0.0, "lat": 38.931881, "name": "f1fda4cf8dc0cd832d946212008388d7", "fusion_lon": 0.0, "bike_id": "f1fda4cf8dc0cd832d946212008388d7", "is_disabled": 0, "is_reserved": 0}, {"rental_uris": {"ios": "https://dc.lft.to/lastmile_qr_scan", "android": "https://dc.lft.to/lastmile_qr_scan"}, "lon": -76.988844, "type": "electric_scooter", "fusion_lat": 0.0, "lat": 38.86660583333333, "name": "b4000e2b0781196b6fbeae20dc0dfdb4", "fusion_lon": 0.0, "bike_id": "b4000e2b0781196b6fbeae20dc0dfdb4", "is_disabled": 0, "is_reserved": 0}, {"rental_uris": {"ios": "https://dc.lft.to/lastmile_qr_scan", "android": "https://dc.lft.to/lastmile_qr_scan"}, "lon": -77.02279083333333, "type": "electric_scooter", "fusion_lat": 0.0, "lat": 38.87841933333333, "name": "a4a26053ae9ba155648796dbc6693f76", "fusion_lon": 0.0, "bike_id": "a4a26053ae9ba155648796dbc6693f76", "is_disabled": 0, "is_reserved": 0}, {"rental_uris": {"ios": "https://dc.lft.to/lastmile_qr_scan", "android": "https://dc.lft.to/lastmile_qr_scan"}, "lon": -76.98576066666666, "type": "electric_scooter", "fusion_lat": 0.0, "lat": 38.861515833333335, "name": "a66ac7a9f9142b8b817d5f6b2acd8e5f", "fusion_lon": 0.0, "bike_id": "a66ac7a9f9142b8b817d5f6b2acd8e5f", "is_disabled": 0, "is_reserved": 0}, {"rental_uris": {"ios": "https://dc.lft.to/lastmile_qr_scan", "android": "https://dc.lft.to/lastmile_qr_scan"}, "lon": -76.97553316666666, "type": "electric_scooter", "fusion_lat": 0.0, "lat": 38.90443633333334, "name": "af34ccdf7be4d840d8a070f136552854", "fusion_lon": 0.0, "bike_id": "af34ccdf7be4d840d8a070f136552854", "is_disabled": 0, "is_reserved": 0}, {"rental_uris": {"ios": "https://dc.lft.to/lastmile_qr_scan", "android": "https://dc.lft.to/lastmile_qr_scan"}, "lon": -77.033456, "type": "electric_scooter", "fusion_lat": 0.0, "lat": 38.903692, "name": "78720af7219446ca1d07da2385bb891a", "fusion_lon": 0.0, "bike_id": "78720af7219446ca1d07da2385bb891a", "is_disabled": 0, "is_reserved": 0}, {"rental_uris": {"ios": "https://dc.lft.to/lastmile_qr_scan", "android": "https://dc.lft.to/lastmile_qr_scan"}, "lon": -76.9750455, "type": "electric_bike", "fusion_lat": 0.0, "lat": 38.91933366666667, "name": "aab5ea78d81d2e6311b90426e2fa4255", "fusion_lon": 0.0, "bike_id": "aab5ea78d81d2e6311b90426e2fa4255", "is_disabled": 0, "is_reserved": 0}, {"rental_uris": {"ios": "https://dc.lft.to/lastmile_qr_scan", "android": "https://dc.lft.to/lastmile_qr_scan"}, "lon": -76.99610466666667, "type": "electric_scooter", "fusion_lat": 0.0, "lat": 38.886257666666666, "name": "d18db1c9f77e872068ed3cfa935ad043", "fusion_lon": 0.0, "bike_id": "d18db1c9f77e872068ed3cfa935ad043", "is_disabled": 0, "is_reserved": 0}, {"rental_uris": {"ios": "https://dc.lft.to/lastmile_qr_scan", "android": "https://dc.lft.to/lastmile_qr_scan"}, "lon": -77.01117133333334, "type": "electric_scooter", "fusion_lat": 0.0, "lat": 38.8951245, "name": "30256ed807a4ec350deef4e5f358c4dd", "fusion_lon": 0.0, "bike_id": "30256ed807a4ec350deef4e5f358c4dd", "is_disabled": 0, "is_reserved": 0}, {"rental_uris": {"ios": "https://dc.lft.to/lastmile_qr_scan", "android": "https://dc.lft.to/lastmile_qr_scan"}, "lon": -76.973335, "type": "electric_scooter", "fusion_lat": 0.0, "lat": 38.93029, "name": "f1445f6fe481df31ffccf45e8690a350", "fusion_lon": 0.0, "bike_id": "f1445f6fe481df31ffccf45e8690a350", "is_disabled": 0, "is_reserved": 0}, {"rental_uris": {"ios": "https://dc.lft.to/lastmile_qr_scan", "android": "https://dc.lft.to/lastmile_qr_scan"}, "lon": -77.05679066666667, "type": "electric_scooter", "fusion_lat": 0.0, "lat": 38.905213333333336, "name": "80d39b39a3560a715e208e734a246cb9", "fusion_lon": 0.0, "bike_id": "80d39b39a3560a715e208e734a246cb9", "is_disabled": 0, "is_reserved": 0}, {"rental_uris": {"ios": "https://dc.lft.to/lastmile_qr_scan", "android": "https://dc.lft.to/lastmile_qr_scan"}, "lon": -77.0503455, "type": "electric_scooter", "fusion_lat": 0.0, "lat": 38.900340666666665, "name": "c6384c64c2f6c4656acf82dd88751316", "fusion_lon": 0.0, "bike_id": "c6384c64c2f6c4656acf82dd88751316", "is_disabled": 0, "is_reserved": 0}, {"rental_uris": {"ios": "https://dc.lft.to/lastmile_qr_scan", "android": "https://dc.lft.to/lastmile_qr_scan"}, "lon": -77.04226383333334, "type": "electric_scooter", "fusion_lat": 0.0, "lat": 38.9213255, "name": "eaf19b3284ce62f6e8fe095a3aa22992", "fusion_lon": 0.0, "bike_id": "eaf19b3284ce62f6e8fe095a3aa22992", "is_disabled": 0, "is_reserved": 0}, {"rental_uris": {"ios": "https://dc.lft.to/lastmile_qr_scan", "android": "https://dc.lft.to/lastmile_qr_scan"}, "lon": -77.05512366666666, "type": "electric_scooter", "fusion_lat": 0.0, "lat": 38.899144, "name": "c2d6a1ae57e9fb8c434073ebc2d55678", "fusion_lon": 0.0, "bike_id": "c2d6a1ae57e9fb8c434073ebc2d55678", "is_disabled": 0, "is_reserved": 0}, {"rental_uris": {"ios": "https://dc.lft.to/lastmile_qr_scan", "android": "https://dc.lft.to/lastmile_qr_scan"}, "lon": -77.02461633333333, "type": "electric_scooter", "fusion_lat": 0.0, "lat": 38.908561166666665, "name": "8b0e93a55b70d36083ef898992b6bfd6", "fusion_lon": 0.0, "bike_id": "8b0e93a55b70d36083ef898992b6bfd6", "is_disabled": 0, "is_reserved": 0}, {"rental_uris": {"ios": "https://dc.lft.to/lastmile_qr_scan", "android": "https://dc.lft.to/lastmile_qr_scan"}, "lon": -77.03309466666667, "type": "electric_scooter", "fusion_lat": 0.0, "lat": 38.91260466666667, "name": "bcf2e53bf4d2b7198c494214242ef929", "fusion_lon": 0.0, "bike_id": "bcf2e53bf4d2b7198c494214242ef929", "is_disabled": 0, "is_reserved": 0}, {"rental_uris": {"ios": "https://dc.lft.to/lastmile_qr_scan", "android": "https://dc.lft.to/lastmile_qr_scan"}, "lon": -77.02225683333333, "type": "electric_scooter", "fusion_lat": 0.0, "lat": 38.912738, "name": "116c811c22b688c77b2cfa4612c7bd71", "fusion_lon": 0.0, "bike_id": "116c811c22b688c77b2cfa4612c7bd71", "is_disabled": 0, "is_reserved": 0}, {"rental_uris": {"ios": "https://dc.lft.to/lastmile_qr_scan", "android": "https://dc.lft.to/lastmile_qr_scan"}, "lon": -77.07723033333333, "type": "electric_scooter", "fusion_lat": 0.0, "lat": 38.947087333333336, "name": "4f1a026bb39161c793721df279cf5f5d", "fusion_lon": 0.0, "bike_id": "4f1a026bb39161c793721df279cf5f5d", "is_disabled": 0, "is_reserved": 0}, {"rental_uris": {"ios": "https://dc.lft.to/lastmile_qr_scan", "android": "https://dc.lft.to/lastmile_qr_scan"}, "lon": -77.02734816666667, "type": "electric_scooter", "fusion_lat": 0.0, "lat": 38.93211, "name": "7c390c000ffe046458cd55cbaa63be6b", "fusion_lon": 0.0, "bike_id": "7c390c000ffe046458cd55cbaa63be6b", "is_disabled": 0, "is_reserved": 0}, {"rental_uris": {"ios": "https://dc.lft.to/lastmile_qr_scan", "android": "https://dc.lft.to/lastmile_qr_scan"}, "lon": -76.98095916666666, "type": "electric_bike", "fusion_lat": 0.0, "lat": 38.881372166666665, "name": "5d2e49bdc6714050a994c85de5338cc4", "fusion_lon": 0.0, "bike_id": "5d2e49bdc6714050a994c85de5338cc4", "is_disabled": 0, "is_reserved": 0}, {"rental_uris": {"ios": "https://dc.lft.to/lastmile_qr_scan", "android": "https://dc.lft.to/lastmile_qr_scan"}, "lon": -76.98391116666667, "type": "electric_scooter", "fusion_lat": 0.0, "lat": 38.878376833333334, "name": "e33c5f47b0e950cdc5b77786d9d8345e", "fusion_lon": 0.0, "bike_id": "e33c5f47b0e950cdc5b77786d9d8345e", "is_disabled": 0, "is_reserved": 0}, {"rental_uris": {"ios": "https://dc.lft.to/lastmile_qr_scan", "android": "https://dc.lft.to/lastmile_qr_scan"}, "lon": -77.0314755, "type": "electric_scooter", "fusion_lat": 0.0, "lat": 38.93768516666667, "name": "ff201661c81a02d2dc87f337dd13577d", "fusion_lon": 0.0, "bike_id": "ff201661c81a02d2dc87f337dd13577d", "is_disabled": 0, "is_reserved": 0}, {"rental_uris": {"ios": "https://dc.lft.to/lastmile_qr_scan", "android": "https://dc.lft.to/lastmile_qr_scan"}, "lon": -77.05134383333333, "type": "electric_scooter", "fusion_lat": 0.0, "lat": 38.899681666666666, "name": "de079e93391db4a9e22a39e260522fdb", "fusion_lon": 0.0, "bike_id": "de079e93391db4a9e22a39e260522fdb", "is_disabled": 0, "is_reserved": 0}, {"rental_uris": {"ios": "https://dc.lft.to/lastmile_qr_scan", "android": "https://dc.lft.to/lastmile_qr_scan"}, "lon": -77.01626733333333, "type": "electric_scooter", "fusion_lat": 0.0, "lat": 38.906132, "name": "cecef25b41655b5b6dfde6ce1af2ff1d", "fusion_lon": 0.0, "bike_id": "cecef25b41655b5b6dfde6ce1af2ff1d", "is_disabled": 0, "is_reserved": 0}, {"rental_uris": {"ios": "https://dc.lft.to/lastmile_qr_scan", "android": "https://dc.lft.to/lastmile_qr_scan"}, "lon": -77.0231825, "type": "electric_scooter", "fusion_lat": 0.0, "lat": 38.88193616666667, "name": "4675d2b16d99927498b3b3b0611154fd", "fusion_lon": 0.0, "bike_id": "4675d2b16d99927498b3b3b0611154fd", "is_disabled": 0, "is_reserved": 0}, {"rental_uris": {"ios": "https://dc.lft.to/lastmile_qr_scan", "android": "https://dc.lft.to/lastmile_qr_scan"}, "lon": -77.04220183333334, "type": "electric_scooter", "fusion_lat": 0.0, "lat": 38.899235166666664, "name": "9aef95ab94ff3f5701b982b93f4f88a9", "fusion_lon": 0.0, "bike_id": "9aef95ab94ff3f5701b982b93f4f88a9", "is_disabled": 0, "is_reserved": 0}, {"rental_uris": {"ios": "https://dc.lft.to/lastmile_qr_scan", "android": "https://dc.lft.to/lastmile_qr_scan"}, "lon": -77.069479, "type": "electric_scooter", "fusion_lat": 0.0, "lat": 38.9051875, "name": "0d168c7d1e026307fe2e2df0fb716a36", "fusion_lon": 0.0, "bike_id": "0d168c7d1e026307fe2e2df0fb716a36", "is_disabled": 0, "is_reserved": 0}, {"rental_uris": {"ios": "https://dc.lft.to/lastmile_qr_scan", "android": "https://dc.lft.to/lastmile_qr_scan"}, "lon": -77.03077233333333, "type": "electric_scooter", "fusion_lat": 0.0, "lat": 38.899768, "name": "79ff0cd0467ccf4aa04f444ba2b8e644", "fusion_lon": 0.0, "bike_id": "79ff0cd0467ccf4aa04f444ba2b8e644", "is_disabled": 0, "is_reserved": 0}, {"rental_uris": {"ios": "https://dc.lft.to/lastmile_qr_scan", "android": "https://dc.lft.to/lastmile_qr_scan"}, "lon": -77.03742966666667, "type": "electric_scooter", "fusion_lat": 0.0, "lat": 38.951575, "name": "b9ec237a48b1e5270e4c79366a6b75df", "fusion_lon": 0.0, "bike_id": "b9ec237a48b1e5270e4c79366a6b75df", "is_disabled": 0, "is_reserved": 0}, {"rental_uris": {"ios": "https://dc.lft.to/lastmile_qr_scan", "android": "https://dc.lft.to/lastmile_qr_scan"}, "lon": -77.0255525, "type": "electric_scooter", "fusion_lat": 0.0, "lat": 38.918186666666664, "name": "4f6000d33b156f6ae40ec43d5f3cfcf2", "fusion_lon": 0.0, "bike_id": "4f6000d33b156f6ae40ec43d5f3cfcf2", "is_disabled": 0, "is_reserved": 0}, {"rental_uris": {"ios": "https://dc.lft.to/lastmile_qr_scan", "android": "https://dc.lft.to/lastmile_qr_scan"}, "lon": -77.02692516666667, "type": "electric_bike", "fusion_lat": 0.0, "lat": 38.9114005, "name": "234cd56a125fcde04a130d262d9b4f9a", "fusion_lon": 0.0, "bike_id": "234cd56a125fcde04a130d262d9b4f9a", "is_disabled": 0, "is_reserved": 0}, {"rental_uris": {"ios": "https://dc.lft.to/lastmile_qr_scan", "android": "https://dc.lft.to/lastmile_qr_scan"}, "lon": -77.059034, "type": "electric_scooter", "fusion_lat": 0.0, "lat": 38.90081983333334, "name": "0fd99a69f16882fff3570408aa0e0ce3", "fusion_lon": 0.0, "bike_id": "0fd99a69f16882fff3570408aa0e0ce3", "is_disabled": 0, "is_reserved": 0}, {"rental_uris": {"ios": "https://dc.lft.to/lastmile_qr_scan", "android": "https://dc.lft.to/lastmile_qr_scan"}, "lon": -77.0093515, "type": "electric_scooter", "fusion_lat": 0.0, "lat": 38.8745815, "name": "12ae846081c6583c9ac7f3458b580088", "fusion_lon": 0.0, "bike_id": "12ae846081c6583c9ac7f3458b580088", "is_disabled": 0, "is_reserved": 0}, {"rental_uris": {"ios": "https://dc.lft.to/lastmile_qr_scan", "android": "https://dc.lft.to/lastmile_qr_scan"}, "lon": -77.00027533333333, "type": "electric_scooter", "fusion_lat": 0.0, "lat": 38.9079065, "name": "7e6dc07912e5647953619b6b398bfba3", "fusion_lon": 0.0, "bike_id": "7e6dc07912e5647953619b6b398bfba3", "is_disabled": 0, "is_reserved": 0}, {"rental_uris": {"ios": "https://dc.lft.to/lastmile_qr_scan", "android": "https://dc.lft.to/lastmile_qr_scan"}, "lon": -77.0316695, "type": "electric_scooter", "fusion_lat": 0.0, "lat": 38.915594, "name": "873ca2bf864b43ef22b6f876fd204dd0", "fusion_lon": 0.0, "bike_id": "873ca2bf864b43ef22b6f876fd204dd0", "is_disabled": 0, "is_reserved": 0}, {"rental_uris": {"ios": "https://dc.lft.to/lastmile_qr_scan", "android": "https://dc.lft.to/lastmile_qr_scan"}, "lon": -77.04012216666666, "type": "electric_scooter", "fusion_lat": 0.0, "lat": 38.90377466666666, "name": "a08f7e24589d90b831a3e3cd4ff12225", "fusion_lon": 0.0, "bike_id": "a08f7e24589d90b831a3e3cd4ff12225", "is_disabled": 0, "is_reserved": 0}, {"rental_uris": {"ios": "https://dc.lft.to/lastmile_qr_scan", "android": "https://dc.lft.to/lastmile_qr_scan"}, "lon": -77.02895116666667, "type": "electric_scooter", "fusion_lat": 0.0, "lat": 38.88579566666667, "name": "2baf9697a59f06d55ec03b6597b789ea", "fusion_lon": 0.0, "bike_id": "2baf9697a59f06d55ec03b6597b789ea", "is_disabled": 0, "is_reserved": 0}, {"rental_uris": {"ios": "https://dc.lft.to/lastmile_qr_scan", "android": "https://dc.lft.to/lastmile_qr_scan"}, "lon": -77.0261195, "type": "electric_scooter", "fusion_lat": 0.0, "lat": 38.91704, "name": "b407c9a4537480dac732b7b320d2db24", "fusion_lon": 0.0, "bike_id": "b407c9a4537480dac732b7b320d2db24", "is_disabled": 0, "is_reserved": 0}, {"rental_uris": {"ios": "https://dc.lft.to/lastmile_qr_scan", "android": "https://dc.lft.to/lastmile_qr_scan"}, "lon": -77.01429433333334, "type": "electric_scooter", "fusion_lat": 0.0, "lat": 38.92990783333333, "name": "bf989d87e3e147c9e83da606575db232", "fusion_lon": 0.0, "bike_id": "bf989d87e3e147c9e83da606575db232", "is_disabled": 0, "is_reserved": 0}, {"rental_uris": {"ios": "https://dc.lft.to/lastmile_qr_scan", "android": "https://dc.lft.to/lastmile_qr_scan"}, "lon": -77.05524816666667, "type": "electric_scooter", "fusion_lat": 0.0, "lat": 38.8989805, "name": "d8368b6e0f3b5413efd8afc13d3ed59d", "fusion_lon": 0.0, "bike_id": "d8368b6e0f3b5413efd8afc13d3ed59d", "is_disabled": 0, "is_reserved": 0}, {"rental_uris": {"ios": "https://dc.lft.to/lastmile_qr_scan", "android": "https://dc.lft.to/lastmile_qr_scan"}, "lon": -77.00196833333334, "type": "electric_scooter", "fusion_lat": 0.0, "lat": 38.89994266666667, "name": "9c1bb45ad985c38a94db71f856c4316e", "fusion_lon": 0.0, "bike_id": "9c1bb45ad985c38a94db71f856c4316e", "is_disabled": 0, "is_reserved": 0}, {"rental_uris": {"ios": "https://dc.lft.to/lastmile_qr_scan", "android": "https://dc.lft.to/lastmile_qr_scan"}, "lon": -77.05690883333334, "type": "electric_scooter", "fusion_lat": 0.0, "lat": 38.90552566666667, "name": "df565348161bb14d17636b2930cef558", "fusion_lon": 0.0, "bike_id": "df565348161bb14d17636b2930cef558", "is_disabled": 0, "is_reserved": 0}, {"rental_uris": {"ios": "https://dc.lft.to/lastmile_qr_scan", "android": "https://dc.lft.to/lastmile_qr_scan"}, "lon": -77.01998083333334, "type": "electric_scooter", "fusion_lat": 0.0, "lat": 38.8775815, "name": "b6c513fc5fd05c1c85da5dc82c38e704", "fusion_lon": 0.0, "bike_id": "b6c513fc5fd05c1c85da5dc82c38e704", "is_disabled": 0, "is_reserved": 0}, {"rental_uris": {"ios": "https://dc.lft.to/lastmile_qr_scan", "android": "https://dc.lft.to/lastmile_qr_scan"}, "lon": -76.95364283333333, "type": "electric_bike", "fusion_lat": 0.0, "lat": 38.93954083333333, "name": "b1ee0e5faf8f8d611c3707034f7d51f2", "fusion_lon": 0.0, "bike_id": "b1ee0e5faf8f8d611c3707034f7d51f2", "is_disabled": 0, "is_reserved": 0}, {"rental_uris": {"ios": "https://dc.lft.to/lastmile_qr_scan", "android": "https://dc.lft.to/lastmile_qr_scan"}, "lon": -77.17846483333334, "type": "electric_bike", "fusion_lat": 0.0, "lat": 39.08859533333333, "name": "c5119ba5cd4e39687534507b21d1e174", "fusion_lon": 0.0, "bike_id": "c5119ba5cd4e39687534507b21d1e174", "is_disabled": 0, "is_reserved": 0}, {"rental_uris": {"ios": "https://dc.lft.to/lastmile_qr_scan", "android": "https://dc.lft.to/lastmile_qr_scan"}, "lon": -76.98907483333333, "type": "electric_scooter", "fusion_lat": 0.0, "lat": 38.8669615, "name": "54fd7c5382e970954009d12f7217eabf", "fusion_lon": 0.0, "bike_id": "54fd7c5382e970954009d12f7217eabf", "is_disabled": 0, "is_reserved": 0}, {"rental_uris": {"ios": "https://dc.lft.to/lastmile_qr_scan", "android": "https://dc.lft.to/lastmile_qr_scan"}, "lon": -77.04134783333333, "type": "electric_scooter", "fusion_lat": 0.0, "lat": 38.92351166666667, "name": "1293c02243d42700fc9f74b26a5c7658", "fusion_lon": 0.0, "bike_id": "1293c02243d42700fc9f74b26a5c7658", "is_disabled": 0, "is_reserved": 0}, {"rental_uris": {"ios": "https://dc.lft.to/lastmile_qr_scan", "android": "https://dc.lft.to/lastmile_qr_scan"}, "lon": -77.03193166666667, "type": "electric_scooter", "fusion_lat": 0.0, "lat": 38.912728333333334, "name": "86df1a30d37356f639d469bd47a8e990", "fusion_lon": 0.0, "bike_id": "86df1a30d37356f639d469bd47a8e990", "is_disabled": 0, "is_reserved": 0}, {"rental_uris": {"ios": "https://dc.lft.to/lastmile_qr_scan", "android": "https://dc.lft.to/lastmile_qr_scan"}, "lon": -77.0230945, "type": "electric_bike", "fusion_lat": 0.0, "lat": 38.87875066666667, "name": "3ee453cc9b4efff6dfe6d198295765f2", "fusion_lon": 0.0, "bike_id": "3ee453cc9b4efff6dfe6d198295765f2", "is_disabled": 0, "is_reserved": 0}, {"rental_uris": {"ios": "https://dc.lft.to/lastmile_qr_scan", "android": "https://dc.lft.to/lastmile_qr_scan"}, "lon": -76.98710333333334, "type": "electric_scooter", "fusion_lat": 0.0, "lat": 38.86700066666667, "name": "b688e65f7a67509942c779d26b22a229", "fusion_lon": 0.0, "bike_id": "b688e65f7a67509942c779d26b22a229", "is_disabled": 0, "is_reserved": 0}, {"rental_uris": {"ios": "https://dc.lft.to/lastmile_qr_scan", "android": "https://dc.lft.to/lastmile_qr_scan"}, "lon": -77.04304233333333, "type": "electric_bike", "fusion_lat": 0.0, "lat": 39.054483, "name": "2aa4da953aaf3a84abde68870d8838e6", "fusion_lon": 0.0, "bike_id": "2aa4da953aaf3a84abde68870d8838e6", "is_disabled": 0, "is_reserved": 0}, {"rental_uris": {"ios": "https://dc.lft.to/lastmile_qr_scan", "android": "https://dc.lft.to/lastmile_qr_scan"}, "lon": -77.01103333333333, "type": "electric_scooter", "fusion_lat": 0.0, "lat": 38.894827666666664, "name": "980b988dc08a9207eacbefe4e548f812", "fusion_lon": 0.0, "bike_id": "980b988dc08a9207eacbefe4e548f812", "is_disabled": 0, "is_reserved": 0}, {"rental_uris": {"ios": "https://dc.lft.to/lastmile_qr_scan", "android": "https://dc.lft.to/lastmile_qr_scan"}, "lon": -77.03518833333334, "type": "electric_bike", "fusion_lat": 0.0, "lat": 38.965269666666664, "name": "eae3aef7e6c46364947a47679c8b5e93", "fusion_lon": 0.0, "bike_id": "eae3aef7e6c46364947a47679c8b5e93", "is_disabled": 0, "is_reserved": 0}, {"rental_uris": {"ios": "https://dc.lft.to/lastmile_qr_scan", "android": "https://dc.lft.to/lastmile_qr_scan"}, "lon": -77.01486616666666, "type": "electric_scooter", "fusion_lat": 0.0, "lat": 38.881235, "name": "9aca708fc9be96560a1004968a97311b", "fusion_lon": 0.0, "bike_id": "9aca708fc9be96560a1004968a97311b", "is_disabled": 0, "is_reserved": 0}, {"rental_uris": {"ios": "https://dc.lft.to/lastmile_qr_scan", "android": "https://dc.lft.to/lastmile_qr_scan"}, "lon": -77.02258666666667, "type": "electric_scooter", "fusion_lat": 0.0, "lat": 38.928286, "name": "47c085da3763f8307f491e088a706534", "fusion_lon": 0.0, "bike_id": "47c085da3763f8307f491e088a706534", "is_disabled": 0, "is_reserved": 0}, {"rental_uris": {"ios": "https://dc.lft.to/lastmile_qr_scan", "android": "https://dc.lft.to/lastmile_qr_scan"}, "lon": -77.04059316666667, "type": "electric_scooter", "fusion_lat": 0.0, "lat": 38.90270866666667, "name": "32c81767214e36fe0186df39cecd6de1", "fusion_lon": 0.0, "bike_id": "32c81767214e36fe0186df39cecd6de1", "is_disabled": 0, "is_reserved": 0}, {"rental_uris": {"ios": "https://dc.lft.to/lastmile_qr_scan", "android": "https://dc.lft.to/lastmile_qr_scan"}, "lon": -76.99967716666667, "type": "electric_scooter", "fusion_lat": 0.0, "lat": 38.909066, "name": "292af4dcef25fcf368b1ed64187efda6", "fusion_lon": 0.0, "bike_id": "292af4dcef25fcf368b1ed64187efda6", "is_disabled": 0, "is_reserved": 0}, {"rental_uris": {"ios": "https://dc.lft.to/lastmile_qr_scan", "android": "https://dc.lft.to/lastmile_qr_scan"}, "lon": -76.978818, "type": "electric_scooter", "fusion_lat": 0.0, "lat": 38.88509233333333, "name": "767bd7e1934a3df179e057cd659c7bfb", "fusion_lon": 0.0, "bike_id": "767bd7e1934a3df179e057cd659c7bfb", "is_disabled": 0, "is_reserved": 0}, {"rental_uris": {"ios": "https://dc.lft.to/lastmile_qr_scan", "android": "https://dc.lft.to/lastmile_qr_scan"}, "lon": -77.02096566666667, "type": "electric_scooter", "fusion_lat": 0.0, "lat": 38.89417566666667, "name": "82a28cb651f94591b9b0624bc37bdeda", "fusion_lon": 0.0, "bike_id": "82a28cb651f94591b9b0624bc37bdeda", "is_disabled": 0, "is_reserved": 0}, {"rental_uris": {"ios": "https://dc.lft.to/lastmile_qr_scan", "android": "https://dc.lft.to/lastmile_qr_scan"}, "lon": -76.986976, "type": "electric_scooter", "fusion_lat": 0.0, "lat": 38.907096333333335, "name": "ac67a140d91a1eed73ac112f28c4be40", "fusion_lon": 0.0, "bike_id": "ac67a140d91a1eed73ac112f28c4be40", "is_disabled": 0, "is_reserved": 0}, {"rental_uris": {"ios": "https://dc.lft.to/lastmile_qr_scan", "android": "https://dc.lft.to/lastmile_qr_scan"}, "lon": -77.04176183333334, "type": "electric_scooter", "fusion_lat": 0.0, "lat": 38.91937266666667, "name": "cf14349760dee2ba88917cbc3a2f9c96", "fusion_lon": 0.0, "bike_id": "cf14349760dee2ba88917cbc3a2f9c96", "is_disabled": 0, "is_reserved": 0}, {"rental_uris": {"ios": "https://dc.lft.to/lastmile_qr_scan", "android": "https://dc.lft.to/lastmile_qr_scan"}, "lon": -77.06277316666667, "type": "electric_scooter", "fusion_lat": 0.0, "lat": 38.903615333333335, "name": "3b21818771dcdd8523d79ba1d8c8b93a", "fusion_lon": 0.0, "bike_id": "3b21818771dcdd8523d79ba1d8c8b93a", "is_disabled": 0, "is_reserved": 0}, {"rental_uris": {"ios": "https://dc.lft.to/lastmile_qr_scan", "android": "https://dc.lft.to/lastmile_qr_scan"}, "lon": -77.04335683333333, "type": "electric_scooter", "fusion_lat": 0.0, "lat": 38.89587483333333, "name": "2d8576a7907d03a2eecd503623410b80", "fusion_lon": 0.0, "bike_id": "2d8576a7907d03a2eecd503623410b80", "is_disabled": 0, "is_reserved": 0}, {"rental_uris": {"ios": "https://dc.lft.to/lastmile_qr_scan", "android": "https://dc.lft.to/lastmile_qr_scan"}, "lon": -77.0065935, "type": "electric_scooter", "fusion_lat": 0.0, "lat": 38.94465266666667, "name": "3314def188c9a58b5e30878437de70ff", "fusion_lon": 0.0, "bike_id": "3314def188c9a58b5e30878437de70ff", "is_disabled": 0, "is_reserved": 0}, {"rental_uris": {"ios": "https://dc.lft.to/lastmile_qr_scan", "android": "https://dc.lft.to/lastmile_qr_scan"}, "lon": -77.04671016666667, "type": "electric_scooter", "fusion_lat": 0.0, "lat": 38.91484283333333, "name": "2a1421f221f8af937d60f2a4a5872169", "fusion_lon": 0.0, "bike_id": "2a1421f221f8af937d60f2a4a5872169", "is_disabled": 0, "is_reserved": 0}, {"rental_uris": {"ios": "https://dc.lft.to/lastmile_qr_scan", "android": "https://dc.lft.to/lastmile_qr_scan"}, "lon": -77.04157433333333, "type": "electric_scooter", "fusion_lat": 0.0, "lat": 38.919578333333334, "name": "b2c01c742e57a76996f07d0a38fe6489", "fusion_lon": 0.0, "bike_id": "b2c01c742e57a76996f07d0a38fe6489", "is_disabled": 0, "is_reserved": 0}, {"rental_uris": {"ios": "https://dc.lft.to/lastmile_qr_scan", "android": "https://dc.lft.to/lastmile_qr_scan"}, "lon": -76.9488045, "type": "electric_scooter", "fusion_lat": 0.0, "lat": 38.8950355, "name": "84ddda5c1a19609cff1746e0737c7bad", "fusion_lon": 0.0, "bike_id": "84ddda5c1a19609cff1746e0737c7bad", "is_disabled": 0, "is_reserved": 0}, {"rental_uris": {"ios": "https://dc.lft.to/lastmile_qr_scan", "android": "https://dc.lft.to/lastmile_qr_scan"}, "lon": -77.04253666666666, "type": "electric_scooter", "fusion_lat": 0.0, "lat": 38.9028625, "name": "5ea2c58cf3948455724be02c8627d2e6", "fusion_lon": 0.0, "bike_id": "5ea2c58cf3948455724be02c8627d2e6", "is_disabled": 0, "is_reserved": 0}, {"rental_uris": {"ios": "https://dc.lft.to/lastmile_qr_scan", "android": "https://dc.lft.to/lastmile_qr_scan"}, "lon": -77.03749816666667, "type": "electric_scooter", "fusion_lat": 0.0, "lat": 38.9515415, "name": "edecc8c4adfd476b91481e289f45ed3b", "fusion_lon": 0.0, "bike_id": "edecc8c4adfd476b91481e289f45ed3b", "is_disabled": 0, "is_reserved": 0}, {"rental_uris": {"ios": "https://dc.lft.to/lastmile_qr_scan", "android": "https://dc.lft.to/lastmile_qr_scan"}, "lon": -77.04659716666667, "type": "electric_scooter", "fusion_lat": 0.0, "lat": 38.89338333333333, "name": "1a55338bd62a74662fc404c832492926", "fusion_lon": 0.0, "bike_id": "1a55338bd62a74662fc404c832492926", "is_disabled": 0, "is_reserved": 0}, {"rental_uris": {"ios": "https://dc.lft.to/lastmile_qr_scan", "android": "https://dc.lft.to/lastmile_qr_scan"}, "lon": -77.0659355, "type": "electric_scooter", "fusion_lat": 0.0, "lat": 38.90523866666667, "name": "f7f3ea1f5965e985c73bd9eebf8b6e62", "fusion_lon": 0.0, "bike_id": "f7f3ea1f5965e985c73bd9eebf8b6e62", "is_disabled": 0, "is_reserved": 0}, {"rental_uris": {"ios": "https://dc.lft.to/lastmile_qr_scan", "android": "https://dc.lft.to/lastmile_qr_scan"}, "lon": -77.10686233333334, "type": "electric_bike", "fusion_lat": 0.0, "lat": 38.935826, "name": "5e1c261bc77ec11486ad526479513d64", "fusion_lon": 0.0, "bike_id": "5e1c261bc77ec11486ad526479513d64", "is_disabled": 0, "is_reserved": 0}, {"rental_uris": {"ios": "https://dc.lft.to/lastmile_qr_scan", "android": "https://dc.lft.to/lastmile_qr_scan"}, "lon": -77.03223416666667, "type": "electric_scooter", "fusion_lat": 0.0, "lat": 38.918159, "name": "df0306f1c1f3bed80cbd454e9159d36d", "fusion_lon": 0.0, "bike_id": "df0306f1c1f3bed80cbd454e9159d36d", "is_disabled": 0, "is_reserved": 0}, {"rental_uris": {"ios": "https://dc.lft.to/lastmile_qr_scan", "android": "https://dc.lft.to/lastmile_qr_scan"}, "lon": -76.98717366666666, "type": "electric_scooter", "fusion_lat": 0.0, "lat": 38.867047666666664, "name": "f6f2f872ad1086821c1c46e28c381192", "fusion_lon": 0.0, "bike_id": "f6f2f872ad1086821c1c46e28c381192", "is_disabled": 0, "is_reserved": 0}, {"rental_uris": {"ios": "https://dc.lft.to/lastmile_qr_scan", "android": "https://dc.lft.to/lastmile_qr_scan"}, "lon": -77.03236716666666, "type": "electric_scooter", "fusion_lat": 0.0, "lat": 38.928900166666665, "name": "0c0d36eb9664fd13fe39ada8848f6661", "fusion_lon": 0.0, "bike_id": "0c0d36eb9664fd13fe39ada8848f6661", "is_disabled": 0, "is_reserved": 0}, {"rental_uris": {"ios": "https://dc.lft.to/lastmile_qr_scan", "android": "https://dc.lft.to/lastmile_qr_scan"}, "lon": -77.00894516666666, "type": "electric_scooter", "fusion_lat": 0.0, "lat": 38.912359333333335, "name": "9db400f599bd70df513b0d327dd9b52a", "fusion_lon": 0.0, "bike_id": "9db400f599bd70df513b0d327dd9b52a", "is_disabled": 0, "is_reserved": 0}, {"rental_uris": {"ios": "https://dc.lft.to/lastmile_qr_scan", "android": "https://dc.lft.to/lastmile_qr_scan"}, "lon": -77.03375883333334, "type": "electric_scooter", "fusion_lat": 0.0, "lat": 38.897790666666666, "name": "7e9f070e5feb393a46e14936718e2905", "fusion_lon": 0.0, "bike_id": "7e9f070e5feb393a46e14936718e2905", "is_disabled": 0, "is_reserved": 0}, {"rental_uris": {"ios": "https://dc.lft.to/lastmile_qr_scan", "android": "https://dc.lft.to/lastmile_qr_scan"}, "lon": -76.927062, "type": "electric_scooter", "fusion_lat": 0.0, "lat": 38.8876965, "name": "20016fccb110f20ef0a9c6ef5c3da12b", "fusion_lon": 0.0, "bike_id": "20016fccb110f20ef0a9c6ef5c3da12b", "is_disabled": 0, "is_reserved": 0}, {"rental_uris": {"ios": "https://dc.lft.to/lastmile_qr_scan", "android": "https://dc.lft.to/lastmile_qr_scan"}, "lon": -76.93180566666666, "type": "electric_scooter", "fusion_lat": 0.0, "lat": 38.898869166666664, "name": "acfcbc4f53d6a370339c4b857bb818cc", "fusion_lon": 0.0, "bike_id": "acfcbc4f53d6a370339c4b857bb818cc", "is_disabled": 0, "is_reserved": 0}, {"rental_uris": {"ios": "https://dc.lft.to/lastmile_qr_scan", "android": "https://dc.lft.to/lastmile_qr_scan"}, "lon": -77.015833, "type": "electric_scooter", "fusion_lat": 0.0, "lat": 38.91684883333333, "name": "cfba9a6825fd124453955d4532ab7e0a", "fusion_lon": 0.0, "bike_id": "cfba9a6825fd124453955d4532ab7e0a", "is_disabled": 0, "is_reserved": 0}, {"rental_uris": {"ios": "https://dc.lft.to/lastmile_qr_scan", "android": "https://dc.lft.to/lastmile_qr_scan"}, "lon": -77.04555433333333, "type": "electric_scooter", "fusion_lat": 0.0, "lat": 38.91267416666667, "name": "4f30caa2e9430ee9165100aa7b3d116b", "fusion_lon": 0.0, "bike_id": "4f30caa2e9430ee9165100aa7b3d116b", "is_disabled": 0, "is_reserved": 0}, {"rental_uris": {"ios": "https://dc.lft.to/lastmile_qr_scan", "android": "https://dc.lft.to/lastmile_qr_scan"}, "lon": -76.987171, "type": "electric_scooter", "fusion_lat": 0.0, "lat": 38.86705883333333, "name": "20e21a7e3dfaf5a9bf504038d6865845", "fusion_lon": 0.0, "bike_id": "20e21a7e3dfaf5a9bf504038d6865845", "is_disabled": 0, "is_reserved": 0}, {"rental_uris": {"ios": "https://dc.lft.to/lastmile_qr_scan", "android": "https://dc.lft.to/lastmile_qr_scan"}, "lon": -77.02166, "type": "electric_scooter", "fusion_lat": 0.0, "lat": 38.92614233333333, "name": "0460d6e59d62d7f30399483469cf8410", "fusion_lon": 0.0, "bike_id": "0460d6e59d62d7f30399483469cf8410", "is_disabled": 0, "is_reserved": 0}, {"rental_uris": {"ios": "https://dc.lft.to/lastmile_qr_scan", "android": "https://dc.lft.to/lastmile_qr_scan"}, "lon": -77.02230866666666, "type": "electric_scooter", "fusion_lat": 0.0, "lat": 38.914255833333335, "name": "e334a96f9d27055a53c7c6f4683df870", "fusion_lon": 0.0, "bike_id": "e334a96f9d27055a53c7c6f4683df870", "is_disabled": 0, "is_reserved": 0}, {"rental_uris": {"ios": "https://dc.lft.to/lastmile_qr_scan", "android": "https://dc.lft.to/lastmile_qr_scan"}, "lon": -77.02218383333333, "type": "electric_scooter", "fusion_lat": 0.0, "lat": 38.93869333333333, "name": "7babfe4aad4343ccb35bc95795094c1a", "fusion_lon": 0.0, "bike_id": "7babfe4aad4343ccb35bc95795094c1a", "is_disabled": 0, "is_reserved": 0}, {"rental_uris": {"ios": "https://dc.lft.to/lastmile_qr_scan", "android": "https://dc.lft.to/lastmile_qr_scan"}, "lon": -77.002165, "type": "electric_scooter", "fusion_lat": 0.0, "lat": 38.91107216666666, "name": "da2cf26c3c240c54aaf80e59826b6a77", "fusion_lon": 0.0, "bike_id": "da2cf26c3c240c54aaf80e59826b6a77", "is_disabled": 0, "is_reserved": 0}, {"rental_uris": {"ios": "https://dc.lft.to/lastmile_qr_scan", "android": "https://dc.lft.to/lastmile_qr_scan"}, "lon": -77.03795966666667, "type": "electric_scooter", "fusion_lat": 0.0, "lat": 38.9302375, "name": "4a58b2b6a28899b33825671e3cd1b800", "fusion_lon": 0.0, "bike_id": "4a58b2b6a28899b33825671e3cd1b800", "is_disabled": 0, "is_reserved": 0}, {"rental_uris": {"ios": "https://dc.lft.to/lastmile_qr_scan", "android": "https://dc.lft.to/lastmile_qr_scan"}, "lon": -77.03852866666666, "type": "electric_scooter", "fusion_lat": 0.0, "lat": 38.908483333333336, "name": "9ceae0c58fcb771e8791b180c79fd0ac", "fusion_lon": 0.0, "bike_id": "9ceae0c58fcb771e8791b180c79fd0ac", "is_disabled": 0, "is_reserved": 0}, {"rental_uris": {"ios": "https://dc.lft.to/lastmile_qr_scan", "android": "https://dc.lft.to/lastmile_qr_scan"}, "lon": -77.03222316666667, "type": "electric_scooter", "fusion_lat": 0.0, "lat": 38.9170395, "name": "57238b4f2be15374ab2d5dece66bb3de", "fusion_lon": 0.0, "bike_id": "57238b4f2be15374ab2d5dece66bb3de", "is_disabled": 0, "is_reserved": 0}, {"rental_uris": {"ios": "https://dc.lft.to/lastmile_qr_scan", "android": "https://dc.lft.to/lastmile_qr_scan"}, "lon": -77.05888666666667, "type": "electric_scooter", "fusion_lat": 0.0, "lat": 38.936365, "name": "5a38ec5c3738ab9a41427e6e8655d675", "fusion_lon": 0.0, "bike_id": "5a38ec5c3738ab9a41427e6e8655d675", "is_disabled": 0, "is_reserved": 0}, {"rental_uris": {"ios": "https://dc.lft.to/lastmile_qr_scan", "android": "https://dc.lft.to/lastmile_qr_scan"}, "lon": -77.04820266666667, "type": "electric_scooter", "fusion_lat": 0.0, "lat": 38.89616783333334, "name": "1eba5ff8640ef2a2dd883df2e0247784", "fusion_lon": 0.0, "bike_id": "1eba5ff8640ef2a2dd883df2e0247784", "is_disabled": 0, "is_reserved": 0}, {"rental_uris": {"ios": "https://dc.lft.to/lastmile_qr_scan", "android": "https://dc.lft.to/lastmile_qr_scan"}, "lon": -77.037902, "type": "electric_scooter", "fusion_lat": 0.0, "lat": 38.90561683333333, "name": "403c8ded80d762b8a0d5e9bfdbfcacee", "fusion_lon": 0.0, "bike_id": "403c8ded80d762b8a0d5e9bfdbfcacee", "is_disabled": 0, "is_reserved": 0}, {"rental_uris": {"ios": "https://dc.lft.to/lastmile_qr_scan", "android": "https://dc.lft.to/lastmile_qr_scan"}, "lon": -76.947563, "type": "electric_scooter", "fusion_lat": 0.0, "lat": 38.900536833333334, "name": "f923e007be2c34e09ab80563cf04b70a", "fusion_lon": 0.0, "bike_id": "f923e007be2c34e09ab80563cf04b70a", "is_disabled": 0, "is_reserved": 0}, {"rental_uris": {"ios": "https://dc.lft.to/lastmile_qr_scan", "android": "https://dc.lft.to/lastmile_qr_scan"}, "lon": -76.99968616666666, "type": "electric_scooter", "fusion_lat": 0.0, "lat": 38.90674466666667, "name": "3c318d4224c29896974c19f40b581b0e", "fusion_lon": 0.0, "bike_id": "3c318d4224c29896974c19f40b581b0e", "is_disabled": 0, "is_reserved": 0}, {"rental_uris": {"ios": "https://dc.lft.to/lastmile_qr_scan", "android": "https://dc.lft.to/lastmile_qr_scan"}, "lon": -77.0312545, "type": "electric_bike", "fusion_lat": 0.0, "lat": 38.904258666666664, "name": "88be168b36dc26c92b144499af081d77", "fusion_lon": 0.0, "bike_id": "88be168b36dc26c92b144499af081d77", "is_disabled": 0, "is_reserved": 0}, {"rental_uris": {"ios": "https://dc.lft.to/lastmile_qr_scan", "android": "https://dc.lft.to/lastmile_qr_scan"}, "lon": -76.965318, "type": "electric_scooter", "fusion_lat": 0.0, "lat": 38.8763195, "name": "43f51188578548771f08e483dc08f68c", "fusion_lon": 0.0, "bike_id": "43f51188578548771f08e483dc08f68c", "is_disabled": 0, "is_reserved": 0}, {"rental_uris": {"ios": "https://dc.lft.to/lastmile_qr_scan", "android": "https://dc.lft.to/lastmile_qr_scan"}, "lon": -77.0321295, "type": "electric_scooter", "fusion_lat": 0.0, "lat": 38.913585, "name": "23811b4a46367bf02327ee0aff9a6b48", "fusion_lon": 0.0, "bike_id": "23811b4a46367bf02327ee0aff9a6b48", "is_disabled": 0, "is_reserved": 0}, {"rental_uris": {"ios": "https://dc.lft.to/lastmile_qr_scan", "android": "https://dc.lft.to/lastmile_qr_scan"}, "lon": -77.044935, "type": "electric_bike", "fusion_lat": 0.0, "lat": 38.912938, "name": "ba2e0a61110466a0f7410a52292209b8", "fusion_lon": 0.0, "bike_id": "ba2e0a61110466a0f7410a52292209b8", "is_disabled": 0, "is_reserved": 0}, {"rental_uris": {"ios": "https://dc.lft.to/lastmile_qr_scan", "android": "https://dc.lft.to/lastmile_qr_scan"}, "lon": -77.01097033333333, "type": "electric_scooter", "fusion_lat": 0.0, "lat": 38.903657, "name": "97af9f190048402ab4ac2a10206c644d", "fusion_lon": 0.0, "bike_id": "97af9f190048402ab4ac2a10206c644d", "is_disabled": 0, "is_reserved": 0}, {"rental_uris": {"ios": "https://dc.lft.to/lastmile_qr_scan", "android": "https://dc.lft.to/lastmile_qr_scan"}, "lon": -77.04789983333333, "type": "electric_scooter", "fusion_lat": 0.0, "lat": 38.908532, "name": "979eaf265b5646cf5dbb81ab287cbc4a", "fusion_lon": 0.0, "bike_id": "979eaf265b5646cf5dbb81ab287cbc4a", "is_disabled": 0, "is_reserved": 0}, {"rental_uris": {"ios": "https://dc.lft.to/lastmile_qr_scan", "android": "https://dc.lft.to/lastmile_qr_scan"}, "lon": -76.979597, "type": "electric_scooter", "fusion_lat": 0.0, "lat": 38.9038045, "name": "e53612742636a0718bf0711d4b3c509f", "fusion_lon": 0.0, "bike_id": "e53612742636a0718bf0711d4b3c509f", "is_disabled": 0, "is_reserved": 0}, {"rental_uris": {"ios": "https://dc.lft.to/lastmile_qr_scan", "android": "https://dc.lft.to/lastmile_qr_scan"}, "lon": -76.97631466666667, "type": "electric_scooter", "fusion_lat": 0.0, "lat": 38.90575, "name": "79154702d11073b23a0aba7043cae1df", "fusion_lon": 0.0, "bike_id": "79154702d11073b23a0aba7043cae1df", "is_disabled": 0, "is_reserved": 0}, {"rental_uris": {"ios": "https://dc.lft.to/lastmile_qr_scan", "android": "https://dc.lft.to/lastmile_qr_scan"}, "lon": -77.06292116666667, "type": "electric_scooter", "fusion_lat": 0.0, "lat": 38.90585816666667, "name": "1772536171b4d0811cf379727bcd275f", "fusion_lon": 0.0, "bike_id": "1772536171b4d0811cf379727bcd275f", "is_disabled": 0, "is_reserved": 0}, {"rental_uris": {"ios": "https://dc.lft.to/lastmile_qr_scan", "android": "https://dc.lft.to/lastmile_qr_scan"}, "lon": -77.0120805, "type": "electric_scooter", "fusion_lat": 0.0, "lat": 38.91826016666667, "name": "ef1a308bed180cd525062911177f5e81", "fusion_lon": 0.0, "bike_id": "ef1a308bed180cd525062911177f5e81", "is_disabled": 0, "is_reserved": 0}, {"rental_uris": {"ios": "https://dc.lft.to/lastmile_qr_scan", "android": "https://dc.lft.to/lastmile_qr_scan"}, "lon": -77.058867, "type": "electric_scooter", "fusion_lat": 0.0, "lat": 38.9363745, "name": "6f4ca550a1960f089e9e04a5b046013b", "fusion_lon": 0.0, "bike_id": "6f4ca550a1960f089e9e04a5b046013b", "is_disabled": 0, "is_reserved": 0}, {"rental_uris": {"ios": "https://dc.lft.to/lastmile_qr_scan", "android": "https://dc.lft.to/lastmile_qr_scan"}, "lon": -77.04291366666666, "type": "electric_scooter", "fusion_lat": 0.0, "lat": 38.91692916666667, "name": "f8ee98767a3e2382d7e3a47b30a8291e", "fusion_lon": 0.0, "bike_id": "f8ee98767a3e2382d7e3a47b30a8291e", "is_disabled": 0, "is_reserved": 0}, {"rental_uris": {"ios": "https://dc.lft.to/lastmile_qr_scan", "android": "https://dc.lft.to/lastmile_qr_scan"}, "lon": -77.01614533333333, "type": "electric_scooter", "fusion_lat": 0.0, "lat": 38.909783, "name": "a36ea7d0101e771f260732665793113d", "fusion_lon": 0.0, "bike_id": "a36ea7d0101e771f260732665793113d", "is_disabled": 0, "is_reserved": 0}, {"rental_uris": {"ios": "https://dc.lft.to/lastmile_qr_scan", "android": "https://dc.lft.to/lastmile_qr_scan"}, "lon": -76.98679416666667, "type": "electric_scooter", "fusion_lat": 0.0, "lat": 38.88212466666667, "name": "d90211e324ff09a6ae977722c2eda79e", "fusion_lon": 0.0, "bike_id": "d90211e324ff09a6ae977722c2eda79e", "is_disabled": 0, "is_reserved": 0}, {"rental_uris": {"ios": "https://dc.lft.to/lastmile_qr_scan", "android": "https://dc.lft.to/lastmile_qr_scan"},