{"data": {"bikes": [{"name": "a06951df504096a06696a63d16b75b49", "type": "electric_scooter", "lat": 38.941793, "is_reserved": 0, "lon": -77.036532, "fusion_lon": 0.0, "is_disabled": 0, "fusion_lat": 0.0, "bike_id": "a06951df504096a06696a63d16b75b49", "rental_uris": {"ios": "https://dc.lft.to/lastmile_qr_scan", "android": "https://dc.lft.to/lastmile_qr_scan"}}, {"name": "b90db8ba131016d71b0e3fdab05e0751", "type": "electric_scooter", "lat": 38.894764333333335, "is_reserved": 0, "lon": -76.97718783333333, "fusion_lon": 0.0, "is_disabled": 0, "fusion_lat": 0.0, "bike_id": "b90db8ba131016d71b0e3fdab05e0751", "rental_uris": {"ios": "https://dc.lft.to/lastmile_qr_scan", "android": "https://dc.lft.to/lastmile_qr_scan"}}, {"name": "e5e2611b2355739b41333de8c707b646", "type": "electric_bike", "lat": 38.931746, "is_reserved": 0, "lon": -77.03530716666667, "fusion_lon": 0.0, "is_disabled": 0, "fusion_lat": 0.0, "bike_id": "e5e2611b2355739b41333de8c707b646", "rental_uris": {"ios": "https://dc.lft.to/lastmile_qr_scan", "android": "https://dc.lft.to/lastmile_qr_scan"}}, {"name": "dd0975acccbe63176d98aacaa8abc8d3", "type": "electric_scooter", "lat": 38.911949166666666, "is_reserved": 0, "lon": -77.0321965, "fusion_lon": 0.0, "is_disabled": 0, "fusion_lat": 0.0, "bike_id": "dd0975acccbe63176d98aacaa8abc8d3", "rental_uris": {"ios": "https://dc.lft.to/lastmile_qr_scan", "android": "https://dc.lft.to/lastmile_qr_scan"}}, {"name": "ffab11b353eab75aa569c84a9597d1c0", "type": "electric_scooter", "lat": 38.89743133333333, "is_reserved": 0, "lon": -76.942537, "fusion_lon": 0.0, "is_disabled": 0, "fusion_lat": 0.0, "bike_id": "ffab11b353eab75aa569c84a9597d1c0", "rental_uris": {"ios": "https://dc.lft.to/lastmile_qr_scan", "android": "https://dc.lft.to/lastmile_qr_scan"}}, {"name": "74ffeb3cf10dabc9f5d09c74eedf8e22", "type": "electric_scooter", "lat": 38.900190333333335, "is_reserved": 0, "lon": -77.03323866666666, "fusion_lon": 0.0, "is_disabled": 0, "fusion_lat": 0.0, "bike_id": "74ffeb3cf10dabc9f5d09c74eedf8e22", "rental_uris": {"ios": "https://dc.lft.to/lastmile_qr_scan", "android": "https://dc.lft.to/lastmile_qr_scan"}}, {"name": "14d5f44539b6f92e82ee0ece285510ed", "type": "electric_scooter", "lat": 38.908604833333335, "is_reserved": 0, "lon": -77.02482583333334, "fusion_lon": 0.0, "is_disabled": 0, "fusion_lat": 0.0, "bike_id": "14d5f44539b6f92e82ee0ece285510ed", "rental_uris": {"ios": "https://dc.lft.to/lastmile_qr_scan", "android": "https://dc.lft.to/lastmile_qr_scan"}}, {"name": "33190e0489762f8d3b3d0dca8de21345", "type": "electric_scooter", "lat": 38.9132145, "is_reserved": 0, "lon": -77.02205216666667, "fusion_lon": 0.0, "is_disabled": 0, "fusion_lat": 0.0, "bike_id": "33190e0489762f8d3b3d0dca8de21345", "rental_uris": {"ios": "https://dc.lft.to/lastmile_qr_scan", "android": "https://dc.lft.to/lastmile_qr_scan"}}, {"name": "8ebb1aadec5c84b6f62eac180d4cef40", "type": "electric_scooter", "lat": 38.93386116666667, "is_reserved": 0, "lon": -77.05763233333333, "fusion_lon": 0.0, "is_disabled": 0, "fusion_lat": 0.0, "bike_id": "8ebb1aadec5c84b6f62eac180d4cef40", "rental_uris": {"ios": "https://dc.lft.to/lastmile_qr_scan", "android": "https://dc.lft.to/lastmile_qr_scan"}}, {"name": "d0fc238ec3ee406d438b3d5347b26a9e", "type": "electric_scooter", "lat": 38.900799, "is_reserved": 0, "lon": -76.9387425, "fusion_lon": 0.0, "is_disabled": 0, "fusion_lat": 0.0, "bike_id": "d0fc238ec3ee406d438b3d5347b26a9e", "rental_uris": {"ios": "https://dc.lft.to/lastmile_qr_scan", "android": "https://dc.lft.to/lastmile_qr_scan"}}, {"name": "964dcf15964283dd7f9f514b3a51697e", "type": "electric_scooter", "lat": 38.92973933333333, "is_reserved": 0, "lon": -77.02612883333333, "fusion_lon": 0.0, "is_disabled": 0, "fusion_lat": 0.0, "bike_id": "964dcf15964283dd7f9f514b3a51697e", "rental_uris": {"ios": "https://dc.lft.to/lastmile_qr_scan", "android": "https://dc.lft.to/lastmile_qr_scan"}}, {"name": "881d90369e34f5c4a242f47e40d4b0d9", "type": "electric_scooter", "lat": 38.8801895, "is_reserved": 0, "lon": -76.93131633333333, "fusion_lon": 0.0, "is_disabled": 0, "fusion_lat": 0.0, "bike_id": "881d90369e34f5c4a242f47e40d4b0d9", "rental_uris": {"ios": "https://dc.lft.to/lastmile_qr_scan", "android": "https://dc.lft.to/lastmile_qr_scan"}}, {"name": "8580f82fe0e833c924664ae0d4998300", "type": "electric_bike", "lat": 38.82724133333333, "is_reserved": 0, "lon": -77.008643, "fusion_lon": 0.0, "is_disabled": 0, "fusion_lat": 0.0, "bike_id": "8580f82fe0e833c924664ae0d4998300", "rental_uris": {"ios": "https://dc.lft.to/lastmile_qr_scan", "android": "https://dc.lft.to/lastmile_qr_scan"}}, {"name": "4f09f4e8737ec3301c2ed19fabcdaa91", "type": "electric_scooter", "lat": 38.918975, "is_reserved": 0, "lon": -77.0529, "fusion_lon": 0.0, "is_disabled": 0, "fusion_lat": 0.0, "bike_id": "4f09f4e8737ec3301c2ed19fabcdaa91", "rental_uris": {"ios": "https://dc.lft.to/lastmile_qr_scan", "android": "https://dc.lft.to/lastmile_qr_scan"}}, {"name": "c2e3cb11db615199ea9e172cb2ffe6ff", "type": "electric_scooter", "lat": 38.90832733333333, "is_reserved": 0, "lon": -77.03659183333333, "fusion_lon": 0.0, "is_disabled": 0, "fusion_lat": 0.0, "bike_id": "c2e3cb11db615199ea9e172cb2ffe6ff", "rental_uris": {"ios": "https://dc.lft.to/lastmile_qr_scan", "android": "https://dc.lft.to/lastmile_qr_scan"}}, {"name": "0d15aa12856008a769710e9ecbb4526d", "type": "electric_scooter", "lat": 38.91052466666667, "is_reserved": 0, "lon": -77.04593633333333, "fusion_lon": 0.0, "is_disabled": 0, "fusion_lat": 0.0, "bike_id": "0d15aa12856008a769710e9ecbb4526d", "rental_uris": {"ios": "https://dc.lft.to/lastmile_qr_scan", "android": "https://dc.lft.to/lastmile_qr_scan"}}, {"name": "b500c9fa737a8618eb6c152c814470b9", "type": "electric_scooter", "lat": 38.927973, "is_reserved": 0, "lon": -77.05356, "fusion_lon": 0.0, "is_disabled": 0, "fusion_lat": 0.0, "bike_id": "b500c9fa737a8618eb6c152c814470b9", "rental_uris": {"ios": "https://dc.lft.to/lastmile_qr_scan", "android": "https://dc.lft.to/lastmile_qr_scan"}}, {"name": "53e287812dcb6c104bdf455bb5619079", "type": "electric_scooter", "lat": 38.9232825, "is_reserved": 0, "lon": -77.035215, "fusion_lon": 0.0, "is_disabled": 0, "fusion_lat": 0.0, "bike_id": "53e287812dcb6c104bdf455bb5619079", "rental_uris": {"ios": "https://dc.lft.to/lastmile_qr_scan", "android": "https://dc.lft.to/lastmile_qr_scan"}}, {"name": "06bfdad2d24c26c6fd5ad75fccecd936", "type": "electric_scooter", "lat": 38.916856833333334, "is_reserved": 0, "lon": -77.028074, "fusion_lon": 0.0, "is_disabled": 0, "fusion_lat": 0.0, "bike_id": "06bfdad2d24c26c6fd5ad75fccecd936", "rental_uris": {"ios": "https://dc.lft.to/lastmile_qr_scan", "android": "https://dc.lft.to/lastmile_qr_scan"}}, {"name": "3c5742588ed062fa6424550aedf363b6", "type": "electric_scooter", "lat": 38.88490733333333, "is_reserved": 0, "lon": -77.00726483333334, "fusion_lon": 0.0, "is_disabled": 0, "fusion_lat": 0.0, "bike_id": "3c5742588ed062fa6424550aedf363b6", "rental_uris": {"ios": "https://dc.lft.to/lastmile_qr_scan", "android": "https://dc.lft.to/lastmile_qr_scan"}}, {"name": "f1ae843609a261813aea8dda8b28b8ed", "type": "electric_scooter", "lat": 38.89475066666667, "is_reserved": 0, "lon": -77.02362783333334, "fusion_lon": 0.0, "is_disabled": 0, "fusion_lat": 0.0, "bike_id": "f1ae843609a261813aea8dda8b28b8ed", "rental_uris": {"ios": "https://dc.lft.to/lastmile_qr_scan", "android": "https://dc.lft.to/lastmile_qr_scan"}}, {"name": "8c5faf18d959815223abba07d2e29774", "type": "electric_scooter", "lat": 38.900135, "is_reserved": 0, "lon": -76.99753283333334, "fusion_lon": 0.0, "is_disabled": 0, "fusion_lat": 0.0, "bike_id": "8c5faf18d959815223abba07d2e29774", "rental_uris": {"ios": "https://dc.lft.to/lastmile_qr_scan", "android": "https://dc.lft.to/lastmile_qr_scan"}}, {"name": "c9f4f5f7884c061e9475178bc84b2677", "type": "electric_scooter", "lat": 38.93430683333333, "is_reserved": 0, "lon": -77.02431783333333, "fusion_lon": 0.0, "is_disabled": 0, "fusion_lat": 0.0, "bike_id": "c9f4f5f7884c061e9475178bc84b2677", "rental_uris": {"ios": "https://dc.lft.to/lastmile_qr_scan", "android": "https://dc.lft.to/lastmile_qr_scan"}}, {"name": "bfd5108b4b56f2a0e1b4ebff1c419713", "type": "electric_scooter", "lat": 38.90051, "is_reserved": 0, "lon": -77.03164866666667, "fusion_lon": 0.0, "is_disabled": 0, "fusion_lat": 0.0, "bike_id": "bfd5108b4b56f2a0e1b4ebff1c419713", "rental_uris": {"ios": "https://dc.lft.to/lastmile_qr_scan", "android": "https://dc.lft.to/lastmile_qr_scan"}}, {"name": "82d403e4b29abe1d498c3d3e0b068be2", "type": "electric_scooter", "lat": 38.888743, "is_reserved": 0, "lon": -76.990323, "fusion_lon": 0.0, "is_disabled": 0, "fusion_lat": 0.0, "bike_id": "82d403e4b29abe1d498c3d3e0b068be2", "rental_uris": {"ios": "https://dc.lft.to/lastmile_qr_scan", "android": "https://dc.lft.to/lastmile_qr_scan"}}, {"name": "ab8a403e147615b2d0bf85fc09795933", "type": "electric_scooter", "lat": 38.89882733333334, "is_reserved": 0, "lon": -77.0326645, "fusion_lon": 0.0, "is_disabled": 0, "fusion_lat": 0.0, "bike_id": "ab8a403e147615b2d0bf85fc09795933", "rental_uris": {"ios": "https://dc.lft.to/lastmile_qr_scan", "android": "https://dc.lft.to/lastmile_qr_scan"}}, {"name": "39b89375cebcba0d95377b87625b4092", "type": "electric_scooter", "lat": 38.920373833333336, "is_reserved": 0, "lon": -77.02420283333333, "fusion_lon": 0.0, "is_disabled": 0, "fusion_lat": 0.0, "bike_id": "39b89375cebcba0d95377b87625b4092", "rental_uris": {"ios": "https://dc.lft.to/lastmile_qr_scan", "android": "https://dc.lft.to/lastmile_qr_scan"}}, {"name": "ec65f2d00e314ec27171b2302e51b68f", "type": "electric_scooter", "lat": 38.898484333333336, "is_reserved": 0, "lon": -76.9903075, "fusion_lon": 0.0, "is_disabled": 0, "fusion_lat": 0.0, "bike_id": "ec65f2d00e314ec27171b2302e51b68f", "rental_uris": {"ios": "https://dc.lft.to/lastmile_qr_scan", "android": "https://dc.lft.to/lastmile_qr_scan"}}, {"name": "ede89656a47f877dcd5932426ca4d809", "type": "electric_scooter", "lat": 38.90238983333333, "is_reserved": 0, "lon": -77.00204533333333, "fusion_lon": 0.0, "is_disabled": 0, "fusion_lat": 0.0, "bike_id": "ede89656a47f877dcd5932426ca4d809", "rental_uris": {"ios": "https://dc.lft.to/lastmile_qr_scan", "android": "https://dc.lft.to/lastmile_qr_scan"}}, {"name": "4ecd5e4c586a854b40fa5abe4785acc7", "type": "electric_scooter", "lat": 38.9163345, "is_reserved": 0, "lon": -77.01087483333333, "fusion_lon": 0.0, "is_disabled": 0, "fusion_lat": 0.0, "bike_id": "4ecd5e4c586a854b40fa5abe4785acc7", "rental_uris": {"ios": "https://dc.lft.to/lastmile_qr_scan", "android": "https://dc.lft.to/lastmile_qr_scan"}}, {"name": "7fbd8d76bfc9f75c35eb4c3411280ada", "type": "electric_scooter", "lat": 38.930193833333334, "is_reserved": 0, "lon": -77.03790533333333, "fusion_lon": 0.0, "is_disabled": 0, "fusion_lat": 0.0, "bike_id": "7fbd8d76bfc9f75c35eb4c3411280ada", "rental_uris": {"ios": "https://dc.lft.to/lastmile_qr_scan", "android": "https://dc.lft.to/lastmile_qr_scan"}}, {"name": "44ac2ee712b798e478dbac20e066af32", "type": "electric_bike", "lat": 38.96504216666666, "is_reserved": 0, "lon": -77.10336816666667, "fusion_lon": 0.0, "is_disabled": 0, "fusion_lat": 0.0, "bike_id": "44ac2ee712b798e478dbac20e066af32", "rental_uris": {"ios": "https://dc.lft.to/lastmile_qr_scan", "android": "https://dc.lft.to/lastmile_qr_scan"}}, {"name": "8b22cda156f178122c1dcdc91a664e1d", "type": "electric_scooter", "lat": 38.8950795, "is_reserved": 0, "lon": -77.02717383333334, "fusion_lon": 0.0, "is_disabled": 0, "fusion_lat": 0.0, "bike_id": "8b22cda156f178122c1dcdc91a664e1d", "rental_uris": {"ios": "https://dc.lft.to/lastmile_qr_scan", "android": "https://dc.lft.to/lastmile_qr_scan"}}, {"name": "933682aece8af61e33d69165173aa3e7", "type": "electric_scooter", "lat": 38.92362983333334, "is_reserved": 0, "lon": -77.050292, "fusion_lon": 0.0, "is_disabled": 0, "fusion_lat": 0.0, "bike_id": "933682aece8af61e33d69165173aa3e7", "rental_uris": {"ios": "https://dc.lft.to/lastmile_qr_scan", "android": "https://dc.lft.to/lastmile_qr_scan"}}, {"name": "72d13becd8f138329883152d235ee799", "type": "electric_scooter", "lat": 38.90662483333333, "is_reserved": 0, "lon": -77.0269445, "fusion_lon": 0.0, "is_disabled": 0, "fusion_lat": 0.0, "bike_id": "72d13becd8f138329883152d235ee799", "rental_uris": {"ios": "https://dc.lft.to/lastmile_qr_scan", "android": "https://dc.lft.to/lastmile_qr_scan"}}, {"name": "792f6df5902aa37288add5af80bd79e1", "type": "electric_scooter", "lat": 38.925635, "is_reserved": 0, "lon": -77.0228455, "fusion_lon": 0.0, "is_disabled": 0, "fusion_lat": 0.0, "bike_id": "792f6df5902aa37288add5af80bd79e1", "rental_uris": {"ios": "https://dc.lft.to/lastmile_qr_scan", "android": "https://dc.lft.to/lastmile_qr_scan"}}, {"name": "1ae2c4791d20aa62fd01588dab5cc4e9", "type": "electric_scooter", "lat": 38.92716766666667, "is_reserved": 0, "lon": -77.02084333333333, "fusion_lon": 0.0, "is_disabled": 0, "fusion_lat": 0.0, "bike_id": "1ae2c4791d20aa62fd01588dab5cc4e9", "rental_uris": {"ios": "https://dc.lft.to/lastmile_qr_scan", "android": "https://dc.lft.to/lastmile_qr_scan"}}, {"name": "844af0dc476392b7200270b063bf551f", "type": "electric_scooter", "lat": 38.94277433333333, "is_reserved": 0, "lon": -77.02506883333334, "fusion_lon": 0.0, "is_disabled": 0, "fusion_lat": 0.0, "bike_id": "844af0dc476392b7200270b063bf551f", "rental_uris": {"ios": "https://dc.lft.to/lastmile_qr_scan", "android": "https://dc.lft.to/lastmile_qr_scan"}}, {"name": "f85b8d62b907a60014dc4cfaa0cfff0c", "type": "electric_scooter", "lat": 38.866565666666666, "is_reserved": 0, "lon": -76.988916, "fusion_lon": 0.0, "is_disabled": 0, "fusion_lat": 0.0, "bike_id": "f85b8d62b907a60014dc4cfaa0cfff0c", "rental_uris": {"ios": "https://dc.lft.to/lastmile_qr_scan", "android": "https://dc.lft.to/lastmile_qr_scan"}}, {"name": "ca6df2a70ae128156d94387cea1bfc0f", "type": "electric_scooter", "lat": 38.8961785, "is_reserved": 0, "lon": -77.03229133333333, "fusion_lon": 0.0, "is_disabled": 0, "fusion_lat": 0.0, "bike_id": "ca6df2a70ae128156d94387cea1bfc0f", "rental_uris": {"ios": "https://dc.lft.to/lastmile_qr_scan", "android": "https://dc.lft.to/lastmile_qr_scan"}}, {"name": "c56a7f84384ba38983c5a5c856040006", "type": "electric_scooter", "lat": 38.916283166666666, "is_reserved": 0, "lon": -77.0363295, "fusion_lon": 0.0, "is_disabled": 0, "fusion_lat": 0.0, "bike_id": "c56a7f84384ba38983c5a5c856040006", "rental_uris": {"ios": "https://dc.lft.to/lastmile_qr_scan", "android": "https://dc.lft.to/lastmile_qr_scan"}}, {"name": "3082e55390d955692923d8dd52345baf", "type": "electric_scooter", "lat": 38.892184666666665, "is_reserved": 0, "lon": -77.02147833333333, "fusion_lon": 0.0, "is_disabled": 0, "fusion_lat": 0.0, "bike_id": "3082e55390d955692923d8dd52345baf", "rental_uris": {"ios": "https://dc.lft.to/lastmile_qr_scan", "android": "https://dc.lft.to/lastmile_qr_scan"}}, {"name": "7382ae93736e5c091476525e8a3ba6bb", "type": "electric_bike", "lat": 39.030489833333334, "is_reserved": 0, "lon": -77.09481433333333, "fusion_lon": 0.0, "is_disabled": 0, "fusion_lat": 0.0, "bike_id": "7382ae93736e5c091476525e8a3ba6bb", "rental_uris": {"ios": "https://dc.lft.to/lastmile_qr_scan", "android": "https://dc.lft.to/lastmile_qr_scan"}}, {"name": "05452e8a3474c53b0b6525c5db45c56b", "type": "electric_scooter", "lat": 38.908291166666665, "is_reserved": 0, "lon": -76.99694566666666, "fusion_lon": 0.0, "is_disabled": 0, "fusion_lat": 0.0, "bike_id": "05452e8a3474c53b0b6525c5db45c56b", "rental_uris": {"ios": "https://dc.lft.to/lastmile_qr_scan", "android": "https://dc.lft.to/lastmile_qr_scan"}}, {"name": "d93116a059ec116aeadef71995aeed68", "type": "electric_scooter", "lat": 38.928552833333335, "is_reserved": 0, "lon": -77.054261, "fusion_lon": 0.0, "is_disabled": 0, "fusion_lat": 0.0, "bike_id": "d93116a059ec116aeadef71995aeed68", "rental_uris": {"ios": "https://dc.lft.to/lastmile_qr_scan", "android": "https://dc.lft.to/lastmile_qr_scan"}}, {"name": "65ca79a25f986af0ca7f1a59558cf398", "type": "electric_scooter", "lat": 38.90369033333333, "is_reserved": 0, "lon": -77.00749683333333, "fusion_lon": 0.0, "is_disabled": 0, "fusion_lat": 0.0, "bike_id": "65ca79a25f986af0ca7f1a59558cf398", "rental_uris": {"ios": "https://dc.lft.to/lastmile_qr_scan", "android": "https://dc.lft.to/lastmile_qr_scan"}}, {"name": "67e851fb6138100d8bbd2046903fb517", "type": "electric_scooter", "lat": 38.879686666666665, "is_reserved": 0, "lon": -76.98549616666666, "fusion_lon": 0.0, "is_disabled": 0, "fusion_lat": 0.0, "bike_id": "67e851fb6138100d8bbd2046903fb517", "rental_uris": {"ios": "https://dc.lft.to/lastmile_qr_scan", "android": "https://dc.lft.to/lastmile_qr_scan"}}, {"name": "141a350d5a0d298cf41e9f06879ca2a2", "type": "electric_scooter", "lat": 38.89129716666667, "is_reserved": 0, "lon": -77.00335033333333, "fusion_lon": 0.0, "is_disabled": 0, "fusion_lat": 0.0, "bike_id": "141a350d5a0d298cf41e9f06879ca2a2", "rental_uris": {"ios": "https://dc.lft.to/lastmile_qr_scan", "android": "https://dc.lft.to/lastmile_qr_scan"}}, {"name": "a6eaf9f0ebaac878e6444473bf5a889d", "type": "electric_scooter", "lat": 38.89196966666667, "is_reserved": 0, "lon": -77.015514, "fusion_lon": 0.0, "is_disabled": 0, "fusion_lat": 0.0, "bike_id": "a6eaf9f0ebaac878e6444473bf5a889d", "rental_uris": {"ios": "https://dc.lft.to/lastmile_qr_scan", "android": "https://dc.lft.to/lastmile_qr_scan"}}, {"name": "eb095ec97218bfdc061ad23de930b29d", "type": "electric_scooter", "lat": 38.87681583333333, "is_reserved": 0, "lon": -77.00069616666667, "fusion_lon": 0.0, "is_disabled": 0, "fusion_lat": 0.0, "bike_id": "eb095ec97218bfdc061ad23de930b29d", "rental_uris": {"ios": "https://dc.lft.to/lastmile_qr_scan", "android": "https://dc.lft.to/lastmile_qr_scan"}}, {"name": "4bcdd49858b567636a03f920032649e3", "type": "electric_scooter", "lat": 38.895929333333335, "is_reserved": 0, "lon": -77.02609916666667, "fusion_lon": 0.0, "is_disabled": 0, "fusion_lat": 0.0, "bike_id": "4bcdd49858b567636a03f920032649e3", "rental_uris": {"ios": "https://dc.lft.to/lastmile_qr_scan", "android": "https://dc.lft.to/lastmile_qr_scan"}}, {"name": "f4fbcf9c7256a70d79a568f403777aa4", "type": "electric_scooter", "lat": 38.90249166666667, "is_reserved": 0, "lon": -77.01808816666667, "fusion_lon": 0.0, "is_disabled": 0, "fusion_lat": 0.0, "bike_id": "f4fbcf9c7256a70d79a568f403777aa4", "rental_uris": {"ios": "https://dc.lft.to/lastmile_qr_scan", "android": "https://dc.lft.to/lastmile_qr_scan"}}, {"name": "4017364057faf99f80d638e12c0db116", "type": "electric_scooter", "lat": 38.904960833333334, "is_reserved": 0, "lon": -77.0512235, "fusion_lon": 0.0, "is_disabled": 0, "fusion_lat": 0.0, "bike_id": "4017364057faf99f80d638e12c0db116", "rental_uris": {"ios": "https://dc.lft.to/lastmile_qr_scan", "android": "https://dc.lft.to/lastmile_qr_scan"}}, {"name": "0888cbe4b6b8efa837f4cbd19a1f32d2", "type": "electric_scooter", "lat": 38.93798966666667, "is_reserved": 0, "lon": -77.02457083333333, "fusion_lon": 0.0, "is_disabled": 0, "fusion_lat": 0.0, "bike_id": "0888cbe4b6b8efa837f4cbd19a1f32d2", "rental_uris": {"ios": "https://dc.lft.to/lastmile_qr_scan", "android": "https://dc.lft.to/lastmile_qr_scan"}}, {"name": "1dd40d72b3d1100e8d082c12e9899c99", "type": "electric_scooter", "lat": 38.918083, "is_reserved": 0, "lon": -77.001689, "fusion_lon": 0.0, "is_disabled": 0, "fusion_lat": 0.0, "bike_id": "1dd40d72b3d1100e8d082c12e9899c99", "rental_uris": {"ios": "https://dc.lft.to/lastmile_qr_scan", "android": "https://dc.lft.to/lastmile_qr_scan"}}, {"name": "f2f8d2516ba4cd70e573c76f3723423e", "type": "electric_scooter", "lat": 38.90390383333333, "is_reserved": 0, "lon": -77.0177835, "fusion_lon": 0.0, "is_disabled": 0, "fusion_lat": 0.0, "bike_id": "f2f8d2516ba4cd70e573c76f3723423e", "rental_uris": {"ios": "https://dc.lft.to/lastmile_qr_scan", "android": "https://dc.lft.to/lastmile_qr_scan"}}, {"name": "d263982de83551e688e568fdeda17522", "type": "electric_scooter", "lat": 38.91268816666667, "is_reserved": 0, "lon": -77.00638716666667, "fusion_lon": 0.0, "is_disabled": 0, "fusion_lat": 0.0, "bike_id": "d263982de83551e688e568fdeda17522", "rental_uris": {"ios": "https://dc.lft.to/lastmile_qr_scan", "android": "https://dc.lft.to/lastmile_qr_scan"}}, {"name": "358a9ad0922870705836b94052f56eb1", "type": "electric_bike", "lat": 38.96506, "is_reserved": 0, "lon": -77.02828116666667, "fusion_lon": 0.0, "is_disabled": 0, "fusion_lat": 0.0, "bike_id": "358a9ad0922870705836b94052f56eb1", "rental_uris": {"ios": "https://dc.lft.to/lastmile_qr_scan", "android": "https://dc.lft.to/lastmile_qr_scan"}}, {"name": "76a9a3cf8e96975667563f6d02d902b6", "type": "electric_scooter", "lat": 38.902524666666665, "is_reserved": 0, "lon": -77.03317333333334, "fusion_lon": 0.0, "is_disabled": 0, "fusion_lat": 0.0, "bike_id": "76a9a3cf8e96975667563f6d02d902b6", "rental_uris": {"ios": "https://dc.lft.to/lastmile_qr_scan", "android": "https://dc.lft.to/lastmile_qr_scan"}}, {"name": "775fc4fb7da8327d60afc40fed073650", "type": "electric_scooter", "lat": 38.92124416666667, "is_reserved": 0, "lon": -77.04437816666666, "fusion_lon": 0.0, "is_disabled": 0, "fusion_lat": 0.0, "bike_id": "775fc4fb7da8327d60afc40fed073650", "rental_uris": {"ios": "https://dc.lft.to/lastmile_qr_scan", "android": "https://dc.lft.to/lastmile_qr_scan"}}, {"name": "98b1ff384cdf1c12c5d45a4aeab26cf3", "type": "electric_scooter", "lat": 38.94083466666667, "is_reserved": 0, "lon": -77.0619435, "fusion_lon": 0.0, "is_disabled": 0, "fusion_lat": 0.0, "bike_id": "98b1ff384cdf1c12c5d45a4aeab26cf3", "rental_uris": {"ios": "https://dc.lft.to/lastmile_qr_scan", "android": "https://dc.lft.to/lastmile_qr_scan"}}, {"name": "7a827cd588972d6fc1f6f51316f7839c", "type": "electric_scooter", "lat": 38.9125515, "is_reserved": 0, "lon": -77.00929266666667, "fusion_lon": 0.0, "is_disabled": 0, "fusion_lat": 0.0, "bike_id": "7a827cd588972d6fc1f6f51316f7839c", "rental_uris": {"ios": "https://dc.lft.to/lastmile_qr_scan", "android": "https://dc.lft.to/lastmile_qr_scan"}}, {"name": "3123b0a540dc95b67eeab290d50c6e7b", "type": "electric_scooter", "lat": 38.877621, "is_reserved": 0, "lon": -77.00815116666666, "fusion_lon": 0.0, "is_disabled": 0, "fusion_lat": 0.0, "bike_id": "3123b0a540dc95b67eeab290d50c6e7b", "rental_uris": {"ios": "https://dc.lft.to/lastmile_qr_scan", "android": "https://dc.lft.to/lastmile_qr_scan"}}, {"name": "5f9c41b30d866ffe6b00b3fd98822c36", "type": "electric_scooter", "lat": 38.895515, "is_reserved": 0, "lon": -76.92655983333333, "fusion_lon": 0.0, "is_disabled": 0, "fusion_lat": 0.0, "bike_id": "5f9c41b30d866ffe6b00b3fd98822c36", "rental_uris": {"ios": "https://dc.lft.to/lastmile_qr_scan", "android": "https://dc.lft.to/lastmile_qr_scan"}}, {"name": "6399bff75283e4626ff73bcfeaeb9e68", "type": "electric_scooter", "lat": 38.923481, "is_reserved": 0, "lon": -77.03206566666667, "fusion_lon": 0.0, "is_disabled": 0, "fusion_lat": 0.0, "bike_id": "6399bff75283e4626ff73bcfeaeb9e68", "rental_uris": {"ios": "https://dc.lft.to/lastmile_qr_scan", "android": "https://dc.lft.to/lastmile_qr_scan"}}, {"name": "c7b911c32653ff69d68a99f0f2b75a4e", "type": "electric_scooter", "lat": 38.92000683333333, "is_reserved": 0, "lon": -76.95810516666667, "fusion_lon": 0.0, "is_disabled": 0, "fusion_lat": 0.0, "bike_id": "c7b911c32653ff69d68a99f0f2b75a4e", "rental_uris": {"ios": "https://dc.lft.to/lastmile_qr_scan", "android": "https://dc.lft.to/lastmile_qr_scan"}}, {"name": "53107e1717ffd9086f956251c8e11d76", "type": "electric_scooter", "lat": 38.962300666666664, "is_reserved": 0, "lon": -77.02976516666666, "fusion_lon": 0.0, "is_disabled": 0, "fusion_lat": 0.0, "bike_id": "53107e1717ffd9086f956251c8e11d76", "rental_uris": {"ios": "https://dc.lft.to/lastmile_qr_scan", "android": "https://dc.lft.to/lastmile_qr_scan"}}, {"name": "ff9bcf9a0b54747d51821c30e8d576f0", "type": "electric_scooter", "lat": 38.92641716666667, "is_reserved": 0, "lon": -77.03396183333334, "fusion_lon": 0.0, "is_disabled": 0, "fusion_lat": 0.0, "bike_id": "ff9bcf9a0b54747d51821c30e8d576f0", "rental_uris": {"ios": "https://dc.lft.to/lastmile_qr_scan", "android": "https://dc.lft.to/lastmile_qr_scan"}}, {"name": "3828a79f1d0772233b43448a65cc1897", "type": "electric_scooter", "lat": 38.856332333333334, "is_reserved": 0, "lon": -76.974576, "fusion_lon": 0.0, "is_disabled": 0, "fusion_lat": 0.0, "bike_id": "3828a79f1d0772233b43448a65cc1897", "rental_uris": {"ios": "https://dc.lft.to/lastmile_qr_scan", "android": "https://dc.lft.to/lastmile_qr_scan"}}, {"name": "8961b6a08a9650ee222e7b081dc26f40", "type": "electric_scooter", "lat": 38.89874233333333, "is_reserved": 0, "lon": -76.93157533333333, "fusion_lon": 0.0, "is_disabled": 0, "fusion_lat": 0.0, "bike_id": "8961b6a08a9650ee222e7b081dc26f40", "rental_uris": {"ios": "https://dc.lft.to/lastmile_qr_scan", "android": "https://dc.lft.to/lastmile_qr_scan"}}, {"name": "7a38269da4d8dcc04b189868115f9fa2", "type": "electric_scooter", "lat": 38.91106033333333, "is_reserved": 0, "lon": -77.002175, "fusion_lon": 0.0, "is_disabled": 0, "fusion_lat": 0.0, "bike_id": "7a38269da4d8dcc04b189868115f9fa2", "rental_uris": {"ios": "https://dc.lft.to/lastmile_qr_scan", "android": "https://dc.lft.to/lastmile_qr_scan"}}, {"name": "551fbdaf47dba853db75ad66dd1386b2", "type": "electric_scooter", "lat": 38.90379466666667, "is_reserved": 0, "lon": -77.01095733333334, "fusion_lon": 0.0, "is_disabled": 0, "fusion_lat": 0.0, "bike_id": "551fbdaf47dba853db75ad66dd1386b2", "rental_uris": {"ios": "https://dc.lft.to/lastmile_qr_scan", "android": "https://dc.lft.to/lastmile_qr_scan"}}, {"name": "df840fd275188d61e1a270e6a7a17050", "type": "electric_scooter", "lat": 38.928965166666664, "is_reserved": 0, "lon": -77.05457416666667, "fusion_lon": 0.0, "is_disabled": 0, "fusion_lat": 0.0, "bike_id": "df840fd275188d61e1a270e6a7a17050", "rental_uris": {"ios": "https://dc.lft.to/lastmile_qr_scan", "android": "https://dc.lft.to/lastmile_qr_scan"}}, {"name": "3514dba2ace2b2e31196450d51306235", "type": "electric_scooter", "lat": 38.92003, "is_reserved": 0, "lon": -77.03970033333333, "fusion_lon": 0.0, "is_disabled": 0, "fusion_lat": 0.0, "bike_id": "3514dba2ace2b2e31196450d51306235", "rental_uris": {"ios": "https://dc.lft.to/lastmile_qr_scan", "android": "https://dc.lft.to/lastmile_qr_scan"}}, {"name": "1f1b911a7f5a5f7de111e0751928cc8c", "type": "electric_scooter", "lat": 38.941725166666664, "is_reserved": 0, "lon": -77.0413165, "fusion_lon": 0.0, "is_disabled": 0, "fusion_lat": 0.0, "bike_id": "1f1b911a7f5a5f7de111e0751928cc8c", "rental_uris": {"ios": "https://dc.lft.to/lastmile_qr_scan", "android": "https://dc.lft.to/lastmile_qr_scan"}}, {"name": "252c5954b3842d3daee155576e4c4682", "type": "electric_scooter", "lat": 38.903408166666665, "is_reserved": 0, "lon": -77.0665735, "fusion_lon": 0.0, "is_disabled": 0, "fusion_lat": 0.0, "bike_id": "252c5954b3842d3daee155576e4c4682", "rental_uris": {"ios": "https://dc.lft.to/lastmile_qr_scan", "android": "https://dc.lft.to/lastmile_qr_scan"}}, {"name": "10e37b5943a7689ef8efd2655991bb39", "type": "electric_bike", "lat": 38.948951666666666, "is_reserved": 0, "lon": -76.96378933333334, "fusion_lon": 0.0, "is_disabled": 0, "fusion_lat": 0.0, "bike_id": "10e37b5943a7689ef8efd2655991bb39", "rental_uris": {"ios": "https://dc.lft.to/lastmile_qr_scan", "android": "https://dc.lft.to/lastmile_qr_scan"}}, {"name": "1cbf6dd7988d560bf1e1d4e3f595cdf2", "type": "electric_scooter", "lat": 38.91021816666667, "is_reserved": 0, "lon": -77.04810316666666, "fusion_lon": 0.0, "is_disabled": 0, "fusion_lat": 0.0, "bike_id": "1cbf6dd7988d560bf1e1d4e3f595cdf2", "rental_uris": {"ios": "https://dc.lft.to/lastmile_qr_scan", "android": "https://dc.lft.to/lastmile_qr_scan"}}, {"name": "37559ebe257024d524fb60b1e55be057", "type": "electric_scooter", "lat": 38.870869, "is_reserved": 0, "lon": -77.012049, "fusion_lon": 0.0, "is_disabled": 0, "fusion_lat": 0.0, "bike_id": "37559ebe257024d524fb60b1e55be057", "rental_uris": {"ios": "https://dc.lft.to/lastmile_qr_scan", "android": "https://dc.lft.to/lastmile_qr_scan"}}, {"name": "5bfe9e94c24254392ef29e3b495810c6", "type": "electric_scooter", "lat": 38.92141916666667, "is_reserved": 0, "lon": -77.024276, "fusion_lon": 0.0, "is_disabled": 0, "fusion_lat": 0.0, "bike_id": "5bfe9e94c24254392ef29e3b495810c6", "rental_uris": {"ios": "https://dc.lft.to/lastmile_qr_scan", "android": "https://dc.lft.to/lastmile_qr_scan"}}, {"name": "fd953cebde9d368db580b01463dc398a", "type": "electric_scooter", "lat": 38.92466966666667, "is_reserved": 0, "lon": -77.037689, "fusion_lon": 0.0, "is_disabled": 0, "fusion_lat": 0.0, "bike_id": "fd953cebde9d368db580b01463dc398a", "rental_uris": {"ios": "https://dc.lft.to/lastmile_qr_scan", "android": "https://dc.lft.to/lastmile_qr_scan"}}, {"name": "20eb71a51c2febe96ce776d69c531b69", "type": "electric_scooter", "lat": 38.9079365, "is_reserved": 0, "lon": -77.0096845, "fusion_lon": 0.0, "is_disabled": 0, "fusion_lat": 0.0, "bike_id": "20eb71a51c2febe96ce776d69c531b69", "rental_uris": {"ios": "https://dc.lft.to/lastmile_qr_scan", "android": "https://dc.lft.to/lastmile_qr_scan"}}, {"name": "d26126132ffa7943d9cc21e761d88c91", "type": "electric_scooter", "lat": 38.9344735, "is_reserved": 0, "lon": -77.02852, "fusion_lon": 0.0, "is_disabled": 0, "fusion_lat": 0.0, "bike_id": "d26126132ffa7943d9cc21e761d88c91", "rental_uris": {"ios": "https://dc.lft.to/lastmile_qr_scan", "android": "https://dc.lft.to/lastmile_qr_scan"}}, {"name": "6e0466c4669f1df6498a736b6da2eb7b", "type": "electric_scooter", "lat": 38.922301, "is_reserved": 0, "lon": -77.03889816666667, "fusion_lon": 0.0, "is_disabled": 0, "fusion_lat": 0.0, "bike_id": "6e0466c4669f1df6498a736b6da2eb7b", "rental_uris": {"ios": "https://dc.lft.to/lastmile_qr_scan", "android": "https://dc.lft.to/lastmile_qr_scan"}}, {"name": "9a4d5aed4dd14eccc988cdd3b855ca28", "type": "electric_scooter", "lat": 38.86698483333333, "is_reserved": 0, "lon": -76.98715516666667, "fusion_lon": 0.0, "is_disabled": 0, "fusion_lat": 0.0, "bike_id": "9a4d5aed4dd14eccc988cdd3b855ca28", "rental_uris": {"ios": "https://dc.lft.to/lastmile_qr_scan", "android": "https://dc.lft.to/lastmile_qr_scan"}}, {"name": "ec5d4d4ec173e71ad745ac0da6561fdc", "type": "electric_scooter", "lat": 38.905602333333334, "is_reserved": 0, "lon": -77.00607083333334, "fusion_lon": 0.0, "is_disabled": 0, "fusion_lat": 0.0, "bike_id": "ec5d4d4ec173e71ad745ac0da6561fdc", "rental_uris": {"ios": "https://dc.lft.to/lastmile_qr_scan", "android": "https://dc.lft.to/lastmile_qr_scan"}}, {"name": "1744af09cb10f344df4d9d773e4b1580", "type": "electric_scooter", "lat": 38.93091233333333, "is_reserved": 0, "lon": -77.03461433333334, "fusion_lon": 0.0, "is_disabled": 0, "fusion_lat": 0.0, "bike_id": "1744af09cb10f344df4d9d773e4b1580", "rental_uris": {"ios": "https://dc.lft.to/lastmile_qr_scan", "android": "https://dc.lft.to/lastmile_qr_scan"}}, {"name": "219e0243cea99bfae43e0545e2a0832f", "type": "electric_scooter", "lat": 38.93253883333333, "is_reserved": 0, "lon": -77.02949083333333, "fusion_lon": 0.0, "is_disabled": 0, "fusion_lat": 0.0, "bike_id": "219e0243cea99bfae43e0545e2a0832f", "rental_uris": {"ios": "https://dc.lft.to/lastmile_qr_scan", "android": "https://dc.lft.to/lastmile_qr_scan"}}, {"name": "dc8fb7dce9dd4ef7c685179d053d13fa", "type": "electric_scooter", "lat": 38.93120566666666, "is_reserved": 0, "lon": -77.03599866666667, "fusion_lon": 0.0, "is_disabled": 0, "fusion_lat": 0.0, "bike_id": "dc8fb7dce9dd4ef7c685179d053d13fa", "rental_uris": {"ios": "https://dc.lft.to/lastmile_qr_scan", "android": "https://dc.lft.to/lastmile_qr_scan"}}, {"name": "5e3492e7dbc315bd1dc7a8520b0b870c", "type": "electric_scooter", "lat": 38.90646183333333, "is_reserved": 0, "lon": -77.02962816666667, "fusion_lon": 0.0, "is_disabled": 0, "fusion_lat": 0.0, "bike_id": "5e3492e7dbc315bd1dc7a8520b0b870c", "rental_uris": {"ios": "https://dc.lft.to/lastmile_qr_scan", "android": "https://dc.lft.to/lastmile_qr_scan"}}, {"name": "43bd94928bb3d162cad54303fb45b99e", "type": "electric_scooter", "lat": 38.8965965, "is_reserved": 0, "lon": -77.012109, "fusion_lon": 0.0, "is_disabled": 0, "fusion_lat": 0.0, "bike_id": "43bd94928bb3d162cad54303fb45b99e", "rental_uris": {"ios": "https://dc.lft.to/lastmile_qr_scan", "android": "https://dc.lft.to/lastmile_qr_scan"}}, {"name": "9991e1f2fbcc0bf383ec3498eea44c38", "type": "electric_scooter", "lat": 38.897515, "is_reserved": 0, "lon": -77.02674183333333, "fusion_lon": 0.0, "is_disabled": 0, "fusion_lat": 0.0, "bike_id": "9991e1f2fbcc0bf383ec3498eea44c38", "rental_uris": {"ios": "https://dc.lft.to/lastmile_qr_scan", "android": "https://dc.lft.to/lastmile_qr_scan"}}, {"name": "34b6da85ee1d3d0d574070754de960dd", "type": "electric_bike", "lat": 38.89792583333333, "is_reserved": 0, "lon": -76.90433983333334, "fusion_lon": 0.0, "is_disabled": 0, "fusion_lat": 0.0, "bike_id": "34b6da85ee1d3d0d574070754de960dd", "rental_uris": {"ios": "https://dc.lft.to/lastmile_qr_scan", "android": "https://dc.lft.to/lastmile_qr_scan"}}, {"name": "029f6980e07c61c4bf68186150e39363", "type": "electric_scooter", "lat": 38.89940766666667, "is_reserved": 0, "lon": -77.03178666666666, "fusion_lon": 0.0, "is_disabled": 0, "fusion_lat": 0.0, "bike_id": "029f6980e07c61c4bf68186150e39363", "rental_uris": {"ios": "https://dc.lft.to/lastmile_qr_scan", "android": "https://dc.lft.to/lastmile_qr_scan"}}, {"name": "c9ea6ff9bedb53c2918a97407f6e5beb", "type": "electric_scooter", "lat": 38.898009, "is_reserved": 0, "lon": -76.9916195, "fusion_lon": 0.0, "is_disabled": 0, "fusion_lat": 0.0, "bike_id": "c9ea6ff9bedb53c2918a97407f6e5beb", "rental_uris": {"ios": "https://dc.lft.to/lastmile_qr_scan", "android": "https://dc.lft.to/lastmile_qr_scan"}}, {"name": "8398921cbfdabe3e45976cf4b6781087", "type": "electric_bike", "lat": 38.94625216666667, "is_reserved": 0, "lon": -76.946285, "fusion_lon": 0.0, "is_disabled": 0, "fusion_lat": 0.0, "bike_id": "8398921cbfdabe3e45976cf4b6781087", "rental_uris": {"ios": "https://dc.lft.to/lastmile_qr_scan", "android": "https://dc.lft.to/lastmile_qr_scan"}}, {"name": "b6f02ef8a67c79d628d75f4887435496", "type": "electric_bike", "lat": 38.922161, "is_reserved": 0, "lon": -77.08204783333333, "fusion_lon": 0.0, "is_disabled": 0, "fusion_lat": 0.0, "bike_id": "b6f02ef8a67c79d628d75f4887435496", "rental_uris": {"ios": "https://dc.lft.to/lastmile_qr_scan", "android": "https://dc.lft.to/lastmile_qr_scan"}}, {"name": "b740f72259d53ca60eb7ed6c069f46e6", "type": "electric_scooter", "lat": 38.91325616666666, "is_reserved": 0, "lon": -77.031672, "fusion_lon": 0.0, "is_disabled": 0, "fusion_lat": 0.0, "bike_id": "b740f72259d53ca60eb7ed6c069f46e6", "rental_uris": {"ios": "https://dc.lft.to/lastmile_qr_scan", "android": "https://dc.lft.to/lastmile_qr_scan"}}, {"name": "cbb45c80ef12602fd812cc9fd12ba339", "type": "electric_scooter", "lat": 38.93068566666667, "is_reserved": 0, "lon": -77.02914183333333, "fusion_lon": 0.0, "is_disabled": 0, "fusion_lat": 0.0, "bike_id": "cbb45c80ef12602fd812cc9fd12ba339", "rental_uris": {"ios": "https://dc.lft.to/lastmile_qr_scan", "android": "https://dc.lft.to/lastmile_qr_scan"}}, {"name": "61ed637d1e3aa8d8443d8c3f2a52b87c", "type": "electric_scooter", "lat": 38.9375645, "is_reserved": 0, "lon": -77.02264883333334, "fusion_lon": 0.0, "is_disabled": 0, "fusion_lat": 0.0, "bike_id": "61ed637d1e3aa8d8443d8c3f2a52b87c", "rental_uris": {"ios": "https://dc.lft.to/lastmile_qr_scan", "android": "https://dc.lft.to/lastmile_qr_scan"}}, {"name": "ff0bee65210a13bc2f3a71c7105c958c", "type": "electric_scooter", "lat": 38.91914933333334, "is_reserved": 0, "lon": -77.0341835, "fusion_lon": 0.0, "is_disabled": 0, "fusion_lat": 0.0, "bike_id": "ff0bee65210a13bc2f3a71c7105c958c", "rental_uris": {"ios": "https://dc.lft.to/lastmile_qr_scan", "android": "https://dc.lft.to/lastmile_qr_scan"}}, {"name": "22261d2d6beeb1fd8026551c78a99962", "type": "electric_scooter", "lat": 38.92480366666667, "is_reserved": 0, "lon": -77.02883716666666, "fusion_lon": 0.0, "is_disabled": 0, "fusion_lat": 0.0, "bike_id": "22261d2d6beeb1fd8026551c78a99962", "rental_uris": {"ios": "https://dc.lft.to/lastmile_qr_scan", "android": "https://dc.lft.to/lastmile_qr_scan"}}, {"name": "0a35aa6483c4ebeced72ae41d0cc114c", "type": "electric_scooter", "lat": 38.905586, "is_reserved": 0, "lon": -77.02169966666666, "fusion_lon": 0.0, "is_disabled": 0, "fusion_lat": 0.0, "bike_id": "0a35aa6483c4ebeced72ae41d0cc114c", "rental_uris": {"ios": "https://dc.lft.to/lastmile_qr_scan", "android": "https://dc.lft.to/lastmile_qr_scan"}}, {"name": "81b0b71b37aff9fca6a95a73e7f9b65e", "type": "electric_scooter", "lat": 38.866579, "is_reserved": 0, "lon": -76.990184, "fusion_lon": 0.0, "is_disabled": 0, "fusion_lat": 0.0, "bike_id": "81b0b71b37aff9fca6a95a73e7f9b65e", "rental_uris": {"ios": "https://dc.lft.to/lastmile_qr_scan", "android": "https://dc.lft.to/lastmile_qr_scan"}}, {"name": "4f78bb4e74062bc3d2189afc975892f4", "type": "electric_scooter", "lat": 38.89956816666667, "is_reserved": 0, "lon": -76.98566466666666, "fusion_lon": 0.0, "is_disabled": 0, "fusion_lat": 0.0, "bike_id": "4f78bb4e74062bc3d2189afc975892f4", "rental_uris": {"ios": "https://dc.lft.to/lastmile_qr_scan", "android": "https://dc.lft.to/lastmile_qr_scan"}}, {"name": "5452258da53ff5e6818ee2b702b526c6", "type": "electric_scooter", "lat": 38.914126, "is_reserved": 0, "lon": -77.02285333333333, "fusion_lon": 0.0, "is_disabled": 0, "fusion_lat": 0.0, "bike_id": "5452258da53ff5e6818ee2b702b526c6", "rental_uris": {"ios": "https://dc.lft.to/lastmile_qr_scan", "android": "https://dc.lft.to/lastmile_qr_scan"}}, {"name": "5db588dd4d7803de4eca955620aeb970", "type": "electric_scooter", "lat": 38.900953666666666, "is_reserved": 0, "lon": -77.05031033333333, "fusion_lon": 0.0, "is_disabled": 0, "fusion_lat": 0.0, "bike_id": "5db588dd4d7803de4eca955620aeb970", "rental_uris": {"ios": "https://dc.lft.to/lastmile_qr_scan", "android": "https://dc.lft.to/lastmile_qr_scan"}}, {"name": "4293831000e624342e15478aaec9661c", "type": "electric_scooter", "lat": 38.89827616666667, "is_reserved": 0, "lon": -76.94651616666667, "fusion_lon": 0.0, "is_disabled": 0, "fusion_lat": 0.0, "bike_id": "4293831000e624342e15478aaec9661c", "rental_uris": {"ios": "https://dc.lft.to/lastmile_qr_scan", "android": "https://dc.lft.to/lastmile_qr_scan"}}, {"name": "68c8ae740bce7229fdf340b3c3633804", "type": "electric_scooter", "lat": 38.93065383333333, "is_reserved": 0, "lon": -77.0298265, "fusion_lon": 0.0, "is_disabled": 0, "fusion_lat": 0.0, "bike_id": "68c8ae740bce7229fdf340b3c3633804", "rental_uris": {"ios": "https://dc.lft.to/lastmile_qr_scan", "android": "https://dc.lft.to/lastmile_qr_scan"}}, {"name": "b8059b8a5404c46e11da9d1a99c95014", "type": "electric_bike", "lat": 38.839894, "is_reserved": 0, "lon": -77.00570466666667, "fusion_lon": 0.0, "is_disabled": 0, "fusion_lat": 0.0, "bike_id": "b8059b8a5404c46e11da9d1a99c95014", "rental_uris": {"ios": "https://dc.lft.to/lastmile_qr_scan", "android": "https://dc.lft.to/lastmile_qr_scan"}}, {"name": "7c4c6c2c669aab5c34022dd9addf3d1b", "type": "electric_scooter", "lat": 38.9170705, "is_reserved": 0, "lon": -77.00807583333334, "fusion_lon": 0.0, "is_disabled": 0, "fusion_lat": 0.0, "bike_id": "7c4c6c2c669aab5c34022dd9addf3d1b", "rental_uris": {"ios": "https://dc.lft.to/lastmile_qr_scan", "android": "https://dc.lft.to/lastmile_qr_scan"}}, {"name": "074759e3e1b29e5f9dba87293d425a15", "type": "electric_scooter", "lat": 38.949896833333334, "is_reserved": 0, "lon": -77.067013, "fusion_lon": 0.0, "is_disabled": 0, "fusion_lat": 0.0, "bike_id": "074759e3e1b29e5f9dba87293d425a15", "rental_uris": {"ios": "https://dc.lft.to/lastmile_qr_scan", "android": "https://dc.lft.to/lastmile_qr_scan"}}, {"name": "a984f9a205d6ac2c19c80d496df982fe", "type": "electric_scooter", "lat": 38.90274766666667, "is_reserved": 0, "lon": -77.03639016666666, "fusion_lon": 0.0, "is_disabled": 0, "fusion_lat": 0.0, "bike_id": "a984f9a205d6ac2c19c80d496df982fe", "rental_uris": {"ios": "https://dc.lft.to/lastmile_qr_scan", "android": "https://dc.lft.to/lastmile_qr_scan"}}, {"name": "aa1d2d45780b0b08be82142e7e53b6f2", "type": "electric_scooter", "lat": 38.89471983333333, "is_reserved": 0, "lon": -76.986012, "fusion_lon": 0.0, "is_disabled": 0, "fusion_lat": 0.0, "bike_id": "aa1d2d45780b0b08be82142e7e53b6f2", "rental_uris": {"ios": "https://dc.lft.to/lastmile_qr_scan", "android": "https://dc.lft.to/lastmile_qr_scan"}}, {"name": "e8652b11d872af220afeccf4ee213a6d", "type": "electric_scooter", "lat": 38.94015866666667, "is_reserved": 0, "lon": -77.071696, "fusion_lon": 0.0, "is_disabled": 0, "fusion_lat": 0.0, "bike_id": "e8652b11d872af220afeccf4ee213a6d", "rental_uris": {"ios": "https://dc.lft.to/lastmile_qr_scan", "android": "https://dc.lft.to/lastmile_qr_scan"}}, {"name": "dd462df61fbb96e1021e2553db1851c2", "type": "electric_bike", "lat": 38.85061316666667, "is_reserved": 0, "lon": -76.9733305, "fusion_lon": 0.0, "is_disabled": 0, "fusion_lat": 0.0, "bike_id": "dd462df61fbb96e1021e2553db1851c2", "rental_uris": {"ios": "https://dc.lft.to/lastmile_qr_scan", "android": "https://dc.lft.to/lastmile_qr_scan"}}, {"name": "b3acc3e1efec5ec597e415ba458a50ee", "type": "electric_scooter", "lat": 38.930931, "is_reserved": 0, "lon": -77.02507883333334, "fusion_lon": 0.0, "is_disabled": 0, "fusion_lat": 0.0, "bike_id": "b3acc3e1efec5ec597e415ba458a50ee", "rental_uris": {"ios": "https://dc.lft.to/lastmile_qr_scan", "android": "https://dc.lft.to/lastmile_qr_scan"}}, {"name": "6a08ebce25193e2599874a72f3e93773", "type": "electric_scooter", "lat": 38.907276, "is_reserved": 0, "lon": -76.98598933333334, "fusion_lon": 0.0, "is_disabled": 0, "fusion_lat": 0.0, "bike_id": "6a08ebce25193e2599874a72f3e93773", "rental_uris": {"ios": "https://dc.lft.to/lastmile_qr_scan", "android": "https://dc.lft.to/lastmile_qr_scan"}}, {"name": "5efe11f2fb8f6af2c1eb7ed773e67699", "type": "electric_scooter", "lat": 38.9424875, "is_reserved": 0, "lon": -77.0217365, "fusion_lon": 0.0, "is_disabled": 0, "fusion_lat": 0.0, "bike_id": "5efe11f2fb8f6af2c1eb7ed773e67699", "rental_uris": {"ios": "https://dc.lft.to/lastmile_qr_scan", "android": "https://dc.lft.to/lastmile_qr_scan"}}, {"name": "43fa19a03c99af66ca08e93859aec603", "type": "electric_scooter", "lat": 38.9035895, "is_reserved": 0, "lon": -77.04471733333334, "fusion_lon": 0.0, "is_disabled": 0, "fusion_lat": 0.0, "bike_id": "43fa19a03c99af66ca08e93859aec603", "rental_uris": {"ios": "https://dc.lft.to/lastmile_qr_scan", "android": "https://dc.lft.to/lastmile_qr_scan"}}, {"name": "dd04661ff227990ced228c7a974a0221", "type": "electric_scooter", "lat": 38.9510575, "is_reserved": 0, "lon": -77.01580016666666, "fusion_lon": 0.0, "is_disabled": 0, "fusion_lat": 0.0, "bike_id": "dd04661ff227990ced228c7a974a0221", "rental_uris": {"ios": "https://dc.lft.to/lastmile_qr_scan", "android": "https://dc.lft.to/lastmile_qr_scan"}}, {"name": "7c52dabbbb74bf28242db2b775b778fd", "type": "electric_scooter", "lat": 38.9572865, "is_reserved": 0, "lon": -77.02405183333333, "fusion_lon": 0.0, "is_disabled": 0, "fusion_lat": 0.0, "bike_id": "7c52dabbbb74bf28242db2b775b778fd", "rental_uris": {"ios": "https://dc.lft.to/lastmile_qr_scan", "android": "https://dc.lft.to/lastmile_qr_scan"}}, {"name": "693a152fb1bc9ed8a058180fc4180927", "type": "electric_scooter", "lat": 38.91108666666667, "is_reserved": 0, "lon": -77.04228216666667, "fusion_lon": 0.0, "is_disabled": 0, "fusion_lat": 0.0, "bike_id": "693a152fb1bc9ed8a058180fc4180927", "rental_uris": {"ios": "https://dc.lft.to/lastmile_qr_scan", "android": "https://dc.lft.to/lastmile_qr_scan"}}, {"name": "0f35ad8b9c1b3f6c77acbb99bec94352", "type": "electric_scooter", "lat": 38.90376216666667, "is_reserved": 0, "lon": -77.040424, "fusion_lon": 0.0, "is_disabled": 0, "fusion_lat": 0.0, "bike_id": "0f35ad8b9c1b3f6c77acbb99bec94352", "rental_uris": {"ios": "https://dc.lft.to/lastmile_qr_scan", "android": "https://dc.lft.to/lastmile_qr_scan"}}, {"name": "251ec0464283dab7bf0ec7c4acd71562", "type": "electric_scooter", "lat": 38.917137, "is_reserved": 0, "lon": -77.03858816666667, "fusion_lon": 0.0, "is_disabled": 0, "fusion_lat": 0.0, "bike_id": "251ec0464283dab7bf0ec7c4acd71562", "rental_uris": {"ios": "https://dc.lft.to/lastmile_qr_scan", "android": "https://dc.lft.to/lastmile_qr_scan"}}, {"name": "07fbc5ff2bb6f6e860761471380f7c53", "type": "electric_scooter", "lat": 38.920087333333335, "is_reserved": 0, "lon": -77.03883516666667, "fusion_lon": 0.0, "is_disabled": 0, "fusion_lat": 0.0, "bike_id": "07fbc5ff2bb6f6e860761471380f7c53", "rental_uris": {"ios": "https://dc.lft.to/lastmile_qr_scan", "android": "https://dc.lft.to/lastmile_qr_scan"}}, {"name": "719eaf1708f88e0ba67e3c5927601780", "type": "electric_scooter", "lat": 38.8429215, "is_reserved": 0, "lon": -76.99948516666667, "fusion_lon": 0.0, "is_disabled": 0, "fusion_lat": 0.0, "bike_id": "719eaf1708f88e0ba67e3c5927601780", "rental_uris": {"ios": "https://dc.lft.to/lastmile_qr_scan", "android": "https://dc.lft.to/lastmile_qr_scan"}}, {"name": "e943a9a642ac9fda7b206db618624885", "type": "electric_scooter", "lat": 38.866988, "is_reserved": 0, "lon": -76.98710566666666, "fusion_lon": 0.0, "is_disabled": 0, "fusion_lat": 0.0, "bike_id": "e943a9a642ac9fda7b206db618624885", "rental_uris": {"ios": "https://dc.lft.to/lastmile_qr_scan", "android": "https://dc.lft.to/lastmile_qr_scan"}}, {"name": "5f2206837f19d05602882eb757a98153", "type": "electric_scooter", "lat": 38.906132, "is_reserved": 0, "lon": -77.012866, "fusion_lon": 0.0, "is_disabled": 0, "fusion_lat": 0.0, "bike_id": "5f2206837f19d05602882eb757a98153", "rental_uris": {"ios": "https://dc.lft.to/lastmile_qr_scan", "android": "https://dc.lft.to/lastmile_qr_scan"}}, {"name": "6c6832c23af6d2d6eb92f47da5b7fe55", "type": "electric_scooter", "lat": 38.90080316666667, "is_reserved": 0, "lon": -77.05072933333334, "fusion_lon": 0.0, "is_disabled": 0, "fusion_lat": 0.0, "bike_id": "6c6832c23af6d2d6eb92f47da5b7fe55", "rental_uris": {"ios": "https://dc.lft.to/lastmile_qr_scan", "android": "https://dc.lft.to/lastmile_qr_scan"}}, {"name": "1121be0554742614e7339216a0ed5bbd", "type": "electric_scooter", "lat": 38.913357833333336, "is_reserved": 0, "lon": -77.031213, "fusion_lon": 0.0, "is_disabled": 0, "fusion_lat": 0.0, "bike_id": "1121be0554742614e7339216a0ed5bbd", "rental_uris": {"ios": "https://dc.lft.to/lastmile_qr_scan", "android": "https://dc.lft.to/lastmile_qr_scan"}}, {"name": "8f822983e7d620f43517660a725d4ee6", "type": "electric_scooter", "lat": 38.897365, "is_reserved": 0, "lon": -77.01317466666667, "fusion_lon": 0.0, "is_disabled": 0, "fusion_lat": 0.0, "bike_id": "8f822983e7d620f43517660a725d4ee6", "rental_uris": {"ios": "https://dc.lft.to/lastmile_qr_scan", "android": "https://dc.lft.to/lastmile_qr_scan"}}, {"name": "57023c1c242f25cf59e91da6f7e08a91", "type": "electric_scooter", "lat": 38.91479983333333, "is_reserved": 0, "lon": -77.03206066666667, "fusion_lon": 0.0, "is_disabled": 0, "fusion_lat": 0.0, "bike_id": "57023c1c242f25cf59e91da6f7e08a91", "rental_uris": {"ios": "https://dc.lft.to/lastmile_qr_scan", "android": "https://dc.lft.to/lastmile_qr_scan"}}, {"name": "ce3546599361f1b7d6f4e2467b39fcd1", "type": "electric_scooter", "lat": 38.90955316666667, "is_reserved": 0, "lon": -76.98535666666666, "fusion_lon": 0.0, "is_disabled": 0, "fusion_lat": 0.0, "bike_id": "ce3546599361f1b7d6f4e2467b39fcd1", "rental_uris": {"ios": "https://dc.lft.to/lastmile_qr_scan", "android": "https://dc.lft.to/lastmile_qr_scan"}}, {"name": "eda2d0aabf6c5ae0ad9d53dcb7985bdb", "type": "electric_scooter", "lat": 38.88414, "is_reserved": 0, "lon": -76.97602566666667, "fusion_lon": 0.0, "is_disabled": 0, "fusion_lat": 0.0, "bike_id": "eda2d0aabf6c5ae0ad9d53dcb7985bdb", "rental_uris": {"ios": "https://dc.lft.to/lastmile_qr_scan", "android": "https://dc.lft.to/lastmile_qr_scan"}}, {"name": "d2bb9ff6b60d01ccda5d1dbefa88f37f", "type": "electric_scooter", "lat": 38.903314333333334, "is_reserved": 0, "lon": -77.0385105, "fusion_lon": 0.0, "is_disabled": 0, "fusion_lat": 0.0, "bike_id": "d2bb9ff6b60d01ccda5d1dbefa88f37f", "rental_uris": {"ios": "https://dc.lft.to/lastmile_qr_scan", "android": "https://dc.lft.to/lastmile_qr_scan"}}, {"name": "29363ba90acb275e347cd5f65449ee8c", "type": "electric_scooter", "lat": 38.92303283333333, "is_reserved": 0, "lon": -76.99392233333333, "fusion_lon": 0.0, "is_disabled": 0, "fusion_lat": 0.0, "bike_id": "29363ba90acb275e347cd5f65449ee8c", "rental_uris": {"ios": "https://dc.lft.to/lastmile_qr_scan", "android": "https://dc.lft.to/lastmile_qr_scan"}}, {"name": "1df184cc0f2a7dcad1ac0abc9c86fd2b", "type": "electric_bike", "lat": 38.965335833333334, "is_reserved": 0, "lon": -77.03513616666666, "fusion_lon": 0.0, "is_disabled": 0, "fusion_lat": 0.0, "bike_id": "1df184cc0f2a7dcad1ac0abc9c86fd2b", "rental_uris": {"ios": "https://dc.lft.to/lastmile_qr_scan", "android": "https://dc.lft.to/lastmile_qr_scan"}}, {"name": "c9783de70262e530ada5d2dad481bb54", "type": "electric_scooter", "lat": 38.92016733333333, "is_reserved": 0, "lon": -77.02606466666667, "fusion_lon": 0.0, "is_disabled": 0, "fusion_lat": 0.0, "bike_id": "c9783de70262e530ada5d2dad481bb54", "rental_uris": {"ios": "https://dc.lft.to/lastmile_qr_scan", "android": "https://dc.lft.to/lastmile_qr_scan"}}, {"name": "f6d933971aa3df8956096c8d04a78934", "type": "electric_scooter", "lat": 38.949705, "is_reserved": 0, "lon": -77.07923666666667, "fusion_lon": 0.0, "is_disabled": 0, "fusion_lat": 0.0, "bike_id": "f6d933971aa3df8956096c8d04a78934", "rental_uris": {"ios": "https://dc.lft.to/lastmile_qr_scan", "android": "https://dc.lft.to/lastmile_qr_scan"}}, {"name": "8101682c593bb929ce118d56b2830d9c", "type": "electric_scooter", "lat": 38.9698425, "is_reserved": 0, "lon": -77.0271495, "fusion_lon": 0.0, "is_disabled": 0, "fusion_lat": 0.0, "bike_id": "8101682c593bb929ce118d56b2830d9c", "rental_uris": {"ios": "https://dc.lft.to/lastmile_qr_scan", "android": "https://dc.lft.to/lastmile_qr_scan"}}, {"name": "dc8a4faffe73749880f24d513d4fd765", "type": "electric_scooter", "lat": 38.876829666666666, "is_reserved": 0, "lon": -77.0007595, "fusion_lon": 0.0, "is_disabled": 0, "fusion_lat": 0.0, "bike_id": "dc8a4faffe73749880f24d513d4fd765", "rental_uris": {"ios": "https://dc.lft.to/lastmile_qr_scan", "android": "https://dc.lft.to/lastmile_qr_scan"}}, {"name": "a875b1b50b39648cce23da048b005cc4", "type": "electric_scooter", "lat": 38.92987383333333, "is_reserved": 0, "lon": -77.07944766666667, "fusion_lon": 0.0, "is_disabled": 0, "fusion_lat": 0.0, "bike_id": "a875b1b50b39648cce23da048b005cc4", "rental_uris": {"ios": "https://dc.lft.to/lastmile_qr_scan", "android": "https://dc.lft.to/lastmile_qr_scan"}}, {"name": "77f83c9268fa81ec35bbd746307b4d78", "type": "electric_scooter", "lat": 38.92487416666667, "is_reserved": 0, "lon": -77.027135, "fusion_lon": 0.0, "is_disabled": 0, "fusion_lat": 0.0, "bike_id": "77f83c9268fa81ec35bbd746307b4d78", "rental_uris": {"ios": "https://dc.lft.to/lastmile_qr_scan", "android": "https://dc.lft.to/lastmile_qr_scan"}}, {"name": "ae414ec214217d63c5a5aa8fec2a5b83", "type": "electric_bike", "lat": 38.83236216666667, "is_reserved": 0, "lon": -76.94622150000001, "fusion_lon": 0.0, "is_disabled": 0, "fusion_lat": 0.0, "bike_id": "ae414ec214217d63c5a5aa8fec2a5b83", "rental_uris": {"ios": "https://dc.lft.to/lastmile_qr_scan", "android": "https://dc.lft.to/lastmile_qr_scan"}}, {"name": "320528f1c1e222bdd7a0c248c8c1014d", "type": "electric_scooter", "lat": 38.9311325, "is_reserved": 0, "lon": -77.03818433333333, "fusion_lon": 0.0, "is_disabled": 0, "fusion_lat": 0.0, "bike_id": "320528f1c1e222bdd7a0c248c8c1014d", "rental_uris": {"ios": "https://dc.lft.to/lastmile_qr_scan", "android": "https://dc.lft.to/lastmile_qr_scan"}}, {"name": "287e082336628ba3e6a26e8f08a87d87", "type": "electric_scooter", "lat": 38.905736, "is_reserved": 0, "lon": -77.029391, "fusion_lon": 0.0, "is_disabled": 0, "fusion_lat": 0.0, "bike_id": "287e082336628ba3e6a26e8f08a87d87", "rental_uris": {"ios": "https://dc.lft.to/lastmile_qr_scan", "android": "https://dc.lft.to/lastmile_qr_scan"}}, {"name": "94779f0bc3b1e2f59e535d0be0366a9f", "type": "electric_scooter", "lat": 38.941343833333335, "is_reserved": 0, "lon": -77.015482, "fusion_lon": 0.0, "is_disabled": 0, "fusion_lat": 0.0, "bike_id": "94779f0bc3b1e2f59e535d0be0366a9f", "rental_uris": {"ios": "https://dc.lft.to/lastmile_qr_scan", "android": "https://dc.lft.to/lastmile_qr_scan"}}, {"name": "08b66e5c1a1993d23c0bcb9af33b9de5", "type": "electric_scooter", "lat": 38.915910333333336, "is_reserved": 0, "lon": -76.98373416666666, "fusion_lon": 0.0, "is_disabled": 0, "fusion_lat": 0.0, "bike_id": "08b66e5c1a1993d23c0bcb9af33b9de5", "rental_uris": {"ios": "https://dc.lft.to/lastmile_qr_scan", "android": "https://dc.lft.to/lastmile_qr_scan"}}, {"name": "2560155503d501397c3cf980b70a0456", "type": "electric_scooter", "lat": 38.898231333333335, "is_reserved": 0, "lon": -77.03293083333334, "fusion_lon": 0.0, "is_disabled": 0, "fusion_lat": 0.0, "bike_id": "2560155503d501397c3cf980b70a0456", "rental_uris": {"ios": "https://dc.lft.to/lastmile_qr_scan", "android": "https://dc.lft.to/lastmile_qr_scan"}}, {"name": "c6756ad531a1ba40a541bfa3517f88b0", "type": "electric_scooter", "lat": 38.909541833333336, "is_reserved": 0, "lon": -77.04321533333334, "fusion_lon": 0.0, "is_disabled": 0, "fusion_lat": 0.0, "bike_id": "c6756ad531a1ba40a541bfa3517f88b0", "rental_uris": {"ios": "https://dc.lft.to/lastmile_qr_scan", "android": "https://dc.lft.to/lastmile_qr_scan"}}, {"name": "5d1aa4603f18a7229489f9d29a9f6c7b", "type": "electric_bike", "lat": 38.871378166666666, "is_reserved": 0, "lon": -76.937373, "fusion_lon": 0.0, "is_disabled": 0, "fusion_lat": 0.0, "bike_id": "5d1aa4603f18a7229489f9d29a9f6c7b", "rental_uris": {"ios": "https://dc.lft.to/lastmile_qr_scan", "android": "https://dc.lft.to/lastmile_qr_scan"}}, {"name": "980a3f087fe59c1b8a36bfac663f1d76", "type": "electric_scooter", "lat": 38.909459166666664, "is_reserved": 0, "lon": -76.9989605, "fusion_lon": 0.0, "is_disabled": 0, "fusion_lat": 0.0, "bike_id": "980a3f087fe59c1b8a36bfac663f1d76", "rental_uris": {"ios": "https://dc.lft.to/lastmile_qr_scan", "android": "https://dc.lft.to/lastmile_qr_scan"}}, {"name": "bace1501e25be2a1f6f9184eff68812b", "type": "electric_scooter", "lat": 38.90525683333333, "is_reserved": 0, "lon": -77.0674665, "fusion_lon": 0.0, "is_disabled": 0, "fusion_lat": 0.0, "bike_id": "bace1501e25be2a1f6f9184eff68812b", "rental_uris": {"ios": "https://dc.lft.to/lastmile_qr_scan", "android": "https://dc.lft.to/lastmile_qr_scan"}}, {"name": "662fc71a7c11371893c38836b91541da", "type": "electric_scooter", "lat": 38.93746933333333, "is_reserved": 0, "lon": -77.03498616666667, "fusion_lon": 0.0, "is_disabled": 0, "fusion_lat": 0.0, "bike_id": "662fc71a7c11371893c38836b91541da", "rental_uris": {"ios": "https://dc.lft.to/lastmile_qr_scan", "android": "https://dc.lft.to/lastmile_qr_scan"}}, {"name": "16840b4664494f997c261d1188807199", "type": "electric_scooter", "lat": 38.92338516666667, "is_reserved": 0, "lon": -77.03385983333334, "fusion_lon": 0.0, "is_disabled": 0, "fusion_lat": 0.0, "bike_id": "16840b4664494f997c261d1188807199", "rental_uris": {"ios": "https://dc.lft.to/lastmile_qr_scan", "android": "https://dc.lft.to/lastmile_qr_scan"}}, {"name": "c3a3542298b9b82e8a212047fc3cfed5", "type": "electric_scooter", "lat": 38.942987333333335, "is_reserved": 0, "lon": -77.02173366666666, "fusion_lon": 0.0, "is_disabled": 0, "fusion_lat": 0.0, "bike_id": "c3a3542298b9b82e8a212047fc3cfed5", "rental_uris": {"ios": "https://dc.lft.to/lastmile_qr_scan", "android": "https://dc.lft.to/lastmile_qr_scan"}}, {"name": "61dc4ce5adb56275d3c9371e40c25461", "type": "electric_scooter", "lat": 38.933947833333335, "is_reserved": 0, "lon": -77.035803, "fusion_lon": 0.0, "is_disabled": 0, "fusion_lat": 0.0, "bike_id": "61dc4ce5adb56275d3c9371e40c25461", "rental_uris": {"ios": "https://dc.lft.to/lastmile_qr_scan", "android": "https://dc.lft.to/lastmile_qr_scan"}}, {"name": "705564563c7e298f6232bb9d98ec2622", "type": "electric_scooter", "lat": 38.918655, "is_reserved": 0, "lon": -77.040299, "fusion_lon": 0.0, "is_disabled": 0, "fusion_lat": 0.0, "bike_id": "705564563c7e298f6232bb9d98ec2622", "rental_uris": {"ios": "https://dc.lft.to/lastmile_qr_scan", "android": "https://dc.lft.to/lastmile_qr_scan"}}, {"name": "61b61b157440d5e6d123d385eca4c7d4", "type": "electric_bike", "lat": 38.89216566666666, "is_reserved": 0, "lon": -77.10777366666667, "fusion_lon": 0.0, "is_disabled": 0, "fusion_lat": 0.0, "bike_id": "61b61b157440d5e6d123d385eca4c7d4", "rental_uris": {"ios": "https://dc.lft.to/lastmile_qr_scan", "android": "https://dc.lft.to/lastmile_qr_scan"}}, {"name": "8e65421e85f2d639e2774cd675cf0c8c", "type": "electric_scooter", "lat": 38.931719666666666, "is_reserved": 0, "lon": -77.03635133333333, "fusion_lon": 0.0, "is_disabled": 0, "fusion_lat": 0.0, "bike_id": "8e65421e85f2d639e2774cd675cf0c8c", "rental_uris": {"ios": "https://dc.lft.to/lastmile_qr_scan", "android": "https://dc.lft.to/lastmile_qr_scan"}}, {"name": "d045033f744c79269ced499578f45142", "type": "electric_scooter", "lat": 38.862091666666664, "is_reserved": 0, "lon": -76.99470333333333, "fusion_lon": 0.0, "is_disabled": 0, "fusion_lat": 0.0, "bike_id": "d045033f744c79269ced499578f45142", "rental_uris": {"ios": "https://dc.lft.to/lastmile_qr_scan", "android": "https://dc.lft.to/lastmile_qr_scan"}}, {"name": "c7854b55efa45dd1b7fa266962345bcb", "type": "electric_scooter", "lat": 38.90729133333333, "is_reserved": 0, "lon": -77.0418295, "fusion_lon": 0.0, "is_disabled": 0, "fusion_lat": 0.0, "bike_id": "c7854b55efa45dd1b7fa266962345bcb", "rental_uris": {"ios": "https://dc.lft.to/lastmile_qr_scan", "android": "https://dc.lft.to/lastmile_qr_scan"}}, {"name": "f6409648e7d25d07d21b9a9d7920d085", "type": "electric_scooter", "lat": 38.92449533333333, "is_reserved": 0, "lon": -77.03274133333333, "fusion_lon": 0.0, "is_disabled": 0, "fusion_lat": 0.0, "bike_id": "f6409648e7d25d07d21b9a9d7920d085", "rental_uris": {"ios": "https://dc.lft.to/lastmile_qr_scan", "android": "https://dc.lft.to/lastmile_qr_scan"}}, {"name": "5c9175c7af27689b73ddc6f5ad922a64", "type": "electric_scooter", "lat": 38.876734666666664, "is_reserved": 0, "lon": -77.0178065, "fusion_lon": 0.0, "is_disabled": 0, "fusion_lat": 0.0, "bike_id": "5c9175c7af27689b73ddc6f5ad922a64", "rental_uris": {"ios": "https://dc.lft.to/lastmile_qr_scan", "android": "https://dc.lft.to/lastmile_qr_scan"}}, {"name": "c0c576bb1739ae5058f4e927b62d494c", "type": "electric_bike", "lat": 38.813126, "is_reserved": 0, "lon": -77.05095566666667, "fusion_lon": 0.0, "is_disabled": 0, "fusion_lat": 0.0, "bike_id": "c0c576bb1739ae5058f4e927b62d494c", "rental_uris": {"ios": "https://dc.lft.to/lastmile_qr_scan", "android": "https://dc.lft.to/lastmile_qr_scan"}}, {"name": "b134630576aa7c26e5f45a2084c6bafe", "type": "electric_scooter", "lat": 38.8997635, "is_reserved": 0, "lon": -77.02154233333333, "fusion_lon": 0.0, "is_disabled": 0, "fusion_lat": 0.0, "bike_id": "b134630576aa7c26e5f45a2084c6bafe", "rental_uris": {"ios": "https://dc.lft.to/lastmile_qr_scan", "android": "https://dc.lft.to/lastmile_qr_scan"}}, {"name": "364c92f777f685a104517ee76d41d65c", "type": "electric_scooter", "lat": 38.910029, "is_reserved": 0, "lon": -77.04005516666666, "fusion_lon": 0.0, "is_disabled": 0, "fusion_lat": 0.0, "bike_id": "364c92f777f685a104517ee76d41d65c", "rental_uris": {"ios": "https://dc.lft.to/lastmile_qr_scan", "android": "https://dc.lft.to/lastmile_qr_scan"}}, {"name": "1baa69019ff54ea7a430447d6106714d", "type": "electric_scooter", "lat": 38.93250916666667, "is_reserved": 0, "lon": -77.03282516666667, "fusion_lon": 0.0, "is_disabled": 0, "fusion_lat": 0.0, "bike_id": "1baa69019ff54ea7a430447d6106714d", "rental_uris": {"ios": "https://dc.lft.to/lastmile_qr_scan", "android": "https://dc.lft.to/lastmile_qr_scan"}}, {"name": "ad40c36d569e07cc44d113149a5d74fa", "type": "electric_scooter", "lat": 38.921518666666664, "is_reserved": 0, "lon": -77.033526, "fusion_lon": 0.0, "is_disabled": 0, "fusion_lat": 0.0, "bike_id": "ad40c36d569e07cc44d113149a5d74fa", "rental_uris": {"ios": "https://dc.lft.to/lastmile_qr_scan", "android": "https://dc.lft.to/lastmile_qr_scan"}}, {"name": "54fbb60dbd5161edd7422c3a85b956e6", "type": "electric_scooter", "lat": 38.8955585, "is_reserved": 0, "lon": -76.950312, "fusion_lon": 0.0, "is_disabled": 0, "fusion_lat": 0.0, "bike_id": "54fbb60dbd5161edd7422c3a85b956e6", "rental_uris": {"ios": "https://dc.lft.to/lastmile_qr_scan", "android": "https://dc.lft.to/lastmile_qr_scan"}}, {"name": "5502a7c88b3532832f00d02c4f5a72c6", "type": "electric_scooter", "lat": 38.90703633333333, "is_reserved": 0, "lon": -77.03209716666667, "fusion_lon": 0.0, "is_disabled": 0, "fusion_lat": 0.0, "bike_id": "5502a7c88b3532832f00d02c4f5a72c6", "rental_uris": {"ios": "https://dc.lft.to/lastmile_qr_scan", "android": "https://dc.lft.to/lastmile_qr_scan"}}, {"name": "9d9c07ee561723182429d70d0eaf25cf", "type": "electric_scooter", "lat": 38.92158716666667, "is_reserved": 0, "lon": -77.038448, "fusion_lon": 0.0, "is_disabled": 0, "fusion_lat": 0.0, "bike_id": "9d9c07ee561723182429d70d0eaf25cf", "rental_uris": {"ios": "https://dc.lft.to/lastmile_qr_scan", "android": "https://dc.lft.to/lastmile_qr_scan"}}, {"name": "eb3fb0476862d62a4ad37c1ccdcc027b", "type": "electric_scooter", "lat": 38.87636, "is_reserved": 0, "lon": -77.00916933333333, "fusion_lon": 0.0, "is_disabled": 0, "fusion_lat": 0.0, "bike_id": "eb3fb0476862d62a4ad37c1ccdcc027b", "rental_uris": {"ios": "https://dc.lft.to/lastmile_qr_scan", "android": "https://dc.lft.to/lastmile_qr_scan"}}, {"name": "b1f20f54a0d452df7c8a3fae54b37f4a", "type": "electric_scooter", "lat": 38.88421366666667, "is_reserved": 0, "lon": -77.015196, "fusion_lon": 0.0, "is_disabled": 0, "fusion_lat": 0.0, "bike_id": "b1f20f54a0d452df7c8a3fae54b37f4a", "rental_uris": {"ios": "https://dc.lft.to/lastmile_qr_scan", "android": "https://dc.lft.to/lastmile_qr_scan"}}, {"name": "77ad67b547d2966101985347769d7309", "type": "electric_scooter", "lat": 38.924420166666664, "is_reserved": 0, "lon": -77.0335425, "fusion_lon": 0.0, "is_disabled": 0, "fusion_lat": 0.0, "bike_id": "77ad67b547d2966101985347769d7309", "rental_uris": {"ios": "https://dc.lft.to/lastmile_qr_scan", "android": "https://dc.lft.to/lastmile_qr_scan"}}, {"name": "ba35edd709ee84bf6a5dcf1b186edbe5", "type": "electric_scooter", "lat": 38.90573916666666, "is_reserved": 0, "lon": -77.0486305, "fusion_lon": 0.0, "is_disabled": 0, "fusion_lat": 0.0, "bike_id": "ba35edd709ee84bf6a5dcf1b186edbe5", "rental_uris": {"ios": "https://dc.lft.to/lastmile_qr_scan", "android": "https://dc.lft.to/lastmile_qr_scan"}}, {"name": "ca9423b2b439cd2c95aeaf7ce799652f", "type": "electric_bike", "lat": 38.99090133333333, "is_reserved": 0, "lon": -76.87495683333333, "fusion_lon": 0.0, "is_disabled": 0, "fusion_lat": 0.0, "bike_id": "ca9423b2b439cd2c95aeaf7ce799652f", "rental_uris": {"ios": "https://dc.lft.to/lastmile_qr_scan", "android": "https://dc.lft.to/lastmile_qr_scan"}}, {"name": "6fe76f94354552ffcb8a7c05408c36fe", "type": "electric_scooter", "lat": 38.900013333333334, "is_reserved": 0, "lon": -77.01137116666666, "fusion_lon": 0.0, "is_disabled": 0, "fusion_lat": 0.0, "bike_id": "6fe76f94354552ffcb8a7c05408c36fe", "rental_uris": {"ios": "https://dc.lft.to/lastmile_qr_scan", "android": "https://dc.lft.to/lastmile_qr_scan"}}, {"name": "65b5ec739b091ffec5750ba8fbbc38e6", "type": "electric_bike", "lat": 38.828712333333335, "is_reserved": 0, "lon": -77.11225566666667, "fusion_lon": 0.0, "is_disabled": 0, "fusion_lat": 0.0, "bike_id": "65b5ec739b091ffec5750ba8fbbc38e6", "rental_uris": {"ios": "https://dc.lft.to/lastmile_qr_scan", "android": "https://dc.lft.to/lastmile_qr_scan"}}, {"name": "884239df32178e3eb4ab28de30cfc237", "type": "electric_scooter", "lat": 38.89231183333333, "is_reserved": 0, "lon": -77.022076, "fusion_lon": 0.0, "is_disabled": 0, "fusion_lat": 0.0, "bike_id": "884239df32178e3eb4ab28de30cfc237", "rental_uris": {"ios": "https://dc.lft.to/lastmile_qr_scan", "android": "https://dc.lft.to/lastmile_qr_scan"}}, {"name": "ea03ac3ea54cb2ce484e192970d40541", "type": "electric_scooter", "lat": 38.91716483333333, "is_reserved": 0, "lon": -77.03862016666666, "fusion_lon": 0.0, "is_disabled": 0, "fusion_lat": 0.0, "bike_id": "ea03ac3ea54cb2ce484e192970d40541", "rental_uris": {"ios": "https://dc.lft.to/lastmile_qr_scan", "android": "https://dc.lft.to/lastmile_qr_scan"}}, {"name": "b7ec3a537a772e140aa323ff2cc9668f", "type": "electric_scooter", "lat": 38.905412166666665, "is_reserved": 0, "lon": -77.05935033333333, "fusion_lon": 0.0, "is_disabled": 0, "fusion_lat": 0.0, "bike_id": "b7ec3a537a772e140aa323ff2cc9668f", "rental_uris": {"ios": "https://dc.lft.to/lastmile_qr_scan", "android": "https://dc.lft.to/lastmile_qr_scan"}}, {"name": "336b5bd558a4fdd929389def3b88f596", "type": "electric_bike", "lat": 38.950736666666664, "is_reserved": 0, "lon": -77.01206583333334, "fusion_lon": 0.0, "is_disabled": 0, "fusion_lat": 0.0, "bike_id": "336b5bd558a4fdd929389def3b88f596", "rental_uris": {"ios": "https://dc.lft.to/lastmile_qr_scan", "android": "https://dc.lft.to/lastmile_qr_scan"}}, {"name": "72acdfdb4a83e99772f068fbfec5994a", "type": "electric_scooter", "lat": 38.90043283333333, "is_reserved": 0, "lon": -77.002086, "fusion_lon": 0.0, "is_disabled": 0, "fusion_lat": 0.0, "bike_id": "72acdfdb4a83e99772f068fbfec5994a", "rental_uris": {"ios": "https://dc.lft.to/lastmile_qr_scan", "android": "https://dc.lft.to/lastmile_qr_scan"}}, {"name": "6c438cfe5ad9b0754c56657caaf02a5f", "type": "electric_scooter", "lat": 38.937127, "is_reserved": 0, "lon": -77.02936833333334, "fusion_lon": 0.0, "is_disabled": 0, "fusion_lat": 0.0, "bike_id": "6c438cfe5ad9b0754c56657caaf02a5f", "rental_uris": {"ios": "https://dc.lft.to/lastmile_qr_scan", "android": "https://dc.lft.to/lastmile_qr_scan"}}, {"name": "692156500b85a2dab0d8a2abe927cf42", "type": "electric_scooter", "lat": 38.8851265, "is_reserved": 0, "lon": -77.00570333333333, "fusion_lon": 0.0, "is_disabled": 0, "fusion_lat": 0.0, "bike_id": "692156500b85a2dab0d8a2abe927cf42", "rental_uris": {"ios": "https://dc.lft.to/lastmile_qr_scan", "android": "https://dc.lft.to/lastmile_qr_scan"}}, {"name": "7f8a83e3246c3b4cce973dbdad11a0e2", "type": "electric_scooter", "lat": 38.9038875, "is_reserved": 0, "lon": -77.00580766666667, "fusion_lon": 0.0, "is_disabled": 0, "fusion_lat": 0.0, "bike_id": "7f8a83e3246c3b4cce973dbdad11a0e2", "rental_uris": {"ios": "https://dc.lft.to/lastmile_qr_scan", "android": "https://dc.lft.to/lastmile_qr_scan"}}, {"name": "75920074df73a5e4708f2855b5aeab3c", "type": "electric_scooter", "lat": 38.892214333333335, "is_reserved": 0, "lon": -77.03092966666667, "fusion_lon": 0.0, "is_disabled": 0, "fusion_lat": 0.0, "bike_id": "75920074df73a5e4708f2855b5aeab3c", "rental_uris": {"ios": "https://dc.lft.to/lastmile_qr_scan", "android": "https://dc.lft.to/lastmile_qr_scan"}}, {"name": "c83b4653bb9eede0601f82cde3d6464d", "type": "electric_scooter", "lat": 38.9037905, "is_reserved": 0, "lon": -77.0097845, "fusion_lon": 0.0, "is_disabled": 0, "fusion_lat": 0.0, "bike_id": "c83b4653bb9eede0601f82cde3d6464d", "rental_uris": {"ios": "https://dc.lft.to/lastmile_qr_scan", "android": "https://dc.lft.to/lastmile_qr_scan"}}, {"name": "bd68b5c64e45f8f93cd321f5b4d2e612", "type": "electric_scooter", "lat": 38.89941116666667, "is_reserved": 0, "lon": -76.98007166666666, "fusion_lon": 0.0, "is_disabled": 0, "fusion_lat": 0.0, "bike_id": "bd68b5c64e45f8f93cd321f5b4d2e612", "rental_uris": {"ios": "https://dc.lft.to/lastmile_qr_scan", "android": "https://dc.lft.to/lastmile_qr_scan"}}, {"name": "e369875211452cd5b5d056fe52ca534f", "type": "electric_scooter", "lat": 38.9343055, "is_reserved": 0, "lon": -77.03997516666666, "fusion_lon": 0.0, "is_disabled": 0, "fusion_lat": 0.0, "bike_id": "e369875211452cd5b5d056fe52ca534f", "rental_uris": {"ios": "https://dc.lft.to/lastmile_qr_scan", "android": "https://dc.lft.to/lastmile_qr_scan"}}, {"name": "48813dbe01b2360df0a76cc2304dcda2", "type": "electric_scooter", "lat": 38.905586, "is_reserved": 0, "lon": -77.03464666666666, "fusion_lon": 0.0, "is_disabled": 0, "fusion_lat": 0.0, "bike_id": "48813dbe01b2360df0a76cc2304dcda2", "rental_uris": {"ios": "https://dc.lft.to/lastmile_qr_scan", "android": "https://dc.lft.to/lastmile_qr_scan"}}, {"name": "fd340d70b404940a0446290a85d8f37a", "type": "electric_scooter", "lat": 38.90786833333333, "is_reserved": 0, "lon": -77.04875683333333, "fusion_lon": 0.0, "is_disabled": 0, "fusion_lat": 0.0, "bike_id": "fd340d70b404940a0446290a85d8f37a", "rental_uris": {"ios": "https://dc.lft.to/lastmile_qr_scan", "android": "https://dc.lft.to/lastmile_qr_scan"}}, {"name": "0efd690dfdc127c28ee23c549266df00", "type": "electric_bike", "lat": 38.8840025, "is_reserved": 0, "lon": -76.96064733333333, "fusion_lon": 0.0, "is_disabled": 0, "fusion_lat": 0.0, "bike_id": "0efd690dfdc127c28ee23c549266df00", "rental_uris": {"ios": "https://dc.lft.to/lastmile_qr_scan", "android": "https://dc.lft.to/lastmile_qr_scan"}}, {"name": "a01d817b36a82453a0b657fb6a7655ed", "type": "electric_scooter", "lat": 38.90494133333333, "is_reserved": 0, "lon": -77.02967566666666, "fusion_lon": 0.0, "is_disabled": 0, "fusion_lat": 0.0, "bike_id": "a01d817b36a82453a0b657fb6a7655ed", "rental_uris": {"ios": "https://dc.lft.to/lastmile_qr_scan", "android": "https://dc.lft.to/lastmile_qr_scan"}}, {"name": "72ef17089e8d4218b3ce33832ddcac6f", "type": "electric_bike", "lat": 38.83141366666667, "is_reserved": 0, "lon": -77.11306916666666, "fusion_lon": 0.0, "is_disabled": 0, "fusion_lat": 0.0, "bike_id": "72ef17089e8d4218b3ce33832ddcac6f", "rental_uris": {"ios": "https://dc.lft.to/lastmile_qr_scan", "android": "https://dc.lft.to/lastmile_qr_scan"}}, {"name": "043d526b5d783e32aee6bd468f70042a", "type": "electric_scooter", "lat": 38.93967933333333, "is_reserved": 0, "lon": -77.03256, "fusion_lon": 0.0, "is_disabled": 0, "fusion_lat": 0.0, "bike_id": "043d526b5d783e32aee6bd468f70042a", "rental_uris": {"ios": "https://dc.lft.to/lastmile_qr_scan", "android": "https://dc.lft.to/lastmile_qr_scan"}}, {"name": "98e4062dcbafe46a0b383fff7fcbb6d0", "type": "electric_scooter", "lat": 38.89479983333333, "is_reserved": 0, "lon": -76.9487155, "fusion_lon": 0.0, "is_disabled": 0, "fusion_lat": 0.0, "bike_id": "98e4062dcbafe46a0b383fff7fcbb6d0", "rental_uris": {"ios": "https://dc.lft.to/lastmile_qr_scan", "android": "https://dc.lft.to/lastmile_qr_scan"}}, {"name": "025d227842c84e3f024530e2bec34e7e", "type": "electric_scooter", "lat": 38.93691883333334, "is_reserved": 0, "lon": -77.02401633333334, "fusion_lon": 0.0, "is_disabled": 0, "fusion_lat": 0.0, "bike_id": "025d227842c84e3f024530e2bec34e7e", "rental_uris": {"ios": "https://dc.lft.to/lastmile_qr_scan", "android": "https://dc.lft.to/lastmile_qr_scan"}}, {"name": "5c53464500a3f443251e1c09993f6cbb", "type": "electric_scooter", "lat": 38.922747, "is_reserved": 0, "lon": -77.03665416666666, "fusion_lon": 0.0, "is_disabled": 0, "fusion_lat": 0.0, "bike_id": "5c53464500a3f443251e1c09993f6cbb", "rental_uris": {"ios": "https://dc.lft.to/lastmile_qr_scan", "android": "https://dc.lft.to/lastmile_qr_scan"}}, {"name": "ef66c306d577066df3c8d6924a86546d", "type": "electric_scooter", "lat": 38.914215, "is_reserved": 0, "lon": -77.046442, "fusion_lon": 0.0, "is_disabled": 0, "fusion_lat": 0.0, "bike_id": "ef66c306d577066df3c8d6924a86546d", "rental_uris": {"ios": "https://dc.lft.to/lastmile_qr_scan", "android": "https://dc.lft.to/lastmile_qr_scan"}}, {"name": "6b09c0eaae4da262e665eb86ee5068f8", "type": "electric_scooter", "lat": 38.906234166666664, "is_reserved": 0, "lon": -76.983142, "fusion_lon": 0.0, "is_disabled": 0, "fusion_lat": 0.0, "bike_id": "6b09c0eaae4da262e665eb86ee5068f8", "rental_uris": {"ios": "https://dc.lft.to/lastmile_qr_scan", "android": "https://dc.lft.to/lastmile_qr_scan"}}, {"name": "3fe0e13b7e318c9b1a761d5b1171efae", "type": "electric_bike", "lat": 38.936906666666665, "is_reserved": 0, "lon": -77.05649316666667, "fusion_lon": 0.0, "is_disabled": 0, "fusion_lat": 0.0, "bike_id": "3fe0e13b7e318c9b1a761d5b1171efae", "rental_uris": {"ios": "https://dc.lft.to/lastmile_qr_scan", "android": "https://dc.lft.to/lastmile_qr_scan"}}, {"name": "b5cc307c74e758363d1a8474742fd518", "type": "electric_scooter", "lat": 38.8609285, "is_reserved": 0, "lon": -76.98378466666666, "fusion_lon": 0.0, "is_disabled": 0, "fusion_lat": 0.0, "bike_id": "b5cc307c74e758363d1a8474742fd518", "rental_uris": {"ios": "https://dc.lft.to/lastmile_qr_scan", "android": "https://dc.lft.to/lastmile_qr_scan"}}, {"name": "347f4a658ef2c898dc70a0a235a0c736", "type": "electric_scooter", "lat": 38.902434166666666, "is_reserved": 0, "lon": -77.0020335, "fusion_lon": 0.0, "is_disabled": 0, "fusion_lat": 0.0, "bike_id": "347f4a658ef2c898dc70a0a235a0c736", "rental_uris": {"ios": "https://dc.lft.to/lastmile_qr_scan", "android": "https://dc.lft.to/lastmile_qr_scan"}}, {"name": "10d9d0d619843f1a95535eaafd18bd58", "type": "electric_scooter", "lat": 38.89099916666667, "is_reserved": 0, "lon": -76.98705216666667, "fusion_lon": 0.0, "is_disabled": 0, "fusion_lat": 0.0, "bike_id": "10d9d0d619843f1a95535eaafd18bd58", "rental_uris": {"ios": "https://dc.lft.to/lastmile_qr_scan", "android": "https://dc.lft.to/lastmile_qr_scan"}}, {"name": "29d29b7da68b86b6f0c0179fded13945", "type": "electric_bike", "lat": 38.937017166666664, "is_reserved": 0, "lon": -77.02977516666667, "fusion_lon": 0.0, "is_disabled": 0, "fusion_lat": 0.0, "bike_id": "29d29b7da68b86b6f0c0179fded13945", "rental_uris": {"ios": "https://dc.lft.to/lastmile_qr_scan", "android": "https://dc.lft.to/lastmile_qr_scan"}}, {"name": "24013cf2439fdd078dfb39e96165137a", "type": "electric_bike", "lat": 38.8708445, "is_reserved": 0, "lon": -77.0121935, "fusion_lon": 0.0, "is_disabled": 0, "fusion_lat": 0.0, "bike_id": "24013cf2439fdd078dfb39e96165137a", "rental_uris": {"ios": "https://dc.lft.to/lastmile_qr_scan", "android": "https://dc.lft.to/lastmile_qr_scan"}}, {"name": "d212ee474f6c1dde394da420e87eaa6c", "type": "electric_scooter", "lat": 38.91108716666667, "is_reserved": 0, "lon": -77.0422965, "fusion_lon": 0.0, "is_disabled": 0, "fusion_lat": 0.0, "bike_id": "d212ee474f6c1dde394da420e87eaa6c", "rental_uris": {"ios": "https://dc.lft.to/lastmile_qr_scan", "android": "https://dc.lft.to/lastmile_qr_scan"}}, {"name": "45d33025c77b590229dbfba13484fa63", "type": "electric_scooter", "lat": 38.90337783333333, "is_reserved": 0, "lon": -77.02515933333333, "fusion_lon": 0.0, "is_disabled": 0, "fusion_lat": 0.0, "bike_id": "45d33025c77b590229dbfba13484fa63", "rental_uris": {"ios": "https://dc.lft.to/lastmile_qr_scan", "android": "https://dc.lft.to/lastmile_qr_scan"}}, {"name": "6905e875ec418af949d7c82cc36b4e85", "type": "electric_scooter", "lat": 38.929004, "is_reserved": 0, "lon": -77.025053, "fusion_lon": 0.0, "is_disabled": 0, "fusion_lat": 0.0, "bike_id": "6905e875ec418af949d7c82cc36b4e85", "rental_uris": {"ios": "https://dc.lft.to/lastmile_qr_scan", "android": "https://dc.lft.to/lastmile_qr_scan"}}, {"name": "58c3fd1ea74a11771e86d5bc55a25cf8", "type": "electric_bike", "lat": 38.922876, "is_reserved": 0, "lon": -77.03663533333334, "fusion_lon": 0.0, "is_disabled": 0, "fusion_lat": 0.0, "bike_id": "58c3fd1ea74a11771e86d5bc55a25cf8", "rental_uris": {"ios": "https://dc.lft.to/lastmile_qr_scan", "android": "https://dc.lft.to/lastmile_qr_scan"}}, {"name": "6c14123f1523a78ae4fad1abd3670b43", "type": "electric_scooter", "lat": 38.92058016666667, "is_reserved": 0, "lon": -77.03399683333333, "fusion_lon": 0.0, "is_disabled": 0, "fusion_lat": 0.0, "bike_id": "6c14123f1523a78ae4fad1abd3670b43", "rental_uris": {"ios": "https://dc.lft.to/lastmile_qr_scan", "android": "https://dc.lft.to/lastmile_qr_scan"}}, {"name": "e43ee8a8139e3225be6a42e4d5eb17d4", "type": "electric_scooter", "lat": 38.93632866666667, "is_reserved": 0, "lon": -77.03663316666666, "fusion_lon": 0.0, "is_disabled": 0, "fusion_lat": 0.0, "bike_id": "e43ee8a8139e3225be6a42e4d5eb17d4", "rental_uris": {"ios": "https://dc.lft.to/lastmile_qr_scan", "android": "https://dc.lft.to/lastmile_qr_scan"}}, {"name": "3a38d86ca42e6f4238fa7380b2205780", "type": "electric_scooter", "lat": 38.900218, "is_reserved": 0, "lon": -77.01172433333333, "fusion_lon": 0.0, "is_disabled": 0, "fusion_lat": 0.0, "bike_id": "3a38d86ca42e6f4238fa7380b2205780", "rental_uris": {"ios": "https://dc.lft.to/lastmile_qr_scan", "android": "https://dc.lft.to/lastmile_qr_scan"}}, {"name": "7f2d7ec1865a06938ab8eb86adc80bce", "type": "electric_scooter", "lat": 38.877334833333336, "is_reserved": 0, "lon": -76.97283816666666, "fusion_lon": 0.0, "is_disabled": 0, "fusion_lat": 0.0, "bike_id": "7f2d7ec1865a06938ab8eb86adc80bce", "rental_uris": {"ios": "https://dc.lft.to/lastmile_qr_scan", "android": "https://dc.lft.to/lastmile_qr_scan"}}, {"name": "e402ff0249ecec5331f5b05d6ebc1357", "type": "electric_scooter", "lat": 38.948371, "is_reserved": 0, "lon": -77.02553416666667, "fusion_lon": 0.0, "is_disabled": 0, "fusion_lat": 0.0, "bike_id": "e402ff0249ecec5331f5b05d6ebc1357", "rental_uris": {"ios": "https://dc.lft.to/lastmile_qr_scan", "android": "https://dc.lft.to/lastmile_qr_scan"}}, {"name": "c763393ecb7136ad3420ee57eb96c8d5", "type": "electric_scooter", "lat": 38.86202933333333, "is_reserved": 0, "lon": -76.99464, "fusion_lon": 0.0, "is_disabled": 0, "fusion_lat": 0.0, "bike_id": "c763393ecb7136ad3420ee57eb96c8d5", "rental_uris": {"ios": "https://dc.lft.to/lastmile_qr_scan", "android": "https://dc.lft.to/lastmile_qr_scan"}}, {"name": "e53555a5e0b96c5869a4353d045467bf", "type": "electric_scooter", "lat": 38.91110966666667, "is_reserved": 0, "lon": -77.04227633333333, "fusion_lon": 0.0, "is_disabled": 0, "fusion_lat": 0.0, "bike_id": "e53555a5e0b96c5869a4353d045467bf", "rental_uris": {"ios": "https://dc.lft.to/lastmile_qr_scan", "android": "https://dc.lft.to/lastmile_qr_scan"}}, {"name": "efd88ff247c0ea4e70623496959c1e80", "type": "electric_scooter", "lat": 38.932501, "is_reserved": 0, "lon": -77.0328195, "fusion_lon": 0.0, "is_disabled": 0, "fusion_lat": 0.0, "bike_id": "efd88ff247c0ea4e70623496959c1e80", "rental_uris": {"ios": "https://dc.lft.to/lastmile_qr_scan", "android": "https://dc.lft.to/lastmile_qr_scan"}}, {"name": "d1b19861e81bc6688f1179f53808ee6e", "type": "electric_scooter", "lat": 38.934967, "is_reserved": 0, "lon": -77.02722283333334, "fusion_lon": 0.0, "is_disabled": 0, "fusion_lat": 0.0, "bike_id": "d1b19861e81bc6688f1179f53808ee6e", "rental_uris": {"ios": "https://dc.lft.to/lastmile_qr_scan", "android": "https://dc.lft.to/lastmile_qr_scan"}}, {"name": "8a616d03c0df1704ff362165ffae797d", "type": "electric_scooter", "lat": 38.898759166666665, "is_reserved": 0, "lon": -76.9315525, "fusion_lon": 0.0, "is_disabled": 0, "fusion_lat": 0.0, "bike_id": "8a616d03c0df1704ff362165ffae797d", "rental_uris": {"ios": "https://dc.lft.to/lastmile_qr_scan", "android": "https://dc.lft.to/lastmile_qr_scan"}}, {"name": "27807c9227be7b332c85a433dd79ea92", "type": "electric_scooter", "lat": 38.94397333333333, "is_reserved": 0, "lon": -77.03893316666667, "fusion_lon": 0.0, "is_disabled": 0, "fusion_lat": 0.0, "bike_id": "27807c9227be7b332c85a433dd79ea92", "rental_uris": {"ios": "https://dc.lft.to/lastmile_qr_scan", "android": "https://dc.lft.to/lastmile_qr_scan"}}, {"name": "c535482b7d3fc155b8cad017bccf9302", "type": "electric_scooter", "lat": 38.91906066666667, "is_reserved": 0, "lon": -77.04188633333334, "fusion_lon": 0.0, "is_disabled": 0, "fusion_lat": 0.0, "bike_id": "c535482b7d3fc155b8cad017bccf9302", "rental_uris": {"ios": "https://dc.lft.to/lastmile_qr_scan", "android": "https://dc.lft.to/lastmile_qr_scan"}}, {"name": "f80f3eed0bf2fbb8efafbfc722b67088", "type": "electric_scooter", "lat": 38.92751533333333, "is_reserved": 0, "lon": -77.02420033333334, "fusion_lon": 0.0, "is_disabled": 0, "fusion_lat": 0.0, "bike_id": "f80f3eed0bf2fbb8efafbfc722b67088", "rental_uris": {"ios": "https://dc.lft.to/lastmile_qr_scan", "android": "https://dc.lft.to/lastmile_qr_scan"}}, {"name": "e885d88ad9ca1efbef0afc29ed5927c2", "type": "electric_scooter", "lat": 38.91738216666667, "is_reserved": 0, "lon": -77.0102145, "fusion_lon": 0.0, "is_disabled": 0, "fusion_lat": 0.0, "bike_id": "e885d88ad9ca1efbef0afc29ed5927c2", "rental_uris": {"ios": "https://dc.lft.to/lastmile_qr_scan", "android": "https://dc.lft.to/lastmile_qr_scan"}}, {"name": "84dc859cd082dc554fe4ab006a149751", "type": "electric_scooter", "lat": 38.905637666666664, "is_reserved": 0, "lon": -77.02814416666666, "fusion_lon": 0.0, "is_disabled": 0, "fusion_lat": 0.0, "bike_id": "84dc859cd082dc554fe4ab006a149751", "rental_uris": {"ios": "https://dc.lft.to/lastmile_qr_scan", "android": "https://dc.lft.to/lastmile_qr_scan"}}, {"name": "24215c6c740aae9df4ac8cde44ba158b", "type": "electric_scooter", "lat": 38.9244125, "is_reserved": 0, "lon": -76.99329416666667, "fusion_lon": 0.0, "is_disabled": 0, "fusion_lat": 0.0, "bike_id": "24215c6c740aae9df4ac8cde44ba158b", "rental_uris": {"ios": "https://dc.lft.to/lastmile_qr_scan", "android": "https://dc.lft.to/lastmile_qr_scan"}}, {"name": "422de2946dadd638efad7d8704960407", "type": "electric_scooter", "lat": 38.91552466666667, "is_reserved": 0, "lon": -77.04617283333333, "fusion_lon": 0.0, "is_disabled": 0, "fusion_lat": 0.0, "bike_id": "422de2946dadd638efad7d8704960407", "rental_uris": {"ios": "https://dc.lft.to/lastmile_qr_scan", "android": "https://dc.lft.to/lastmile_qr_scan"}}, {"name": "48391ac9822a60e73ab3683a4e127ebf", "type": "electric_bike", "lat": 38.96123633333333, "is_reserved": 0, "lon": -77.032724, "fusion_lon": 0.0, "is_disabled": 0, "fusion_lat": 0.0, "bike_id": "48391ac9822a60e73ab3683a4e127ebf", "rental_uris": {"ios": "https://dc.lft.to/lastmile_qr_scan", "android": "https://dc.lft.to/lastmile_qr_scan"}}, {"name": "f30fe11f8f02ff8e615d28e5233ad6f3", "type": "electric_scooter", "lat": 38.90890983333333, "is_reserved": 0, "lon": -77.00571933333333, "fusion_lon": 0.0, "is_disabled": 0, "fusion_lat": 0.0, "bike_id": "f30fe11f8f02ff8e615d28e5233ad6f3", "rental_uris": {"ios": "https://dc.lft.to/lastmile_qr_scan", "android": "https://dc.lft.to/lastmile_qr_scan"}}, {"name": "7e3aa991ac2e429e94fb88ba80f161c4", "type": "electric_scooter", "lat": 38.912615333333335, "is_reserved": 0, "lon": -77.03321183333334, "fusion_lon": 0.0, "is_disabled": 0, "fusion_lat": 0.0, "bike_id": "7e3aa991ac2e429e94fb88ba80f161c4", "rental_uris": {"ios": "https://dc.lft.to/lastmile_qr_scan", "android": "https://dc.lft.to/lastmile_qr_scan"}}, {"name": "b7af6263013205a193a253ac6c69a8dd", "type": "electric_scooter", "lat": 38.89608533333333, "is_reserved": 0, "lon": -77.028451, "fusion_lon": 0.0, "is_disabled": 0, "fusion_lat": 0.0, "bike_id": "b7af6263013205a193a253ac6c69a8dd", "rental_uris": {"ios": "https://dc.lft.to/lastmile_qr_scan", "android": "https://dc.lft.to/lastmile_qr_scan"}}, {"name": "3f2156d83a753b9d061e65f47dd72227", "type": "electric_scooter", "lat": 38.9123765, "is_reserved": 0, "lon": -77.00112216666666, "fusion_lon": 0.0, "is_disabled": 0, "fusion_lat": 0.0, "bike_id": "3f2156d83a753b9d061e65f47dd72227", "rental_uris": {"ios": "https://dc.lft.to/lastmile_qr_scan", "android": "https://dc.lft.to/lastmile_qr_scan"}}, {"name": "6acbbc6d32999730d39fcf0e353076ac", "type": "electric_scooter", "lat": 38.90642783333333, "is_reserved": 0, "lon": -77.01140516666666, "fusion_lon": 0.0, "is_disabled": 0, "fusion_lat": 0.0, "bike_id": "6acbbc6d32999730d39fcf0e353076ac", "rental_uris": {"ios": "https://dc.lft.to/lastmile_qr_scan", "android": "https://dc.lft.to/lastmile_qr_scan"}}, {"name": "d4ba34a81583bff2a921546ab6ed0696", "type": "electric_scooter", "lat": 38.902407833333335, "is_reserved": 0, "lon": -77.0320335, "fusion_lon": 0.0, "is_disabled": 0, "fusion_lat": 0.0, "bike_id": "d4ba34a81583bff2a921546ab6ed0696", "rental_uris": {"ios": "https://dc.lft.to/lastmile_qr_scan", "android": "https://dc.lft.to/lastmile_qr_scan"}}, {"name": "cbceb0e5a0bf58b5d87439ea9fcf8969", "type": "electric_bike", "lat": 38.86370433333333, "is_reserved": 0, "lon": -76.9700535, "fusion_lon": 0.0, "is_disabled": 0, "fusion_lat": 0.0, "bike_id": "cbceb0e5a0bf58b5d87439ea9fcf8969", "rental_uris": {"ios": "https://dc.lft.to/lastmile_qr_scan", "android": "https://dc.lft.to/lastmile_qr_scan"}}, {"name": "962274ecaee9f4ab983876c63eff726d", "type": "electric_scooter", "lat": 38.908555166666666, "is_reserved": 0, "lon": -77.0443105, "fusion_lon": 0.0, "is_disabled": 0, "fusion_lat": 0.0, "bike_id": "962274ecaee9f4ab983876c63eff726d", "rental_uris": {"ios": "https://dc.lft.to/lastmile_qr_scan", "android": "https://dc.lft.to/lastmile_qr_scan"}}, {"name": "67ed548080b266e606231bce68676c9f", "type": "electric_scooter", "lat": 38.89223833333333, "is_reserved": 0, "lon": -77.04266766666667, "fusion_lon": 0.0, "is_disabled": 0, "fusion_lat": 0.0, "bike_id": "67ed548080b266e606231bce68676c9f", "rental_uris": {"ios": "https://dc.lft.to/lastmile_qr_scan", "android": "https://dc.lft.to/lastmile_qr_scan"}}, {"name": "648bb4f92de4592ed9219e1b65c1d941", "type": "electric_bike", "lat": 38.86907983333333, "is_reserved": 0, "lon": -77.13179533333333, "fusion_lon": 0.0, "is_disabled": 0, "fusion_lat": 0.0, "bike_id": "648bb4f92de4592ed9219e1b65c1d941", "rental_uris": {"ios": "https://dc.lft.to/lastmile_qr_scan", "android": "https://dc.lft.to/lastmile_qr_scan"}}, {"name": "5bacb51a2755b313b9e8060d3e4c645f", "type": "electric_scooter", "lat": 38.922436166666664, "is_reserved": 0, "lon": -77.01008366666667, "fusion_lon": 0.0, "is_disabled": 0, "fusion_lat": 0.0, "bike_id": "5bacb51a2755b313b9e8060d3e4c645f", "rental_uris": {"ios": "https://dc.lft.to/lastmile_qr_scan", "android": "https://dc.lft.to/lastmile_qr_scan"}}, {"name": "a35f97ec873cb7d787d645f4c564b58a", "type": "electric_scooter", "lat": 38.906532166666665, "is_reserved": 0, "lon": -77.03855616666667, "fusion_lon": 0.0, "is_disabled": 0, "fusion_lat": 0.0, "bike_id": "a35f97ec873cb7d787d645f4c564b58a", "rental_uris": {"ios": "https://dc.lft.to/lastmile_qr_scan", "android": "https://dc.lft.to/lastmile_qr_scan"}}, {"name": "1d92fcadbf31400826fa01df7f1358cc", "type": "electric_scooter", "lat": 38.906475, "is_reserved": 0, "lon": -76.98574433333333, "fusion_lon": 0.0, "is_disabled": 0, "fusion_lat": 0.0, "bike_id": "1d92fcadbf31400826fa01df7f1358cc", "rental_uris": {"ios": "https://dc.lft.to/lastmile_qr_scan", "android": "https://dc.lft.to/lastmile_qr_scan"}}, {"name": "925cb977712a56051bc196bb39a969d9", "type": "electric_scooter", "lat": 38.93255283333333, "is_reserved": 0, "lon": -77.03280866666667, "fusion_lon": 0.0, "is_disabled": 0, "fusion_lat": 0.0, "bike_id": "925cb977712a56051bc196bb39a969d9", "rental_uris": {"ios": "https://dc.lft.to/lastmile_qr_scan", "android": "https://dc.lft.to/lastmile_qr_scan"}}, {"name": "2226932d16cbf981d9ec43c7555518d1", "type": "electric_scooter", "lat": 38.92724183333333, "is_reserved": 0, "lon": -77.030807, "fusion_lon": 0.0, "is_disabled": 0, "fusion_lat": 0.0, "bike_id": "2226932d16cbf981d9ec43c7555518d1", "rental_uris": {"ios": "https://dc.lft.to/lastmile_qr_scan", "android": "https://dc.lft.to/lastmile_qr_scan"}}, {"name": "0497d174d72842dc946a316bd85804bb", "type": "electric_scooter", "lat": 38.921861666666665, "is_reserved": 0, "lon": -77.04022316666666, "fusion_lon": 0.0, "is_disabled": 0, "fusion_lat": 0.0, "bike_id": "0497d174d72842dc946a316bd85804bb", "rental_uris": {"ios": "https://dc.lft.to/lastmile_qr_scan", "android": "https://dc.lft.to/lastmile_qr_scan"}}, {"name": "e5e34cf16478dc53f2042e66b32a8c81", "type": "electric_scooter", "lat": 38.91822066666667, "is_reserved": 0, "lon": -77.03453666666667, "fusion_lon": 0.0, "is_disabled": 0, "fusion_lat": 0.0, "bike_id": "e5e34cf16478dc53f2042e66b32a8c81", "rental_uris": {"ios": "https://dc.lft.to/lastmile_qr_scan", "android": "https://dc.lft.to/lastmile_qr_scan"}}, {"name": "91e000df67ba270c8016e6a9ee0e1692", "type": "electric_scooter", "lat": 38.911094166666665, "is_reserved": 0, "lon": -77.036259, "fusion_lon": 0.0, "is_disabled": 0, "fusion_lat": 0.0, "bike_id": "91e000df67ba270c8016e6a9ee0e1692", "rental_uris": {"ios": "https://dc.lft.to/lastmile_qr_scan", "android": "https://dc.lft.to/lastmile_qr_scan"}}, {"name": "7b40fdc88fd233e6a0f024e57990c5e1", "type": "electric_scooter", "lat": 38.902750166666664, "is_reserved": 0, "lon": -77.059144, "fusion_lon": 0.0, "is_disabled": 0, "fusion_lat": 0.0, "bike_id": "7b40fdc88fd233e6a0f024e57990c5e1", "rental_uris": {"ios": "https://dc.lft.to/lastmile_qr_scan", "android": "https://dc.lft.to/lastmile_qr_scan"}}, {"name": "313689a09910ff951b263cc746dd764d", "type": "electric_scooter", "lat": 38.90683816666667, "is_reserved": 0, "lon": -77.013423, "fusion_lon": 0.0, "is_disabled": 0, "fusion_lat": 0.0, "bike_id": "313689a09910ff951b263cc746dd764d", "rental_uris": {"ios": "https://dc.lft.to/lastmile_qr_scan", "android": "https://dc.lft.to/lastmile_qr_scan"}}, {"name": "3387663aa65678f03eacdd66ae5bde67", "type": "electric_scooter", "lat": 38.91545833333333, "is_reserved": 0, "lon": -77.0385485, "fusion_lon": 0.0, "is_disabled": 0, "fusion_lat": 0.0, "bike_id": "3387663aa65678f03eacdd66ae5bde67", "rental_uris": {"ios": "https://dc.lft.to/lastmile_qr_scan", "android": "https://dc.lft.to/lastmile_qr_scan"}}, {"name": "0ca6e7cc2a28fb84a68b81bdb964b621", "type": "electric_scooter", "lat": 38.93255033333333, "is_reserved": 0, "lon": -77.03278816666666, "fusion_lon": 0.0, "is_disabled": 0, "fusion_lat": 0.0, "bike_id": "0ca6e7cc2a28fb84a68b81bdb964b621", "rental_uris": {"ios": "https://dc.lft.to/lastmile_qr_scan", "android": "https://dc.lft.to/lastmile_qr_scan"}}, {"name": "3b3401ab9703e9818da3c6531dfa1a8b", "type": "electric_scooter", "lat": 38.921199666666666, "is_reserved": 0, "lon": -77.03656833333334, "fusion_lon": 0.0, "is_disabled": 0, "fusion_lat": 0.0, "bike_id": "3b3401ab9703e9818da3c6531dfa1a8b", "rental_uris": {"ios": "https://dc.lft.to/lastmile_qr_scan", "android": "https://dc.lft.to/lastmile_qr_scan"}}, {"name": "ca0734944a73651453a27155851170fe", "type": "electric_scooter", "lat": 38.883730166666666, "is_reserved": 0, "lon": -76.92374333333333, "fusion_lon": 0.0, "is_disabled": 0, "fusion_lat": 0.0, "bike_id": "ca0734944a73651453a27155851170fe", "rental_uris": {"ios": "https://dc.lft.to/lastmile_qr_scan", "android": "https://dc.lft.to/lastmile_qr_scan"}}, {"name": "40cd4534040fdfe2448445da62747aa5", "type": "electric_scooter", "lat": 38.9236335, "is_reserved": 0, "lon": -77.05840816666667, "fusion_lon": 0.0, "is_disabled": 0, "fusion_lat": 0.0, "bike_id": "40cd4534040fdfe2448445da62747aa5", "rental_uris": {"ios": "https://dc.lft.to/lastmile_qr_scan", "android": "https://dc.lft.to/lastmile_qr_scan"}}, {"name": "64098dc9b18fb34e1816c17c99e73b92", "type": "electric_scooter", "lat": 38.896139833333336, "is_reserved": 0, "lon": -77.00915483333333, "fusion_lon": 0.0, "is_disabled": 0, "fusion_lat": 0.0, "bike_id": "64098dc9b18fb34e1816c17c99e73b92", "rental_uris": {"ios": "https://dc.lft.to/lastmile_qr_scan", "android": "https://dc.lft.to/lastmile_qr_scan"}}, {"name": "7c7b7740fe91ceb43f16e67ba32baba5", "type": "electric_bike", "lat": 38.908636666666666, "is_reserved": 0, "lon": -77.080743, "fusion_lon": 0.0, "is_disabled": 0, "fusion_lat": 0.0, "bike_id": "7c7b7740fe91ceb43f16e67ba32baba5", "rental_uris": {"ios": "https://dc.lft.to/lastmile_qr_scan", "android": "https://dc.lft.to/lastmile_qr_scan"}}, {"name": "b46fff242605cb0eb57ad03079c553f3", "type": "electric_scooter", "lat": 38.919593166666665, "is_reserved": 0, "lon": -77.03385666666667, "fusion_lon": 0.0, "is_disabled": 0, "fusion_lat": 0.0, "bike_id": "b46fff242605cb0eb57ad03079c553f3", "rental_uris": {"ios": "https://dc.lft.to/lastmile_qr_scan", "android": "https://dc.lft.to/lastmile_qr_scan"}}, {"name": "f5027093c26c5629e7731f634606b89a", "type": "electric_scooter", "lat": 38.92515016666667, "is_reserved": 0, "lon": -77.03323033333334, "fusion_lon": 0.0, "is_disabled": 0, "fusion_lat": 0.0, "bike_id": "f5027093c26c5629e7731f634606b89a", "rental_uris": {"ios": "https://dc.lft.to/lastmile_qr_scan", "android": "https://dc.lft.to/lastmile_qr_scan"}}, {"name": "421d3f01133450084e48c0380082182d", "type": "electric_scooter", "lat": 38.912664666666664, "is_reserved": 0, "lon": -77.03726633333333, "fusion_lon": 0.0, "is_disabled": 0, "fusion_lat": 0.0, "bike_id": "421d3f01133450084e48c0380082182d", "rental_uris": {"ios": "https://dc.lft.to/lastmile_qr_scan", "android": "https://dc.lft.to/lastmile_qr_scan"}}, {"name": "86f8c582121f9c786523ead9fce3fb4f", "type": "electric_scooter", "lat": 38.92739866666667, "is_reserved": 0, "lon": -77.02263016666667, "fusion_lon": 0.0, "is_disabled": 0, "fusion_lat": 0.0, "bike_id": "86f8c582121f9c786523ead9fce3fb4f", "rental_uris": {"ios": "https://dc.lft.to/lastmile_qr_scan", "android": "https://dc.lft.to/lastmile_qr_scan"}}, {"name": "46d1a31be5dab1d39e263a651db4f5c1", "type": "electric_scooter", "lat": 38.892197, "is_reserved": 0, "lon": -77.04334366666667, "fusion_lon": 0.0, "is_disabled": 0, "fusion_lat": 0.0, "bike_id": "46d1a31be5dab1d39e263a651db4f5c1", "rental_uris": {"ios": "https://dc.lft.to/lastmile_qr_scan", "android": "https://dc.lft.to/lastmile_qr_scan"}}, {"name": "3d6f228d126c9eb3accd1937136858b1", "type": "electric_scooter", "lat": 38.9061365, "is_reserved": 0, "lon": -77.0748875, "fusion_lon": 0.0, "is_disabled": 0, "fusion_lat": 0.0, "bike_id": "3d6f228d126c9eb3accd1937136858b1", "rental_uris": {"ios": "https://dc.lft.to/lastmile_qr_scan", "android": "https://dc.lft.to/lastmile_qr_scan"}}, {"name": "d6707601cdbc9d40f64466bb2e1fe0a2", "type": "electric_scooter", "lat": 38.86659566666667, "is_reserved": 0, "lon": -76.988828, "fusion_lon": 0.0, "is_disabled": 0, "fusion_lat": 0.0, "bike_id": "d6707601cdbc9d40f64466bb2e1fe0a2", "rental_uris": {"ios": "https://dc.lft.to/lastmile_qr_scan", "android": "https://dc.lft.to/lastmile_qr_scan"}}, {"name": "b1c815beac2498aaa603dbfc17fc5f13", "type": "electric_scooter", "lat": 38.925158833333334, "is_reserved": 0, "lon": -77.001788, "fusion_lon": 0.0, "is_disabled": 0, "fusion_lat": 0.0, "bike_id": "b1c815beac2498aaa603dbfc17fc5f13", "rental_uris": {"ios": "https://dc.lft.to/lastmile_qr_scan", "android": "https://dc.lft.to/lastmile_qr_scan"}}, {"name": "3c2181f7ec70e8faf4e651b895149625", "type": "electric_scooter", "lat": 38.90036383333333, "is_reserved": 0, "lon": -76.988457, "fusion_lon": 0.0, "is_disabled": 0, "fusion_lat": 0.0, "bike_id": "3c2181f7ec70e8faf4e651b895149625", "rental_uris": {"ios": "https://dc.lft.to/lastmile_qr_scan", "android": "https://dc.lft.to/lastmile_qr_scan"}}, {"name": "fd608545015e1919813354bc93f48f88", "type": "electric_bike", "lat": 38.903573333333334, "is_reserved": 0, "lon": -76.98319716666667, "fusion_lon": 0.0, "is_disabled": 0, "fusion_lat": 0.0, "bike_id": "fd608545015e1919813354bc93f48f88", "rental_uris": {"ios": "https://dc.lft.to/lastmile_qr_scan", "android": "https://dc.lft.to/lastmile_qr_scan"}}, {"name": "4cf1efbe20d6b684ccc6d1da97c1613b", "type": "electric_scooter", "lat": 38.90523616666667, "is_reserved": 0, "lon": -77.06591566666667, "fusion_lon": 0.0, "is_disabled": 0, "fusion_lat": 0.0, "bike_id": "4cf1efbe20d6b684ccc6d1da97c1613b", "rental_uris": {"ios": "https://dc.lft.to/lastmile_qr_scan", "android": "https://dc.lft.to/lastmile_qr_scan"}}, {"name": "71928d5dd9e040c1670e41cf24b20900", "type": "electric_scooter", "lat": 38.86352383333333, "is_reserved": 0, "lon": -76.9906575, "fusion_lon": 0.0, "is_disabled": 0, "fusion_lat": 0.0, "bike_id": "71928d5dd9e040c1670e41cf24b20900", "rental_uris": {"ios": "https://dc.lft.to/lastmile_qr_scan", "android": "https://dc.lft.to/lastmile_qr_scan"}}, {"name": "5ea824c73c096f927cf59d5204149181", "type": "electric_scooter", "lat": 38.9086415, "is_reserved": 0, "lon": -76.98618, "fusion_lon": 0.0, "is_disabled": 0, "fusion_lat": 0.0, "bike_id": "5ea824c73c096f927cf59d5204149181", "rental_uris": {"ios": "https://dc.lft.to/lastmile_qr_scan", "android": "https://dc.lft.to/lastmile_qr_scan"}}, {"name": "b0575ea6f59adc2ba8f4202e4245474e", "type": "electric_scooter", "lat": 38.901705, "is_reserved": 0, "lon": -77.000071, "fusion_lon": 0.0, "is_disabled": 0, "fusion_lat": 0.0, "bike_id": "b0575ea6f59adc2ba8f4202e4245474e", "rental_uris": {"ios": "https://dc.lft.to/lastmile_qr_scan", "android": "https://dc.lft.to/lastmile_qr_scan"}}, {"name": "bd6177a4e4e26a78935b3393734e2005", "type": "electric_scooter", "lat": 38.905513666666664, "is_reserved": 0, "lon": -77.046493, "fusion_lon": 0.0, "is_disabled": 0, "fusion_lat": 0.0, "bike_id": "bd6177a4e4e26a78935b3393734e2005", "rental_uris": {"ios": "https://dc.lft.to/lastmile_qr_scan", "android": "https://dc.lft.to/lastmile_qr_scan"}}, {"name": "3ca647e6723f87a69ff5a531022835ea", "type": "electric_scooter", "lat": 38.903552166666664, "is_reserved": 0, "lon": -77.04456233333333, "fusion_lon": 0.0, "is_disabled": 0, "fusion_lat": 0.0, "bike_id": "3ca647e6723f87a69ff5a531022835ea", "rental_uris": {"ios": "https://dc.lft.to/lastmile_qr_scan", "android": "https://dc.lft.to/lastmile_qr_scan"}}, {"name": "b585b2f5d352d0573b5dac4dd84b4ab9", "type": "electric_scooter", "lat": 38.9412335, "is_reserved": 0, "lon": -77.02659483333333, "fusion_lon": 0.0, "is_disabled": 0, "fusion_lat": 0.0, "bike_id": "b585b2f5d352d0573b5dac4dd84b4ab9", "rental_uris": {"ios": "https://dc.lft.to/lastmile_qr_scan", "android": "https://dc.lft.to/lastmile_qr_scan"}}, {"name": "591c8dce4e58d5aff35889ad66fcc9dd", "type": "electric_scooter", "lat": 38.884947833333335, "is_reserved": 0, "lon": -77.02854366666666, "fusion_lon": 0.0, "is_disabled": 0, "fusion_lat": 0.0, "bike_id": "591c8dce4e58d5aff35889ad66fcc9dd", "rental_uris": {"ios": "https://dc.lft.to/lastmile_qr_scan", "android": "https://dc.lft.to/lastmile_qr_scan"}}, {"name": "c5810e380070f91162eb0bba6bce9662", "type": "electric_scooter", "lat": 38.9079385, "is_reserved": 0, "lon": -77.04824683333334, "fusion_lon": 0.0, "is_disabled": 0, "fusion_lat": 0.0, "bike_id": "c5810e380070f91162eb0bba6bce9662", "rental_uris": {"ios": "https://dc.lft.to/lastmile_qr_scan", "android": "https://dc.lft.to/lastmile_qr_scan"}}, {"name": "617571a962fe2ead8d339303fdb8547b", "type": "electric_scooter", "lat": 38.898411, "is_reserved": 0, "lon": -77.043629, "fusion_lon": 0.0, "is_disabled": 0, "fusion_lat": 0.0, "bike_id": "617571a962fe2ead8d339303fdb8547b", "rental_uris": {"ios": "https://dc.lft.to/lastmile_qr_scan", "android": "https://dc.lft.to/lastmile_qr_scan"}}, {"name": "14f66e86a6836ee8f09a253ae6a3ebaa", "type": "electric_scooter", "lat": 38.950861333333336, "is_reserved": 0, "lon": -77.02869666666666, "fusion_lon": 0.0, "is_disabled": 0, "fusion_lat": 0.0, "bike_id": "14f66e86a6836ee8f09a253ae6a3ebaa", "rental_uris": {"ios": "https://dc.lft.to/lastmile_qr_scan", "android": "https://dc.lft.to/lastmile_qr_scan"}}, {"name": "c637b4ddb534858643a7df98db972cfa", "type": "electric_scooter", "lat": 38.9097385, "is_reserved": 0, "lon": -77.03676566666667, "fusion_lon": 0.0, "is_disabled": 0, "fusion_lat": 0.0, "bike_id": "c637b4ddb534858643a7df98db972cfa", "rental_uris": {"ios": "https://dc.lft.to/lastmile_qr_scan", "android": "https://dc.lft.to/lastmile_qr_scan"}}, {"name": "cba811a645cccfa7aa3a87bcbcad92f5", "type": "electric_scooter", "lat": 38.90241, "is_reserved": 0, "lon": -77.03631133333333, "fusion_lon": 0.0, "is_disabled": 0, "fusion_lat": 0.0, "bike_id": "cba811a645cccfa7aa3a87bcbcad92f5", "rental_uris": {"ios": "https://dc.lft.to/lastmile_qr_scan", "android": "https://dc.lft.to/lastmile_qr_scan"}}, {"name": "b78d69257f9cf123369ef5198bac0f61", "type": "electric_scooter", "lat": 38.902673666666665, "is_reserved": 0, "lon": -77.05316916666666, "fusion_lon": 0.0, "is_disabled": 0, "fusion_lat": 0.0, "bike_id": "b78d69257f9cf123369ef5198bac0f61", "rental_uris": {"ios": "https://dc.lft.to/lastmile_qr_scan", "android": "https://dc.lft.to/lastmile_qr_scan"}},