{"data": {"bikes": [{"is_reserved": 0, "is_disabled": 0, "fusion_lat": 0.0, "name": "8866b49b7cc55e6727d06022aa7fcf3e", "lat": 38.91720433333333, "lon": -77.02806783333334, "bike_id": "8866b49b7cc55e6727d06022aa7fcf3e", "rental_uris": {"ios": "https://dc.lft.to/lastmile_qr_scan", "android": "https://dc.lft.to/lastmile_qr_scan"}, "type": "electric_scooter", "fusion_lon": 0.0}, {"is_reserved": 0, "is_disabled": 0, "fusion_lat": 0.0, "name": "e5635af4172e0ee752aa1879b0ad0bd6", "lat": 38.902336, "lon": -77.02693916666666, "bike_id": "e5635af4172e0ee752aa1879b0ad0bd6", "rental_uris": {"ios": "https://dc.lft.to/lastmile_qr_scan", "android": "https://dc.lft.to/lastmile_qr_scan"}, "type": "electric_scooter", "fusion_lon": 0.0}, {"is_reserved": 0, "is_disabled": 0, "fusion_lat": 0.0, "name": "95d59181cc77c2ce4ba07b88b1835868", "lat": 38.86751566666667, "lon": -77.00149333333333, "bike_id": "95d59181cc77c2ce4ba07b88b1835868", "rental_uris": {"ios": "https://dc.lft.to/lastmile_qr_scan", "android": "https://dc.lft.to/lastmile_qr_scan"}, "type": "electric_scooter", "fusion_lon": 0.0}, {"is_reserved": 0, "is_disabled": 0, "fusion_lat": 0.0, "name": "9ab1c82296d795cd5cb1f204f7bb7b40", "lat": 38.894857333333334, "lon": -76.99517633333333, "bike_id": "9ab1c82296d795cd5cb1f204f7bb7b40", "rental_uris": {"ios": "https://dc.lft.to/lastmile_qr_scan", "android": "https://dc.lft.to/lastmile_qr_scan"}, "type": "electric_scooter", "fusion_lon": 0.0}, {"is_reserved": 0, "is_disabled": 0, "fusion_lat": 0.0, "name": "2eca7a7cf9302a6cc316c28a90e3a515", "lat": 38.887772, "lon": -76.95532233333333, "bike_id": "2eca7a7cf9302a6cc316c28a90e3a515", "rental_uris": {"ios": "https://dc.lft.to/lastmile_qr_scan", "android": "https://dc.lft.to/lastmile_qr_scan"}, "type": "electric_scooter", "fusion_lon": 0.0}, {"is_reserved": 0, "is_disabled": 0, "fusion_lat": 0.0, "name": "2a64cf0776ef69423a9f5291da700759", "lat": 38.906854833333334, "lon": -77.027173, "bike_id": "2a64cf0776ef69423a9f5291da700759", "rental_uris": {"ios": "https://dc.lft.to/lastmile_qr_scan", "android": "https://dc.lft.to/lastmile_qr_scan"}, "type": "electric_scooter", "fusion_lon": 0.0}, {"is_reserved": 0, "is_disabled": 0, "fusion_lat": 0.0, "name": "18316e8b27301fd6a4120755856fcd0a", "lat": 38.90911766666667, "lon": -77.02713, "bike_id": "18316e8b27301fd6a4120755856fcd0a", "rental_uris": {"ios": "https://dc.lft.to/lastmile_qr_scan", "android": "https://dc.lft.to/lastmile_qr_scan"}, "type": "electric_scooter", "fusion_lon": 0.0}, {"is_reserved": 0, "is_disabled": 0, "fusion_lat": 0.0, "name": "7a58cac639941d3b25b5a12707359669", "lat": 38.876533, "lon": -77.00063633333333, "bike_id": "7a58cac639941d3b25b5a12707359669", "rental_uris": {"ios": "https://dc.lft.to/lastmile_qr_scan", "android": "https://dc.lft.to/lastmile_qr_scan"}, "type": "electric_scooter", "fusion_lon": 0.0}, {"is_reserved": 0, "is_disabled": 0, "fusion_lat": 0.0, "name": "4e235c111cd3bcd5eee4ec0ba8358e9d", "lat": 38.91771116666666, "lon": -77.04751733333333, "bike_id": "4e235c111cd3bcd5eee4ec0ba8358e9d", "rental_uris": {"ios": "https://dc.lft.to/lastmile_qr_scan", "android": "https://dc.lft.to/lastmile_qr_scan"}, "type": "electric_scooter", "fusion_lon": 0.0}, {"is_reserved": 0, "is_disabled": 0, "fusion_lat": 0.0, "name": "521a0609417cae520c45d55f5de33ee9", "lat": 38.930951, "lon": -77.024786, "bike_id": "521a0609417cae520c45d55f5de33ee9", "rental_uris": {"ios": "https://dc.lft.to/lastmile_qr_scan", "android": "https://dc.lft.to/lastmile_qr_scan"}, "type": "electric_scooter", "fusion_lon": 0.0}, {"is_reserved": 0, "is_disabled": 0, "fusion_lat": 0.0, "name": "fccce6e1d1c167955536e3a65c1fc3f1", "lat": 38.921134, "lon": -77.04206283333333, "bike_id": "fccce6e1d1c167955536e3a65c1fc3f1", "rental_uris": {"ios": "https://dc.lft.to/lastmile_qr_scan", "android": "https://dc.lft.to/lastmile_qr_scan"}, "type": "electric_scooter", "fusion_lon": 0.0}, {"is_reserved": 0, "is_disabled": 0, "fusion_lat": 0.0, "name": "d79c560d75fe199d6fa485ff05189f43", "lat": 38.92472883333333, "lon": -77.0221785, "bike_id": "d79c560d75fe199d6fa485ff05189f43", "rental_uris": {"ios": "https://dc.lft.to/lastmile_qr_scan", "android": "https://dc.lft.to/lastmile_qr_scan"}, "type": "electric_scooter", "fusion_lon": 0.0}, {"is_reserved": 0, "is_disabled": 0, "fusion_lat": 0.0, "name": "9fbf33212af1503e476d82a86e557ab4", "lat": 39.08504666666666, "lon": -76.950625, "bike_id": "9fbf33212af1503e476d82a86e557ab4", "rental_uris": {"ios": "https://dc.lft.to/lastmile_qr_scan", "android": "https://dc.lft.to/lastmile_qr_scan"}, "type": "electric_bike", "fusion_lon": 0.0}, {"is_reserved": 0, "is_disabled": 0, "fusion_lat": 0.0, "name": "68eb7da7eabb0b7eb8acf4f05ca32014", "lat": 39.02517016666667, "lon": -77.0196775, "bike_id": "68eb7da7eabb0b7eb8acf4f05ca32014", "rental_uris": {"ios": "https://dc.lft.to/lastmile_qr_scan", "android": "https://dc.lft.to/lastmile_qr_scan"}, "type": "electric_bike", "fusion_lon": 0.0}, {"is_reserved": 0, "is_disabled": 0, "fusion_lat": 0.0, "name": "848d1ddd08d86bd47f693a9e655ad520", "lat": 38.860180666666665, "lon": -76.97005083333333, "bike_id": "848d1ddd08d86bd47f693a9e655ad520", "rental_uris": {"ios": "https://dc.lft.to/lastmile_qr_scan", "android": "https://dc.lft.to/lastmile_qr_scan"}, "type": "electric_scooter", "fusion_lon": 0.0}, {"is_reserved": 0, "is_disabled": 0, "fusion_lat": 0.0, "name": "7a8f2e4f5f1c15781f46b359c52a9c37", "lat": 38.902443833333336, "lon": -77.01901066666667, "bike_id": "7a8f2e4f5f1c15781f46b359c52a9c37", "rental_uris": {"ios": "https://dc.lft.to/lastmile_qr_scan", "android": "https://dc.lft.to/lastmile_qr_scan"}, "type": "electric_scooter", "fusion_lon": 0.0}, {"is_reserved": 0, "is_disabled": 0, "fusion_lat": 0.0, "name": "65d24c48a0a5bc72a92f528853218edc", "lat": 38.90779933333334, "lon": -77.0450805, "bike_id": "65d24c48a0a5bc72a92f528853218edc", "rental_uris": {"ios": "https://dc.lft.to/lastmile_qr_scan", "android": "https://dc.lft.to/lastmile_qr_scan"}, "type": "electric_scooter", "fusion_lon": 0.0}, {"is_reserved": 0, "is_disabled": 0, "fusion_lat": 0.0, "name": "fa1e29135d1d70ac744f0a6647615ff6", "lat": 38.91308933333333, "lon": -77.0286075, "bike_id": "fa1e29135d1d70ac744f0a6647615ff6", "rental_uris": {"ios": "https://dc.lft.to/lastmile_qr_scan", "android": "https://dc.lft.to/lastmile_qr_scan"}, "type": "electric_scooter", "fusion_lon": 0.0}, {"is_reserved": 0, "is_disabled": 0, "fusion_lat": 0.0, "name": "7a7a2f4b12c39e2d9ec508782a1c98bb", "lat": 38.9066625, "lon": -77.00896983333334, "bike_id": "7a7a2f4b12c39e2d9ec508782a1c98bb", "rental_uris": {"ios": "https://dc.lft.to/lastmile_qr_scan", "android": "https://dc.lft.to/lastmile_qr_scan"}, "type": "electric_scooter", "fusion_lon": 0.0}, {"is_reserved": 0, "is_disabled": 0, "fusion_lat": 0.0, "name": "0501cbfad1074be011612a0fe822b86d", "lat": 38.85782283333333, "lon": -76.98754183333334, "bike_id": "0501cbfad1074be011612a0fe822b86d", "rental_uris": {"ios": "https://dc.lft.to/lastmile_qr_scan", "android": "https://dc.lft.to/lastmile_qr_scan"}, "type": "electric_bike", "fusion_lon": 0.0}, {"is_reserved": 0, "is_disabled": 0, "fusion_lat": 0.0, "name": "7ae46a96b586338cbef479efeb2ef006", "lat": 39.026222, "lon": -77.03885233333334, "bike_id": "7ae46a96b586338cbef479efeb2ef006", "rental_uris": {"ios": "https://dc.lft.to/lastmile_qr_scan", "android": "https://dc.lft.to/lastmile_qr_scan"}, "type": "electric_bike", "fusion_lon": 0.0}, {"is_reserved": 0, "is_disabled": 0, "fusion_lat": 0.0, "name": "18d6981a62144e0aea23d94b5d8ad5c3", "lat": 38.90019433333333, "lon": -76.99877433333333, "bike_id": "18d6981a62144e0aea23d94b5d8ad5c3", "rental_uris": {"ios": "https://dc.lft.to/lastmile_qr_scan", "android": "https://dc.lft.to/lastmile_qr_scan"}, "type": "electric_scooter", "fusion_lon": 0.0}, {"is_reserved": 0, "is_disabled": 0, "fusion_lat": 0.0, "name": "2f3483bc0dde7fc72dd68bcf447ded2a", "lat": 38.956333666666666, "lon": -76.9386725, "bike_id": "2f3483bc0dde7fc72dd68bcf447ded2a", "rental_uris": {"ios": "https://dc.lft.to/lastmile_qr_scan", "android": "https://dc.lft.to/lastmile_qr_scan"}, "type": "electric_bike", "fusion_lon": 0.0}, {"is_reserved": 0, "is_disabled": 0, "fusion_lat": 0.0, "name": "d8b741e0779353aabca5701c9065c99d", "lat": 38.914794, "lon": -77.05053216666667, "bike_id": "d8b741e0779353aabca5701c9065c99d", "rental_uris": {"ios": "https://dc.lft.to/lastmile_qr_scan", "android": "https://dc.lft.to/lastmile_qr_scan"}, "type": "electric_bike", "fusion_lon": 0.0}, {"is_reserved": 0, "is_disabled": 0, "fusion_lat": 0.0, "name": "5ebd7880397384353adf0f120e191aa2", "lat": 38.92709933333333, "lon": -77.05996766666667, "bike_id": "5ebd7880397384353adf0f120e191aa2", "rental_uris": {"ios": "https://dc.lft.to/lastmile_qr_scan", "android": "https://dc.lft.to/lastmile_qr_scan"}, "type": "electric_scooter", "fusion_lon": 0.0}, {"is_reserved": 0, "is_disabled": 0, "fusion_lat": 0.0, "name": "7ac5e2d83154960793cae6876be60be1", "lat": 38.915397666666664, "lon": -77.04458716666667, "bike_id": "7ac5e2d83154960793cae6876be60be1", "rental_uris": {"ios": "https://dc.lft.to/lastmile_qr_scan", "android": "https://dc.lft.to/lastmile_qr_scan"}, "type": "electric_scooter", "fusion_lon": 0.0}, {"is_reserved": 0, "is_disabled": 0, "fusion_lat": 0.0, "name": "e98a7de96b17cc00402c7ac5b78d64db", "lat": 38.88377533333333, "lon": -77.0249735, "bike_id": "e98a7de96b17cc00402c7ac5b78d64db", "rental_uris": {"ios": "https://dc.lft.to/lastmile_qr_scan", "android": "https://dc.lft.to/lastmile_qr_scan"}, "type": "electric_scooter", "fusion_lon": 0.0}, {"is_reserved": 0, "is_disabled": 0, "fusion_lat": 0.0, "name": "fc2455e16e8cbd952a028152825a7fe2", "lat": 38.90131483333333, "lon": -77.04091616666666, "bike_id": "fc2455e16e8cbd952a028152825a7fe2", "rental_uris": {"ios": "https://dc.lft.to/lastmile_qr_scan", "android": "https://dc.lft.to/lastmile_qr_scan"}, "type": "electric_scooter", "fusion_lon": 0.0}, {"is_reserved": 0, "is_disabled": 0, "fusion_lat": 0.0, "name": "775fe553cf9af1a75f7a56aabb3066ed", "lat": 38.93539033333333, "lon": -77.032642, "bike_id": "775fe553cf9af1a75f7a56aabb3066ed", "rental_uris": {"ios": "https://dc.lft.to/lastmile_qr_scan", "android": "https://dc.lft.to/lastmile_qr_scan"}, "type": "electric_scooter", "fusion_lon": 0.0}, {"is_reserved": 0, "is_disabled": 0, "fusion_lat": 0.0, "name": "3fce054dedb474fb727075bb22a0dd93", "lat": 38.985003666666664, "lon": -76.98205033333333, "bike_id": "3fce054dedb474fb727075bb22a0dd93", "rental_uris": {"ios": "https://dc.lft.to/lastmile_qr_scan", "android": "https://dc.lft.to/lastmile_qr_scan"}, "type": "electric_bike", "fusion_lon": 0.0}, {"is_reserved": 0, "is_disabled": 0, "fusion_lat": 0.0, "name": "b573ea40340fc8021993fdad86c56f8f", "lat": 38.901148666666664, "lon": -77.031702, "bike_id": "b573ea40340fc8021993fdad86c56f8f", "rental_uris": {"ios": "https://dc.lft.to/lastmile_qr_scan", "android": "https://dc.lft.to/lastmile_qr_scan"}, "type": "electric_scooter", "fusion_lon": 0.0}, {"is_reserved": 0, "is_disabled": 0, "fusion_lat": 0.0, "name": "8cbeb769d6e0ea3b37c53e7beb5ea4a5", "lat": 38.904758, "lon": -77.03539483333333, "bike_id": "8cbeb769d6e0ea3b37c53e7beb5ea4a5", "rental_uris": {"ios": "https://dc.lft.to/lastmile_qr_scan", "android": "https://dc.lft.to/lastmile_qr_scan"}, "type": "electric_scooter", "fusion_lon": 0.0}, {"is_reserved": 0, "is_disabled": 0, "fusion_lat": 0.0, "name": "a7e4de487e5c0a1db86557c692f90fae", "lat": 38.91643666666667, "lon": -77.03175833333333, "bike_id": "a7e4de487e5c0a1db86557c692f90fae", "rental_uris": {"ios": "https://dc.lft.to/lastmile_qr_scan", "android": "https://dc.lft.to/lastmile_qr_scan"}, "type": "electric_scooter", "fusion_lon": 0.0}, {"is_reserved": 0, "is_disabled": 0, "fusion_lat": 0.0, "name": "cb7d8d4f2f14c338374a1a8cb27b4bea", "lat": 38.920629166666664, "lon": -77.0172165, "bike_id": "cb7d8d4f2f14c338374a1a8cb27b4bea", "rental_uris": {"ios": "https://dc.lft.to/lastmile_qr_scan", "android": "https://dc.lft.to/lastmile_qr_scan"}, "type": "electric_scooter", "fusion_lon": 0.0}, {"is_reserved": 0, "is_disabled": 0, "fusion_lat": 0.0, "name": "5a65d5ab911f8d8c0c60d946cfc37234", "lat": 38.897027, "lon": -77.00502333333333, "bike_id": "5a65d5ab911f8d8c0c60d946cfc37234", "rental_uris": {"ios": "https://dc.lft.to/lastmile_qr_scan", "android": "https://dc.lft.to/lastmile_qr_scan"}, "type": "electric_bike", "fusion_lon": 0.0}, {"is_reserved": 0, "is_disabled": 0, "fusion_lat": 0.0, "name": "40030aa8a6c22e180a1dd2bf4305d4d7", "lat": 38.877304, "lon": -77.11847083333333, "bike_id": "40030aa8a6c22e180a1dd2bf4305d4d7", "rental_uris": {"ios": "https://dc.lft.to/lastmile_qr_scan", "android": "https://dc.lft.to/lastmile_qr_scan"}, "type": "electric_bike", "fusion_lon": 0.0}, {"is_reserved": 0, "is_disabled": 0, "fusion_lat": 0.0, "name": "2a6ea907538c399fa2a8f88828a8c8a8", "lat": 38.911418166666664, "lon": -77.01086133333334, "bike_id": "2a6ea907538c399fa2a8f88828a8c8a8", "rental_uris": {"ios": "https://dc.lft.to/lastmile_qr_scan", "android": "https://dc.lft.to/lastmile_qr_scan"}, "type": "electric_scooter", "fusion_lon": 0.0}, {"is_reserved": 0, "is_disabled": 0, "fusion_lat": 0.0, "name": "b30e887d4ed0fdb395e5e58aef9d4e79", "lat": 38.91227133333334, "lon": -77.03195083333334, "bike_id": "b30e887d4ed0fdb395e5e58aef9d4e79", "rental_uris": {"ios": "https://dc.lft.to/lastmile_qr_scan", "android": "https://dc.lft.to/lastmile_qr_scan"}, "type": "electric_scooter", "fusion_lon": 0.0}, {"is_reserved": 0, "is_disabled": 0, "fusion_lat": 0.0, "name": "92c0fc73eb16dfd708f026cd6d99b09e", "lat": 38.92413466666667, "lon": -77.02029833333333, "bike_id": "92c0fc73eb16dfd708f026cd6d99b09e", "rental_uris": {"ios": "https://dc.lft.to/lastmile_qr_scan", "android": "https://dc.lft.to/lastmile_qr_scan"}, "type": "electric_scooter", "fusion_lon": 0.0}, {"is_reserved": 0, "is_disabled": 0, "fusion_lat": 0.0, "name": "4253ab94a8bafcb36c39c5e0121e7d61", "lat": 38.92734733333333, "lon": -76.99366066666667, "bike_id": "4253ab94a8bafcb36c39c5e0121e7d61", "rental_uris": {"ios": "https://dc.lft.to/lastmile_qr_scan", "android": "https://dc.lft.to/lastmile_qr_scan"}, "type": "electric_bike", "fusion_lon": 0.0}, {"is_reserved": 0, "is_disabled": 0, "fusion_lat": 0.0, "name": "aad172ca86c7d91ba2395643dd99d519", "lat": 38.937372333333336, "lon": -77.0735315, "bike_id": "aad172ca86c7d91ba2395643dd99d519", "rental_uris": {"ios": "https://dc.lft.to/lastmile_qr_scan", "android": "https://dc.lft.to/lastmile_qr_scan"}, "type": "electric_scooter", "fusion_lon": 0.0}, {"is_reserved": 0, "is_disabled": 0, "fusion_lat": 0.0, "name": "aa8f9cee13b9a44800283732798570f4", "lat": 38.92466783333333, "lon": -77.022176, "bike_id": "aa8f9cee13b9a44800283732798570f4", "rental_uris": {"ios": "https://dc.lft.to/lastmile_qr_scan", "android": "https://dc.lft.to/lastmile_qr_scan"}, "type": "electric_scooter", "fusion_lon": 0.0}, {"is_reserved": 0, "is_disabled": 0, "fusion_lat": 0.0, "name": "21ed8e1d16668cb820523764221afe38", "lat": 38.892005166666664, "lon": -77.00299366666667, "bike_id": "21ed8e1d16668cb820523764221afe38", "rental_uris": {"ios": "https://dc.lft.to/lastmile_qr_scan", "android": "https://dc.lft.to/lastmile_qr_scan"}, "type": "electric_scooter", "fusion_lon": 0.0}, {"is_reserved": 0, "is_disabled": 0, "fusion_lat": 0.0, "name": "7ed83896d88d113dc1e7ba42ef6e7943", "lat": 38.904178333333334, "lon": -77.02731833333333, "bike_id": "7ed83896d88d113dc1e7ba42ef6e7943", "rental_uris": {"ios": "https://dc.lft.to/lastmile_qr_scan", "android": "https://dc.lft.to/lastmile_qr_scan"}, "type": "electric_scooter", "fusion_lon": 0.0}, {"is_reserved": 0, "is_disabled": 0, "fusion_lat": 0.0, "name": "0eb821e968280aac90c5cee0174934cd", "lat": 38.90627383333333, "lon": -76.994902, "bike_id": "0eb821e968280aac90c5cee0174934cd", "rental_uris": {"ios": "https://dc.lft.to/lastmile_qr_scan", "android": "https://dc.lft.to/lastmile_qr_scan"}, "type": "electric_scooter", "fusion_lon": 0.0}, {"is_reserved": 0, "is_disabled": 0, "fusion_lat": 0.0, "name": "86a800fd481c7cb47a8fbac67cd07370", "lat": 38.90818766666666, "lon": -77.06382916666666, "bike_id": "86a800fd481c7cb47a8fbac67cd07370", "rental_uris": {"ios": "https://dc.lft.to/lastmile_qr_scan", "android": "https://dc.lft.to/lastmile_qr_scan"}, "type": "electric_scooter", "fusion_lon": 0.0}, {"is_reserved": 0, "is_disabled": 0, "fusion_lat": 0.0, "name": "1255552d21ca02cc21efc2257e4c2662", "lat": 38.931357, "lon": -77.07844416666667, "bike_id": "1255552d21ca02cc21efc2257e4c2662", "rental_uris": {"ios": "https://dc.lft.to/lastmile_qr_scan", "android": "https://dc.lft.to/lastmile_qr_scan"}, "type": "electric_scooter", "fusion_lon": 0.0}, {"is_reserved": 0, "is_disabled": 0, "fusion_lat": 0.0, "name": "4114ce54f484a50842cd20ea691cf0fa", "lat": 38.91671766666666, "lon": -77.02307416666666, "bike_id": "4114ce54f484a50842cd20ea691cf0fa", "rental_uris": {"ios": "https://dc.lft.to/lastmile_qr_scan", "android": "https://dc.lft.to/lastmile_qr_scan"}, "type": "electric_scooter", "fusion_lon": 0.0}, {"is_reserved": 0, "is_disabled": 0, "fusion_lat": 0.0, "name": "a250130ece224ab05533debf2d0478f8", "lat": 38.924345, "lon": -77.02025166666667, "bike_id": "a250130ece224ab05533debf2d0478f8", "rental_uris": {"ios": "https://dc.lft.to/lastmile_qr_scan", "android": "https://dc.lft.to/lastmile_qr_scan"}, "type": "electric_scooter", "fusion_lon": 0.0}, {"is_reserved": 0, "is_disabled": 0, "fusion_lat": 0.0, "name": "e5eb37e958a1b53653d2059c72374b8d", "lat": 38.91134366666667, "lon": -77.02801683333334, "bike_id": "e5eb37e958a1b53653d2059c72374b8d", "rental_uris": {"ios": "https://dc.lft.to/lastmile_qr_scan", "android": "https://dc.lft.to/lastmile_qr_scan"}, "type": "electric_scooter", "fusion_lon": 0.0}, {"is_reserved": 0, "is_disabled": 0, "fusion_lat": 0.0, "name": "49f2308dd0e907f29d5822b85d07c237", "lat": 38.913862333333334, "lon": -77.03664133333334, "bike_id": "49f2308dd0e907f29d5822b85d07c237", "rental_uris": {"ios": "https://dc.lft.to/lastmile_qr_scan", "android": "https://dc.lft.to/lastmile_qr_scan"}, "type": "electric_scooter", "fusion_lon": 0.0}, {"is_reserved": 0, "is_disabled": 0, "fusion_lat": 0.0, "name": "d4a576547468f69b74020d17a38cc946", "lat": 38.9069235, "lon": -76.95254566666667, "bike_id": "d4a576547468f69b74020d17a38cc946", "rental_uris": {"ios": "https://dc.lft.to/lastmile_qr_scan", "android": "https://dc.lft.to/lastmile_qr_scan"}, "type": "electric_bike", "fusion_lon": 0.0}, {"is_reserved": 0, "is_disabled": 0, "fusion_lat": 0.0, "name": "e136c8b919aea96096ff0af224858977", "lat": 38.966153, "lon": -77.01996916666667, "bike_id": "e136c8b919aea96096ff0af224858977", "rental_uris": {"ios": "https://dc.lft.to/lastmile_qr_scan", "android": "https://dc.lft.to/lastmile_qr_scan"}, "type": "electric_scooter", "fusion_lon": 0.0}, {"is_reserved": 0, "is_disabled": 0, "fusion_lat": 0.0, "name": "d2263fb780403b7e39dfe4ce24dfba48", "lat": 38.91243033333333, "lon": -76.98669766666667, "bike_id": "d2263fb780403b7e39dfe4ce24dfba48", "rental_uris": {"ios": "https://dc.lft.to/lastmile_qr_scan", "android": "https://dc.lft.to/lastmile_qr_scan"}, "type": "electric_scooter", "fusion_lon": 0.0}, {"is_reserved": 0, "is_disabled": 0, "fusion_lat": 0.0, "name": "0d2f87d6c4fa3f758d90ac333e08f1d0", "lat": 38.92236716666667, "lon": -77.027149, "bike_id": "0d2f87d6c4fa3f758d90ac333e08f1d0", "rental_uris": {"ios": "https://dc.lft.to/lastmile_qr_scan", "android": "https://dc.lft.to/lastmile_qr_scan"}, "type": "electric_scooter", "fusion_lon": 0.0}, {"is_reserved": 0, "is_disabled": 0, "fusion_lat": 0.0, "name": "1685e7b117071cc812c097446ec7e9cf", "lat": 38.91072833333333, "lon": -77.01612533333333, "bike_id": "1685e7b117071cc812c097446ec7e9cf", "rental_uris": {"ios": "https://dc.lft.to/lastmile_qr_scan", "android": "https://dc.lft.to/lastmile_qr_scan"}, "type": "electric_scooter", "fusion_lon": 0.0}, {"is_reserved": 0, "is_disabled": 0, "fusion_lat": 0.0, "name": "b5d86ccdf58c1940e49351c3fda91068", "lat": 38.90630566666667, "lon": -77.06893666666667, "bike_id": "b5d86ccdf58c1940e49351c3fda91068", "rental_uris": {"ios": "https://dc.lft.to/lastmile_qr_scan", "android": "https://dc.lft.to/lastmile_qr_scan"}, "type": "electric_scooter", "fusion_lon": 0.0}, {"is_reserved": 0, "is_disabled": 0, "fusion_lat": 0.0, "name": "294b49f9edad9cf10dca3e409e2d3dbf", "lat": 38.913386, "lon": -77.01224116666667, "bike_id": "294b49f9edad9cf10dca3e409e2d3dbf", "rental_uris": {"ios": "https://dc.lft.to/lastmile_qr_scan", "android": "https://dc.lft.to/lastmile_qr_scan"}, "type": "electric_scooter", "fusion_lon": 0.0}, {"is_reserved": 0, "is_disabled": 0, "fusion_lat": 0.0, "name": "aed607b5faa91e03fadb372abe2d96ba", "lat": 38.8989475, "lon": -77.0297665, "bike_id": "aed607b5faa91e03fadb372abe2d96ba", "rental_uris": {"ios": "https://dc.lft.to/lastmile_qr_scan", "android": "https://dc.lft.to/lastmile_qr_scan"}, "type": "electric_scooter", "fusion_lon": 0.0}, {"is_reserved": 0, "is_disabled": 0, "fusion_lat": 0.0, "name": "7e3c6835f2ca3d5bb189dffeef2b6ee5", "lat": 38.86551566666667, "lon": -76.941517, "bike_id": "7e3c6835f2ca3d5bb189dffeef2b6ee5", "rental_uris": {"ios": "https://dc.lft.to/lastmile_qr_scan", "android": "https://dc.lft.to/lastmile_qr_scan"}, "type": "electric_bike", "fusion_lon": 0.0}, {"is_reserved": 0, "is_disabled": 0, "fusion_lat": 0.0, "name": "38e539610f4dba105e560cf8c56eea71", "lat": 38.901016, "lon": -77.05008616666667, "bike_id": "38e539610f4dba105e560cf8c56eea71", "rental_uris": {"ios": "https://dc.lft.to/lastmile_qr_scan", "android": "https://dc.lft.to/lastmile_qr_scan"}, "type": "electric_scooter", "fusion_lon": 0.0}, {"is_reserved": 0, "is_disabled": 0, "fusion_lat": 0.0, "name": "31f28686f490bbe6baf269c6f02e17ad", "lat": 38.9217295, "lon": -77.0382455, "bike_id": "31f28686f490bbe6baf269c6f02e17ad", "rental_uris": {"ios": "https://dc.lft.to/lastmile_qr_scan", "android": "https://dc.lft.to/lastmile_qr_scan"}, "type": "electric_scooter", "fusion_lon": 0.0}, {"is_reserved": 0, "is_disabled": 0, "fusion_lat": 0.0, "name": "4e9d73411e98f451a59028bd9fae05e4", "lat": 38.900399166666666, "lon": -77.0466945, "bike_id": "4e9d73411e98f451a59028bd9fae05e4", "rental_uris": {"ios": "https://dc.lft.to/lastmile_qr_scan", "android": "https://dc.lft.to/lastmile_qr_scan"}, "type": "electric_scooter", "fusion_lon": 0.0}, {"is_reserved": 0, "is_disabled": 0, "fusion_lat": 0.0, "name": "7cff1d0f9be3ce95833186adfff62972", "lat": 38.90141333333333, "lon": -76.93160533333334, "bike_id": "7cff1d0f9be3ce95833186adfff62972", "rental_uris": {"ios": "https://dc.lft.to/lastmile_qr_scan", "android": "https://dc.lft.to/lastmile_qr_scan"}, "type": "electric_scooter", "fusion_lon": 0.0}, {"is_reserved": 0, "is_disabled": 0, "fusion_lat": 0.0, "name": "90ffbd0850495785d7fa7483f5e9c419", "lat": 38.89958883333333, "lon": -77.01512816666667, "bike_id": "90ffbd0850495785d7fa7483f5e9c419", "rental_uris": {"ios": "https://dc.lft.to/lastmile_qr_scan", "android": "https://dc.lft.to/lastmile_qr_scan"}, "type": "electric_scooter", "fusion_lon": 0.0}, {"is_reserved": 0, "is_disabled": 0, "fusion_lat": 0.0, "name": "81c9bc00ff568a5dbe0c53023899b4b8", "lat": 38.88422166666667, "lon": -77.02989583333333, "bike_id": "81c9bc00ff568a5dbe0c53023899b4b8", "rental_uris": {"ios": "https://dc.lft.to/lastmile_qr_scan", "android": "https://dc.lft.to/lastmile_qr_scan"}, "type": "electric_scooter", "fusion_lon": 0.0}, {"is_reserved": 0, "is_disabled": 0, "fusion_lat": 0.0, "name": "06a806dd0e3bf86fc4b14c9a966ad944", "lat": 38.90459466666667, "lon": -77.04185633333333, "bike_id": "06a806dd0e3bf86fc4b14c9a966ad944", "rental_uris": {"ios": "https://dc.lft.to/lastmile_qr_scan", "android": "https://dc.lft.to/lastmile_qr_scan"}, "type": "electric_scooter", "fusion_lon": 0.0}, {"is_reserved": 0, "is_disabled": 0, "fusion_lat": 0.0, "name": "f2a15357fdbc9b18179c78c9ab41ddac", "lat": 38.915399, "lon": -77.02184683333333, "bike_id": "f2a15357fdbc9b18179c78c9ab41ddac", "rental_uris": {"ios": "https://dc.lft.to/lastmile_qr_scan", "android": "https://dc.lft.to/lastmile_qr_scan"}, "type": "electric_scooter", "fusion_lon": 0.0}, {"is_reserved": 0, "is_disabled": 0, "fusion_lat": 0.0, "name": "b06648bf22a86d2791fe70f1ea9abba3", "lat": 38.90234566666667, "lon": -77.01448483333333, "bike_id": "b06648bf22a86d2791fe70f1ea9abba3", "rental_uris": {"ios": "https://dc.lft.to/lastmile_qr_scan", "android": "https://dc.lft.to/lastmile_qr_scan"}, "type": "electric_scooter", "fusion_lon": 0.0}, {"is_reserved": 0, "is_disabled": 0, "fusion_lat": 0.0, "name": "bd022cfdbcb00f8c4b7b4a3a03fd4818", "lat": 38.90711183333333, "lon": -77.0513545, "bike_id": "bd022cfdbcb00f8c4b7b4a3a03fd4818", "rental_uris": {"ios": "https://dc.lft.to/lastmile_qr_scan", "android": "https://dc.lft.to/lastmile_qr_scan"}, "type": "electric_scooter", "fusion_lon": 0.0}, {"is_reserved": 0, "is_disabled": 0, "fusion_lat": 0.0, "name": "fc29b837f78b51148a862562f9181c64", "lat": 38.89738283333333, "lon": -76.99221766666666, "bike_id": "fc29b837f78b51148a862562f9181c64", "rental_uris": {"ios": "https://dc.lft.to/lastmile_qr_scan", "android": "https://dc.lft.to/lastmile_qr_scan"}, "type": "electric_scooter", "fusion_lon": 0.0}, {"is_reserved": 0, "is_disabled": 0, "fusion_lat": 0.0, "name": "f990d8868c1bda8074e8033db9cf4403", "lat": 38.91953083333333, "lon": -77.04174566666667, "bike_id": "f990d8868c1bda8074e8033db9cf4403", "rental_uris": {"ios": "https://dc.lft.to/lastmile_qr_scan", "android": "https://dc.lft.to/lastmile_qr_scan"}, "type": "electric_scooter", "fusion_lon": 0.0}, {"is_reserved": 0, "is_disabled": 0, "fusion_lat": 0.0, "name": "d8feda50edf44f53846aadce9e7a3fb4", "lat": 38.9057015, "lon": -77.02967333333333, "bike_id": "d8feda50edf44f53846aadce9e7a3fb4", "rental_uris": {"ios": "https://dc.lft.to/lastmile_qr_scan", "android": "https://dc.lft.to/lastmile_qr_scan"}, "type": "electric_scooter", "fusion_lon": 0.0}, {"is_reserved": 0, "is_disabled": 0, "fusion_lat": 0.0, "name": "a11a76f8c6967cd2e82ee7dee338c8e1", "lat": 38.90284, "lon": -77.04049366666666, "bike_id": "a11a76f8c6967cd2e82ee7dee338c8e1", "rental_uris": {"ios": "https://dc.lft.to/lastmile_qr_scan", "android": "https://dc.lft.to/lastmile_qr_scan"}, "type": "electric_scooter", "fusion_lon": 0.0}, {"is_reserved": 0, "is_disabled": 0, "fusion_lat": 0.0, "name": "8847827ec8d31d8c5512d152bcec62fe", "lat": 38.8941385, "lon": -77.010773, "bike_id": "8847827ec8d31d8c5512d152bcec62fe", "rental_uris": {"ios": "https://dc.lft.to/lastmile_qr_scan", "android": "https://dc.lft.to/lastmile_qr_scan"}, "type": "electric_scooter", "fusion_lon": 0.0}, {"is_reserved": 0, "is_disabled": 0, "fusion_lat": 0.0, "name": "8d1aa0dc574eb47807d9fc619f42591b", "lat": 38.924726, "lon": -77.020787, "bike_id": "8d1aa0dc574eb47807d9fc619f42591b", "rental_uris": {"ios": "https://dc.lft.to/lastmile_qr_scan", "android": "https://dc.lft.to/lastmile_qr_scan"}, "type": "electric_scooter", "fusion_lon": 0.0}, {"is_reserved": 0, "is_disabled": 0, "fusion_lat": 0.0, "name": "567404697147ebb21dc773e371b7dfbc", "lat": 38.917368, "lon": -77.02116516666666, "bike_id": "567404697147ebb21dc773e371b7dfbc", "rental_uris": {"ios": "https://dc.lft.to/lastmile_qr_scan", "android": "https://dc.lft.to/lastmile_qr_scan"}, "type": "electric_scooter", "fusion_lon": 0.0}, {"is_reserved": 0, "is_disabled": 0, "fusion_lat": 0.0, "name": "68b571614ff22eca361596d143b8e027", "lat": 38.92123216666667, "lon": -77.0175705, "bike_id": "68b571614ff22eca361596d143b8e027", "rental_uris": {"ios": "https://dc.lft.to/lastmile_qr_scan", "android": "https://dc.lft.to/lastmile_qr_scan"}, "type": "electric_scooter", "fusion_lon": 0.0}, {"is_reserved": 0, "is_disabled": 0, "fusion_lat": 0.0, "name": "f433b6c3ee82f6ec71e8be684937fb7f", "lat": 38.91768666666667, "lon": -77.04752833333333, "bike_id": "f433b6c3ee82f6ec71e8be684937fb7f", "rental_uris": {"ios": "https://dc.lft.to/lastmile_qr_scan", "android": "https://dc.lft.to/lastmile_qr_scan"}, "type": "electric_scooter", "fusion_lon": 0.0}, {"is_reserved": 0, "is_disabled": 0, "fusion_lat": 0.0, "name": "55f576e8dfbda771f2b91fa71da74803", "lat": 38.92336133333333, "lon": -77.02134483333333, "bike_id": "55f576e8dfbda771f2b91fa71da74803", "rental_uris": {"ios": "https://dc.lft.to/lastmile_qr_scan", "android": "https://dc.lft.to/lastmile_qr_scan"}, "type": "electric_scooter", "fusion_lon": 0.0}, {"is_reserved": 0, "is_disabled": 0, "fusion_lat": 0.0, "name": "50dd85dead0c0c0dc9adf14ba9158da1", "lat": 38.8970615, "lon": -77.00494183333333, "bike_id": "50dd85dead0c0c0dc9adf14ba9158da1", "rental_uris": {"ios": "https://dc.lft.to/lastmile_qr_scan", "android": "https://dc.lft.to/lastmile_qr_scan"}, "type": "electric_bike", "fusion_lon": 0.0}, {"is_reserved": 0, "is_disabled": 0, "fusion_lat": 0.0, "name": "8bfe64918d481de1bc50f53690b945e9", "lat": 38.892558, "lon": -77.04501283333333, "bike_id": "8bfe64918d481de1bc50f53690b945e9", "rental_uris": {"ios": "https://dc.lft.to/lastmile_qr_scan", "android": "https://dc.lft.to/lastmile_qr_scan"}, "type": "electric_scooter", "fusion_lon": 0.0}, {"is_reserved": 0, "is_disabled": 0, "fusion_lat": 0.0, "name": "ae31880c78b41d9a6c371cf16841941d", "lat": 38.90238033333333, "lon": -77.00202283333333, "bike_id": "ae31880c78b41d9a6c371cf16841941d", "rental_uris": {"ios": "https://dc.lft.to/lastmile_qr_scan", "android": "https://dc.lft.to/lastmile_qr_scan"}, "type": "electric_scooter", "fusion_lon": 0.0}, {"is_reserved": 0, "is_disabled": 0, "fusion_lat": 0.0, "name": "7a09c09e14392691f6622bb9b9f5ec1e", "lat": 38.913625, "lon": -77.02062883333333, "bike_id": "7a09c09e14392691f6622bb9b9f5ec1e", "rental_uris": {"ios": "https://dc.lft.to/lastmile_qr_scan", "android": "https://dc.lft.to/lastmile_qr_scan"}, "type": "electric_scooter", "fusion_lon": 0.0}, {"is_reserved": 0, "is_disabled": 0, "fusion_lat": 0.0, "name": "f136b8e18e61df94e7c002d7a9b66ecd", "lat": 38.9180515, "lon": -77.03856416666666, "bike_id": "f136b8e18e61df94e7c002d7a9b66ecd", "rental_uris": {"ios": "https://dc.lft.to/lastmile_qr_scan", "android": "https://dc.lft.to/lastmile_qr_scan"}, "type": "electric_scooter", "fusion_lon": 0.0}, {"is_reserved": 0, "is_disabled": 0, "fusion_lat": 0.0, "name": "3c298c8dd98b3efd5c0df1c6bdc80d88", "lat": 38.8044065, "lon": -77.06082833333333, "bike_id": "3c298c8dd98b3efd5c0df1c6bdc80d88", "rental_uris": {"ios": "https://dc.lft.to/lastmile_qr_scan", "android": "https://dc.lft.to/lastmile_qr_scan"}, "type": "electric_bike", "fusion_lon": 0.0}, {"is_reserved": 0, "is_disabled": 0, "fusion_lat": 0.0, "name": "973917579e9f673596e81df60c17472c", "lat": 38.927791166666665, "lon": -76.97634266666667, "bike_id": "973917579e9f673596e81df60c17472c", "rental_uris": {"ios": "https://dc.lft.to/lastmile_qr_scan", "android": "https://dc.lft.to/lastmile_qr_scan"}, "type": "electric_scooter", "fusion_lon": 0.0}, {"is_reserved": 0, "is_disabled": 0, "fusion_lat": 0.0, "name": "c8e4b47bcfd793ac0d17d970b180739b", "lat": 38.9061185, "lon": -77.056548, "bike_id": "c8e4b47bcfd793ac0d17d970b180739b", "rental_uris": {"ios": "https://dc.lft.to/lastmile_qr_scan", "android": "https://dc.lft.to/lastmile_qr_scan"}, "type": "electric_scooter", "fusion_lon": 0.0}, {"is_reserved": 0, "is_disabled": 0, "fusion_lat": 0.0, "name": "ffe2ddc2a1349288b359d981a3a89b49", "lat": 38.90746583333333, "lon": -77.04193316666667, "bike_id": "ffe2ddc2a1349288b359d981a3a89b49", "rental_uris": {"ios": "https://dc.lft.to/lastmile_qr_scan", "android": "https://dc.lft.to/lastmile_qr_scan"}, "type": "electric_scooter", "fusion_lon": 0.0}, {"is_reserved": 0, "is_disabled": 0, "fusion_lat": 0.0, "name": "dbb044d7a01ab5bfb9b4a3abc2422481", "lat": 38.919899, "lon": -76.97305916666667, "bike_id": "dbb044d7a01ab5bfb9b4a3abc2422481", "rental_uris": {"ios": "https://dc.lft.to/lastmile_qr_scan", "android": "https://dc.lft.to/lastmile_qr_scan"}, "type": "electric_scooter", "fusion_lon": 0.0}, {"is_reserved": 0, "is_disabled": 0, "fusion_lat": 0.0, "name": "0e44cc11951e93735c12241310fd1351", "lat": 38.934285, "lon": -77.02421316666667, "bike_id": "0e44cc11951e93735c12241310fd1351", "rental_uris": {"ios": "https://dc.lft.to/lastmile_qr_scan", "android": "https://dc.lft.to/lastmile_qr_scan"}, "type": "electric_scooter", "fusion_lon": 0.0}, {"is_reserved": 0, "is_disabled": 0, "fusion_lat": 0.0, "name": "ff8e7dcbc8e1cbeb8b3d07e617908d33", "lat": 38.86352433333333, "lon": -76.99062633333334, "bike_id": "ff8e7dcbc8e1cbeb8b3d07e617908d33", "rental_uris": {"ios": "https://dc.lft.to/lastmile_qr_scan", "android": "https://dc.lft.to/lastmile_qr_scan"}, "type": "electric_scooter", "fusion_lon": 0.0}, {"is_reserved": 0, "is_disabled": 0, "fusion_lat": 0.0, "name": "ea3fa50be0f2454332fadcf7dff551c3", "lat": 38.90376583333333, "lon": -77.04319416666667, "bike_id": "ea3fa50be0f2454332fadcf7dff551c3", "rental_uris": {"ios": "https://dc.lft.to/lastmile_qr_scan", "android": "https://dc.lft.to/lastmile_qr_scan"}, "type": "electric_scooter", "fusion_lon": 0.0}, {"is_reserved": 0, "is_disabled": 0, "fusion_lat": 0.0, "name": "78cd2014372892fc3e7cb37f42927d93", "lat": 38.897614833333336, "lon": -77.02730383333333, "bike_id": "78cd2014372892fc3e7cb37f42927d93", "rental_uris": {"ios": "https://dc.lft.to/lastmile_qr_scan", "android": "https://dc.lft.to/lastmile_qr_scan"}, "type": "electric_scooter", "fusion_lon": 0.0}, {"is_reserved": 0, "is_disabled": 0, "fusion_lat": 0.0, "name": "966b76f8bd27457634a913677c95acfd", "lat": 38.8738805, "lon": -77.00127233333333, "bike_id": "966b76f8bd27457634a913677c95acfd", "rental_uris": {"ios": "https://dc.lft.to/lastmile_qr_scan", "android": "https://dc.lft.to/lastmile_qr_scan"}, "type": "electric_scooter", "fusion_lon": 0.0}, {"is_reserved": 0, "is_disabled": 0, "fusion_lat": 0.0, "name": "0a204c044f2ecc7e6cdda2ce2a92fc31", "lat": 38.9001975, "lon": -77.043495, "bike_id": "0a204c044f2ecc7e6cdda2ce2a92fc31", "rental_uris": {"ios": "https://dc.lft.to/lastmile_qr_scan", "android": "https://dc.lft.to/lastmile_qr_scan"}, "type": "electric_scooter", "fusion_lon": 0.0}, {"is_reserved": 0, "is_disabled": 0, "fusion_lat": 0.0, "name": "7f4c55912a1aae01031440b4c923a256", "lat": 38.9083255, "lon": -76.99696483333334, "bike_id": "7f4c55912a1aae01031440b4c923a256", "rental_uris": {"ios": "https://dc.lft.to/lastmile_qr_scan", "android": "https://dc.lft.to/lastmile_qr_scan"}, "type": "electric_scooter", "fusion_lon": 0.0}, {"is_reserved": 0, "is_disabled": 0, "fusion_lat": 0.0, "name": "2965e2212525af14751953e2f75cf646", "lat": 38.8988445, "lon": -76.93175183333334, "bike_id": "2965e2212525af14751953e2f75cf646", "rental_uris": {"ios": "https://dc.lft.to/lastmile_qr_scan", "android": "https://dc.lft.to/lastmile_qr_scan"}, "type": "electric_scooter", "fusion_lon": 0.0}, {"is_reserved": 0, "is_disabled": 0, "fusion_lat": 0.0, "name": "dcf53f6fea9a2079f1e3e76a1cdd41df", "lat": 38.95016716666667, "lon": -77.0143085, "bike_id": "dcf53f6fea9a2079f1e3e76a1cdd41df", "rental_uris": {"ios": "https://dc.lft.to/lastmile_qr_scan", "android": "https://dc.lft.to/lastmile_qr_scan"}, "type": "electric_scooter", "fusion_lon": 0.0}, {"is_reserved": 0, "is_disabled": 0, "fusion_lat": 0.0, "name": "a0e701aa5578372a51558abb9d5719c9", "lat": 38.9204675, "lon": -77.04190133333333, "bike_id": "a0e701aa5578372a51558abb9d5719c9", "rental_uris": {"ios": "https://dc.lft.to/lastmile_qr_scan", "android": "https://dc.lft.to/lastmile_qr_scan"}, "type": "electric_scooter", "fusion_lon": 0.0}, {"is_reserved": 0, "is_disabled": 0, "fusion_lat": 0.0, "name": "01146c332bccce39f1ca7e9a9804a26d", "lat": 38.92794416666667, "lon": -77.22937816666666, "bike_id": "01146c332bccce39f1ca7e9a9804a26d", "rental_uris": {"ios": "https://dc.lft.to/lastmile_qr_scan", "android": "https://dc.lft.to/lastmile_qr_scan"}, "type": "electric_bike", "fusion_lon": 0.0}, {"is_reserved": 0, "is_disabled": 0, "fusion_lat": 0.0, "name": "0baf8a038c65b70def246e145d3eeb68", "lat": 38.911693166666666, "lon": -77.0318835, "bike_id": "0baf8a038c65b70def246e145d3eeb68", "rental_uris": {"ios": "https://dc.lft.to/lastmile_qr_scan", "android": "https://dc.lft.to/lastmile_qr_scan"}, "type": "electric_scooter", "fusion_lon": 0.0}, {"is_reserved": 0, "is_disabled": 0, "fusion_lat": 0.0, "name": "531e906f58d33f5e002656fee6fbedf3", "lat": 38.930172, "lon": -77.01812833333334, "bike_id": "531e906f58d33f5e002656fee6fbedf3", "rental_uris": {"ios": "https://dc.lft.to/lastmile_qr_scan", "android": "https://dc.lft.to/lastmile_qr_scan"}, "type": "electric_bike", "fusion_lon": 0.0}, {"is_reserved": 0, "is_disabled": 0, "fusion_lat": 0.0, "name": "ccb745c089657f5ff8fab70637f38f1f", "lat": 38.96428616666667, "lon": -77.07426733333334, "bike_id": "ccb745c089657f5ff8fab70637f38f1f", "rental_uris": {"ios": "https://dc.lft.to/lastmile_qr_scan", "android": "https://dc.lft.to/lastmile_qr_scan"}, "type": "electric_scooter", "fusion_lon": 0.0}, {"is_reserved": 0, "is_disabled": 0, "fusion_lat": 0.0, "name": "f9fc93d8180135b4c16294078bc2de8a", "lat": 38.9455595, "lon": -77.06407883333334, "bike_id": "f9fc93d8180135b4c16294078bc2de8a", "rental_uris": {"ios": "https://dc.lft.to/lastmile_qr_scan", "android": "https://dc.lft.to/lastmile_qr_scan"}, "type": "electric_scooter", "fusion_lon": 0.0}, {"is_reserved": 0, "is_disabled": 0, "fusion_lat": 0.0, "name": "d4b1f101b063c3f2aeb1ac8fdcb1e661", "lat": 38.9003645, "lon": -76.9914345, "bike_id": "d4b1f101b063c3f2aeb1ac8fdcb1e661", "rental_uris": {"ios": "https://dc.lft.to/lastmile_qr_scan", "android": "https://dc.lft.to/lastmile_qr_scan"}, "type": "electric_scooter", "fusion_lon": 0.0}, {"is_reserved": 0, "is_disabled": 0, "fusion_lat": 0.0, "name": "49fe69d9639d527bbb7f88b0b493f2cc", "lat": 38.884299666666664, "lon": -76.98559016666667, "bike_id": "49fe69d9639d527bbb7f88b0b493f2cc", "rental_uris": {"ios": "https://dc.lft.to/lastmile_qr_scan", "android": "https://dc.lft.to/lastmile_qr_scan"}, "type": "electric_scooter", "fusion_lon": 0.0}, {"is_reserved": 0, "is_disabled": 0, "fusion_lat": 0.0, "name": "ad98c441fc85e6543e024588b8187d8e", "lat": 38.958151, "lon": -77.01451866666666, "bike_id": "ad98c441fc85e6543e024588b8187d8e", "rental_uris": {"ios": "https://dc.lft.to/lastmile_qr_scan", "android": "https://dc.lft.to/lastmile_qr_scan"}, "type": "electric_scooter", "fusion_lon": 0.0}, {"is_reserved": 0, "is_disabled": 0, "fusion_lat": 0.0, "name": "e0d4a299166483652ed44ba386b2da0f", "lat": 38.884900333333334, "lon": -77.04497733333334, "bike_id": "e0d4a299166483652ed44ba386b2da0f", "rental_uris": {"ios": "https://dc.lft.to/lastmile_qr_scan", "android": "https://dc.lft.to/lastmile_qr_scan"}, "type": "electric_scooter", "fusion_lon": 0.0}, {"is_reserved": 0, "is_disabled": 0, "fusion_lat": 0.0, "name": "e89efd606b3d5035bbabbd147ea9bd5d", "lat": 38.892208333333336, "lon": -77.04357816666666, "bike_id": "e89efd606b3d5035bbabbd147ea9bd5d", "rental_uris": {"ios": "https://dc.lft.to/lastmile_qr_scan", "android": "https://dc.lft.to/lastmile_qr_scan"}, "type": "electric_scooter", "fusion_lon": 0.0}, {"is_reserved": 0, "is_disabled": 0, "fusion_lat": 0.0, "name": "fbd2eb5c26296102b46215dfc7c18380", "lat": 38.922684833333335, "lon": -77.02437166666667, "bike_id": "fbd2eb5c26296102b46215dfc7c18380", "rental_uris": {"ios": "https://dc.lft.to/lastmile_qr_scan", "android": "https://dc.lft.to/lastmile_qr_scan"}, "type": "electric_scooter", "fusion_lon": 0.0}, {"is_reserved": 0, "is_disabled": 0, "fusion_lat": 0.0, "name": "f6f4a937e22a58cd6c62bf1b9ad15b64", "lat": 38.91795533333333, "lon": -77.04442066666667, "bike_id": "f6f4a937e22a58cd6c62bf1b9ad15b64", "rental_uris": {"ios": "https://dc.lft.to/lastmile_qr_scan", "android": "https://dc.lft.to/lastmile_qr_scan"}, "type": "electric_scooter", "fusion_lon": 0.0}, {"is_reserved": 0, "is_disabled": 0, "fusion_lat": 0.0, "name": "268ce6e4d85e476e557d3658c1baf5cd", "lat": 38.92602, "lon": -77.0215535, "bike_id": "268ce6e4d85e476e557d3658c1baf5cd", "rental_uris": {"ios": "https://dc.lft.to/lastmile_qr_scan", "android": "https://dc.lft.to/lastmile_qr_scan"}, "type": "electric_scooter", "fusion_lon": 0.0}, {"is_reserved": 0, "is_disabled": 0, "fusion_lat": 0.0, "name": "f08a63c7f24e4f3efd3614d3ac2ba1cb", "lat": 38.900918, "lon": -76.981181, "bike_id": "f08a63c7f24e4f3efd3614d3ac2ba1cb", "rental_uris": {"ios": "https://dc.lft.to/lastmile_qr_scan", "android": "https://dc.lft.to/lastmile_qr_scan"}, "type": "electric_scooter", "fusion_lon": 0.0}, {"is_reserved": 0, "is_disabled": 0, "fusion_lat": 0.0, "name": "4afd2b45fc7d9c9c19111166ba730177", "lat": 38.87330583333333, "lon": -77.00055566666667, "bike_id": "4afd2b45fc7d9c9c19111166ba730177", "rental_uris": {"ios": "https://dc.lft.to/lastmile_qr_scan", "android": "https://dc.lft.to/lastmile_qr_scan"}, "type": "electric_scooter", "fusion_lon": 0.0}, {"is_reserved": 0, "is_disabled": 0, "fusion_lat": 0.0, "name": "b438b60af874811565ea6c8fe671bf97", "lat": 38.885220833333335, "lon": -76.97711816666667, "bike_id": "b438b60af874811565ea6c8fe671bf97", "rental_uris": {"ios": "https://dc.lft.to/lastmile_qr_scan", "android": "https://dc.lft.to/lastmile_qr_scan"}, "type": "electric_scooter", "fusion_lon": 0.0}, {"is_reserved": 0, "is_disabled": 0, "fusion_lat": 0.0, "name": "703772ac5e19c081ee7c3edb7c4e3679", "lat": 38.91762033333333, "lon": -77.069114, "bike_id": "703772ac5e19c081ee7c3edb7c4e3679", "rental_uris": {"ios": "https://dc.lft.to/lastmile_qr_scan", "android": "https://dc.lft.to/lastmile_qr_scan"}, "type": "electric_scooter", "fusion_lon": 0.0}, {"is_reserved": 0, "is_disabled": 0, "fusion_lat": 0.0, "name": "0ef4ae8daf71bdbe5086b6b726334b85", "lat": 38.90188633333333, "lon": -77.0319695, "bike_id": "0ef4ae8daf71bdbe5086b6b726334b85", "rental_uris": {"ios": "https://dc.lft.to/lastmile_qr_scan", "android": "https://dc.lft.to/lastmile_qr_scan"}, "type": "electric_scooter", "fusion_lon": 0.0}, {"is_reserved": 0, "is_disabled": 0, "fusion_lat": 0.0, "name": "4e56489e26ac21fb9b67baacb3268ead", "lat": 38.89197683333333, "lon": -77.01544066666666, "bike_id": "4e56489e26ac21fb9b67baacb3268ead", "rental_uris": {"ios": "https://dc.lft.to/lastmile_qr_scan", "android": "https://dc.lft.to/lastmile_qr_scan"}, "type": "electric_scooter", "fusion_lon": 0.0}, {"is_reserved": 0, "is_disabled": 0, "fusion_lat": 0.0, "name": "3facd52e7438358334c1ab80c744a500", "lat": 38.81328516666667, "lon": -77.05090866666667, "bike_id": "3facd52e7438358334c1ab80c744a500", "rental_uris": {"ios": "https://dc.lft.to/lastmile_qr_scan", "android": "https://dc.lft.to/lastmile_qr_scan"}, "type": "electric_bike", "fusion_lon": 0.0}, {"is_reserved": 0, "is_disabled": 0, "fusion_lat": 0.0, "name": "5ab971b73949bc0206febdbf6d2c7bec", "lat": 38.91699933333334, "lon": -77.01168183333333, "bike_id": "5ab971b73949bc0206febdbf6d2c7bec", "rental_uris": {"ios": "https://dc.lft.to/lastmile_qr_scan", "android": "https://dc.lft.to/lastmile_qr_scan"}, "type": "electric_scooter", "fusion_lon": 0.0}, {"is_reserved": 0, "is_disabled": 0, "fusion_lat": 0.0, "name": "88efb9a22189cab4ee270ea7055ff283", "lat": 38.9229165, "lon": -77.02065616666667, "bike_id": "88efb9a22189cab4ee270ea7055ff283", "rental_uris": {"ios": "https://dc.lft.to/lastmile_qr_scan", "android": "https://dc.lft.to/lastmile_qr_scan"}, "type": "electric_scooter", "fusion_lon": 0.0}, {"is_reserved": 0, "is_disabled": 0, "fusion_lat": 0.0, "name": "df7fc0e74cd012311e2ca277a9767e37", "lat": 38.87629866666666, "lon": -77.00576883333333, "bike_id": "df7fc0e74cd012311e2ca277a9767e37", "rental_uris": {"ios": "https://dc.lft.to/lastmile_qr_scan", "android": "https://dc.lft.to/lastmile_qr_scan"}, "type": "electric_scooter", "fusion_lon": 0.0}, {"is_reserved": 0, "is_disabled": 0, "fusion_lat": 0.0, "name": "6d770b257467c13f10559a7a982f1120", "lat": 38.921014166666666, "lon": -77.07188166666667, "bike_id": "6d770b257467c13f10559a7a982f1120", "rental_uris": {"ios": "https://dc.lft.to/lastmile_qr_scan", "android": "https://dc.lft.to/lastmile_qr_scan"}, "type": "electric_bike", "fusion_lon": 0.0}, {"is_reserved": 0, "is_disabled": 0, "fusion_lat": 0.0, "name": "f4a2e9d9ddb58e10a51dbcf187359f8f", "lat": 38.9201285, "lon": -77.04735066666667, "bike_id": "f4a2e9d9ddb58e10a51dbcf187359f8f", "rental_uris": {"ios": "https://dc.lft.to/lastmile_qr_scan", "android": "https://dc.lft.to/lastmile_qr_scan"}, "type": "electric_bike", "fusion_lon": 0.0}, {"is_reserved": 0, "is_disabled": 0, "fusion_lat": 0.0, "name": "0fddf826c08d75d04d0fc5e397102bc4", "lat": 38.89330666666667, "lon": -76.93928983333333, "bike_id": "0fddf826c08d75d04d0fc5e397102bc4", "rental_uris": {"ios": "https://dc.lft.to/lastmile_qr_scan", "android": "https://dc.lft.to/lastmile_qr_scan"}, "type": "electric_scooter", "fusion_lon": 0.0}, {"is_reserved": 0, "is_disabled": 0, "fusion_lat": 0.0, "name": "b199445d2474b1367c0ea772f29bc193", "lat": 38.87544066666667, "lon": -77.0053615, "bike_id": "b199445d2474b1367c0ea772f29bc193", "rental_uris": {"ios": "https://dc.lft.to/lastmile_qr_scan", "android": "https://dc.lft.to/lastmile_qr_scan"}, "type": "electric_scooter", "fusion_lon": 0.0}, {"is_reserved": 0, "is_disabled": 0, "fusion_lat": 0.0, "name": "55cab055d07659c9f8cc59c9b40d956a", "lat": 38.892248, "lon": -77.01738283333333, "bike_id": "55cab055d07659c9f8cc59c9b40d956a", "rental_uris": {"ios": "https://dc.lft.to/lastmile_qr_scan", "android": "https://dc.lft.to/lastmile_qr_scan"}, "type": "electric_scooter", "fusion_lon": 0.0}, {"is_reserved": 0, "is_disabled": 0, "fusion_lat": 0.0, "name": "02ac3282a96f892490f3917162ae15a1", "lat": 38.910047166666665, "lon": -77.0210015, "bike_id": "02ac3282a96f892490f3917162ae15a1", "rental_uris": {"ios": "https://dc.lft.to/lastmile_qr_scan", "android": "https://dc.lft.to/lastmile_qr_scan"}, "type": "electric_scooter", "fusion_lon": 0.0}, {"is_reserved": 0, "is_disabled": 0, "fusion_lat": 0.0, "name": "93b163bdcbe6f4e9964278ca2be44a45", "lat": 38.900893333333336, "lon": -77.05036683333333, "bike_id": "93b163bdcbe6f4e9964278ca2be44a45", "rental_uris": {"ios": "https://dc.lft.to/lastmile_qr_scan", "android": "https://dc.lft.to/lastmile_qr_scan"}, "type": "electric_scooter", "fusion_lon": 0.0}, {"is_reserved": 0, "is_disabled": 0, "fusion_lat": 0.0, "name": "f59cb409e1fcb6a6f331e45750a3e48b", "lat": 38.87579366666667, "lon": -77.23413966666666, "bike_id": "f59cb409e1fcb6a6f331e45750a3e48b", "rental_uris": {"ios": "https://dc.lft.to/lastmile_qr_scan", "android": "https://dc.lft.to/lastmile_qr_scan"}, "type": "electric_bike", "fusion_lon": 0.0}, {"is_reserved": 0, "is_disabled": 0, "fusion_lat": 0.0, "name": "9c976ba01964ed4d781a31525971208b", "lat": 38.916780333333335, "lon": -77.029776, "bike_id": "9c976ba01964ed4d781a31525971208b", "rental_uris": {"ios": "https://dc.lft.to/lastmile_qr_scan", "android": "https://dc.lft.to/lastmile_qr_scan"}, "type": "electric_scooter", "fusion_lon": 0.0}, {"is_reserved": 0, "is_disabled": 0, "fusion_lat": 0.0, "name": "3fc2d7b5d601026b48a3978e6f77ac2c", "lat": 38.9176065, "lon": -77.00455183333334, "bike_id": "3fc2d7b5d601026b48a3978e6f77ac2c", "rental_uris": {"ios": "https://dc.lft.to/lastmile_qr_scan", "android": "https://dc.lft.to/lastmile_qr_scan"}, "type": "electric_scooter", "fusion_lon": 0.0}, {"is_reserved": 0, "is_disabled": 0, "fusion_lat": 0.0, "name": "248e491a74061f790153077fcd3e0a5c", "lat": 38.924361, "lon": -77.0424535, "bike_id": "248e491a74061f790153077fcd3e0a5c", "rental_uris": {"ios": "https://dc.lft.to/lastmile_qr_scan", "android": "https://dc.lft.to/lastmile_qr_scan"}, "type": "electric_scooter", "fusion_lon": 0.0}, {"is_reserved": 0, "is_disabled": 0, "fusion_lat": 0.0, "name": "b947dcb4e563bc11f94a1fdc92f804b5", "lat": 38.8850535, "lon": -77.025839, "bike_id": "b947dcb4e563bc11f94a1fdc92f804b5", "rental_uris": {"ios": "https://dc.lft.to/lastmile_qr_scan", "android": "https://dc.lft.to/lastmile_qr_scan"}, "type": "electric_scooter", "fusion_lon": 0.0}, {"is_reserved": 0, "is_disabled": 0, "fusion_lat": 0.0, "name": "ac79c665eb6f13d14e4c067b258e7bb2", "lat": 38.89005683333333, "lon": -76.93746666666667, "bike_id": "ac79c665eb6f13d14e4c067b258e7bb2", "rental_uris": {"ios": "https://dc.lft.to/lastmile_qr_scan", "android": "https://dc.lft.to/lastmile_qr_scan"}, "type": "electric_scooter", "fusion_lon": 0.0}, {"is_reserved": 0, "is_disabled": 0, "fusion_lat": 0.0, "name": "c6e355929d3c4b432a94359f099e8958", "lat": 38.921853166666665, "lon": -77.02231066666667, "bike_id": "c6e355929d3c4b432a94359f099e8958", "rental_uris": {"ios": "https://dc.lft.to/lastmile_qr_scan", "android": "https://dc.lft.to/lastmile_qr_scan"}, "type": "electric_scooter", "fusion_lon": 0.0}, {"is_reserved": 0, "is_disabled": 0, "fusion_lat": 0.0, "name": "bf50ba09f9e7a69092e2028cb467ae0a", "lat": 38.90806883333333, "lon": -77.063641, "bike_id": "bf50ba09f9e7a69092e2028cb467ae0a", "rental_uris": {"ios": "https://dc.lft.to/lastmile_qr_scan", "android": "https://dc.lft.to/lastmile_qr_scan"}, "type": "electric_scooter", "fusion_lon": 0.0}, {"is_reserved": 0, "is_disabled": 0, "fusion_lat": 0.0, "name": "3408a3fef124feedce969b7da0c94da5", "lat": 38.91708783333333, "lon": -77.03902216666667, "bike_id": "3408a3fef124feedce969b7da0c94da5", "rental_uris": {"ios": "https://dc.lft.to/lastmile_qr_scan", "android": "https://dc.lft.to/lastmile_qr_scan"}, "type": "electric_scooter", "fusion_lon": 0.0}, {"is_reserved": 0, "is_disabled": 0, "fusion_lat": 0.0, "name": "114a9f01a199357bc919cdd3b8829a65", "lat": 39.08431916666667, "lon": -76.95141133333334, "bike_id": "114a9f01a199357bc919cdd3b8829a65", "rental_uris": {"ios": "https://dc.lft.to/lastmile_qr_scan", "android": "https://dc.lft.to/lastmile_qr_scan"}, "type": "electric_bike", "fusion_lon": 0.0}, {"is_reserved": 0, "is_disabled": 0, "fusion_lat": 0.0, "name": "06bc7a13ea6ad8646fb72e92a9158775", "lat": 38.9267825, "lon": -77.00883083333333, "bike_id": "06bc7a13ea6ad8646fb72e92a9158775", "rental_uris": {"ios": "https://dc.lft.to/lastmile_qr_scan", "android": "https://dc.lft.to/lastmile_qr_scan"}, "type": "electric_scooter", "fusion_lon": 0.0}, {"is_reserved": 0, "is_disabled": 0, "fusion_lat": 0.0, "name": "c4d1ddbf4ee4383e074071c21f385a90", "lat": 38.89704183333333, "lon": -77.0488405, "bike_id": "c4d1ddbf4ee4383e074071c21f385a90", "rental_uris": {"ios": "https://dc.lft.to/lastmile_qr_scan", "android": "https://dc.lft.to/lastmile_qr_scan"}, "type": "electric_scooter", "fusion_lon": 0.0}, {"is_reserved": 0, "is_disabled": 0, "fusion_lat": 0.0, "name": "e018d99ee7f63a41ca02d666a1972beb", "lat": 38.9059475, "lon": -77.02600283333334, "bike_id": "e018d99ee7f63a41ca02d666a1972beb", "rental_uris": {"ios": "https://dc.lft.to/lastmile_qr_scan", "android": "https://dc.lft.to/lastmile_qr_scan"}, "type": "electric_scooter", "fusion_lon": 0.0}, {"is_reserved": 0, "is_disabled": 0, "fusion_lat": 0.0, "name": "19755a8336c3c5d3e1ac9eaa15d5bf6c", "lat": 38.9316425, "lon": -77.05609516666667, "bike_id": "19755a8336c3c5d3e1ac9eaa15d5bf6c", "rental_uris": {"ios": "https://dc.lft.to/lastmile_qr_scan", "android": "https://dc.lft.to/lastmile_qr_scan"}, "type": "electric_scooter", "fusion_lon": 0.0}, {"is_reserved": 0, "is_disabled": 0, "fusion_lat": 0.0, "name": "dcfbfd77b7f427ed5775dab6147731b5", "lat": 38.9136825, "lon": -77.06709166666667, "bike_id": "dcfbfd77b7f427ed5775dab6147731b5", "rental_uris": {"ios": "https://dc.lft.to/lastmile_qr_scan", "android": "https://dc.lft.to/lastmile_qr_scan"}, "type": "electric_scooter", "fusion_lon": 0.0}, {"is_reserved": 0, "is_disabled": 0, "fusion_lat": 0.0, "name": "e653ac22eaedc6c4cd03e5d0832c21dd", "lat": 38.9057555, "lon": -77.06159083333333, "bike_id": "e653ac22eaedc6c4cd03e5d0832c21dd", "rental_uris": {"ios": "https://dc.lft.to/lastmile_qr_scan", "android": "https://dc.lft.to/lastmile_qr_scan"}, "type": "electric_bike", "fusion_lon": 0.0}, {"is_reserved": 0, "is_disabled": 0, "fusion_lat": 0.0, "name": "f7f6f1ebfbea6f6d06e4d0d0e714d290", "lat": 38.90260583333333, "lon": -77.02013966666667, "bike_id": "f7f6f1ebfbea6f6d06e4d0d0e714d290", "rental_uris": {"ios": "https://dc.lft.to/lastmile_qr_scan", "android": "https://dc.lft.to/lastmile_qr_scan"}, "type": "electric_scooter", "fusion_lon": 0.0}, {"is_reserved": 0, "is_disabled": 0, "fusion_lat": 0.0, "name": "73c03c8a40f1654a270f04ee1ac838db", "lat": 38.9042145, "lon": -77.02722233333333, "bike_id": "73c03c8a40f1654a270f04ee1ac838db", "rental_uris": {"ios": "https://dc.lft.to/lastmile_qr_scan", "android": "https://dc.lft.to/lastmile_qr_scan"}, "type": "electric_scooter", "fusion_lon": 0.0}, {"is_reserved": 0, "is_disabled": 0, "fusion_lat": 0.0, "name": "ecd39369f80619060de99004ef17b39c", "lat": 38.909743166666665, "lon": -77.045528, "bike_id": "ecd39369f80619060de99004ef17b39c", "rental_uris": {"ios": "https://dc.lft.to/lastmile_qr_scan", "android": "https://dc.lft.to/lastmile_qr_scan"}, "type": "electric_scooter", "fusion_lon": 0.0}, {"is_reserved": 0, "is_disabled": 0, "fusion_lat": 0.0, "name": "8ecb398b758c8846701592220fa589f8", "lat": 38.909448166666664, "lon": -76.935947, "bike_id": "8ecb398b758c8846701592220fa589f8", "rental_uris": {"ios": "https://dc.lft.to/lastmile_qr_scan", "android": "https://dc.lft.to/lastmile_qr_scan"}, "type": "electric_scooter", "fusion_lon": 0.0}, {"is_reserved": 0, "is_disabled": 0, "fusion_lat": 0.0, "name": "06088003880050ad10ac41e9d92ea569", "lat": 38.938505166666666, "lon": -77.0326255, "bike_id": "06088003880050ad10ac41e9d92ea569", "rental_uris": {"ios": "https://dc.lft.to/lastmile_qr_scan", "android": "https://dc.lft.to/lastmile_qr_scan"}, "type": "electric_scooter", "fusion_lon": 0.0}, {"is_reserved": 0, "is_disabled": 0, "fusion_lat": 0.0, "name": "fea4be85c0b9653513f3e3fa832cff73", "lat": 38.912639, "lon": -77.04090783333334, "bike_id": "fea4be85c0b9653513f3e3fa832cff73", "rental_uris": {"ios": "https://dc.lft.to/lastmile_qr_scan", "android": "https://dc.lft.to/lastmile_qr_scan"}, "type": "electric_scooter", "fusion_lon": 0.0}, {"is_reserved": 0, "is_disabled": 0, "fusion_lat": 0.0, "name": "af7589888b71f56ecea7470c0f66657d", "lat": 38.915258666666666, "lon": -77.02184683333333, "bike_id": "af7589888b71f56ecea7470c0f66657d", "rental_uris": {"ios": "https://dc.lft.to/lastmile_qr_scan", "android": "https://dc.lft.to/lastmile_qr_scan"}, "type": "electric_scooter", "fusion_lon": 0.0}, {"is_reserved": 0, "is_disabled": 0, "fusion_lat": 0.0, "name": "df9a60bfd4226a9680405a10006bb6ea", "lat": 38.90399633333333, "lon": -77.0385685, "bike_id": "df9a60bfd4226a9680405a10006bb6ea", "rental_uris": {"ios": "https://dc.lft.to/lastmile_qr_scan", "android": "https://dc.lft.to/lastmile_qr_scan"}, "type": "electric_scooter", "fusion_lon": 0.0}, {"is_reserved": 0, "is_disabled": 0, "fusion_lat": 0.0, "name": "e8f4768b7aec3064ee7285356e9e5880", "lat": 38.920628, "lon": -77.04179016666667, "bike_id": "e8f4768b7aec3064ee7285356e9e5880", "rental_uris": {"ios": "https://dc.lft.to/lastmile_qr_scan", "android": "https://dc.lft.to/lastmile_qr_scan"}, "type": "electric_scooter", "fusion_lon": 0.0}, {"is_reserved": 0, "is_disabled": 0, "fusion_lat": 0.0, "name": "f0fd35827c819fd58add1b2573700d59", "lat": 38.87662, "lon": -77.01943133333333, "bike_id": "f0fd35827c819fd58add1b2573700d59", "rental_uris": {"ios": "https://dc.lft.to/lastmile_qr_scan", "android": "https://dc.lft.to/lastmile_qr_scan"}, "type": "electric_scooter", "fusion_lon": 0.0}, {"is_reserved": 0, "is_disabled": 0, "fusion_lat": 0.0, "name": "48409eb0474787f2a6eceeabdafb3703", "lat": 38.89723266666667, "lon": -76.99464466666667, "bike_id": "48409eb0474787f2a6eceeabdafb3703", "rental_uris": {"ios": "https://dc.lft.to/lastmile_qr_scan", "android": "https://dc.lft.to/lastmile_qr_scan"}, "type": "electric_scooter", "fusion_lon": 0.0}, {"is_reserved": 0, "is_disabled": 0, "fusion_lat": 0.0, "name": "b224fb650848a1161ccc4905132083ba", "lat": 38.907520833333336, "lon": -77.04547616666666, "bike_id": "b224fb650848a1161ccc4905132083ba", "rental_uris": {"ios": "https://dc.lft.to/lastmile_qr_scan", "android": "https://dc.lft.to/lastmile_qr_scan"}, "type": "electric_scooter", "fusion_lon": 0.0}, {"is_reserved": 0, "is_disabled": 0, "fusion_lat": 0.0, "name": "72206a9287c603dc4d0f38956f9dea67", "lat": 38.88026383333333, "lon": -76.91720616666667, "bike_id": "72206a9287c603dc4d0f38956f9dea67", "rental_uris": {"ios": "https://dc.lft.to/lastmile_qr_scan", "android": "https://dc.lft.to/lastmile_qr_scan"}, "type": "electric_bike", "fusion_lon": 0.0}, {"is_reserved": 0, "is_disabled": 0, "fusion_lat": 0.0, "name": "f12b0996d427803881735df8674a776a", "lat": 38.9048325, "lon": -76.94961883333333, "bike_id": "f12b0996d427803881735df8674a776a", "rental_uris": {"ios": "https://dc.lft.to/lastmile_qr_scan", "android": "https://dc.lft.to/lastmile_qr_scan"}, "type": "electric_scooter", "fusion_lon": 0.0}, {"is_reserved": 0, "is_disabled": 0, "fusion_lat": 0.0, "name": "7de8b3a956a41d97388e91a1760c543f", "lat": 38.90139216666667, "lon": -77.0387075, "bike_id": "7de8b3a956a41d97388e91a1760c543f", "rental_uris": {"ios": "https://dc.lft.to/lastmile_qr_scan", "android": "https://dc.lft.to/lastmile_qr_scan"}, "type": "electric_scooter", "fusion_lon": 0.0}, {"is_reserved": 0, "is_disabled": 0, "fusion_lat": 0.0, "name": "12d06cff2f5cf467bd138a6ad49cc142", "lat": 38.89750433333333, "lon": -77.02982533333333, "bike_id": "12d06cff2f5cf467bd138a6ad49cc142", "rental_uris": {"ios": "https://dc.lft.to/lastmile_qr_scan", "android": "https://dc.lft.to/lastmile_qr_scan"}, "type": "electric_scooter", "fusion_lon": 0.0}, {"is_reserved": 0, "is_disabled": 0, "fusion_lat": 0.0, "name": "53f3ffa132cc0673ad794be353d7c371", "lat": 38.89897083333334, "lon": -77.02318733333334, "bike_id": "53f3ffa132cc0673ad794be353d7c371", "rental_uris": {"ios": "https://dc.lft.to/lastmile_qr_scan", "android": "https://dc.lft.to/lastmile_qr_scan"}, "type": "electric_scooter", "fusion_lon": 0.0}, {"is_reserved": 0, "is_disabled": 0, "fusion_lat": 0.0, "name": "427348da9cbc28ce2da842be41634687", "lat": 38.9360615, "lon": -77.03203033333334, "bike_id": "427348da9cbc28ce2da842be41634687", "rental_uris": {"ios": "https://dc.lft.to/lastmile_qr_scan", "android": "https://dc.lft.to/lastmile_qr_scan"}, "type": "electric_scooter", "fusion_lon": 0.0}, {"is_reserved": 0, "is_disabled": 0, "fusion_lat": 0.0, "name": "b3c20faae12b64e8984e56cdd7cb8f5b", "lat": 38.893302, "lon": -76.93925466666667, "bike_id": "b3c20faae12b64e8984e56cdd7cb8f5b", "rental_uris": {"ios": "https://dc.lft.to/lastmile_qr_scan", "android": "https://dc.lft.to/lastmile_qr_scan"}, "type": "electric_scooter", "fusion_lon": 0.0}, {"is_reserved": 0, "is_disabled": 0, "fusion_lat": 0.0, "name": "f516c09f86a532b3781294bf4b4591e9", "lat": 38.93700716666667, "lon": -77.05598866666666, "bike_id": "f516c09f86a532b3781294bf4b4591e9", "rental_uris": {"ios": "https://dc.lft.to/lastmile_qr_scan", "android": "https://dc.lft.to/lastmile_qr_scan"}, "type": "electric_scooter", "fusion_lon": 0.0}, {"is_reserved": 0, "is_disabled": 0, "fusion_lat": 0.0, "name": "ea543067dfb33bcd20c102939a072ba4", "lat": 38.908497833333335, "lon": -77.041712, "bike_id": "ea543067dfb33bcd20c102939a072ba4", "rental_uris": {"ios": "https://dc.lft.to/lastmile_qr_scan", "android": "https://dc.lft.to/lastmile_qr_scan"}, "type": "electric_scooter", "fusion_lon": 0.0}, {"is_reserved": 0, "is_disabled": 0, "fusion_lat": 0.0, "name": "38474b70e2b3c2d536bc22e895684552", "lat": 38.901275166666665, "lon": -77.03820883333333, "bike_id": "38474b70e2b3c2d536bc22e895684552", "rental_uris": {"ios": "https://dc.lft.to/lastmile_qr_scan", "android": "https://dc.lft.to/lastmile_qr_scan"}, "type": "electric_scooter", "fusion_lon": 0.0}, {"is_reserved": 0, "is_disabled": 0, "fusion_lat": 0.0, "name": "f84e1e5cb76614379e0c2c3d696c8b9b", "lat": 38.899035833333336, "lon": -77.04034033333333, "bike_id": "f84e1e5cb76614379e0c2c3d696c8b9b", "rental_uris": {"ios": "https://dc.lft.to/lastmile_qr_scan", "android": "https://dc.lft.to/lastmile_qr_scan"}, "type": "electric_scooter", "fusion_lon": 0.0}, {"is_reserved": 0, "is_disabled": 0, "fusion_lat": 0.0, "name": "d1abe5be0ab664eb4ad502d4e47a5949", "lat": 38.9124935, "lon": -77.02809633333334, "bike_id": "d1abe5be0ab664eb4ad502d4e47a5949", "rental_uris": {"ios": "https://dc.lft.to/lastmile_qr_scan", "android": "https://dc.lft.to/lastmile_qr_scan"}, "type": "electric_scooter", "fusion_lon": 0.0}, {"is_reserved": 0, "is_disabled": 0, "fusion_lat": 0.0, "name": "318bc283f401cbc8ed16ac9821231468", "lat": 38.90689916666667, "lon": -77.02715316666666, "bike_id": "318bc283f401cbc8ed16ac9821231468", "rental_uris": {"ios": "https://dc.lft.to/lastmile_qr_scan", "android": "https://dc.lft.to/lastmile_qr_scan"}, "type": "electric_scooter", "fusion_lon": 0.0}, {"is_reserved": 0, "is_disabled": 0, "fusion_lat": 0.0, "name": "a1fe0dec9760ca6ede0b3c58a93fd5b7", "lat": 38.885792333333335, "lon": -77.0122695, "bike_id": "a1fe0dec9760ca6ede0b3c58a93fd5b7", "rental_uris": {"ios": "https://dc.lft.to/lastmile_qr_scan", "android": "https://dc.lft.to/lastmile_qr_scan"}, "type": "electric_scooter", "fusion_lon": 0.0}, {"is_reserved": 0, "is_disabled": 0, "fusion_lat": 0.0, "name": "563ef1b71948c980772b42915c6b3f75", "lat": 38.952590666666666, "lon": -77.02074116666667, "bike_id": "563ef1b71948c980772b42915c6b3f75", "rental_uris": {"ios": "https://dc.lft.to/lastmile_qr_scan", "android": "https://dc.lft.to/lastmile_qr_scan"}, "type": "electric_scooter", "fusion_lon": 0.0}, {"is_reserved": 0, "is_disabled": 0, "fusion_lat": 0.0, "name": "96ca0f823020f5e26cb3bcba28576cab", "lat": 38.930802, "lon": -77.02808633333333, "bike_id": "96ca0f823020f5e26cb3bcba28576cab", "rental_uris": {"ios": "https://dc.lft.to/lastmile_qr_scan", "android": "https://dc.lft.to/lastmile_qr_scan"}, "type": "electric_scooter", "fusion_lon": 0.0}, {"is_reserved": 0, "is_disabled": 0, "fusion_lat": 0.0, "name": "5105504fab73de1e2b107392c13d9fdf", "lat": 38.91749383333333, "lon": -77.02115633333334, "bike_id": "5105504fab73de1e2b107392c13d9fdf", "rental_uris": {"ios": "https://dc.lft.to/lastmile_qr_scan", "android": "https://dc.lft.to/lastmile_qr_scan"}, "type": "electric_scooter", "fusion_lon": 0.0}, {"is_reserved": 0, "is_disabled": 0, "fusion_lat": 0.0, "name": "b93e51461308dd04c276bf9c7e16a084", "lat": 38.92218533333333, "lon": -77.0423485, "bike_id": "b93e51461308dd04c276bf9c7e16a084", "rental_uris": {"ios": "https://dc.lft.to/lastmile_qr_scan", "android": "https://dc.lft.to/lastmile_qr_scan"}, "type": "electric_scooter", "fusion_lon": 0.0}, {"is_reserved": 0, "is_disabled": 0, "fusion_lat": 0.0, "name": "b833dff01627b8e23a6f32aab950dbb1", "lat": 38.92679433333333, "lon": -77.00858183333334, "bike_id": "b833dff01627b8e23a6f32aab950dbb1", "rental_uris": {"ios": "https://dc.lft.to/lastmile_qr_scan", "android": "https://dc.lft.to/lastmile_qr_scan"}, "type": "electric_scooter", "fusion_lon": 0.0}, {"is_reserved": 0, "is_disabled": 0, "fusion_lat": 0.0, "name": "22fd3503ed051999f1ad6ee5f5605371", "lat": 38.87842466666667, "lon": -76.93128016666667, "bike_id": "22fd3503ed051999f1ad6ee5f5605371", "rental_uris": {"ios": "https://dc.lft.to/lastmile_qr_scan", "android": "https://dc.lft.to/lastmile_qr_scan"}, "type": "electric_scooter", "fusion_lon": 0.0}, {"is_reserved": 0, "is_disabled": 0, "fusion_lat": 0.0, "name": "85c17500a5e4f90f380a207489998a7e", "lat": 38.939522333333336, "lon": -77.0724435, "bike_id": "85c17500a5e4f90f380a207489998a7e", "rental_uris": {"ios": "https://dc.lft.to/lastmile_qr_scan", "android": "https://dc.lft.to/lastmile_qr_scan"}, "type": "electric_scooter", "fusion_lon": 0.0}, {"is_reserved": 0, "is_disabled": 0, "fusion_lat": 0.0, "name": "dd26932ea42fe592192e59c4cf5ab899", "lat": 38.87359816666667, "lon": -77.00203216666667, "bike_id": "dd26932ea42fe592192e59c4cf5ab899", "rental_uris": {"ios": "https://dc.lft.to/lastmile_qr_scan", "android": "https://dc.lft.to/lastmile_qr_scan"}, "type": "electric_scooter", "fusion_lon": 0.0}, {"is_reserved": 0, "is_disabled": 0, "fusion_lat": 0.0, "name": "8252491f861970dcddd3ac89c987b1cc", "lat": 39.01062833333334, "lon": -76.92241033333333, "bike_id": "8252491f861970dcddd3ac89c987b1cc", "rental_uris": {"ios": "https://dc.lft.to/lastmile_qr_scan", "android": "https://dc.lft.to/lastmile_qr_scan"}, "type": "electric_bike", "fusion_lon": 0.0}, {"is_reserved": 0, "is_disabled": 0, "fusion_lat": 0.0, "name": "aa93f28c1d57f97eec7022f3cd1f3b35", "lat": 38.89849616666667, "lon": -77.0227145, "bike_id": "aa93f28c1d57f97eec7022f3cd1f3b35", "rental_uris": {"ios": "https://dc.lft.to/lastmile_qr_scan", "android": "https://dc.lft.to/lastmile_qr_scan"}, "type": "electric_scooter", "fusion_lon": 0.0}, {"is_reserved": 0, "is_disabled": 0, "fusion_lat": 0.0, "name": "a056a9c06ad4b062211a8316f24e736d", "lat": 38.915619666666665, "lon": -77.036651, "bike_id": "a056a9c06ad4b062211a8316f24e736d", "rental_uris": {"ios": "https://dc.lft.to/lastmile_qr_scan", "android": "https://dc.lft.to/lastmile_qr_scan"}, "type": "electric_scooter", "fusion_lon": 0.0}, {"is_reserved": 0, "is_disabled": 0, "fusion_lat": 0.0, "name": "e1838a80ecbdd2c3f146ff0fd7b04fea", "lat": 38.9037375, "lon": -77.02966666666667, "bike_id": "e1838a80ecbdd2c3f146ff0fd7b04fea", "rental_uris": {"ios": "https://dc.lft.to/lastmile_qr_scan", "android": "https://dc.lft.to/lastmile_qr_scan"}, "type": "electric_scooter", "fusion_lon": 0.0}, {"is_reserved": 0, "is_disabled": 0, "fusion_lat": 0.0, "name": "5841b23821a560ef009dd462347f6162", "lat": 38.931322, "lon": -77.02202366666667, "bike_id": "5841b23821a560ef009dd462347f6162", "rental_uris": {"ios": "https://dc.lft.to/lastmile_qr_scan", "android": "https://dc.lft.to/lastmile_qr_scan"}, "type": "electric_scooter", "fusion_lon": 0.0}, {"is_reserved": 0, "is_disabled": 0, "fusion_lat": 0.0, "name": "cfd307e670ce5dab6b7727b72f0a75e7", "lat": 38.89792633333333, "lon": -77.049681, "bike_id": "cfd307e670ce5dab6b7727b72f0a75e7", "rental_uris": {"ios": "https://dc.lft.to/lastmile_qr_scan", "android": "https://dc.lft.to/lastmile_qr_scan"}, "type": "electric_scooter", "fusion_lon": 0.0}, {"is_reserved": 0, "is_disabled": 0, "fusion_lat": 0.0, "name": "2a01d5c4b0bf1e80d5d3e5f93b03a6c1", "lat": 38.90422733333333, "lon": -77.0205565, "bike_id": "2a01d5c4b0bf1e80d5d3e5f93b03a6c1", "rental_uris": {"ios": "https://dc.lft.to/lastmile_qr_scan", "android": "https://dc.lft.to/lastmile_qr_scan"}, "type": "electric_scooter", "fusion_lon": 0.0}, {"is_reserved": 0, "is_disabled": 0, "fusion_lat": 0.0, "name": "40e8ab573b2d64cce9824a5deaa72b4e", "lat": 38.9141475, "lon": -77.01807016666666, "bike_id": "40e8ab573b2d64cce9824a5deaa72b4e", "rental_uris": {"ios": "https://dc.lft.to/lastmile_qr_scan", "android": "https://dc.lft.to/lastmile_qr_scan"}, "type": "electric_scooter", "fusion_lon": 0.0}, {"is_reserved": 0, "is_disabled": 0, "fusion_lat": 0.0, "name": "840200ef5b55e0a5746894d1db8bdc84", "lat": 38.92957366666667, "lon": -77.03191916666667, "bike_id": "840200ef5b55e0a5746894d1db8bdc84", "rental_uris": {"ios": "https://dc.lft.to/lastmile_qr_scan", "android": "https://dc.lft.to/lastmile_qr_scan"}, "type": "electric_scooter", "fusion_lon": 0.0}, {"is_reserved": 0, "is_disabled": 0, "fusion_lat": 0.0, "name": "9bbd8ff25277f97bcfd0ead36e0522d3", "lat": 38.896807833333334, "lon": -77.02735216666666, "bike_id": "9bbd8ff25277f97bcfd0ead36e0522d3", "rental_uris": {"ios": "https://dc.lft.to/lastmile_qr_scan", "android": "https://dc.lft.to/lastmile_qr_scan"}, "type": "electric_scooter", "fusion_lon": 0.0}, {"is_reserved": 0, "is_disabled": 0, "fusion_lat": 0.0, "name": "528dc2c19cd8abee89180552d43aea25", "lat": 38.920703833333334, "lon": -77.03887516666667, "bike_id": "528dc2c19cd8abee89180552d43aea25", "rental_uris": {"ios": "https://dc.lft.to/lastmile_qr_scan", "android": "https://dc.lft.to/lastmile_qr_scan"}, "type": "electric_scooter", "fusion_lon": 0.0}, {"is_reserved": 0, "is_disabled": 0, "fusion_lat": 0.0, "name": "d4f2c0fee4feef5f6564c868785c15c2", "lat": 38.904984666666664, "lon": -77.0294655, "bike_id": "d4f2c0fee4feef5f6564c868785c15c2", "rental_uris": {"ios": "https://dc.lft.to/lastmile_qr_scan", "android": "https://dc.lft.to/lastmile_qr_scan"}, "type": "electric_scooter", "fusion_lon": 0.0}, {"is_reserved": 0, "is_disabled": 0, "fusion_lat": 0.0, "name": "4f29e9086d49ef191ff160894132feb5", "lat": 38.921489, "lon": -77.0423975, "bike_id": "4f29e9086d49ef191ff160894132feb5", "rental_uris": {"ios": "https://dc.lft.to/lastmile_qr_scan", "android": "https://dc.lft.to/lastmile_qr_scan"}, "type": "electric_scooter", "fusion_lon": 0.0}, {"is_reserved": 0, "is_disabled": 0, "fusion_lat": 0.0, "name": "90a1160bfdf9ff0f48acd4018d62fb38", "lat": 38.9211205, "lon": -77.0309285, "bike_id": "90a1160bfdf9ff0f48acd4018d62fb38", "rental_uris": {"ios": "https://dc.lft.to/lastmile_qr_scan", "android": "https://dc.lft.to/lastmile_qr_scan"}, "type": "electric_scooter", "fusion_lon": 0.0}, {"is_reserved": 0, "is_disabled": 0, "fusion_lat": 0.0, "name": "2aa5c5944d3933560e25838fc2c63942", "lat": 38.914847333333334, "lon": -77.03434816666666, "bike_id": "2aa5c5944d3933560e25838fc2c63942", "rental_uris": {"ios": "https://dc.lft.to/lastmile_qr_scan", "android": "https://dc.lft.to/lastmile_qr_scan"}, "type": "electric_scooter", "fusion_lon": 0.0}, {"is_reserved": 0, "is_disabled": 0, "fusion_lat": 0.0, "name": "49f538b701ee2d57b2574c457b920f8b", "lat": 38.841060666666664, "lon": -77.08942116666667, "bike_id": "49f538b701ee2d57b2574c457b920f8b", "rental_uris": {"ios": "https://dc.lft.to/lastmile_qr_scan", "android": "https://dc.lft.to/lastmile_qr_scan"}, "type": "electric_bike", "fusion_lon": 0.0}, {"is_reserved": 0, "is_disabled": 0, "fusion_lat": 0.0, "name": "ced1f3e1401b7041f8fc537cac807656", "lat": 38.9098155, "lon": -77.0648685, "bike_id": "ced1f3e1401b7041f8fc537cac807656", "rental_uris": {"ios": "https://dc.lft.to/lastmile_qr_scan", "android": "https://dc.lft.to/lastmile_qr_scan"}, "type": "electric_scooter", "fusion_lon": 0.0}, {"is_reserved": 0, "is_disabled": 0, "fusion_lat": 0.0, "name": "ed23683efc696c012f594be5bab993d4", "lat": 38.904341, "lon": -76.97229033333333, "bike_id": "ed23683efc696c012f594be5bab993d4", "rental_uris": {"ios": "https://dc.lft.to/lastmile_qr_scan", "android": "https://dc.lft.to/lastmile_qr_scan"}, "type": "electric_bike", "fusion_lon": 0.0}, {"is_reserved": 0, "is_disabled": 0, "fusion_lat": 0.0, "name": "1a24d31a354f96aae7403acb3dde7f0f", "lat": 38.9027965, "lon": -77.01798933333333, "bike_id": "1a24d31a354f96aae7403acb3dde7f0f", "rental_uris": {"ios": "https://dc.lft.to/lastmile_qr_scan", "android": "https://dc.lft.to/lastmile_qr_scan"}, "type": "electric_bike", "fusion_lon": 0.0}, {"is_reserved": 0, "is_disabled": 0, "fusion_lat": 0.0, "name": "eba6676d4df1ec5267a3e8cbc71f220d", "lat": 38.89845916666667, "lon": -76.92746700000001, "bike_id": "eba6676d4df1ec5267a3e8cbc71f220d", "rental_uris": {"ios": "https://dc.lft.to/lastmile_qr_scan", "android": "https://dc.lft.to/lastmile_qr_scan"}, "type": "electric_scooter", "fusion_lon": 0.0}, {"is_reserved": 0, "is_disabled": 0, "fusion_lat": 0.0, "name": "1c7ee1da70e6de012fc8939de2180f9e", "lat": 38.878396, "lon": -77.02276066666667, "bike_id": "1c7ee1da70e6de012fc8939de2180f9e", "rental_uris": {"ios": "https://dc.lft.to/lastmile_qr_scan", "android": "https://dc.lft.to/lastmile_qr_scan"}, "type": "electric_scooter", "fusion_lon": 0.0}, {"is_reserved": 0, "is_disabled": 0, "fusion_lat": 0.0, "name": "91138d59db810cae2d277a693242a79b", "lat": 38.897308333333335, "lon": -77.04365483333333, "bike_id": "91138d59db810cae2d277a693242a79b", "rental_uris": {"ios": "https://dc.lft.to/lastmile_qr_scan", "android": "https://dc.lft.to/lastmile_qr_scan"}, "type": "electric_scooter", "fusion_lon": 0.0}, {"is_reserved": 0, "is_disabled": 0, "fusion_lat": 0.0, "name": "98931847aa88bd4c35f4f8c4a036017b", "lat": 38.832953333333336, "lon": -77.08410366666666, "bike_id": "98931847aa88bd4c35f4f8c4a036017b", "rental_uris": {"ios": "https://dc.lft.to/lastmile_qr_scan", "android": "https://dc.lft.to/lastmile_qr_scan"}, "type": "electric_bike", "fusion_lon": 0.0}, {"is_reserved": 0, "is_disabled": 0, "fusion_lat": 0.0, "name": "7e4cf501a9f3e2979efcfb27da9ff2c4", "lat": 38.88426333333334, "lon": -77.03047733333334, "bike_id": "7e4cf501a9f3e2979efcfb27da9ff2c4", "rental_uris": {"ios": "https://dc.lft.to/lastmile_qr_scan", "android": "https://dc.lft.to/lastmile_qr_scan"}, "type": "electric_scooter", "fusion_lon": 0.0}, {"is_reserved": 0, "is_disabled": 0, "fusion_lat": 0.0, "name": "7600aa443b8dc9b441c4bff6b6e154d9", "lat": 38.92422416666667, "lon": -77.021315, "bike_id": "7600aa443b8dc9b441c4bff6b6e154d9", "rental_uris": {"ios": "https://dc.lft.to/lastmile_qr_scan", "android": "https://dc.lft.to/lastmile_qr_scan"}, "type": "electric_scooter", "fusion_lon": 0.0}, {"is_reserved": 0, "is_disabled": 0, "fusion_lat": 0.0, "name": "e2fb7ddb538918ee583ab5478ac55083", "lat": 38.84670116666667, "lon": -77.13940916666667, "bike_id": "e2fb7ddb538918ee583ab5478ac55083", "rental_uris": {"ios": "https://dc.lft.to/lastmile_qr_scan", "android": "https://dc.lft.to/lastmile_qr_scan"}, "type": "electric_bike", "fusion_lon": 0.0}, {"is_reserved": 0, "is_disabled": 0, "fusion_lat": 0.0, "name": "c6ffe6361079d6aec2203a9ec2239fc5", "lat": 38.901134666666664, "lon": -77.0314175, "bike_id": "c6ffe6361079d6aec2203a9ec2239fc5", "rental_uris": {"ios": "https://dc.lft.to/lastmile_qr_scan", "android": "https://dc.lft.to/lastmile_qr_scan"}, "type": "electric_scooter", "fusion_lon": 0.0}, {"is_reserved": 0, "is_disabled": 0, "fusion_lat": 0.0, "name": "d17eb87904a9b845a3403e04f2b26eab", "lat": 38.87629966666667, "lon": -77.00954383333334, "bike_id": "d17eb87904a9b845a3403e04f2b26eab", "rental_uris": {"ios": "https://dc.lft.to/lastmile_qr_scan", "android": "https://dc.lft.to/lastmile_qr_scan"}, "type": "electric_scooter", "fusion_lon": 0.0}, {"is_reserved": 0, "is_disabled": 0, "fusion_lat": 0.0, "name": "be2b46e6bb5a9cb3409af8d8fefc982b", "lat": 38.9186305, "lon": -77.015625, "bike_id": "be2b46e6bb5a9cb3409af8d8fefc982b", "rental_uris": {"ios": "https://dc.lft.to/lastmile_qr_scan", "android": "https://dc.lft.to/lastmile_qr_scan"}, "type": "electric_scooter", "fusion_lon": 0.0}, {"is_reserved": 0, "is_disabled": 0, "fusion_lat": 0.0, "name": "b69a4f6dfb2124cf6efc454bfc567abb", "lat": 38.890970833333334, "lon": -76.98822116666666, "bike_id": "b69a4f6dfb2124cf6efc454bfc567abb", "rental_uris": {"ios": "https://dc.lft.to/lastmile_qr_scan", "android": "https://dc.lft.to/lastmile_qr_scan"}, "type": "electric_scooter", "fusion_lon": 0.0}, {"is_reserved": 0, "is_disabled": 0, "fusion_lat": 0.0, "name": "9bc3f238f9571b3af7bc261938419ad0", "lat": 38.886273, "lon": -76.981839, "bike_id": "9bc3f238f9571b3af7bc261938419ad0", "rental_uris": {"ios": "https://dc.lft.to/lastmile_qr_scan", "android": "https://dc.lft.to/lastmile_qr_scan"}, "type": "electric_scooter", "fusion_lon": 0.0}, {"is_reserved": 0, "is_disabled": 0, "fusion_lat": 0.0, "name": "171f2018ee279790060dd2587231187b", "lat": 38.91253183333333, "lon": -76.98353383333334, "bike_id": "171f2018ee279790060dd2587231187b", "rental_uris": {"ios": "https://dc.lft.to/lastmile_qr_scan", "android": "https://dc.lft.to/lastmile_qr_scan"}, "type": "electric_scooter", "fusion_lon": 0.0}, {"is_reserved": 0, "is_disabled": 0, "fusion_lat": 0.0, "name": "4a6a27daa334c66a70c6de4e7fec19ca", "lat": 38.91817366666667, "lon": -77.03725166666666, "bike_id": "4a6a27daa334c66a70c6de4e7fec19ca", "rental_uris": {"ios": "https://dc.lft.to/lastmile_qr_scan", "android": "https://dc.lft.to/lastmile_qr_scan"}, "type": "electric_scooter", "fusion_lon": 0.0}, {"is_reserved": 0, "is_disabled": 0, "fusion_lat": 0.0, "name": "75385e57080b562a9c3d37733bb22434", "lat": 38.92627616666667, "lon": -77.03527933333334, "bike_id": "75385e57080b562a9c3d37733bb22434", "rental_uris": {"ios": "https://dc.lft.to/lastmile_qr_scan", "android": "https://dc.lft.to/lastmile_qr_scan"}, "type": "electric_scooter", "fusion_lon": 0.0}, {"is_reserved": 0, "is_disabled": 0, "fusion_lat": 0.0, "name": "4719111967779316d9b94e6bf019dea7", "lat": 38.9159285, "lon": -76.984095, "bike_id": "4719111967779316d9b94e6bf019dea7", "rental_uris": {"ios": "https://dc.lft.to/lastmile_qr_scan", "android": "https://dc.lft.to/lastmile_qr_scan"}, "type": "electric_scooter", "fusion_lon": 0.0}, {"is_reserved": 0, "is_disabled": 0, "fusion_lat": 0.0, "name": "a6493cb52edb0dac883240e838051490", "lat": 38.9244775, "lon": -77.02035283333333, "bike_id": "a6493cb52edb0dac883240e838051490", "rental_uris": {"ios": "https://dc.lft.to/lastmile_qr_scan", "android": "https://dc.lft.to/lastmile_qr_scan"}, "type": "electric_scooter", "fusion_lon": 0.0}, {"is_reserved": 0, "is_disabled": 0, "fusion_lat": 0.0, "name": "78f7c47442166ea5d73de278798b3ed3", "lat": 38.9019255, "lon": -77.04820933333333, "bike_id": "78f7c47442166ea5d73de278798b3ed3", "rental_uris": {"ios": "https://dc.lft.to/lastmile_qr_scan", "android": "https://dc.lft.to/lastmile_qr_scan"}, "type": "electric_scooter", "fusion_lon": 0.0}, {"is_reserved": 0, "is_disabled": 0, "fusion_lat": 0.0, "name": "c93b698c52456c67eb75c2add1063963", "lat": 38.887231, "lon": -76.99613683333334, "bike_id": "c93b698c52456c67eb75c2add1063963", "rental_uris": {"ios": "https://dc.lft.to/lastmile_qr_scan", "android": "https://dc.lft.to/lastmile_qr_scan"}, "type": "electric_scooter", "fusion_lon": 0.0}, {"is_reserved": 0, "is_disabled": 0, "fusion_lat": 0.0, "name": "8215ca1563a8451f4e5228a3150dd0d6", "lat": 38.91014333333333, "lon": -77.04279516666666, "bike_id": "8215ca1563a8451f4e5228a3150dd0d6", "rental_uris": {"ios": "https://dc.lft.to/lastmile_qr_scan", "android": "https://dc.lft.to/lastmile_qr_scan"}, "type": "electric_scooter", "fusion_lon": 0.0}, {"is_reserved": 0, "is_disabled": 0, "fusion_lat": 0.0, "name": "0b3b257a1d32d0d0afd6627949620bdd", "lat": 38.896026, "lon": -77.01091416666667, "bike_id": "0b3b257a1d32d0d0afd6627949620bdd", "rental_uris": {"ios": "https://dc.lft.to/lastmile_qr_scan", "android": "https://dc.lft.to/lastmile_qr_scan"}, "type": "electric_scooter", "fusion_lon": 0.0}, {"is_reserved": 0, "is_disabled": 0, "fusion_lat": 0.0, "name": "08cbdc56e46330508bb15334dbe581f6", "lat": 38.87653266666667, "lon": -77.0043425, "bike_id": "08cbdc56e46330508bb15334dbe581f6", "rental_uris": {"ios": "https://dc.lft.to/lastmile_qr_scan", "android": "https://dc.lft.to/lastmile_qr_scan"}, "type": "electric_scooter", "fusion_lon": 0.0}, {"is_reserved": 0, "is_disabled": 0, "fusion_lat": 0.0, "name": "d6e9abbc5ff02a38a25f55f86fe70dba", "lat": 38.8989175, "lon": -77.007624, "bike_id": "d6e9abbc5ff02a38a25f55f86fe70dba", "rental_uris": {"ios": "https://dc.lft.to/lastmile_qr_scan", "android": "https://dc.lft.to/lastmile_qr_scan"}, "type": "electric_scooter", "fusion_lon": 0.0}, {"is_reserved": 0, "is_disabled": 0, "fusion_lat": 0.0, "name": "1e97a613acb055ac39c7116139ab4800", "lat": 38.914658, "lon": -77.00209366666667, "bike_id": "1e97a613acb055ac39c7116139ab4800", "rental_uris": {"ios": "https://dc.lft.to/lastmile_qr_scan", "android": "https://dc.lft.to/lastmile_qr_scan"}, "type": "electric_scooter", "fusion_lon": 0.0}, {"is_reserved": 0, "is_disabled": 0, "fusion_lat": 0.0, "name": "a1c363cff69d1636677fb987d65a8052", "lat": 38.897079, "lon": -77.01306066666666, "bike_id": "a1c363cff69d1636677fb987d65a8052", "rental_uris": {"ios": "https://dc.lft.to/lastmile_qr_scan", "android": "https://dc.lft.to/lastmile_qr_scan"}, "type": "electric_scooter", "fusion_lon": 0.0}, {"is_reserved": 0, "is_disabled": 0, "fusion_lat": 0.0, "name": "ec91999d12773d027b5c2d67964e01ae", "lat": 38.923663833333336, "lon": -77.02137983333333, "bike_id": "ec91999d12773d027b5c2d67964e01ae", "rental_uris": {"ios": "https://dc.lft.to/lastmile_qr_scan", "android": "https://dc.lft.to/lastmile_qr_scan"}, "type": "electric_scooter", "fusion_lon": 0.0}, {"is_reserved": 0, "is_disabled": 0, "fusion_lat": 0.0, "name": "169bbd5bc1d06be891b960df22ddaee4", "lat": 38.91542883333334, "lon": -77.04424416666667, "bike_id": "169bbd5bc1d06be891b960df22ddaee4", "rental_uris": {"ios": "https://dc.lft.to/lastmile_qr_scan", "android": "https://dc.lft.to/lastmile_qr_scan"}, "type": "electric_scooter", "fusion_lon": 0.0}, {"is_reserved": 0, "is_disabled": 0, "fusion_lat": 0.0, "name": "a449d3cfabe443a85cd8de4ed3b28540", "lat": 38.932016833333336, "lon": -77.01873983333333, "bike_id": "a449d3cfabe443a85cd8de4ed3b28540", "rental_uris": {"ios": "https://dc.lft.to/lastmile_qr_scan", "android": "https://dc.lft.to/lastmile_qr_scan"}, "type": "electric_scooter", "fusion_lon": 0.0}, {"is_reserved": 0, "is_disabled": 0, "fusion_lat": 0.0, "name": "fe250b452fecaf12a74a7c9ff9a370d7", "lat": 38.907422333333336, "lon": -76.99921416666666, "bike_id": "fe250b452fecaf12a74a7c9ff9a370d7", "rental_uris": {"ios": "https://dc.lft.to/lastmile_qr_scan", "android": "https://dc.lft.to/lastmile_qr_scan"}, "type": "electric_scooter", "fusion_lon": 0.0}, {"is_reserved": 0, "is_disabled": 0, "fusion_lat": 0.0, "name": "a1f46ef2d813a7e666728d7413c331e6", "lat": 38.905704, "lon": -77.029797, "bike_id": "a1f46ef2d813a7e666728d7413c331e6", "rental_uris": {"ios": "https://dc.lft.to/lastmile_qr_scan", "android": "https://dc.lft.to/lastmile_qr_scan"}, "type": "electric_scooter", "fusion_lon": 0.0}, {"is_reserved": 0, "is_disabled": 0, "fusion_lat": 0.0, "name": "939065cc56e25e3d1bc4f0567200608d", "lat": 38.905665666666664, "lon": -77.01854916666667, "bike_id": "939065cc56e25e3d1bc4f0567200608d", "rental_uris": {"ios": "https://dc.lft.to/lastmile_qr_scan", "android": "https://dc.lft.to/lastmile_qr_scan"}, "type": "electric_scooter", "fusion_lon": 0.0}, {"is_reserved": 0, "is_disabled": 0, "fusion_lat": 0.0, "name": "6f0eb9a11f61c59a32a498f4ce0991b4", "lat": 38.914820166666665, "lon": -77.0218425, "bike_id": "6f0eb9a11f61c59a32a498f4ce0991b4", "rental_uris": {"ios": "https://dc.lft.to/lastmile_qr_scan", "android": "https://dc.lft.to/lastmile_qr_scan"}, "type": "electric_scooter", "fusion_lon": 0.0}, {"is_reserved": 0, "is_disabled": 0, "fusion_lat": 0.0, "name": "14a2728db587f62a9193844621715bf2", "lat": 38.89905516666666, "lon": -77.021637, "bike_id": "14a2728db587f62a9193844621715bf2", "rental_uris": {"ios": "https://dc.lft.to/lastmile_qr_scan", "android": "https://dc.lft.to/lastmile_qr_scan"}, "type": "electric_scooter", "fusion_lon": 0.0}, {"is_reserved": 0, "is_disabled": 0, "fusion_lat": 0.0, "name": "d66e036d1c8616a51c33ca072ad80ad3", "lat": 38.91688033333333, "lon": -77.01761283333333, "bike_id": "d66e036d1c8616a51c33ca072ad80ad3", "rental_uris": {"ios": "https://dc.lft.to/lastmile_qr_scan", "android": "https://dc.lft.to/lastmile_qr_scan"}, "type": "electric_scooter", "fusion_lon": 0.0}, {"is_reserved": 0, "is_disabled": 0, "fusion_lat": 0.0, "name": "b95d8f30d14da0ad06c3341d12272b38", "lat": 38.89962833333333, "lon": -77.04832916666666, "bike_id": "b95d8f30d14da0ad06c3341d12272b38", "rental_uris": {"ios": "https://dc.lft.to/lastmile_qr_scan", "android": "https://dc.lft.to/lastmile_qr_scan"}, "type": "electric_scooter", "fusion_lon": 0.0}, {"is_reserved": 0, "is_disabled": 0, "fusion_lat": 0.0, "name": "41695947f652e7f34e2ea9e964fab59f", "lat": 38.9193435, "lon": -77.0813485, "bike_id": "41695947f652e7f34e2ea9e964fab59f", "rental_uris": {"ios": "https://dc.lft.to/lastmile_qr_scan", "android": "https://dc.lft.to/lastmile_qr_scan"}, "type": "electric_scooter", "fusion_lon": 0.0}, {"is_reserved": 0, "is_disabled": 0, "fusion_lat": 0.0, "name": "325d8b5c5222bb82a1c43ec4c8510f26", "lat": 38.92236316666666, "lon": -77.028195, "bike_id": "325d8b5c5222bb82a1c43ec4c8510f26", "rental_uris": {"ios": "https://dc.lft.to/lastmile_qr_scan", "android": "https://dc.lft.to/lastmile_qr_scan"}, "type": "electric_scooter", "fusion_lon": 0.0}, {"is_reserved": 0, "is_disabled": 0, "fusion_lat": 0.0, "name": "2f8eb86b526311e2c34c640512c12218", "lat": 38.8931375, "lon": -77.01970933333334, "bike_id": "2f8eb86b526311e2c34c640512c12218", "rental_uris": {"ios": "https://dc.lft.to/lastmile_qr_scan", "android": "https://dc.lft.to/lastmile_qr_scan"}, "type": "electric_scooter", "fusion_lon": 0.0}, {"is_reserved": 0, "is_disabled": 0, "fusion_lat": 0.0, "name": "a763fa6eae85b314a4b7421edfee5956", "lat": 38.918165, "lon": -77.024761, "bike_id": "a763fa6eae85b314a4b7421edfee5956", "rental_uris": {"ios": "https://dc.lft.to/lastmile_qr_scan", "android": "https://dc.lft.to/lastmile_qr_scan"}, "type": "electric_scooter", "fusion_lon": 0.0}, {"is_reserved": 0, "is_disabled": 0, "fusion_lat": 0.0, "name": "ae9ad772d93782834b3e6976ca1ff449", "lat": 38.95247166666667, "lon": -77.0962525, "bike_id": "ae9ad772d93782834b3e6976ca1ff449", "rental_uris": {"ios": "https://dc.lft.to/lastmile_qr_scan", "android": "https://dc.lft.to/lastmile_qr_scan"}, "type": "electric_bike", "fusion_lon": 0.0}, {"is_reserved": 0, "is_disabled": 0, "fusion_lat": 0.0, "name": "f78721fca39e67e0e6819f800c643fc2", "lat": 38.913695, "lon": -77.0219585, "bike_id": "f78721fca39e67e0e6819f800c643fc2", "rental_uris": {"ios": "https://dc.lft.to/lastmile_qr_scan", "android": "https://dc.lft.to/lastmile_qr_scan"}, "type": "electric_scooter", "fusion_lon": 0.0}, {"is_reserved": 0, "is_disabled": 0, "fusion_lat": 0.0, "name": "35c7cf4877b9e9fd87951a3139728811", "lat": 38.90462333333333, "lon": -77.053331, "bike_id": "35c7cf4877b9e9fd87951a3139728811", "rental_uris": {"ios": "https://dc.lft.to/lastmile_qr_scan", "android": "https://dc.lft.to/lastmile_qr_scan"}, "type": "electric_scooter", "fusion_lon": 0.0}, {"is_reserved": 0, "is_disabled": 0, "fusion_lat": 0.0, "name": "d9ecac6a19ec3f7ccf9388880418100d", "lat": 38.9085745, "lon": -77.0640905, "bike_id": "d9ecac6a19ec3f7ccf9388880418100d", "rental_uris": {"ios": "https://dc.lft.to/lastmile_qr_scan", "android": "https://dc.lft.to/lastmile_qr_scan"}, "type": "electric_scooter", "fusion_lon": 0.0}, {"is_reserved": 0, "is_disabled": 0, "fusion_lat": 0.0, "name": "9ccda0de690212d4b499bce36234af47", "lat": 38.9322135, "lon": -76.9987715, "bike_id": "9ccda0de690212d4b499bce36234af47", "rental_uris": {"ios": "https://dc.lft.to/lastmile_qr_scan", "android": "https://dc.lft.to/lastmile_qr_scan"}, "type": "electric_bike", "fusion_lon": 0.0}, {"is_reserved": 0, "is_disabled": 0, "fusion_lat": 0.0, "name": "94c9c00ee61f014fa180f1fa73d67679", "lat": 38.9201505, "lon": -76.990607, "bike_id": "94c9c00ee61f014fa180f1fa73d67679", "rental_uris": {"ios": "https://dc.lft.to/lastmile_qr_scan", "android": "https://dc.lft.to/lastmile_qr_scan"}, "type": "electric_bike", "fusion_lon": 0.0}, {"is_reserved": 0, "is_disabled": 0, "fusion_lat": 0.0, "name": "503d2b9894a51740bc0e53aec7171a79", "lat": 38.842903166666666, "lon": -77.06380733333333, "bike_id": "503d2b9894a51740bc0e53aec7171a79", "rental_uris": {"ios": "https://dc.lft.to/lastmile_qr_scan", "android": "https://dc.lft.to/lastmile_qr_scan"}, "type": "electric_bike", "fusion_lon": 0.0}, {"is_reserved": 0, "is_disabled": 0, "fusion_lat": 0.0, "name": "488b525024c9cd8db9aeb0d760ff8479", "lat": 38.92109716666667, "lon": -77.042066, "bike_id": "488b525024c9cd8db9aeb0d760ff8479", "rental_uris": {"ios": "https://dc.lft.to/lastmile_qr_scan", "android": "https://dc.lft.to/lastmile_qr_scan"}, "type": "electric_scooter", "fusion_lon": 0.0}, {"is_reserved": 0, "is_disabled": 0, "fusion_lat": 0.0, "name": "cea441f746a5e4b7e5dcdebd7b7fd7db", "lat": 38.92033716666667, "lon": -76.97948916666667, "bike_id": "cea441f746a5e4b7e5dcdebd7b7fd7db", "rental_uris": {"ios": "https://dc.lft.to/lastmile_qr_scan", "android": "https://dc.lft.to/lastmile_qr_scan"}, "type": "electric_bike", "fusion_lon": 0.0}, {"is_reserved": 0, "is_disabled": 0, "fusion_lat": 0.0, "name": "6f5738af8681df16d7a02721f4f722c5", "lat": 38.917093333333334, "lon": -77.03200116666666, "bike_id": "6f5738af8681df16d7a02721f4f722c5", "rental_uris": {"ios": "https://dc.lft.to/lastmile_qr_scan", "android": "https://dc.lft.to/lastmile_qr_scan"}, "type": "electric_scooter", "fusion_lon": 0.0}, {"is_reserved": 0, "is_disabled": 0, "fusion_lat": 0.0, "name": "2baec6aa406ae1b3d20ceff6f7d442aa", "lat": 38.9216655, "lon": -77.02114116666667, "bike_id": "2baec6aa406ae1b3d20ceff6f7d442aa", "rental_uris": {"ios": "https://dc.lft.to/lastmile_qr_scan", "android": "https://dc.lft.to/lastmile_qr_scan"}, "type": "electric_scooter", "fusion_lon": 0.0}, {"is_reserved": 0, "is_disabled": 0, "fusion_lat": 0.0, "name": "daa3447292812a94a5c5233d425efad6", "lat": 38.92086066666667, "lon": -77.03172416666666, "bike_id": "daa3447292812a94a5c5233d425efad6", "rental_uris": {"ios": "https://dc.lft.to/lastmile_qr_scan", "android": "https://dc.lft.to/lastmile_qr_scan"}, "type": "electric_scooter", "fusion_lon": 0.0}, {"is_reserved": 0, "is_disabled": 0, "fusion_lat": 0.0, "name": "7205c8e9c7bb71b20ff905f07e1b559f", "lat": 38.91624483333333, "lon": -77.03218133333333, "bike_id": "7205c8e9c7bb71b20ff905f07e1b559f", "rental_uris": {"ios": "https://dc.lft.to/lastmile_qr_scan", "android": "https://dc.lft.to/lastmile_qr_scan"}, "type": "electric_scooter", "fusion_lon": 0.0}, {"is_reserved": 0, "is_disabled": 0, "fusion_lat": 0.0, "name": "b3b6195722a43cd1696242ea7967b499", "lat": 38.936282, "lon": -77.03289833333334, "bike_id": "b3b6195722a43cd1696242ea7967b499", "rental_uris": {"ios": "https://dc.lft.to/lastmile_qr_scan", "android": "https://dc.lft.to/lastmile_qr_scan"}, "type": "electric_scooter", "fusion_lon": 0.0}, {"is_reserved": 0, "is_disabled": 0, "fusion_lat": 0.0, "name": "53d60a1b13facd9ea67092cfac57c31c", "lat": 38.90051416666667, "lon": -77.03658733333333, "bike_id": "53d60a1b13facd9ea67092cfac57c31c", "rental_uris": {"ios": "https://dc.lft.to/lastmile_qr_scan", "android": "https://dc.lft.to/lastmile_qr_scan"}, "type": "electric_scooter", "fusion_lon": 0.0}, {"is_reserved": 0, "is_disabled": 0, "fusion_lat": 0.0, "name": "ead1f56c5cdabe42f5f5685b2e55226e", "lat": 38.89994866666667, "lon": -77.03381266666666, "bike_id": "ead1f56c5cdabe42f5f5685b2e55226e", "rental_uris": {"ios": "https://dc.lft.to/lastmile_qr_scan", "android": "https://dc.lft.to/lastmile_qr_scan"}, "type": "electric_scooter", "fusion_lon": 0.0}, {"is_reserved": 0, "is_disabled": 0, "fusion_lat": 0.0, "name": "d9315effacb80cb0bf38bc78e4db5641", "lat": 38.916941, "lon": -77.02724533333334, "bike_id": "d9315effacb80cb0bf38bc78e4db5641", "rental_uris": {"ios": "https://dc.lft.to/lastmile_qr_scan", "android": "https://dc.lft.to/lastmile_qr_scan"}, "type": "electric_scooter", "fusion_lon": 0.0}, {"is_reserved": 0, "is_disabled": 0, "fusion_lat": 0.0, "name": "c36bcca57b8273b57f51cbf63c3f15dd", "lat": 38.90269, "lon": -77.0304355, "bike_id": "c36bcca57b8273b57f51cbf63c3f15dd", "rental_uris": {"ios": "https://dc.lft.to/lastmile_qr_scan", "android": "https://dc.lft.to/lastmile_qr_scan"}, "type": "electric_scooter", "fusion_lon": 0.0}, {"is_reserved": 0, "is_disabled": 0, "fusion_lat": 0.0, "name": "acb8b3dc648d9969d94dd478409e7ef6", "lat": 38.923376, "lon": -77.046496, "bike_id": "acb8b3dc648d9969d94dd478409e7ef6", "rental_uris": {"ios": "https://dc.lft.to/lastmile_qr_scan", "android": "https://dc.lft.to/lastmile_qr_scan"}, "type": "electric_scooter", "fusion_lon": 0.0}, {"is_reserved": 0, "is_disabled": 0, "fusion_lat": 0.0, "name": "a0e4fd7b583c5b7551b1f9c16dbcf66c", "lat": 39.00532616666667, "lon": -77.10402133333334, "bike_id": "a0e4fd7b583c5b7551b1f9c16dbcf66c", "rental_uris": {"ios": "https://dc.lft.to/lastmile_qr_scan", "android": "https://dc.lft.to/lastmile_qr_scan"}, "type": "electric_bike", "fusion_lon": 0.0}, {"is_reserved": 0, "is_disabled": 0, "fusion_lat": 0.0, "name": "210636e9823132737550eb38baed157c", "lat": 38.903566833333336, "lon": -77.03327116666667, "bike_id": "210636e9823132737550eb38baed157c", "rental_uris": {"ios": "https://dc.lft.to/lastmile_qr_scan", "android": "https://dc.lft.to/lastmile_qr_scan"}, "type": "electric_scooter", "fusion_lon": 0.0}, {"is_reserved": 0, "is_disabled": 0, "fusion_lat": 0.0, "name": "eb4929c5a0bfadb0a3561a34ebb057a5", "lat": 38.88517, "lon": -76.996179, "bike_id": "eb4929c5a0bfadb0a3561a34ebb057a5", "rental_uris": {"ios": "https://dc.lft.to/lastmile_qr_scan", "android": "https://dc.lft.to/lastmile_qr_scan"}, "type": "electric_scooter", "fusion_lon": 0.0}, {"is_reserved": 0, "is_disabled": 0, "fusion_lat": 0.0, "name": "b4c7230e614cc97729c1f873b4ca3b7a", "lat": 38.92645, "lon": -77.01445616666666, "bike_id": "b4c7230e614cc97729c1f873b4ca3b7a", "rental_uris": {"ios": "https://dc.lft.to/lastmile_qr_scan", "android": "https://dc.lft.to/lastmile_qr_scan"}, "type": "electric_scooter", "fusion_lon": 0.0}, {"is_reserved": 0, "is_disabled": 0, "fusion_lat": 0.0, "name": "94360b7c25874146b64871957884cf06", "lat": 38.937612666666666, "lon": -77.02678583333334, "bike_id": "94360b7c25874146b64871957884cf06", "rental_uris": {"ios": "https://dc.lft.to/lastmile_qr_scan", "android": "https://dc.lft.to/lastmile_qr_scan"}, "type": "electric_scooter", "fusion_lon": 0.0}, {"is_reserved": 0, "is_disabled": 0, "fusion_lat": 0.0, "name": "afe1bab87209dc24eec6f51dbd3e46c6", "lat": 38.916556, "lon": -77.03857683333334, "bike_id": "afe1bab87209dc24eec6f51dbd3e46c6", "rental_uris": {"ios": "https://dc.lft.to/lastmile_qr_scan", "android": "https://dc.lft.to/lastmile_qr_scan"}, "type": "electric_scooter", "fusion_lon": 0.0}, {"is_reserved": 0, "is_disabled": 0, "fusion_lat": 0.0, "name": "2b04bb20b55aea319a21b6c5a33e0a47", "lat": 38.877367166666666, "lon": -77.1487385, "bike_id": "2b04bb20b55aea319a21b6c5a33e0a47", "rental_uris": {"ios": "https://dc.lft.to/lastmile_qr_scan", "android": "https://dc.lft.to/lastmile_qr_scan"}, "type": "electric_bike", "fusion_lon": 0.0}, {"is_reserved": 0, "is_disabled": 0, "fusion_lat": 0.0, "name": "54b0b45206908d7aecb81f583cc57c1d", "lat": 38.90757816666667, "lon": -77.0170005, "bike_id": "54b0b45206908d7aecb81f583cc57c1d", "rental_uris": {"ios": "https://dc.lft.to/lastmile_qr_scan", "android": "https://dc.lft.to/lastmile_qr_scan"}, "type": "electric_scooter", "fusion_lon": 0.0}, {"is_reserved": 0, "is_disabled": 0, "fusion_lat": 0.0, "name": "a9a8e666d91bf99fec9b4a79517be64d", "lat": 38.89556266666666, "lon": -77.00917483333333, "bike_id": "a9a8e666d91bf99fec9b4a79517be64d", "rental_uris": {"ios": "https://dc.lft.to/lastmile_qr_scan", "android": "https://dc.lft.to/lastmile_qr_scan"}, "type": "electric_scooter", "fusion_lon": 0.0}, {"is_reserved": 0, "is_disabled": 0, "fusion_lat": 0.0, "name": "d780bb777aeecfb732b10aa4a66c3403", "lat": 38.878402666666666, "lon": -77.01965416666667, "bike_id": "d780bb777aeecfb732b10aa4a66c3403", "rental_uris": {"ios": "https://dc.lft.to/lastmile_qr_scan", "android": "https://dc.lft.to/lastmile_qr_scan"}, "type": "electric_scooter", "fusion_lon": 0.0}, {"is_reserved": 0, "is_disabled": 0, "fusion_lat": 0.0, "name": "724cfd9509aba254d3a76ee7669bd2c4", "lat": 38.912992333333335, "lon": -77.0269555, "bike_id": "724cfd9509aba254d3a76ee7669bd2c4", "rental_uris": {"ios": "https://dc.lft.to/lastmile_qr_scan", "android": "https://dc.lft.to/lastmile_qr_scan"}, "type": "electric_scooter", "fusion_lon": 0.0}, {"is_reserved": 0, "is_disabled": 0, "fusion_lat": 0.0, "name": "8c2ff7f6403dd76d14ee43255cc969b6", "lat": 38.916065, "lon": -77.02818816666667, "bike_id": "8c2ff7f6403dd76d14ee43255cc969b6", "rental_uris": {"ios": "https://dc.lft.to/lastmile_qr_scan", "android": "https://dc.lft.to/lastmile_qr_scan"}, "type": "electric_scooter", "fusion_lon": 0.0}, {"is_reserved": 0, "is_disabled": 0, "fusion_lat": 0.0, "name": "495a3dfa40cc7a89d0208b8b74e1831b", "lat": 38.924631166666664, "lon": -77.0224575, "bike_id": "495a3dfa40cc7a89d0208b8b74e1831b", "rental_uris": {"ios": "https://dc.lft.to/lastmile_qr_scan", "android": "https://dc.lft.to/lastmile_qr_scan"}, "type": "electric_scooter", "fusion_lon": 0.0}, {"is_reserved": 0, "is_disabled": 0, "fusion_lat": 0.0, "name": "11b63df47635210c9b4cac5458406535", "lat": 38.91721033333334, "lon": -77.0410295, "bike_id": "11b63df47635210c9b4cac5458406535", "rental_uris": {"ios": "https://dc.lft.to/lastmile_qr_scan", "android": "https://dc.lft.to/lastmile_qr_scan"}, "type": "electric_scooter", "fusion_lon": 0.0}, {"is_reserved": 0, "is_disabled": 0, "fusion_lat": 0.0, "name": "62d202f022e87d463c742137a96f4e6e", "lat": 38.923972166666665, "lon": -77.03397016666666, "bike_id": "62d202f022e87d463c742137a96f4e6e", "rental_uris": {"ios": "https://dc.lft.to/lastmile_qr_scan", "android": "https://dc.lft.to/lastmile_qr_scan"}, "type": "electric_scooter", "fusion_lon": 0.0}, {"is_reserved": 0, "is_disabled": 0, "fusion_lat": 0.0, "name": "9097a8c35bdea58e51c0a5cfaeec9476", "lat": 38.94277133333333, "lon": -77.02925816666666, "bike_id": "9097a8c35bdea58e51c0a5cfaeec9476", "rental_uris": {"ios": "https://dc.lft.to/lastmile_qr_scan", "android": "https://dc.lft.to/lastmile_qr_scan"}, "type": "electric_scooter", "fusion_lon": 0.0}, {"is_reserved": 0, "is_disabled": 0, "fusion_lat": 0.0, "name": "a2cd0dc12bb62cf44f16cf991431c669", "lat": 38.92222666666667, "lon": -77.02828866666667, "bike_id": "a2cd0dc12bb62cf44f16cf991431c669", "rental_uris": {"ios": "https://dc.lft.to/lastmile_qr_scan", "android": "https://dc.lft.to/lastmile_qr_scan"}, "type": "electric_scooter", "fusion_lon": 0.0}, {"is_reserved": 0, "is_disabled": 0, "fusion_lat": 0.0, "name": "8459e9e72e1a636fcf886d624c2b79cd", "lat": 38.92220783333333, "lon": -77.02121083333333, "bike_id": "8459e9e72e1a636fcf886d624c2b79cd", "rental_uris": {"ios": "https://dc.lft.to/lastmile_qr_scan", "android": "https://dc.lft.to/lastmile_qr_scan"}, "type": "electric_scooter", "fusion_lon": 0.0}, {"is_reserved": 0, "is_disabled": 0, "fusion_lat": 0.0, "name": "f11ab570f1eb9612aa1c2ed063f508c4", "lat": 38.91029233333333, "lon": -77.07392633333333, "bike_id": "f11ab570f1eb9612aa1c2ed063f508c4", "rental_uris": {"ios": "https://dc.lft.to/lastmile_qr_scan", "android": "https://dc.lft.to/lastmile_qr_scan"}, "type": "electric_scooter", "fusion_lon": 0.0}, {"is_reserved": 0, "is_disabled": 0, "fusion_lat": 0.0, "name": "c4b455ce08afd30d7a12f86e74064b60", "lat": 38.900324, "lon": -76.99187066666667, "bike_id": "c4b455ce08afd30d7a12f86e74064b60", "rental_uris": {"ios": "https://dc.lft.to/lastmile_qr_scan", "android": "https://dc.lft.to/lastmile_qr_scan"}, "type": "electric_scooter", "fusion_lon": 0.0}, {"is_reserved": 0, "is_disabled": 0, "fusion_lat": 0.0, "name": "d1f78d317bea4b858a249587a7205b14", "lat": 38.90177466666667, "lon": -76.92948066666666, "bike_id": "d1f78d317bea4b858a249587a7205b14", "rental_uris": {"ios": "https://dc.lft.to/lastmile_qr_scan", "android": "https://dc.lft.to/lastmile_qr_scan"}, "type": "electric_scooter", "fusion_lon": 0.0}, {"is_reserved": 0, "is_disabled": 0, "fusion_lat": 0.0, "name": "2252ef8c548145fae8a40ae783a381a4", "lat": 38.903817, "lon": -77.0380025, "bike_id": "2252ef8c548145fae8a40ae783a381a4", "rental_uris": {"ios": "https://dc.lft.to/lastmile_qr_scan", "android": "https://dc.lft.to/lastmile_qr_scan"}, "type": "electric_scooter", "fusion_lon": 0.0}, {"is_reserved": 0, "is_disabled": 0, "fusion_lat": 0.0, "name": "6c5338c98d7ea7685deb017fce0c7a97", "lat": 38.9211355, "lon": -77.04393983333334, "bike_id": "6c5338c98d7ea7685deb017fce0c7a97", "rental_uris": {"ios": "https://dc.lft.to/lastmile_qr_scan", "android": "https://dc.lft.to/lastmile_qr_scan"}, "type": "electric_scooter", "fusion_lon": 0.0}, {"is_reserved": 0, "is_disabled": 0, "fusion_lat": 0.0, "name": "0217406082549cbb98fe373b1c8e7f39", "lat": 38.916671666666666, "lon": -77.043722, "bike_id": "0217406082549cbb98fe373b1c8e7f39", "rental_uris": {"ios": "https://dc.lft.to/lastmile_qr_scan", "android": "https://dc.lft.to/lastmile_qr_scan"}, "type": "electric_scooter", "fusion_lon": 0.0}, {"is_reserved": 0, "is_disabled": 0, "fusion_lat": 0.0, "name": "f484154c19105107201d2c9f670f5ec8", "lat": 38.9359975, "lon": -77.03653266666667, "bike_id": "f484154c19105107201d2c9f670f5ec8", "rental_uris": {"ios": "https://dc.lft.to/lastmile_qr_scan", "android": "https://dc.lft.to/lastmile_qr_scan"}, "type": "electric_scooter", "fusion_lon": 0.0},