{"data": {"bikes": [{"bike_id": "3b44af449da5f876f575396fe79a5f34", "fusion_lon": 0.0, "type": "electric_scooter", "name": "3b44af449da5f876f575396fe79a5f34", "rental_uris": {"android": "https://dc.lft.to/lastmile_qr_scan", "ios": "https://dc.lft.to/lastmile_qr_scan"}, "fusion_lat": 0.0, "lat": 38.903589833333335, "is_disabled": 0, "lon": -77.02707966666667, "is_reserved": 0}, {"bike_id": "12c8755cd603447a3ca3d17f231a65a6", "fusion_lon": 0.0, "type": "electric_scooter", "name": "12c8755cd603447a3ca3d17f231a65a6", "rental_uris": {"android": "https://dc.lft.to/lastmile_qr_scan", "ios": "https://dc.lft.to/lastmile_qr_scan"}, "fusion_lat": 0.0, "lat": 38.892239000000004, "is_disabled": 0, "lon": -77.027748, "is_reserved": 0}, {"bike_id": "4cb2d93742560daf7e1794bed0d13b1d", "fusion_lon": 0.0, "type": "electric_scooter", "name": "4cb2d93742560daf7e1794bed0d13b1d", "rental_uris": {"android": "https://dc.lft.to/lastmile_qr_scan", "ios": "https://dc.lft.to/lastmile_qr_scan"}, "fusion_lat": 0.0, "lat": 38.910620333333334, "is_disabled": 0, "lon": -77.03852633333334, "is_reserved": 0}, {"bike_id": "33c8cd6058e2f67e2347e9f8cb468e0d", "fusion_lon": 0.0, "type": "electric_scooter", "name": "33c8cd6058e2f67e2347e9f8cb468e0d", "rental_uris": {"android": "https://dc.lft.to/lastmile_qr_scan", "ios": "https://dc.lft.to/lastmile_qr_scan"}, "fusion_lat": 0.0, "lat": 38.92481883333333, "is_disabled": 0, "lon": -77.02903183333333, "is_reserved": 0}, {"bike_id": "d10d5e326944f082ca06085782358646", "fusion_lon": 0.0, "type": "electric_bike", "name": "d10d5e326944f082ca06085782358646", "rental_uris": {"android": "https://dc.lft.to/lastmile_qr_scan", "ios": "https://dc.lft.to/lastmile_qr_scan"}, "fusion_lat": 0.0, "lat": 38.864073166666664, "is_disabled": 0, "lon": -76.974531, "is_reserved": 0}, {"bike_id": "1956539ba7b9428d0660bfdd52272421", "fusion_lon": 0.0, "type": "electric_scooter", "name": "1956539ba7b9428d0660bfdd52272421", "rental_uris": {"android": "https://dc.lft.to/lastmile_qr_scan", "ios": "https://dc.lft.to/lastmile_qr_scan"}, "fusion_lat": 0.0, "lat": 38.907221166666666, "is_disabled": 0, "lon": -77.02374383333333, "is_reserved": 0}, {"bike_id": "09f98f4c4ef77efa481d2bd4436c15fd", "fusion_lon": 0.0, "type": "electric_scooter", "name": "09f98f4c4ef77efa481d2bd4436c15fd", "rental_uris": {"android": "https://dc.lft.to/lastmile_qr_scan", "ios": "https://dc.lft.to/lastmile_qr_scan"}, "fusion_lat": 0.0, "lat": 38.903450666666664, "is_disabled": 0, "lon": -76.98851416666666, "is_reserved": 0}, {"bike_id": "ee038f03486f1529cec0060fdcef4e20", "fusion_lon": 0.0, "type": "electric_scooter", "name": "ee038f03486f1529cec0060fdcef4e20", "rental_uris": {"android": "https://dc.lft.to/lastmile_qr_scan", "ios": "https://dc.lft.to/lastmile_qr_scan"}, "fusion_lat": 0.0, "lat": 38.914082666666665, "is_disabled": 0, "lon": -77.04181666666666, "is_reserved": 0}, {"bike_id": "2fd9ed1054cea907b59506260aa5a533", "fusion_lon": 0.0, "type": "electric_scooter", "name": "2fd9ed1054cea907b59506260aa5a533", "rental_uris": {"android": "https://dc.lft.to/lastmile_qr_scan", "ios": "https://dc.lft.to/lastmile_qr_scan"}, "fusion_lat": 0.0, "lat": 38.867112, "is_disabled": 0, "lon": -76.98727216666667, "is_reserved": 0}, {"bike_id": "7df5065db53817a1ed064c1d43cb6145", "fusion_lon": 0.0, "type": "electric_scooter", "name": "7df5065db53817a1ed064c1d43cb6145", "rental_uris": {"android": "https://dc.lft.to/lastmile_qr_scan", "ios": "https://dc.lft.to/lastmile_qr_scan"}, "fusion_lat": 0.0, "lat": 38.9247835, "is_disabled": 0, "lon": -77.03489633333334, "is_reserved": 0}, {"bike_id": "c16154893d04f9ecfbfe00c4a2cca7c7", "fusion_lon": 0.0, "type": "electric_bike", "name": "c16154893d04f9ecfbfe00c4a2cca7c7", "rental_uris": {"android": "https://dc.lft.to/lastmile_qr_scan", "ios": "https://dc.lft.to/lastmile_qr_scan"}, "fusion_lat": 0.0, "lat": 38.8549285, "is_disabled": 0, "lon": -77.11612633333333, "is_reserved": 0}, {"bike_id": "b53cf5fa867f98b9bb9a065b7350ccb0", "fusion_lon": 0.0, "type": "electric_scooter", "name": "b53cf5fa867f98b9bb9a065b7350ccb0", "rental_uris": {"android": "https://dc.lft.to/lastmile_qr_scan", "ios": "https://dc.lft.to/lastmile_qr_scan"}, "fusion_lat": 0.0, "lat": 38.85722066666666, "is_disabled": 0, "lon": -76.98094966666666, "is_reserved": 0}, {"bike_id": "f4e9a449904ce5e4efb3e1067a88f004", "fusion_lon": 0.0, "type": "electric_scooter", "name": "f4e9a449904ce5e4efb3e1067a88f004", "rental_uris": {"android": "https://dc.lft.to/lastmile_qr_scan", "ios": "https://dc.lft.to/lastmile_qr_scan"}, "fusion_lat": 0.0, "lat": 38.93370616666667, "is_disabled": 0, "lon": -77.05728433333333, "is_reserved": 0}, {"bike_id": "57a7ae09ba347be7184cab73fa9f288a", "fusion_lon": 0.0, "type": "electric_scooter", "name": "57a7ae09ba347be7184cab73fa9f288a", "rental_uris": {"android": "https://dc.lft.to/lastmile_qr_scan", "ios": "https://dc.lft.to/lastmile_qr_scan"}, "fusion_lat": 0.0, "lat": 38.909766, "is_disabled": 0, "lon": -77.0228955, "is_reserved": 0}, {"bike_id": "b9d7695f6fde1ae984349c70e99376b7", "fusion_lon": 0.0, "type": "electric_scooter", "name": "b9d7695f6fde1ae984349c70e99376b7", "rental_uris": {"android": "https://dc.lft.to/lastmile_qr_scan", "ios": "https://dc.lft.to/lastmile_qr_scan"}, "fusion_lat": 0.0, "lat": 38.900233166666666, "is_disabled": 0, "lon": -76.99452566666666, "is_reserved": 0}, {"bike_id": "2526662aca6439160135ee3066e97fc6", "fusion_lon": 0.0, "type": "electric_scooter", "name": "2526662aca6439160135ee3066e97fc6", "rental_uris": {"android": "https://dc.lft.to/lastmile_qr_scan", "ios": "https://dc.lft.to/lastmile_qr_scan"}, "fusion_lat": 0.0, "lat": 38.911527666666665, "is_disabled": 0, "lon": -76.9846935, "is_reserved": 0}, {"bike_id": "b5e94d38aa9654911aa3c8cf1356c0d4", "fusion_lon": 0.0, "type": "electric_scooter", "name": "b5e94d38aa9654911aa3c8cf1356c0d4", "rental_uris": {"android": "https://dc.lft.to/lastmile_qr_scan", "ios": "https://dc.lft.to/lastmile_qr_scan"}, "fusion_lat": 0.0, "lat": 38.90512616666667, "is_disabled": 0, "lon": -77.0499005, "is_reserved": 0}, {"bike_id": "0ea35eb54adeb013caa1cbce969cb7af", "fusion_lon": 0.0, "type": "electric_scooter", "name": "0ea35eb54adeb013caa1cbce969cb7af", "rental_uris": {"android": "https://dc.lft.to/lastmile_qr_scan", "ios": "https://dc.lft.to/lastmile_qr_scan"}, "fusion_lat": 0.0, "lat": 38.91556933333333, "is_disabled": 0, "lon": -77.03839833333333, "is_reserved": 0}, {"bike_id": "0c9856d4dd2a7034c50218e3f9b13882", "fusion_lon": 0.0, "type": "electric_bike", "name": "0c9856d4dd2a7034c50218e3f9b13882", "rental_uris": {"android": "https://dc.lft.to/lastmile_qr_scan", "ios": "https://dc.lft.to/lastmile_qr_scan"}, "fusion_lat": 0.0, "lat": 38.8662495, "is_disabled": 0, "lon": -76.94573533333333, "is_reserved": 0}, {"bike_id": "e11af288aed7bd2f7b17f408c4d3e38e", "fusion_lon": 0.0, "type": "electric_scooter", "name": "e11af288aed7bd2f7b17f408c4d3e38e", "rental_uris": {"android": "https://dc.lft.to/lastmile_qr_scan", "ios": "https://dc.lft.to/lastmile_qr_scan"}, "fusion_lat": 0.0, "lat": 38.89702783333333, "is_disabled": 0, "lon": -77.02299133333334, "is_reserved": 0}, {"bike_id": "47c624fc0125a366d8270ea9ef479e0f", "fusion_lon": 0.0, "type": "electric_scooter", "name": "47c624fc0125a366d8270ea9ef479e0f", "rental_uris": {"android": "https://dc.lft.to/lastmile_qr_scan", "ios": "https://dc.lft.to/lastmile_qr_scan"}, "fusion_lat": 0.0, "lat": 38.892225833333335, "is_disabled": 0, "lon": -77.032272, "is_reserved": 0}, {"bike_id": "c7977452ed27658b7a5dc2c083a4a4f6", "fusion_lon": 0.0, "type": "electric_scooter", "name": "c7977452ed27658b7a5dc2c083a4a4f6", "rental_uris": {"android": "https://dc.lft.to/lastmile_qr_scan", "ios": "https://dc.lft.to/lastmile_qr_scan"}, "fusion_lat": 0.0, "lat": 38.94166083333333, "is_disabled": 0, "lon": -77.061927, "is_reserved": 0}, {"bike_id": "3d4343eff7b3aede045b471ca7c7c487", "fusion_lon": 0.0, "type": "electric_scooter", "name": "3d4343eff7b3aede045b471ca7c7c487", "rental_uris": {"android": "https://dc.lft.to/lastmile_qr_scan", "ios": "https://dc.lft.to/lastmile_qr_scan"}, "fusion_lat": 0.0, "lat": 38.946476833333335, "is_disabled": 0, "lon": -77.03032283333333, "is_reserved": 0}, {"bike_id": "ccffc453e5ea9172a08d0d8638562d17", "fusion_lon": 0.0, "type": "electric_scooter", "name": "ccffc453e5ea9172a08d0d8638562d17", "rental_uris": {"android": "https://dc.lft.to/lastmile_qr_scan", "ios": "https://dc.lft.to/lastmile_qr_scan"}, "fusion_lat": 0.0, "lat": 38.899005, "is_disabled": 0, "lon": -76.93349316666666, "is_reserved": 0}, {"bike_id": "5f8f3cec58b09d68efe046c1d73b2056", "fusion_lon": 0.0, "type": "electric_scooter", "name": "5f8f3cec58b09d68efe046c1d73b2056", "rental_uris": {"android": "https://dc.lft.to/lastmile_qr_scan", "ios": "https://dc.lft.to/lastmile_qr_scan"}, "fusion_lat": 0.0, "lat": 38.91988633333333, "is_disabled": 0, "lon": -76.97306066666667, "is_reserved": 0}, {"bike_id": "f113c98f0e6206c531c0dac22d62b31b", "fusion_lon": 0.0, "type": "electric_scooter", "name": "f113c98f0e6206c531c0dac22d62b31b", "rental_uris": {"android": "https://dc.lft.to/lastmile_qr_scan", "ios": "https://dc.lft.to/lastmile_qr_scan"}, "fusion_lat": 0.0, "lat": 38.93589333333333, "is_disabled": 0, "lon": -77.03517266666667, "is_reserved": 0}, {"bike_id": "d67d31a65eb2ecc2736cf2e91e9ee34d", "fusion_lon": 0.0, "type": "electric_scooter", "name": "d67d31a65eb2ecc2736cf2e91e9ee34d", "rental_uris": {"android": "https://dc.lft.to/lastmile_qr_scan", "ios": "https://dc.lft.to/lastmile_qr_scan"}, "fusion_lat": 0.0, "lat": 38.932894833333336, "is_disabled": 0, "lon": -77.036376, "is_reserved": 0}, {"bike_id": "027c90b099c97b0e0d44931a1d84b9f9", "fusion_lon": 0.0, "type": "electric_scooter", "name": "027c90b099c97b0e0d44931a1d84b9f9", "rental_uris": {"android": "https://dc.lft.to/lastmile_qr_scan", "ios": "https://dc.lft.to/lastmile_qr_scan"}, "fusion_lat": 0.0, "lat": 38.906817333333336, "is_disabled": 0, "lon": -77.03632683333333, "is_reserved": 0}, {"bike_id": "a90aaa779f7893746d46be69e10a548e", "fusion_lon": 0.0, "type": "electric_scooter", "name": "a90aaa779f7893746d46be69e10a548e", "rental_uris": {"android": "https://dc.lft.to/lastmile_qr_scan", "ios": "https://dc.lft.to/lastmile_qr_scan"}, "fusion_lat": 0.0, "lat": 38.938712333333335, "is_disabled": 0, "lon": -77.02483783333334, "is_reserved": 0}, {"bike_id": "ef731fc94e14bb5bb695439eed559e60", "fusion_lon": 0.0, "type": "electric_scooter", "name": "ef731fc94e14bb5bb695439eed559e60", "rental_uris": {"android": "https://dc.lft.to/lastmile_qr_scan", "ios": "https://dc.lft.to/lastmile_qr_scan"}, "fusion_lat": 0.0, "lat": 38.8919755, "is_disabled": 0, "lon": -77.01550533333334, "is_reserved": 0}, {"bike_id": "68f91da750afbe03cc4f5936f2672b71", "fusion_lon": 0.0, "type": "electric_bike", "name": "68f91da750afbe03cc4f5936f2672b71", "rental_uris": {"android": "https://dc.lft.to/lastmile_qr_scan", "ios": "https://dc.lft.to/lastmile_qr_scan"}, "fusion_lat": 0.0, "lat": 38.896736, "is_disabled": 0, "lon": -76.98120566666667, "is_reserved": 0}, {"bike_id": "db09682c8aa7bd214349a503dd79cff7", "fusion_lon": 0.0, "type": "electric_bike", "name": "db09682c8aa7bd214349a503dd79cff7", "rental_uris": {"android": "https://dc.lft.to/lastmile_qr_scan", "ios": "https://dc.lft.to/lastmile_qr_scan"}, "fusion_lat": 0.0, "lat": 38.9660855, "is_disabled": 0, "lon": -76.98331283333333, "is_reserved": 0}, {"bike_id": "6f61a60f698d59fcf9d39fa5553b1128", "fusion_lon": 0.0, "type": "electric_scooter", "name": "6f61a60f698d59fcf9d39fa5553b1128", "rental_uris": {"android": "https://dc.lft.to/lastmile_qr_scan", "ios": "https://dc.lft.to/lastmile_qr_scan"}, "fusion_lat": 0.0, "lat": 38.913841833333336, "is_disabled": 0, "lon": -77.01702166666666, "is_reserved": 0}, {"bike_id": "edd772b6231d394b8e1513770aa69556", "fusion_lon": 0.0, "type": "electric_bike", "name": "edd772b6231d394b8e1513770aa69556", "rental_uris": {"android": "https://dc.lft.to/lastmile_qr_scan", "ios": "https://dc.lft.to/lastmile_qr_scan"}, "fusion_lat": 0.0, "lat": 38.9181275, "is_disabled": 0, "lon": -77.1018235, "is_reserved": 0}, {"bike_id": "7a0e1ee0a19e028b7d9647517c5f7f5b", "fusion_lon": 0.0, "type": "electric_scooter", "name": "7a0e1ee0a19e028b7d9647517c5f7f5b", "rental_uris": {"android": "https://dc.lft.to/lastmile_qr_scan", "ios": "https://dc.lft.to/lastmile_qr_scan"}, "fusion_lat": 0.0, "lat": 38.9127285, "is_disabled": 0, "lon": -77.022282, "is_reserved": 0}, {"bike_id": "3d4edde1e3007b0fde9b0629225853f9", "fusion_lon": 0.0, "type": "electric_scooter", "name": "3d4edde1e3007b0fde9b0629225853f9", "rental_uris": {"android": "https://dc.lft.to/lastmile_qr_scan", "ios": "https://dc.lft.to/lastmile_qr_scan"}, "fusion_lat": 0.0, "lat": 38.926072, "is_disabled": 0, "lon": -77.02158216666666, "is_reserved": 0}, {"bike_id": "ea774c6782f287b37754408146db58f9", "fusion_lon": 0.0, "type": "electric_scooter", "name": "ea774c6782f287b37754408146db58f9", "rental_uris": {"android": "https://dc.lft.to/lastmile_qr_scan", "ios": "https://dc.lft.to/lastmile_qr_scan"}, "fusion_lat": 0.0, "lat": 38.887127666666665, "is_disabled": 0, "lon": -77.02205033333334, "is_reserved": 0}, {"bike_id": "baa47d812cb5daaaa3cfb45f71a0d048", "fusion_lon": 0.0, "type": "electric_scooter", "name": "baa47d812cb5daaaa3cfb45f71a0d048", "rental_uris": {"android": "https://dc.lft.to/lastmile_qr_scan", "ios": "https://dc.lft.to/lastmile_qr_scan"}, "fusion_lat": 0.0, "lat": 38.8785075, "is_disabled": 0, "lon": -77.005585, "is_reserved": 0}, {"bike_id": "b0b6311ff2e24eabb25cd6fe5caae805", "fusion_lon": 0.0, "type": "electric_scooter", "name": "b0b6311ff2e24eabb25cd6fe5caae805", "rental_uris": {"android": "https://dc.lft.to/lastmile_qr_scan", "ios": "https://dc.lft.to/lastmile_qr_scan"}, "fusion_lat": 0.0, "lat": 38.9369295, "is_disabled": 0, "lon": -77.032813, "is_reserved": 0}, {"bike_id": "a4c0daafeb30102acba5d18748f330cc", "fusion_lon": 0.0, "type": "electric_bike", "name": "a4c0daafeb30102acba5d18748f330cc", "rental_uris": {"android": "https://dc.lft.to/lastmile_qr_scan", "ios": "https://dc.lft.to/lastmile_qr_scan"}, "fusion_lat": 0.0, "lat": 38.906940166666665, "is_disabled": 0, "lon": -76.95253066666666, "is_reserved": 0}, {"bike_id": "f4a4c42c67225a89dab76e1a3a55ab20", "fusion_lon": 0.0, "type": "electric_bike", "name": "f4a4c42c67225a89dab76e1a3a55ab20", "rental_uris": {"android": "https://dc.lft.to/lastmile_qr_scan", "ios": "https://dc.lft.to/lastmile_qr_scan"}, "fusion_lat": 0.0, "lat": 38.81230633333333, "is_disabled": 0, "lon": -77.11229283333333, "is_reserved": 0}, {"bike_id": "636d3cfe907b4821d63933f4183e975c", "fusion_lon": 0.0, "type": "electric_scooter", "name": "636d3cfe907b4821d63933f4183e975c", "rental_uris": {"android": "https://dc.lft.to/lastmile_qr_scan", "ios": "https://dc.lft.to/lastmile_qr_scan"}, "fusion_lat": 0.0, "lat": 38.8763095, "is_disabled": 0, "lon": -76.96525683333333, "is_reserved": 0}, {"bike_id": "8047f20f2567450bc44055ab28339839", "fusion_lon": 0.0, "type": "electric_scooter", "name": "8047f20f2567450bc44055ab28339839", "rental_uris": {"android": "https://dc.lft.to/lastmile_qr_scan", "ios": "https://dc.lft.to/lastmile_qr_scan"}, "fusion_lat": 0.0, "lat": 38.900187833333334, "is_disabled": 0, "lon": -77.00156233333334, "is_reserved": 0}, {"bike_id": "e9b1632a77262dec579f67c4981e11b4", "fusion_lon": 0.0, "type": "electric_scooter", "name": "e9b1632a77262dec579f67c4981e11b4", "rental_uris": {"android": "https://dc.lft.to/lastmile_qr_scan", "ios": "https://dc.lft.to/lastmile_qr_scan"}, "fusion_lat": 0.0, "lat": 38.90479766666667, "is_disabled": 0, "lon": -76.99608333333333, "is_reserved": 0}, {"bike_id": "7f2361b15e76d17c8f92f9ecb1710675", "fusion_lon": 0.0, "type": "electric_scooter", "name": "7f2361b15e76d17c8f92f9ecb1710675", "rental_uris": {"android": "https://dc.lft.to/lastmile_qr_scan", "ios": "https://dc.lft.to/lastmile_qr_scan"}, "fusion_lat": 0.0, "lat": 38.8982485, "is_disabled": 0, "lon": -77.033429, "is_reserved": 0}, {"bike_id": "79e10d250a652b6b7625079fb4ff36ee", "fusion_lon": 0.0, "type": "electric_scooter", "name": "79e10d250a652b6b7625079fb4ff36ee", "rental_uris": {"android": "https://dc.lft.to/lastmile_qr_scan", "ios": "https://dc.lft.to/lastmile_qr_scan"}, "fusion_lat": 0.0, "lat": 38.876322333333334, "is_disabled": 0, "lon": -77.012515, "is_reserved": 0}, {"bike_id": "78754a97f18dbe870e97c781479784ae", "fusion_lon": 0.0, "type": "electric_scooter", "name": "78754a97f18dbe870e97c781479784ae", "rental_uris": {"android": "https://dc.lft.to/lastmile_qr_scan", "ios": "https://dc.lft.to/lastmile_qr_scan"}, "fusion_lat": 0.0, "lat": 38.930159333333336, "is_disabled": 0, "lon": -77.03276883333334, "is_reserved": 0}, {"bike_id": "321087a5528d51892ea4c99fd77306a8", "fusion_lon": 0.0, "type": "electric_scooter", "name": "321087a5528d51892ea4c99fd77306a8", "rental_uris": {"android": "https://dc.lft.to/lastmile_qr_scan", "ios": "https://dc.lft.to/lastmile_qr_scan"}, "fusion_lat": 0.0, "lat": 38.891339333333335, "is_disabled": 0, "lon": -76.95184766666667, "is_reserved": 0}, {"bike_id": "06ac0f26848a527ede073fdc3e38efe4", "fusion_lon": 0.0, "type": "electric_scooter", "name": "06ac0f26848a527ede073fdc3e38efe4", "rental_uris": {"android": "https://dc.lft.to/lastmile_qr_scan", "ios": "https://dc.lft.to/lastmile_qr_scan"}, "fusion_lat": 0.0, "lat": 38.890186666666665, "is_disabled": 0, "lon": -76.9373485, "is_reserved": 0}, {"bike_id": "e6dc34b652d9d446577582b4ad83bed4", "fusion_lon": 0.0, "type": "electric_scooter", "name": "e6dc34b652d9d446577582b4ad83bed4", "rental_uris": {"android": "https://dc.lft.to/lastmile_qr_scan", "ios": "https://dc.lft.to/lastmile_qr_scan"}, "fusion_lat": 0.0, "lat": 38.905706333333335, "is_disabled": 0, "lon": -77.00598383333333, "is_reserved": 0}, {"bike_id": "c10e08468383d7df8f1e2c92845dbd5b", "fusion_lon": 0.0, "type": "electric_scooter", "name": "c10e08468383d7df8f1e2c92845dbd5b", "rental_uris": {"android": "https://dc.lft.to/lastmile_qr_scan", "ios": "https://dc.lft.to/lastmile_qr_scan"}, "fusion_lat": 0.0, "lat": 38.92608283333333, "is_disabled": 0, "lon": -77.02415416666666, "is_reserved": 0}, {"bike_id": "7ad3bd560c5893e6a49550cc483575d6", "fusion_lon": 0.0, "type": "electric_scooter", "name": "7ad3bd560c5893e6a49550cc483575d6", "rental_uris": {"android": "https://dc.lft.to/lastmile_qr_scan", "ios": "https://dc.lft.to/lastmile_qr_scan"}, "fusion_lat": 0.0, "lat": 38.92711716666667, "is_disabled": 0, "lon": -77.02395616666666, "is_reserved": 0}, {"bike_id": "5e03f0f31ef27226ddcc79e0301a7ae8", "fusion_lon": 0.0, "type": "electric_scooter", "name": "5e03f0f31ef27226ddcc79e0301a7ae8", "rental_uris": {"android": "https://dc.lft.to/lastmile_qr_scan", "ios": "https://dc.lft.to/lastmile_qr_scan"}, "fusion_lat": 0.0, "lat": 38.915589833333335, "is_disabled": 0, "lon": -77.02053033333334, "is_reserved": 0}, {"bike_id": "a8025d88294e163f6ec657b56a5c951e", "fusion_lon": 0.0, "type": "electric_scooter", "name": "a8025d88294e163f6ec657b56a5c951e", "rental_uris": {"android": "https://dc.lft.to/lastmile_qr_scan", "ios": "https://dc.lft.to/lastmile_qr_scan"}, "fusion_lat": 0.0, "lat": 38.92426733333333, "is_disabled": 0, "lon": -77.03625133333334, "is_reserved": 0}, {"bike_id": "6205c17f1cbc1be6916e3f98435b92ea", "fusion_lon": 0.0, "type": "electric_scooter", "name": "6205c17f1cbc1be6916e3f98435b92ea", "rental_uris": {"android": "https://dc.lft.to/lastmile_qr_scan", "ios": "https://dc.lft.to/lastmile_qr_scan"}, "fusion_lat": 0.0, "lat": 38.95767766666667, "is_disabled": 0, "lon": -77.01591316666666, "is_reserved": 0}, {"bike_id": "3c7b7803684d9b05161319f7cd44a7ff", "fusion_lon": 0.0, "type": "electric_scooter", "name": "3c7b7803684d9b05161319f7cd44a7ff", "rental_uris": {"android": "https://dc.lft.to/lastmile_qr_scan", "ios": "https://dc.lft.to/lastmile_qr_scan"}, "fusion_lat": 0.0, "lat": 38.907243666666666, "is_disabled": 0, "lon": -77.02375016666667, "is_reserved": 0}, {"bike_id": "5ee43f373d03c9c9138bfd80aa2fc23f", "fusion_lon": 0.0, "type": "electric_scooter", "name": "5ee43f373d03c9c9138bfd80aa2fc23f", "rental_uris": {"android": "https://dc.lft.to/lastmile_qr_scan", "ios": "https://dc.lft.to/lastmile_qr_scan"}, "fusion_lat": 0.0, "lat": 38.8921825, "is_disabled": 0, "lon": -77.027185, "is_reserved": 0}, {"bike_id": "af1f125d69b00a7b165709e94a01cd5d", "fusion_lon": 0.0, "type": "electric_scooter", "name": "af1f125d69b00a7b165709e94a01cd5d", "rental_uris": {"android": "https://dc.lft.to/lastmile_qr_scan", "ios": "https://dc.lft.to/lastmile_qr_scan"}, "fusion_lat": 0.0, "lat": 38.903538166666664, "is_disabled": 0, "lon": -77.01104333333333, "is_reserved": 0}, {"bike_id": "e7475a39f5355db6943ec1554752eb64", "fusion_lon": 0.0, "type": "electric_bike", "name": "e7475a39f5355db6943ec1554752eb64", "rental_uris": {"android": "https://dc.lft.to/lastmile_qr_scan", "ios": "https://dc.lft.to/lastmile_qr_scan"}, "fusion_lat": 0.0, "lat": 38.942876166666665, "is_disabled": 0, "lon": -77.028005, "is_reserved": 0}, {"bike_id": "11e207bf5eb93b521a119e95dc97b96f", "fusion_lon": 0.0, "type": "electric_scooter", "name": "11e207bf5eb93b521a119e95dc97b96f", "rental_uris": {"android": "https://dc.lft.to/lastmile_qr_scan", "ios": "https://dc.lft.to/lastmile_qr_scan"}, "fusion_lat": 0.0, "lat": 38.91269166666667, "is_disabled": 0, "lon": -77.02229733333333, "is_reserved": 0}, {"bike_id": "80aeb11eba283e825328dbecc84dfa89", "fusion_lon": 0.0, "type": "electric_scooter", "name": "80aeb11eba283e825328dbecc84dfa89", "rental_uris": {"android": "https://dc.lft.to/lastmile_qr_scan", "ios": "https://dc.lft.to/lastmile_qr_scan"}, "fusion_lat": 0.0, "lat": 38.9159745, "is_disabled": 0, "lon": -77.02820633333333, "is_reserved": 0}, {"bike_id": "f47cf0baccab925de890b56ad8c02fb8", "fusion_lon": 0.0, "type": "electric_bike", "name": "f47cf0baccab925de890b56ad8c02fb8", "rental_uris": {"android": "https://dc.lft.to/lastmile_qr_scan", "ios": "https://dc.lft.to/lastmile_qr_scan"}, "fusion_lat": 0.0, "lat": 38.952661, "is_disabled": 0, "lon": -77.06983866666667, "is_reserved": 0}, {"bike_id": "eb3eb3f90497c19ad1f44adb30e81bd2", "fusion_lon": 0.0, "type": "electric_scooter", "name": "eb3eb3f90497c19ad1f44adb30e81bd2", "rental_uris": {"android": "https://dc.lft.to/lastmile_qr_scan", "ios": "https://dc.lft.to/lastmile_qr_scan"}, "fusion_lat": 0.0, "lat": 38.92333416666666, "is_disabled": 0, "lon": -77.03893866666667, "is_reserved": 0}, {"bike_id": "446270fe021159a574c14c8a8ed7d48c", "fusion_lon": 0.0, "type": "electric_scooter", "name": "446270fe021159a574c14c8a8ed7d48c", "rental_uris": {"android": "https://dc.lft.to/lastmile_qr_scan", "ios": "https://dc.lft.to/lastmile_qr_scan"}, "fusion_lat": 0.0, "lat": 38.9094475, "is_disabled": 0, "lon": -77.02690766666667, "is_reserved": 0}, {"bike_id": "5bf342e1f71d5c036f34ce380d9af502", "fusion_lon": 0.0, "type": "electric_scooter", "name": "5bf342e1f71d5c036f34ce380d9af502", "rental_uris": {"android": "https://dc.lft.to/lastmile_qr_scan", "ios": "https://dc.lft.to/lastmile_qr_scan"}, "fusion_lat": 0.0, "lat": 38.876304166666664, "is_disabled": 0, "lon": -76.96523866666666, "is_reserved": 0}, {"bike_id": "82ffdcbfc07e36246475f9eac3e60abe", "fusion_lon": 0.0, "type": "electric_scooter", "name": "82ffdcbfc07e36246475f9eac3e60abe", "rental_uris": {"android": "https://dc.lft.to/lastmile_qr_scan", "ios": "https://dc.lft.to/lastmile_qr_scan"}, "fusion_lat": 0.0, "lat": 38.93373583333333, "is_disabled": 0, "lon": -77.05728116666667, "is_reserved": 0}, {"bike_id": "d487c3683302162ed4361e7659b6b152", "fusion_lon": 0.0, "type": "electric_scooter", "name": "d487c3683302162ed4361e7659b6b152", "rental_uris": {"android": "https://dc.lft.to/lastmile_qr_scan", "ios": "https://dc.lft.to/lastmile_qr_scan"}, "fusion_lat": 0.0, "lat": 38.936147166666665, "is_disabled": 0, "lon": -77.0366625, "is_reserved": 0}, {"bike_id": "523c84110109998dd49e38792dd12f84", "fusion_lon": 0.0, "type": "electric_scooter", "name": "523c84110109998dd49e38792dd12f84", "rental_uris": {"android": "https://dc.lft.to/lastmile_qr_scan", "ios": "https://dc.lft.to/lastmile_qr_scan"}, "fusion_lat": 0.0, "lat": 38.919983, "is_disabled": 0, "lon": -77.0397135, "is_reserved": 0}, {"bike_id": "60b8e919fd4fcfffc13803b12c038d06", "fusion_lon": 0.0, "type": "electric_scooter", "name": "60b8e919fd4fcfffc13803b12c038d06", "rental_uris": {"android": "https://dc.lft.to/lastmile_qr_scan", "ios": "https://dc.lft.to/lastmile_qr_scan"}, "fusion_lat": 0.0, "lat": 38.8753005, "is_disabled": 0, "lon": -77.00067966666667, "is_reserved": 0}, {"bike_id": "ab491ccb9f5cea5b63d7d20e8a08c7c1", "fusion_lon": 0.0, "type": "electric_scooter", "name": "ab491ccb9f5cea5b63d7d20e8a08c7c1", "rental_uris": {"android": "https://dc.lft.to/lastmile_qr_scan", "ios": "https://dc.lft.to/lastmile_qr_scan"}, "fusion_lat": 0.0, "lat": 38.8842155, "is_disabled": 0, "lon": -76.99545283333333, "is_reserved": 0}, {"bike_id": "5228ee132f4275d9a4efd664ea92f4b3", "fusion_lon": 0.0, "type": "electric_scooter", "name": "5228ee132f4275d9a4efd664ea92f4b3", "rental_uris": {"android": "https://dc.lft.to/lastmile_qr_scan", "ios": "https://dc.lft.to/lastmile_qr_scan"}, "fusion_lat": 0.0, "lat": 38.9267885, "is_disabled": 0, "lon": -77.00754383333333, "is_reserved": 0}, {"bike_id": "0bf8850cf8b4cafb6da61b1dfaf88b98", "fusion_lon": 0.0, "type": "electric_scooter", "name": "0bf8850cf8b4cafb6da61b1dfaf88b98", "rental_uris": {"android": "https://dc.lft.to/lastmile_qr_scan", "ios": "https://dc.lft.to/lastmile_qr_scan"}, "fusion_lat": 0.0, "lat": 38.909613, "is_disabled": 0, "lon": -77.040444, "is_reserved": 0}, {"bike_id": "daa83f30f318a1d009989be567eb3fef", "fusion_lon": 0.0, "type": "electric_scooter", "name": "daa83f30f318a1d009989be567eb3fef", "rental_uris": {"android": "https://dc.lft.to/lastmile_qr_scan", "ios": "https://dc.lft.to/lastmile_qr_scan"}, "fusion_lat": 0.0, "lat": 38.9004065, "is_disabled": 0, "lon": -76.99632733333334, "is_reserved": 0}, {"bike_id": "bffbcfddd197529eb32e9ed3ef12768e", "fusion_lon": 0.0, "type": "electric_scooter", "name": "bffbcfddd197529eb32e9ed3ef12768e", "rental_uris": {"android": "https://dc.lft.to/lastmile_qr_scan", "ios": "https://dc.lft.to/lastmile_qr_scan"}, "fusion_lat": 0.0, "lat": 38.92891916666667, "is_disabled": 0, "lon": -77.00531083333334, "is_reserved": 0}, {"bike_id": "9557827f526110070743d00a4ba57936", "fusion_lon": 0.0, "type": "electric_scooter", "name": "9557827f526110070743d00a4ba57936", "rental_uris": {"android": "https://dc.lft.to/lastmile_qr_scan", "ios": "https://dc.lft.to/lastmile_qr_scan"}, "fusion_lat": 0.0, "lat": 38.864438166666666, "is_disabled": 0, "lon": -76.9900015, "is_reserved": 0}, {"bike_id": "0be48c827cf2a354b3899c85fef9e0cd", "fusion_lon": 0.0, "type": "electric_scooter", "name": "0be48c827cf2a354b3899c85fef9e0cd", "rental_uris": {"android": "https://dc.lft.to/lastmile_qr_scan", "ios": "https://dc.lft.to/lastmile_qr_scan"}, "fusion_lat": 0.0, "lat": 38.935906333333335, "is_disabled": 0, "lon": -77.01934516666667, "is_reserved": 0}, {"bike_id": "b94222eb1987fe32319a6dc4e7604c02", "fusion_lon": 0.0, "type": "electric_scooter", "name": "b94222eb1987fe32319a6dc4e7604c02", "rental_uris": {"android": "https://dc.lft.to/lastmile_qr_scan", "ios": "https://dc.lft.to/lastmile_qr_scan"}, "fusion_lat": 0.0, "lat": 38.899622666666666, "is_disabled": 0, "lon": -76.98572283333333, "is_reserved": 0}, {"bike_id": "1555a05f670d4a1ddf46969f5b368e22", "fusion_lon": 0.0, "type": "electric_scooter", "name": "1555a05f670d4a1ddf46969f5b368e22", "rental_uris": {"android": "https://dc.lft.to/lastmile_qr_scan", "ios": "https://dc.lft.to/lastmile_qr_scan"}, "fusion_lat": 0.0, "lat": 38.96210116666666, "is_disabled": 0, "lon": -77.02342433333334, "is_reserved": 0}, {"bike_id": "66243d6e47588aefdf337080e6deade2", "fusion_lon": 0.0, "type": "electric_scooter", "name": "66243d6e47588aefdf337080e6deade2", "rental_uris": {"android": "https://dc.lft.to/lastmile_qr_scan", "ios": "https://dc.lft.to/lastmile_qr_scan"}, "fusion_lat": 0.0, "lat": 38.91848783333333, "is_disabled": 0, "lon": -76.96552466666667, "is_reserved": 0}, {"bike_id": "2fd7c266b41a480dfad0fbbbb1040cf0", "fusion_lon": 0.0, "type": "electric_scooter", "name": "2fd7c266b41a480dfad0fbbbb1040cf0", "rental_uris": {"android": "https://dc.lft.to/lastmile_qr_scan", "ios": "https://dc.lft.to/lastmile_qr_scan"}, "fusion_lat": 0.0, "lat": 38.910401, "is_disabled": 0, "lon": -77.032831, "is_reserved": 0}, {"bike_id": "777ed590a4ba4cfcd7328b17835aecb9", "fusion_lon": 0.0, "type": "electric_scooter", "name": "777ed590a4ba4cfcd7328b17835aecb9", "rental_uris": {"android": "https://dc.lft.to/lastmile_qr_scan", "ios": "https://dc.lft.to/lastmile_qr_scan"}, "fusion_lat": 0.0, "lat": 38.96501716666667, "is_disabled": 0, "lon": -77.02849116666667, "is_reserved": 0}, {"bike_id": "1cec673ae7d6a7fac8545310e59681da", "fusion_lon": 0.0, "type": "electric_scooter", "name": "1cec673ae7d6a7fac8545310e59681da", "rental_uris": {"android": "https://dc.lft.to/lastmile_qr_scan", "ios": "https://dc.lft.to/lastmile_qr_scan"}, "fusion_lat": 0.0, "lat": 38.939902000000004, "is_disabled": 0, "lon": -77.03282783333333, "is_reserved": 0}, {"bike_id": "419619dce14f7316e66afe30601d667a", "fusion_lon": 0.0, "type": "electric_scooter", "name": "419619dce14f7316e66afe30601d667a", "rental_uris": {"android": "https://dc.lft.to/lastmile_qr_scan", "ios": "https://dc.lft.to/lastmile_qr_scan"}, "fusion_lat": 0.0, "lat": 38.9057705, "is_disabled": 0, "lon": -76.97630066666666, "is_reserved": 0}, {"bike_id": "f02076aeb577a26ac43d4ddc16d674db", "fusion_lon": 0.0, "type": "electric_scooter", "name": "f02076aeb577a26ac43d4ddc16d674db", "rental_uris": {"android": "https://dc.lft.to/lastmile_qr_scan", "ios": "https://dc.lft.to/lastmile_qr_scan"}, "fusion_lat": 0.0, "lat": 38.895099, "is_disabled": 0, "lon": -77.01095183333334, "is_reserved": 0}, {"bike_id": "ea058e3e353a79f37c72588058e5ee53", "fusion_lon": 0.0, "type": "electric_scooter", "name": "ea058e3e353a79f37c72588058e5ee53", "rental_uris": {"android": "https://dc.lft.to/lastmile_qr_scan", "ios": "https://dc.lft.to/lastmile_qr_scan"}, "fusion_lat": 0.0, "lat": 38.918779666666666, "is_disabled": 0, "lon": -77.04182766666666, "is_reserved": 0}, {"bike_id": "ad3c9bc4557bfeab0c5496e9892fb8df", "fusion_lon": 0.0, "type": "electric_scooter", "name": "ad3c9bc4557bfeab0c5496e9892fb8df", "rental_uris": {"android": "https://dc.lft.to/lastmile_qr_scan", "ios": "https://dc.lft.to/lastmile_qr_scan"}, "fusion_lat": 0.0, "lat": 38.8821455, "is_disabled": 0, "lon": -76.98678816666667, "is_reserved": 0}, {"bike_id": "6c1d166d838e813a8921645d40f7aa2a", "fusion_lon": 0.0, "type": "electric_scooter", "name": "6c1d166d838e813a8921645d40f7aa2a", "rental_uris": {"android": "https://dc.lft.to/lastmile_qr_scan", "ios": "https://dc.lft.to/lastmile_qr_scan"}, "fusion_lat": 0.0, "lat": 38.9096205, "is_disabled": 0, "lon": -77.02381733333333, "is_reserved": 0}, {"bike_id": "7950eeb97d975c3b860da4f3d6b03258", "fusion_lon": 0.0, "type": "electric_scooter", "name": "7950eeb97d975c3b860da4f3d6b03258", "rental_uris": {"android": "https://dc.lft.to/lastmile_qr_scan", "ios": "https://dc.lft.to/lastmile_qr_scan"}, "fusion_lat": 0.0, "lat": 38.93061516666667, "is_disabled": 0, "lon": -77.04177083333333, "is_reserved": 0}, {"bike_id": "7c4a2ab72e1866f1ff8830ac1e7f9b7f", "fusion_lon": 0.0, "type": "electric_scooter", "name": "7c4a2ab72e1866f1ff8830ac1e7f9b7f", "rental_uris": {"android": "https://dc.lft.to/lastmile_qr_scan", "ios": "https://dc.lft.to/lastmile_qr_scan"}, "fusion_lat": 0.0, "lat": 38.93865016666667, "is_disabled": 0, "lon": -77.02665566666667, "is_reserved": 0}, {"bike_id": "cb5291f3d8b0991055debc30f88992f1", "fusion_lon": 0.0, "type": "electric_scooter", "name": "cb5291f3d8b0991055debc30f88992f1", "rental_uris": {"android": "https://dc.lft.to/lastmile_qr_scan", "ios": "https://dc.lft.to/lastmile_qr_scan"}, "fusion_lat": 0.0, "lat": 38.90275183333333, "is_disabled": 0, "lon": -77.009131, "is_reserved": 0}, {"bike_id": "e3238ff4f221e6db74be7041e341ea2e", "fusion_lon": 0.0, "type": "electric_bike", "name": "e3238ff4f221e6db74be7041e341ea2e", "rental_uris": {"android": "https://dc.lft.to/lastmile_qr_scan", "ios": "https://dc.lft.to/lastmile_qr_scan"}, "fusion_lat": 0.0, "lat": 38.85423016666667, "is_disabled": 0, "lon": -76.9095945, "is_reserved": 0}, {"bike_id": "6a73c1f9ed4d10cc7f8dcb68fbc65e4a", "fusion_lon": 0.0, "type": "electric_scooter", "name": "6a73c1f9ed4d10cc7f8dcb68fbc65e4a", "rental_uris": {"android": "https://dc.lft.to/lastmile_qr_scan", "ios": "https://dc.lft.to/lastmile_qr_scan"}, "fusion_lat": 0.0, "lat": 38.895326, "is_disabled": 0, "lon": -77.033473, "is_reserved": 0}, {"bike_id": "fc16cba972244897038df36d58fd544a", "fusion_lon": 0.0, "type": "electric_scooter", "name": "fc16cba972244897038df36d58fd544a", "rental_uris": {"android": "https://dc.lft.to/lastmile_qr_scan", "ios": "https://dc.lft.to/lastmile_qr_scan"}, "fusion_lat": 0.0, "lat": 38.887450333333334, "is_disabled": 0, "lon": -77.01870883333333, "is_reserved": 0}, {"bike_id": "66eab9717cec8188ed80114fe555452d", "fusion_lon": 0.0, "type": "electric_scooter", "name": "66eab9717cec8188ed80114fe555452d", "rental_uris": {"android": "https://dc.lft.to/lastmile_qr_scan", "ios": "https://dc.lft.to/lastmile_qr_scan"}, "fusion_lat": 0.0, "lat": 38.90946183333333, "is_disabled": 0, "lon": -77.0269345, "is_reserved": 0}, {"bike_id": "af1b331e7af4b3dfc1f2e9fe885e299c", "fusion_lon": 0.0, "type": "electric_bike", "name": "af1b331e7af4b3dfc1f2e9fe885e299c", "rental_uris": {"android": "https://dc.lft.to/lastmile_qr_scan", "ios": "https://dc.lft.to/lastmile_qr_scan"}, "fusion_lat": 0.0, "lat": 38.926010833333336, "is_disabled": 0, "lon": -77.02428916666666, "is_reserved": 0}, {"bike_id": "e244e425023ada2e95598d852f77bb03", "fusion_lon": 0.0, "type": "electric_scooter", "name": "e244e425023ada2e95598d852f77bb03", "rental_uris": {"android": "https://dc.lft.to/lastmile_qr_scan", "ios": "https://dc.lft.to/lastmile_qr_scan"}, "fusion_lat": 0.0, "lat": 38.906484, "is_disabled": 0, "lon": -77.029377, "is_reserved": 0}, {"bike_id": "1cb419bea8c247cd25b9f17c03263909", "fusion_lon": 0.0, "type": "electric_bike", "name": "1cb419bea8c247cd25b9f17c03263909", "rental_uris": {"android": "https://dc.lft.to/lastmile_qr_scan", "ios": "https://dc.lft.to/lastmile_qr_scan"}, "fusion_lat": 0.0, "lat": 38.830448, "is_disabled": 0, "lon": -77.10900233333334, "is_reserved": 0}, {"bike_id": "dcee225a51468fb469147b75486cd7e9", "fusion_lon": 0.0, "type": "electric_bike", "name": "dcee225a51468fb469147b75486cd7e9", "rental_uris": {"android": "https://dc.lft.to/lastmile_qr_scan", "ios": "https://dc.lft.to/lastmile_qr_scan"}, "fusion_lat": 0.0, "lat": 38.963099666666665, "is_disabled": 0, "lon": -77.0110535, "is_reserved": 0}, {"bike_id": "9aa39bd3465c2f6358699eb8b67cf4ef", "fusion_lon": 0.0, "type": "electric_scooter", "name": "9aa39bd3465c2f6358699eb8b67cf4ef", "rental_uris": {"android": "https://dc.lft.to/lastmile_qr_scan", "ios": "https://dc.lft.to/lastmile_qr_scan"}, "fusion_lat": 0.0, "lat": 38.9048615, "is_disabled": 0, "lon": -76.97332483333334, "is_reserved": 0}, {"bike_id": "9d18c41dac6e9782e289da98634780fa", "fusion_lon": 0.0, "type": "electric_scooter", "name": "9d18c41dac6e9782e289da98634780fa", "rental_uris": {"android": "https://dc.lft.to/lastmile_qr_scan", "ios": "https://dc.lft.to/lastmile_qr_scan"}, "fusion_lat": 0.0, "lat": 38.902862, "is_disabled": 0, "lon": -77.0346965, "is_reserved": 0}, {"bike_id": "d9b7e7d1b32533c26862c46ae33dbccf", "fusion_lon": 0.0, "type": "electric_scooter", "name": "d9b7e7d1b32533c26862c46ae33dbccf", "rental_uris": {"android": "https://dc.lft.to/lastmile_qr_scan", "ios": "https://dc.lft.to/lastmile_qr_scan"}, "fusion_lat": 0.0, "lat": 38.91546616666667, "is_disabled": 0, "lon": -77.038526, "is_reserved": 0}, {"bike_id": "d5d7f30080dce99baec1ac5c8d5f546f", "fusion_lon": 0.0, "type": "electric_scooter", "name": "d5d7f30080dce99baec1ac5c8d5f546f", "rental_uris": {"android": "https://dc.lft.to/lastmile_qr_scan", "ios": "https://dc.lft.to/lastmile_qr_scan"}, "fusion_lat": 0.0, "lat": 38.9041195, "is_disabled": 0, "lon": -77.00134683333333, "is_reserved": 0}, {"bike_id": "9eae10d26909e9b24977f34304c59fd7", "fusion_lon": 0.0, "type": "electric_bike", "name": "9eae10d26909e9b24977f34304c59fd7", "rental_uris": {"android": "https://dc.lft.to/lastmile_qr_scan", "ios": "https://dc.lft.to/lastmile_qr_scan"}, "fusion_lat": 0.0, "lat": 38.89185833333333, "is_disabled": 0, "lon": -76.95030183333333, "is_reserved": 0}, {"bike_id": "3c173b337a198611b73a231546c689af", "fusion_lon": 0.0, "type": "electric_scooter", "name": "3c173b337a198611b73a231546c689af", "rental_uris": {"android": "https://dc.lft.to/lastmile_qr_scan", "ios": "https://dc.lft.to/lastmile_qr_scan"}, "fusion_lat": 0.0, "lat": 38.906164, "is_disabled": 0, "lon": -77.00415833333334, "is_reserved": 0}, {"bike_id": "3d49d4864e37da01b9e6c43b1aa9f0ae", "fusion_lon": 0.0, "type": "electric_bike", "name": "3d49d4864e37da01b9e6c43b1aa9f0ae", "rental_uris": {"android": "https://dc.lft.to/lastmile_qr_scan", "ios": "https://dc.lft.to/lastmile_qr_scan"}, "fusion_lat": 0.0, "lat": 38.824461666666664, "is_disabled": 0, "lon": -77.070496, "is_reserved": 0}, {"bike_id": "18a0ef297225f053c970edd4d41b8638", "fusion_lon": 0.0, "type": "electric_bike", "name": "18a0ef297225f053c970edd4d41b8638", "rental_uris": {"android": "https://dc.lft.to/lastmile_qr_scan", "ios": "https://dc.lft.to/lastmile_qr_scan"}, "fusion_lat": 0.0, "lat": 38.7998965, "is_disabled": 0, "lon": -77.12981883333333, "is_reserved": 0}, {"bike_id": "f8d4efecaefa6d70cec2ad71e6b77d9a", "fusion_lon": 0.0, "type": "electric_scooter", "name": "f8d4efecaefa6d70cec2ad71e6b77d9a", "rental_uris": {"android": "https://dc.lft.to/lastmile_qr_scan", "ios": "https://dc.lft.to/lastmile_qr_scan"}, "fusion_lat": 0.0, "lat": 38.920534333333336, "is_disabled": 0, "lon": -77.03391833333333, "is_reserved": 0}, {"bike_id": "9e92860072351609a62a28d064a9b2ad", "fusion_lon": 0.0, "type": "electric_scooter", "name": "9e92860072351609a62a28d064a9b2ad", "rental_uris": {"android": "https://dc.lft.to/lastmile_qr_scan", "ios": "https://dc.lft.to/lastmile_qr_scan"}, "fusion_lat": 0.0, "lat": 38.90514566666667, "is_disabled": 0, "lon": -77.016981, "is_reserved": 0}, {"bike_id": "5a4d73983dc06f2507dba87cac9ddfbe", "fusion_lon": 0.0, "type": "electric_scooter", "name": "5a4d73983dc06f2507dba87cac9ddfbe", "rental_uris": {"android": "https://dc.lft.to/lastmile_qr_scan", "ios": "https://dc.lft.to/lastmile_qr_scan"}, "fusion_lat": 0.0, "lat": 38.896849, "is_disabled": 0, "lon": -76.94714866666666, "is_reserved": 0}, {"bike_id": "02133f3822cd022ad3b29290b7a2f827", "fusion_lon": 0.0, "type": "electric_bike", "name": "02133f3822cd022ad3b29290b7a2f827", "rental_uris": {"android": "https://dc.lft.to/lastmile_qr_scan", "ios": "https://dc.lft.to/lastmile_qr_scan"}, "fusion_lat": 0.0, "lat": 38.87977216666667, "is_disabled": 0, "lon": -76.91601166666666, "is_reserved": 0}, {"bike_id": "ea4875806df5ef61d3d166d05660e16e", "fusion_lon": 0.0, "type": "electric_bike", "name": "ea4875806df5ef61d3d166d05660e16e", "rental_uris": {"android": "https://dc.lft.to/lastmile_qr_scan", "ios": "https://dc.lft.to/lastmile_qr_scan"}, "fusion_lat": 0.0, "lat": 38.86534066666667, "is_disabled": 0, "lon": -77.12818433333334, "is_reserved": 0}, {"bike_id": "aef5d81eeed75c375ba9d633f4759f7d", "fusion_lon": 0.0, "type": "electric_scooter", "name": "aef5d81eeed75c375ba9d633f4759f7d", "rental_uris": {"android": "https://dc.lft.to/lastmile_qr_scan", "ios": "https://dc.lft.to/lastmile_qr_scan"}, "fusion_lat": 0.0, "lat": 38.905726666666666, "is_disabled": 0, "lon": -77.039998, "is_reserved": 0}, {"bike_id": "ad6285134dba233b8db4bbecd3204f5b", "fusion_lon": 0.0, "type": "electric_scooter", "name": "ad6285134dba233b8db4bbecd3204f5b", "rental_uris": {"android": "https://dc.lft.to/lastmile_qr_scan", "ios": "https://dc.lft.to/lastmile_qr_scan"}, "fusion_lat": 0.0, "lat": 38.94028516666667, "is_disabled": 0, "lon": -77.06887783333333, "is_reserved": 0}, {"bike_id": "80748ee6ac56bd952e0aa0bb4bca85e5", "fusion_lon": 0.0, "type": "electric_scooter", "name": "80748ee6ac56bd952e0aa0bb4bca85e5", "rental_uris": {"android": "https://dc.lft.to/lastmile_qr_scan", "ios": "https://dc.lft.to/lastmile_qr_scan"}, "fusion_lat": 0.0, "lat": 38.92915633333333, "is_disabled": 0, "lon": -77.06396183333334, "is_reserved": 0}, {"bike_id": "80a3cd98645d41e941fa8f09a50def9c", "fusion_lon": 0.0, "type": "electric_bike", "name": "80a3cd98645d41e941fa8f09a50def9c", "rental_uris": {"android": "https://dc.lft.to/lastmile_qr_scan", "ios": "https://dc.lft.to/lastmile_qr_scan"}, "fusion_lat": 0.0, "lat": 38.92849066666667, "is_disabled": 0, "lon": -77.02056716666667, "is_reserved": 0}, {"bike_id": "a1155bc42a74778f80fec57ac48a4bbc", "fusion_lon": 0.0, "type": "electric_scooter", "name": "a1155bc42a74778f80fec57ac48a4bbc", "rental_uris": {"android": "https://dc.lft.to/lastmile_qr_scan", "ios": "https://dc.lft.to/lastmile_qr_scan"}, "fusion_lat": 0.0, "lat": 38.914303833333335, "is_disabled": 0, "lon": -77.00199616666667, "is_reserved": 0}, {"bike_id": "9108fe7f42ca0f3a7e8edf1dc93332fb", "fusion_lon": 0.0, "type": "electric_scooter", "name": "9108fe7f42ca0f3a7e8edf1dc93332fb", "rental_uris": {"android": "https://dc.lft.to/lastmile_qr_scan", "ios": "https://dc.lft.to/lastmile_qr_scan"}, "fusion_lat": 0.0, "lat": 38.91253, "is_disabled": 0, "lon": -77.04742483333334, "is_reserved": 0}, {"bike_id": "fc3db9dbe4b9a427f80e0dc2dadc18f3", "fusion_lon": 0.0, "type": "electric_scooter", "name": "fc3db9dbe4b9a427f80e0dc2dadc18f3", "rental_uris": {"android": "https://dc.lft.to/lastmile_qr_scan", "ios": "https://dc.lft.to/lastmile_qr_scan"}, "fusion_lat": 0.0, "lat": 38.90201033333334, "is_disabled": 0, "lon": -77.02373683333333, "is_reserved": 0}, {"bike_id": "a9cc5811b1253b82a1eab318242aac07", "fusion_lon": 0.0, "type": "electric_scooter", "name": "a9cc5811b1253b82a1eab318242aac07", "rental_uris": {"android": "https://dc.lft.to/lastmile_qr_scan", "ios": "https://dc.lft.to/lastmile_qr_scan"}, "fusion_lat": 0.0, "lat": 38.908217666666665, "is_disabled": 0, "lon": -77.03944566666667, "is_reserved": 0}, {"bike_id": "02e6c869597ee3be96fd3f82003ae03c", "fusion_lon": 0.0, "type": "electric_scooter", "name": "02e6c869597ee3be96fd3f82003ae03c", "rental_uris": {"android": "https://dc.lft.to/lastmile_qr_scan", "ios": "https://dc.lft.to/lastmile_qr_scan"}, "fusion_lat": 0.0, "lat": 38.898699666666666, "is_disabled": 0, "lon": -76.94665466666666, "is_reserved": 0}, {"bike_id": "4513205ec02b4468b9ef2c19ca55af31", "fusion_lon": 0.0, "type": "electric_scooter", "name": "4513205ec02b4468b9ef2c19ca55af31", "rental_uris": {"android": "https://dc.lft.to/lastmile_qr_scan", "ios": "https://dc.lft.to/lastmile_qr_scan"}, "fusion_lat": 0.0, "lat": 38.930822666666664, "is_disabled": 0, "lon": -77.02792816666667, "is_reserved": 0}, {"bike_id": "43a65465573a1b21f51ce199051ee175", "fusion_lon": 0.0, "type": "electric_scooter", "name": "43a65465573a1b21f51ce199051ee175", "rental_uris": {"android": "https://dc.lft.to/lastmile_qr_scan", "ios": "https://dc.lft.to/lastmile_qr_scan"}, "fusion_lat": 0.0, "lat": 38.921323666666666, "is_disabled": 0, "lon": -77.04683633333333, "is_reserved": 0}, {"bike_id": "75936e6429fba46db007304c7bb0d5ca", "fusion_lon": 0.0, "type": "electric_scooter", "name": "75936e6429fba46db007304c7bb0d5ca", "rental_uris": {"android": "https://dc.lft.to/lastmile_qr_scan", "ios": "https://dc.lft.to/lastmile_qr_scan"}, "fusion_lat": 0.0, "lat": 38.92236366666667, "is_disabled": 0, "lon": -77.042472, "is_reserved": 0}, {"bike_id": "9c346235e6036e1ac07b7233abba2e56", "fusion_lon": 0.0, "type": "electric_scooter", "name": "9c346235e6036e1ac07b7233abba2e56", "rental_uris": {"android": "https://dc.lft.to/lastmile_qr_scan", "ios": "https://dc.lft.to/lastmile_qr_scan"}, "fusion_lat": 0.0, "lat": 38.914590833333335, "is_disabled": 0, "lon": -77.07170233333333, "is_reserved": 0}, {"bike_id": "8c2c1efd2c52298ea49ad06cf8b47a85", "fusion_lon": 0.0, "type": "electric_scooter", "name": "8c2c1efd2c52298ea49ad06cf8b47a85", "rental_uris": {"android": "https://dc.lft.to/lastmile_qr_scan", "ios": "https://dc.lft.to/lastmile_qr_scan"}, "fusion_lat": 0.0, "lat": 38.8863415, "is_disabled": 0, "lon": -77.0216465, "is_reserved": 0}, {"bike_id": "c0b9d51fc152a681fb6cfced35515708", "fusion_lon": 0.0, "type": "electric_scooter", "name": "c0b9d51fc152a681fb6cfced35515708", "rental_uris": {"android": "https://dc.lft.to/lastmile_qr_scan", "ios": "https://dc.lft.to/lastmile_qr_scan"}, "fusion_lat": 0.0, "lat": 38.84620983333333, "is_disabled": 0, "lon": -76.996328, "is_reserved": 0}, {"bike_id": "7584c4732aea5829fcc4139592cbf151", "fusion_lon": 0.0, "type": "electric_bike", "name": "7584c4732aea5829fcc4139592cbf151", "rental_uris": {"android": "https://dc.lft.to/lastmile_qr_scan", "ios": "https://dc.lft.to/lastmile_qr_scan"}, "fusion_lat": 0.0, "lat": 38.9541175, "is_disabled": 0, "lon": -76.94288, "is_reserved": 0}, {"bike_id": "be55518b04cffda1e78d838f6a1baa57", "fusion_lon": 0.0, "type": "electric_scooter", "name": "be55518b04cffda1e78d838f6a1baa57", "rental_uris": {"android": "https://dc.lft.to/lastmile_qr_scan", "ios": "https://dc.lft.to/lastmile_qr_scan"}, "fusion_lat": 0.0, "lat": 38.897555833333335, "is_disabled": 0, "lon": -77.028643, "is_reserved": 0}, {"bike_id": "a190886383cf094d9a1e7c49557e1fb2", "fusion_lon": 0.0, "type": "electric_scooter", "name": "a190886383cf094d9a1e7c49557e1fb2", "rental_uris": {"android": "https://dc.lft.to/lastmile_qr_scan", "ios": "https://dc.lft.to/lastmile_qr_scan"}, "fusion_lat": 0.0, "lat": 38.91461266666666, "is_disabled": 0, "lon": -77.0416475, "is_reserved": 0}, {"bike_id": "58984c0efef40b239fa12e657ac42880", "fusion_lon": 0.0, "type": "electric_bike", "name": "58984c0efef40b239fa12e657ac42880", "rental_uris": {"android": "https://dc.lft.to/lastmile_qr_scan", "ios": "https://dc.lft.to/lastmile_qr_scan"}, "fusion_lat": 0.0, "lat": 38.965058166666665, "is_disabled": 0, "lon": -77.028254, "is_reserved": 0}, {"bike_id": "a1c2fc3574f3dd73dd6387927fa58617", "fusion_lon": 0.0, "type": "electric_scooter", "name": "a1c2fc3574f3dd73dd6387927fa58617", "rental_uris": {"android": "https://dc.lft.to/lastmile_qr_scan", "ios": "https://dc.lft.to/lastmile_qr_scan"}, "fusion_lat": 0.0, "lat": 38.844271666666664, "is_disabled": 0, "lon": -76.99781566666667, "is_reserved": 0}, {"bike_id": "03b9f452f79d7db38bdb99112c74fe8e", "fusion_lon": 0.0, "type": "electric_bike", "name": "03b9f452f79d7db38bdb99112c74fe8e", "rental_uris": {"android": "https://dc.lft.to/lastmile_qr_scan", "ios": "https://dc.lft.to/lastmile_qr_scan"}, "fusion_lat": 0.0, "lat": 38.85620733333333, "is_disabled": 0, "lon": -77.0854395, "is_reserved": 0}, {"bike_id": "075d7822416345c11bd00aef40f73128", "fusion_lon": 0.0, "type": "electric_scooter", "name": "075d7822416345c11bd00aef40f73128", "rental_uris": {"android": "https://dc.lft.to/lastmile_qr_scan", "ios": "https://dc.lft.to/lastmile_qr_scan"}, "fusion_lat": 0.0, "lat": 38.892304833333334, "is_disabled": 0, "lon": -77.05001166666666, "is_reserved": 0}, {"bike_id": "c744fbce663a396eefe65b0520874bc4", "fusion_lon": 0.0, "type": "electric_bike", "name": "c744fbce663a396eefe65b0520874bc4", "rental_uris": {"android": "https://dc.lft.to/lastmile_qr_scan", "ios": "https://dc.lft.to/lastmile_qr_scan"}, "fusion_lat": 0.0, "lat": 38.96229066666667, "is_disabled": 0, "lon": -77.02627266666667, "is_reserved": 0}, {"bike_id": "0e7a38dbcf0309e6e9ed5583ffd9fa16", "fusion_lon": 0.0, "type": "electric_scooter", "name": "0e7a38dbcf0309e6e9ed5583ffd9fa16", "rental_uris": {"android": "https://dc.lft.to/lastmile_qr_scan", "ios": "https://dc.lft.to/lastmile_qr_scan"}, "fusion_lat": 0.0, "lat": 38.950702, "is_disabled": 0, "lon": -77.06539016666666, "is_reserved": 0}, {"bike_id": "253e3e832d60b960afec48b076a131d3", "fusion_lon": 0.0, "type": "electric_scooter", "name": "253e3e832d60b960afec48b076a131d3", "rental_uris": {"android": "https://dc.lft.to/lastmile_qr_scan", "ios": "https://dc.lft.to/lastmile_qr_scan"}, "fusion_lat": 0.0, "lat": 38.8667865, "is_disabled": 0, "lon": -76.98889483333333, "is_reserved": 0}, {"bike_id": "a36cfd74695390cb100d3c5c2dd5ba6f", "fusion_lon": 0.0, "type": "electric_bike", "name": "a36cfd74695390cb100d3c5c2dd5ba6f", "rental_uris": {"android": "https://dc.lft.to/lastmile_qr_scan", "ios": "https://dc.lft.to/lastmile_qr_scan"}, "fusion_lat": 0.0, "lat": 39.08903766666667, "is_disabled": 0, "lon": -77.1784725, "is_reserved": 0}, {"bike_id": "8e2938d7e84bae9cb3003eba01384f33", "fusion_lon": 0.0, "type": "electric_scooter", "name": "8e2938d7e84bae9cb3003eba01384f33", "rental_uris": {"android": "https://dc.lft.to/lastmile_qr_scan", "ios": "https://dc.lft.to/lastmile_qr_scan"}, "fusion_lat": 0.0, "lat": 38.8859865, "is_disabled": 0, "lon": -76.9945555, "is_reserved": 0}, {"bike_id": "e7deda88909047956b91e3496b6976d6", "fusion_lon": 0.0, "type": "electric_scooter", "name": "e7deda88909047956b91e3496b6976d6", "rental_uris": {"android": "https://dc.lft.to/lastmile_qr_scan", "ios": "https://dc.lft.to/lastmile_qr_scan"}, "fusion_lat": 0.0, "lat": 38.945767333333336, "is_disabled": 0, "lon": -77.03461166666666, "is_reserved": 0}, {"bike_id": "3b2e3f2f4f9d3e9a1d4cb2256a0196ac", "fusion_lon": 0.0, "type": "electric_scooter", "name": "3b2e3f2f4f9d3e9a1d4cb2256a0196ac", "rental_uris": {"android": "https://dc.lft.to/lastmile_qr_scan", "ios": "https://dc.lft.to/lastmile_qr_scan"}, "fusion_lat": 0.0, "lat": 38.916809666666666, "is_disabled": 0, "lon": -77.02969133333333, "is_reserved": 0}, {"bike_id": "7122b715a0541daa31d39bc452d833c9", "fusion_lon": 0.0, "type": "electric_scooter", "name": "7122b715a0541daa31d39bc452d833c9", "rental_uris": {"android": "https://dc.lft.to/lastmile_qr_scan", "ios": "https://dc.lft.to/lastmile_qr_scan"}, "fusion_lat": 0.0, "lat": 38.940985833333336, "is_disabled": 0, "lon": -77.02537916666667, "is_reserved": 0}, {"bike_id": "55b8736151aaac0812a4a290c3fe1047", "fusion_lon": 0.0, "type": "electric_scooter", "name": "55b8736151aaac0812a4a290c3fe1047", "rental_uris": {"android": "https://dc.lft.to/lastmile_qr_scan", "ios": "https://dc.lft.to/lastmile_qr_scan"}, "fusion_lat": 0.0, "lat": 38.915488, "is_disabled": 0, "lon": -77.0232795, "is_reserved": 0}, {"bike_id": "08fbef519c43ffc3ca0a0d110fc6eaf3", "fusion_lon": 0.0, "type": "electric_scooter", "name": "08fbef519c43ffc3ca0a0d110fc6eaf3", "rental_uris": {"android": "https://dc.lft.to/lastmile_qr_scan", "ios": "https://dc.lft.to/lastmile_qr_scan"}, "fusion_lat": 0.0, "lat": 38.88509966666667, "is_disabled": 0, "lon": -77.03352383333333, "is_reserved": 0}, {"bike_id": "0cbe3468560b1958e8cc423d7c8c7ea1", "fusion_lon": 0.0, "type": "electric_scooter", "name": "0cbe3468560b1958e8cc423d7c8c7ea1", "rental_uris": {"android": "https://dc.lft.to/lastmile_qr_scan", "ios": "https://dc.lft.to/lastmile_qr_scan"}, "fusion_lat": 0.0, "lat": 38.914171, "is_disabled": 0, "lon": -77.04204016666667, "is_reserved": 0}, {"bike_id": "ad1faf5101ac5601cd4329e0944f3af4", "fusion_lon": 0.0, "type": "electric_scooter", "name": "ad1faf5101ac5601cd4329e0944f3af4", "rental_uris": {"android": "https://dc.lft.to/lastmile_qr_scan", "ios": "https://dc.lft.to/lastmile_qr_scan"}, "fusion_lat": 0.0, "lat": 38.9500005, "is_disabled": 0, "lon": -77.02708883333334, "is_reserved": 0}, {"bike_id": "87b8ef32ba97a57778f6fd5b92f56185", "fusion_lon": 0.0, "type": "electric_scooter", "name": "87b8ef32ba97a57778f6fd5b92f56185", "rental_uris": {"android": "https://dc.lft.to/lastmile_qr_scan", "ios": "https://dc.lft.to/lastmile_qr_scan"}, "fusion_lat": 0.0, "lat": 38.935577333333335, "is_disabled": 0, "lon": -77.082161, "is_reserved": 0}, {"bike_id": "09d7f9f1c44650f9275b3ce4b2aa0571", "fusion_lon": 0.0, "type": "electric_scooter", "name": "09d7f9f1c44650f9275b3ce4b2aa0571", "rental_uris": {"android": "https://dc.lft.to/lastmile_qr_scan", "ios": "https://dc.lft.to/lastmile_qr_scan"}, "fusion_lat": 0.0, "lat": 38.894634, "is_disabled": 0, "lon": -77.00344216666667, "is_reserved": 0}, {"bike_id": "51b41009a05b636c3f264899a7048d9f", "fusion_lon": 0.0, "type": "electric_bike", "name": "51b41009a05b636c3f264899a7048d9f", "rental_uris": {"android": "https://dc.lft.to/lastmile_qr_scan", "ios": "https://dc.lft.to/lastmile_qr_scan"}, "fusion_lat": 0.0, "lat": 39.054478833333334, "is_disabled": 0, "lon": -77.043046, "is_reserved": 0}, {"bike_id": "a3c36161e330765b8b36378ce44cc266", "fusion_lon": 0.0, "type": "electric_bike", "name": "a3c36161e330765b8b36378ce44cc266", "rental_uris": {"android": "https://dc.lft.to/lastmile_qr_scan", "ios": "https://dc.lft.to/lastmile_qr_scan"}, "fusion_lat": 0.0, "lat": 39.08856466666667, "is_disabled": 0, "lon": -77.17843666666667, "is_reserved": 0}, {"bike_id": "ec4a16c4f2468c23ce49c06010ee5f0d", "fusion_lon": 0.0, "type": "electric_scooter", "name": "ec4a16c4f2468c23ce49c06010ee5f0d", "rental_uris": {"android": "https://dc.lft.to/lastmile_qr_scan", "ios": "https://dc.lft.to/lastmile_qr_scan"}, "fusion_lat": 0.0, "lat": 38.909505, "is_disabled": 0, "lon": -76.99921466666666, "is_reserved": 0}, {"bike_id": "d42be4ba37918e725f71d8096dee9ac9", "fusion_lon": 0.0, "type": "electric_scooter", "name": "d42be4ba37918e725f71d8096dee9ac9", "rental_uris": {"android": "https://dc.lft.to/lastmile_qr_scan", "ios": "https://dc.lft.to/lastmile_qr_scan"}, "fusion_lat": 0.0, "lat": 38.932536666666664, "is_disabled": 0, "lon": -77.03851316666666, "is_reserved": 0}, {"bike_id": "e9f631814e1b9f84dc9b479a1a717cfd", "fusion_lon": 0.0, "type": "electric_scooter", "name": "e9f631814e1b9f84dc9b479a1a717cfd", "rental_uris": {"android": "https://dc.lft.to/lastmile_qr_scan", "ios": "https://dc.lft.to/lastmile_qr_scan"}, "fusion_lat": 0.0, "lat": 38.90591533333333, "is_disabled": 0, "lon": -77.0626965, "is_reserved": 0}, {"bike_id": "fe484b13940efe12f0832de1cba00652", "fusion_lon": 0.0, "type": "electric_bike", "name": "fe484b13940efe12f0832de1cba00652", "rental_uris": {"android": "https://dc.lft.to/lastmile_qr_scan", "ios": "https://dc.lft.to/lastmile_qr_scan"}, "fusion_lat": 0.0, "lat": 38.8616285, "is_disabled": 0, "lon": -77.13093916666666, "is_reserved": 0}, {"bike_id": "0300716e617625a68589c0e9e29c96c6", "fusion_lon": 0.0, "type": "electric_scooter", "name": "0300716e617625a68589c0e9e29c96c6", "rental_uris": {"android": "https://dc.lft.to/lastmile_qr_scan", "ios": "https://dc.lft.to/lastmile_qr_scan"}, "fusion_lat": 0.0, "lat": 38.9385885, "is_disabled": 0, "lon": -77.02463733333333, "is_reserved": 0}, {"bike_id": "2dfce8bf1dad83ad304b8bff03cb4509", "fusion_lon": 0.0, "type": "electric_scooter", "name": "2dfce8bf1dad83ad304b8bff03cb4509", "rental_uris": {"android": "https://dc.lft.to/lastmile_qr_scan", "ios": "https://dc.lft.to/lastmile_qr_scan"}, "fusion_lat": 0.0, "lat": 38.868905166666664, "is_disabled": 0, "lon": -76.983089, "is_reserved": 0}, {"bike_id": "b1d498660f18424c5346b894bf213d24", "fusion_lon": 0.0, "type": "electric_scooter", "name": "b1d498660f18424c5346b894bf213d24", "rental_uris": {"android": "https://dc.lft.to/lastmile_qr_scan", "ios": "https://dc.lft.to/lastmile_qr_scan"}, "fusion_lat": 0.0, "lat": 38.897126, "is_disabled": 0, "lon": -77.0315955, "is_reserved": 0}, {"bike_id": "e9b21d1bf78512b176e9eacfe4718fc0", "fusion_lon": 0.0, "type": "electric_scooter", "name": "e9b21d1bf78512b176e9eacfe4718fc0", "rental_uris": {"android": "https://dc.lft.to/lastmile_qr_scan", "ios": "https://dc.lft.to/lastmile_qr_scan"}, "fusion_lat": 0.0, "lat": 38.87676233333333, "is_disabled": 0, "lon": -77.00719583333333, "is_reserved": 0}, {"bike_id": "7e1c1fb9a3bf0888bc0f2a7ce3ae5d24", "fusion_lon": 0.0, "type": "electric_scooter", "name": "7e1c1fb9a3bf0888bc0f2a7ce3ae5d24", "rental_uris": {"android": "https://dc.lft.to/lastmile_qr_scan", "ios": "https://dc.lft.to/lastmile_qr_scan"}, "fusion_lat": 0.0, "lat": 38.931342666666666, "is_disabled": 0, "lon": -77.03827866666667, "is_reserved": 0}, {"bike_id": "40e2619f2c2fac0418045826e2cb4486", "fusion_lon": 0.0, "type": "electric_scooter", "name": "40e2619f2c2fac0418045826e2cb4486", "rental_uris": {"android": "https://dc.lft.to/lastmile_qr_scan", "ios": "https://dc.lft.to/lastmile_qr_scan"}, "fusion_lat": 0.0, "lat": 38.91923716666667, "is_disabled": 0, "lon": -77.03408833333333, "is_reserved": 0}, {"bike_id": "bdc5628f834d86869ea8c48db7e68e60", "fusion_lon": 0.0, "type": "electric_scooter", "name": "bdc5628f834d86869ea8c48db7e68e60", "rental_uris": {"android": "https://dc.lft.to/lastmile_qr_scan", "ios": "https://dc.lft.to/lastmile_qr_scan"}, "fusion_lat": 0.0, "lat": 38.92243416666667, "is_disabled": 0, "lon": -77.03522183333334, "is_reserved": 0}, {"bike_id": "159f9457bd79a31856b9eb0f68e3fd83", "fusion_lon": 0.0, "type": "electric_scooter", "name": "159f9457bd79a31856b9eb0f68e3fd83", "rental_uris": {"android": "https://dc.lft.to/lastmile_qr_scan", "ios": "https://dc.lft.to/lastmile_qr_scan"}, "fusion_lat": 0.0, "lat": 38.91822116666667, "is_disabled": 0, "lon": -77.03456983333334, "is_reserved": 0}, {"bike_id": "d65419dd342b75efbf21a7a93059bfc7", "fusion_lon": 0.0, "type": "electric_scooter", "name": "d65419dd342b75efbf21a7a93059bfc7", "rental_uris": {"android": "https://dc.lft.to/lastmile_qr_scan", "ios": "https://dc.lft.to/lastmile_qr_scan"}, "fusion_lat": 0.0, "lat": 38.920210833333336, "is_disabled": 0, "lon": -77.04077666666667, "is_reserved": 0}, {"bike_id": "861020959a0532c492da989ac35d7964", "fusion_lon": 0.0, "type": "electric_scooter", "name": "861020959a0532c492da989ac35d7964", "rental_uris": {"android": "https://dc.lft.to/lastmile_qr_scan", "ios": "https://dc.lft.to/lastmile_qr_scan"}, "fusion_lat": 0.0, "lat": 38.862066666666664, "is_disabled": 0, "lon": -76.99507233333334, "is_reserved": 0}, {"bike_id": "d572e0d0fa595d586425d7e70d7da5d1", "fusion_lon": 0.0, "type": "electric_bike", "name": "d572e0d0fa595d586425d7e70d7da5d1", "rental_uris": {"android": "https://dc.lft.to/lastmile_qr_scan", "ios": "https://dc.lft.to/lastmile_qr_scan"}, "fusion_lat": 0.0, "lat": 38.84517666666667, "is_disabled": 0, "lon": -77.07795316666666, "is_reserved": 0}, {"bike_id": "cbb6e0265a848aa7cf15d7b6fa2fbefa", "fusion_lon": 0.0, "type": "electric_scooter", "name": "cbb6e0265a848aa7cf15d7b6fa2fbefa", "rental_uris": {"android": "https://dc.lft.to/lastmile_qr_scan", "ios": "https://dc.lft.to/lastmile_qr_scan"}, "fusion_lat": 0.0, "lat": 38.822642333333334, "is_disabled": 0, "lon": -77.00205933333334, "is_reserved": 0}, {"bike_id": "bc49f071eaa74fa5420d9661697c9c70", "fusion_lon": 0.0, "type": "electric_scooter", "name": "bc49f071eaa74fa5420d9661697c9c70", "rental_uris": {"android": "https://dc.lft.to/lastmile_qr_scan", "ios": "https://dc.lft.to/lastmile_qr_scan"}, "fusion_lat": 0.0, "lat": 38.927983166666664, "is_disabled": 0, "lon": -77.03205166666666, "is_reserved": 0}, {"bike_id": "5bf53b2d617944e14dc16da212508290", "fusion_lon": 0.0, "type": "electric_scooter", "name": "5bf53b2d617944e14dc16da212508290", "rental_uris": {"android": "https://dc.lft.to/lastmile_qr_scan", "ios": "https://dc.lft.to/lastmile_qr_scan"}, "fusion_lat": 0.0, "lat": 38.97238316666667, "is_disabled": 0, "lon": -77.02716183333334, "is_reserved": 0}, {"bike_id": "7a9793220fd774fca0f6a5b8dcf43ee1", "fusion_lon": 0.0, "type": "electric_scooter", "name": "7a9793220fd774fca0f6a5b8dcf43ee1", "rental_uris": {"android": "https://dc.lft.to/lastmile_qr_scan", "ios": "https://dc.lft.to/lastmile_qr_scan"}, "fusion_lat": 0.0, "lat": 38.883843, "is_disabled": 0, "lon": -77.01978433333333, "is_reserved": 0}, {"bike_id": "3d97ee5685c0aba48aa9970aad2f85c6", "fusion_lon": 0.0, "type": "electric_scooter", "name": "3d97ee5685c0aba48aa9970aad2f85c6", "rental_uris": {"android": "https://dc.lft.to/lastmile_qr_scan", "ios": "https://dc.lft.to/lastmile_qr_scan"}, "fusion_lat": 0.0, "lat": 38.88741183333333, "is_disabled": 0, "lon": -77.01530216666667, "is_reserved": 0}, {"bike_id": "bc44bffa8a9368b2f98d29f2bbe317db", "fusion_lon": 0.0, "type": "electric_scooter", "name": "bc44bffa8a9368b2f98d29f2bbe317db", "rental_uris": {"android": "https://dc.lft.to/lastmile_qr_scan", "ios": "https://dc.lft.to/lastmile_qr_scan"}, "fusion_lat": 0.0, "lat": 38.91783683333333, "is_disabled": 0, "lon": -77.023093, "is_reserved": 0}, {"bike_id": "36b4033599b8f00411f3c453f0f32b89", "fusion_lon": 0.0, "type": "electric_scooter", "name": "36b4033599b8f00411f3c453f0f32b89", "rental_uris": {"android": "https://dc.lft.to/lastmile_qr_scan", "ios": "https://dc.lft.to/lastmile_qr_scan"}, "fusion_lat": 0.0, "lat": 38.9262725, "is_disabled": 0, "lon": -77.05292633333333, "is_reserved": 0}, {"bike_id": "275ff9747f3d18f04158ebfbaf9cbf52", "fusion_lon": 0.0, "type": "electric_scooter", "name": "275ff9747f3d18f04158ebfbaf9cbf52", "rental_uris": {"android": "https://dc.lft.to/lastmile_qr_scan", "ios": "https://dc.lft.to/lastmile_qr_scan"}, "fusion_lat": 0.0, "lat": 38.897414833333336, "is_disabled": 0, "lon": -77.000422, "is_reserved": 0}, {"bike_id": "06b2d5048b37a2b80811877d47ac6bed", "fusion_lon": 0.0, "type": "electric_scooter", "name": "06b2d5048b37a2b80811877d47ac6bed", "rental_uris": {"android": "https://dc.lft.to/lastmile_qr_scan", "ios": "https://dc.lft.to/lastmile_qr_scan"}, "fusion_lat": 0.0, "lat": 38.8850395, "is_disabled": 0, "lon": -77.03363883333333, "is_reserved": 0}, {"bike_id": "8d56366d965159d7c027d19596b47b80", "fusion_lon": 0.0, "type": "electric_scooter", "name": "8d56366d965159d7c027d19596b47b80", "rental_uris": {"android": "https://dc.lft.to/lastmile_qr_scan", "ios": "https://dc.lft.to/lastmile_qr_scan"}, "fusion_lat": 0.0, "lat": 38.921600166666664, "is_disabled": 0, "lon": -77.0338555, "is_reserved": 0}, {"bike_id": "803a255870f810bed66ec21a6233c8da", "fusion_lon": 0.0, "type": "electric_scooter", "name": "803a255870f810bed66ec21a6233c8da", "rental_uris": {"android": "https://dc.lft.to/lastmile_qr_scan", "ios": "https://dc.lft.to/lastmile_qr_scan"}, "fusion_lat": 0.0, "lat": 38.93880566666667, "is_disabled": 0, "lon": -77.03281483333333, "is_reserved": 0}, {"bike_id": "9f91b4b0559c6b21cd443294dcf1250c", "fusion_lon": 0.0, "type": "electric_scooter", "name": "9f91b4b0559c6b21cd443294dcf1250c", "rental_uris": {"android": "https://dc.lft.to/lastmile_qr_scan", "ios": "https://dc.lft.to/lastmile_qr_scan"}, "fusion_lat": 0.0, "lat": 38.883029, "is_disabled": 0, "lon": -76.948578, "is_reserved": 0}, {"bike_id": "e49c47bac0e0724b60db164609603284", "fusion_lon": 0.0, "type": "electric_scooter", "name": "e49c47bac0e0724b60db164609603284", "rental_uris": {"android": "https://dc.lft.to/lastmile_qr_scan", "ios": "https://dc.lft.to/lastmile_qr_scan"}, "fusion_lat": 0.0, "lat": 38.89486683333333, "is_disabled": 0, "lon": -76.94841916666667, "is_reserved": 0}, {"bike_id": "05f36ff07e5c4e3ffd17ebcb49186f35", "fusion_lon": 0.0, "type": "electric_scooter", "name": "05f36ff07e5c4e3ffd17ebcb49186f35", "rental_uris": {"android": "https://dc.lft.to/lastmile_qr_scan", "ios": "https://dc.lft.to/lastmile_qr_scan"}, "fusion_lat": 0.0, "lat": 38.857602666666665, "is_disabled": 0, "lon": -76.99322883333333, "is_reserved": 0}, {"bike_id": "504019b8d4706c7f48e7f9dfec46d747", "fusion_lon": 0.0, "type": "electric_scooter", "name": "504019b8d4706c7f48e7f9dfec46d747", "rental_uris": {"android": "https://dc.lft.to/lastmile_qr_scan", "ios": "https://dc.lft.to/lastmile_qr_scan"}, "fusion_lat": 0.0, "lat": 38.921273666666664, "is_disabled": 0, "lon": -77.04590183333333, "is_reserved": 0}, {"bike_id": "b6822ae9e17a9b341f2e647ca371baf3", "fusion_lon": 0.0, "type": "electric_scooter", "name": "b6822ae9e17a9b341f2e647ca371baf3", "rental_uris": {"android": "https://dc.lft.to/lastmile_qr_scan", "ios": "https://dc.lft.to/lastmile_qr_scan"}, "fusion_lat": 0.0, "lat": 38.89690866666667, "is_disabled": 0, "lon": -76.992729, "is_reserved": 0}, {"bike_id": "7dcc5caf7079a0bd83c24ef965ab58ba", "fusion_lon": 0.0, "type": "electric_scooter", "name": "7dcc5caf7079a0bd83c24ef965ab58ba", "rental_uris": {"android": "https://dc.lft.to/lastmile_qr_scan", "ios": "https://dc.lft.to/lastmile_qr_scan"}, "fusion_lat": 0.0, "lat": 38.944178, "is_disabled": 0, "lon": -77.0551755, "is_reserved": 0}, {"bike_id": "35c1fb5195bf895d10db5328d9a159e7", "fusion_lon": 0.0, "type": "electric_scooter", "name": "35c1fb5195bf895d10db5328d9a159e7", "rental_uris": {"android": "https://dc.lft.to/lastmile_qr_scan", "ios": "https://dc.lft.to/lastmile_qr_scan"}, "fusion_lat": 0.0, "lat": 38.92693, "is_disabled": 0, "lon": -77.0360135, "is_reserved": 0}, {"bike_id": "d3bfc47f51caa4e3ff8913a0795f4ba8", "fusion_lon": 0.0, "type": "electric_scooter", "name": "d3bfc47f51caa4e3ff8913a0795f4ba8", "rental_uris": {"android": "https://dc.lft.to/lastmile_qr_scan", "ios": "https://dc.lft.to/lastmile_qr_scan"}, "fusion_lat": 0.0, "lat": 38.91821633333333, "is_disabled": 0, "lon": -77.03459833333334, "is_reserved": 0}, {"bike_id": "d499c897cac0fd58c69b845b50b3f86a", "fusion_lon": 0.0, "type": "electric_scooter", "name": "d499c897cac0fd58c69b845b50b3f86a", "rental_uris": {"android": "https://dc.lft.to/lastmile_qr_scan", "ios": "https://dc.lft.to/lastmile_qr_scan"}, "fusion_lat": 0.0, "lat": 38.898852166666664, "is_disabled": 0, "lon": -76.93174633333334, "is_reserved": 0}, {"bike_id": "5127c3ab69c90a81bba9d73408fba75f", "fusion_lon": 0.0, "type": "electric_scooter", "name": "5127c3ab69c90a81bba9d73408fba75f", "rental_uris": {"android": "https://dc.lft.to/lastmile_qr_scan", "ios": "https://dc.lft.to/lastmile_qr_scan"}, "fusion_lat": 0.0, "lat": 38.91774433333333, "is_disabled": 0, "lon": -77.01456016666667, "is_reserved": 0}, {"bike_id": "94b0802080051d0836e4c444d93db9dc", "fusion_lon": 0.0, "type": "electric_scooter", "name": "94b0802080051d0836e4c444d93db9dc", "rental_uris": {"android": "https://dc.lft.to/lastmile_qr_scan", "ios": "https://dc.lft.to/lastmile_qr_scan"}, "fusion_lat": 0.0, "lat": 38.894850166666664, "is_disabled": 0, "lon": -76.99516433333334, "is_reserved": 0}, {"bike_id": "f4c01caf1d62131aa88ffcc8138c974f", "fusion_lon": 0.0, "type": "electric_scooter", "name": "f4c01caf1d62131aa88ffcc8138c974f", "rental_uris": {"android": "https://dc.lft.to/lastmile_qr_scan", "ios": "https://dc.lft.to/lastmile_qr_scan"}, "fusion_lat": 0.0, "lat": 38.9051485, "is_disabled": 0, "lon": -77.00163766666667, "is_reserved": 0}, {"bike_id": "357359eca5b76f1a25b4625e9e2fbe36", "fusion_lon": 0.0, "type": "electric_scooter", "name": "357359eca5b76f1a25b4625e9e2fbe36", "rental_uris": {"android": "https://dc.lft.to/lastmile_qr_scan", "ios": "https://dc.lft.to/lastmile_qr_scan"}, "fusion_lat": 0.0, "lat": 38.918458666666666, "is_disabled": 0, "lon": -76.96554216666667, "is_reserved": 0}, {"bike_id": "47fedb67ee47490ad7321a331dad0310", "fusion_lon": 0.0, "type": "electric_scooter", "name": "47fedb67ee47490ad7321a331dad0310", "rental_uris": {"android": "https://dc.lft.to/lastmile_qr_scan", "ios": "https://dc.lft.to/lastmile_qr_scan"}, "fusion_lat": 0.0, "lat": 38.926146833333334, "is_disabled": 0, "lon": -77.02164066666667, "is_reserved": 0}, {"bike_id": "30e7595ecdf4c300fcc46fdae76b5d28", "fusion_lon": 0.0, "type": "electric_scooter", "name": "30e7595ecdf4c300fcc46fdae76b5d28", "rental_uris": {"android": "https://dc.lft.to/lastmile_qr_scan", "ios": "https://dc.lft.to/lastmile_qr_scan"}, "fusion_lat": 0.0, "lat": 38.897355833333336, "is_disabled": 0, "lon": -77.0131685, "is_reserved": 0}, {"bike_id": "872b980900ff6c55edb44f32d56af98b", "fusion_lon": 0.0, "type": "electric_scooter", "name": "872b980900ff6c55edb44f32d56af98b", "rental_uris": {"android": "https://dc.lft.to/lastmile_qr_scan", "ios": "https://dc.lft.to/lastmile_qr_scan"}, "fusion_lat": 0.0, "lat": 38.90867633333333, "is_disabled": 0, "lon": -76.99953183333334, "is_reserved": 0}, {"bike_id": "cc805862f051cebeea33022b4703675e", "fusion_lon": 0.0, "type": "electric_scooter", "name": "cc805862f051cebeea33022b4703675e", "rental_uris": {"android": "https://dc.lft.to/lastmile_qr_scan", "ios": "https://dc.lft.to/lastmile_qr_scan"}, "fusion_lat": 0.0, "lat": 38.958344833333335, "is_disabled": 0, "lon": -77.07169816666666, "is_reserved": 0}, {"bike_id": "563c25a82199876289aaa9be237777d7", "fusion_lon": 0.0, "type": "electric_scooter", "name": "563c25a82199876289aaa9be237777d7", "rental_uris": {"android": "https://dc.lft.to/lastmile_qr_scan", "ios": "https://dc.lft.to/lastmile_qr_scan"}, "fusion_lat": 0.0, "lat": 38.86702233333333, "is_disabled": 0, "lon": -76.98714283333334, "is_reserved": 0}, {"bike_id": "5d7955df7ead10f25be350f7580cc868", "fusion_lon": 0.0, "type": "electric_scooter", "name": "5d7955df7ead10f25be350f7580cc868", "rental_uris": {"android": "https://dc.lft.to/lastmile_qr_scan", "ios": "https://dc.lft.to/lastmile_qr_scan"}, "fusion_lat": 0.0, "lat": 38.927652, "is_disabled": 0, "lon": -77.02293233333333, "is_reserved": 0}, {"bike_id": "07029508010df9ff145e6e274721b129", "fusion_lon": 0.0, "type": "electric_scooter", "name": "07029508010df9ff145e6e274721b129", "rental_uris": {"android": "https://dc.lft.to/lastmile_qr_scan", "ios": "https://dc.lft.to/lastmile_qr_scan"}, "fusion_lat": 0.0, "lat": 38.880249166666665, "is_disabled": 0, "lon": -77.021961, "is_reserved": 0}, {"bike_id": "a2f7b722f9bc8c3abd94a43e060b2142", "fusion_lon": 0.0, "type": "electric_bike", "name": "a2f7b722f9bc8c3abd94a43e060b2142", "rental_uris": {"android": "https://dc.lft.to/lastmile_qr_scan", "ios": "https://dc.lft.to/lastmile_qr_scan"}, "fusion_lat": 0.0, "lat": 39.02425983333333, "is_disabled": 0, "lon": -77.1250455, "is_reserved": 0}, {"bike_id": "b3fd8a24f97658120ebc2791d88d68ce", "fusion_lon": 0.0, "type": "electric_scooter", "name": "b3fd8a24f97658120ebc2791d88d68ce", "rental_uris": {"android": "https://dc.lft.to/lastmile_qr_scan", "ios": "https://dc.lft.to/lastmile_qr_scan"}, "fusion_lat": 0.0, "lat": 38.934841, "is_disabled": 0, "lon": -77.02412033333333, "is_reserved": 0}, {"bike_id": "2ae2dc6c388ab89c866265841badb027", "fusion_lon": 0.0, "type": "electric_scooter", "name": "2ae2dc6c388ab89c866265841badb027", "rental_uris": {"android": "https://dc.lft.to/lastmile_qr_scan", "ios": "https://dc.lft.to/lastmile_qr_scan"}, "fusion_lat": 0.0, "lat": 38.90480783333334, "is_disabled": 0, "lon": -77.02005083333333, "is_reserved": 0}, {"bike_id": "1af97a20c81dcaab1b5d8d2db545226e", "fusion_lon": 0.0, "type": "electric_scooter", "name": "1af97a20c81dcaab1b5d8d2db545226e", "rental_uris": {"android": "https://dc.lft.to/lastmile_qr_scan", "ios": "https://dc.lft.to/lastmile_qr_scan"}, "fusion_lat": 0.0, "lat": 38.90022366666667, "is_disabled": 0, "lon": -76.99871016666667, "is_reserved": 0}, {"bike_id": "6dd84ae18adf7d86b21669ff2845bd72", "fusion_lon": 0.0, "type": "electric_scooter", "name": "6dd84ae18adf7d86b21669ff2845bd72", "rental_uris": {"android": "https://dc.lft.to/lastmile_qr_scan", "ios": "https://dc.lft.to/lastmile_qr_scan"}, "fusion_lat": 0.0, "lat": 38.86507366666667, "is_disabled": 0, "lon": -76.99000933333333, "is_reserved": 0}, {"bike_id": "a21df225957d87e3f7c42404fd6994b0", "fusion_lon": 0.0, "type": "electric_scooter", "name": "a21df225957d87e3f7c42404fd6994b0", "rental_uris": {"android": "https://dc.lft.to/lastmile_qr_scan", "ios": "https://dc.lft.to/lastmile_qr_scan"}, "fusion_lat": 0.0, "lat": 38.898632166666665, "is_disabled": 0, "lon": -76.97672783333333, "is_reserved": 0}, {"bike_id": "b227b41790c6d408a2d8103b5572aeb0", "fusion_lon": 0.0, "type": "electric_scooter", "name": "b227b41790c6d408a2d8103b5572aeb0", "rental_uris": {"android": "https://dc.lft.to/lastmile_qr_scan", "ios": "https://dc.lft.to/lastmile_qr_scan"}, "fusion_lat": 0.0, "lat": 38.90140683333333, "is_disabled": 0, "lon": -76.99417433333333, "is_reserved": 0}, {"bike_id": "c4f56c9b98562b2397e785085ead8877", "fusion_lon": 0.0, "type": "electric_scooter", "name": "c4f56c9b98562b2397e785085ead8877", "rental_uris": {"android": "https://dc.lft.to/lastmile_qr_scan", "ios": "https://dc.lft.to/lastmile_qr_scan"}, "fusion_lat": 0.0, "lat": 38.899688166666664, "is_disabled": 0, "lon": -76.93434333333333, "is_reserved": 0}, {"bike_id": "c335f628a9b2e74a3abc4c0833ca56e1", "fusion_lon": 0.0, "type": "electric_scooter", "name": "c335f628a9b2e74a3abc4c0833ca56e1", "rental_uris": {"android": "https://dc.lft.to/lastmile_qr_scan", "ios": "https://dc.lft.to/lastmile_qr_scan"}, "fusion_lat": 0.0, "lat": 38.908035, "is_disabled": 0, "lon": -77.05144833333334, "is_reserved": 0}, {"bike_id": "6891d9ac9fcc092e87f3a389af949acf", "fusion_lon": 0.0, "type": "electric_scooter", "name": "6891d9ac9fcc092e87f3a389af949acf", "rental_uris": {"android": "https://dc.lft.to/lastmile_qr_scan", "ios": "https://dc.lft.to/lastmile_qr_scan"}, "fusion_lat": 0.0, "lat": 38.914806, "is_disabled": 0, "lon": -77.014536, "is_reserved": 0}, {"bike_id": "294435f4632406b58cd07aaf89ddebcb", "fusion_lon": 0.0, "type": "electric_scooter", "name": "294435f4632406b58cd07aaf89ddebcb", "rental_uris": {"android": "https://dc.lft.to/lastmile_qr_scan", "ios": "https://dc.lft.to/lastmile_qr_scan"}, "fusion_lat": 0.0, "lat": 38.917928333333336, "is_disabled": 0, "lon": -77.02310416666667, "is_reserved": 0}, {"bike_id": "f0909043a7285a633a5ed77b75cf1a8f", "fusion_lon": 0.0, "type": "electric_scooter", "name": "f0909043a7285a633a5ed77b75cf1a8f", "rental_uris": {"android": "https://dc.lft.to/lastmile_qr_scan", "ios": "https://dc.lft.to/lastmile_qr_scan"}, "fusion_lat": 0.0, "lat": 38.93322383333334, "is_disabled": 0, "lon": -76.99097583333334, "is_reserved": 0}, {"bike_id": "8d29dde426d25806bc50aef3afca333a", "fusion_lon": 0.0, "type": "electric_scooter", "name": "8d29dde426d25806bc50aef3afca333a", "rental_uris": {"android": "https://dc.lft.to/lastmile_qr_scan", "ios": "https://dc.lft.to/lastmile_qr_scan"}, "fusion_lat": 0.0, "lat": 38.9070075, "is_disabled": 0, "lon": -76.9869925, "is_reserved": 0}, {"bike_id": "44fdd53014f6573eb6eea6547dc72570", "fusion_lon": 0.0, "type": "electric_scooter", "name": "44fdd53014f6573eb6eea6547dc72570", "rental_uris": {"android": "https://dc.lft.to/lastmile_qr_scan", "ios": "https://dc.lft.to/lastmile_qr_scan"}, "fusion_lat": 0.0, "lat": 38.9221175, "is_disabled": 0, "lon": -77.03750416666666, "is_reserved": 0}, {"bike_id": "dae56f1b0ca234f2c5250fc79c097b79", "fusion_lon": 0.0, "type": "electric_scooter", "name": "dae56f1b0ca234f2c5250fc79c097b79", "rental_uris": {"android": "https://dc.lft.to/lastmile_qr_scan", "ios": "https://dc.lft.to/lastmile_qr_scan"}, "fusion_lat": 0.0, "lat": 38.936726, "is_disabled": 0, "lon": -77.059317, "is_reserved": 0}, {"bike_id": "7338784082956a5ca7ddeeb1795e5d1e", "fusion_lon": 0.0, "type": "electric_scooter", "name": "7338784082956a5ca7ddeeb1795e5d1e", "rental_uris": {"android": "https://dc.lft.to/lastmile_qr_scan", "ios": "https://dc.lft.to/lastmile_qr_scan"}, "fusion_lat": 0.0, "lat": 38.900115666666665, "is_disabled": 0, "lon": -77.0450205, "is_reserved": 0}, {"bike_id": "5f9796e6ab1da6b8c03be784277ebc57", "fusion_lon": 0.0, "type": "electric_scooter", "name": "5f9796e6ab1da6b8c03be784277ebc57", "rental_uris": {"android": "https://dc.lft.to/lastmile_qr_scan", "ios": "https://dc.lft.to/lastmile_qr_scan"}, "fusion_lat": 0.0, "lat": 38.887411166666666, "is_disabled": 0, "lon": -77.02826966666667, "is_reserved": 0}, {"bike_id": "3a33af7e5ad107f6cbc81eddd272a8f0", "fusion_lon": 0.0, "type": "electric_bike", "name": "3a33af7e5ad107f6cbc81eddd272a8f0", "rental_uris": {"android": "https://dc.lft.to/lastmile_qr_scan", "ios": "https://dc.lft.to/lastmile_qr_scan"}, "fusion_lat": 0.0, "lat": 38.896449833333335, "is_disabled": 0, "lon": -76.94797666666666, "is_reserved": 0}, {"bike_id": "fe96190e3b645a0d03a9057c16f7091d", "fusion_lon": 0.0, "type": "electric_scooter", "name": "fe96190e3b645a0d03a9057c16f7091d", "rental_uris": {"android": "https://dc.lft.to/lastmile_qr_scan", "ios": "https://dc.lft.to/lastmile_qr_scan"}, "fusion_lat": 0.0, "lat": 38.892614333333334, "is_disabled": 0, "lon": -77.03220433333334, "is_reserved": 0}, {"bike_id": "80ac8cde473ce78137c66c3cf16cbb4a", "fusion_lon": 0.0, "type": "electric_scooter", "name": "80ac8cde473ce78137c66c3cf16cbb4a", "rental_uris": {"android": "https://dc.lft.to/lastmile_qr_scan", "ios": "https://dc.lft.to/lastmile_qr_scan"}, "fusion_lat": 0.0, "lat": 38.894807, "is_disabled": 0, "lon": -77.04543066666666, "is_reserved": 0}, {"bike_id": "55b85796f1837522082690a55b22d179", "fusion_lon": 0.0, "type": "electric_scooter", "name": "55b85796f1837522082690a55b22d179", "rental_uris": {"android": "https://dc.lft.to/lastmile_qr_scan", "ios": "https://dc.lft.to/lastmile_qr_scan"}, "fusion_lat": 0.0, "lat": 38.93740583333334, "is_disabled": 0, "lon": -77.03496066666666, "is_reserved": 0}, {"bike_id": "bf1513ce46928f91cd0a81b4527ca34c", "fusion_lon": 0.0, "type": "electric_scooter", "name": "bf1513ce46928f91cd0a81b4527ca34c", "rental_uris": {"android": "https://dc.lft.to/lastmile_qr_scan", "ios": "https://dc.lft.to/lastmile_qr_scan"}, "fusion_lat": 0.0, "lat": 38.89843316666666, "is_disabled": 0, "lon": -77.0334345, "is_reserved": 0}, {"bike_id": "2c5750df42429e5aa44bbdd28394f160", "fusion_lon": 0.0, "type": "electric_bike", "name": "2c5750df42429e5aa44bbdd28394f160", "rental_uris": {"android": "https://dc.lft.to/lastmile_qr_scan", "ios": "https://dc.lft.to/lastmile_qr_scan"}, "fusion_lat": 0.0, "lat": 38.925784, "is_disabled": 0, "lon": -76.98612566666667, "is_reserved": 0}, {"bike_id": "c95f8b1eeac6712368c634eec1a12373", "fusion_lon": 0.0, "type": "electric_scooter", "name": "c95f8b1eeac6712368c634eec1a12373", "rental_uris": {"android": "https://dc.lft.to/lastmile_qr_scan", "ios": "https://dc.lft.to/lastmile_qr_scan"}, "fusion_lat": 0.0, "lat": 38.90871283333333, "is_disabled": 0, "lon": -76.99964616666666, "is_reserved": 0}, {"bike_id": "5f28fe2ec3b4a1c3437b8a262bbe460f", "fusion_lon": 0.0, "type": "electric_scooter", "name": "5f28fe2ec3b4a1c3437b8a262bbe460f", "rental_uris": {"android": "https://dc.lft.to/lastmile_qr_scan", "ios": "https://dc.lft.to/lastmile_qr_scan"}, "fusion_lat": 0.0, "lat": 38.842825166666664, "is_disabled": 0, "lon": -76.9907775, "is_reserved": 0}, {"bike_id": "04d69e506746a635857b221859cfa26e", "fusion_lon": 0.0, "type": "electric_scooter", "name": "04d69e506746a635857b221859cfa26e", "rental_uris": {"android": "https://dc.lft.to/lastmile_qr_scan", "ios": "https://dc.lft.to/lastmile_qr_scan"}, "fusion_lat": 0.0, "lat": 38.91683316666666, "is_disabled": 0, "lon": -77.02972233333334, "is_reserved": 0}, {"bike_id": "642803d6de6a8169d151d14955fc6470", "fusion_lon": 0.0, "type": "electric_scooter", "name": "642803d6de6a8169d151d14955fc6470", "rental_uris": {"android": "https://dc.lft.to/lastmile_qr_scan", "ios": "https://dc.lft.to/lastmile_qr_scan"}, "fusion_lat": 0.0, "lat": 38.939172666666664, "is_disabled": 0, "lon": -77.018958, "is_reserved": 0}, {"bike_id": "dac5fdf0edbcbd381dae575a006da9fe", "fusion_lon": 0.0, "type": "electric_scooter", "name": "dac5fdf0edbcbd381dae575a006da9fe", "rental_uris": {"android": "https://dc.lft.to/lastmile_qr_scan", "ios": "https://dc.lft.to/lastmile_qr_scan"}, "fusion_lat": 0.0, "lat": 38.92033333333333, "is_disabled": 0, "lon": -76.970185, "is_reserved": 0}, {"bike_id": "41891c4942960bd75c86b0e1f14f6639", "fusion_lon": 0.0, "type": "electric_scooter", "name": "41891c4942960bd75c86b0e1f14f6639", "rental_uris": {"android": "https://dc.lft.to/lastmile_qr_scan", "ios": "https://dc.lft.to/lastmile_qr_scan"}, "fusion_lat": 0.0, "lat": 38.900320666666666, "is_disabled": 0, "lon": -76.98780266666667, "is_reserved": 0}, {"bike_id": "30121bad1347d78bfc176815ca10b29f", "fusion_lon": 0.0, "type": "electric_scooter", "name": "30121bad1347d78bfc176815ca10b29f", "rental_uris": {"android": "https://dc.lft.to/lastmile_qr_scan", "ios": "https://dc.lft.to/lastmile_qr_scan"}, "fusion_lat": 0.0, "lat": 38.912571166666666, "is_disabled": 0, "lon": -77.04963733333334, "is_reserved": 0}, {"bike_id": "f145e953f9c0f7fd8d318f9f60c9e49a", "fusion_lon": 0.0, "type": "electric_bike", "name": "f145e953f9c0f7fd8d318f9f60c9e49a", "rental_uris": {"android": "https://dc.lft.to/lastmile_qr_scan", "ios": "https://dc.lft.to/lastmile_qr_scan"}, "fusion_lat": 0.0, "lat": 38.88797, "is_disabled": 0, "lon": -76.92994066666667, "is_reserved": 0}, {"bike_id": "48f44e71b64173a5398833419a3242dc", "fusion_lon": 0.0, "type": "electric_scooter", "name": "48f44e71b64173a5398833419a3242dc", "rental_uris": {"android": "https://dc.lft.to/lastmile_qr_scan", "ios": "https://dc.lft.to/lastmile_qr_scan"}, "fusion_lat": 0.0, "lat": 38.915522833333334, "is_disabled": 0, "lon": -77.026338, "is_reserved": 0}, {"bike_id": "1977c7baddc0dca7fe1e33cbc86fe5f2", "fusion_lon": 0.0, "type": "electric_scooter", "name": "1977c7baddc0dca7fe1e33cbc86fe5f2", "rental_uris": {"android": "https://dc.lft.to/lastmile_qr_scan", "ios": "https://dc.lft.to/lastmile_qr_scan"}, "fusion_lat": 0.0, "lat": 38.86407766666667, "is_disabled": 0, "lon": -76.99025616666667, "is_reserved": 0}, {"bike_id": "a4320048b3702f69d5f1ef56eab543d1", "fusion_lon": 0.0, "type": "electric_scooter", "name": "a4320048b3702f69d5f1ef56eab543d1", "rental_uris": {"android": "https://dc.lft.to/lastmile_qr_scan", "ios": "https://dc.lft.to/lastmile_qr_scan"}, "fusion_lat": 0.0, "lat": 38.948778, "is_disabled": 0, "lon": -77.0793, "is_reserved": 0}, {"bike_id": "fea8722e56ddcf12e4b2c16bf9b0cfd4", "fusion_lon": 0.0, "type": "electric_bike", "name": "fea8722e56ddcf12e4b2c16bf9b0cfd4", "rental_uris": {"android": "https://dc.lft.to/lastmile_qr_scan", "ios": "https://dc.lft.to/lastmile_qr_scan"}, "fusion_lat": 0.0, "lat": 38.942901166666665, "is_disabled": 0, "lon": -77.06930116666666, "is_reserved": 0}, {"bike_id": "eea351ea861ed0d8f2c3a19d99a5ddb7", "fusion_lon": 0.0, "type": "electric_scooter", "name": "eea351ea861ed0d8f2c3a19d99a5ddb7", "rental_uris": {"android": "https://dc.lft.to/lastmile_qr_scan", "ios": "https://dc.lft.to/lastmile_qr_scan"}, "fusion_lat": 0.0, "lat": 38.903602666666664, "is_disabled": 0, "lon": -77.00344183333333, "is_reserved": 0}, {"bike_id": "bf7a3cfb28e3bab0e81f0414b277b14b", "fusion_lon": 0.0, "type": "electric_scooter", "name": "bf7a3cfb28e3bab0e81f0414b277b14b", "rental_uris": {"android": "https://dc.lft.to/lastmile_qr_scan", "ios": "https://dc.lft.to/lastmile_qr_scan"}, "fusion_lat": 0.0, "lat": 38.87588016666667, "is_disabled": 0, "lon": -77.01385316666666, "is_reserved": 0}, {"bike_id": "d6b5af5a2c3dd736b9fb5db4effd2ed9", "fusion_lon": 0.0, "type": "electric_bike", "name": "d6b5af5a2c3dd736b9fb5db4effd2ed9", "rental_uris": {"android": "https://dc.lft.to/lastmile_qr_scan", "ios": "https://dc.lft.to/lastmile_qr_scan"}, "fusion_lat": 0.0, "lat": 38.91183916666667, "is_disabled": 0, "lon": -77.00287766666666, "is_reserved": 0}, {"bike_id": "6bd8ae7fdb14c11269e5d19338869a3c", "fusion_lon": 0.0, "type": "electric_scooter", "name": "6bd8ae7fdb14c11269e5d19338869a3c", "rental_uris": {"android": "https://dc.lft.to/lastmile_qr_scan", "ios": "https://dc.lft.to/lastmile_qr_scan"}, "fusion_lat": 0.0, "lat": 38.919918333333335, "is_disabled": 0, "lon": -77.03965516666666, "is_reserved": 0}, {"bike_id": "7969cab21227ff5792f9b3ec9c563820", "fusion_lon": 0.0, "type": "electric_scooter", "name": "7969cab21227ff5792f9b3ec9c563820", "rental_uris": {"android": "https://dc.lft.to/lastmile_qr_scan", "ios": "https://dc.lft.to/lastmile_qr_scan"}, "fusion_lat": 0.0, "lat": 38.9349145, "is_disabled": 0, "lon": -77.03403066666667, "is_reserved": 0}, {"bike_id": "9d5af9971159c2264aaeb746ed27bb1e", "fusion_lon": 0.0, "type": "electric_bike", "name": "9d5af9971159c2264aaeb746ed27bb1e", "rental_uris": {"android": "https://dc.lft.to/lastmile_qr_scan", "ios": "https://dc.lft.to/lastmile_qr_scan"}, "fusion_lat": 0.0, "lat": 38.877532333333335, "is_disabled": 0, "lon": -76.97991166666667, "is_reserved": 0}, {"bike_id": "78458d01a8ce890d69acbe1590f9678e", "fusion_lon": 0.0, "type": "electric_scooter", "name": "78458d01a8ce890d69acbe1590f9678e", "rental_uris": {"android": "https://dc.lft.to/lastmile_qr_scan", "ios": "https://dc.lft.to/lastmile_qr_scan"}, "fusion_lat": 0.0, "lat": 38.90788383333334, "is_disabled": 0, "lon": -77.032028, "is_reserved": 0}, {"bike_id": "9f769df4138075a2d9d944891c7a2702", "fusion_lon": 0.0, "type": "electric_scooter", "name": "9f769df4138075a2d9d944891c7a2702", "rental_uris": {"android": "https://dc.lft.to/lastmile_qr_scan", "ios": "https://dc.lft.to/lastmile_qr_scan"}, "fusion_lat": 0.0, "lat": 38.9281655, "is_disabled": 0, "lon": -77.03376383333334, "is_reserved": 0}, {"bike_id": "97d9a4f816c31eaccaf1e1980574212f", "fusion_lon": 0.0, "type": "electric_scooter", "name": "97d9a4f816c31eaccaf1e1980574212f", "rental_uris": {"android": "https://dc.lft.to/lastmile_qr_scan", "ios": "https://dc.lft.to/lastmile_qr_scan"}, "fusion_lat": 0.0, "lat": 38.915657833333334, "is_disabled": 0, "lon": -77.0313035, "is_reserved": 0}, {"bike_id": "5807541ba0110c866e49cc0b6d5fda18", "fusion_lon": 0.0, "type": "electric_scooter", "name": "5807541ba0110c866e49cc0b6d5fda18", "rental_uris": {"android": "https://dc.lft.to/lastmile_qr_scan", "ios": "https://dc.lft.to/lastmile_qr_scan"}, "fusion_lat": 0.0, "lat": 38.914452, "is_disabled": 0, "lon": -77.041599, "is_reserved": 0}, {"bike_id": "19babb5a6a9900ab5801e7898b8b0f75", "fusion_lon": 0.0, "type": "electric_scooter", "name": "19babb5a6a9900ab5801e7898b8b0f75", "rental_uris": {"android": "https://dc.lft.to/lastmile_qr_scan", "ios": "https://dc.lft.to/lastmile_qr_scan"}, "fusion_lat": 0.0, "lat": 38.922091, "is_disabled": 0, "lon": -77.032922, "is_reserved": 0}, {"bike_id": "a2f8e5f971416dae933ff4f52584e17f", "fusion_lon": 0.0, "type": "electric_bike", "name": "a2f8e5f971416dae933ff4f52584e17f", "rental_uris": {"android": "https://dc.lft.to/lastmile_qr_scan", "ios": "https://dc.lft.to/lastmile_qr_scan"}, "fusion_lat": 0.0, "lat": 38.939636666666665, "is_disabled": 0, "lon": -77.360916, "is_reserved": 0}, {"bike_id": "3e754a9e1e5332e594a69483a119aa60", "fusion_lon": 0.0, "type": "electric_scooter", "name": "3e754a9e1e5332e594a69483a119aa60", "rental_uris": {"android": "https://dc.lft.to/lastmile_qr_scan", "ios": "https://dc.lft.to/lastmile_qr_scan"}, "fusion_lat": 0.0, "lat": 38.915226833333335, "is_disabled": 0, "lon": -77.012218, "is_reserved": 0}, {"bike_id": "c6cc35a64754bb068873b1cf07fc33dc", "fusion_lon": 0.0, "type": "electric_scooter", "name": "c6cc35a64754bb068873b1cf07fc33dc", "rental_uris": {"android": "https://dc.lft.to/lastmile_qr_scan", "ios": "https://dc.lft.to/lastmile_qr_scan"}, "fusion_lat": 0.0, "lat": 38.905053333333335, "is_disabled": 0, "lon": -76.97742333333333, "is_reserved": 0}, {"bike_id": "606e0ac2995799c16e03672f0b644752", "fusion_lon": 0.0, "type": "electric_scooter", "name": "606e0ac2995799c16e03672f0b644752", "rental_uris": {"android": "https://dc.lft.to/lastmile_qr_scan", "ios": "https://dc.lft.to/lastmile_qr_scan"}, "fusion_lat": 0.0, "lat": 38.9020965, "is_disabled": 0, "lon": -77.0220475, "is_reserved": 0}, {"bike_id": "b4bdcc3f05718f3be21c75e707c4f916", "fusion_lon": 0.0, "type": "electric_scooter", "name": "b4bdcc3f05718f3be21c75e707c4f916", "rental_uris": {"android": "https://dc.lft.to/lastmile_qr_scan", "ios": "https://dc.lft.to/lastmile_qr_scan"}, "fusion_lat": 0.0, "lat": 38.90573583333333, "is_disabled": 0, "lon": -77.03790816666667, "is_reserved": 0}, {"bike_id": "f5a881271bb4360d772e37d1754e7f6e", "fusion_lon": 0.0, "type": "electric_bike", "name": "f5a881271bb4360d772e37d1754e7f6e", "rental_uris": {"android": "https://dc.lft.to/lastmile_qr_scan", "ios": "https://dc.lft.to/lastmile_qr_scan"}, "fusion_lat": 0.0, "lat": 38.89444183333333, "is_disabled": 0, "lon": -76.94779883333334, "is_reserved": 0}, {"bike_id": "9fdae2e4854036c8a6497078f7e3c9e5", "fusion_lon": 0.0, "type": "electric_scooter", "name": "9fdae2e4854036c8a6497078f7e3c9e5", "rental_uris": {"android": "https://dc.lft.to/lastmile_qr_scan", "ios": "https://dc.lft.to/lastmile_qr_scan"}, "fusion_lat": 0.0, "lat": 38.917391333333335, "is_disabled": 0, "lon": -77.02116883333333, "is_reserved": 0}, {"bike_id": "315321499044e43e2d4963104e217010", "fusion_lon": 0.0, "type": "electric_scooter", "name": "315321499044e43e2d4963104e217010", "rental_uris": {"android": "https://dc.lft.to/lastmile_qr_scan", "ios": "https://dc.lft.to/lastmile_qr_scan"}, "fusion_lat": 0.0, "lat": 38.9409725, "is_disabled": 0, "lon": -77.02541033333334, "is_reserved": 0}, {"bike_id": "ab6a16c594a5ccab00e492cfa04637b5", "fusion_lon": 0.0, "type": "electric_scooter", "name": "ab6a16c594a5ccab00e492cfa04637b5", "rental_uris": {"android": "https://dc.lft.to/lastmile_qr_scan", "ios": "https://dc.lft.to/lastmile_qr_scan"}, "fusion_lat": 0.0, "lat": 38.909561333333336, "is_disabled": 0, "lon": -77.022779, "is_reserved": 0}, {"bike_id": "d84020fdb9f61b43787b854a5df40ae8", "fusion_lon": 0.0, "type": "electric_scooter", "name": "d84020fdb9f61b43787b854a5df40ae8", "rental_uris": {"android": "https://dc.lft.to/lastmile_qr_scan", "ios": "https://dc.lft.to/lastmile_qr_scan"}, "fusion_lat": 0.0, "lat": 38.91090166666667, "is_disabled": 0, "lon": -76.99715416666666, "is_reserved": 0}, {"bike_id": "de91fe38ff0f68e1485453c4d88639ee", "fusion_lon": 0.0, "type": "electric_scooter", "name": "de91fe38ff0f68e1485453c4d88639ee", "rental_uris": {"android": "https://dc.lft.to/lastmile_qr_scan", "ios": "https://dc.lft.to/lastmile_qr_scan"}, "fusion_lat": 0.0, "lat": 38.877164, "is_disabled": 0, "lon": -77.006112, "is_reserved": 0}, {"bike_id": "49caf15a9a1a972890daf1f1cb8a69bd", "fusion_lon": 0.0, "type": "electric_bike", "name": "49caf15a9a1a972890daf1f1cb8a69bd", "rental_uris": {"android": "https://dc.lft.to/lastmile_qr_scan", "ios": "https://dc.lft.to/lastmile_qr_scan"}, "fusion_lat": 0.0, "lat": 39.00383133333333, "is_disabled": 0, "lon": -77.01295666666667, "is_reserved": 0}, {"bike_id": "87932ac5d848b4aae8d557768b1f69cc", "fusion_lon": 0.0, "type": "electric_scooter", "name": "87932ac5d848b4aae8d557768b1f69cc", "rental_uris": {"android": "https://dc.lft.to/lastmile_qr_scan", "ios": "https://dc.lft.to/lastmile_qr_scan"}, "fusion_lat": 0.0, "lat": 38.903647, "is_disabled": 0, "lon": -77.011237, "is_reserved": 0}, {"bike_id": "dbf9c175d14189b6f61d6cc75b7b9045", "fusion_lon": 0.0, "type": "electric_bike", "name": "dbf9c175d14189b6f61d6cc75b7b9045", "rental_uris": {"android": "https://dc.lft.to/lastmile_qr_scan", "ios": "https://dc.lft.to/lastmile_qr_scan"}, "fusion_lat": 0.0, "lat": 38.858546, "is_disabled": 0, "lon": -77.0975505, "is_reserved": 0}, {"bike_id": "6f2db3b22867f3e0b1217755b2738520", "fusion_lon": 0.0, "type": "electric_scooter", "name": "6f2db3b22867f3e0b1217755b2738520", "rental_uris": {"android": "https://dc.lft.to/lastmile_qr_scan", "ios": "https://dc.lft.to/lastmile_qr_scan"}, "fusion_lat": 0.0, "lat": 38.913373166666666, "is_disabled": 0, "lon": -77.048405, "is_reserved": 0}, {"bike_id": "80bf1eb086778142831f7bfa21935486", "fusion_lon": 0.0, "type": "electric_scooter", "name": "80bf1eb086778142831f7bfa21935486", "rental_uris": {"android": "https://dc.lft.to/lastmile_qr_scan", "ios": "https://dc.lft.to/lastmile_qr_scan"}, "fusion_lat": 0.0, "lat": 38.892292833333336, "is_disabled": 0, "lon": -77.02542633333333, "is_reserved": 0}, {"bike_id": "b38675beb40f1f8b408e1e2720cc4919", "fusion_lon": 0.0, "type": "electric_scooter", "name": "b38675beb40f1f8b408e1e2720cc4919", "rental_uris": {"android": "https://dc.lft.to/lastmile_qr_scan", "ios": "https://dc.lft.to/lastmile_qr_scan"}, "fusion_lat": 0.0, "lat": 38.894847, "is_disabled": 0, "lon": -76.94843716666666, "is_reserved": 0}, {"bike_id": "e9c9c4f22f125b2fbb46ae997160cf5b", "fusion_lon": 0.0, "type": "electric_scooter", "name": "e9c9c4f22f125b2fbb46ae997160cf5b", "rental_uris": {"android": "https://dc.lft.to/lastmile_qr_scan", "ios": "https://dc.lft.to/lastmile_qr_scan"}, "fusion_lat": 0.0, "lat": 38.91516033333333, "is_disabled": 0, "lon": -77.03211733333333, "is_reserved": 0}, {"bike_id": "3d78d191df34126bdcd1371c188ceba3", "fusion_lon": 0.0, "type": "electric_scooter", "name": "3d78d191df34126bdcd1371c188ceba3", "rental_uris": {"android": "https://dc.lft.to/lastmile_qr_scan", "ios": "https://dc.lft.to/lastmile_qr_scan"}, "fusion_lat": 0.0, "lat": 38.9003615, "is_disabled": 0, "lon": -76.99626466666666, "is_reserved": 0}, {"bike_id": "8383240502308bc0b7d78fad5cdc6ea8", "fusion_lon": 0.0, "type": "electric_scooter", "name": "8383240502308bc0b7d78fad5cdc6ea8", "rental_uris": {"android": "https://dc.lft.to/lastmile_qr_scan", "ios": "https://dc.lft.to/lastmile_qr_scan"}, "fusion_lat": 0.0, "lat": 38.906807, "is_disabled": 0, "lon": -77.02710983333333, "is_reserved": 0}, {"bike_id": "b493518ca8432b58023e66c78e58418c", "fusion_lon": 0.0, "type": "electric_scooter", "name": "b493518ca8432b58023e66c78e58418c", "rental_uris": {"android": "https://dc.lft.to/lastmile_qr_scan", "ios": "https://dc.lft.to/lastmile_qr_scan"}, "fusion_lat": 0.0, "lat": 38.88594033333333, "is_disabled": 0, "lon": -77.01720383333334, "is_reserved": 0}, {"bike_id": "6109f35ccf9a1918781a3b481bbec147", "fusion_lon": 0.0, "type": "electric_scooter", "name": "6109f35ccf9a1918781a3b481bbec147", "rental_uris": {"android": "https://dc.lft.to/lastmile_qr_scan", "ios": "https://dc.lft.to/lastmile_qr_scan"}, "fusion_lat": 0.0, "lat": 38.9178155, "is_disabled": 0, "lon": -77.02299716666667, "is_reserved": 0}, {"bike_id": "b0ceb32a87f1730fec955422ffbee022", "fusion_lon": 0.0, "type": "electric_scooter", "name": "b0ceb32a87f1730fec955422ffbee022", "rental_uris": {"android": "https://dc.lft.to/lastmile_qr_scan", "ios": "https://dc.lft.to/lastmile_qr_scan"}, "fusion_lat": 0.0, "lat": 38.9084465, "is_disabled": 0, "lon": -77.03346616666667, "is_reserved": 0}, {"bike_id": "2736a1198a1e4a63ebab89c56fc42d5a", "fusion_lon": 0.0, "type": "electric_scooter", "name": "2736a1198a1e4a63ebab89c56fc42d5a", "rental_uris": {"android": "https://dc.lft.to/lastmile_qr_scan", "ios": "https://dc.lft.to/lastmile_qr_scan"}, "fusion_lat": 0.0, "lat": 38.923307333333334, "is_disabled": 0, "lon": -77.0389325, "is_reserved": 0}, {"bike_id": "07f2bbb24d33be58f2647e5bb71b9f8a", "fusion_lon": 0.0, "type": "electric_scooter", "name": "07f2bbb24d33be58f2647e5bb71b9f8a", "rental_uris": {"android": "https://dc.lft.to/lastmile_qr_scan", "ios": "https://dc.lft.to/lastmile_qr_scan"}, "fusion_lat": 0.0, "lat": 38.9284085, "is_disabled": 0, "lon": -76.99364933333334, "is_reserved": 0}, {"bike_id": "471fd4897c7144cb3d9d46e7a1b86218", "fusion_lon": 0.0, "type": "electric_scooter", "name": "471fd4897c7144cb3d9d46e7a1b86218", "rental_uris": {"android": "https://dc.lft.to/lastmile_qr_scan", "ios": "https://dc.lft.to/lastmile_qr_scan"}, "fusion_lat": 0.0, "lat": 38.916942666666664, "is_disabled": 0, "lon": -77.02808566666667, "is_reserved": 0}, {"bike_id": "0c9d66330b47a3675a72d653109250e0", "fusion_lon": 0.0, "type": "electric_scooter", "name": "0c9d66330b47a3675a72d653109250e0", "rental_uris": {"android": "https://dc.lft.to/lastmile_qr_scan", "ios": "https://dc.lft.to/lastmile_qr_scan"}, "fusion_lat": 0.0, "lat": 38.904886, "is_disabled": 0, "lon": -77.04033833333334, "is_reserved": 0}, {"bike_id": "399ae42b7549d07e5a6a4c2ec88433aa", "fusion_lon": 0.0, "type": "electric_scooter", "name": "399ae42b7549d07e5a6a4c2ec88433aa", "rental_uris": {"android": "https://dc.lft.to/lastmile_qr_scan", "ios": "https://dc.lft.to/lastmile_qr_scan"}, "fusion_lat": 0.0, "lat": 38.9024805, "is_disabled": 0, "lon": -77.03835216666667, "is_reserved": 0}, {"bike_id": "5885c9f06d853871eab9be05a827ca53", "fusion_lon": 0.0, "type": "electric_scooter", "name": "5885c9f06d853871eab9be05a827ca53", "rental_uris": {"android": "https://dc.lft.to/lastmile_qr_scan", "ios": "https://dc.lft.to/lastmile_qr_scan"}, "fusion_lat": 0.0, "lat": 38.916702, "is_disabled": 0, "lon": -77.02411133333334, "is_reserved": 0}, {"bike_id": "5a1a359d76a8afc7852529c7a5e8249d", "fusion_lon": 0.0, "type": "electric_scooter", "name": "5a1a359d76a8afc7852529c7a5e8249d", "rental_uris": {"android": "https://dc.lft.to/lastmile_qr_scan", "ios": "https://dc.lft.to/lastmile_qr_scan"}, "fusion_lat": 0.0, "lat": 38.838381, "is_disabled": 0, "lon": -76.99983066666667, "is_reserved": 0}, {"bike_id": "9ca3d79fe4878749856b1679b28e050d", "fusion_lon": 0.0, "type": "electric_scooter", "name": "9ca3d79fe4878749856b1679b28e050d", "rental_uris": {"android": "https://dc.lft.to/lastmile_qr_scan", "ios": "https://dc.lft.to/lastmile_qr_scan"}, "fusion_lat": 0.0, "lat": 38.918402, "is_disabled": 0, "lon": -77.02294916666666, "is_reserved": 0}, {"bike_id": "a45d0c3fff65cd272d125c97c9f1f6e5", "fusion_lon": 0.0, "type": "electric_scooter", "name": "a45d0c3fff65cd272d125c97c9f1f6e5", "rental_uris": {"android": "https://dc.lft.to/lastmile_qr_scan", "ios": "https://dc.lft.to/lastmile_qr_scan"}, "fusion_lat": 0.0, "lat": 38.9341755, "is_disabled": 0, "lon": -77.0250525, "is_reserved": 0}, {"bike_id": "7dbcd2b436aae2a8012f8d37f22b3a78", "fusion_lon": 0.0, "type": "electric_scooter", "name": "7dbcd2b436aae2a8012f8d37f22b3a78", "rental_uris": {"android": "https://dc.lft.to/lastmile_qr_scan", "ios": "https://dc.lft.to/lastmile_qr_scan"}, "fusion_lat": 0.0, "lat": 38.860496, "is_disabled": 0, "lon": -76.990799, "is_reserved": 0}, {"bike_id": "014da8d0be34cb50f73b0bc1f6de3e19", "fusion_lon": 0.0, "type": "electric_scooter", "name": "014da8d0be34cb50f73b0bc1f6de3e19", "rental_uris": {"android": "https://dc.lft.to/lastmile_qr_scan", "ios": "https://dc.lft.to/lastmile_qr_scan"}, "fusion_lat": 0.0, "lat": 38.907911, "is_disabled": 0, "lon": -77.00963916666667, "is_reserved": 0}, {"bike_id": "45839e96447f6d2cce538d384b297b57", "fusion_lon": 0.0, "type": "electric_scooter", "name": "45839e96447f6d2cce538d384b297b57", "rental_uris": {"android": "https://dc.lft.to/lastmile_qr_scan", "ios": "https://dc.lft.to/lastmile_qr_scan"}, "fusion_lat": 0.0, "lat": 38.865087833333334, "is_disabled": 0, "lon": -76.99004116666667, "is_reserved": 0}, {"bike_id": "c3b89a96bd6b25ac6ff9df69af19f3e8", "fusion_lon": 0.0, "type": "electric_bike", "name": "c3b89a96bd6b25ac6ff9df69af19f3e8", "rental_uris": {"android": "https://dc.lft.to/lastmile_qr_scan", "ios": "https://dc.lft.to/lastmile_qr_scan"}, "fusion_lat": 0.0, "lat": 38.828738, "is_disabled": 0, "lon": -77.11221216666667, "is_reserved": 0}, {"bike_id": "bf3f45e98f738224db16931e50bc5c83", "fusion_lon": 0.0, "type": "electric_scooter", "name": "bf3f45e98f738224db16931e50bc5c83", "rental_uris": {"android": "https://dc.lft.to/lastmile_qr_scan", "ios": "https://dc.lft.to/lastmile_qr_scan"}, "fusion_lat": 0.0, "lat": 38.89882516666667, "is_disabled": 0, "lon": -76.93162866666667, "is_reserved": 0}, {"bike_id": "2545ecfce0813e302f1084c6f798084a", "fusion_lon": 0.0, "type": "electric_scooter", "name": "2545ecfce0813e302f1084c6f798084a", "rental_uris": {"android": "https://dc.lft.to/lastmile_qr_scan", "ios": "https://dc.lft.to/lastmile_qr_scan"}, "fusion_lat": 0.0, "lat": 38.8803475, "is_disabled": 0, "lon": -76.996255, "is_reserved": 0}, {"bike_id": "f5dda9a462bbd6f051e6f35e7d2a8dad", "fusion_lon": 0.0, "type": "electric_scooter", "name": "f5dda9a462bbd6f051e6f35e7d2a8dad", "rental_uris": {"android": "https://dc.lft.to/lastmile_qr_scan", "ios": "https://dc.lft.to/lastmile_qr_scan"}, "fusion_lat": 0.0, "lat": 38.91565533333333, "is_disabled": 0, "lon": -77.03134566666667, "is_reserved": 0}, {"bike_id": "df11b0ba2d3cba8577306a89bf416e5a", "fusion_lon": 0.0, "type": "electric_scooter", "name": "df11b0ba2d3cba8577306a89bf416e5a", "rental_uris": {"android": "https://dc.lft.to/lastmile_qr_scan", "ios": "https://dc.lft.to/lastmile_qr_scan"}, "fusion_lat": 0.0, "lat": 38.89854416666667, "is_disabled": 0, "lon": -77.03323866666666, "is_reserved": 0}, {"bike_id": "093fb02aec8557120bd6fb05f63e0b40", "fusion_lon": 0.0, "type": "electric_scooter", "name": "093fb02aec8557120bd6fb05f63e0b40", "rental_uris": {"android": "https://dc.lft.to/lastmile_qr_scan", "ios": "https://dc.lft.to/lastmile_qr_scan"}, "fusion_lat": 0.0, "lat": 38.91850133333333, "is_disabled": 0, "lon": -76.965562, "is_reserved": 0},