{"data": {"bikes": [{"name": "96ccfc35a724b4eed7a28312bb6729c3", "fusion_lon": 0.0, "lat": 38.884908833333334, "is_reserved": 0, "type": "electric_scooter", "bike_id": "96ccfc35a724b4eed7a28312bb6729c3", "is_disabled": 0, "rental_uris": {"android": "https://dc.lft.to/lastmile_qr_scan", "ios": "https://dc.lft.to/lastmile_qr_scan"}, "lon": -77.00714516666666, "fusion_lat": 0.0}, {"name": "c48d862dbfd03f7a958cf344a28e250e", "fusion_lon": 0.0, "lat": 38.915624666666666, "is_reserved": 0, "type": "electric_scooter", "bike_id": "c48d862dbfd03f7a958cf344a28e250e", "is_disabled": 0, "rental_uris": {"android": "https://dc.lft.to/lastmile_qr_scan", "ios": "https://dc.lft.to/lastmile_qr_scan"}, "lon": -77.04283833333334, "fusion_lat": 0.0}, {"name": "4c46d0a00d833ff22646a0a66ec9f431", "fusion_lon": 0.0, "lat": 38.89621833333333, "is_reserved": 0, "type": "electric_scooter", "bike_id": "4c46d0a00d833ff22646a0a66ec9f431", "is_disabled": 0, "rental_uris": {"android": "https://dc.lft.to/lastmile_qr_scan", "ios": "https://dc.lft.to/lastmile_qr_scan"}, "lon": -77.02196466666666, "fusion_lat": 0.0}, {"name": "744b2bf89e3079c775b7c9842bf9690d", "fusion_lon": 0.0, "lat": 38.892914833333336, "is_reserved": 0, "type": "electric_bike", "bike_id": "744b2bf89e3079c775b7c9842bf9690d", "is_disabled": 0, "rental_uris": {"android": "https://dc.lft.to/lastmile_qr_scan", "ios": "https://dc.lft.to/lastmile_qr_scan"}, "lon": -76.97619333333333, "fusion_lat": 0.0}, {"name": "eb8fb2aae5b6597b2af5acdd73900160", "fusion_lon": 0.0, "lat": 38.90546883333333, "is_reserved": 0, "type": "electric_scooter", "bike_id": "eb8fb2aae5b6597b2af5acdd73900160", "is_disabled": 0, "rental_uris": {"android": "https://dc.lft.to/lastmile_qr_scan", "ios": "https://dc.lft.to/lastmile_qr_scan"}, "lon": -77.034431, "fusion_lat": 0.0}, {"name": "56d0eac8fe5926d0cf3299f2448f557c", "fusion_lon": 0.0, "lat": 38.90676116666667, "is_reserved": 0, "type": "electric_scooter", "bike_id": "56d0eac8fe5926d0cf3299f2448f557c", "is_disabled": 0, "rental_uris": {"android": "https://dc.lft.to/lastmile_qr_scan", "ios": "https://dc.lft.to/lastmile_qr_scan"}, "lon": -77.03765, "fusion_lat": 0.0}, {"name": "fa36579a3e5a0f6e4652fbc441148a94", "fusion_lon": 0.0, "lat": 38.927022, "is_reserved": 0, "type": "electric_scooter", "bike_id": "fa36579a3e5a0f6e4652fbc441148a94", "is_disabled": 0, "rental_uris": {"android": "https://dc.lft.to/lastmile_qr_scan", "ios": "https://dc.lft.to/lastmile_qr_scan"}, "lon": -77.0210445, "fusion_lat": 0.0}, {"name": "eb5f3acda77b130cd930343149e91357", "fusion_lon": 0.0, "lat": 38.90397933333333, "is_reserved": 0, "type": "electric_scooter", "bike_id": "eb5f3acda77b130cd930343149e91357", "is_disabled": 0, "rental_uris": {"android": "https://dc.lft.to/lastmile_qr_scan", "ios": "https://dc.lft.to/lastmile_qr_scan"}, "lon": -77.0163755, "fusion_lat": 0.0}, {"name": "1e347eaaa1ac19b016e1aaeaa4eb0023", "fusion_lon": 0.0, "lat": 38.9094425, "is_reserved": 0, "type": "electric_scooter", "bike_id": "1e347eaaa1ac19b016e1aaeaa4eb0023", "is_disabled": 0, "rental_uris": {"android": "https://dc.lft.to/lastmile_qr_scan", "ios": "https://dc.lft.to/lastmile_qr_scan"}, "lon": -77.04939, "fusion_lat": 0.0}, {"name": "2fffd9d6ed718ef2d48c6dae6a525e07", "fusion_lon": 0.0, "lat": 38.906877333333334, "is_reserved": 0, "type": "electric_scooter", "bike_id": "2fffd9d6ed718ef2d48c6dae6a525e07", "is_disabled": 0, "rental_uris": {"android": "https://dc.lft.to/lastmile_qr_scan", "ios": "https://dc.lft.to/lastmile_qr_scan"}, "lon": -77.04363533333333, "fusion_lat": 0.0}, {"name": "2ec15113a125d6057c2dc6e1adad9038", "fusion_lon": 0.0, "lat": 38.911365, "is_reserved": 0, "type": "electric_scooter", "bike_id": "2ec15113a125d6057c2dc6e1adad9038", "is_disabled": 0, "rental_uris": {"android": "https://dc.lft.to/lastmile_qr_scan", "ios": "https://dc.lft.to/lastmile_qr_scan"}, "lon": -77.03842416666667, "fusion_lat": 0.0}, {"name": "67cd22622adef1069d5dfd8cc7d32597", "fusion_lon": 0.0, "lat": 38.91102716666666, "is_reserved": 0, "type": "electric_scooter", "bike_id": "67cd22622adef1069d5dfd8cc7d32597", "is_disabled": 0, "rental_uris": {"android": "https://dc.lft.to/lastmile_qr_scan", "ios": "https://dc.lft.to/lastmile_qr_scan"}, "lon": -77.02507533333333, "fusion_lat": 0.0}, {"name": "2564eecec8034727e86f075d21a2fde5", "fusion_lon": 0.0, "lat": 38.928658, "is_reserved": 0, "type": "electric_scooter", "bike_id": "2564eecec8034727e86f075d21a2fde5", "is_disabled": 0, "rental_uris": {"android": "https://dc.lft.to/lastmile_qr_scan", "ios": "https://dc.lft.to/lastmile_qr_scan"}, "lon": -77.01358566666667, "fusion_lat": 0.0}, {"name": "ea40d1e346fdd7e2994463f28b50b2ab", "fusion_lon": 0.0, "lat": 38.90723166666667, "is_reserved": 0, "type": "electric_scooter", "bike_id": "ea40d1e346fdd7e2994463f28b50b2ab", "is_disabled": 0, "rental_uris": {"android": "https://dc.lft.to/lastmile_qr_scan", "ios": "https://dc.lft.to/lastmile_qr_scan"}, "lon": -77.04008683333333, "fusion_lat": 0.0}, {"name": "122f417ceb0a1e75776e828529222e0f", "fusion_lon": 0.0, "lat": 38.86620716666667, "is_reserved": 0, "type": "electric_scooter", "bike_id": "122f417ceb0a1e75776e828529222e0f", "is_disabled": 0, "rental_uris": {"android": "https://dc.lft.to/lastmile_qr_scan", "ios": "https://dc.lft.to/lastmile_qr_scan"}, "lon": -77.08785983333334, "fusion_lat": 0.0}, {"name": "8e07d20b7b24507d7e5fa64a38b3e857", "fusion_lon": 0.0, "lat": 38.896071666666664, "is_reserved": 0, "type": "electric_scooter", "bike_id": "8e07d20b7b24507d7e5fa64a38b3e857", "is_disabled": 0, "rental_uris": {"android": "https://dc.lft.to/lastmile_qr_scan", "ios": "https://dc.lft.to/lastmile_qr_scan"}, "lon": -77.0543905, "fusion_lat": 0.0}, {"name": "b9bc0ef03feafdbb24283b590fddfd87", "fusion_lon": 0.0, "lat": 38.91632933333333, "is_reserved": 0, "type": "electric_scooter", "bike_id": "b9bc0ef03feafdbb24283b590fddfd87", "is_disabled": 0, "rental_uris": {"android": "https://dc.lft.to/lastmile_qr_scan", "ios": "https://dc.lft.to/lastmile_qr_scan"}, "lon": -77.03205416666667, "fusion_lat": 0.0}, {"name": "5058d484c4a947bba4a839be53fdfdf5", "fusion_lon": 0.0, "lat": 38.876362, "is_reserved": 0, "type": "electric_scooter", "bike_id": "5058d484c4a947bba4a839be53fdfdf5", "is_disabled": 0, "rental_uris": {"android": "https://dc.lft.to/lastmile_qr_scan", "ios": "https://dc.lft.to/lastmile_qr_scan"}, "lon": -77.0045425, "fusion_lat": 0.0}, {"name": "eca89187f2211ccbcb6a54e44acd1ed3", "fusion_lon": 0.0, "lat": 38.91620283333334, "is_reserved": 0, "type": "electric_scooter", "bike_id": "eca89187f2211ccbcb6a54e44acd1ed3", "is_disabled": 0, "rental_uris": {"android": "https://dc.lft.to/lastmile_qr_scan", "ios": "https://dc.lft.to/lastmile_qr_scan"}, "lon": -77.048692, "fusion_lat": 0.0}, {"name": "dee019278686e1bca5f02590000c491b", "fusion_lon": 0.0, "lat": 38.932276333333334, "is_reserved": 0, "type": "electric_bike", "bike_id": "dee019278686e1bca5f02590000c491b", "is_disabled": 0, "rental_uris": {"android": "https://dc.lft.to/lastmile_qr_scan", "ios": "https://dc.lft.to/lastmile_qr_scan"}, "lon": -77.18124566666667, "fusion_lat": 0.0}, {"name": "6a3006a8540be26aac7cf2eb6c65930a", "fusion_lon": 0.0, "lat": 38.91327716666667, "is_reserved": 0, "type": "electric_scooter", "bike_id": "6a3006a8540be26aac7cf2eb6c65930a", "is_disabled": 0, "rental_uris": {"android": "https://dc.lft.to/lastmile_qr_scan", "ios": "https://dc.lft.to/lastmile_qr_scan"}, "lon": -77.03266416666666, "fusion_lat": 0.0}, {"name": "6dbb80500cd53a0725bb5a0bf0291626", "fusion_lon": 0.0, "lat": 38.9136745, "is_reserved": 0, "type": "electric_scooter", "bike_id": "6dbb80500cd53a0725bb5a0bf0291626", "is_disabled": 0, "rental_uris": {"android": "https://dc.lft.to/lastmile_qr_scan", "ios": "https://dc.lft.to/lastmile_qr_scan"}, "lon": -77.06617733333333, "fusion_lat": 0.0}, {"name": "08b1c7ff56c911ffbfb60f3df3414176", "fusion_lon": 0.0, "lat": 38.91771933333333, "is_reserved": 0, "type": "electric_scooter", "bike_id": "08b1c7ff56c911ffbfb60f3df3414176", "is_disabled": 0, "rental_uris": {"android": "https://dc.lft.to/lastmile_qr_scan", "ios": "https://dc.lft.to/lastmile_qr_scan"}, "lon": -77.0406165, "fusion_lat": 0.0}, {"name": "81478f61896dd14ea798e0c9ee738c4b", "fusion_lon": 0.0, "lat": 38.95870083333333, "is_reserved": 0, "type": "electric_bike", "bike_id": "81478f61896dd14ea798e0c9ee738c4b", "is_disabled": 0, "rental_uris": {"android": "https://dc.lft.to/lastmile_qr_scan", "ios": "https://dc.lft.to/lastmile_qr_scan"}, "lon": -77.00132866666667, "fusion_lat": 0.0}, {"name": "acfffb161af98baaaa04506cf4366556", "fusion_lon": 0.0, "lat": 38.9111695, "is_reserved": 0, "type": "electric_scooter", "bike_id": "acfffb161af98baaaa04506cf4366556", "is_disabled": 0, "rental_uris": {"android": "https://dc.lft.to/lastmile_qr_scan", "ios": "https://dc.lft.to/lastmile_qr_scan"}, "lon": -77.04368283333334, "fusion_lat": 0.0}, {"name": "2ad04dcc9df93b81978fa2283188c1f0", "fusion_lon": 0.0, "lat": 38.907800333333334, "is_reserved": 0, "type": "electric_scooter", "bike_id": "2ad04dcc9df93b81978fa2283188c1f0", "is_disabled": 0, "rental_uris": {"android": "https://dc.lft.to/lastmile_qr_scan", "ios": "https://dc.lft.to/lastmile_qr_scan"}, "lon": -77.03832933333334, "fusion_lat": 0.0}, {"name": "f2646868a49e23fb2f54fb834d53ab45", "fusion_lon": 0.0, "lat": 38.95182883333333, "is_reserved": 0, "type": "electric_scooter", "bike_id": "f2646868a49e23fb2f54fb834d53ab45", "is_disabled": 0, "rental_uris": {"android": "https://dc.lft.to/lastmile_qr_scan", "ios": "https://dc.lft.to/lastmile_qr_scan"}, "lon": -77.02612266666667, "fusion_lat": 0.0}, {"name": "0557997207814e206fce61a645730837", "fusion_lon": 0.0, "lat": 38.93752683333334, "is_reserved": 0, "type": "electric_scooter", "bike_id": "0557997207814e206fce61a645730837", "is_disabled": 0, "rental_uris": {"android": "https://dc.lft.to/lastmile_qr_scan", "ios": "https://dc.lft.to/lastmile_qr_scan"}, "lon": -77.02480966666667, "fusion_lat": 0.0}, {"name": "41050e39bd89102065529fd65638fcc8", "fusion_lon": 0.0, "lat": 38.9192125, "is_reserved": 0, "type": "electric_scooter", "bike_id": "41050e39bd89102065529fd65638fcc8", "is_disabled": 0, "rental_uris": {"android": "https://dc.lft.to/lastmile_qr_scan", "ios": "https://dc.lft.to/lastmile_qr_scan"}, "lon": -77.04250366666666, "fusion_lat": 0.0}, {"name": "00db5b5efe5f0df67116eae044612e30", "fusion_lon": 0.0, "lat": 38.91313816666667, "is_reserved": 0, "type": "electric_bike", "bike_id": "00db5b5efe5f0df67116eae044612e30", "is_disabled": 0, "rental_uris": {"android": "https://dc.lft.to/lastmile_qr_scan", "ios": "https://dc.lft.to/lastmile_qr_scan"}, "lon": -77.22310766666666, "fusion_lat": 0.0}, {"name": "ff6d8c8a7f4d8885d4c85d63055d1a0f", "fusion_lon": 0.0, "lat": 38.88372583333334, "is_reserved": 0, "type": "electric_scooter", "bike_id": "ff6d8c8a7f4d8885d4c85d63055d1a0f", "is_disabled": 0, "rental_uris": {"android": "https://dc.lft.to/lastmile_qr_scan", "ios": "https://dc.lft.to/lastmile_qr_scan"}, "lon": -76.995193, "fusion_lat": 0.0}, {"name": "715cfeb8aa567cdabb3a174ed01179a3", "fusion_lon": 0.0, "lat": 38.891981333333334, "is_reserved": 0, "type": "electric_scooter", "bike_id": "715cfeb8aa567cdabb3a174ed01179a3", "is_disabled": 0, "rental_uris": {"android": "https://dc.lft.to/lastmile_qr_scan", "ios": "https://dc.lft.to/lastmile_qr_scan"}, "lon": -77.00297516666667, "fusion_lat": 0.0}, {"name": "a6b2dde3e4faee08be59929bd2f9f5d0", "fusion_lon": 0.0, "lat": 38.8668645, "is_reserved": 0, "type": "electric_scooter", "bike_id": "a6b2dde3e4faee08be59929bd2f9f5d0", "is_disabled": 0, "rental_uris": {"android": "https://dc.lft.to/lastmile_qr_scan", "ios": "https://dc.lft.to/lastmile_qr_scan"}, "lon": -76.9855975, "fusion_lat": 0.0}, {"name": "56b9ec6cb1cf7caed5b8b71aad37a915", "fusion_lon": 0.0, "lat": 38.904796833333336, "is_reserved": 0, "type": "electric_scooter", "bike_id": "56b9ec6cb1cf7caed5b8b71aad37a915", "is_disabled": 0, "rental_uris": {"android": "https://dc.lft.to/lastmile_qr_scan", "ios": "https://dc.lft.to/lastmile_qr_scan"}, "lon": -77.05339983333333, "fusion_lat": 0.0}, {"name": "f5170ca9d8f94aa763517faf7504f52f", "fusion_lon": 0.0, "lat": 38.91263816666667, "is_reserved": 0, "type": "electric_scooter", "bike_id": "f5170ca9d8f94aa763517faf7504f52f", "is_disabled": 0, "rental_uris": {"android": "https://dc.lft.to/lastmile_qr_scan", "ios": "https://dc.lft.to/lastmile_qr_scan"}, "lon": -77.0251595, "fusion_lat": 0.0}, {"name": "73123e72aeb147015e21b553eea2f146", "fusion_lon": 0.0, "lat": 38.93184516666667, "is_reserved": 0, "type": "electric_scooter", "bike_id": "73123e72aeb147015e21b553eea2f146", "is_disabled": 0, "rental_uris": {"android": "https://dc.lft.to/lastmile_qr_scan", "ios": "https://dc.lft.to/lastmile_qr_scan"}, "lon": -77.03881783333334, "fusion_lat": 0.0}, {"name": "967ea249a6a904e2325b1f1a3d2ec6ae", "fusion_lon": 0.0, "lat": 38.897718, "is_reserved": 0, "type": "electric_scooter", "bike_id": "967ea249a6a904e2325b1f1a3d2ec6ae", "is_disabled": 0, "rental_uris": {"android": "https://dc.lft.to/lastmile_qr_scan", "ios": "https://dc.lft.to/lastmile_qr_scan"}, "lon": -77.00899033333333, "fusion_lat": 0.0}, {"name": "0f26c14fdadd028925c82707d3f9454c", "fusion_lon": 0.0, "lat": 38.91165133333333, "is_reserved": 0, "type": "electric_scooter", "bike_id": "0f26c14fdadd028925c82707d3f9454c", "is_disabled": 0, "rental_uris": {"android": "https://dc.lft.to/lastmile_qr_scan", "ios": "https://dc.lft.to/lastmile_qr_scan"}, "lon": -77.011279, "fusion_lat": 0.0}, {"name": "a4f294c44a62856513efc76a4e6d128e", "fusion_lon": 0.0, "lat": 38.902801833333335, "is_reserved": 0, "type": "electric_scooter", "bike_id": "a4f294c44a62856513efc76a4e6d128e", "is_disabled": 0, "rental_uris": {"android": "https://dc.lft.to/lastmile_qr_scan", "ios": "https://dc.lft.to/lastmile_qr_scan"}, "lon": -77.03923883333333, "fusion_lat": 0.0}, {"name": "32d21ab58fedc455d862713c6bf72d38", "fusion_lon": 0.0, "lat": 38.86372716666666, "is_reserved": 0, "type": "electric_scooter", "bike_id": "32d21ab58fedc455d862713c6bf72d38", "is_disabled": 0, "rental_uris": {"android": "https://dc.lft.to/lastmile_qr_scan", "ios": "https://dc.lft.to/lastmile_qr_scan"}, "lon": -76.99063516666666, "fusion_lat": 0.0}, {"name": "d4091198ca2379d70681d46cc898f412", "fusion_lon": 0.0, "lat": 38.89857833333333, "is_reserved": 0, "type": "electric_scooter", "bike_id": "d4091198ca2379d70681d46cc898f412", "is_disabled": 0, "rental_uris": {"android": "https://dc.lft.to/lastmile_qr_scan", "ios": "https://dc.lft.to/lastmile_qr_scan"}, "lon": -77.0395725, "fusion_lat": 0.0}, {"name": "0d09bbf2982ee8c9baeac36d4fb58eea", "fusion_lon": 0.0, "lat": 38.842818, "is_reserved": 0, "type": "electric_bike", "bike_id": "0d09bbf2982ee8c9baeac36d4fb58eea", "is_disabled": 0, "rental_uris": {"android": "https://dc.lft.to/lastmile_qr_scan", "ios": "https://dc.lft.to/lastmile_qr_scan"}, "lon": -76.98840883333334, "fusion_lat": 0.0}, {"name": "8697cd2f9d778d1b16f6b97295b90b07", "fusion_lon": 0.0, "lat": 38.8954255, "is_reserved": 0, "type": "electric_scooter", "bike_id": "8697cd2f9d778d1b16f6b97295b90b07", "is_disabled": 0, "rental_uris": {"android": "https://dc.lft.to/lastmile_qr_scan", "ios": "https://dc.lft.to/lastmile_qr_scan"}, "lon": -77.05665383333333, "fusion_lat": 0.0}, {"name": "49d3a7a52173d2f1ea150c655e76c4c5", "fusion_lon": 0.0, "lat": 38.91090416666667, "is_reserved": 0, "type": "electric_scooter", "bike_id": "49d3a7a52173d2f1ea150c655e76c4c5", "is_disabled": 0, "rental_uris": {"android": "https://dc.lft.to/lastmile_qr_scan", "ios": "https://dc.lft.to/lastmile_qr_scan"}, "lon": -77.07389133333334, "fusion_lat": 0.0}, {"name": "28bf38271fd54586e9f844e2f869e655", "fusion_lon": 0.0, "lat": 38.897324833333336, "is_reserved": 0, "type": "electric_scooter", "bike_id": "28bf38271fd54586e9f844e2f869e655", "is_disabled": 0, "rental_uris": {"android": "https://dc.lft.to/lastmile_qr_scan", "ios": "https://dc.lft.to/lastmile_qr_scan"}, "lon": -77.02495816666666, "fusion_lat": 0.0}, {"name": "980e0e8b4702c74cd791f0a2835dc94b", "fusion_lon": 0.0, "lat": 38.908358166666666, "is_reserved": 0, "type": "electric_scooter", "bike_id": "980e0e8b4702c74cd791f0a2835dc94b", "is_disabled": 0, "rental_uris": {"android": "https://dc.lft.to/lastmile_qr_scan", "ios": "https://dc.lft.to/lastmile_qr_scan"}, "lon": -77.0433605, "fusion_lat": 0.0}, {"name": "c1db5edba58108e6f8e193f52909f5a1", "fusion_lon": 0.0, "lat": 38.90854483333333, "is_reserved": 0, "type": "electric_scooter", "bike_id": "c1db5edba58108e6f8e193f52909f5a1", "is_disabled": 0, "rental_uris": {"android": "https://dc.lft.to/lastmile_qr_scan", "ios": "https://dc.lft.to/lastmile_qr_scan"}, "lon": -77.01021783333333, "fusion_lat": 0.0}, {"name": "efc3c27cf13d228ae2ccdfabbac1185f", "fusion_lon": 0.0, "lat": 38.938805333333335, "is_reserved": 0, "type": "electric_scooter", "bike_id": "efc3c27cf13d228ae2ccdfabbac1185f", "is_disabled": 0, "rental_uris": {"android": "https://dc.lft.to/lastmile_qr_scan", "ios": "https://dc.lft.to/lastmile_qr_scan"}, "lon": -77.024845, "fusion_lat": 0.0}, {"name": "b453d3961248548a2761197eb3e815c9", "fusion_lon": 0.0, "lat": 38.892209666666666, "is_reserved": 0, "type": "electric_scooter", "bike_id": "b453d3961248548a2761197eb3e815c9", "is_disabled": 0, "rental_uris": {"android": "https://dc.lft.to/lastmile_qr_scan", "ios": "https://dc.lft.to/lastmile_qr_scan"}, "lon": -77.04803383333333, "fusion_lat": 0.0}, {"name": "ba04d6558194b6058574405a5c6c80e1", "fusion_lon": 0.0, "lat": 38.9231525, "is_reserved": 0, "type": "electric_scooter", "bike_id": "ba04d6558194b6058574405a5c6c80e1", "is_disabled": 0, "rental_uris": {"android": "https://dc.lft.to/lastmile_qr_scan", "ios": "https://dc.lft.to/lastmile_qr_scan"}, "lon": -77.04179516666666, "fusion_lat": 0.0}, {"name": "5b11550c1d4a333ed05e8d307beb987e", "fusion_lon": 0.0, "lat": 38.919078166666665, "is_reserved": 0, "type": "electric_scooter", "bike_id": "5b11550c1d4a333ed05e8d307beb987e", "is_disabled": 0, "rental_uris": {"android": "https://dc.lft.to/lastmile_qr_scan", "ios": "https://dc.lft.to/lastmile_qr_scan"}, "lon": -77.021348, "fusion_lat": 0.0}, {"name": "fbf5aeaa95bcff50ac165fb39bef0990", "fusion_lon": 0.0, "lat": 38.904962, "is_reserved": 0, "type": "electric_scooter", "bike_id": "fbf5aeaa95bcff50ac165fb39bef0990", "is_disabled": 0, "rental_uris": {"android": "https://dc.lft.to/lastmile_qr_scan", "ios": "https://dc.lft.to/lastmile_qr_scan"}, "lon": -77.029518, "fusion_lat": 0.0}, {"name": "bd33873943dbd498c4eadd09b3e91cbf", "fusion_lon": 0.0, "lat": 38.90968816666667, "is_reserved": 0, "type": "electric_scooter", "bike_id": "bd33873943dbd498c4eadd09b3e91cbf", "is_disabled": 0, "rental_uris": {"android": "https://dc.lft.to/lastmile_qr_scan", "ios": "https://dc.lft.to/lastmile_qr_scan"}, "lon": -77.042327, "fusion_lat": 0.0}, {"name": "c0f3aac0da30cbd492016961dd3e4a74", "fusion_lon": 0.0, "lat": 38.942852, "is_reserved": 0, "type": "electric_bike", "bike_id": "c0f3aac0da30cbd492016961dd3e4a74", "is_disabled": 0, "rental_uris": {"android": "https://dc.lft.to/lastmile_qr_scan", "ios": "https://dc.lft.to/lastmile_qr_scan"}, "lon": -76.98793416666666, "fusion_lat": 0.0}, {"name": "4dd8b9694bd24647d98dc3b67aa14fb9", "fusion_lon": 0.0, "lat": 38.900620333333336, "is_reserved": 0, "type": "electric_scooter", "bike_id": "4dd8b9694bd24647d98dc3b67aa14fb9", "is_disabled": 0, "rental_uris": {"android": "https://dc.lft.to/lastmile_qr_scan", "ios": "https://dc.lft.to/lastmile_qr_scan"}, "lon": -77.04763916666667, "fusion_lat": 0.0}, {"name": "051fe413efb3ed427f854ac20c3b0c38", "fusion_lon": 0.0, "lat": 38.888693833333335, "is_reserved": 0, "type": "electric_scooter", "bike_id": "051fe413efb3ed427f854ac20c3b0c38", "is_disabled": 0, "rental_uris": {"android": "https://dc.lft.to/lastmile_qr_scan", "ios": "https://dc.lft.to/lastmile_qr_scan"}, "lon": -76.9903105, "fusion_lat": 0.0}, {"name": "230691831d8d5fc8c39eb1008b4c0d75", "fusion_lon": 0.0, "lat": 38.9050175, "is_reserved": 0, "type": "electric_scooter", "bike_id": "230691831d8d5fc8c39eb1008b4c0d75", "is_disabled": 0, "rental_uris": {"android": "https://dc.lft.to/lastmile_qr_scan", "ios": "https://dc.lft.to/lastmile_qr_scan"}, "lon": -77.02954, "fusion_lat": 0.0}, {"name": "2164e3cfb0ee7717b993d3da366b031a", "fusion_lon": 0.0, "lat": 38.923413333333336, "is_reserved": 0, "type": "electric_scooter", "bike_id": "2164e3cfb0ee7717b993d3da366b031a", "is_disabled": 0, "rental_uris": {"android": "https://dc.lft.to/lastmile_qr_scan", "ios": "https://dc.lft.to/lastmile_qr_scan"}, "lon": -77.05079833333333, "fusion_lat": 0.0}, {"name": "78f788495667365c2aa8d986b9e0618c", "fusion_lon": 0.0, "lat": 38.919636833333335, "is_reserved": 0, "type": "electric_scooter", "bike_id": "78f788495667365c2aa8d986b9e0618c", "is_disabled": 0, "rental_uris": {"android": "https://dc.lft.to/lastmile_qr_scan", "ios": "https://dc.lft.to/lastmile_qr_scan"}, "lon": -77.0385405, "fusion_lat": 0.0}, {"name": "e84cf117c75e2f4a949d859f90239805", "fusion_lon": 0.0, "lat": 38.916719666666665, "is_reserved": 0, "type": "electric_scooter", "bike_id": "e84cf117c75e2f4a949d859f90239805", "is_disabled": 0, "rental_uris": {"android": "https://dc.lft.to/lastmile_qr_scan", "ios": "https://dc.lft.to/lastmile_qr_scan"}, "lon": -77.02344666666667, "fusion_lat": 0.0}, {"name": "3c3b284a376df6b26148e2090cc4d8cd", "fusion_lon": 0.0, "lat": 38.8965355, "is_reserved": 0, "type": "electric_scooter", "bike_id": "3c3b284a376df6b26148e2090cc4d8cd", "is_disabled": 0, "rental_uris": {"android": "https://dc.lft.to/lastmile_qr_scan", "ios": "https://dc.lft.to/lastmile_qr_scan"}, "lon": -77.02723433333334, "fusion_lat": 0.0}, {"name": "ec00b708bd12983ca3353f31840d18a4", "fusion_lon": 0.0, "lat": 39.01366383333333, "is_reserved": 0, "type": "electric_bike", "bike_id": "ec00b708bd12983ca3353f31840d18a4", "is_disabled": 0, "rental_uris": {"android": "https://dc.lft.to/lastmile_qr_scan", "ios": "https://dc.lft.to/lastmile_qr_scan"}, "lon": -76.921309, "fusion_lat": 0.0}, {"name": "3b590ebf141edca9dcab7186ac1ffe4f", "fusion_lon": 0.0, "lat": 38.927648166666664, "is_reserved": 0, "type": "electric_bike", "bike_id": "3b590ebf141edca9dcab7186ac1ffe4f", "is_disabled": 0, "rental_uris": {"android": "https://dc.lft.to/lastmile_qr_scan", "ios": "https://dc.lft.to/lastmile_qr_scan"}, "lon": -77.07011733333333, "fusion_lat": 0.0}, {"name": "5b924b557f91384058db1549d7ce5fcb", "fusion_lon": 0.0, "lat": 38.928283666666665, "is_reserved": 0, "type": "electric_scooter", "bike_id": "5b924b557f91384058db1549d7ce5fcb", "is_disabled": 0, "rental_uris": {"android": "https://dc.lft.to/lastmile_qr_scan", "ios": "https://dc.lft.to/lastmile_qr_scan"}, "lon": -77.014063, "fusion_lat": 0.0}, {"name": "32d719d18438a2c2eac4161f91dbae43", "fusion_lon": 0.0, "lat": 38.9038715, "is_reserved": 0, "type": "electric_scooter", "bike_id": "32d719d18438a2c2eac4161f91dbae43", "is_disabled": 0, "rental_uris": {"android": "https://dc.lft.to/lastmile_qr_scan", "ios": "https://dc.lft.to/lastmile_qr_scan"}, "lon": -77.0363895, "fusion_lat": 0.0}, {"name": "3a7d34329122c00f1a089b24092ca523", "fusion_lon": 0.0, "lat": 38.899041833333335, "is_reserved": 0, "type": "electric_scooter", "bike_id": "3a7d34329122c00f1a089b24092ca523", "is_disabled": 0, "rental_uris": {"android": "https://dc.lft.to/lastmile_qr_scan", "ios": "https://dc.lft.to/lastmile_qr_scan"}, "lon": -77.03970683333333, "fusion_lat": 0.0}, {"name": "cf91e50fca18591fca243a4dd29f9180", "fusion_lon": 0.0, "lat": 38.9096095, "is_reserved": 0, "type": "electric_scooter", "bike_id": "cf91e50fca18591fca243a4dd29f9180", "is_disabled": 0, "rental_uris": {"android": "https://dc.lft.to/lastmile_qr_scan", "ios": "https://dc.lft.to/lastmile_qr_scan"}, "lon": -77.02688383333333, "fusion_lat": 0.0}, {"name": "175c0b64dd950cf701e2cd70b63220ef", "fusion_lon": 0.0, "lat": 38.88501383333333, "is_reserved": 0, "type": "electric_scooter", "bike_id": "175c0b64dd950cf701e2cd70b63220ef", "is_disabled": 0, "rental_uris": {"android": "https://dc.lft.to/lastmile_qr_scan", "ios": "https://dc.lft.to/lastmile_qr_scan"}, "lon": -77.00566433333333, "fusion_lat": 0.0}, {"name": "2c796d2631b2093ca4ed17a9b30fc14c", "fusion_lon": 0.0, "lat": 38.8638565, "is_reserved": 0, "type": "electric_scooter", "bike_id": "2c796d2631b2093ca4ed17a9b30fc14c", "is_disabled": 0, "rental_uris": {"android": "https://dc.lft.to/lastmile_qr_scan", "ios": "https://dc.lft.to/lastmile_qr_scan"}, "lon": -76.990447, "fusion_lat": 0.0}, {"name": "d1c4b48f0329cc13e982ea9c1fe3036e", "fusion_lon": 0.0, "lat": 38.93628, "is_reserved": 0, "type": "electric_bike", "bike_id": "d1c4b48f0329cc13e982ea9c1fe3036e", "is_disabled": 0, "rental_uris": {"android": "https://dc.lft.to/lastmile_qr_scan", "ios": "https://dc.lft.to/lastmile_qr_scan"}, "lon": -77.09009916666666, "fusion_lat": 0.0}, {"name": "545317a54cb9f0cd28978986128f464d", "fusion_lon": 0.0, "lat": 38.910821166666665, "is_reserved": 0, "type": "electric_scooter", "bike_id": "545317a54cb9f0cd28978986128f464d", "is_disabled": 0, "rental_uris": {"android": "https://dc.lft.to/lastmile_qr_scan", "ios": "https://dc.lft.to/lastmile_qr_scan"}, "lon": -76.99270466666667, "fusion_lat": 0.0}, {"name": "eec5e539a81328c31a899b20991ea260", "fusion_lon": 0.0, "lat": 38.90050333333333, "is_reserved": 0, "type": "electric_scooter", "bike_id": "eec5e539a81328c31a899b20991ea260", "is_disabled": 0, "rental_uris": {"android": "https://dc.lft.to/lastmile_qr_scan", "ios": "https://dc.lft.to/lastmile_qr_scan"}, "lon": -76.91938433333334, "fusion_lat": 0.0}, {"name": "a4bb289c35e14a6a50c7df5570502d18", "fusion_lon": 0.0, "lat": 38.89963433333333, "is_reserved": 0, "type": "electric_bike", "bike_id": "a4bb289c35e14a6a50c7df5570502d18", "is_disabled": 0, "rental_uris": {"android": "https://dc.lft.to/lastmile_qr_scan", "ios": "https://dc.lft.to/lastmile_qr_scan"}, "lon": -76.98676783333333, "fusion_lat": 0.0}, {"name": "bda6db009a07234c03fac58d00ac11b1", "fusion_lon": 0.0, "lat": 38.80123183333333, "is_reserved": 0, "type": "electric_bike", "bike_id": "bda6db009a07234c03fac58d00ac11b1", "is_disabled": 0, "rental_uris": {"android": "https://dc.lft.to/lastmile_qr_scan", "ios": "https://dc.lft.to/lastmile_qr_scan"}, "lon": -77.07040266666667, "fusion_lat": 0.0}, {"name": "1b856f86557e84ba8829ed72e81b0998", "fusion_lon": 0.0, "lat": 38.8313545, "is_reserved": 0, "type": "electric_scooter", "bike_id": "1b856f86557e84ba8829ed72e81b0998", "is_disabled": 0, "rental_uris": {"android": "https://dc.lft.to/lastmile_qr_scan", "ios": "https://dc.lft.to/lastmile_qr_scan"}, "lon": -77.0512805, "fusion_lat": 0.0}, {"name": "7e98965a726ba5255d61095b59187bae", "fusion_lon": 0.0, "lat": 38.8793815, "is_reserved": 0, "type": "electric_scooter", "bike_id": "7e98965a726ba5255d61095b59187bae", "is_disabled": 0, "rental_uris": {"android": "https://dc.lft.to/lastmile_qr_scan", "ios": "https://dc.lft.to/lastmile_qr_scan"}, "lon": -77.00065, "fusion_lat": 0.0}, {"name": "fb700c23fe3497532fd40ae5cb43b0c3", "fusion_lon": 0.0, "lat": 38.892206333333334, "is_reserved": 0, "type": "electric_scooter", "bike_id": "fb700c23fe3497532fd40ae5cb43b0c3", "is_disabled": 0, "rental_uris": {"android": "https://dc.lft.to/lastmile_qr_scan", "ios": "https://dc.lft.to/lastmile_qr_scan"}, "lon": -77.0437495, "fusion_lat": 0.0}, {"name": "a60571d54167ce91d70f0c73ec00803e", "fusion_lon": 0.0, "lat": 38.935277166666665, "is_reserved": 0, "type": "electric_scooter", "bike_id": "a60571d54167ce91d70f0c73ec00803e", "is_disabled": 0, "rental_uris": {"android": "https://dc.lft.to/lastmile_qr_scan", "ios": "https://dc.lft.to/lastmile_qr_scan"}, "lon": -77.05448966666667, "fusion_lat": 0.0}, {"name": "37e0a261d9597bd020fb3c1f2c3a31fc", "fusion_lon": 0.0, "lat": 38.895180833333335, "is_reserved": 0, "type": "electric_scooter", "bike_id": "37e0a261d9597bd020fb3c1f2c3a31fc", "is_disabled": 0, "rental_uris": {"android": "https://dc.lft.to/lastmile_qr_scan", "ios": "https://dc.lft.to/lastmile_qr_scan"}, "lon": -76.98822566666666, "fusion_lat": 0.0}, {"name": "0ebcf2f0e6dc424ae3c5bbbd17890d17", "fusion_lon": 0.0, "lat": 38.851771666666664, "is_reserved": 0, "type": "electric_scooter", "bike_id": "0ebcf2f0e6dc424ae3c5bbbd17890d17", "is_disabled": 0, "rental_uris": {"android": "https://dc.lft.to/lastmile_qr_scan", "ios": "https://dc.lft.to/lastmile_qr_scan"}, "lon": -76.99581783333333, "fusion_lat": 0.0}, {"name": "66271ae5f4e3fda8c57650c30b40243a", "fusion_lon": 0.0, "lat": 38.87455583333333, "is_reserved": 0, "type": "electric_scooter", "bike_id": "66271ae5f4e3fda8c57650c30b40243a", "is_disabled": 0, "rental_uris": {"android": "https://dc.lft.to/lastmile_qr_scan", "ios": "https://dc.lft.to/lastmile_qr_scan"}, "lon": -77.0054715, "fusion_lat": 0.0}, {"name": "1d7c78a1d6bf14498b9e0c2275d1340e", "fusion_lon": 0.0, "lat": 38.90646483333333, "is_reserved": 0, "type": "electric_scooter", "bike_id": "1d7c78a1d6bf14498b9e0c2275d1340e", "is_disabled": 0, "rental_uris": {"android": "https://dc.lft.to/lastmile_qr_scan", "ios": "https://dc.lft.to/lastmile_qr_scan"}, "lon": -77.024981, "fusion_lat": 0.0}, {"name": "392e50175b6b2732eb72ad9f1642cf08", "fusion_lon": 0.0, "lat": 38.907959, "is_reserved": 0, "type": "electric_scooter", "bike_id": "392e50175b6b2732eb72ad9f1642cf08", "is_disabled": 0, "rental_uris": {"android": "https://dc.lft.to/lastmile_qr_scan", "ios": "https://dc.lft.to/lastmile_qr_scan"}, "lon": -77.03824166666666, "fusion_lat": 0.0}, {"name": "86bba1d9e77c6f2abbf7cf7f591408be", "fusion_lon": 0.0, "lat": 38.923559833333336, "is_reserved": 0, "type": "electric_scooter", "bike_id": "86bba1d9e77c6f2abbf7cf7f591408be", "is_disabled": 0, "rental_uris": {"android": "https://dc.lft.to/lastmile_qr_scan", "ios": "https://dc.lft.to/lastmile_qr_scan"}, "lon": -77.0507625, "fusion_lat": 0.0}, {"name": "fe3800b2ff130a214c42a76957e657ac", "fusion_lon": 0.0, "lat": 38.924996666666665, "is_reserved": 0, "type": "electric_scooter", "bike_id": "fe3800b2ff130a214c42a76957e657ac", "is_disabled": 0, "rental_uris": {"android": "https://dc.lft.to/lastmile_qr_scan", "ios": "https://dc.lft.to/lastmile_qr_scan"}, "lon": -77.008912, "fusion_lat": 0.0}, {"name": "6ae241d1343311bf9211b1817e41c658", "fusion_lon": 0.0, "lat": 38.914880333333336, "is_reserved": 0, "type": "electric_scooter", "bike_id": "6ae241d1343311bf9211b1817e41c658", "is_disabled": 0, "rental_uris": {"android": "https://dc.lft.to/lastmile_qr_scan", "ios": "https://dc.lft.to/lastmile_qr_scan"}, "lon": -76.9858585, "fusion_lat": 0.0}, {"name": "6d2d1fdfbde3bb099e41586bc213028d", "fusion_lon": 0.0, "lat": 38.9078315, "is_reserved": 0, "type": "electric_scooter", "bike_id": "6d2d1fdfbde3bb099e41586bc213028d", "is_disabled": 0, "rental_uris": {"android": "https://dc.lft.to/lastmile_qr_scan", "ios": "https://dc.lft.to/lastmile_qr_scan"}, "lon": -77.03826916666667, "fusion_lat": 0.0}, {"name": "ceeac24d7c63d1a9af59ce5aabb7fbff", "fusion_lon": 0.0, "lat": 38.9198745, "is_reserved": 0, "type": "electric_scooter", "bike_id": "ceeac24d7c63d1a9af59ce5aabb7fbff", "is_disabled": 0, "rental_uris": {"android": "https://dc.lft.to/lastmile_qr_scan", "ios": "https://dc.lft.to/lastmile_qr_scan"}, "lon": -76.97304833333334, "fusion_lat": 0.0}, {"name": "aa7ba6737567d9460dcb2583d3a1b0d9", "fusion_lon": 0.0, "lat": 38.9211125, "is_reserved": 0, "type": "electric_scooter", "bike_id": "aa7ba6737567d9460dcb2583d3a1b0d9", "is_disabled": 0, "rental_uris": {"android": "https://dc.lft.to/lastmile_qr_scan", "ios": "https://dc.lft.to/lastmile_qr_scan"}, "lon": -77.0333315, "fusion_lat": 0.0}, {"name": "934dff1e0f9e9f52334924cf858af4d0", "fusion_lon": 0.0, "lat": 38.90238816666667, "is_reserved": 0, "type": "electric_scooter", "bike_id": "934dff1e0f9e9f52334924cf858af4d0", "is_disabled": 0, "rental_uris": {"android": "https://dc.lft.to/lastmile_qr_scan", "ios": "https://dc.lft.to/lastmile_qr_scan"}, "lon": -76.97410466666666, "fusion_lat": 0.0}, {"name": "1e8ca55ccd3d99e61649b744fdc97683", "fusion_lon": 0.0, "lat": 38.918758, "is_reserved": 0, "type": "electric_scooter", "bike_id": "1e8ca55ccd3d99e61649b744fdc97683", "is_disabled": 0, "rental_uris": {"android": "https://dc.lft.to/lastmile_qr_scan", "ios": "https://dc.lft.to/lastmile_qr_scan"}, "lon": -77.02949466666666, "fusion_lat": 0.0}, {"name": "d641907abdf4c3dd6ca5fb6283c9a6f0", "fusion_lon": 0.0, "lat": 38.90899066666667, "is_reserved": 0, "type": "electric_scooter", "bike_id": "d641907abdf4c3dd6ca5fb6283c9a6f0", "is_disabled": 0, "rental_uris": {"android": "https://dc.lft.to/lastmile_qr_scan", "ios": "https://dc.lft.to/lastmile_qr_scan"}, "lon": -77.072781, "fusion_lat": 0.0}, {"name": "260c8187f15146864b0d3fd88b8f71d4", "fusion_lon": 0.0, "lat": 38.9453155, "is_reserved": 0, "type": "electric_scooter", "bike_id": "260c8187f15146864b0d3fd88b8f71d4", "is_disabled": 0, "rental_uris": {"android": "https://dc.lft.to/lastmile_qr_scan", "ios": "https://dc.lft.to/lastmile_qr_scan"}, "lon": -77.02094516666666, "fusion_lat": 0.0}, {"name": "65898bd53140d5f7c6ede087352abe51", "fusion_lon": 0.0, "lat": 38.9213925, "is_reserved": 0, "type": "electric_scooter", "bike_id": "65898bd53140d5f7c6ede087352abe51", "is_disabled": 0, "rental_uris": {"android": "https://dc.lft.to/lastmile_qr_scan", "ios": "https://dc.lft.to/lastmile_qr_scan"}, "lon": -77.0413065, "fusion_lat": 0.0}, {"name": "a46840258df71df99899e672548598e9", "fusion_lon": 0.0, "lat": 38.921636, "is_reserved": 0, "type": "electric_scooter", "bike_id": "a46840258df71df99899e672548598e9", "is_disabled": 0, "rental_uris": {"android": "https://dc.lft.to/lastmile_qr_scan", "ios": "https://dc.lft.to/lastmile_qr_scan"}, "lon": -77.0326355, "fusion_lat": 0.0}, {"name": "398254608fb23f9230cc50a2550eeb09", "fusion_lon": 0.0, "lat": 38.928790166666666, "is_reserved": 0, "type": "electric_scooter", "bike_id": "398254608fb23f9230cc50a2550eeb09", "is_disabled": 0, "rental_uris": {"android": "https://dc.lft.to/lastmile_qr_scan", "ios": "https://dc.lft.to/lastmile_qr_scan"}, "lon": -77.03233033333333, "fusion_lat": 0.0}, {"name": "12012e229b269b456105dedeb710b774", "fusion_lon": 0.0, "lat": 38.92427766666667, "is_reserved": 0, "type": "electric_scooter", "bike_id": "12012e229b269b456105dedeb710b774", "is_disabled": 0, "rental_uris": {"android": "https://dc.lft.to/lastmile_qr_scan", "ios": "https://dc.lft.to/lastmile_qr_scan"}, "lon": -77.04249533333333, "fusion_lat": 0.0}, {"name": "767b1f85e310fab09c36102e19e32e61", "fusion_lon": 0.0, "lat": 38.889899166666666, "is_reserved": 0, "type": "electric_scooter", "bike_id": "767b1f85e310fab09c36102e19e32e61", "is_disabled": 0, "rental_uris": {"android": "https://dc.lft.to/lastmile_qr_scan", "ios": "https://dc.lft.to/lastmile_qr_scan"}, "lon": -76.931089, "fusion_lat": 0.0}, {"name": "98333611db2d8abd4a0a8a475f836db1", "fusion_lon": 0.0, "lat": 38.90409283333334, "is_reserved": 0, "type": "electric_scooter", "bike_id": "98333611db2d8abd4a0a8a475f836db1", "is_disabled": 0, "rental_uris": {"android": "https://dc.lft.to/lastmile_qr_scan", "ios": "https://dc.lft.to/lastmile_qr_scan"}, "lon": -77.024205, "fusion_lat": 0.0}, {"name": "e5c2a4112bc82d3668d8b0d1a79814a5", "fusion_lon": 0.0, "lat": 38.90745716666667, "is_reserved": 0, "type": "electric_scooter", "bike_id": "e5c2a4112bc82d3668d8b0d1a79814a5", "is_disabled": 0, "rental_uris": {"android": "https://dc.lft.to/lastmile_qr_scan", "ios": "https://dc.lft.to/lastmile_qr_scan"}, "lon": -77.0013905, "fusion_lat": 0.0}, {"name": "fd7734b1efeb310b637aadff2749f8fb", "fusion_lon": 0.0, "lat": 38.91692066666667, "is_reserved": 0, "type": "electric_scooter", "bike_id": "fd7734b1efeb310b637aadff2749f8fb", "is_disabled": 0, "rental_uris": {"android": "https://dc.lft.to/lastmile_qr_scan", "ios": "https://dc.lft.to/lastmile_qr_scan"}, "lon": -77.0372255, "fusion_lat": 0.0}, {"name": "7cfa955e9fc50cfbaacd7e31dca9ea88", "fusion_lon": 0.0, "lat": 38.902299166666666, "is_reserved": 0, "type": "electric_scooter", "bike_id": "7cfa955e9fc50cfbaacd7e31dca9ea88", "is_disabled": 0, "rental_uris": {"android": "https://dc.lft.to/lastmile_qr_scan", "ios": "https://dc.lft.to/lastmile_qr_scan"}, "lon": -77.03176533333334, "fusion_lat": 0.0}, {"name": "c94232953a9ec24944e9354b3af350d8", "fusion_lon": 0.0, "lat": 38.92210133333333, "is_reserved": 0, "type": "electric_scooter", "bike_id": "c94232953a9ec24944e9354b3af350d8", "is_disabled": 0, "rental_uris": {"android": "https://dc.lft.to/lastmile_qr_scan", "ios": "https://dc.lft.to/lastmile_qr_scan"}, "lon": -77.032905, "fusion_lat": 0.0}, {"name": "543bd33c6249ce33cb8c503456ea5bbd", "fusion_lon": 0.0, "lat": 38.90824033333333, "is_reserved": 0, "type": "electric_scooter", "bike_id": "543bd33c6249ce33cb8c503456ea5bbd", "is_disabled": 0, "rental_uris": {"android": "https://dc.lft.to/lastmile_qr_scan", "ios": "https://dc.lft.to/lastmile_qr_scan"}, "lon": -76.941598, "fusion_lat": 0.0}, {"name": "22049c07c9c978e0d985a041ff6764a9", "fusion_lon": 0.0, "lat": 38.90172783333333, "is_reserved": 0, "type": "electric_scooter", "bike_id": "22049c07c9c978e0d985a041ff6764a9", "is_disabled": 0, "rental_uris": {"android": "https://dc.lft.to/lastmile_qr_scan", "ios": "https://dc.lft.to/lastmile_qr_scan"}, "lon": -77.06009433333334, "fusion_lat": 0.0}, {"name": "af2345d84b9aa83b9755856946abbb47", "fusion_lon": 0.0, "lat": 38.8727645, "is_reserved": 0, "type": "electric_bike", "bike_id": "af2345d84b9aa83b9755856946abbb47", "is_disabled": 0, "rental_uris": {"android": "https://dc.lft.to/lastmile_qr_scan", "ios": "https://dc.lft.to/lastmile_qr_scan"}, "lon": -77.2333335, "fusion_lat": 0.0}, {"name": "f9c15be6359efb0968e1dc0e2f57f0e7", "fusion_lon": 0.0, "lat": 38.89766866666667, "is_reserved": 0, "type": "electric_scooter", "bike_id": "f9c15be6359efb0968e1dc0e2f57f0e7", "is_disabled": 0, "rental_uris": {"android": "https://dc.lft.to/lastmile_qr_scan", "ios": "https://dc.lft.to/lastmile_qr_scan"}, "lon": -77.01233983333333, "fusion_lat": 0.0}, {"name": "29d0d82a4e3b3bac44218a8b1de6413b", "fusion_lon": 0.0, "lat": 38.928930666666666, "is_reserved": 0, "type": "electric_scooter", "bike_id": "29d0d82a4e3b3bac44218a8b1de6413b", "is_disabled": 0, "rental_uris": {"android": "https://dc.lft.to/lastmile_qr_scan", "ios": "https://dc.lft.to/lastmile_qr_scan"}, "lon": -77.0164395, "fusion_lat": 0.0}, {"name": "7de2ad914523285845c068fb71d9fc5f", "fusion_lon": 0.0, "lat": 38.900157666666665, "is_reserved": 0, "type": "electric_scooter", "bike_id": "7de2ad914523285845c068fb71d9fc5f", "is_disabled": 0, "rental_uris": {"android": "https://dc.lft.to/lastmile_qr_scan", "ios": "https://dc.lft.to/lastmile_qr_scan"}, "lon": -77.00697483333333, "fusion_lat": 0.0}, {"name": "0dd1c2819d898b12ccfce2a9cd18631f", "fusion_lon": 0.0, "lat": 38.927116, "is_reserved": 0, "type": "electric_scooter", "bike_id": "0dd1c2819d898b12ccfce2a9cd18631f", "is_disabled": 0, "rental_uris": {"android": "https://dc.lft.to/lastmile_qr_scan", "ios": "https://dc.lft.to/lastmile_qr_scan"}, "lon": -77.03993366666667, "fusion_lat": 0.0}, {"name": "dd3c3addc16c35a6da75478b0fcf3e23", "fusion_lon": 0.0, "lat": 38.90753, "is_reserved": 0, "type": "electric_scooter", "bike_id": "dd3c3addc16c35a6da75478b0fcf3e23", "is_disabled": 0, "rental_uris": {"android": "https://dc.lft.to/lastmile_qr_scan", "ios": "https://dc.lft.to/lastmile_qr_scan"}, "lon": -77.03201716666666, "fusion_lat": 0.0}, {"name": "c190b7f89d21fb2c1351e9510f709274", "fusion_lon": 0.0, "lat": 38.9109385, "is_reserved": 0, "type": "electric_scooter", "bike_id": "c190b7f89d21fb2c1351e9510f709274", "is_disabled": 0, "rental_uris": {"android": "https://dc.lft.to/lastmile_qr_scan", "ios": "https://dc.lft.to/lastmile_qr_scan"}, "lon": -77.03841216666666, "fusion_lat": 0.0}, {"name": "38dc6400defd6401ceeedb741f8eb7ed", "fusion_lon": 0.0, "lat": 38.90084383333333, "is_reserved": 0, "type": "electric_scooter", "bike_id": "38dc6400defd6401ceeedb741f8eb7ed", "is_disabled": 0, "rental_uris": {"android": "https://dc.lft.to/lastmile_qr_scan", "ios": "https://dc.lft.to/lastmile_qr_scan"}, "lon": -77.04758366666667, "fusion_lat": 0.0}, {"name": "4ba22d8930d3a68fe45edd4e95df1e1b", "fusion_lon": 0.0, "lat": 38.91376116666667, "is_reserved": 0, "type": "electric_scooter", "bike_id": "4ba22d8930d3a68fe45edd4e95df1e1b", "is_disabled": 0, "rental_uris": {"android": "https://dc.lft.to/lastmile_qr_scan", "ios": "https://dc.lft.to/lastmile_qr_scan"}, "lon": -77.04134233333333, "fusion_lat": 0.0}, {"name": "f4d181dfa4c0538c5c45aafe03fde94c", "fusion_lon": 0.0, "lat": 38.96479333333333, "is_reserved": 0, "type": "electric_bike", "bike_id": "f4d181dfa4c0538c5c45aafe03fde94c", "is_disabled": 0, "rental_uris": {"android": "https://dc.lft.to/lastmile_qr_scan", "ios": "https://dc.lft.to/lastmile_qr_scan"}, "lon": -77.03556716666667, "fusion_lat": 0.0}, {"name": "a03f029dd1ead16ac5d01416cb98771e", "fusion_lon": 0.0, "lat": 38.92502833333333, "is_reserved": 0, "type": "electric_scooter", "bike_id": "a03f029dd1ead16ac5d01416cb98771e", "is_disabled": 0, "rental_uris": {"android": "https://dc.lft.to/lastmile_qr_scan", "ios": "https://dc.lft.to/lastmile_qr_scan"}, "lon": -77.02332383333334, "fusion_lat": 0.0}, {"name": "1d9855af5f3c41e1bfbd6181e7b6b7cf", "fusion_lon": 0.0, "lat": 38.89965466666666, "is_reserved": 0, "type": "electric_scooter", "bike_id": "1d9855af5f3c41e1bfbd6181e7b6b7cf", "is_disabled": 0, "rental_uris": {"android": "https://dc.lft.to/lastmile_qr_scan", "ios": "https://dc.lft.to/lastmile_qr_scan"}, "lon": -77.02379366666666, "fusion_lat": 0.0}, {"name": "a93d3054837f6fc9f239d06e88c984d5", "fusion_lon": 0.0, "lat": 38.92100683333334, "is_reserved": 0, "type": "electric_scooter", "bike_id": "a93d3054837f6fc9f239d06e88c984d5", "is_disabled": 0, "rental_uris": {"android": "https://dc.lft.to/lastmile_qr_scan", "ios": "https://dc.lft.to/lastmile_qr_scan"}, "lon": -77.01687816666667, "fusion_lat": 0.0}, {"name": "030c69c74d5d0a7eb056eaa9e038e2c2", "fusion_lon": 0.0, "lat": 38.87638066666667, "is_reserved": 0, "type": "electric_scooter", "bike_id": "030c69c74d5d0a7eb056eaa9e038e2c2", "is_disabled": 0, "rental_uris": {"android": "https://dc.lft.to/lastmile_qr_scan", "ios": "https://dc.lft.to/lastmile_qr_scan"}, "lon": -77.00455666666667, "fusion_lat": 0.0}, {"name": "8da252d399b1601104948e9b9b054b19", "fusion_lon": 0.0, "lat": 38.90339683333333, "is_reserved": 0, "type": "electric_scooter", "bike_id": "8da252d399b1601104948e9b9b054b19", "is_disabled": 0, "rental_uris": {"android": "https://dc.lft.to/lastmile_qr_scan", "ios": "https://dc.lft.to/lastmile_qr_scan"}, "lon": -76.985045, "fusion_lat": 0.0}, {"name": "be7db2b2548a0e66f686b8b87bf1013f", "fusion_lon": 0.0, "lat": 38.8997615, "is_reserved": 0, "type": "electric_scooter", "bike_id": "be7db2b2548a0e66f686b8b87bf1013f", "is_disabled": 0, "rental_uris": {"android": "https://dc.lft.to/lastmile_qr_scan", "ios": "https://dc.lft.to/lastmile_qr_scan"}, "lon": -77.02298766666667, "fusion_lat": 0.0}, {"name": "556a0a5a66daeb33e5d0382b7ec67e30", "fusion_lon": 0.0, "lat": 38.90973483333333, "is_reserved": 0, "type": "electric_scooter", "bike_id": "556a0a5a66daeb33e5d0382b7ec67e30", "is_disabled": 0, "rental_uris": {"android": "https://dc.lft.to/lastmile_qr_scan", "ios": "https://dc.lft.to/lastmile_qr_scan"}, "lon": -77.03995583333334, "fusion_lat": 0.0}, {"name": "08721b3b3ccd6a9bbbf79495cee71136", "fusion_lon": 0.0, "lat": 38.91997, "is_reserved": 0, "type": "electric_scooter", "bike_id": "08721b3b3ccd6a9bbbf79495cee71136", "is_disabled": 0, "rental_uris": {"android": "https://dc.lft.to/lastmile_qr_scan", "ios": "https://dc.lft.to/lastmile_qr_scan"}, "lon": -77.03303566666666, "fusion_lat": 0.0}, {"name": "c1802a81670c315fb845de043f7ac1fc", "fusion_lon": 0.0, "lat": 38.921223833333336, "is_reserved": 0, "type": "electric_scooter", "bike_id": "c1802a81670c315fb845de043f7ac1fc", "is_disabled": 0, "rental_uris": {"android": "https://dc.lft.to/lastmile_qr_scan", "ios": "https://dc.lft.to/lastmile_qr_scan"}, "lon": -77.017733, "fusion_lat": 0.0}, {"name": "01b8c51ce39cab5f7c40834b742c508b", "fusion_lon": 0.0, "lat": 38.917067333333335, "is_reserved": 0, "type": "electric_scooter", "bike_id": "01b8c51ce39cab5f7c40834b742c508b", "is_disabled": 0, "rental_uris": {"android": "https://dc.lft.to/lastmile_qr_scan", "ios": "https://dc.lft.to/lastmile_qr_scan"}, "lon": -77.02455166666667, "fusion_lat": 0.0}, {"name": "b852574dcc5d1449e309861701e8d54e", "fusion_lon": 0.0, "lat": 38.83449916666667, "is_reserved": 0, "type": "electric_scooter", "bike_id": "b852574dcc5d1449e309861701e8d54e", "is_disabled": 0, "rental_uris": {"android": "https://dc.lft.to/lastmile_qr_scan", "ios": "https://dc.lft.to/lastmile_qr_scan"}, "lon": -76.9907835, "fusion_lat": 0.0}, {"name": "bca05694a6ed110497dc1258f42fce89", "fusion_lon": 0.0, "lat": 38.91188916666667, "is_reserved": 0, "type": "electric_scooter", "bike_id": "bca05694a6ed110497dc1258f42fce89", "is_disabled": 0, "rental_uris": {"android": "https://dc.lft.to/lastmile_qr_scan", "ios": "https://dc.lft.to/lastmile_qr_scan"}, "lon": -77.01785733333334, "fusion_lat": 0.0}, {"name": "3f2a58db5423a30ddcb5210cd3388998", "fusion_lon": 0.0, "lat": 38.90447283333334, "is_reserved": 0, "type": "electric_scooter", "bike_id": "3f2a58db5423a30ddcb5210cd3388998", "is_disabled": 0, "rental_uris": {"android": "https://dc.lft.to/lastmile_qr_scan", "ios": "https://dc.lft.to/lastmile_qr_scan"}, "lon": -76.9848985, "fusion_lat": 0.0}, {"name": "667c72410433acbc9d2a3115031ad340", "fusion_lon": 0.0, "lat": 38.9002555, "is_reserved": 0, "type": "electric_scooter", "bike_id": "667c72410433acbc9d2a3115031ad340", "is_disabled": 0, "rental_uris": {"android": "https://dc.lft.to/lastmile_qr_scan", "ios": "https://dc.lft.to/lastmile_qr_scan"}, "lon": -76.98040433333334, "fusion_lat": 0.0}, {"name": "a2f31d8b36827a109417e2fc50556d08", "fusion_lon": 0.0, "lat": 38.9004375, "is_reserved": 0, "type": "electric_scooter", "bike_id": "a2f31d8b36827a109417e2fc50556d08", "is_disabled": 0, "rental_uris": {"android": "https://dc.lft.to/lastmile_qr_scan", "ios": "https://dc.lft.to/lastmile_qr_scan"}, "lon": -77.01796233333333, "fusion_lat": 0.0}, {"name": "b5df9e859e39de6db2bb00b3974766ba", "fusion_lon": 0.0, "lat": 38.90308533333334, "is_reserved": 0, "type": "electric_scooter", "bike_id": "b5df9e859e39de6db2bb00b3974766ba", "is_disabled": 0, "rental_uris": {"android": "https://dc.lft.to/lastmile_qr_scan", "ios": "https://dc.lft.to/lastmile_qr_scan"}, "lon": -76.9907705, "fusion_lat": 0.0}, {"name": "5bcacf9e7dfcf0cbe2c9d1e0b221fce2", "fusion_lon": 0.0, "lat": 38.928806, "is_reserved": 0, "type": "electric_scooter", "bike_id": "5bcacf9e7dfcf0cbe2c9d1e0b221fce2", "is_disabled": 0, "rental_uris": {"android": "https://dc.lft.to/lastmile_qr_scan", "ios": "https://dc.lft.to/lastmile_qr_scan"}, "lon": -77.0325735, "fusion_lat": 0.0}, {"name": "536e23d7d291705c130a48ae46370ecb", "fusion_lon": 0.0, "lat": 38.951816, "is_reserved": 0, "type": "electric_scooter", "bike_id": "536e23d7d291705c130a48ae46370ecb", "is_disabled": 0, "rental_uris": {"android": "https://dc.lft.to/lastmile_qr_scan", "ios": "https://dc.lft.to/lastmile_qr_scan"}, "lon": -77.02728533333334, "fusion_lat": 0.0}, {"name": "69a20eefea7a5adf96f867e4e0050f24", "fusion_lon": 0.0, "lat": 38.90065516666667, "is_reserved": 0, "type": "electric_scooter", "bike_id": "69a20eefea7a5adf96f867e4e0050f24", "is_disabled": 0, "rental_uris": {"android": "https://dc.lft.to/lastmile_qr_scan", "ios": "https://dc.lft.to/lastmile_qr_scan"}, "lon": -77.03499266666667, "fusion_lat": 0.0}, {"name": "d5ce013dd73fdabfa034e28a011fe45a", "fusion_lon": 0.0, "lat": 38.901719166666666, "is_reserved": 0, "type": "electric_scooter", "bike_id": "d5ce013dd73fdabfa034e28a011fe45a", "is_disabled": 0, "rental_uris": {"android": "https://dc.lft.to/lastmile_qr_scan", "ios": "https://dc.lft.to/lastmile_qr_scan"}, "lon": -77.0248675, "fusion_lat": 0.0}, {"name": "89f0fa46cd57e92c16fd1383ec54e183", "fusion_lon": 0.0, "lat": 38.922742166666666, "is_reserved": 0, "type": "electric_bike", "bike_id": "89f0fa46cd57e92c16fd1383ec54e183", "is_disabled": 0, "rental_uris": {"android": "https://dc.lft.to/lastmile_qr_scan", "ios": "https://dc.lft.to/lastmile_qr_scan"}, "lon": -77.02244516666667, "fusion_lat": 0.0}, {"name": "0404efed4bd790700def4747a4f733bc", "fusion_lon": 0.0, "lat": 38.957568333333334, "is_reserved": 0, "type": "electric_scooter", "bike_id": "0404efed4bd790700def4747a4f733bc", "is_disabled": 0, "rental_uris": {"android": "https://dc.lft.to/lastmile_qr_scan", "ios": "https://dc.lft.to/lastmile_qr_scan"}, "lon": -77.02096783333333, "fusion_lat": 0.0}, {"name": "f537d640d04ca35ac0a0cbbd42c742e5", "fusion_lon": 0.0, "lat": 38.896146333333334, "is_reserved": 0, "type": "electric_scooter", "bike_id": "f537d640d04ca35ac0a0cbbd42c742e5", "is_disabled": 0, "rental_uris": {"android": "https://dc.lft.to/lastmile_qr_scan", "ios": "https://dc.lft.to/lastmile_qr_scan"}, "lon": -77.02979916666666, "fusion_lat": 0.0}, {"name": "9e378eff755b8e065a4c9899a3e65150", "fusion_lon": 0.0, "lat": 38.90373133333333, "is_reserved": 0, "type": "electric_scooter", "bike_id": "9e378eff755b8e065a4c9899a3e65150", "is_disabled": 0, "rental_uris": {"android": "https://dc.lft.to/lastmile_qr_scan", "ios": "https://dc.lft.to/lastmile_qr_scan"}, "lon": -77.0401475, "fusion_lat": 0.0}, {"name": "9d76fc43070256854668737fa904b304", "fusion_lon": 0.0, "lat": 38.92370433333333, "is_reserved": 0, "type": "electric_scooter", "bike_id": "9d76fc43070256854668737fa904b304", "is_disabled": 0, "rental_uris": {"android": "https://dc.lft.to/lastmile_qr_scan", "ios": "https://dc.lft.to/lastmile_qr_scan"}, "lon": -76.995452, "fusion_lat": 0.0}, {"name": "92ec6cb0bada16b792e4d6747b38c9ba", "fusion_lon": 0.0, "lat": 38.9110075, "is_reserved": 0, "type": "electric_scooter", "bike_id": "92ec6cb0bada16b792e4d6747b38c9ba", "is_disabled": 0, "rental_uris": {"android": "https://dc.lft.to/lastmile_qr_scan", "ios": "https://dc.lft.to/lastmile_qr_scan"}, "lon": -77.0250425, "fusion_lat": 0.0}, {"name": "ffaf7a41837da3192009c8701fd3dd6f", "fusion_lon": 0.0, "lat": 38.899553833333336, "is_reserved": 0, "type": "electric_bike", "bike_id": "ffaf7a41837da3192009c8701fd3dd6f", "is_disabled": 0, "rental_uris": {"android": "https://dc.lft.to/lastmile_qr_scan", "ios": "https://dc.lft.to/lastmile_qr_scan"}, "lon": -76.9856355, "fusion_lat": 0.0}, {"name": "2d1225b1b8889e87c99e09682dbc6335", "fusion_lon": 0.0, "lat": 38.88548183333333, "is_reserved": 0, "type": "electric_scooter", "bike_id": "2d1225b1b8889e87c99e09682dbc6335", "is_disabled": 0, "rental_uris": {"android": "https://dc.lft.to/lastmile_qr_scan", "ios": "https://dc.lft.to/lastmile_qr_scan"}, "lon": -77.021813, "fusion_lat": 0.0}, {"name": "2f381b5f6c13b4fce54e14daa724427b", "fusion_lon": 0.0, "lat": 38.89910883333334, "is_reserved": 0, "type": "electric_scooter", "bike_id": "2f381b5f6c13b4fce54e14daa724427b", "is_disabled": 0, "rental_uris": {"android": "https://dc.lft.to/lastmile_qr_scan", "ios": "https://dc.lft.to/lastmile_qr_scan"}, "lon": -76.95069116666667, "fusion_lat": 0.0}, {"name": "8334b2ee51df2d359ee2e66b59b2ec1b", "fusion_lon": 0.0, "lat": 38.85891316666667, "is_reserved": 0, "type": "electric_scooter", "bike_id": "8334b2ee51df2d359ee2e66b59b2ec1b", "is_disabled": 0, "rental_uris": {"android": "https://dc.lft.to/lastmile_qr_scan", "ios": "https://dc.lft.to/lastmile_qr_scan"}, "lon": -76.99726683333333, "fusion_lat": 0.0}, {"name": "1d5c9d8c9c2861c9bd5aa83ee8a9e587", "fusion_lon": 0.0, "lat": 38.862350666666664, "is_reserved": 0, "type": "electric_scooter", "bike_id": "1d5c9d8c9c2861c9bd5aa83ee8a9e587", "is_disabled": 0, "rental_uris": {"android": "https://dc.lft.to/lastmile_qr_scan", "ios": "https://dc.lft.to/lastmile_qr_scan"}, "lon": -76.99516766666666, "fusion_lat": 0.0}, {"name": "31e741f3d7c6f78eba0b5602b5c4a36b", "fusion_lon": 0.0, "lat": 38.916300666666665, "is_reserved": 0, "type": "electric_scooter", "bike_id": "31e741f3d7c6f78eba0b5602b5c4a36b", "is_disabled": 0, "rental_uris": {"android": "https://dc.lft.to/lastmile_qr_scan", "ios": "https://dc.lft.to/lastmile_qr_scan"}, "lon": -77.03970933333333, "fusion_lat": 0.0}, {"name": "16ff6768ececb01add942a12c0b9f175", "fusion_lon": 0.0, "lat": 38.892248, "is_reserved": 0, "type": "electric_scooter", "bike_id": "16ff6768ececb01add942a12c0b9f175", "is_disabled": 0, "rental_uris": {"android": "https://dc.lft.to/lastmile_qr_scan", "ios": "https://dc.lft.to/lastmile_qr_scan"}, "lon": -77.02636083333333, "fusion_lat": 0.0}, {"name": "f00831ccb66fb04dd1fd14bae7d53995", "fusion_lon": 0.0, "lat": 38.92937716666667, "is_reserved": 0, "type": "electric_scooter", "bike_id": "f00831ccb66fb04dd1fd14bae7d53995", "is_disabled": 0, "rental_uris": {"android": "https://dc.lft.to/lastmile_qr_scan", "ios": "https://dc.lft.to/lastmile_qr_scan"}, "lon": -77.01989133333333, "fusion_lat": 0.0}, {"name": "8e152b49f587df3e7692e04f6260e36a", "fusion_lon": 0.0, "lat": 38.9104185, "is_reserved": 0, "type": "electric_scooter", "bike_id": "8e152b49f587df3e7692e04f6260e36a", "is_disabled": 0, "rental_uris": {"android": "https://dc.lft.to/lastmile_qr_scan", "ios": "https://dc.lft.to/lastmile_qr_scan"}, "lon": -77.04367066666667, "fusion_lat": 0.0}, {"name": "f8287b62fe7e4e6c45e214639804aa9d", "fusion_lon": 0.0, "lat": 38.91915816666667, "is_reserved": 0, "type": "electric_scooter", "bike_id": "f8287b62fe7e4e6c45e214639804aa9d", "is_disabled": 0, "rental_uris": {"android": "https://dc.lft.to/lastmile_qr_scan", "ios": "https://dc.lft.to/lastmile_qr_scan"}, "lon": -77.025157, "fusion_lat": 0.0}, {"name": "5b352558cc009833923d7f44007bb71b", "fusion_lon": 0.0, "lat": 38.92509366666667, "is_reserved": 0, "type": "electric_scooter", "bike_id": "5b352558cc009833923d7f44007bb71b", "is_disabled": 0, "rental_uris": {"android": "https://dc.lft.to/lastmile_qr_scan", "ios": "https://dc.lft.to/lastmile_qr_scan"}, "lon": -77.05261516666667, "fusion_lat": 0.0}, {"name": "4a9d61ff199349eedb85f646032639f6", "fusion_lon": 0.0, "lat": 38.92855, "is_reserved": 0, "type": "electric_scooter", "bike_id": "4a9d61ff199349eedb85f646032639f6", "is_disabled": 0, "rental_uris": {"android": "https://dc.lft.to/lastmile_qr_scan", "ios": "https://dc.lft.to/lastmile_qr_scan"}, "lon": -77.01404866666667, "fusion_lat": 0.0}, {"name": "46976b3041d03177304fe3f460718b47", "fusion_lon": 0.0, "lat": 38.90351966666667, "is_reserved": 0, "type": "electric_scooter", "bike_id": "46976b3041d03177304fe3f460718b47", "is_disabled": 0, "rental_uris": {"android": "https://dc.lft.to/lastmile_qr_scan", "ios": "https://dc.lft.to/lastmile_qr_scan"}, "lon": -76.97481383333333, "fusion_lat": 0.0}, {"name": "01ef1d7de36d4268a62b37e1e255a7c8", "fusion_lon": 0.0, "lat": 38.92118833333333, "is_reserved": 0, "type": "electric_scooter", "bike_id": "01ef1d7de36d4268a62b37e1e255a7c8", "is_disabled": 0, "rental_uris": {"android": "https://dc.lft.to/lastmile_qr_scan", "ios": "https://dc.lft.to/lastmile_qr_scan"}, "lon": -77.04573, "fusion_lat": 0.0}, {"name": "adae06375f434fdefcab15304622fa1a", "fusion_lon": 0.0, "lat": 38.900476, "is_reserved": 0, "type": "electric_scooter", "bike_id": "adae06375f434fdefcab15304622fa1a", "is_disabled": 0, "rental_uris": {"android": "https://dc.lft.to/lastmile_qr_scan", "ios": "https://dc.lft.to/lastmile_qr_scan"}, "lon": -77.02911866666666, "fusion_lat": 0.0}, {"name": "56022b3362a949d6faabd3212528fd65", "fusion_lon": 0.0, "lat": 38.9181665, "is_reserved": 0, "type": "electric_scooter", "bike_id": "56022b3362a949d6faabd3212528fd65", "is_disabled": 0, "rental_uris": {"android": "https://dc.lft.to/lastmile_qr_scan", "ios": "https://dc.lft.to/lastmile_qr_scan"}, "lon": -77.02494233333333, "fusion_lat": 0.0}, {"name": "53f60dd3d04f786949c1af53ce8a484c", "fusion_lon": 0.0, "lat": 38.90714216666667, "is_reserved": 0, "type": "electric_scooter", "bike_id": "53f60dd3d04f786949c1af53ce8a484c", "is_disabled": 0, "rental_uris": {"android": "https://dc.lft.to/lastmile_qr_scan", "ios": "https://dc.lft.to/lastmile_qr_scan"}, "lon": -77.0101515, "fusion_lat": 0.0}, {"name": "a154b0c20b7f5375965c431c22c6f876", "fusion_lon": 0.0, "lat": 38.896099666666665, "is_reserved": 0, "type": "electric_scooter", "bike_id": "a154b0c20b7f5375965c431c22c6f876", "is_disabled": 0, "rental_uris": {"android": "https://dc.lft.to/lastmile_qr_scan", "ios": "https://dc.lft.to/lastmile_qr_scan"}, "lon": -77.02149233333333, "fusion_lat": 0.0}, {"name": "e032e3609a0f00831e7e46be3174e115", "fusion_lon": 0.0, "lat": 38.906623833333335, "is_reserved": 0, "type": "electric_scooter", "bike_id": "e032e3609a0f00831e7e46be3174e115", "is_disabled": 0, "rental_uris": {"android": "https://dc.lft.to/lastmile_qr_scan", "ios": "https://dc.lft.to/lastmile_qr_scan"}, "lon": -77.044801, "fusion_lat": 0.0}, {"name": "d9055a8e73e78ef6519c91c560a25535", "fusion_lon": 0.0, "lat": 38.904105666666666, "is_reserved": 0, "type": "electric_scooter", "bike_id": "d9055a8e73e78ef6519c91c560a25535", "is_disabled": 0, "rental_uris": {"android": "https://dc.lft.to/lastmile_qr_scan", "ios": "https://dc.lft.to/lastmile_qr_scan"}, "lon": -76.97330166666667, "fusion_lat": 0.0}, {"name": "169888e6adae7352f78fb82ebe8680f1", "fusion_lon": 0.0, "lat": 38.921721833333336, "is_reserved": 0, "type": "electric_scooter", "bike_id": "169888e6adae7352f78fb82ebe8680f1", "is_disabled": 0, "rental_uris": {"android": "https://dc.lft.to/lastmile_qr_scan", "ios": "https://dc.lft.to/lastmile_qr_scan"}, "lon": -77.01918233333333, "fusion_lat": 0.0}, {"name": "5a696907d075338ac2b0d46b22d6a938", "fusion_lon": 0.0, "lat": 38.900613166666666, "is_reserved": 0, "type": "electric_scooter", "bike_id": "5a696907d075338ac2b0d46b22d6a938", "is_disabled": 0, "rental_uris": {"android": "https://dc.lft.to/lastmile_qr_scan", "ios": "https://dc.lft.to/lastmile_qr_scan"}, "lon": -76.9870885, "fusion_lat": 0.0}, {"name": "103d16b41a8ad682bc194c304ec325c0", "fusion_lon": 0.0, "lat": 38.95731966666666, "is_reserved": 0, "type": "electric_scooter", "bike_id": "103d16b41a8ad682bc194c304ec325c0", "is_disabled": 0, "rental_uris": {"android": "https://dc.lft.to/lastmile_qr_scan", "ios": "https://dc.lft.to/lastmile_qr_scan"}, "lon": -77.024071, "fusion_lat": 0.0}, {"name": "39d69b1d3026588094c1bb8589092adf", "fusion_lon": 0.0, "lat": 38.95152233333334, "is_reserved": 0, "type": "electric_scooter", "bike_id": "39d69b1d3026588094c1bb8589092adf", "is_disabled": 0, "rental_uris": {"android": "https://dc.lft.to/lastmile_qr_scan", "ios": "https://dc.lft.to/lastmile_qr_scan"}, "lon": -77.01870316666667, "fusion_lat": 0.0}, {"name": "d61236e0ad7bde32f945476df8a93fc5", "fusion_lon": 0.0, "lat": 38.89219966666667, "is_reserved": 0, "type": "electric_scooter", "bike_id": "d61236e0ad7bde32f945476df8a93fc5", "is_disabled": 0, "rental_uris": {"android": "https://dc.lft.to/lastmile_qr_scan", "ios": "https://dc.lft.to/lastmile_qr_scan"}, "lon": -77.04864066666667, "fusion_lat": 0.0}, {"name": "3b8179dea0ba493d134584262ab3fdc1", "fusion_lon": 0.0, "lat": 38.917049666666664, "is_reserved": 0, "type": "electric_scooter", "bike_id": "3b8179dea0ba493d134584262ab3fdc1", "is_disabled": 0, "rental_uris": {"android": "https://dc.lft.to/lastmile_qr_scan", "ios": "https://dc.lft.to/lastmile_qr_scan"}, "lon": -77.09578133333333, "fusion_lat": 0.0}, {"name": "27d5d64e1632517a8a653a60528a2f06", "fusion_lon": 0.0, "lat": 38.917874166666664, "is_reserved": 0, "type": "electric_scooter", "bike_id": "27d5d64e1632517a8a653a60528a2f06", "is_disabled": 0, "rental_uris": {"android": "https://dc.lft.to/lastmile_qr_scan", "ios": "https://dc.lft.to/lastmile_qr_scan"}, "lon": -77.04219083333334, "fusion_lat": 0.0}, {"name": "57b704d8a25d6d6d2d0bb77889e9a817", "fusion_lon": 0.0, "lat": 38.898349333333336, "is_reserved": 0, "type": "electric_scooter", "bike_id": "57b704d8a25d6d6d2d0bb77889e9a817", "is_disabled": 0, "rental_uris": {"android": "https://dc.lft.to/lastmile_qr_scan", "ios": "https://dc.lft.to/lastmile_qr_scan"}, "lon": -77.0257905, "fusion_lat": 0.0}, {"name": "6d0a3d17ae4d11e4158178d36472656c", "fusion_lon": 0.0, "lat": 38.90420483333333, "is_reserved": 0, "type": "electric_scooter", "bike_id": "6d0a3d17ae4d11e4158178d36472656c", "is_disabled": 0, "rental_uris": {"android": "https://dc.lft.to/lastmile_qr_scan", "ios": "https://dc.lft.to/lastmile_qr_scan"}, "lon": -77.0501825, "fusion_lat": 0.0}, {"name": "66cec0682e067976d372d45252385818", "fusion_lon": 0.0, "lat": 38.918928333333334, "is_reserved": 0, "type": "electric_scooter", "bike_id": "66cec0682e067976d372d45252385818", "is_disabled": 0, "rental_uris": {"android": "https://dc.lft.to/lastmile_qr_scan", "ios": "https://dc.lft.to/lastmile_qr_scan"}, "lon": -77.02302516666667, "fusion_lat": 0.0}, {"name": "22e161ad5f7aa2e95c791f39f84346db", "fusion_lon": 0.0, "lat": 38.900781333333335, "is_reserved": 0, "type": "electric_scooter", "bike_id": "22e161ad5f7aa2e95c791f39f84346db", "is_disabled": 0, "rental_uris": {"android": "https://dc.lft.to/lastmile_qr_scan", "ios": "https://dc.lft.to/lastmile_qr_scan"}, "lon": -77.049867, "fusion_lat": 0.0}, {"name": "cc53ff672b0a83650a316b0516786733", "fusion_lon": 0.0, "lat": 38.91033566666667, "is_reserved": 0, "type": "electric_bike", "bike_id": "cc53ff672b0a83650a316b0516786733", "is_disabled": 0, "rental_uris": {"android": "https://dc.lft.to/lastmile_qr_scan", "ios": "https://dc.lft.to/lastmile_qr_scan"}, "lon": -77.03199866666667, "fusion_lat": 0.0}, {"name": "15eaf2efe3090d6814effc2df049da0d", "fusion_lon": 0.0, "lat": 38.90666383333333, "is_reserved": 0, "type": "electric_scooter", "bike_id": "15eaf2efe3090d6814effc2df049da0d", "is_disabled": 0, "rental_uris": {"android": "https://dc.lft.to/lastmile_qr_scan", "ios": "https://dc.lft.to/lastmile_qr_scan"}, "lon": -77.03869783333333, "fusion_lat": 0.0}, {"name": "7de7058393d9f6f45f93f1a2181111ed", "fusion_lon": 0.0, "lat": 38.91296333333333, "is_reserved": 0, "type": "electric_scooter", "bike_id": "7de7058393d9f6f45f93f1a2181111ed", "is_disabled": 0, "rental_uris": {"android": "https://dc.lft.to/lastmile_qr_scan", "ios": "https://dc.lft.to/lastmile_qr_scan"}, "lon": -77.06680783333333, "fusion_lat": 0.0}, {"name": "abd515e96dcf089bbf2344585c3aa963", "fusion_lon": 0.0, "lat": 38.902656, "is_reserved": 0, "type": "electric_scooter", "bike_id": "abd515e96dcf089bbf2344585c3aa963", "is_disabled": 0, "rental_uris": {"android": "https://dc.lft.to/lastmile_qr_scan", "ios": "https://dc.lft.to/lastmile_qr_scan"}, "lon": -77.017709, "fusion_lat": 0.0}, {"name": "4cd8231af65b2bbe103a6ce9a560b3a9", "fusion_lon": 0.0, "lat": 38.89831233333334, "is_reserved": 0, "type": "electric_scooter", "bike_id": "4cd8231af65b2bbe103a6ce9a560b3a9", "is_disabled": 0, "rental_uris": {"android": "https://dc.lft.to/lastmile_qr_scan", "ios": "https://dc.lft.to/lastmile_qr_scan"}, "lon": -77.03328833333333, "fusion_lat": 0.0}, {"name": "28778cc7b007d02d3204dad3ae545108", "fusion_lon": 0.0, "lat": 38.90983383333333, "is_reserved": 0, "type": "electric_scooter", "bike_id": "28778cc7b007d02d3204dad3ae545108", "is_disabled": 0, "rental_uris": {"android": "https://dc.lft.to/lastmile_qr_scan", "ios": "https://dc.lft.to/lastmile_qr_scan"}, "lon": -77.034346, "fusion_lat": 0.0}, {"name": "a0dafc0b3301a0abed24ca3cf9cb0476", "fusion_lon": 0.0, "lat": 38.9230995, "is_reserved": 0, "type": "electric_scooter", "bike_id": "a0dafc0b3301a0abed24ca3cf9cb0476", "is_disabled": 0, "rental_uris": {"android": "https://dc.lft.to/lastmile_qr_scan", "ios": "https://dc.lft.to/lastmile_qr_scan"}, "lon": -77.0276325, "fusion_lat": 0.0}, {"name": "e17f2528e2f6d08bc48d5c752912e7ef", "fusion_lon": 0.0, "lat": 38.863478666666666, "is_reserved": 0, "type": "electric_scooter", "bike_id": "e17f2528e2f6d08bc48d5c752912e7ef", "is_disabled": 0, "rental_uris": {"android": "https://dc.lft.to/lastmile_qr_scan", "ios": "https://dc.lft.to/lastmile_qr_scan"}, "lon": -76.98699716666667, "fusion_lat": 0.0}, {"name": "3f1de4da0b2cb62843412da8089c2d4b", "fusion_lon": 0.0, "lat": 38.904836, "is_reserved": 0, "type": "electric_scooter", "bike_id": "3f1de4da0b2cb62843412da8089c2d4b", "is_disabled": 0, "rental_uris": {"android": "https://dc.lft.to/lastmile_qr_scan", "ios": "https://dc.lft.to/lastmile_qr_scan"}, "lon": -77.03866916666666, "fusion_lat": 0.0}, {"name": "f512990d50f748724491b88985183353", "fusion_lon": 0.0, "lat": 38.942038833333335, "is_reserved": 0, "type": "electric_scooter", "bike_id": "f512990d50f748724491b88985183353", "is_disabled": 0, "rental_uris": {"android": "https://dc.lft.to/lastmile_qr_scan", "ios": "https://dc.lft.to/lastmile_qr_scan"}, "lon": -77.02516966666667, "fusion_lat": 0.0}, {"name": "d59178ee02cd14712c493a01bfcd13fd", "fusion_lon": 0.0, "lat": 38.91519316666667, "is_reserved": 0, "type": "electric_scooter", "bike_id": "d59178ee02cd14712c493a01bfcd13fd", "is_disabled": 0, "rental_uris": {"android": "https://dc.lft.to/lastmile_qr_scan", "ios": "https://dc.lft.to/lastmile_qr_scan"}, "lon": -77.031891, "fusion_lat": 0.0}, {"name": "7e143fbd3be2d619d8f603a0b18f30b2", "fusion_lon": 0.0, "lat": 38.91560966666667, "is_reserved": 0, "type": "electric_scooter", "bike_id": "7e143fbd3be2d619d8f603a0b18f30b2", "is_disabled": 0, "rental_uris": {"android": "https://dc.lft.to/lastmile_qr_scan", "ios": "https://dc.lft.to/lastmile_qr_scan"}, "lon": -77.03950083333334, "fusion_lat": 0.0}, {"name": "348e233072e7ee97dec0ddc0d2913971", "fusion_lon": 0.0, "lat": 38.9101385, "is_reserved": 0, "type": "electric_bike", "bike_id": "348e233072e7ee97dec0ddc0d2913971", "is_disabled": 0, "rental_uris": {"android": "https://dc.lft.to/lastmile_qr_scan", "ios": "https://dc.lft.to/lastmile_qr_scan"}, "lon": -77.22799933333333, "fusion_lat": 0.0}, {"name": "193a735ed315b35bb1140584f6d386fe", "fusion_lon": 0.0, "lat": 38.86949216666667, "is_reserved": 0, "type": "electric_scooter", "bike_id": "193a735ed315b35bb1140584f6d386fe", "is_disabled": 0, "rental_uris": {"android": "https://dc.lft.to/lastmile_qr_scan", "ios": "https://dc.lft.to/lastmile_qr_scan"}, "lon": -76.9817485, "fusion_lat": 0.0}, {"name": "1c378db2e88e5f57f0347d9a761d2709", "fusion_lon": 0.0, "lat": 38.872795333333336, "is_reserved": 0, "type": "electric_bike", "bike_id": "1c378db2e88e5f57f0347d9a761d2709", "is_disabled": 0, "rental_uris": {"android": "https://dc.lft.to/lastmile_qr_scan", "ios": "https://dc.lft.to/lastmile_qr_scan"}, "lon": -77.23317, "fusion_lat": 0.0}, {"name": "bd4f4a6d444b8e26c89771c4ad7c0bf7", "fusion_lon": 0.0, "lat": 38.89320716666667, "is_reserved": 0, "type": "electric_scooter", "bike_id": "bd4f4a6d444b8e26c89771c4ad7c0bf7", "is_disabled": 0, "rental_uris": {"android": "https://dc.lft.to/lastmile_qr_scan", "ios": "https://dc.lft.to/lastmile_qr_scan"}, "lon": -77.048759, "fusion_lat": 0.0}, {"name": "e1328cb8a8b7e2c98a23f23cf0dbe839", "fusion_lon": 0.0, "lat": 38.90814616666667, "is_reserved": 0, "type": "electric_scooter", "bike_id": "e1328cb8a8b7e2c98a23f23cf0dbe839", "is_disabled": 0, "rental_uris": {"android": "https://dc.lft.to/lastmile_qr_scan", "ios": "https://dc.lft.to/lastmile_qr_scan"}, "lon": -77.03946633333334, "fusion_lat": 0.0}, {"name": "9bc9bcc03a5a3b34cae9523e2cf3ea75", "fusion_lon": 0.0, "lat": 38.92397883333334, "is_reserved": 0, "type": "electric_scooter", "bike_id": "9bc9bcc03a5a3b34cae9523e2cf3ea75", "is_disabled": 0, "rental_uris": {"android": "https://dc.lft.to/lastmile_qr_scan", "ios": "https://dc.lft.to/lastmile_qr_scan"}, "lon": -77.0214585, "fusion_lat": 0.0}, {"name": "868a1cb94db33a5159cb38f042174df8", "fusion_lon": 0.0, "lat": 38.9162865, "is_reserved": 0, "type": "electric_scooter", "bike_id": "868a1cb94db33a5159cb38f042174df8", "is_disabled": 0, "rental_uris": {"android": "https://dc.lft.to/lastmile_qr_scan", "ios": "https://dc.lft.to/lastmile_qr_scan"}, "lon": -77.04860433333333, "fusion_lat": 0.0}, {"name": "8c56e5925a77fa5cf636dc93162ef842", "fusion_lon": 0.0, "lat": 38.8805525, "is_reserved": 0, "type": "electric_bike", "bike_id": "8c56e5925a77fa5cf636dc93162ef842", "is_disabled": 0, "rental_uris": {"android": "https://dc.lft.to/lastmile_qr_scan", "ios": "https://dc.lft.to/lastmile_qr_scan"}, "lon": -76.96238016666666, "fusion_lat": 0.0}, {"name": "cbb249fe69aff4dd8d0c6de9290dc886", "fusion_lon": 0.0, "lat": 38.872911, "is_reserved": 0, "type": "electric_scooter", "bike_id": "cbb249fe69aff4dd8d0c6de9290dc886", "is_disabled": 0, "rental_uris": {"android": "https://dc.lft.to/lastmile_qr_scan", "ios": "https://dc.lft.to/lastmile_qr_scan"}, "lon": -77.0098625, "fusion_lat": 0.0}, {"name": "cd998cf2b9aca474a39551e5a954c89e", "fusion_lon": 0.0, "lat": 38.876332, "is_reserved": 0, "type": "electric_scooter", "bike_id": "cd998cf2b9aca474a39551e5a954c89e", "is_disabled": 0, "rental_uris": {"android": "https://dc.lft.to/lastmile_qr_scan", "ios": "https://dc.lft.to/lastmile_qr_scan"}, "lon": -77.00061566666666, "fusion_lat": 0.0}, {"name": "25bafe52f4aed9dffb0d20a7c0e7104a", "fusion_lon": 0.0, "lat": 38.8938845, "is_reserved": 0, "type": "electric_scooter", "bike_id": "25bafe52f4aed9dffb0d20a7c0e7104a", "is_disabled": 0, "rental_uris": {"android": "https://dc.lft.to/lastmile_qr_scan", "ios": "https://dc.lft.to/lastmile_qr_scan"}, "lon": -77.02821183333333, "fusion_lat": 0.0}, {"name": "4032b45884478d96d907689190810cc4", "fusion_lon": 0.0, "lat": 38.923114, "is_reserved": 0, "type": "electric_scooter", "bike_id": "4032b45884478d96d907689190810cc4", "is_disabled": 0, "rental_uris": {"android": "https://dc.lft.to/lastmile_qr_scan", "ios": "https://dc.lft.to/lastmile_qr_scan"}, "lon": -77.02980833333334, "fusion_lat": 0.0}, {"name": "4175085d9b16c2847de50f2a7d003793", "fusion_lon": 0.0, "lat": 38.925149166666664, "is_reserved": 0, "type": "electric_scooter", "bike_id": "4175085d9b16c2847de50f2a7d003793", "is_disabled": 0, "rental_uris": {"android": "https://dc.lft.to/lastmile_qr_scan", "ios": "https://dc.lft.to/lastmile_qr_scan"}, "lon": -77.02335966666666, "fusion_lat": 0.0}, {"name": "b0531725594a5915c663ed5c6258717a", "fusion_lon": 0.0, "lat": 39.050543166666664, "is_reserved": 0, "type": "electric_bike", "bike_id": "b0531725594a5915c663ed5c6258717a", "is_disabled": 0, "rental_uris": {"android": "https://dc.lft.to/lastmile_qr_scan", "ios": "https://dc.lft.to/lastmile_qr_scan"}, "lon": -77.05148366666667, "fusion_lat": 0.0}, {"name": "dba534b6d6f9ed665fffaa403d2abc90", "fusion_lon": 0.0, "lat": 38.9026755, "is_reserved": 0, "type": "electric_scooter", "bike_id": "dba534b6d6f9ed665fffaa403d2abc90", "is_disabled": 0, "rental_uris": {"android": "https://dc.lft.to/lastmile_qr_scan", "ios": "https://dc.lft.to/lastmile_qr_scan"}, "lon": -77.039725, "fusion_lat": 0.0}, {"name": "07f46482a3cd48891272e0fba9255cfb", "fusion_lon": 0.0, "lat": 38.884147166666665, "is_reserved": 0, "type": "electric_scooter", "bike_id": "07f46482a3cd48891272e0fba9255cfb", "is_disabled": 0, "rental_uris": {"android": "https://dc.lft.to/lastmile_qr_scan", "ios": "https://dc.lft.to/lastmile_qr_scan"}, "lon": -77.0305525, "fusion_lat": 0.0}, {"name": "687b037367fb2fa55d29e05812596dcd", "fusion_lon": 0.0, "lat": 38.892271666666666, "is_reserved": 0, "type": "electric_scooter", "bike_id": "687b037367fb2fa55d29e05812596dcd", "is_disabled": 0, "rental_uris": {"android": "https://dc.lft.to/lastmile_qr_scan", "ios": "https://dc.lft.to/lastmile_qr_scan"}, "lon": -77.01723616666666, "fusion_lat": 0.0}, {"name": "f55696dc7f248f9fd50b0ad0a12e5a20", "fusion_lon": 0.0, "lat": 38.901980333333334, "is_reserved": 0, "type": "electric_scooter", "bike_id": "f55696dc7f248f9fd50b0ad0a12e5a20", "is_disabled": 0, "rental_uris": {"android": "https://dc.lft.to/lastmile_qr_scan", "ios": "https://dc.lft.to/lastmile_qr_scan"}, "lon": -77.04799866666667, "fusion_lat": 0.0}, {"name": "91e0561f41bfe3c07fad175b3f16f8fe", "fusion_lon": 0.0, "lat": 38.87919866666667, "is_reserved": 0, "type": "electric_scooter", "bike_id": "91e0561f41bfe3c07fad175b3f16f8fe", "is_disabled": 0, "rental_uris": {"android": "https://dc.lft.to/lastmile_qr_scan", "ios": "https://dc.lft.to/lastmile_qr_scan"}, "lon": -76.99982883333334, "fusion_lat": 0.0}, {"name": "9d93bf55220015b819b4dc84748f56c8", "fusion_lon": 0.0, "lat": 38.906721166666664, "is_reserved": 0, "type": "electric_scooter", "bike_id": "9d93bf55220015b819b4dc84748f56c8", "is_disabled": 0, "rental_uris": {"android": "https://dc.lft.to/lastmile_qr_scan", "ios": "https://dc.lft.to/lastmile_qr_scan"}, "lon": -77.02962516666666, "fusion_lat": 0.0}, {"name": "392df0279ade2623dcb133c5bcc4cca5", "fusion_lon": 0.0, "lat": 38.90410816666667, "is_reserved": 0, "type": "electric_scooter", "bike_id": "392df0279ade2623dcb133c5bcc4cca5", "is_disabled": 0, "rental_uris": {"android": "https://dc.lft.to/lastmile_qr_scan", "ios": "https://dc.lft.to/lastmile_qr_scan"}, "lon": -76.97333583333334, "fusion_lat": 0.0}, {"name": "5ea1351254bc3690b5ded924e9412251", "fusion_lon": 0.0, "lat": 38.92112433333333, "is_reserved": 0, "type": "electric_scooter", "bike_id": "5ea1351254bc3690b5ded924e9412251", "is_disabled": 0, "rental_uris": {"android": "https://dc.lft.to/lastmile_qr_scan", "ios": "https://dc.lft.to/lastmile_qr_scan"}, "lon": -77.04388266666666, "fusion_lat": 0.0}, {"name": "f1b5f885fbdee6731cdd3145e29af48c", "fusion_lon": 0.0, "lat": 38.88180083333334, "is_reserved": 0, "type": "electric_scooter", "bike_id": "f1b5f885fbdee6731cdd3145e29af48c", "is_disabled": 0, "rental_uris": {"android": "https://dc.lft.to/lastmile_qr_scan", "ios": "https://dc.lft.to/lastmile_qr_scan"}, "lon": -77.03577816666666, "fusion_lat": 0.0}, {"name": "a603ca08ae056ab198019c5e342f6045", "fusion_lon": 0.0, "lat": 38.83233083333333, "is_reserved": 0, "type": "electric_bike", "bike_id": "a603ca08ae056ab198019c5e342f6045", "is_disabled": 0, "rental_uris": {"android": "https://dc.lft.to/lastmile_qr_scan", "ios": "https://dc.lft.to/lastmile_qr_scan"}, "lon": -76.94623616666667, "fusion_lat": 0.0}, {"name": "5bf2171476057faa2b4a9c094e76bf12", "fusion_lon": 0.0, "lat": 38.918407333333334, "is_reserved": 0, "type": "electric_scooter", "bike_id": "5bf2171476057faa2b4a9c094e76bf12", "is_disabled": 0, "rental_uris": {"android": "https://dc.lft.to/lastmile_qr_scan", "ios": "https://dc.lft.to/lastmile_qr_scan"}, "lon": -77.05950233333333, "fusion_lat": 0.0}, {"name": "c2b02210a5bcf409ac15956b84bc72c4", "fusion_lon": 0.0, "lat": 38.93244, "is_reserved": 0, "type": "electric_scooter", "bike_id": "c2b02210a5bcf409ac15956b84bc72c4", "is_disabled": 0, "rental_uris": {"android": "https://dc.lft.to/lastmile_qr_scan", "ios": "https://dc.lft.to/lastmile_qr_scan"}, "lon": -77.03850216666666, "fusion_lat": 0.0}, {"name": "61b95c5da059bc64582c3d52d3eb930d", "fusion_lon": 0.0, "lat": 38.912546166666665, "is_reserved": 0, "type": "electric_scooter", "bike_id": "61b95c5da059bc64582c3d52d3eb930d", "is_disabled": 0, "rental_uris": {"android": "https://dc.lft.to/lastmile_qr_scan", "ios": "https://dc.lft.to/lastmile_qr_scan"}, "lon": -77.044391, "fusion_lat": 0.0}, {"name": "4c90726dee16d26863d7c19661dcd092", "fusion_lon": 0.0, "lat": 38.883134, "is_reserved": 0, "type": "electric_scooter", "bike_id": "4c90726dee16d26863d7c19661dcd092", "is_disabled": 0, "rental_uris": {"android": "https://dc.lft.to/lastmile_qr_scan", "ios": "https://dc.lft.to/lastmile_qr_scan"}, "lon": -77.00051816666667, "fusion_lat": 0.0}, {"name": "ba6e191cc8aea1060c821667098fed34", "fusion_lon": 0.0, "lat": 38.919134166666666, "is_reserved": 0, "type": "electric_scooter", "bike_id": "ba6e191cc8aea1060c821667098fed34", "is_disabled": 0, "rental_uris": {"android": "https://dc.lft.to/lastmile_qr_scan", "ios": "https://dc.lft.to/lastmile_qr_scan"}, "lon": -77.031805, "fusion_lat": 0.0}, {"name": "eee4cd90f732a41f05eff1e7db87d208", "fusion_lon": 0.0, "lat": 38.874695, "is_reserved": 0, "type": "electric_scooter", "bike_id": "eee4cd90f732a41f05eff1e7db87d208", "is_disabled": 0, "rental_uris": {"android": "https://dc.lft.to/lastmile_qr_scan", "ios": "https://dc.lft.to/lastmile_qr_scan"}, "lon": -77.00942616666667, "fusion_lat": 0.0}, {"name": "4568f5d5a534dc3dbdd2eae4d1bfcc05", "fusion_lon": 0.0, "lat": 38.900376333333334, "is_reserved": 0, "type": "electric_scooter", "bike_id": "4568f5d5a534dc3dbdd2eae4d1bfcc05", "is_disabled": 0, "rental_uris": {"android": "https://dc.lft.to/lastmile_qr_scan", "ios": "https://dc.lft.to/lastmile_qr_scan"}, "lon": -77.01020833333334, "fusion_lat": 0.0}, {"name": "96d2cef1fad2ff571219df524a41a6c3", "fusion_lon": 0.0, "lat": 38.855191166666664, "is_reserved": 0, "type": "electric_bike", "bike_id": "96d2cef1fad2ff571219df524a41a6c3", "is_disabled": 0, "rental_uris": {"android": "https://dc.lft.to/lastmile_qr_scan", "ios": "https://dc.lft.to/lastmile_qr_scan"}, "lon": -76.9843265, "fusion_lat": 0.0}, {"name": "a9e6e895047fbb1f689ba81c8720a014", "fusion_lon": 0.0, "lat": 38.84312383333334, "is_reserved": 0, "type": "electric_scooter", "bike_id": "a9e6e895047fbb1f689ba81c8720a014", "is_disabled": 0, "rental_uris": {"android": "https://dc.lft.to/lastmile_qr_scan", "ios": "https://dc.lft.to/lastmile_qr_scan"}, "lon": -76.99929433333334, "fusion_lat": 0.0}, {"name": "f6f8e324fa081407e98ae08f061f650d", "fusion_lon": 0.0, "lat": 38.917838833333334, "is_reserved": 0, "type": "electric_scooter", "bike_id": "f6f8e324fa081407e98ae08f061f650d", "is_disabled": 0, "rental_uris": {"android": "https://dc.lft.to/lastmile_qr_scan", "ios": "https://dc.lft.to/lastmile_qr_scan"}, "lon": -77.022979, "fusion_lat": 0.0}, {"name": "41b3376f88b64e51d750c5c0254a310d", "fusion_lon": 0.0, "lat": 38.91255833333334, "is_reserved": 0, "type": "electric_scooter", "bike_id": "41b3376f88b64e51d750c5c0254a310d", "is_disabled": 0, "rental_uris": {"android": "https://dc.lft.to/lastmile_qr_scan", "ios": "https://dc.lft.to/lastmile_qr_scan"}, "lon": -77.04466533333333, "fusion_lat": 0.0}, {"name": "990ea12926cb37263a3cec1ee69cefcf", "fusion_lon": 0.0, "lat": 38.920464833333334, "is_reserved": 0, "type": "electric_scooter", "bike_id": "990ea12926cb37263a3cec1ee69cefcf", "is_disabled": 0, "rental_uris": {"android": "https://dc.lft.to/lastmile_qr_scan", "ios": "https://dc.lft.to/lastmile_qr_scan"}, "lon": -77.02587216666667, "fusion_lat": 0.0}, {"name": "05f110e736eab3912997ba208a6de9c4", "fusion_lon": 0.0, "lat": 38.877130666666666, "is_reserved": 0, "type": "electric_scooter", "bike_id": "05f110e736eab3912997ba208a6de9c4", "is_disabled": 0, "rental_uris": {"android": "https://dc.lft.to/lastmile_qr_scan", "ios": "https://dc.lft.to/lastmile_qr_scan"}, "lon": -77.00442116666666, "fusion_lat": 0.0}, {"name": "c6cd7e1ab965258e9996a82941ee2ba5", "fusion_lon": 0.0, "lat": 38.886859666666666, "is_reserved": 0, "type": "electric_scooter", "bike_id": "c6cd7e1ab965258e9996a82941ee2ba5", "is_disabled": 0, "rental_uris": {"android": "https://dc.lft.to/lastmile_qr_scan", "ios": "https://dc.lft.to/lastmile_qr_scan"}, "lon": -76.9764145, "fusion_lat": 0.0}, {"name": "b040578cd711e51ef7f3bf2e2f1ab548", "fusion_lon": 0.0, "lat": 38.904304333333336, "is_reserved": 0, "type": "electric_scooter", "bike_id": "b040578cd711e51ef7f3bf2e2f1ab548", "is_disabled": 0, "rental_uris": {"android": "https://dc.lft.to/lastmile_qr_scan", "ios": "https://dc.lft.to/lastmile_qr_scan"}, "lon": -77.04378316666667, "fusion_lat": 0.0}, {"name": "dae4d5abd7ec261d39f25d583e2a8921", "fusion_lon": 0.0, "lat": 38.866969833333336, "is_reserved": 0, "type": "electric_scooter", "bike_id": "dae4d5abd7ec261d39f25d583e2a8921", "is_disabled": 0, "rental_uris": {"android": "https://dc.lft.to/lastmile_qr_scan", "ios": "https://dc.lft.to/lastmile_qr_scan"}, "lon": -76.98089316666666, "fusion_lat": 0.0}, {"name": "a7d475a874cc301eefcff1d862c1edc6", "fusion_lon": 0.0, "lat": 38.92458233333333, "is_reserved": 0, "type": "electric_scooter", "bike_id": "a7d475a874cc301eefcff1d862c1edc6", "is_disabled": 0, "rental_uris": {"android": "https://dc.lft.to/lastmile_qr_scan", "ios": "https://dc.lft.to/lastmile_qr_scan"}, "lon": -77.081633, "fusion_lat": 0.0}, {"name": "388865d7771c8d3a1c801265263c2529", "fusion_lon": 0.0, "lat": 38.926094166666665, "is_reserved": 0, "type": "electric_scooter", "bike_id": "388865d7771c8d3a1c801265263c2529", "is_disabled": 0, "rental_uris": {"android": "https://dc.lft.to/lastmile_qr_scan", "ios": "https://dc.lft.to/lastmile_qr_scan"}, "lon": -77.02416566666666, "fusion_lat": 0.0}, {"name": "ce3070af3c1b9cf995ba3e43c544ef0c", "fusion_lon": 0.0, "lat": 38.923189, "is_reserved": 0, "type": "electric_scooter", "bike_id": "ce3070af3c1b9cf995ba3e43c544ef0c", "is_disabled": 0, "rental_uris": {"android": "https://dc.lft.to/lastmile_qr_scan", "ios": "https://dc.lft.to/lastmile_qr_scan"}, "lon": -77.0213585, "fusion_lat": 0.0}, {"name": "cc0d8fe28df97b9a4999c384834254d7", "fusion_lon": 0.0, "lat": 38.90031233333333, "is_reserved": 0, "type": "electric_scooter", "bike_id": "cc0d8fe28df97b9a4999c384834254d7", "is_disabled": 0, "rental_uris": {"android": "https://dc.lft.to/lastmile_qr_scan", "ios": "https://dc.lft.to/lastmile_qr_scan"}, "lon": -77.0003115, "fusion_lat": 0.0}, {"name": "6bdba0eb5534a093f641b0645950aea1", "fusion_lon": 0.0, "lat": 38.925494, "is_reserved": 0, "type": "electric_scooter", "bike_id": "6bdba0eb5534a093f641b0645950aea1", "is_disabled": 0, "rental_uris": {"android": "https://dc.lft.to/lastmile_qr_scan", "ios": "https://dc.lft.to/lastmile_qr_scan"}, "lon": -76.97223933333333, "fusion_lat": 0.0}, {"name": "cba4babcccd99dc4dc93740726df5842", "fusion_lon": 0.0, "lat": 38.925565666666664, "is_reserved": 0, "type": "electric_scooter", "bike_id": "cba4babcccd99dc4dc93740726df5842", "is_disabled": 0, "rental_uris": {"android": "https://dc.lft.to/lastmile_qr_scan", "ios": "https://dc.lft.to/lastmile_qr_scan"}, "lon": -77.04379533333334, "fusion_lat": 0.0}, {"name": "5630ef4bbbe1ab6a60964416ccdd4dfa", "fusion_lon": 0.0, "lat": 38.89169866666667, "is_reserved": 0, "type": "electric_bike", "bike_id": "5630ef4bbbe1ab6a60964416ccdd4dfa", "is_disabled": 0, "rental_uris": {"android": "https://dc.lft.to/lastmile_qr_scan", "ios": "https://dc.lft.to/lastmile_qr_scan"}, "lon": -77.01976883333333, "fusion_lat": 0.0}, {"name": "bea0ebdd70ab814caa366da2fce7ac39", "fusion_lon": 0.0, "lat": 38.903743666666664, "is_reserved": 0, "type": "electric_scooter", "bike_id": "bea0ebdd70ab814caa366da2fce7ac39", "is_disabled": 0, "rental_uris": {"android": "https://dc.lft.to/lastmile_qr_scan", "ios": "https://dc.lft.to/lastmile_qr_scan"}, "lon": -77.0446185, "fusion_lat": 0.0}, {"name": "9373178da9cf547156e0384429c1c604", "fusion_lon": 0.0, "lat": 38.903035, "is_reserved": 0, "type": "electric_scooter", "bike_id": "9373178da9cf547156e0384429c1c604", "is_disabled": 0, "rental_uris": {"android": "https://dc.lft.to/lastmile_qr_scan", "ios": "https://dc.lft.to/lastmile_qr_scan"}, "lon": -77.022262, "fusion_lat": 0.0}, {"name": "045faf6256aad2feb90fafcbe2e6cd65", "fusion_lon": 0.0, "lat": 38.9275925, "is_reserved": 0, "type": "electric_scooter", "bike_id": "045faf6256aad2feb90fafcbe2e6cd65", "is_disabled": 0, "rental_uris": {"android": "https://dc.lft.to/lastmile_qr_scan", "ios": "https://dc.lft.to/lastmile_qr_scan"}, "lon": -77.0325965, "fusion_lat": 0.0}, {"name": "fda202edd3d163aa65084871dd1bc1fe", "fusion_lon": 0.0, "lat": 38.9044135, "is_reserved": 0, "type": "electric_scooter", "bike_id": "fda202edd3d163aa65084871dd1bc1fe", "is_disabled": 0, "rental_uris": {"android": "https://dc.lft.to/lastmile_qr_scan", "ios": "https://dc.lft.to/lastmile_qr_scan"}, "lon": -77.04358833333333, "fusion_lat": 0.0}, {"name": "209fa5af117ac80d42bc14913f363b5e", "fusion_lon": 0.0, "lat": 38.942040666666664, "is_reserved": 0, "type": "electric_scooter", "bike_id": "209fa5af117ac80d42bc14913f363b5e", "is_disabled": 0, "rental_uris": {"android": "https://dc.lft.to/lastmile_qr_scan", "ios": "https://dc.lft.to/lastmile_qr_scan"}, "lon": -77.02514516666666, "fusion_lat": 0.0}, {"name": "3182a13768fb4f690d68f9be2ae60ffd", "fusion_lon": 0.0, "lat": 38.934327333333336, "is_reserved": 0, "type": "electric_scooter", "bike_id": "3182a13768fb4f690d68f9be2ae60ffd", "is_disabled": 0, "rental_uris": {"android": "https://dc.lft.to/lastmile_qr_scan", "ios": "https://dc.lft.to/lastmile_qr_scan"}, "lon": -77.04540983333334, "fusion_lat": 0.0}, {"name": "3def9b7f0277ec7496f35955d84d91ad", "fusion_lon": 0.0, "lat": 38.912494, "is_reserved": 0, "type": "electric_scooter", "bike_id": "3def9b7f0277ec7496f35955d84d91ad", "is_disabled": 0, "rental_uris": {"android": "https://dc.lft.to/lastmile_qr_scan", "ios": "https://dc.lft.to/lastmile_qr_scan"}, "lon": -77.00773783333334, "fusion_lat": 0.0}, {"name": "00b97103e3e2e62a72fa1738401ead1e", "fusion_lon": 0.0, "lat": 38.949957, "is_reserved": 0, "type": "electric_scooter", "bike_id": "00b97103e3e2e62a72fa1738401ead1e", "is_disabled": 0, "rental_uris": {"android": "https://dc.lft.to/lastmile_qr_scan", "ios": "https://dc.lft.to/lastmile_qr_scan"}, "lon": -77.03329733333334, "fusion_lat": 0.0}, {"name": "0c8d7ae9dae7f85f8444ab2a8b31b079", "fusion_lon": 0.0, "lat": 38.973667, "is_reserved": 0, "type": "electric_scooter", "bike_id": "0c8d7ae9dae7f85f8444ab2a8b31b079", "is_disabled": 0, "rental_uris": {"android": "https://dc.lft.to/lastmile_qr_scan", "ios": "https://dc.lft.to/lastmile_qr_scan"}, "lon": -77.0184895, "fusion_lat": 0.0}, {"name": "64778be532db5217470ecab7bffbccda", "fusion_lon": 0.0, "lat": 38.86637916666667, "is_reserved": 0, "type": "electric_scooter", "bike_id": "64778be532db5217470ecab7bffbccda", "is_disabled": 0, "rental_uris": {"android": "https://dc.lft.to/lastmile_qr_scan", "ios": "https://dc.lft.to/lastmile_qr_scan"}, "lon": -76.982719, "fusion_lat": 0.0}, {"name": "c4df7e3cd1ec7559840df719c9e8e38e", "fusion_lon": 0.0, "lat": 38.90598966666667, "is_reserved": 0, "type": "electric_scooter", "bike_id": "c4df7e3cd1ec7559840df719c9e8e38e", "is_disabled": 0, "rental_uris": {"android": "https://dc.lft.to/lastmile_qr_scan", "ios": "https://dc.lft.to/lastmile_qr_scan"}, "lon": -77.04175533333333, "fusion_lat": 0.0}, {"name": "29e46c76f069b27c0b02b994c6ec2967", "fusion_lon": 0.0, "lat": 38.90181366666667, "is_reserved": 0, "type": "electric_scooter", "bike_id": "29e46c76f069b27c0b02b994c6ec2967", "is_disabled": 0, "rental_uris": {"android": "https://dc.lft.to/lastmile_qr_scan", "ios": "https://dc.lft.to/lastmile_qr_scan"}, "lon": -76.98817833333334, "fusion_lat": 0.0}, {"name": "f5214838c73ba57c102be46cca40a832", "fusion_lon": 0.0, "lat": 38.898830833333335, "is_reserved": 0, "type": "electric_scooter", "bike_id": "f5214838c73ba57c102be46cca40a832", "is_disabled": 0, "rental_uris": {"android": "https://dc.lft.to/lastmile_qr_scan", "ios": "https://dc.lft.to/lastmile_qr_scan"}, "lon": -77.02180066666666, "fusion_lat": 0.0}, {"name": "ef596351366831bfc20569ecfe520572", "fusion_lon": 0.0, "lat": 38.88607183333333, "is_reserved": 0, "type": "electric_scooter", "bike_id": "ef596351366831bfc20569ecfe520572", "is_disabled": 0, "rental_uris": {"android": "https://dc.lft.to/lastmile_qr_scan", "ios": "https://dc.lft.to/lastmile_qr_scan"}, "lon": -76.99511916666667, "fusion_lat": 0.0}, {"name": "3a3b032447d680c946f355bdd1154dd4", "fusion_lon": 0.0, "lat": 38.908593833333335, "is_reserved": 0, "type": "electric_scooter", "bike_id": "3a3b032447d680c946f355bdd1154dd4", "is_disabled": 0, "rental_uris": {"android": "https://dc.lft.to/lastmile_qr_scan", "ios": "https://dc.lft.to/lastmile_qr_scan"}, "lon": -77.024238, "fusion_lat": 0.0}, {"name": "7eccd1f179a119ffc7a49db2d957ec6d", "fusion_lon": 0.0, "lat": 38.92373116666667, "is_reserved": 0, "type": "electric_scooter", "bike_id": "7eccd1f179a119ffc7a49db2d957ec6d", "is_disabled": 0, "rental_uris": {"android": "https://dc.lft.to/lastmile_qr_scan", "ios": "https://dc.lft.to/lastmile_qr_scan"}, "lon": -77.04101833333333, "fusion_lat": 0.0}, {"name": "3ec1bcd70b26b6a1f3c1fb7c3cabd18c", "fusion_lon": 0.0, "lat": 38.9286975, "is_reserved": 0, "type": "electric_scooter", "bike_id": "3ec1bcd70b26b6a1f3c1fb7c3cabd18c", "is_disabled": 0, "rental_uris": {"android": "https://dc.lft.to/lastmile_qr_scan", "ios": "https://dc.lft.to/lastmile_qr_scan"}, "lon": -77.0273045, "fusion_lat": 0.0}, {"name": "48fef961e3fb8cb379736e1f54867b99", "fusion_lon": 0.0, "lat": 38.928840666666666, "is_reserved": 0, "type": "electric_scooter", "bike_id": "48fef961e3fb8cb379736e1f54867b99", "is_disabled": 0, "rental_uris": {"android": "https://dc.lft.to/lastmile_qr_scan", "ios": "https://dc.lft.to/lastmile_qr_scan"}, "lon": -77.03298, "fusion_lat": 0.0}, {"name": "80cca512bde206787cb75ae7951a15af", "fusion_lon": 0.0, "lat": 38.917539, "is_reserved": 0, "type": "electric_scooter", "bike_id": "80cca512bde206787cb75ae7951a15af", "is_disabled": 0, "rental_uris": {"android": "https://dc.lft.to/lastmile_qr_scan", "ios": "https://dc.lft.to/lastmile_qr_scan"}, "lon": -77.01605333333333, "fusion_lat": 0.0}, {"name": "08e673a753268d318b79c6266e25cfce", "fusion_lon": 0.0, "lat": 38.902989, "is_reserved": 0, "type": "electric_scooter", "bike_id": "08e673a753268d318b79c6266e25cfce", "is_disabled": 0, "rental_uris": {"android": "https://dc.lft.to/lastmile_qr_scan", "ios": "https://dc.lft.to/lastmile_qr_scan"}, "lon": -77.04884366666667, "fusion_lat": 0.0}, {"name": "0445feae3d57835438833ed9e786535a", "fusion_lon": 0.0, "lat": 38.91191833333333, "is_reserved": 0, "type": "electric_scooter", "bike_id": "0445feae3d57835438833ed9e786535a", "is_disabled": 0, "rental_uris": {"android": "https://dc.lft.to/lastmile_qr_scan", "ios": "https://dc.lft.to/lastmile_qr_scan"}, "lon": -77.00711333333334, "fusion_lat": 0.0}, {"name": "6927b2e3a4adacf8a7f8adb48f4348bf", "fusion_lon": 0.0, "lat": 38.855350333333334, "is_reserved": 0, "type": "electric_bike", "bike_id": "6927b2e3a4adacf8a7f8adb48f4348bf", "is_disabled": 0, "rental_uris": {"android": "https://dc.lft.to/lastmile_qr_scan", "ios": "https://dc.lft.to/lastmile_qr_scan"}, "lon": -77.12020466666667, "fusion_lat": 0.0}, {"name": "990a72500bee50048156cb7ed9b1eac3", "fusion_lon": 0.0, "lat": 38.99327516666666, "is_reserved": 0, "type": "electric_bike", "bike_id": "990a72500bee50048156cb7ed9b1eac3", "is_disabled": 0, "rental_uris": {"android": "https://dc.lft.to/lastmile_qr_scan", "ios": "https://dc.lft.to/lastmile_qr_scan"}, "lon": -76.94617766666667, "fusion_lat": 0.0}, {"name": "5e5093593acbd4578983f6088493e53d", "fusion_lon": 0.0, "lat": 38.887462666666664, "is_reserved": 0, "type": "electric_scooter", "bike_id": "5e5093593acbd4578983f6088493e53d", "is_disabled": 0, "rental_uris": {"android": "https://dc.lft.to/lastmile_qr_scan", "ios": "https://dc.lft.to/lastmile_qr_scan"}, "lon": -77.015404, "fusion_lat": 0.0}, {"name": "52ce09b0104444814b27262d2c408633", "fusion_lon": 0.0, "lat": 38.95248483333334, "is_reserved": 0, "type": "electric_scooter", "bike_id": "52ce09b0104444814b27262d2c408633", "is_disabled": 0, "rental_uris": {"android": "https://dc.lft.to/lastmile_qr_scan", "ios": "https://dc.lft.to/lastmile_qr_scan"}, "lon": -77.00196833333334, "fusion_lat": 0.0}, {"name": "746839f4590a2618aeed02670f44e93b", "fusion_lon": 0.0, "lat": 38.89234166666667, "is_reserved": 0, "type": "electric_scooter", "bike_id": "746839f4590a2618aeed02670f44e93b", "is_disabled": 0, "rental_uris": {"android": "https://dc.lft.to/lastmile_qr_scan", "ios": "https://dc.lft.to/lastmile_qr_scan"}, "lon": -77.0337975, "fusion_lat": 0.0}, {"name": "cea68fd10c6444275088c46a061028d7", "fusion_lon": 0.0, "lat": 38.896133, "is_reserved": 0, "type": "electric_scooter", "bike_id": "cea68fd10c6444275088c46a061028d7", "is_disabled": 0, "rental_uris": {"android": "https://dc.lft.to/lastmile_qr_scan", "ios": "https://dc.lft.to/lastmile_qr_scan"}, "lon": -76.981184, "fusion_lat": 0.0}, {"name": "788ebe090de7204089a1700e0cbd789d", "fusion_lon": 0.0, "lat": 38.91286, "is_reserved": 0, "type": "electric_scooter", "bike_id": "788ebe090de7204089a1700e0cbd789d", "is_disabled": 0, "rental_uris": {"android": "https://dc.lft.to/lastmile_qr_scan", "ios": "https://dc.lft.to/lastmile_qr_scan"}, "lon": -77.023863, "fusion_lat": 0.0}, {"name": "de1f07a3dfe63f0f2b776cc468f075d1", "fusion_lon": 0.0, "lat": 38.896258833333334, "is_reserved": 0, "type": "electric_scooter", "bike_id": "de1f07a3dfe63f0f2b776cc468f075d1", "is_disabled": 0, "rental_uris": {"android": "https://dc.lft.to/lastmile_qr_scan", "ios": "https://dc.lft.to/lastmile_qr_scan"}, "lon": -77.01596383333333, "fusion_lat": 0.0}, {"name": "5961932a95ae7c8259f329e17dae5728", "fusion_lon": 0.0, "lat": 38.89612733333333, "is_reserved": 0, "type": "electric_scooter", "bike_id": "5961932a95ae7c8259f329e17dae5728", "is_disabled": 0, "rental_uris": {"android": "https://dc.lft.to/lastmile_qr_scan", "ios": "https://dc.lft.to/lastmile_qr_scan"}, "lon": -77.02211983333333, "fusion_lat": 0.0}, {"name": "a5d0c03e8470db1967af65c2840eccdf", "fusion_lon": 0.0, "lat": 38.8999645, "is_reserved": 0, "type": "electric_scooter", "bike_id": "a5d0c03e8470db1967af65c2840eccdf", "is_disabled": 0, "rental_uris": {"android": "https://dc.lft.to/lastmile_qr_scan", "ios": "https://dc.lft.to/lastmile_qr_scan"}, "lon": -76.99638033333333, "fusion_lat": 0.0}, {"name": "619bc3bae961354d2c19468a5092895a", "fusion_lon": 0.0, "lat": 38.9102025, "is_reserved": 0, "type": "electric_scooter", "bike_id": "619bc3bae961354d2c19468a5092895a", "is_disabled": 0, "rental_uris": {"android": "https://dc.lft.to/lastmile_qr_scan", "ios": "https://dc.lft.to/lastmile_qr_scan"}, "lon": -77.05277533333333, "fusion_lat": 0.0}, {"name": "a8b21f7d0c6eaf5eccec5fec637c15a2", "fusion_lon": 0.0, "lat": 38.873653166666664, "is_reserved": 0, "type": "electric_scooter", "bike_id": "a8b21f7d0c6eaf5eccec5fec637c15a2", "is_disabled": 0, "rental_uris": {"android": "https://dc.lft.to/lastmile_qr_scan", "ios": "https://dc.lft.to/lastmile_qr_scan"}, "lon": -77.00586866666667, "fusion_lat": 0.0}, {"name": "ed9365b2e8f9cd50a321b9769796bca2", "fusion_lon": 0.0, "lat": 38.935992666666664, "is_reserved": 0, "type": "electric_scooter", "bike_id": "ed9365b2e8f9cd50a321b9769796bca2", "is_disabled": 0, "rental_uris": {"android": "https://dc.lft.to/lastmile_qr_scan", "ios": "https://dc.lft.to/lastmile_qr_scan"}, "lon": -77.037272, "fusion_lat": 0.0}, {"name": "98f6ca33218935122abe6e5414cb50a9", "fusion_lon": 0.0, "lat": 38.903935, "is_reserved": 0, "type": "electric_scooter", "bike_id": "98f6ca33218935122abe6e5414cb50a9", "is_disabled": 0, "rental_uris": {"android": "https://dc.lft.to/lastmile_qr_scan", "ios": "https://dc.lft.to/lastmile_qr_scan"}, "lon": -77.0651605, "fusion_lat": 0.0}, {"name": "fd191bb7794dce49e1d7730d81e7a0db", "fusion_lon": 0.0, "lat": 38.92231133333333, "is_reserved": 0, "type": "electric_scooter", "bike_id": "fd191bb7794dce49e1d7730d81e7a0db", "is_disabled": 0, "rental_uris": {"android": "https://dc.lft.to/lastmile_qr_scan", "ios": "https://dc.lft.to/lastmile_qr_scan"}, "lon": -77.02300866666667, "fusion_lat": 0.0}, {"name": "ccccbafe9a549b1ca4fd68ccedbf9f2f", "fusion_lon": 0.0, "lat": 38.8747915, "is_reserved": 0, "type": "electric_bike", "bike_id": "ccccbafe9a549b1ca4fd68ccedbf9f2f", "is_disabled": 0, "rental_uris": {"android": "https://dc.lft.to/lastmile_qr_scan", "ios": "https://dc.lft.to/lastmile_qr_scan"}, "lon": -76.9652735, "fusion_lat": 0.0}, {"name": "ea572ba241d72279153870442f7d7a94", "fusion_lon": 0.0, "lat": 38.88506916666667, "is_reserved": 0, "type": "electric_scooter", "bike_id": "ea572ba241d72279153870442f7d7a94", "is_disabled": 0, "rental_uris": {"android": "https://dc.lft.to/lastmile_qr_scan", "ios": "https://dc.lft.to/lastmile_qr_scan"}, "lon": -76.97712383333334, "fusion_lat": 0.0}, {"name": "9d8389d724096db2b215918ec2fe3616", "fusion_lon": 0.0, "lat": 38.92072833333334, "is_reserved": 0, "type": "electric_scooter", "bike_id": "9d8389d724096db2b215918ec2fe3616", "is_disabled": 0, "rental_uris": {"android": "https://dc.lft.to/lastmile_qr_scan", "ios": "https://dc.lft.to/lastmile_qr_scan"}, "lon": -77.02530633333333, "fusion_lat": 0.0}, {"name": "6dd215721c94d8ac47b6fa256ebeaaa8", "fusion_lon": 0.0, "lat": 38.906808833333336, "is_reserved": 0, "type": "electric_scooter", "bike_id": "6dd215721c94d8ac47b6fa256ebeaaa8", "is_disabled": 0, "rental_uris": {"android": "https://dc.lft.to/lastmile_qr_scan", "ios": "https://dc.lft.to/lastmile_qr_scan"}, "lon": -77.0385715, "fusion_lat": 0.0}, {"name": "ebb873094a1368ae02f6c3f6f43dc5be", "fusion_lon": 0.0, "lat": 38.90249816666667, "is_reserved": 0, "type": "electric_scooter", "bike_id": "ebb873094a1368ae02f6c3f6f43dc5be", "is_disabled": 0, "rental_uris": {"android": "https://dc.lft.to/lastmile_qr_scan", "ios": "https://dc.lft.to/lastmile_qr_scan"}, "lon": -77.03401333333333, "fusion_lat": 0.0}, {"name": "3a2baa084578586ba2c4748f315ce44c", "fusion_lon": 0.0, "lat": 38.902634, "is_reserved": 0, "type": "electric_scooter", "bike_id": "3a2baa084578586ba2c4748f315ce44c", "is_disabled": 0, "rental_uris": {"android": "https://dc.lft.to/lastmile_qr_scan", "ios": "https://dc.lft.to/lastmile_qr_scan"}, "lon": -77.0363085, "fusion_lat": 0.0}, {"name": "a5a85ee1d2e4182302212b29c8e490f7", "fusion_lon": 0.0, "lat": 38.90172733333333, "is_reserved": 0, "type": "electric_scooter", "bike_id": "a5a85ee1d2e4182302212b29c8e490f7", "is_disabled": 0, "rental_uris": {"android": "https://dc.lft.to/lastmile_qr_scan", "ios": "https://dc.lft.to/lastmile_qr_scan"}, "lon": -77.01604283333333, "fusion_lat": 0.0}, {"name": "e4874729be184d337d5c3ffb036623f6", "fusion_lon": 0.0, "lat": 38.897699, "is_reserved": 0, "type": "electric_scooter", "bike_id": "e4874729be184d337d5c3ffb036623f6", "is_disabled": 0, "rental_uris": {"android": "https://dc.lft.to/lastmile_qr_scan", "ios": "https://dc.lft.to/lastmile_qr_scan"}, "lon": -77.02713533333333, "fusion_lat": 0.0}, {"name": "97fd2ca5874ccd1538e0c3ae23ad92e4", "fusion_lon": 0.0, "lat": 38.9102725, "is_reserved": 0, "type": "electric_scooter", "bike_id": "97fd2ca5874ccd1538e0c3ae23ad92e4", "is_disabled": 0, "rental_uris": {"android": "https://dc.lft.to/lastmile_qr_scan", "ios": "https://dc.lft.to/lastmile_qr_scan"}, "lon": -77.00756633333333, "fusion_lat": 0.0}, {"name": "95359a423c7385c3632d83895226d40c", "fusion_lon": 0.0, "lat": 38.90717883333333, "is_reserved": 0, "type": "electric_scooter", "bike_id": "95359a423c7385c3632d83895226d40c", "is_disabled": 0, "rental_uris": {"android": "https://dc.lft.to/lastmile_qr_scan", "ios": "https://dc.lft.to/lastmile_qr_scan"}, "lon": -77.01480966666666, "fusion_lat": 0.0}, {"name": "9458ceb51e4dfa6a08e886ac9e0d93c9", "fusion_lon": 0.0, "lat": 38.90419216666667, "is_reserved": 0, "type": "electric_scooter", "bike_id": "9458ceb51e4dfa6a08e886ac9e0d93c9", "is_disabled": 0, "rental_uris": {"android": "https://dc.lft.to/lastmile_qr_scan", "ios": "https://dc.lft.to/lastmile_qr_scan"}, "lon": -77.03283833333333, "fusion_lat": 0.0}, {"name": "dc5617c09c1ec934f281bb3cb2bbd5a6", "fusion_lon": 0.0, "lat": 38.91403916666667, "is_reserved": 0, "type": "electric_scooter", "bike_id": "dc5617c09c1ec934f281bb3cb2bbd5a6", "is_disabled": 0, "rental_uris": {"android": "https://dc.lft.to/lastmile_qr_scan", "ios": "https://dc.lft.to/lastmile_qr_scan"}, "lon": -77.04373183333334, "fusion_lat": 0.0}, {"name": "b85c01599f7687e4b1fc588a3b387831", "fusion_lon": 0.0, "lat": 38.895633, "is_reserved": 0, "type": "electric_bike", "bike_id": "b85c01599f7687e4b1fc588a3b387831", "is_disabled": 0, "rental_uris": {"android": "https://dc.lft.to/lastmile_qr_scan", "ios": "https://dc.lft.to/lastmile_qr_scan"}, "lon": -77.12731083333334, "fusion_lat": 0.0}, {"name": "ed3de8cdae466f9d28d0331d8ef16ba5", "fusion_lon": 0.0, "lat": 38.906776666666666, "is_reserved": 0, "type": "electric_scooter", "bike_id": "ed3de8cdae466f9d28d0331d8ef16ba5", "is_disabled": 0, "rental_uris": {"android": "https://dc.lft.to/lastmile_qr_scan", "ios": "https://dc.lft.to/lastmile_qr_scan"}, "lon": -77.04878633333334, "fusion_lat": 0.0}, {"name": "4a265f9ecb2b3acb057b73491b3c8e3e", "fusion_lon": 0.0, "lat": 38.919146, "is_reserved": 0, "type": "electric_scooter", "bike_id": "4a265f9ecb2b3acb057b73491b3c8e3e", "is_disabled": 0, "rental_uris": {"android": "https://dc.lft.to/lastmile_qr_scan", "ios": "https://dc.lft.to/lastmile_qr_scan"}, "lon": -77.03267383333333, "fusion_lat": 0.0},