{"data": {"bikes": [{"fusion_lon": 0.0, "bike_id": "aa79c18dc2c2a81ac39b91f97cbdaeb9", "name": "aa79c18dc2c2a81ac39b91f97cbdaeb9", "rental_uris": {"android": "https://dc.lft.to/lastmile_qr_scan", "ios": "https://dc.lft.to/lastmile_qr_scan"}, "lon": -76.95229516666667, "fusion_lat": 0.0, "is_disabled": 0, "is_reserved": 0, "lat": 38.89345633333333, "type": "electric_scooter"}, {"fusion_lon": 0.0, "bike_id": "680a2b3ee8fe2a9b986648bf275fcf5a", "name": "680a2b3ee8fe2a9b986648bf275fcf5a", "rental_uris": {"android": "https://dc.lft.to/lastmile_qr_scan", "ios": "https://dc.lft.to/lastmile_qr_scan"}, "lon": -76.99266683333333, "fusion_lat": 0.0, "is_disabled": 0, "is_reserved": 0, "lat": 38.902999333333334, "type": "electric_scooter"}, {"fusion_lon": 0.0, "bike_id": "3fcd9eb045ec1a73826e4e7efecaa069", "name": "3fcd9eb045ec1a73826e4e7efecaa069", "rental_uris": {"android": "https://dc.lft.to/lastmile_qr_scan", "ios": "https://dc.lft.to/lastmile_qr_scan"}, "lon": -77.03583116666667, "fusion_lat": 0.0, "is_disabled": 0, "is_reserved": 0, "lat": 38.926250333333336, "type": "electric_scooter"}, {"fusion_lon": 0.0, "bike_id": "93ba6f4a4a240b198d7bd46ea3afc726", "name": "93ba6f4a4a240b198d7bd46ea3afc726", "rental_uris": {"android": "https://dc.lft.to/lastmile_qr_scan", "ios": "https://dc.lft.to/lastmile_qr_scan"}, "lon": -77.00550783333334, "fusion_lat": 0.0, "is_disabled": 0, "is_reserved": 0, "lat": 38.87546283333333, "type": "electric_scooter"}, {"fusion_lon": 0.0, "bike_id": "d9694a4c86ead24678d253b89832e658", "name": "d9694a4c86ead24678d253b89832e658", "rental_uris": {"android": "https://dc.lft.to/lastmile_qr_scan", "ios": "https://dc.lft.to/lastmile_qr_scan"}, "lon": -77.00195816666667, "fusion_lat": 0.0, "is_disabled": 0, "is_reserved": 0, "lat": 38.900293, "type": "electric_scooter"}, {"fusion_lon": 0.0, "bike_id": "4b274b7d7c0b43b13bdd5b881b2438d9", "name": "4b274b7d7c0b43b13bdd5b881b2438d9", "rental_uris": {"android": "https://dc.lft.to/lastmile_qr_scan", "ios": "https://dc.lft.to/lastmile_qr_scan"}, "lon": -77.0333295, "fusion_lat": 0.0, "is_disabled": 0, "is_reserved": 0, "lat": 38.972141666666666, "type": "electric_scooter"}, {"fusion_lon": 0.0, "bike_id": "a6528cfd63d813ec10e2e42d276966cd", "name": "a6528cfd63d813ec10e2e42d276966cd", "rental_uris": {"android": "https://dc.lft.to/lastmile_qr_scan", "ios": "https://dc.lft.to/lastmile_qr_scan"}, "lon": -77.037987, "fusion_lat": 0.0, "is_disabled": 0, "is_reserved": 0, "lat": 38.91569616666666, "type": "electric_scooter"}, {"fusion_lon": 0.0, "bike_id": "9ae0310420aee29aacebd3af13f62bbc", "name": "9ae0310420aee29aacebd3af13f62bbc", "rental_uris": {"android": "https://dc.lft.to/lastmile_qr_scan", "ios": "https://dc.lft.to/lastmile_qr_scan"}, "lon": -77.05800833333333, "fusion_lat": 0.0, "is_disabled": 0, "is_reserved": 0, "lat": 38.90454666666667, "type": "electric_scooter"}, {"fusion_lon": 0.0, "bike_id": "d5d3e3ae5398ddf6f5940323bbb45c70", "name": "d5d3e3ae5398ddf6f5940323bbb45c70", "rental_uris": {"android": "https://dc.lft.to/lastmile_qr_scan", "ios": "https://dc.lft.to/lastmile_qr_scan"}, "lon": -77.029636, "fusion_lat": 0.0, "is_disabled": 0, "is_reserved": 0, "lat": 38.9231485, "type": "electric_scooter"}, {"fusion_lon": 0.0, "bike_id": "91493c0f80d07b1edede63dac2a6c5ec", "name": "91493c0f80d07b1edede63dac2a6c5ec", "rental_uris": {"android": "https://dc.lft.to/lastmile_qr_scan", "ios": "https://dc.lft.to/lastmile_qr_scan"}, "lon": -77.0077485, "fusion_lat": 0.0, "is_disabled": 0, "is_reserved": 0, "lat": 38.879358833333335, "type": "electric_scooter"}, {"fusion_lon": 0.0, "bike_id": "8618dbe9ef40ed45b84ca8e97cfb43e2", "name": "8618dbe9ef40ed45b84ca8e97cfb43e2", "rental_uris": {"android": "https://dc.lft.to/lastmile_qr_scan", "ios": "https://dc.lft.to/lastmile_qr_scan"}, "lon": -76.99623933333334, "fusion_lat": 0.0, "is_disabled": 0, "is_reserved": 0, "lat": 38.876631333333336, "type": "electric_scooter"}, {"fusion_lon": 0.0, "bike_id": "53d958f474df478591a89b35ca1dcfad", "name": "53d958f474df478591a89b35ca1dcfad", "rental_uris": {"android": "https://dc.lft.to/lastmile_qr_scan", "ios": "https://dc.lft.to/lastmile_qr_scan"}, "lon": -77.059507, "fusion_lat": 0.0, "is_disabled": 0, "is_reserved": 0, "lat": 38.919604666666665, "type": "electric_scooter"}, {"fusion_lon": 0.0, "bike_id": "6fd5c29ce3bb2be044ff732dbafb9829", "name": "6fd5c29ce3bb2be044ff732dbafb9829", "rental_uris": {"android": "https://dc.lft.to/lastmile_qr_scan", "ios": "https://dc.lft.to/lastmile_qr_scan"}, "lon": -77.10613083333334, "fusion_lat": 0.0, "is_disabled": 0, "is_reserved": 0, "lat": 38.9356545, "type": "electric_bike"}, {"fusion_lon": 0.0, "bike_id": "c48dc6d069f565c49e2ef0e9b0607c81", "name": "c48dc6d069f565c49e2ef0e9b0607c81", "rental_uris": {"android": "https://dc.lft.to/lastmile_qr_scan", "ios": "https://dc.lft.to/lastmile_qr_scan"}, "lon": -77.01943266666666, "fusion_lat": 0.0, "is_disabled": 0, "is_reserved": 0, "lat": 38.8991875, "type": "electric_scooter"}, {"fusion_lon": 0.0, "bike_id": "8b9404117d346482ab11e1382d7529f7", "name": "8b9404117d346482ab11e1382d7529f7", "rental_uris": {"android": "https://dc.lft.to/lastmile_qr_scan", "ios": "https://dc.lft.to/lastmile_qr_scan"}, "lon": -77.01949083333334, "fusion_lat": 0.0, "is_disabled": 0, "is_reserved": 0, "lat": 38.92418966666666, "type": "electric_scooter"}, {"fusion_lon": 0.0, "bike_id": "5cfea323b5ffb416dca3e612e9fc7e22", "name": "5cfea323b5ffb416dca3e612e9fc7e22", "rental_uris": {"android": "https://dc.lft.to/lastmile_qr_scan", "ios": "https://dc.lft.to/lastmile_qr_scan"}, "lon": -76.9899135, "fusion_lat": 0.0, "is_disabled": 0, "is_reserved": 0, "lat": 38.924385666666666, "type": "electric_scooter"}, {"fusion_lon": 0.0, "bike_id": "3eb5b8b7b47497feaddc5a82814502d8", "name": "3eb5b8b7b47497feaddc5a82814502d8", "rental_uris": {"android": "https://dc.lft.to/lastmile_qr_scan", "ios": "https://dc.lft.to/lastmile_qr_scan"}, "lon": -77.05272466666666, "fusion_lat": 0.0, "is_disabled": 0, "is_reserved": 0, "lat": 38.92745266666667, "type": "electric_scooter"}, {"fusion_lon": 0.0, "bike_id": "129a0602dc0ec1e7c4b40fdfaa807bd9", "name": "129a0602dc0ec1e7c4b40fdfaa807bd9", "rental_uris": {"android": "https://dc.lft.to/lastmile_qr_scan", "ios": "https://dc.lft.to/lastmile_qr_scan"}, "lon": -77.01771116666667, "fusion_lat": 0.0, "is_disabled": 0, "is_reserved": 0, "lat": 38.8770375, "type": "electric_scooter"}, {"fusion_lon": 0.0, "bike_id": "62c5fb6be3958557288e836ff2c949e2", "name": "62c5fb6be3958557288e836ff2c949e2", "rental_uris": {"android": "https://dc.lft.to/lastmile_qr_scan", "ios": "https://dc.lft.to/lastmile_qr_scan"}, "lon": -77.01227016666667, "fusion_lat": 0.0, "is_disabled": 0, "is_reserved": 0, "lat": 38.89826166666667, "type": "electric_scooter"}, {"fusion_lon": 0.0, "bike_id": "941c1dfc879309b9e26368ea42a8c131", "name": "941c1dfc879309b9e26368ea42a8c131", "rental_uris": {"android": "https://dc.lft.to/lastmile_qr_scan", "ios": "https://dc.lft.to/lastmile_qr_scan"}, "lon": -76.998225, "fusion_lat": 0.0, "is_disabled": 0, "is_reserved": 0, "lat": 38.81984033333333, "type": "electric_bike"}, {"fusion_lon": 0.0, "bike_id": "3231943be0bd0957d5ba2411f98573e4", "name": "3231943be0bd0957d5ba2411f98573e4", "rental_uris": {"android": "https://dc.lft.to/lastmile_qr_scan", "ios": "https://dc.lft.to/lastmile_qr_scan"}, "lon": -76.98948116666666, "fusion_lat": 0.0, "is_disabled": 0, "is_reserved": 0, "lat": 38.903983, "type": "electric_scooter"}, {"fusion_lon": 0.0, "bike_id": "5a4b53594e6739c3f1377821d27cb0eb", "name": "5a4b53594e6739c3f1377821d27cb0eb", "rental_uris": {"android": "https://dc.lft.to/lastmile_qr_scan", "ios": "https://dc.lft.to/lastmile_qr_scan"}, "lon": -77.0225395, "fusion_lat": 0.0, "is_disabled": 0, "is_reserved": 0, "lat": 38.92508333333333, "type": "electric_scooter"}, {"fusion_lon": 0.0, "bike_id": "ef9bdfc042bc1a245235cdf58d292b9d", "name": "ef9bdfc042bc1a245235cdf58d292b9d", "rental_uris": {"android": "https://dc.lft.to/lastmile_qr_scan", "ios": "https://dc.lft.to/lastmile_qr_scan"}, "lon": -77.04533183333334, "fusion_lat": 0.0, "is_disabled": 0, "is_reserved": 0, "lat": 38.91236883333333, "type": "electric_scooter"}, {"fusion_lon": 0.0, "bike_id": "b20525aef36692b55bbf6a37399868ff", "name": "b20525aef36692b55bbf6a37399868ff", "rental_uris": {"android": "https://dc.lft.to/lastmile_qr_scan", "ios": "https://dc.lft.to/lastmile_qr_scan"}, "lon": -77.0432925, "fusion_lat": 0.0, "is_disabled": 0, "is_reserved": 0, "lat": 38.8922355, "type": "electric_scooter"}, {"fusion_lon": 0.0, "bike_id": "9db962b98b9c080b25ec638e534cc850", "name": "9db962b98b9c080b25ec638e534cc850", "rental_uris": {"android": "https://dc.lft.to/lastmile_qr_scan", "ios": "https://dc.lft.to/lastmile_qr_scan"}, "lon": -76.92658283333333, "fusion_lat": 0.0, "is_disabled": 0, "is_reserved": 0, "lat": 38.891745, "type": "electric_scooter"}, {"fusion_lon": 0.0, "bike_id": "047d2e55a560367f4ff411ca1048b07b", "name": "047d2e55a560367f4ff411ca1048b07b", "rental_uris": {"android": "https://dc.lft.to/lastmile_qr_scan", "ios": "https://dc.lft.to/lastmile_qr_scan"}, "lon": -77.0436075, "fusion_lat": 0.0, "is_disabled": 0, "is_reserved": 0, "lat": 38.9086335, "type": "electric_scooter"}, {"fusion_lon": 0.0, "bike_id": "d70c20a82672505d33569e83ed08c89f", "name": "d70c20a82672505d33569e83ed08c89f", "rental_uris": {"android": "https://dc.lft.to/lastmile_qr_scan", "ios": "https://dc.lft.to/lastmile_qr_scan"}, "lon": -76.98770066666667, "fusion_lat": 0.0, "is_disabled": 0, "is_reserved": 0, "lat": 38.912030666666666, "type": "electric_scooter"}, {"fusion_lon": 0.0, "bike_id": "9b5ebdbc28b6fc75bc2b513fbe9d857e", "name": "9b5ebdbc28b6fc75bc2b513fbe9d857e", "rental_uris": {"android": "https://dc.lft.to/lastmile_qr_scan", "ios": "https://dc.lft.to/lastmile_qr_scan"}, "lon": -77.02202283333334, "fusion_lat": 0.0, "is_disabled": 0, "is_reserved": 0, "lat": 38.911219, "type": "electric_scooter"}, {"fusion_lon": 0.0, "bike_id": "cba7bab124fe8633544ad669c5a44be2", "name": "cba7bab124fe8633544ad669c5a44be2", "rental_uris": {"android": "https://dc.lft.to/lastmile_qr_scan", "ios": "https://dc.lft.to/lastmile_qr_scan"}, "lon": -77.03287133333333, "fusion_lat": 0.0, "is_disabled": 0, "is_reserved": 0, "lat": 38.9326495, "type": "electric_scooter"}, {"fusion_lon": 0.0, "bike_id": "1cef99a5798a9a0ee29850bab2c5cd59", "name": "1cef99a5798a9a0ee29850bab2c5cd59", "rental_uris": {"android": "https://dc.lft.to/lastmile_qr_scan", "ios": "https://dc.lft.to/lastmile_qr_scan"}, "lon": -77.03098866666667, "fusion_lat": 0.0, "is_disabled": 0, "is_reserved": 0, "lat": 38.92868883333333, "type": "electric_scooter"}, {"fusion_lon": 0.0, "bike_id": "808aa9c99ee5dda8a80594922e39f775", "name": "808aa9c99ee5dda8a80594922e39f775", "rental_uris": {"android": "https://dc.lft.to/lastmile_qr_scan", "ios": "https://dc.lft.to/lastmile_qr_scan"}, "lon": -77.05039616666667, "fusion_lat": 0.0, "is_disabled": 0, "is_reserved": 0, "lat": 38.9251375, "type": "electric_scooter"}, {"fusion_lon": 0.0, "bike_id": "ad87dc865c21cf86de50e0f9d497d78f", "name": "ad87dc865c21cf86de50e0f9d497d78f", "rental_uris": {"android": "https://dc.lft.to/lastmile_qr_scan", "ios": "https://dc.lft.to/lastmile_qr_scan"}, "lon": -77.0476805, "fusion_lat": 0.0, "is_disabled": 0, "is_reserved": 0, "lat": 38.895842, "type": "electric_scooter"}, {"fusion_lon": 0.0, "bike_id": "23ab2c5deaf74686adb897785a07ab07", "name": "23ab2c5deaf74686adb897785a07ab07", "rental_uris": {"android": "https://dc.lft.to/lastmile_qr_scan", "ios": "https://dc.lft.to/lastmile_qr_scan"}, "lon": -77.032018, "fusion_lat": 0.0, "is_disabled": 0, "is_reserved": 0, "lat": 38.90030566666667, "type": "electric_scooter"}, {"fusion_lon": 0.0, "bike_id": "1b6d0dd63e0e5e0415698c0f85f40155", "name": "1b6d0dd63e0e5e0415698c0f85f40155", "rental_uris": {"android": "https://dc.lft.to/lastmile_qr_scan", "ios": "https://dc.lft.to/lastmile_qr_scan"}, "lon": -77.00580233333334, "fusion_lat": 0.0, "is_disabled": 0, "is_reserved": 0, "lat": 38.87190416666667, "type": "electric_scooter"}, {"fusion_lon": 0.0, "bike_id": "5268deabf4ea7eb0d4ad78711b56c0f5", "name": "5268deabf4ea7eb0d4ad78711b56c0f5", "rental_uris": {"android": "https://dc.lft.to/lastmile_qr_scan", "ios": "https://dc.lft.to/lastmile_qr_scan"}, "lon": -77.048661, "fusion_lat": 0.0, "is_disabled": 0, "is_reserved": 0, "lat": 38.892239833333335, "type": "electric_scooter"}, {"fusion_lon": 0.0, "bike_id": "c975b20b4871a15d827a47e9b7082d80", "name": "c975b20b4871a15d827a47e9b7082d80", "rental_uris": {"android": "https://dc.lft.to/lastmile_qr_scan", "ios": "https://dc.lft.to/lastmile_qr_scan"}, "lon": -76.9871845, "fusion_lat": 0.0, "is_disabled": 0, "is_reserved": 0, "lat": 38.88139533333333, "type": "electric_scooter"}, {"fusion_lon": 0.0, "bike_id": "c587ec955beeadbd9674d8c4d840a006", "name": "c587ec955beeadbd9674d8c4d840a006", "rental_uris": {"android": "https://dc.lft.to/lastmile_qr_scan", "ios": "https://dc.lft.to/lastmile_qr_scan"}, "lon": -77.0320815, "fusion_lat": 0.0, "is_disabled": 0, "is_reserved": 0, "lat": 38.9192885, "type": "electric_scooter"}, {"fusion_lon": 0.0, "bike_id": "5452754026cf0283bbd42550b8ab0bea", "name": "5452754026cf0283bbd42550b8ab0bea", "rental_uris": {"android": "https://dc.lft.to/lastmile_qr_scan", "ios": "https://dc.lft.to/lastmile_qr_scan"}, "lon": -77.03479166666666, "fusion_lat": 0.0, "is_disabled": 0, "is_reserved": 0, "lat": 38.917126333333336, "type": "electric_scooter"}, {"fusion_lon": 0.0, "bike_id": "1a4d95216927c6460853f5cd4e9b9ac8", "name": "1a4d95216927c6460853f5cd4e9b9ac8", "rental_uris": {"android": "https://dc.lft.to/lastmile_qr_scan", "ios": "https://dc.lft.to/lastmile_qr_scan"}, "lon": -77.073382, "fusion_lat": 0.0, "is_disabled": 0, "is_reserved": 0, "lat": 38.93490216666667, "type": "electric_scooter"}, {"fusion_lon": 0.0, "bike_id": "f331adce5f21735e055ddcb39c123435", "name": "f331adce5f21735e055ddcb39c123435", "rental_uris": {"android": "https://dc.lft.to/lastmile_qr_scan", "ios": "https://dc.lft.to/lastmile_qr_scan"}, "lon": -76.98669133333334, "fusion_lat": 0.0, "is_disabled": 0, "is_reserved": 0, "lat": 38.89959983333333, "type": "electric_bike"}, {"fusion_lon": 0.0, "bike_id": "3baf4356e071cb15a415619f057bd7cb", "name": "3baf4356e071cb15a415619f057bd7cb", "rental_uris": {"android": "https://dc.lft.to/lastmile_qr_scan", "ios": "https://dc.lft.to/lastmile_qr_scan"}, "lon": -76.96568716666667, "fusion_lat": 0.0, "is_disabled": 0, "is_reserved": 0, "lat": 38.87082866666667, "type": "electric_scooter"}, {"fusion_lon": 0.0, "bike_id": "d8c938fdfd8521cbebcff957517981f1", "name": "d8c938fdfd8521cbebcff957517981f1", "rental_uris": {"android": "https://dc.lft.to/lastmile_qr_scan", "ios": "https://dc.lft.to/lastmile_qr_scan"}, "lon": -77.03941816666666, "fusion_lat": 0.0, "is_disabled": 0, "is_reserved": 0, "lat": 38.928856333333336, "type": "electric_scooter"}, {"fusion_lon": 0.0, "bike_id": "770c572f4fb98efabef0d5e9e4eba9b9", "name": "770c572f4fb98efabef0d5e9e4eba9b9", "rental_uris": {"android": "https://dc.lft.to/lastmile_qr_scan", "ios": "https://dc.lft.to/lastmile_qr_scan"}, "lon": -77.04415533333334, "fusion_lat": 0.0, "is_disabled": 0, "is_reserved": 0, "lat": 38.91122, "type": "electric_scooter"}, {"fusion_lon": 0.0, "bike_id": "a928907ca2c11baaa03451eb9a481c06", "name": "a928907ca2c11baaa03451eb9a481c06", "rental_uris": {"android": "https://dc.lft.to/lastmile_qr_scan", "ios": "https://dc.lft.to/lastmile_qr_scan"}, "lon": -77.03438816666667, "fusion_lat": 0.0, "is_disabled": 0, "is_reserved": 0, "lat": 38.91810516666666, "type": "electric_scooter"}, {"fusion_lon": 0.0, "bike_id": "fe2b8bf1860b9f87ed7af161c6c32030", "name": "fe2b8bf1860b9f87ed7af161c6c32030", "rental_uris": {"android": "https://dc.lft.to/lastmile_qr_scan", "ios": "https://dc.lft.to/lastmile_qr_scan"}, "lon": -77.063802, "fusion_lat": 0.0, "is_disabled": 0, "is_reserved": 0, "lat": 38.9050845, "type": "electric_scooter"}, {"fusion_lon": 0.0, "bike_id": "f437f655612b3da8a7eef44012fb48c4", "name": "f437f655612b3da8a7eef44012fb48c4", "rental_uris": {"android": "https://dc.lft.to/lastmile_qr_scan", "ios": "https://dc.lft.to/lastmile_qr_scan"}, "lon": -77.0226005, "fusion_lat": 0.0, "is_disabled": 0, "is_reserved": 0, "lat": 38.92512683333333, "type": "electric_scooter"}, {"fusion_lon": 0.0, "bike_id": "ea8d63965673295f8487fa8351512b9e", "name": "ea8d63965673295f8487fa8351512b9e", "rental_uris": {"android": "https://dc.lft.to/lastmile_qr_scan", "ios": "https://dc.lft.to/lastmile_qr_scan"}, "lon": -77.046591, "fusion_lat": 0.0, "is_disabled": 0, "is_reserved": 0, "lat": 38.913641, "type": "electric_scooter"}, {"fusion_lon": 0.0, "bike_id": "d1e3f091ff3c62a42008522a182f4367", "name": "d1e3f091ff3c62a42008522a182f4367", "rental_uris": {"android": "https://dc.lft.to/lastmile_qr_scan", "ios": "https://dc.lft.to/lastmile_qr_scan"}, "lon": -77.02643533333334, "fusion_lat": 0.0, "is_disabled": 0, "is_reserved": 0, "lat": 38.93364833333333, "type": "electric_scooter"}, {"fusion_lon": 0.0, "bike_id": "5d76289a458f48672655a83b54910545", "name": "5d76289a458f48672655a83b54910545", "rental_uris": {"android": "https://dc.lft.to/lastmile_qr_scan", "ios": "https://dc.lft.to/lastmile_qr_scan"}, "lon": -77.00078416666666, "fusion_lat": 0.0, "is_disabled": 0, "is_reserved": 0, "lat": 38.8761825, "type": "electric_scooter"}, {"fusion_lon": 0.0, "bike_id": "e2f26aed46ca54b292960e9069365b97", "name": "e2f26aed46ca54b292960e9069365b97", "rental_uris": {"android": "https://dc.lft.to/lastmile_qr_scan", "ios": "https://dc.lft.to/lastmile_qr_scan"}, "lon": -77.0265485, "fusion_lat": 0.0, "is_disabled": 0, "is_reserved": 0, "lat": 38.892187, "type": "electric_scooter"}, {"fusion_lon": 0.0, "bike_id": "9f68dfb51c4932b814305ec1a1b380fc", "name": "9f68dfb51c4932b814305ec1a1b380fc", "rental_uris": {"android": "https://dc.lft.to/lastmile_qr_scan", "ios": "https://dc.lft.to/lastmile_qr_scan"}, "lon": -77.07548233333333, "fusion_lat": 0.0, "is_disabled": 0, "is_reserved": 0, "lat": 38.9208985, "type": "electric_scooter"}, {"fusion_lon": 0.0, "bike_id": "03ff57f3f8934c9825a9a6165ce5d588", "name": "03ff57f3f8934c9825a9a6165ce5d588", "rental_uris": {"android": "https://dc.lft.to/lastmile_qr_scan", "ios": "https://dc.lft.to/lastmile_qr_scan"}, "lon": -76.941967, "fusion_lat": 0.0, "is_disabled": 0, "is_reserved": 0, "lat": 38.90227633333333, "type": "electric_scooter"}, {"fusion_lon": 0.0, "bike_id": "0693f1c8dc54b03f392165e7046ad001", "name": "0693f1c8dc54b03f392165e7046ad001", "rental_uris": {"android": "https://dc.lft.to/lastmile_qr_scan", "ios": "https://dc.lft.to/lastmile_qr_scan"}, "lon": -76.98361166666666, "fusion_lat": 0.0, "is_disabled": 0, "is_reserved": 0, "lat": 38.887186666666665, "type": "electric_scooter"}, {"fusion_lon": 0.0, "bike_id": "c05d5a306c4c809083ff1e6c8f9d6833", "name": "c05d5a306c4c809083ff1e6c8f9d6833", "rental_uris": {"android": "https://dc.lft.to/lastmile_qr_scan", "ios": "https://dc.lft.to/lastmile_qr_scan"}, "lon": -76.994687, "fusion_lat": 0.0, "is_disabled": 0, "is_reserved": 0, "lat": 38.905459666666665, "type": "electric_scooter"}, {"fusion_lon": 0.0, "bike_id": "38ea46b1c5fe6b1f4700c6b4a64c66c1", "name": "38ea46b1c5fe6b1f4700c6b4a64c66c1", "rental_uris": {"android": "https://dc.lft.to/lastmile_qr_scan", "ios": "https://dc.lft.to/lastmile_qr_scan"}, "lon": -76.98036333333333, "fusion_lat": 0.0, "is_disabled": 0, "is_reserved": 0, "lat": 38.916796166666664, "type": "electric_scooter"}, {"fusion_lon": 0.0, "bike_id": "16349a22ea2e75d8564d9ee1fa65e39e", "name": "16349a22ea2e75d8564d9ee1fa65e39e", "rental_uris": {"android": "https://dc.lft.to/lastmile_qr_scan", "ios": "https://dc.lft.to/lastmile_qr_scan"}, "lon": -77.04807333333333, "fusion_lat": 0.0, "is_disabled": 0, "is_reserved": 0, "lat": 38.899622, "type": "electric_scooter"}, {"fusion_lon": 0.0, "bike_id": "c04b2566ddbe5ef6ce048f871295bfa6", "name": "c04b2566ddbe5ef6ce048f871295bfa6", "rental_uris": {"android": "https://dc.lft.to/lastmile_qr_scan", "ios": "https://dc.lft.to/lastmile_qr_scan"}, "lon": -77.04473483333334, "fusion_lat": 0.0, "is_disabled": 0, "is_reserved": 0, "lat": 38.90325683333333, "type": "electric_scooter"}, {"fusion_lon": 0.0, "bike_id": "cf69a936eab52527532f66dff32f0fd1", "name": "cf69a936eab52527532f66dff32f0fd1", "rental_uris": {"android": "https://dc.lft.to/lastmile_qr_scan", "ios": "https://dc.lft.to/lastmile_qr_scan"}, "lon": -77.01138583333334, "fusion_lat": 0.0, "is_disabled": 0, "is_reserved": 0, "lat": 38.917053, "type": "electric_scooter"}, {"fusion_lon": 0.0, "bike_id": "4c9cd0bf55a45b9cdb522ed7c9957543", "name": "4c9cd0bf55a45b9cdb522ed7c9957543", "rental_uris": {"android": "https://dc.lft.to/lastmile_qr_scan", "ios": "https://dc.lft.to/lastmile_qr_scan"}, "lon": -77.03322316666667, "fusion_lat": 0.0, "is_disabled": 0, "is_reserved": 0, "lat": 38.897599, "type": "electric_scooter"}, {"fusion_lon": 0.0, "bike_id": "3a120119920dd78d986eac7572a7f0d9", "name": "3a120119920dd78d986eac7572a7f0d9", "rental_uris": {"android": "https://dc.lft.to/lastmile_qr_scan", "ios": "https://dc.lft.to/lastmile_qr_scan"}, "lon": -77.08943883333333, "fusion_lat": 0.0, "is_disabled": 0, "is_reserved": 0, "lat": 38.841051, "type": "electric_bike"}, {"fusion_lon": 0.0, "bike_id": "2e3f85a96bf4f07059577a8a6de9db12", "name": "2e3f85a96bf4f07059577a8a6de9db12", "rental_uris": {"android": "https://dc.lft.to/lastmile_qr_scan", "ios": "https://dc.lft.to/lastmile_qr_scan"}, "lon": -77.05755033333334, "fusion_lat": 0.0, "is_disabled": 0, "is_reserved": 0, "lat": 38.9241735, "type": "electric_scooter"}, {"fusion_lon": 0.0, "bike_id": "44e5705e4ed73059c90b83f2fb6cf6bc", "name": "44e5705e4ed73059c90b83f2fb6cf6bc", "rental_uris": {"android": "https://dc.lft.to/lastmile_qr_scan", "ios": "https://dc.lft.to/lastmile_qr_scan"}, "lon": -77.03857616666667, "fusion_lat": 0.0, "is_disabled": 0, "is_reserved": 0, "lat": 38.925412, "type": "electric_bike"}, {"fusion_lon": 0.0, "bike_id": "856d2c17f617c6cdb669c6edfb9f2966", "name": "856d2c17f617c6cdb669c6edfb9f2966", "rental_uris": {"android": "https://dc.lft.to/lastmile_qr_scan", "ios": "https://dc.lft.to/lastmile_qr_scan"}, "lon": -77.12975733333333, "fusion_lat": 0.0, "is_disabled": 0, "is_reserved": 0, "lat": 38.7999045, "type": "electric_bike"}, {"fusion_lon": 0.0, "bike_id": "f560149259d527fa38ea8ec8d9cdd104", "name": "f560149259d527fa38ea8ec8d9cdd104", "rental_uris": {"android": "https://dc.lft.to/lastmile_qr_scan", "ios": "https://dc.lft.to/lastmile_qr_scan"}, "lon": -77.04772316666667, "fusion_lat": 0.0, "is_disabled": 0, "is_reserved": 0, "lat": 38.91766416666667, "type": "electric_scooter"}, {"fusion_lon": 0.0, "bike_id": "3d2fca082e897bf3045ede68e284fa3e", "name": "3d2fca082e897bf3045ede68e284fa3e", "rental_uris": {"android": "https://dc.lft.to/lastmile_qr_scan", "ios": "https://dc.lft.to/lastmile_qr_scan"}, "lon": -77.0349835, "fusion_lat": 0.0, "is_disabled": 0, "is_reserved": 0, "lat": 38.931614833333335, "type": "electric_scooter"}, {"fusion_lon": 0.0, "bike_id": "d41af06d868ff65eda7fba3ca264042c", "name": "d41af06d868ff65eda7fba3ca264042c", "rental_uris": {"android": "https://dc.lft.to/lastmile_qr_scan", "ios": "https://dc.lft.to/lastmile_qr_scan"}, "lon": -77.02929616666667, "fusion_lat": 0.0, "is_disabled": 0, "is_reserved": 0, "lat": 38.910329, "type": "electric_scooter"}, {"fusion_lon": 0.0, "bike_id": "06184663b33dfe12af78f24f7fae29be", "name": "06184663b33dfe12af78f24f7fae29be", "rental_uris": {"android": "https://dc.lft.to/lastmile_qr_scan", "ios": "https://dc.lft.to/lastmile_qr_scan"}, "lon": -77.03954216666666, "fusion_lat": 0.0, "is_disabled": 0, "is_reserved": 0, "lat": 38.8989005, "type": "electric_scooter"}, {"fusion_lon": 0.0, "bike_id": "88625ccdce10b2adfbdc84ddfee4ab20", "name": "88625ccdce10b2adfbdc84ddfee4ab20", "rental_uris": {"android": "https://dc.lft.to/lastmile_qr_scan", "ios": "https://dc.lft.to/lastmile_qr_scan"}, "lon": -77.03392583333333, "fusion_lat": 0.0, "is_disabled": 0, "is_reserved": 0, "lat": 38.92335466666667, "type": "electric_scooter"}, {"fusion_lon": 0.0, "bike_id": "888a61fa6c8a8b743131a81fa2b09b8f", "name": "888a61fa6c8a8b743131a81fa2b09b8f", "rental_uris": {"android": "https://dc.lft.to/lastmile_qr_scan", "ios": "https://dc.lft.to/lastmile_qr_scan"}, "lon": -77.041115, "fusion_lat": 0.0, "is_disabled": 0, "is_reserved": 0, "lat": 38.93469266666666, "type": "electric_scooter"}, {"fusion_lon": 0.0, "bike_id": "35ec8dc6cb1103e83f3fa2c4ce2409e0", "name": "35ec8dc6cb1103e83f3fa2c4ce2409e0", "rental_uris": {"android": "https://dc.lft.to/lastmile_qr_scan", "ios": "https://dc.lft.to/lastmile_qr_scan"}, "lon": -77.04185483333333, "fusion_lat": 0.0, "is_disabled": 0, "is_reserved": 0, "lat": 38.921843, "type": "electric_scooter"}, {"fusion_lon": 0.0, "bike_id": "6745bc994a2fe212e179c118d4ce28f6", "name": "6745bc994a2fe212e179c118d4ce28f6", "rental_uris": {"android": "https://dc.lft.to/lastmile_qr_scan", "ios": "https://dc.lft.to/lastmile_qr_scan"}, "lon": -77.01842716666667, "fusion_lat": 0.0, "is_disabled": 0, "is_reserved": 0, "lat": 38.919716, "type": "electric_scooter"}, {"fusion_lon": 0.0, "bike_id": "e101bcefc7c2162dd440649697360a53", "name": "e101bcefc7c2162dd440649697360a53", "rental_uris": {"android": "https://dc.lft.to/lastmile_qr_scan", "ios": "https://dc.lft.to/lastmile_qr_scan"}, "lon": -77.02207, "fusion_lat": 0.0, "is_disabled": 0, "is_reserved": 0, "lat": 38.882948999999996, "type": "electric_scooter"}, {"fusion_lon": 0.0, "bike_id": "455ca9620970827eebbb86bea14aaad0", "name": "455ca9620970827eebbb86bea14aaad0", "rental_uris": {"android": "https://dc.lft.to/lastmile_qr_scan", "ios": "https://dc.lft.to/lastmile_qr_scan"}, "lon": -77.016938, "fusion_lat": 0.0, "is_disabled": 0, "is_reserved": 0, "lat": 38.90764566666667, "type": "electric_scooter"}, {"fusion_lon": 0.0, "bike_id": "0eee7f2cabce7c7b41961c521cfe6cb5", "name": "0eee7f2cabce7c7b41961c521cfe6cb5", "rental_uris": {"android": "https://dc.lft.to/lastmile_qr_scan", "ios": "https://dc.lft.to/lastmile_qr_scan"}, "lon": -77.04488983333333, "fusion_lat": 0.0, "is_disabled": 0, "is_reserved": 0, "lat": 38.90899783333333, "type": "electric_scooter"}, {"fusion_lon": 0.0, "bike_id": "2dc344c65d142bc11196f1ee7786ef13", "name": "2dc344c65d142bc11196f1ee7786ef13", "rental_uris": {"android": "https://dc.lft.to/lastmile_qr_scan", "ios": "https://dc.lft.to/lastmile_qr_scan"}, "lon": -77.02805533333333, "fusion_lat": 0.0, "is_disabled": 0, "is_reserved": 0, "lat": 38.89234166666667, "type": "electric_scooter"}, {"fusion_lon": 0.0, "bike_id": "f3b793b87dd67d44ec3e3cb087fa54a1", "name": "f3b793b87dd67d44ec3e3cb087fa54a1", "rental_uris": {"android": "https://dc.lft.to/lastmile_qr_scan", "ios": "https://dc.lft.to/lastmile_qr_scan"}, "lon": -77.04654116666667, "fusion_lat": 0.0, "is_disabled": 0, "is_reserved": 0, "lat": 38.8922885, "type": "electric_scooter"}, {"fusion_lon": 0.0, "bike_id": "77931ba606d01b02cd1754e87159a046", "name": "77931ba606d01b02cd1754e87159a046", "rental_uris": {"android": "https://dc.lft.to/lastmile_qr_scan", "ios": "https://dc.lft.to/lastmile_qr_scan"}, "lon": -77.02158316666667, "fusion_lat": 0.0, "is_disabled": 0, "is_reserved": 0, "lat": 38.894495166666665, "type": "electric_scooter"}, {"fusion_lon": 0.0, "bike_id": "d25bf872cb5a9b7d5318528b3efbed12", "name": "d25bf872cb5a9b7d5318528b3efbed12", "rental_uris": {"android": "https://dc.lft.to/lastmile_qr_scan", "ios": "https://dc.lft.to/lastmile_qr_scan"}, "lon": -77.0220275, "fusion_lat": 0.0, "is_disabled": 0, "is_reserved": 0, "lat": 38.905405333333334, "type": "electric_scooter"}, {"fusion_lon": 0.0, "bike_id": "71ded9fdb74cafd10abbd45587841dec", "name": "71ded9fdb74cafd10abbd45587841dec", "rental_uris": {"android": "https://dc.lft.to/lastmile_qr_scan", "ios": "https://dc.lft.to/lastmile_qr_scan"}, "lon": -77.02826416666667, "fusion_lat": 0.0, "is_disabled": 0, "is_reserved": 0, "lat": 38.88661033333333, "type": "electric_scooter"}, {"fusion_lon": 0.0, "bike_id": "8dcae0ac11b1684697b1f1e352c22385", "name": "8dcae0ac11b1684697b1f1e352c22385", "rental_uris": {"android": "https://dc.lft.to/lastmile_qr_scan", "ios": "https://dc.lft.to/lastmile_qr_scan"}, "lon": -77.00136383333333, "fusion_lat": 0.0, "is_disabled": 0, "is_reserved": 0, "lat": 38.835847666666666, "type": "electric_bike"}, {"fusion_lon": 0.0, "bike_id": "fbcc3e617af2948756b43ea7e3dc8016", "name": "fbcc3e617af2948756b43ea7e3dc8016", "rental_uris": {"android": "https://dc.lft.to/lastmile_qr_scan", "ios": "https://dc.lft.to/lastmile_qr_scan"}, "lon": -77.029618, "fusion_lat": 0.0, "is_disabled": 0, "is_reserved": 0, "lat": 38.92564866666667, "type": "electric_scooter"}, {"fusion_lon": 0.0, "bike_id": "108e3ccc77bfae218a0458cee385253b", "name": "108e3ccc77bfae218a0458cee385253b", "rental_uris": {"android": "https://dc.lft.to/lastmile_qr_scan", "ios": "https://dc.lft.to/lastmile_qr_scan"}, "lon": -77.0107485, "fusion_lat": 0.0, "is_disabled": 0, "is_reserved": 0, "lat": 38.91410966666667, "type": "electric_scooter"}, {"fusion_lon": 0.0, "bike_id": "8b46ae658637de723123a032d31f5fa9", "name": "8b46ae658637de723123a032d31f5fa9", "rental_uris": {"android": "https://dc.lft.to/lastmile_qr_scan", "ios": "https://dc.lft.to/lastmile_qr_scan"}, "lon": -77.025917, "fusion_lat": 0.0, "is_disabled": 0, "is_reserved": 0, "lat": 38.91953483333333, "type": "electric_scooter"}, {"fusion_lon": 0.0, "bike_id": "7aeb677e1716a0d169f802163aa89205", "name": "7aeb677e1716a0d169f802163aa89205", "rental_uris": {"android": "https://dc.lft.to/lastmile_qr_scan", "ios": "https://dc.lft.to/lastmile_qr_scan"}, "lon": -77.0391015, "fusion_lat": 0.0, "is_disabled": 0, "is_reserved": 0, "lat": 38.944047833333336, "type": "electric_scooter"}, {"fusion_lon": 0.0, "bike_id": "54abf86c99b12dc1a6f99f48951f054f", "name": "54abf86c99b12dc1a6f99f48951f054f", "rental_uris": {"android": "https://dc.lft.to/lastmile_qr_scan", "ios": "https://dc.lft.to/lastmile_qr_scan"}, "lon": -77.00504066666667, "fusion_lat": 0.0, "is_disabled": 0, "is_reserved": 0, "lat": 38.875339833333335, "type": "electric_scooter"}, {"fusion_lon": 0.0, "bike_id": "3e656f369312188976e3482756509208", "name": "3e656f369312188976e3482756509208", "rental_uris": {"android": "https://dc.lft.to/lastmile_qr_scan", "ios": "https://dc.lft.to/lastmile_qr_scan"}, "lon": -76.99262483333334, "fusion_lat": 0.0, "is_disabled": 0, "is_reserved": 0, "lat": 38.881811666666664, "type": "electric_scooter"}, {"fusion_lon": 0.0, "bike_id": "1c861688ef0cdad458901669c20a043d", "name": "1c861688ef0cdad458901669c20a043d", "rental_uris": {"android": "https://dc.lft.to/lastmile_qr_scan", "ios": "https://dc.lft.to/lastmile_qr_scan"}, "lon": -77.04199083333333, "fusion_lat": 0.0, "is_disabled": 0, "is_reserved": 0, "lat": 38.892226666666666, "type": "electric_scooter"}, {"fusion_lon": 0.0, "bike_id": "9d7edbd0f7bae6fe7c2e200b024d064a", "name": "9d7edbd0f7bae6fe7c2e200b024d064a", "rental_uris": {"android": "https://dc.lft.to/lastmile_qr_scan", "ios": "https://dc.lft.to/lastmile_qr_scan"}, "lon": -77.02220716666666, "fusion_lat": 0.0, "is_disabled": 0, "is_reserved": 0, "lat": 38.924757166666666, "type": "electric_scooter"}, {"fusion_lon": 0.0, "bike_id": "7b31d445ed15df91cab3ded006952ab8", "name": "7b31d445ed15df91cab3ded006952ab8", "rental_uris": {"android": "https://dc.lft.to/lastmile_qr_scan", "ios": "https://dc.lft.to/lastmile_qr_scan"}, "lon": -77.021838, "fusion_lat": 0.0, "is_disabled": 0, "is_reserved": 0, "lat": 38.9150215, "type": "electric_scooter"}, {"fusion_lon": 0.0, "bike_id": "df989cfddf431d6dac43d3eee4c678a6", "name": "df989cfddf431d6dac43d3eee4c678a6", "rental_uris": {"android": "https://dc.lft.to/lastmile_qr_scan", "ios": "https://dc.lft.to/lastmile_qr_scan"}, "lon": -77.0955355, "fusion_lat": 0.0, "is_disabled": 0, "is_reserved": 0, "lat": 38.8585745, "type": "electric_bike"}, {"fusion_lon": 0.0, "bike_id": "e0c421729256ec548b77648dbbbf43b5", "name": "e0c421729256ec548b77648dbbbf43b5", "rental_uris": {"android": "https://dc.lft.to/lastmile_qr_scan", "ios": "https://dc.lft.to/lastmile_qr_scan"}, "lon": -77.032199, "fusion_lat": 0.0, "is_disabled": 0, "is_reserved": 0, "lat": 38.91571, "type": "electric_scooter"}, {"fusion_lon": 0.0, "bike_id": "06330787c013d08a94638907114fe61c", "name": "06330787c013d08a94638907114fe61c", "rental_uris": {"android": "https://dc.lft.to/lastmile_qr_scan", "ios": "https://dc.lft.to/lastmile_qr_scan"}, "lon": -77.12986583333333, "fusion_lat": 0.0, "is_disabled": 0, "is_reserved": 0, "lat": 38.807648, "type": "electric_bike"}, {"fusion_lon": 0.0, "bike_id": "61d31daceba6cc0ab66ae699763978f5", "name": "61d31daceba6cc0ab66ae699763978f5", "rental_uris": {"android": "https://dc.lft.to/lastmile_qr_scan", "ios": "https://dc.lft.to/lastmile_qr_scan"}, "lon": -77.00290083333333, "fusion_lat": 0.0, "is_disabled": 0, "is_reserved": 0, "lat": 38.89498566666666, "type": "electric_scooter"}, {"fusion_lon": 0.0, "bike_id": "c5099e4140ca08d14464eb4b57201c54", "name": "c5099e4140ca08d14464eb4b57201c54", "rental_uris": {"android": "https://dc.lft.to/lastmile_qr_scan", "ios": "https://dc.lft.to/lastmile_qr_scan"}, "lon": -77.0345925, "fusion_lat": 0.0, "is_disabled": 0, "is_reserved": 0, "lat": 38.9042865, "type": "electric_scooter"}, {"fusion_lon": 0.0, "bike_id": "fcc1da7ccb4eab91f1a7a33555e0b4ab", "name": "fcc1da7ccb4eab91f1a7a33555e0b4ab", "rental_uris": {"android": "https://dc.lft.to/lastmile_qr_scan", "ios": "https://dc.lft.to/lastmile_qr_scan"}, "lon": -77.02179283333334, "fusion_lat": 0.0, "is_disabled": 0, "is_reserved": 0, "lat": 38.89913, "type": "electric_scooter"}, {"fusion_lon": 0.0, "bike_id": "5d6d5871df51685ed14b2f5ed6000e98", "name": "5d6d5871df51685ed14b2f5ed6000e98", "rental_uris": {"android": "https://dc.lft.to/lastmile_qr_scan", "ios": "https://dc.lft.to/lastmile_qr_scan"}, "lon": -77.04330166666666, "fusion_lat": 0.0, "is_disabled": 0, "is_reserved": 0, "lat": 38.928016666666664, "type": "electric_scooter"}, {"fusion_lon": 0.0, "bike_id": "b069fcc0d9308a1f848b2c2083cf6668", "name": "b069fcc0d9308a1f848b2c2083cf6668", "rental_uris": {"android": "https://dc.lft.to/lastmile_qr_scan", "ios": "https://dc.lft.to/lastmile_qr_scan"}, "lon": -77.038248, "fusion_lat": 0.0, "is_disabled": 0, "is_reserved": 0, "lat": 38.9270715, "type": "electric_scooter"}, {"fusion_lon": 0.0, "bike_id": "e618d0ecef88b0dbff5b84b760a0a61d", "name": "e618d0ecef88b0dbff5b84b760a0a61d", "rental_uris": {"android": "https://dc.lft.to/lastmile_qr_scan", "ios": "https://dc.lft.to/lastmile_qr_scan"}, "lon": -77.045529, "fusion_lat": 0.0, "is_disabled": 0, "is_reserved": 0, "lat": 38.91114266666666, "type": "electric_scooter"}, {"fusion_lon": 0.0, "bike_id": "937859cd7ba71389a928f540d5b6e18d", "name": "937859cd7ba71389a928f540d5b6e18d", "rental_uris": {"android": "https://dc.lft.to/lastmile_qr_scan", "ios": "https://dc.lft.to/lastmile_qr_scan"}, "lon": -76.929212, "fusion_lat": 0.0, "is_disabled": 0, "is_reserved": 0, "lat": 38.8920665, "type": "electric_scooter"}, {"fusion_lon": 0.0, "bike_id": "397501132f99249206a3ec00a000446a", "name": "397501132f99249206a3ec00a000446a", "rental_uris": {"android": "https://dc.lft.to/lastmile_qr_scan", "ios": "https://dc.lft.to/lastmile_qr_scan"}, "lon": -76.94255833333334, "fusion_lat": 0.0, "is_disabled": 0, "is_reserved": 0, "lat": 38.898491166666666, "type": "electric_scooter"}, {"fusion_lon": 0.0, "bike_id": "45114f19b3722ddcf15260620b8a43b4", "name": "45114f19b3722ddcf15260620b8a43b4", "rental_uris": {"android": "https://dc.lft.to/lastmile_qr_scan", "ios": "https://dc.lft.to/lastmile_qr_scan"}, "lon": -77.0136155, "fusion_lat": 0.0, "is_disabled": 0, "is_reserved": 0, "lat": 38.872691833333334, "type": "electric_scooter"}, {"fusion_lon": 0.0, "bike_id": "344c1e5f869f0ba855438e714133bce7", "name": "344c1e5f869f0ba855438e714133bce7", "rental_uris": {"android": "https://dc.lft.to/lastmile_qr_scan", "ios": "https://dc.lft.to/lastmile_qr_scan"}, "lon": -77.02122, "fusion_lat": 0.0, "is_disabled": 0, "is_reserved": 0, "lat": 38.894088833333335, "type": "electric_scooter"}, {"fusion_lon": 0.0, "bike_id": "d3233a39cdd86e74ac3b5ba7ed85bd28", "name": "d3233a39cdd86e74ac3b5ba7ed85bd28", "rental_uris": {"android": "https://dc.lft.to/lastmile_qr_scan", "ios": "https://dc.lft.to/lastmile_qr_scan"}, "lon": -77.0321095, "fusion_lat": 0.0, "is_disabled": 0, "is_reserved": 0, "lat": 38.92679166666667, "type": "electric_scooter"}, {"fusion_lon": 0.0, "bike_id": "a5c803ce93d5b7e3ab0575f0862d6966", "name": "a5c803ce93d5b7e3ab0575f0862d6966", "rental_uris": {"android": "https://dc.lft.to/lastmile_qr_scan", "ios": "https://dc.lft.to/lastmile_qr_scan"}, "lon": -76.97851066666666, "fusion_lat": 0.0, "is_disabled": 0, "is_reserved": 0, "lat": 38.869687666666664, "type": "electric_scooter"}, {"fusion_lon": 0.0, "bike_id": "264192e56297f615d024da491ebb3a93", "name": "264192e56297f615d024da491ebb3a93", "rental_uris": {"android": "https://dc.lft.to/lastmile_qr_scan", "ios": "https://dc.lft.to/lastmile_qr_scan"}, "lon": -77.02554666666667, "fusion_lat": 0.0, "is_disabled": 0, "is_reserved": 0, "lat": 38.92488633333333, "type": "electric_scooter"}, {"fusion_lon": 0.0, "bike_id": "eb361aacb5a13b51d55594b95916e1da", "name": "eb361aacb5a13b51d55594b95916e1da", "rental_uris": {"android": "https://dc.lft.to/lastmile_qr_scan", "ios": "https://dc.lft.to/lastmile_qr_scan"}, "lon": -77.0501005, "fusion_lat": 0.0, "is_disabled": 0, "is_reserved": 0, "lat": 38.89867016666667, "type": "electric_scooter"}, {"fusion_lon": 0.0, "bike_id": "3d5f4900bd91099ee84cd73df734dc36", "name": "3d5f4900bd91099ee84cd73df734dc36", "rental_uris": {"android": "https://dc.lft.to/lastmile_qr_scan", "ios": "https://dc.lft.to/lastmile_qr_scan"}, "lon": -77.02151016666667, "fusion_lat": 0.0, "is_disabled": 0, "is_reserved": 0, "lat": 38.89409666666667, "type": "electric_scooter"}, {"fusion_lon": 0.0, "bike_id": "34c741780f68f6f5c50721184f319421", "name": "34c741780f68f6f5c50721184f319421", "rental_uris": {"android": "https://dc.lft.to/lastmile_qr_scan", "ios": "https://dc.lft.to/lastmile_qr_scan"}, "lon": -77.04354683333334, "fusion_lat": 0.0, "is_disabled": 0, "is_reserved": 0, "lat": 38.90045833333333, "type": "electric_scooter"}, {"fusion_lon": 0.0, "bike_id": "8a5b414cfc03085e3ce6e94694304d71", "name": "8a5b414cfc03085e3ce6e94694304d71", "rental_uris": {"android": "https://dc.lft.to/lastmile_qr_scan", "ios": "https://dc.lft.to/lastmile_qr_scan"}, "lon": -77.03851733333333, "fusion_lat": 0.0, "is_disabled": 0, "is_reserved": 0, "lat": 38.91968716666667, "type": "electric_scooter"}, {"fusion_lon": 0.0, "bike_id": "1eb3b152c1cd896174e3ac142e9f1022", "name": "1eb3b152c1cd896174e3ac142e9f1022", "rental_uris": {"android": "https://dc.lft.to/lastmile_qr_scan", "ios": "https://dc.lft.to/lastmile_qr_scan"}, "lon": -77.029755, "fusion_lat": 0.0, "is_disabled": 0, "is_reserved": 0, "lat": 38.918964333333335, "type": "electric_scooter"}, {"fusion_lon": 0.0, "bike_id": "875a1c6f5af364886f68d0c0745fedd9", "name": "875a1c6f5af364886f68d0c0745fedd9", "rental_uris": {"android": "https://dc.lft.to/lastmile_qr_scan", "ios": "https://dc.lft.to/lastmile_qr_scan"}, "lon": -76.997233, "fusion_lat": 0.0, "is_disabled": 0, "is_reserved": 0, "lat": 38.90001566666667, "type": "electric_scooter"}, {"fusion_lon": 0.0, "bike_id": "0d3a60fc3d6497303b29d8f62cc6e343", "name": "0d3a60fc3d6497303b29d8f62cc6e343", "rental_uris": {"android": "https://dc.lft.to/lastmile_qr_scan", "ios": "https://dc.lft.to/lastmile_qr_scan"}, "lon": -77.04477916666667, "fusion_lat": 0.0, "is_disabled": 0, "is_reserved": 0, "lat": 38.900134333333334, "type": "electric_scooter"}, {"fusion_lon": 0.0, "bike_id": "1197ee0959003fe04ae865210b7b610f", "name": "1197ee0959003fe04ae865210b7b610f", "rental_uris": {"android": "https://dc.lft.to/lastmile_qr_scan", "ios": "https://dc.lft.to/lastmile_qr_scan"}, "lon": -77.02098466666666, "fusion_lat": 0.0, "is_disabled": 0, "is_reserved": 0, "lat": 38.9100745, "type": "electric_scooter"}, {"fusion_lon": 0.0, "bike_id": "de424e3a6ac1cc57a4d39a3312737ab2", "name": "de424e3a6ac1cc57a4d39a3312737ab2", "rental_uris": {"android": "https://dc.lft.to/lastmile_qr_scan", "ios": "https://dc.lft.to/lastmile_qr_scan"}, "lon": -77.0056285, "fusion_lat": 0.0, "is_disabled": 0, "is_reserved": 0, "lat": 38.875628666666664, "type": "electric_scooter"}, {"fusion_lon": 0.0, "bike_id": "6fef8072698360b23f522109dad51300", "name": "6fef8072698360b23f522109dad51300", "rental_uris": {"android": "https://dc.lft.to/lastmile_qr_scan", "ios": "https://dc.lft.to/lastmile_qr_scan"}, "lon": -77.00924483333333, "fusion_lat": 0.0, "is_disabled": 0, "is_reserved": 0, "lat": 38.89606033333333, "type": "electric_scooter"}, {"fusion_lon": 0.0, "bike_id": "037f7c562d8fb640bb8e0e12e9200599", "name": "037f7c562d8fb640bb8e0e12e9200599", "rental_uris": {"android": "https://dc.lft.to/lastmile_qr_scan", "ios": "https://dc.lft.to/lastmile_qr_scan"}, "lon": -76.97330516666666, "fusion_lat": 0.0, "is_disabled": 0, "is_reserved": 0, "lat": 38.904068, "type": "electric_scooter"}, {"fusion_lon": 0.0, "bike_id": "de457fbab9ddfb7ea2f987fe69b1769c", "name": "de457fbab9ddfb7ea2f987fe69b1769c", "rental_uris": {"android": "https://dc.lft.to/lastmile_qr_scan", "ios": "https://dc.lft.to/lastmile_qr_scan"}, "lon": -76.99834916666667, "fusion_lat": 0.0, "is_disabled": 0, "is_reserved": 0, "lat": 38.83837833333333, "type": "electric_scooter"}, {"fusion_lon": 0.0, "bike_id": "03ace8c71898428b600ea6b77b7dffae", "name": "03ace8c71898428b600ea6b77b7dffae", "rental_uris": {"android": "https://dc.lft.to/lastmile_qr_scan", "ios": "https://dc.lft.to/lastmile_qr_scan"}, "lon": -77.022082, "fusion_lat": 0.0, "is_disabled": 0, "is_reserved": 0, "lat": 38.8939555, "type": "electric_scooter"}, {"fusion_lon": 0.0, "bike_id": "6fed918c71f6383c2fa403d563bcc209", "name": "6fed918c71f6383c2fa403d563bcc209", "rental_uris": {"android": "https://dc.lft.to/lastmile_qr_scan", "ios": "https://dc.lft.to/lastmile_qr_scan"}, "lon": -77.0454735, "fusion_lat": 0.0, "is_disabled": 0, "is_reserved": 0, "lat": 38.911138, "type": "electric_scooter"}, {"fusion_lon": 0.0, "bike_id": "10792613cc043355d1011dc003e5b7b8", "name": "10792613cc043355d1011dc003e5b7b8", "rental_uris": {"android": "https://dc.lft.to/lastmile_qr_scan", "ios": "https://dc.lft.to/lastmile_qr_scan"}, "lon": -77.0445755, "fusion_lat": 0.0, "is_disabled": 0, "is_reserved": 0, "lat": 38.909594166666665, "type": "electric_scooter"}, {"fusion_lon": 0.0, "bike_id": "b0ee63033387a8c06ba46a9825c0079d", "name": "b0ee63033387a8c06ba46a9825c0079d", "rental_uris": {"android": "https://dc.lft.to/lastmile_qr_scan", "ios": "https://dc.lft.to/lastmile_qr_scan"}, "lon": -77.05425983333333, "fusion_lat": 0.0, "is_disabled": 0, "is_reserved": 0, "lat": 38.923519166666665, "type": "electric_scooter"}, {"fusion_lon": 0.0, "bike_id": "643b0a6dc4ffb5cdc5ad3c1672bbc887", "name": "643b0a6dc4ffb5cdc5ad3c1672bbc887", "rental_uris": {"android": "https://dc.lft.to/lastmile_qr_scan", "ios": "https://dc.lft.to/lastmile_qr_scan"}, "lon": -77.01921416666667, "fusion_lat": 0.0, "is_disabled": 0, "is_reserved": 0, "lat": 38.922687333333336, "type": "electric_scooter"}, {"fusion_lon": 0.0, "bike_id": "8b97ee35b3537c724aee76c960c8aeda", "name": "8b97ee35b3537c724aee76c960c8aeda", "rental_uris": {"android": "https://dc.lft.to/lastmile_qr_scan", "ios": "https://dc.lft.to/lastmile_qr_scan"}, "lon": -77.023038, "fusion_lat": 0.0, "is_disabled": 0, "is_reserved": 0, "lat": 38.91836716666667, "type": "electric_scooter"}, {"fusion_lon": 0.0, "bike_id": "7c98ceaf2e894afb15f8ab0c07153a67", "name": "7c98ceaf2e894afb15f8ab0c07153a67", "rental_uris": {"android": "https://dc.lft.to/lastmile_qr_scan", "ios": "https://dc.lft.to/lastmile_qr_scan"}, "lon": -77.0460695, "fusion_lat": 0.0, "is_disabled": 0, "is_reserved": 0, "lat": 38.9172705, "type": "electric_scooter"}, {"fusion_lon": 0.0, "bike_id": "6f1a865283a125b74ea3998a3637e97c", "name": "6f1a865283a125b74ea3998a3637e97c", "rental_uris": {"android": "https://dc.lft.to/lastmile_qr_scan", "ios": "https://dc.lft.to/lastmile_qr_scan"}, "lon": -77.048643, "fusion_lat": 0.0, "is_disabled": 0, "is_reserved": 0, "lat": 38.892235, "type": "electric_scooter"}, {"fusion_lon": 0.0, "bike_id": "f3b4b29f5e8daa4a2def02b432918aa5", "name": "f3b4b29f5e8daa4a2def02b432918aa5", "rental_uris": {"android": "https://dc.lft.to/lastmile_qr_scan", "ios": "https://dc.lft.to/lastmile_qr_scan"}, "lon": -76.9865805, "fusion_lat": 0.0, "is_disabled": 0, "is_reserved": 0, "lat": 38.89354266666667, "type": "electric_scooter"}, {"fusion_lon": 0.0, "bike_id": "b8c896acd3ca9c27f8e8d98326471a7f", "name": "b8c896acd3ca9c27f8e8d98326471a7f", "rental_uris": {"android": "https://dc.lft.to/lastmile_qr_scan", "ios": "https://dc.lft.to/lastmile_qr_scan"}, "lon": -77.00042016666667, "fusion_lat": 0.0, "is_disabled": 0, "is_reserved": 0, "lat": 38.87522333333333, "type": "electric_scooter"}, {"fusion_lon": 0.0, "bike_id": "982142a919129e6d49536e1379ae54fc", "name": "982142a919129e6d49536e1379ae54fc", "rental_uris": {"android": "https://dc.lft.to/lastmile_qr_scan", "ios": "https://dc.lft.to/lastmile_qr_scan"}, "lon": -77.0058745, "fusion_lat": 0.0, "is_disabled": 0, "is_reserved": 0, "lat": 38.873995, "type": "electric_bike"}, {"fusion_lon": 0.0, "bike_id": "566969d2b0f5d4ef16ed9177726c4a38", "name": "566969d2b0f5d4ef16ed9177726c4a38", "rental_uris": {"android": "https://dc.lft.to/lastmile_qr_scan", "ios": "https://dc.lft.to/lastmile_qr_scan"}, "lon": -77.00745566666667, "fusion_lat": 0.0, "is_disabled": 0, "is_reserved": 0, "lat": 38.876731, "type": "electric_scooter"}, {"fusion_lon": 0.0, "bike_id": "81748ba91c6366c72be8f64b45f8e89c", "name": "81748ba91c6366c72be8f64b45f8e89c", "rental_uris": {"android": "https://dc.lft.to/lastmile_qr_scan", "ios": "https://dc.lft.to/lastmile_qr_scan"}, "lon": -77.01511383333333, "fusion_lat": 0.0, "is_disabled": 0, "is_reserved": 0, "lat": 38.95801733333333, "type": "electric_scooter"}, {"fusion_lon": 0.0, "bike_id": "6fafff507d409611fdcde8912ddfc320", "name": "6fafff507d409611fdcde8912ddfc320", "rental_uris": {"android": "https://dc.lft.to/lastmile_qr_scan", "ios": "https://dc.lft.to/lastmile_qr_scan"}, "lon": -77.04326383333333, "fusion_lat": 0.0, "is_disabled": 0, "is_reserved": 0, "lat": 38.92378083333333, "type": "electric_scooter"}, {"fusion_lon": 0.0, "bike_id": "1be3b2a08fdffa33f58e094a61f13cdd", "name": "1be3b2a08fdffa33f58e094a61f13cdd", "rental_uris": {"android": "https://dc.lft.to/lastmile_qr_scan", "ios": "https://dc.lft.to/lastmile_qr_scan"}, "lon": -77.00792316666667, "fusion_lat": 0.0, "is_disabled": 0, "is_reserved": 0, "lat": 38.876438666666665, "type": "electric_scooter"}, {"fusion_lon": 0.0, "bike_id": "d888e36e759fd05299396d2e40966d00", "name": "d888e36e759fd05299396d2e40966d00", "rental_uris": {"android": "https://dc.lft.to/lastmile_qr_scan", "ios": "https://dc.lft.to/lastmile_qr_scan"}, "lon": -77.03288183333333, "fusion_lat": 0.0, "is_disabled": 0, "is_reserved": 0, "lat": 38.92470383333333, "type": "electric_scooter"}, {"fusion_lon": 0.0, "bike_id": "452e2618fb900332b663542e4a888078", "name": "452e2618fb900332b663542e4a888078", "rental_uris": {"android": "https://dc.lft.to/lastmile_qr_scan", "ios": "https://dc.lft.to/lastmile_qr_scan"}, "lon": -77.03203966666666, "fusion_lat": 0.0, "is_disabled": 0, "is_reserved": 0, "lat": 38.91919933333333, "type": "electric_scooter"}, {"fusion_lon": 0.0, "bike_id": "904eb5db4897c0e51c73633232977667", "name": "904eb5db4897c0e51c73633232977667", "rental_uris": {"android": "https://dc.lft.to/lastmile_qr_scan", "ios": "https://dc.lft.to/lastmile_qr_scan"}, "lon": -77.03717316666666, "fusion_lat": 0.0, "is_disabled": 0, "is_reserved": 0, "lat": 38.917014, "type": "electric_scooter"}, {"fusion_lon": 0.0, "bike_id": "8b1c24a0fcb29af0df709e8e04760598", "name": "8b1c24a0fcb29af0df709e8e04760598", "rental_uris": {"android": "https://dc.lft.to/lastmile_qr_scan", "ios": "https://dc.lft.to/lastmile_qr_scan"}, "lon": -77.0286035, "fusion_lat": 0.0, "is_disabled": 0, "is_reserved": 0, "lat": 38.917008333333335, "type": "electric_scooter"}, {"fusion_lon": 0.0, "bike_id": "f36bc6e960b2807a5aa1eb6d717d9e4f", "name": "f36bc6e960b2807a5aa1eb6d717d9e4f", "rental_uris": {"android": "https://dc.lft.to/lastmile_qr_scan", "ios": "https://dc.lft.to/lastmile_qr_scan"}, "lon": -76.92583316666666, "fusion_lat": 0.0, "is_disabled": 0, "is_reserved": 0, "lat": 38.897734666666665, "type": "electric_scooter"}, {"fusion_lon": 0.0, "bike_id": "dbc96b66b6841057f7d8172bbc1b3bbd", "name": "dbc96b66b6841057f7d8172bbc1b3bbd", "rental_uris": {"android": "https://dc.lft.to/lastmile_qr_scan", "ios": "https://dc.lft.to/lastmile_qr_scan"}, "lon": -77.023729, "fusion_lat": 0.0, "is_disabled": 0, "is_reserved": 0, "lat": 38.914032, "type": "electric_scooter"}, {"fusion_lon": 0.0, "bike_id": "a5c172a50d8eb924f9e0fef85bd54223", "name": "a5c172a50d8eb924f9e0fef85bd54223", "rental_uris": {"android": "https://dc.lft.to/lastmile_qr_scan", "ios": "https://dc.lft.to/lastmile_qr_scan"}, "lon": -77.03280633333334, "fusion_lat": 0.0, "is_disabled": 0, "is_reserved": 0, "lat": 38.9396345, "type": "electric_scooter"}, {"fusion_lon": 0.0, "bike_id": "bd6b218a9e3283f5956fb0556a37bb46", "name": "bd6b218a9e3283f5956fb0556a37bb46", "rental_uris": {"android": "https://dc.lft.to/lastmile_qr_scan", "ios": "https://dc.lft.to/lastmile_qr_scan"}, "lon": -77.03244233333334, "fusion_lat": 0.0, "is_disabled": 0, "is_reserved": 0, "lat": 38.93466266666667, "type": "electric_scooter"}, {"fusion_lon": 0.0, "bike_id": "e9a5063fb55359a07f92bb163f8ab560", "name": "e9a5063fb55359a07f92bb163f8ab560", "rental_uris": {"android": "https://dc.lft.to/lastmile_qr_scan", "ios": "https://dc.lft.to/lastmile_qr_scan"}, "lon": -77.04138, "fusion_lat": 0.0, "is_disabled": 0, "is_reserved": 0, "lat": 38.8989355, "type": "electric_scooter"}, {"fusion_lon": 0.0, "bike_id": "a69b4feb9998ba6ddeb190b5782f177b", "name": "a69b4feb9998ba6ddeb190b5782f177b", "rental_uris": {"android": "https://dc.lft.to/lastmile_qr_scan", "ios": "https://dc.lft.to/lastmile_qr_scan"}, "lon": -76.99031816666667, "fusion_lat": 0.0, "is_disabled": 0, "is_reserved": 0, "lat": 38.898569, "type": "electric_scooter"}, {"fusion_lon": 0.0, "bike_id": "cda75dab33daed7422436e455726ea59", "name": "cda75dab33daed7422436e455726ea59", "rental_uris": {"android": "https://dc.lft.to/lastmile_qr_scan", "ios": "https://dc.lft.to/lastmile_qr_scan"}, "lon": -77.00150633333334, "fusion_lat": 0.0, "is_disabled": 0, "is_reserved": 0, "lat": 38.91082766666667, "type": "electric_scooter"}, {"fusion_lon": 0.0, "bike_id": "61c419ec5d94c64b625b4a3308b627cd", "name": "61c419ec5d94c64b625b4a3308b627cd", "rental_uris": {"android": "https://dc.lft.to/lastmile_qr_scan", "ios": "https://dc.lft.to/lastmile_qr_scan"}, "lon": -77.03908216666666, "fusion_lat": 0.0, "is_disabled": 0, "is_reserved": 0, "lat": 38.908325833333336, "type": "electric_scooter"}, {"fusion_lon": 0.0, "bike_id": "02d8e038b7f4aba38889289f6281b055", "name": "02d8e038b7f4aba38889289f6281b055", "rental_uris": {"android": "https://dc.lft.to/lastmile_qr_scan", "ios": "https://dc.lft.to/lastmile_qr_scan"}, "lon": -77.23326216666666, "fusion_lat": 0.0, "is_disabled": 0, "is_reserved": 0, "lat": 38.872845833333336, "type": "electric_bike"}, {"fusion_lon": 0.0, "bike_id": "6dc59d8368d694ee8856e643953ea178", "name": "6dc59d8368d694ee8856e643953ea178", "rental_uris": {"android": "https://dc.lft.to/lastmile_qr_scan", "ios": "https://dc.lft.to/lastmile_qr_scan"}, "lon": -77.04424466666667, "fusion_lat": 0.0, "is_disabled": 0, "is_reserved": 0, "lat": 38.93423666666666, "type": "electric_scooter"}, {"fusion_lon": 0.0, "bike_id": "69a2fc479433e4c223f5ed09229c6f0b", "name": "69a2fc479433e4c223f5ed09229c6f0b", "rental_uris": {"android": "https://dc.lft.to/lastmile_qr_scan", "ios": "https://dc.lft.to/lastmile_qr_scan"}, "lon": -77.02530866666666, "fusion_lat": 0.0, "is_disabled": 0, "is_reserved": 0, "lat": 38.9274245, "type": "electric_scooter"}, {"fusion_lon": 0.0, "bike_id": "3b20e9b01fee122f917693a1f63d003f", "name": "3b20e9b01fee122f917693a1f63d003f", "rental_uris": {"android": "https://dc.lft.to/lastmile_qr_scan", "ios": "https://dc.lft.to/lastmile_qr_scan"}, "lon": -77.04155933333334, "fusion_lat": 0.0, "is_disabled": 0, "is_reserved": 0, "lat": 38.9143655, "type": "electric_scooter"}, {"fusion_lon": 0.0, "bike_id": "f9418d2b195c40d3525b69bd26b59164", "name": "f9418d2b195c40d3525b69bd26b59164", "rental_uris": {"android": "https://dc.lft.to/lastmile_qr_scan", "ios": "https://dc.lft.to/lastmile_qr_scan"}, "lon": -77.032822, "fusion_lat": 0.0, "is_disabled": 0, "is_reserved": 0, "lat": 38.9343865, "type": "electric_scooter"}, {"fusion_lon": 0.0, "bike_id": "b60facac61d4a6b55ef496f6369f614d", "name": "b60facac61d4a6b55ef496f6369f614d", "rental_uris": {"android": "https://dc.lft.to/lastmile_qr_scan", "ios": "https://dc.lft.to/lastmile_qr_scan"}, "lon": -77.00716133333333, "fusion_lat": 0.0, "is_disabled": 0, "is_reserved": 0, "lat": 38.955292666666665, "type": "electric_scooter"}, {"fusion_lon": 0.0, "bike_id": "7e69fe8999b232ee7d6a3ea20eccb4c4", "name": "7e69fe8999b232ee7d6a3ea20eccb4c4", "rental_uris": {"android": "https://dc.lft.to/lastmile_qr_scan", "ios": "https://dc.lft.to/lastmile_qr_scan"}, "lon": -77.02250666666667, "fusion_lat": 0.0, "is_disabled": 0, "is_reserved": 0, "lat": 38.9250755, "type": "electric_scooter"}, {"fusion_lon": 0.0, "bike_id": "e836b7ae6314a0f4e35d6e1c5cfb6d0e", "name": "e836b7ae6314a0f4e35d6e1c5cfb6d0e", "rental_uris": {"android": "https://dc.lft.to/lastmile_qr_scan", "ios": "https://dc.lft.to/lastmile_qr_scan"}, "lon": -77.02826766666666, "fusion_lat": 0.0, "is_disabled": 0, "is_reserved": 0, "lat": 38.894927833333334, "type": "electric_scooter"}, {"fusion_lon": 0.0, "bike_id": "8f2d398a30d5fb48f7f5298e7a96ae3f", "name": "8f2d398a30d5fb48f7f5298e7a96ae3f", "rental_uris": {"android": "https://dc.lft.to/lastmile_qr_scan", "ios": "https://dc.lft.to/lastmile_qr_scan"}, "lon": -77.02473366666666, "fusion_lat": 0.0, "is_disabled": 0, "is_reserved": 0, "lat": 38.91701, "type": "electric_scooter"}, {"fusion_lon": 0.0, "bike_id": "4ec2eda62640ad22df587f32e59cd61e", "name": "4ec2eda62640ad22df587f32e59cd61e", "rental_uris": {"android": "https://dc.lft.to/lastmile_qr_scan", "ios": "https://dc.lft.to/lastmile_qr_scan"}, "lon": -77.0418925, "fusion_lat": 0.0, "is_disabled": 0, "is_reserved": 0, "lat": 38.90803116666667, "type": "electric_scooter"}, {"fusion_lon": 0.0, "bike_id": "2946cb6bf0d46dddad9b6f53f7f4a41a", "name": "2946cb6bf0d46dddad9b6f53f7f4a41a", "rental_uris": {"android": "https://dc.lft.to/lastmile_qr_scan", "ios": "https://dc.lft.to/lastmile_qr_scan"}, "lon": -77.0270345, "fusion_lat": 0.0, "is_disabled": 0, "is_reserved": 0, "lat": 38.969364666666664, "type": "electric_scooter"}, {"fusion_lon": 0.0, "bike_id": "baebaebbeb8146dfc8bcfae0dcc61359", "name": "baebaebbeb8146dfc8bcfae0dcc61359", "rental_uris": {"android": "https://dc.lft.to/lastmile_qr_scan", "ios": "https://dc.lft.to/lastmile_qr_scan"}, "lon": -76.99571033333334, "fusion_lat": 0.0, "is_disabled": 0, "is_reserved": 0, "lat": 38.862700833333335, "type": "electric_scooter"}, {"fusion_lon": 0.0, "bike_id": "a38bb011c79d5b2f786a5e156cb2b0b8", "name": "a38bb011c79d5b2f786a5e156cb2b0b8", "rental_uris": {"android": "https://dc.lft.to/lastmile_qr_scan", "ios": "https://dc.lft.to/lastmile_qr_scan"}, "lon": -77.066818, "fusion_lat": 0.0, "is_disabled": 0, "is_reserved": 0, "lat": 38.90367783333333, "type": "electric_scooter"}, {"fusion_lon": 0.0, "bike_id": "7f3dc5eb385a8661faefbc5c7580224e", "name": "7f3dc5eb385a8661faefbc5c7580224e", "rental_uris": {"android": "https://dc.lft.to/lastmile_qr_scan", "ios": "https://dc.lft.to/lastmile_qr_scan"}, "lon": -77.029736, "fusion_lat": 0.0, "is_disabled": 0, "is_reserved": 0, "lat": 38.931815, "type": "electric_scooter"}, {"fusion_lon": 0.0, "bike_id": "7a7e70bdf76543b2c6a3c19a1acd63d1", "name": "7a7e70bdf76543b2c6a3c19a1acd63d1", "rental_uris": {"android": "https://dc.lft.to/lastmile_qr_scan", "ios": "https://dc.lft.to/lastmile_qr_scan"}, "lon": -77.031462, "fusion_lat": 0.0, "is_disabled": 0, "is_reserved": 0, "lat": 38.915634, "type": "electric_scooter"}, {"fusion_lon": 0.0, "bike_id": "89b3b546df9511a62a2aa25d153e9f31", "name": "89b3b546df9511a62a2aa25d153e9f31", "rental_uris": {"android": "https://dc.lft.to/lastmile_qr_scan", "ios": "https://dc.lft.to/lastmile_qr_scan"}, "lon": -76.93380483333334, "fusion_lat": 0.0, "is_disabled": 0, "is_reserved": 0, "lat": 38.899088666666664, "type": "electric_scooter"}, {"fusion_lon": 0.0, "bike_id": "3b557af1725ed106002053016624843e", "name": "3b557af1725ed106002053016624843e", "rental_uris": {"android": "https://dc.lft.to/lastmile_qr_scan", "ios": "https://dc.lft.to/lastmile_qr_scan"}, "lon": -76.94877133333334, "fusion_lat": 0.0, "is_disabled": 0, "is_reserved": 0, "lat": 38.89555, "type": "electric_scooter"}, {"fusion_lon": 0.0, "bike_id": "cad97f63261c4c0cb6344b67d1302776", "name": "cad97f63261c4c0cb6344b67d1302776", "rental_uris": {"android": "https://dc.lft.to/lastmile_qr_scan", "ios": "https://dc.lft.to/lastmile_qr_scan"}, "lon": -77.04185933333333, "fusion_lat": 0.0, "is_disabled": 0, "is_reserved": 0, "lat": 38.920465166666666, "type": "electric_scooter"}, {"fusion_lon": 0.0, "bike_id": "573a72a9013b9465b137da4cf6670449", "name": "573a72a9013b9465b137da4cf6670449", "rental_uris": {"android": "https://dc.lft.to/lastmile_qr_scan", "ios": "https://dc.lft.to/lastmile_qr_scan"}, "lon": -76.999395, "fusion_lat": 0.0, "is_disabled": 0, "is_reserved": 0, "lat": 38.9087325, "type": "electric_scooter"}, {"fusion_lon": 0.0, "bike_id": "08fa1bbf8d776c98a5bf3654cfbcd906", "name": "08fa1bbf8d776c98a5bf3654cfbcd906", "rental_uris": {"android": "https://dc.lft.to/lastmile_qr_scan", "ios": "https://dc.lft.to/lastmile_qr_scan"}, "lon": -77.12652716666666, "fusion_lat": 0.0, "is_disabled": 0, "is_reserved": 0, "lat": 38.81914716666667, "type": "electric_bike"}, {"fusion_lon": 0.0, "bike_id": "78ec74b966ffdc5374602344a5a5db37", "name": "78ec74b966ffdc5374602344a5a5db37", "rental_uris": {"android": "https://dc.lft.to/lastmile_qr_scan", "ios": "https://dc.lft.to/lastmile_qr_scan"}, "lon": -77.0211515, "fusion_lat": 0.0, "is_disabled": 0, "is_reserved": 0, "lat": 38.902258333333336, "type": "electric_scooter"}, {"fusion_lon": 0.0, "bike_id": "94de3333f9d383d373fe860ad42e58f0", "name": "94de3333f9d383d373fe860ad42e58f0", "rental_uris": {"android": "https://dc.lft.to/lastmile_qr_scan", "ios": "https://dc.lft.to/lastmile_qr_scan"}, "lon": -77.04162533333333, "fusion_lat": 0.0, "is_disabled": 0, "is_reserved": 0, "lat": 38.89237133333334, "type": "electric_scooter"}, {"fusion_lon": 0.0, "bike_id": "6ed997b3d25b35ba8c4a4a192f49c257", "name": "6ed997b3d25b35ba8c4a4a192f49c257", "rental_uris": {"android": "https://dc.lft.to/lastmile_qr_scan", "ios": "https://dc.lft.to/lastmile_qr_scan"}, "lon": -77.04377583333333, "fusion_lat": 0.0, "is_disabled": 0, "is_reserved": 0, "lat": 38.90419933333333, "type": "electric_scooter"}, {"fusion_lon": 0.0, "bike_id": "9350aa9c57ddce4928fc3630e28bb44d", "name": "9350aa9c57ddce4928fc3630e28bb44d", "rental_uris": {"android": "https://dc.lft.to/lastmile_qr_scan", "ios": "https://dc.lft.to/lastmile_qr_scan"}, "lon": -77.063723, "fusion_lat": 0.0, "is_disabled": 0, "is_reserved": 0, "lat": 38.935660666666664, "type": "electric_scooter"}, {"fusion_lon": 0.0, "bike_id": "f06d5f1baa1d947132f4ba858ee21757", "name": "f06d5f1baa1d947132f4ba858ee21757", "rental_uris": {"android": "https://dc.lft.to/lastmile_qr_scan", "ios": "https://dc.lft.to/lastmile_qr_scan"}, "lon": -77.0467435, "fusion_lat": 0.0, "is_disabled": 0, "is_reserved": 0, "lat": 38.892686166666664, "type": "electric_scooter"}, {"fusion_lon": 0.0, "bike_id": "243ff57a948f7a6d7dcce9f97842079f", "name": "243ff57a948f7a6d7dcce9f97842079f", "rental_uris": {"android": "https://dc.lft.to/lastmile_qr_scan", "ios": "https://dc.lft.to/lastmile_qr_scan"}, "lon": -77.02012633333334, "fusion_lat": 0.0, "is_disabled": 0, "is_reserved": 0, "lat": 38.89227316666667, "type": "electric_scooter"}, {"fusion_lon": 0.0, "bike_id": "cc150de999d65c75fbc8512332e90a00", "name": "cc150de999d65c75fbc8512332e90a00", "rental_uris": {"android": "https://dc.lft.to/lastmile_qr_scan", "ios": "https://dc.lft.to/lastmile_qr_scan"}, "lon": -76.97325466666666, "fusion_lat": 0.0, "is_disabled": 0, "is_reserved": 0, "lat": 38.90485016666667, "type": "electric_scooter"}, {"fusion_lon": 0.0, "bike_id": "efa25c673b0f2893f5ea898c1e20f02d", "name": "efa25c673b0f2893f5ea898c1e20f02d", "rental_uris": {"android": "https://dc.lft.to/lastmile_qr_scan", "ios": "https://dc.lft.to/lastmile_qr_scan"}, "lon": -77.0434945, "fusion_lat": 0.0, "is_disabled": 0, "is_reserved": 0, "lat": 38.897324, "type": "electric_scooter"}, {"fusion_lon": 0.0, "bike_id": "2cc6d33c26993c1d7b06dfc43ba6b21b", "name": "2cc6d33c26993c1d7b06dfc43ba6b21b", "rental_uris": {"android": "https://dc.lft.to/lastmile_qr_scan", "ios": "https://dc.lft.to/lastmile_qr_scan"}, "lon": -77.02718433333334, "fusion_lat": 0.0, "is_disabled": 0, "is_reserved": 0, "lat": 38.90667633333333, "type": "electric_scooter"}, {"fusion_lon": 0.0, "bike_id": "5370a4ec970e5e4386b1d3d19c6e8964", "name": "5370a4ec970e5e4386b1d3d19c6e8964", "rental_uris": {"android": "https://dc.lft.to/lastmile_qr_scan", "ios": "https://dc.lft.to/lastmile_qr_scan"}, "lon": -76.928256, "fusion_lat": 0.0, "is_disabled": 0, "is_reserved": 0, "lat": 38.901810166666664, "type": "electric_scooter"}, {"fusion_lon": 0.0, "bike_id": "f934147d6701a31cbeca9a63fb521858", "name": "f934147d6701a31cbeca9a63fb521858", "rental_uris": {"android": "https://dc.lft.to/lastmile_qr_scan", "ios": "https://dc.lft.to/lastmile_qr_scan"}, "lon": -77.085277, "fusion_lat": 0.0, "is_disabled": 0, "is_reserved": 0, "lat": 38.93758833333333, "type": "electric_scooter"}, {"fusion_lon": 0.0, "bike_id": "c55ffd66dfc101f5efdad6da62fce6ef", "name": "c55ffd66dfc101f5efdad6da62fce6ef", "rental_uris": {"android": "https://dc.lft.to/lastmile_qr_scan", "ios": "https://dc.lft.to/lastmile_qr_scan"}, "lon": -77.041523, "fusion_lat": 0.0, "is_disabled": 0, "is_reserved": 0, "lat": 38.915543166666666, "type": "electric_scooter"}, {"fusion_lon": 0.0, "bike_id": "6324506e0ed4a80f7f751de688f9c2fe", "name": "6324506e0ed4a80f7f751de688f9c2fe", "rental_uris": {"android": "https://dc.lft.to/lastmile_qr_scan", "ios": "https://dc.lft.to/lastmile_qr_scan"}, "lon": -77.00923466666667, "fusion_lat": 0.0, "is_disabled": 0, "is_reserved": 0, "lat": 38.90767233333333, "type": "electric_scooter"}, {"fusion_lon": 0.0, "bike_id": "b6843bcfa5b246ddff316fee0d18f2b1", "name": "b6843bcfa5b246ddff316fee0d18f2b1", "rental_uris": {"android": "https://dc.lft.to/lastmile_qr_scan", "ios": "https://dc.lft.to/lastmile_qr_scan"}, "lon": -77.020144, "fusion_lat": 0.0, "is_disabled": 0, "is_reserved": 0, "lat": 38.892231833333334, "type": "electric_scooter"}, {"fusion_lon": 0.0, "bike_id": "2c058bdf487970dba9a06627975a8f79", "name": "2c058bdf487970dba9a06627975a8f79", "rental_uris": {"android": "https://dc.lft.to/lastmile_qr_scan", "ios": "https://dc.lft.to/lastmile_qr_scan"}, "lon": -77.04404483333333, "fusion_lat": 0.0, "is_disabled": 0, "is_reserved": 0, "lat": 38.90551266666667, "type": "electric_scooter"}, {"fusion_lon": 0.0, "bike_id": "01ca9aa45baa3ff9988bb981ffbb9636", "name": "01ca9aa45baa3ff9988bb981ffbb9636", "rental_uris": {"android": "https://dc.lft.to/lastmile_qr_scan", "ios": "https://dc.lft.to/lastmile_qr_scan"}, "lon": -77.03394666666667, "fusion_lat": 0.0, "is_disabled": 0, "is_reserved": 0, "lat": 38.938543333333335, "type": "electric_scooter"}, {"fusion_lon": 0.0, "bike_id": "92ec17943b973394b445519cd2a3efa8", "name": "92ec17943b973394b445519cd2a3efa8", "rental_uris": {"android": "https://dc.lft.to/lastmile_qr_scan", "ios": "https://dc.lft.to/lastmile_qr_scan"}, "lon": -77.00574766666666, "fusion_lat": 0.0, "is_disabled": 0, "is_reserved": 0, "lat": 38.91818216666667, "type": "electric_scooter"}, {"fusion_lon": 0.0, "bike_id": "b56dbd164a98adbe07bd41c6fd31dfe1", "name": "b56dbd164a98adbe07bd41c6fd31dfe1", "rental_uris": {"android": "https://dc.lft.to/lastmile_qr_scan", "ios": "https://dc.lft.to/lastmile_qr_scan"}, "lon": -77.23674666666666, "fusion_lat": 0.0, "is_disabled": 0, "is_reserved": 0, "lat": 38.92119233333333, "type": "electric_bike"}, {"fusion_lon": 0.0, "bike_id": "cd2c9133c5edda92fb66cc9f3d6e624b", "name": "cd2c9133c5edda92fb66cc9f3d6e624b", "rental_uris": {"android": "https://dc.lft.to/lastmile_qr_scan", "ios": "https://dc.lft.to/lastmile_qr_scan"}, "lon": -77.02810683333334, "fusion_lat": 0.0, "is_disabled": 0, "is_reserved": 0, "lat": 38.88509583333333, "type": "electric_scooter"}, {"fusion_lon": 0.0, "bike_id": "37a2767b1fc120a76eb8bba4179740f4", "name": "37a2767b1fc120a76eb8bba4179740f4", "rental_uris": {"android": "https://dc.lft.to/lastmile_qr_scan", "ios": "https://dc.lft.to/lastmile_qr_scan"}, "lon": -77.040589, "fusion_lat": 0.0, "is_disabled": 0, "is_reserved": 0, "lat": 38.91750916666667, "type": "electric_scooter"}, {"fusion_lon": 0.0, "bike_id": "b704a4e8785c67d963efcad6239b21af", "name": "b704a4e8785c67d963efcad6239b21af", "rental_uris": {"android": "https://dc.lft.to/lastmile_qr_scan", "ios": "https://dc.lft.to/lastmile_qr_scan"}, "lon": -76.98722466666666, "fusion_lat": 0.0, "is_disabled": 0, "is_reserved": 0, "lat": 38.86328183333333, "type": "electric_bike"}, {"fusion_lon": 0.0, "bike_id": "46ec798fce87332d564c1a338179bae8", "name": "46ec798fce87332d564c1a338179bae8", "rental_uris": {"android": "https://dc.lft.to/lastmile_qr_scan", "ios": "https://dc.lft.to/lastmile_qr_scan"}, "lon": -77.05106916666666, "fusion_lat": 0.0, "is_disabled": 0, "is_reserved": 0, "lat": 38.897903166666666, "type": "electric_scooter"}, {"fusion_lon": 0.0, "bike_id": "6c8eae874a2315a389ea0862095fcd1a", "name": "6c8eae874a2315a389ea0862095fcd1a", "rental_uris": {"android": "https://dc.lft.to/lastmile_qr_scan", "ios": "https://dc.lft.to/lastmile_qr_scan"}, "lon": -77.02881166666667, "fusion_lat": 0.0, "is_disabled": 0, "is_reserved": 0, "lat": 38.917044833333335, "type": "electric_scooter"}, {"fusion_lon": 0.0, "bike_id": "d508d95875e9848c06b0fc7ac86e1cfd", "name": "d508d95875e9848c06b0fc7ac86e1cfd", "rental_uris": {"android": "https://dc.lft.to/lastmile_qr_scan", "ios": "https://dc.lft.to/lastmile_qr_scan"}, "lon": -77.02184033333333, "fusion_lat": 0.0, "is_disabled": 0, "is_reserved": 0, "lat": 38.9141065, "type": "electric_scooter"}, {"fusion_lon": 0.0, "bike_id": "bf8691c291a53d96b92af2a71bae6cea", "name": "bf8691c291a53d96b92af2a71bae6cea", "rental_uris": {"android": "https://dc.lft.to/lastmile_qr_scan", "ios": "https://dc.lft.to/lastmile_qr_scan"}, "lon": -77.040238, "fusion_lat": 0.0, "is_disabled": 0, "is_reserved": 0, "lat": 38.898914166666664, "type": "electric_scooter"}, {"fusion_lon": 0.0, "bike_id": "35d114c26bc951ca7afcbb014fe788f5", "name": "35d114c26bc951ca7afcbb014fe788f5", "rental_uris": {"android": "https://dc.lft.to/lastmile_qr_scan", "ios": "https://dc.lft.to/lastmile_qr_scan"}, "lon": -77.127354, "fusion_lat": 0.0, "is_disabled": 0, "is_reserved": 0, "lat": 38.895689, "type": "electric_bike"}, {"fusion_lon": 0.0, "bike_id": "75a12bbb4156127c28ab61801dc204a7", "name": "75a12bbb4156127c28ab61801dc204a7", "rental_uris": {"android": "https://dc.lft.to/lastmile_qr_scan", "ios": "https://dc.lft.to/lastmile_qr_scan"}, "lon": -77.00827533333333, "fusion_lat": 0.0, "is_disabled": 0, "is_reserved": 0, "lat": 38.878716, "type": "electric_bike"}, {"fusion_lon": 0.0, "bike_id": "78213e4ad572f04b1ece4f71a8619550", "name": "78213e4ad572f04b1ece4f71a8619550", "rental_uris": {"android": "https://dc.lft.to/lastmile_qr_scan", "ios": "https://dc.lft.to/lastmile_qr_scan"}, "lon": -77.01230916666667, "fusion_lat": 0.0, "is_disabled": 0, "is_reserved": 0, "lat": 38.87088, "type": "electric_bike"}, {"fusion_lon": 0.0, "bike_id": "d7c4da64b4ba48e58b904cf9dc00458a", "name": "d7c4da64b4ba48e58b904cf9dc00458a", "rental_uris": {"android": "https://dc.lft.to/lastmile_qr_scan", "ios": "https://dc.lft.to/lastmile_qr_scan"}, "lon": -77.04714433333334, "fusion_lat": 0.0, "is_disabled": 0, "is_reserved": 0, "lat": 39.023943, "type": "electric_bike"}, {"fusion_lon": 0.0, "bike_id": "37797956d9c424cc8c75556dd0d7927c", "name": "37797956d9c424cc8c75556dd0d7927c", "rental_uris": {"android": "https://dc.lft.to/lastmile_qr_scan", "ios": "https://dc.lft.to/lastmile_qr_scan"}, "lon": -77.02823316666667, "fusion_lat": 0.0, "is_disabled": 0, "is_reserved": 0, "lat": 38.92966533333333, "type": "electric_scooter"}, {"fusion_lon": 0.0, "bike_id": "b6d38c944a5055d9673bf1b80b7b71b9", "name": "b6d38c944a5055d9673bf1b80b7b71b9", "rental_uris": {"android": "https://dc.lft.to/lastmile_qr_scan", "ios": "https://dc.lft.to/lastmile_qr_scan"}, "lon": -77.031719, "fusion_lat": 0.0, "is_disabled": 0, "is_reserved": 0, "lat": 38.917095833333335, "type": "electric_scooter"}, {"fusion_lon": 0.0, "bike_id": "1f8d732322680abcaa66988cbd2ec397", "name": "1f8d732322680abcaa66988cbd2ec397", "rental_uris": {"android": "https://dc.lft.to/lastmile_qr_scan", "ios": "https://dc.lft.to/lastmile_qr_scan"}, "lon": -77.01145783333334, "fusion_lat": 0.0, "is_disabled": 0, "is_reserved": 0, "lat": 38.883330666666666, "type": "electric_scooter"}, {"fusion_lon": 0.0, "bike_id": "e43b793d8d01e6fafff39859bac35e7c", "name": "e43b793d8d01e6fafff39859bac35e7c", "rental_uris": {"android": "https://dc.lft.to/lastmile_qr_scan", "ios": "https://dc.lft.to/lastmile_qr_scan"}, "lon": -77.01575716666666, "fusion_lat": 0.0, "is_disabled": 0, "is_reserved": 0, "lat": 38.876624166666666, "type": "electric_scooter"}, {"fusion_lon": 0.0, "bike_id": "7a7ba47ced2724e2116d4e3769a7a1c0", "name": "7a7ba47ced2724e2116d4e3769a7a1c0", "rental_uris": {"android": "https://dc.lft.to/lastmile_qr_scan", "ios": "https://dc.lft.to/lastmile_qr_scan"}, "lon": -77.0215715, "fusion_lat": 0.0, "is_disabled": 0, "is_reserved": 0, "lat": 38.9260395, "type": "electric_scooter"}, {"fusion_lon": 0.0, "bike_id": "000e76eff5acc7e8f0cc9f36452c667e", "name": "000e76eff5acc7e8f0cc9f36452c667e", "rental_uris": {"android": "https://dc.lft.to/lastmile_qr_scan", "ios": "https://dc.lft.to/lastmile_qr_scan"}, "lon": -77.023492, "fusion_lat": 0.0, "is_disabled": 0, "is_reserved": 0, "lat": 38.9299885, "type": "electric_scooter"}, {"fusion_lon": 0.0, "bike_id": "48353391374dd2d29c9de24a679912c3", "name": "48353391374dd2d29c9de24a679912c3", "rental_uris": {"android": "https://dc.lft.to/lastmile_qr_scan", "ios": "https://dc.lft.to/lastmile_qr_scan"}, "lon": -77.0261055, "fusion_lat": 0.0, "is_disabled": 0, "is_reserved": 0, "lat": 38.898535333333335, "type": "electric_scooter"}, {"fusion_lon": 0.0, "bike_id": "94569f38c500fcafcca9082b1992764c", "name": "94569f38c500fcafcca9082b1992764c", "rental_uris": {"android": "https://dc.lft.to/lastmile_qr_scan", "ios": "https://dc.lft.to/lastmile_qr_scan"}, "lon": -76.9798905, "fusion_lat": 0.0, "is_disabled": 0, "is_reserved": 0, "lat": 38.90739, "type": "electric_scooter"}, {"fusion_lon": 0.0, "bike_id": "0859f1f532a4acf70618ceebdd9aefab", "name": "0859f1f532a4acf70618ceebdd9aefab", "rental_uris": {"android": "https://dc.lft.to/lastmile_qr_scan", "ios": "https://dc.lft.to/lastmile_qr_scan"}, "lon": -77.04856116666667, "fusion_lat": 0.0, "is_disabled": 0, "is_reserved": 0, "lat": 38.904226333333334, "type": "electric_scooter"}, {"fusion_lon": 0.0, "bike_id": "6fa059180cf37613b1b13aa3e1b16d2b", "name": "6fa059180cf37613b1b13aa3e1b16d2b", "rental_uris": {"android": "https://dc.lft.to/lastmile_qr_scan", "ios": "https://dc.lft.to/lastmile_qr_scan"}, "lon": -77.06090233333333, "fusion_lat": 0.0, "is_disabled": 0, "is_reserved": 0, "lat": 38.902289, "type": "electric_scooter"}, {"fusion_lon": 0.0, "bike_id": "c2f2c6643c0a8bb6582758dc3bb1ec49", "name": "c2f2c6643c0a8bb6582758dc3bb1ec49", "rental_uris": {"android": "https://dc.lft.to/lastmile_qr_scan", "ios": "https://dc.lft.to/lastmile_qr_scan"}, "lon": -77.021051, "fusion_lat": 0.0, "is_disabled": 0, "is_reserved": 0, "lat": 38.927079, "type": "electric_scooter"}, {"fusion_lon": 0.0, "bike_id": "c2ce80f695ba1db055597cba9ac352cd", "name": "c2ce80f695ba1db055597cba9ac352cd", "rental_uris": {"android": "https://dc.lft.to/lastmile_qr_scan", "ios": "https://dc.lft.to/lastmile_qr_scan"}, "lon": -76.993122, "fusion_lat": 0.0, "is_disabled": 0, "is_reserved": 0, "lat": 38.946344333333336, "type": "electric_bike"}, {"fusion_lon": 0.0, "bike_id": "570479fd704903f549dabd90e04b4e0b", "name": "570479fd704903f549dabd90e04b4e0b", "rental_uris": {"android": "https://dc.lft.to/lastmile_qr_scan", "ios": "https://dc.lft.to/lastmile_qr_scan"}, "lon": -77.031551, "fusion_lat": 0.0, "is_disabled": 0, "is_reserved": 0, "lat": 38.89977416666667, "type": "electric_scooter"}, {"fusion_lon": 0.0, "bike_id": "b15bfed8fc2b64d640232d03cbe52ae2", "name": "b15bfed8fc2b64d640232d03cbe52ae2", "rental_uris": {"android": "https://dc.lft.to/lastmile_qr_scan", "ios": "https://dc.lft.to/lastmile_qr_scan"}, "lon": -77.02409183333333, "fusion_lat": 0.0, "is_disabled": 0, "is_reserved": 0, "lat": 38.92504483333333, "type": "electric_scooter"}, {"fusion_lon": 0.0, "bike_id": "2f9405be004506369407591e20062716", "name": "2f9405be004506369407591e20062716", "rental_uris": {"android": "https://dc.lft.to/lastmile_qr_scan", "ios": "https://dc.lft.to/lastmile_qr_scan"}, "lon": -76.958296, "fusion_lat": 0.0, "is_disabled": 0, "is_reserved": 0, "lat": 38.9200795, "type": "electric_bike"}, {"fusion_lon": 0.0, "bike_id": "5aae5990506cc3841c4eecd74763297f", "name": "5aae5990506cc3841c4eecd74763297f", "rental_uris": {"android": "https://dc.lft.to/lastmile_qr_scan", "ios": "https://dc.lft.to/lastmile_qr_scan"}, "lon": -77.00959633333333, "fusion_lat": 0.0, "is_disabled": 0, "is_reserved": 0, "lat": 38.907912, "type": "electric_scooter"}, {"fusion_lon": 0.0, "bike_id": "900793f9ed18f1e769f6cb9d282b0e2d", "name": "900793f9ed18f1e769f6cb9d282b0e2d", "rental_uris": {"android": "https://dc.lft.to/lastmile_qr_scan", "ios": "https://dc.lft.to/lastmile_qr_scan"}, "lon": -77.02034716666667, "fusion_lat": 0.0, "is_disabled": 0, "is_reserved": 0, "lat": 38.9243645, "type": "electric_scooter"}, {"fusion_lon": 0.0, "bike_id": "8166b3f9809b49c9b30eee7ec88a4bf3", "name": "8166b3f9809b49c9b30eee7ec88a4bf3", "rental_uris": {"android": "https://dc.lft.to/lastmile_qr_scan", "ios": "https://dc.lft.to/lastmile_qr_scan"}, "lon": -76.9520435, "fusion_lat": 0.0, "is_disabled": 0, "is_reserved": 0, "lat": 38.904812, "type": "electric_scooter"}, {"fusion_lon": 0.0, "bike_id": "32bc4d8c2459a278825e4872638f1fea", "name": "32bc4d8c2459a278825e4872638f1fea", "rental_uris": {"android": "https://dc.lft.to/lastmile_qr_scan", "ios": "https://dc.lft.to/lastmile_qr_scan"}, "lon": -77.0727945, "fusion_lat": 0.0, "is_disabled": 0, "is_reserved": 0, "lat": 38.934707333333336, "type": "electric_scooter"}, {"fusion_lon": 0.0, "bike_id": "0b0a490081574adb8f5f5a792e2a47f1", "name": "0b0a490081574adb8f5f5a792e2a47f1", "rental_uris": {"android": "https://dc.lft.to/lastmile_qr_scan", "ios": "https://dc.lft.to/lastmile_qr_scan"}, "lon": -77.0294335, "fusion_lat": 0.0, "is_disabled": 0, "is_reserved": 0, "lat": 38.9325025, "type": "electric_scooter"}, {"fusion_lon": 0.0, "bike_id": "7713e61768ac1fcc1a6c3c11b2b48abe", "name": "7713e61768ac1fcc1a6c3c11b2b48abe", "rental_uris": {"android": "https://dc.lft.to/lastmile_qr_scan", "ios": "https://dc.lft.to/lastmile_qr_scan"}, "lon": -77.01527666666667, "fusion_lat": 0.0, "is_disabled": 0, "is_reserved": 0, "lat": 38.887412166666664, "type": "electric_scooter"}, {"fusion_lon": 0.0, "bike_id": "baf73f3a96260c76f5b0b11e52eedab1", "name": "baf73f3a96260c76f5b0b11e52eedab1", "rental_uris": {"android": "https://dc.lft.to/lastmile_qr_scan", "ios": "https://dc.lft.to/lastmile_qr_scan"}, "lon": -77.04648433333334, "fusion_lat": 0.0, "is_disabled": 0, "is_reserved": 0, "lat": 38.899664333333334, "type": "electric_scooter"}, {"fusion_lon": 0.0, "bike_id": "021e719514188f3913f6b637ee3f6b3a", "name": "021e719514188f3913f6b637ee3f6b3a", "rental_uris": {"android": "https://dc.lft.to/lastmile_qr_scan", "ios": "https://dc.lft.to/lastmile_qr_scan"}, "lon": -77.02203283333333, "fusion_lat": 0.0, "is_disabled": 0, "is_reserved": 0, "lat": 38.894512166666665, "type": "electric_scooter"}, {"fusion_lon": 0.0, "bike_id": "f814a60a0be8234e656ee0ff2388fafc", "name": "f814a60a0be8234e656ee0ff2388fafc", "rental_uris": {"android": "https://dc.lft.to/lastmile_qr_scan", "ios": "https://dc.lft.to/lastmile_qr_scan"}, "lon": -76.92313133333333, "fusion_lat": 0.0, "is_disabled": 0, "is_reserved": 0, "lat": 38.893907, "type": "electric_scooter"}, {"fusion_lon": 0.0, "bike_id": "379c683a7c3613799867c3800e605815", "name": "379c683a7c3613799867c3800e605815", "rental_uris": {"android": "https://dc.lft.to/lastmile_qr_scan", "ios": "https://dc.lft.to/lastmile_qr_scan"}, "lon": -77.01926783333333, "fusion_lat": 0.0, "is_disabled": 0, "is_reserved": 0, "lat": 38.902483833333335, "type": "electric_scooter"}, {"fusion_lon": 0.0, "bike_id": "ef13e7795f5d27328959cd63fcf55e8e", "name": "ef13e7795f5d27328959cd63fcf55e8e", "rental_uris": {"android": "https://dc.lft.to/lastmile_qr_scan", "ios": "https://dc.lft.to/lastmile_qr_scan"}, "lon": -77.0356965, "fusion_lat": 0.0, "is_disabled": 0, "is_reserved": 0, "lat": 38.917671166666665, "type": "electric_scooter"}, {"fusion_lon": 0.0, "bike_id": "cb1e5c45c76b30c1328ba44de9d4ffab", "name": "cb1e5c45c76b30c1328ba44de9d4ffab", "rental_uris": {"android": "https://dc.lft.to/lastmile_qr_scan", "ios": "https://dc.lft.to/lastmile_qr_scan"}, "lon": -77.06621066666666, "fusion_lat": 0.0, "is_disabled": 0, "is_reserved": 0, "lat": 38.906107166666665, "type": "electric_scooter"}, {"fusion_lon": 0.0, "bike_id": "4bccc53e001dc5f5001d1662dbe5a573", "name": "4bccc53e001dc5f5001d1662dbe5a573", "rental_uris": {"android": "https://dc.lft.to/lastmile_qr_scan", "ios": "https://dc.lft.to/lastmile_qr_scan"}, "lon": -77.06274233333333, "fusion_lat": 0.0, "is_disabled": 0, "is_reserved": 0, "lat": 38.9026045, "type": "electric_scooter"}, {"fusion_lon": 0.0, "bike_id": "39809104486f85dbc6538de803e2c3f9", "name": "39809104486f85dbc6538de803e2c3f9", "rental_uris": {"android": "https://dc.lft.to/lastmile_qr_scan", "ios": "https://dc.lft.to/lastmile_qr_scan"}, "lon": -77.01880816666667, "fusion_lat": 0.0, "is_disabled": 0, "is_reserved": 0, "lat": 38.876906, "type": "electric_scooter"}, {"fusion_lon": 0.0, "bike_id": "338a1b885140c89d2f302a1fb37ffe7d", "name": "338a1b885140c89d2f302a1fb37ffe7d", "rental_uris": {"android": "https://dc.lft.to/lastmile_qr_scan", "ios": "https://dc.lft.to/lastmile_qr_scan"}, "lon": -77.03258, "fusion_lat": 0.0, "is_disabled": 0, "is_reserved": 0, "lat": 38.931325, "type": "electric_scooter"}, {"fusion_lon": 0.0, "bike_id": "2bb463a1ab82c8b2244f2804da71a96d", "name": "2bb463a1ab82c8b2244f2804da71a96d", "rental_uris": {"android": "https://dc.lft.to/lastmile_qr_scan", "ios": "https://dc.lft.to/lastmile_qr_scan"}, "lon": -77.0295845, "fusion_lat": 0.0, "is_disabled": 0, "is_reserved": 0, "lat": 38.8993035, "type": "electric_scooter"}, {"fusion_lon": 0.0, "bike_id": "12fbb4d6ce3308686e62d4ad1eba10bf", "name": "12fbb4d6ce3308686e62d4ad1eba10bf", "rental_uris": {"android": "https://dc.lft.to/lastmile_qr_scan", "ios": "https://dc.lft.to/lastmile_qr_scan"}, "lon": -77.03823216666666, "fusion_lat": 0.0, "is_disabled": 0, "is_reserved": 0, "lat": 38.918911666666666, "type": "electric_scooter"}, {"fusion_lon": 0.0, "bike_id": "453a2194ba0c3549e810c19328155dde", "name": "453a2194ba0c3549e810c19328155dde", "rental_uris": {"android": "https://dc.lft.to/lastmile_qr_scan", "ios": "https://dc.lft.to/lastmile_qr_scan"}, "lon": -77.02328666666666, "fusion_lat": 0.0, "is_disabled": 0, "is_reserved": 0, "lat": 38.9230275, "type": "electric_scooter"}, {"fusion_lon": 0.0, "bike_id": "e94a3af0fb6da893630f4ef47be51318", "name": "e94a3af0fb6da893630f4ef47be51318", "rental_uris": {"android": "https://dc.lft.to/lastmile_qr_scan", "ios": "https://dc.lft.to/lastmile_qr_scan"}, "lon": -77.079406, "fusion_lat": 0.0, "is_disabled": 0, "is_reserved": 0, "lat": 38.919200833333335, "type": "electric_scooter"}, {"fusion_lon": 0.0, "bike_id": "f95aec72331012b842c021d1c86ea59c", "name": "f95aec72331012b842c021d1c86ea59c", "rental_uris": {"android": "https://dc.lft.to/lastmile_qr_scan", "ios": "https://dc.lft.to/lastmile_qr_scan"}, "lon": -77.045947, "fusion_lat": 0.0, "is_disabled": 0, "is_reserved": 0, "lat": 38.91422466666667, "type": "electric_scooter"}, {"fusion_lon": 0.0, "bike_id": "7a986c16dc7a601d1687ce21318a49c9", "name": "7a986c16dc7a601d1687ce21318a49c9", "rental_uris": {"android": "https://dc.lft.to/lastmile_qr_scan", "ios": "https://dc.lft.to/lastmile_qr_scan"}, "lon": -77.03477966666667, "fusion_lat": 0.0, "is_disabled": 0, "is_reserved": 0, "lat": 38.88487583333333, "type": "electric_scooter"}, {"fusion_lon": 0.0, "bike_id": "1a13c284f515a8c3a8f544c9fc71c880", "name": "1a13c284f515a8c3a8f544c9fc71c880", "rental_uris": {"android": "https://dc.lft.to/lastmile_qr_scan", "ios": "https://dc.lft.to/lastmile_qr_scan"}, "lon": -76.99502766666667, "fusion_lat": 0.0, "is_disabled": 0, "is_reserved": 0, "lat": 38.904715, "type": "electric_scooter"}, {"fusion_lon": 0.0, "bike_id": "7e4278f0830b5004c7516d3a6c45a25a", "name": "7e4278f0830b5004c7516d3a6c45a25a", "rental_uris": {"android": "https://dc.lft.to/lastmile_qr_scan", "ios": "https://dc.lft.to/lastmile_qr_scan"}, "lon": -77.01824433333333, "fusion_lat": 0.0, "is_disabled": 0, "is_reserved": 0, "lat": 38.92235483333333, "type": "electric_scooter"}, {"fusion_lon": 0.0, "bike_id": "6b1748fa41a6e6360f5c704c57d755dd", "name": "6b1748fa41a6e6360f5c704c57d755dd", "rental_uris": {"android": "https://dc.lft.to/lastmile_qr_scan", "ios": "https://dc.lft.to/lastmile_qr_scan"}, "lon": -77.03185233333333, "fusion_lat": 0.0, "is_disabled": 0, "is_reserved": 0, "lat": 38.9182245, "type": "electric_scooter"}, {"fusion_lon": 0.0, "bike_id": "b03f86e6c5ce238300a051758ffb239c", "name": "b03f86e6c5ce238300a051758ffb239c", "rental_uris": {"android": "https://dc.lft.to/lastmile_qr_scan", "ios": "https://dc.lft.to/lastmile_qr_scan"}, "lon": -77.02410433333333, "fusion_lat": 0.0, "is_disabled": 0, "is_reserved": 0, "lat": 38.900113, "type": "electric_scooter"}, {"fusion_lon": 0.0, "bike_id": "ca33efb6cfb9174400154e85272ef4e0", "name": "ca33efb6cfb9174400154e85272ef4e0", "rental_uris": {"android": "https://dc.lft.to/lastmile_qr_scan", "ios": "https://dc.lft.to/lastmile_qr_scan"}, "lon": -77.03495433333333, "fusion_lat": 0.0, "is_disabled": 0, "is_reserved": 0, "lat": 38.9233215, "type": "electric_scooter"}, {"fusion_lon": 0.0, "bike_id": "03d46bcd83fa86cfa06866c63fdd6e4a", "name": "03d46bcd83fa86cfa06866c63fdd6e4a", "rental_uris": {"android": "https://dc.lft.to/lastmile_qr_scan", "ios": "https://dc.lft.to/lastmile_qr_scan"}, "lon": -77.01081616666667, "fusion_lat": 0.0, "is_disabled": 0, "is_reserved": 0, "lat": 38.8940325, "type": "electric_scooter"}, {"fusion_lon": 0.0, "bike_id": "32d75654d5bef79c94c79feb6a8c8925", "name": "32d75654d5bef79c94c79feb6a8c8925", "rental_uris": {"android": "https://dc.lft.to/lastmile_qr_scan", "ios": "https://dc.lft.to/lastmile_qr_scan"}, "lon": -76.98344966666667, "fusion_lat": 0.0, "is_disabled": 0, "is_reserved": 0, "lat": 38.93524016666667, "type": "electric_bike"}, {"fusion_lon": 0.0, "bike_id": "4821a078364bde7ecd87b42fb7241b81", "name": "4821a078364bde7ecd87b42fb7241b81", "rental_uris": {"android": "https://dc.lft.to/lastmile_qr_scan", "ios": "https://dc.lft.to/lastmile_qr_scan"}, "lon": -77.02539583333333, "fusion_lat": 0.0, "is_disabled": 0, "is_reserved": 0, "lat": 38.940892833333336, "type": "electric_scooter"}, {"fusion_lon": 0.0, "bike_id": "4bcaadc98683b653c53690b70c4b94cb", "name": "4bcaadc98683b653c53690b70c4b94cb", "rental_uris": {"android": "https://dc.lft.to/lastmile_qr_scan", "ios": "https://dc.lft.to/lastmile_qr_scan"}, "lon": -77.02620183333333, "fusion_lat": 0.0, "is_disabled": 0, "is_reserved": 0, "lat": 38.884296166666665, "type": "electric_scooter"}, {"fusion_lon": 0.0, "bike_id": "f8cc45c8cc7105973372e13cec3486be", "name": "f8cc45c8cc7105973372e13cec3486be", "rental_uris": {"android": "https://dc.lft.to/lastmile_qr_scan", "ios": "https://dc.lft.to/lastmile_qr_scan"}, "lon": -77.00933133333334, "fusion_lat": 0.0, "is_disabled": 0, "is_reserved": 0, "lat": 38.87724566666667, "type": "electric_scooter"}, {"fusion_lon": 0.0, "bike_id": "1ce298169a271cd4fe5d16a3b4925bcb", "name": "1ce298169a271cd4fe5d16a3b4925bcb", "rental_uris": {"android": "https://dc.lft.to/lastmile_qr_scan", "ios": "https://dc.lft.to/lastmile_qr_scan"}, "lon": -77.04037733333334, "fusion_lat": 0.0, "is_disabled": 0, "is_reserved": 0, "lat": 38.921655666666666, "type": "electric_scooter"}, {"fusion_lon": 0.0, "bike_id": "ed934d356f6c7f096e3d572e334d9ecc", "name": "ed934d356f6c7f096e3d572e334d9ecc", "rental_uris": {"android": "https://dc.lft.to/lastmile_qr_scan", "ios": "https://dc.lft.to/lastmile_qr_scan"}, "lon": -77.01916183333333, "fusion_lat": 0.0, "is_disabled": 0, "is_reserved": 0, "lat": 38.9237405, "type": "electric_scooter"}, {"fusion_lon": 0.0, "bike_id": "5e03d2ea463b1947bc8a0b480e62a5d4", "name": "5e03d2ea463b1947bc8a0b480e62a5d4", "rental_uris": {"android": "https://dc.lft.to/lastmile_qr_scan", "ios": "https://dc.lft.to/lastmile_qr_scan"}, "lon": -77.02212916666667, "fusion_lat": 0.0, "is_disabled": 0, "is_reserved": 0, "lat": 38.920614, "type": "electric_scooter"}, {"fusion_lon": 0.0, "bike_id": "77cf06993a3f0a906d4c02f2233440da", "name": "77cf06993a3f0a906d4c02f2233440da", "rental_uris": {"android": "https://dc.lft.to/lastmile_qr_scan", "ios": "https://dc.lft.to/lastmile_qr_scan"}, "lon": -77.00064216666667, "fusion_lat": 0.0, "is_disabled": 0, "is_reserved": 0, "lat": 38.873769333333335, "type": "electric_scooter"}, {"fusion_lon": 0.0, "bike_id": "a8ed66bb8f91e8c6e2de5b625f0b332d", "name": "a8ed66bb8f91e8c6e2de5b625f0b332d", "rental_uris": {"android": "https://dc.lft.to/lastmile_qr_scan", "ios": "https://dc.lft.to/lastmile_qr_scan"}, "lon": -76.99522516666667, "fusion_lat": 0.0, "is_disabled": 0, "is_reserved": 0, "lat": 38.90010133333333, "type": "electric_scooter"}, {"fusion_lon": 0.0, "bike_id": "721d70053270ccecc47aa3e6f7e59c51", "name": "721d70053270ccecc47aa3e6f7e59c51", "rental_uris": {"android": "https://dc.lft.to/lastmile_qr_scan", "ios": "https://dc.lft.to/lastmile_qr_scan"}, "lon": -77.02308383333333, "fusion_lat": 0.0, "is_disabled": 0, "is_reserved": 0, "lat": 38.917893, "type": "electric_scooter"}, {"fusion_lon": 0.0, "bike_id": "a0ded8c94269c202facd3fb33c11f6bc", "name": "a0ded8c94269c202facd3fb33c11f6bc", "rental_uris": {"android": "https://dc.lft.to/lastmile_qr_scan", "ios": "https://dc.lft.to/lastmile_qr_scan"}, "lon": -77.0318095, "fusion_lat": 0.0, "is_disabled": 0, "is_reserved": 0, "lat": 38.91187883333333, "type": "electric_scooter"}, {"fusion_lon": 0.0, "bike_id": "0720117e25daa53dfec78303d41d1184", "name": "0720117e25daa53dfec78303d41d1184", "rental_uris": {"android": "https://dc.lft.to/lastmile_qr_scan", "ios": "https://dc.lft.to/lastmile_qr_scan"}, "lon": -77.23377733333334, "fusion_lat": 0.0, "is_disabled": 0, "is_reserved": 0, "lat": 38.9248185, "type": "electric_bike"}, {"fusion_lon": 0.0, "bike_id": "8d5eb75fa98d205f788a69b8052e1811", "name": "8d5eb75fa98d205f788a69b8052e1811", "rental_uris": {"android": "https://dc.lft.to/lastmile_qr_scan", "ios": "https://dc.lft.to/lastmile_qr_scan"}, "lon": -77.04333466666667, "fusion_lat": 0.0, "is_disabled": 0, "is_reserved": 0, "lat": 38.892235, "type": "electric_scooter"}, {"fusion_lon": 0.0, "bike_id": "11f464982ea31c8248ea1bb4e7798df6", "name": "11f464982ea31c8248ea1bb4e7798df6", "rental_uris": {"android": "https://dc.lft.to/lastmile_qr_scan", "ios": "https://dc.lft.to/lastmile_qr_scan"}, "lon": -77.02443766666667, "fusion_lat": 0.0, "is_disabled": 0, "is_reserved": 0, "lat": 38.933579, "type": "electric_scooter"}, {"fusion_lon": 0.0, "bike_id": "17bcbf20daa7a470d2d9a472962cb185", "name": "17bcbf20daa7a470d2d9a472962cb185", "rental_uris": {"android": "https://dc.lft.to/lastmile_qr_scan", "ios": "https://dc.lft.to/lastmile_qr_scan"}, "lon": -76.9516525, "fusion_lat": 0.0, "is_disabled": 0, "is_reserved": 0, "lat": 39.08435333333333, "type": "electric_bike"}, {"fusion_lon": 0.0, "bike_id": "e08fe31870aa3df8f3011e7d464a5b05", "name": "e08fe31870aa3df8f3011e7d464a5b05", "rental_uris": {"android": "https://dc.lft.to/lastmile_qr_scan", "ios": "https://dc.lft.to/lastmile_qr_scan"}, "lon": -77.039457, "fusion_lat": 0.0, "is_disabled": 0, "is_reserved": 0, "lat": 38.946266666666666, "type": "electric_scooter"}, {"fusion_lon": 0.0, "bike_id": "09a1814afc41b18ef8815a1b96ce2ba0", "name": "09a1814afc41b18ef8815a1b96ce2ba0", "rental_uris": {"android": "https://dc.lft.to/lastmile_qr_scan", "ios": "https://dc.lft.to/lastmile_qr_scan"}, "lon": -77.02111766666667, "fusion_lat": 0.0, "is_disabled": 0, "is_reserved": 0, "lat": 38.89300583333333, "type": "electric_scooter"}, {"fusion_lon": 0.0, "bike_id": "d1e6f6c4c28b288b27182478222ca78b", "name": "d1e6f6c4c28b288b27182478222ca78b", "rental_uris": {"android": "https://dc.lft.to/lastmile_qr_scan", "ios": "https://dc.lft.to/lastmile_qr_scan"}, "lon": -76.973459, "fusion_lat": 0.0, "is_disabled": 0, "is_reserved": 0, "lat": 38.9277175, "type": "electric_scooter"}, {"fusion_lon": 0.0, "bike_id": "351ef706cd0fd6f2fbb22c6173bbf1c4", "name": "351ef706cd0fd6f2fbb22c6173bbf1c4", "rental_uris": {"android": "https://dc.lft.to/lastmile_qr_scan", "ios": "https://dc.lft.to/lastmile_qr_scan"}, "lon": -77.035576, "fusion_lat": 0.0, "is_disabled": 0, "is_reserved": 0, "lat": 38.904861, "type": "electric_scooter"}, {"fusion_lon": 0.0, "bike_id": "044f4bc52ee7a1f556a7bbec2e1b6b71", "name": "044f4bc52ee7a1f556a7bbec2e1b6b71", "rental_uris": {"android": "https://dc.lft.to/lastmile_qr_scan", "ios": "https://dc.lft.to/lastmile_qr_scan"}, "lon": -77.0247805, "fusion_lat": 0.0, "is_disabled": 0, "is_reserved": 0, "lat": 38.918740666666665, "type": "electric_scooter"}, {"fusion_lon": 0.0, "bike_id": "90916145b21793e98b97e19647e79a10", "name": "90916145b21793e98b97e19647e79a10", "rental_uris": {"android": "https://dc.lft.to/lastmile_qr_scan", "ios": "https://dc.lft.to/lastmile_qr_scan"}, "lon": -77.04369166666666, "fusion_lat": 0.0, "is_disabled": 0, "is_reserved": 0, "lat": 38.892235166666666, "type": "electric_scooter"}, {"fusion_lon": 0.0, "bike_id": "8c6fe82c87cbd5550972c801868538bc", "name": "8c6fe82c87cbd5550972c801868538bc", "rental_uris": {"android": "https://dc.lft.to/lastmile_qr_scan", "ios": "https://dc.lft.to/lastmile_qr_scan"}, "lon": -77.0332825, "fusion_lat": 0.0, "is_disabled": 0, "is_reserved": 0, "lat": 38.92444, "type": "electric_scooter"}, {"fusion_lon": 0.0, "bike_id": "42b6dba447cef307bc2fb1995090bea0", "name": "42b6dba447cef307bc2fb1995090bea0", "rental_uris": {"android": "https://dc.lft.to/lastmile_qr_scan", "ios": "https://dc.lft.to/lastmile_qr_scan"}, "lon": -77.01525283333334, "fusion_lat": 0.0, "is_disabled": 0, "is_reserved": 0, "lat": 38.8842905, "type": "electric_scooter"}, {"fusion_lon": 0.0, "bike_id": "c17170d01ce3db78d75be222bb12af6d", "name": "c17170d01ce3db78d75be222bb12af6d", "rental_uris": {"android": "https://dc.lft.to/lastmile_qr_scan", "ios": "https://dc.lft.to/lastmile_qr_scan"}, "lon": -76.9375595, "fusion_lat": 0.0, "is_disabled": 0, "is_reserved": 0, "lat": 38.890438833333334, "type": "electric_scooter"}, {"fusion_lon": 0.0, "bike_id": "d49251c5ab9f4e90d49c125d76f525f8", "name": "d49251c5ab9f4e90d49c125d76f525f8", "rental_uris": {"android": "https://dc.lft.to/lastmile_qr_scan", "ios": "https://dc.lft.to/lastmile_qr_scan"}, "lon": -76.9326655, "fusion_lat": 0.0, "is_disabled": 0, "is_reserved": 0, "lat": 38.88749583333333, "type": "electric_scooter"}, {"fusion_lon": 0.0, "bike_id": "b6c2e0c90bec188388daa9ee8b5814ef", "name": "b6c2e0c90bec188388daa9ee8b5814ef", "rental_uris": {"android": "https://dc.lft.to/lastmile_qr_scan", "ios": "https://dc.lft.to/lastmile_qr_scan"}, "lon": -77.02309916666667, "fusion_lat": 0.0, "is_disabled": 0, "is_reserved": 0, "lat": 38.91764516666667, "type": "electric_scooter"}, {"fusion_lon": 0.0, "bike_id": "86cd460577992d7a1c2e0918f141b954", "name": "86cd460577992d7a1c2e0918f141b954", "rental_uris": {"android": "https://dc.lft.to/lastmile_qr_scan", "ios": "https://dc.lft.to/lastmile_qr_scan"}, "lon": -77.0202835, "fusion_lat": 0.0, "is_disabled": 0, "is_reserved": 0, "lat": 38.924418833333334, "type": "electric_scooter"}, {"fusion_lon": 0.0, "bike_id": "a9d5e2183aa2cdfbe3a4675780936a8c", "name": "a9d5e2183aa2cdfbe3a4675780936a8c", "rental_uris": {"android": "https://dc.lft.to/lastmile_qr_scan", "ios": "https://dc.lft.to/lastmile_qr_scan"}, "lon": -77.0285795, "fusion_lat": 0.0, "is_disabled": 0, "is_reserved": 0, "lat": 38.91695883333333, "type": "electric_scooter"}, {"fusion_lon": 0.0, "bike_id": "488ebc89c6b05024404af09062354bf5", "name": "488ebc89c6b05024404af09062354bf5", "rental_uris": {"android": "https://dc.lft.to/lastmile_qr_scan", "ios": "https://dc.lft.to/lastmile_qr_scan"}, "lon": -77.210169, "fusion_lat": 0.0, "is_disabled": 0, "is_reserved": 0, "lat": 38.925970166666666, "type": "electric_bike"}, {"fusion_lon": 0.0, "bike_id": "b37c381344f291b76226479b3599c8a9", "name": "b37c381344f291b76226479b3599c8a9", "rental_uris": {"android": "https://dc.lft.to/lastmile_qr_scan", "ios": "https://dc.lft.to/lastmile_qr_scan"}, "lon": -77.00334816666667, "fusion_lat": 0.0, "is_disabled": 0, "is_reserved": 0, "lat": 38.89503083333334, "type": "electric_scooter"}, {"fusion_lon": 0.0, "bike_id": "607bc0998502bbee097a421d0b913e9f", "name": "607bc0998502bbee097a421d0b913e9f", "rental_uris": {"android": "https://dc.lft.to/lastmile_qr_scan", "ios": "https://dc.lft.to/lastmile_qr_scan"}, "lon": -76.99844133333333, "fusion_lat": 0.0, "is_disabled": 0, "is_reserved": 0, "lat": 38.900520666666665, "type": "electric_scooter"}, {"fusion_lon": 0.0, "bike_id": "b4607cc47b6db99e635f4059c9867951", "name": "b4607cc47b6db99e635f4059c9867951", "rental_uris": {"android": "https://dc.lft.to/lastmile_qr_scan", "ios": "https://dc.lft.to/lastmile_qr_scan"}, "lon": -77.03870366666666, "fusion_lat": 0.0, "is_disabled": 0, "is_reserved": 0, "lat": 38.920220666666665, "type": "electric_scooter"}, {"fusion_lon": 0.0, "bike_id": "2fa95f9aacd6efea2a79422564b7263a", "name": "2fa95f9aacd6efea2a79422564b7263a", "rental_uris": {"android": "https://dc.lft.to/lastmile_qr_scan", "ios": "https://dc.lft.to/lastmile_qr_scan"}, "lon": -77.02136033333333, "fusion_lat": 0.0, "is_disabled": 0, "is_reserved": 0, "lat": 38.91109183333333, "type": "electric_scooter"}, {"fusion_lon": 0.0, "bike_id": "a8d1829314b91eb9df7b5367049769ae", "name": "a8d1829314b91eb9df7b5367049769ae", "rental_uris": {"android": "https://dc.lft.to/lastmile_qr_scan", "ios": "https://dc.lft.to/lastmile_qr_scan"}, "lon": -77.03827866666667, "fusion_lat": 0.0, "is_disabled": 0, "is_reserved": 0, "lat": 38.91261733333333, "type": "electric_scooter"}, {"fusion_lon": 0.0, "bike_id": "caf636af3b06d6055334f37942c86d50", "name": "caf636af3b06d6055334f37942c86d50", "rental_uris": {"android": "https://dc.lft.to/lastmile_qr_scan", "ios": "https://dc.lft.to/lastmile_qr_scan"}, "lon": -77.04682683333333, "fusion_lat": 0.0, "is_disabled": 0, "is_reserved": 0, "lat": 38.8922555, "type": "electric_scooter"}, {"fusion_lon": 0.0, "bike_id": "a64e7fc6ed2c53a68b2339353639c309", "name": "a64e7fc6ed2c53a68b2339353639c309", "rental_uris": {"android": "https://dc.lft.to/lastmile_qr_scan", "ios": "https://dc.lft.to/lastmile_qr_scan"}, "lon": -77.034012, "fusion_lat": 0.0, "is_disabled": 0, "is_reserved": 0, "lat": 38.938502, "type": "electric_scooter"}, {"fusion_lon": 0.0, "bike_id": "3b241086ed107c6871b01a66ec940ec2", "name": "3b241086ed107c6871b01a66ec940ec2", "rental_uris": {"android": "https://dc.lft.to/lastmile_qr_scan", "ios": "https://dc.lft.to/lastmile_qr_scan"}, "lon": -77.03854616666666, "fusion_lat": 0.0, "is_disabled": 0, "is_reserved": 0, "lat": 38.910366333333336, "type": "electric_scooter"}, {"fusion_lon": 0.0, "bike_id": "f3b8be7d8116d4ed24a89e4c6b40be01", "name": "f3b8be7d8116d4ed24a89e4c6b40be01", "rental_uris": {"android": "https://dc.lft.to/lastmile_qr_scan", "ios": "https://dc.lft.to/lastmile_qr_scan"}, "lon": -77.043736, "fusion_lat": 0.0, "is_disabled": 0, "is_reserved": 0, "lat": 38.90414366666667, "type": "electric_scooter"}, {"fusion_lon": 0.0, "bike_id": "3ddd289fe3f4726766ec328819c92158", "name": "3ddd289fe3f4726766ec328819c92158", "rental_uris": {"android": "https://dc.lft.to/lastmile_qr_scan", "ios": "https://dc.lft.to/lastmile_qr_scan"}, "lon": -77.030187, "fusion_lat": 0.0, "is_disabled": 0, "is_reserved": 0, "lat": 38.911865, "type": "electric_scooter"}, {"fusion_lon": 0.0, "bike_id": "de29df92f6737a39f12e29f1aade5a63", "name": "de29df92f6737a39f12e29f1aade5a63", "rental_uris": {"android": "https://dc.lft.to/lastmile_qr_scan", "ios": "https://dc.lft.to/lastmile_qr_scan"}, "lon": -77.06379266666667, "fusion_lat": 0.0, "is_disabled": 0, "is_reserved": 0, "lat": 38.90608266666667, "type": "electric_scooter"}, {"fusion_lon": 0.0, "bike_id": "8749e63a4c9f43d21476757e589501df", "name": "8749e63a4c9f43d21476757e589501df", "rental_uris": {"android": "https://dc.lft.to/lastmile_qr_scan", "ios": "https://dc.lft.to/lastmile_qr_scan"}, "lon": -77.0454565, "fusion_lat": 0.0, "is_disabled": 0, "is_reserved": 0, "lat": 38.911174, "type": "electric_scooter"}, {"fusion_lon": 0.0, "bike_id": "ec11529e417aa0db5367736a216062b0", "name": "ec11529e417aa0db5367736a216062b0", "rental_uris": {"android": "https://dc.lft.to/lastmile_qr_scan", "ios": "https://dc.lft.to/lastmile_qr_scan"}, "lon": -77.01386833333333, "fusion_lat": 0.0, "is_disabled": 0, "is_reserved": 0, "lat": 38.904778666666665, "type": "electric_scooter"}, {"fusion_lon": 0.0, "bike_id": "b816a1b5158c34818d959c89d1cb5ada", "name": "b816a1b5158c34818d959c89d1cb5ada", "rental_uris": {"android": "https://dc.lft.to/lastmile_qr_scan", "ios": "https://dc.lft.to/lastmile_qr_scan"}, "lon": -77.01399816666667, "fusion_lat": 0.0, "is_disabled": 0, "is_reserved": 0, "lat": 38.892234333333334, "type": "electric_scooter"}, {"fusion_lon": 0.0, "bike_id": "4d9b54d159d9e20f207bd7ed5e1956bb", "name": "4d9b54d159d9e20f207bd7ed5e1956bb", "rental_uris": {"android": "https://dc.lft.to/lastmile_qr_scan", "ios": "https://dc.lft.to/lastmile_qr_scan"}, "lon": -77.03343333333333, "fusion_lat": 0.0, "is_disabled": 0, "is_reserved": 0, "lat": 38.92750016666667, "type": "electric_scooter"}, {"fusion_lon": 0.0, "bike_id": "1196f21dece511bcca5354436bc4ca55", "name": "1196f21dece511bcca5354436bc4ca55", "rental_uris": {"android": "https://dc.lft.to/lastmile_qr_scan", "ios": "https://dc.lft.to/lastmile_qr_scan"}, "lon": -77.00348583333333, "fusion_lat": 0.0, "is_disabled": 0, "is_reserved": 0, "lat": 38.899229, "type": "electric_scooter"}, {"fusion_lon": 0.0, "bike_id": "0fb3f49a9d00cfce7770c7b35b8d969e", "name": "0fb3f49a9d00cfce7770c7b35b8d969e", "rental_uris": {"android": "https://dc.lft.to/lastmile_qr_scan", "ios": "https://dc.lft.to/lastmile_qr_scan"}, "lon": -77.02006533333333, "fusion_lat": 0.0, "is_disabled": 0, "is_reserved": 0, "lat": 38.91056916666667, "type": "electric_scooter"}, {"fusion_lon": 0.0, "bike_id": "f072bc7c2f25590d9e9f7a31e9a0236f", "name": "f072bc7c2f25590d9e9f7a31e9a0236f", "rental_uris": {"android": "https://dc.lft.to/lastmile_qr_scan", "ios": "https://dc.lft.to/lastmile_qr_scan"}, "lon": -77.01645483333333, "fusion_lat": 0.0, "is_disabled": 0, "is_reserved": 0, "lat": 38.929336166666666, "type": "electric_scooter"}, {"fusion_lon": 0.0, "bike_id": "aacccebd07e178c626b8ba49a156157e", "name": "aacccebd07e178c626b8ba49a156157e", "rental_uris": {"android": "https://dc.lft.to/lastmile_qr_scan", "ios": "https://dc.lft.to/lastmile_qr_scan"},