{"data": {"bikes": [{"is_disabled": 0, "is_reserved": 0, "fusion_lat": 0.0, "lat": 38.90294766666667, "fusion_lon": 0.0, "rental_uris": {"ios": "https://dc.lft.to/lastmile_qr_scan", "android": "https://dc.lft.to/lastmile_qr_scan"}, "lon": -77.01219783333333, "bike_id": "3273748fdf2877947dd7f9f1e7c54fa2", "type": "electric_scooter", "name": "3273748fdf2877947dd7f9f1e7c54fa2"}, {"is_disabled": 0, "is_reserved": 0, "fusion_lat": 0.0, "lat": 38.8427945, "fusion_lon": 0.0, "rental_uris": {"ios": "https://dc.lft.to/lastmile_qr_scan", "android": "https://dc.lft.to/lastmile_qr_scan"}, "lon": -76.98842366666666, "bike_id": "d37d4a6cb4919fbe71da4ee7e1893dc6", "type": "electric_bike", "name": "d37d4a6cb4919fbe71da4ee7e1893dc6"}, {"is_disabled": 0, "is_reserved": 0, "fusion_lat": 0.0, "lat": 38.945904166666665, "fusion_lon": 0.0, "rental_uris": {"ios": "https://dc.lft.to/lastmile_qr_scan", "android": "https://dc.lft.to/lastmile_qr_scan"}, "lon": -77.0203295, "bike_id": "7c6584f4493aa9fc1897e726987d2917", "type": "electric_scooter", "name": "7c6584f4493aa9fc1897e726987d2917"}, {"is_disabled": 0, "is_reserved": 0, "fusion_lat": 0.0, "lat": 38.88580733333333, "fusion_lon": 0.0, "rental_uris": {"ios": "https://dc.lft.to/lastmile_qr_scan", "android": "https://dc.lft.to/lastmile_qr_scan"}, "lon": -77.02004783333334, "bike_id": "087f67ae8c1a8fa7c787a14bc6bf5259", "type": "electric_scooter", "name": "087f67ae8c1a8fa7c787a14bc6bf5259"}, {"is_disabled": 0, "is_reserved": 0, "fusion_lat": 0.0, "lat": 38.8068115, "fusion_lon": 0.0, "rental_uris": {"ios": "https://dc.lft.to/lastmile_qr_scan", "android": "https://dc.lft.to/lastmile_qr_scan"}, "lon": -77.069152, "bike_id": "0b0af1644aa95de098ccce884631a0d4", "type": "electric_bike", "name": "0b0af1644aa95de098ccce884631a0d4"}, {"is_disabled": 0, "is_reserved": 0, "fusion_lat": 0.0, "lat": 38.9237545, "fusion_lon": 0.0, "rental_uris": {"ios": "https://dc.lft.to/lastmile_qr_scan", "android": "https://dc.lft.to/lastmile_qr_scan"}, "lon": -77.04018016666667, "bike_id": "1913a328e7940499c33fda46ea1a20d9", "type": "electric_scooter", "name": "1913a328e7940499c33fda46ea1a20d9"}, {"is_disabled": 0, "is_reserved": 0, "fusion_lat": 0.0, "lat": 38.910479333333335, "fusion_lon": 0.0, "rental_uris": {"ios": "https://dc.lft.to/lastmile_qr_scan", "android": "https://dc.lft.to/lastmile_qr_scan"}, "lon": -77.01513333333334, "bike_id": "c3bc1094d943c080c92c132d55ff32c0", "type": "electric_scooter", "name": "c3bc1094d943c080c92c132d55ff32c0"}, {"is_disabled": 0, "is_reserved": 0, "fusion_lat": 0.0, "lat": 38.934225833333336, "fusion_lon": 0.0, "rental_uris": {"ios": "https://dc.lft.to/lastmile_qr_scan", "android": "https://dc.lft.to/lastmile_qr_scan"}, "lon": -77.04315833333334, "bike_id": "adc50192efbf33ad29d8794c08f9c495", "type": "electric_scooter", "name": "adc50192efbf33ad29d8794c08f9c495"}, {"is_disabled": 0, "is_reserved": 0, "fusion_lat": 0.0, "lat": 38.909575, "fusion_lon": 0.0, "rental_uris": {"ios": "https://dc.lft.to/lastmile_qr_scan", "android": "https://dc.lft.to/lastmile_qr_scan"}, "lon": -77.04565183333334, "bike_id": "6f04431915d0f5b69b0d30d38613e6e4", "type": "electric_scooter", "name": "6f04431915d0f5b69b0d30d38613e6e4"}, {"is_disabled": 0, "is_reserved": 0, "fusion_lat": 0.0, "lat": 38.906629833333334, "fusion_lon": 0.0, "rental_uris": {"ios": "https://dc.lft.to/lastmile_qr_scan", "android": "https://dc.lft.to/lastmile_qr_scan"}, "lon": -77.04559, "bike_id": "224b5b9d88f36e0ccbe4d280c42ed3aa", "type": "electric_scooter", "name": "224b5b9d88f36e0ccbe4d280c42ed3aa"}, {"is_disabled": 0, "is_reserved": 0, "fusion_lat": 0.0, "lat": 38.946313833333335, "fusion_lon": 0.0, "rental_uris": {"ios": "https://dc.lft.to/lastmile_qr_scan", "android": "https://dc.lft.to/lastmile_qr_scan"}, "lon": -77.01843983333333, "bike_id": "57fd11e714855388ec9f57ec864179d2", "type": "electric_scooter", "name": "57fd11e714855388ec9f57ec864179d2"}, {"is_disabled": 0, "is_reserved": 0, "fusion_lat": 0.0, "lat": 38.87879066666667, "fusion_lon": 0.0, "rental_uris": {"ios": "https://dc.lft.to/lastmile_qr_scan", "android": "https://dc.lft.to/lastmile_qr_scan"}, "lon": -77.02263166666667, "bike_id": "31962798c51d87b34ae393720fa849ed", "type": "electric_scooter", "name": "31962798c51d87b34ae393720fa849ed"}, {"is_disabled": 0, "is_reserved": 0, "fusion_lat": 0.0, "lat": 38.8786335, "fusion_lon": 0.0, "rental_uris": {"ios": "https://dc.lft.to/lastmile_qr_scan", "android": "https://dc.lft.to/lastmile_qr_scan"}, "lon": -77.007595, "bike_id": "b2138e86a842c14ea81acfec9d857865", "type": "electric_scooter", "name": "b2138e86a842c14ea81acfec9d857865"}, {"is_disabled": 0, "is_reserved": 0, "fusion_lat": 0.0, "lat": 38.84855366666667, "fusion_lon": 0.0, "rental_uris": {"ios": "https://dc.lft.to/lastmile_qr_scan", "android": "https://dc.lft.to/lastmile_qr_scan"}, "lon": -77.06829666666667, "bike_id": "41131d90dce8e70f646d7e5916fea961", "type": "electric_bike", "name": "41131d90dce8e70f646d7e5916fea961"}, {"is_disabled": 0, "is_reserved": 0, "fusion_lat": 0.0, "lat": 38.90843516666666, "fusion_lon": 0.0, "rental_uris": {"ios": "https://dc.lft.to/lastmile_qr_scan", "android": "https://dc.lft.to/lastmile_qr_scan"}, "lon": -77.0580955, "bike_id": "65d02f3f88482517b9e71e418e9a1637", "type": "electric_scooter", "name": "65d02f3f88482517b9e71e418e9a1637"}, {"is_disabled": 0, "is_reserved": 0, "fusion_lat": 0.0, "lat": 38.91766333333333, "fusion_lon": 0.0, "rental_uris": {"ios": "https://dc.lft.to/lastmile_qr_scan", "android": "https://dc.lft.to/lastmile_qr_scan"}, "lon": -77.04058016666667, "bike_id": "833b819f4a473da9d0f563ebd30f352b", "type": "electric_scooter", "name": "833b819f4a473da9d0f563ebd30f352b"}, {"is_disabled": 0, "is_reserved": 0, "fusion_lat": 0.0, "lat": 38.90129833333334, "fusion_lon": 0.0, "rental_uris": {"ios": "https://dc.lft.to/lastmile_qr_scan", "android": "https://dc.lft.to/lastmile_qr_scan"}, "lon": -77.03361016666666, "bike_id": "09a65703a43b1bd0df7dfc1346ce5833", "type": "electric_scooter", "name": "09a65703a43b1bd0df7dfc1346ce5833"}, {"is_disabled": 0, "is_reserved": 0, "fusion_lat": 0.0, "lat": 38.879303166666666, "fusion_lon": 0.0, "rental_uris": {"ios": "https://dc.lft.to/lastmile_qr_scan", "android": "https://dc.lft.to/lastmile_qr_scan"}, "lon": -77.00754666666667, "bike_id": "09281b4e3ef3eb9f2bf70beb5e9b5e4b", "type": "electric_scooter", "name": "09281b4e3ef3eb9f2bf70beb5e9b5e4b"}, {"is_disabled": 0, "is_reserved": 0, "fusion_lat": 0.0, "lat": 38.9064235, "fusion_lon": 0.0, "rental_uris": {"ios": "https://dc.lft.to/lastmile_qr_scan", "android": "https://dc.lft.to/lastmile_qr_scan"}, "lon": -77.04868183333333, "bike_id": "c6ca7fdb7726f63494535143bb0c0dcb", "type": "electric_scooter", "name": "c6ca7fdb7726f63494535143bb0c0dcb"}, {"is_disabled": 0, "is_reserved": 0, "fusion_lat": 0.0, "lat": 38.866244333333334, "fusion_lon": 0.0, "rental_uris": {"ios": "https://dc.lft.to/lastmile_qr_scan", "android": "https://dc.lft.to/lastmile_qr_scan"}, "lon": -76.98995416666666, "bike_id": "38bcd2ea95f8ff1345ddc2a9e8e099b0", "type": "electric_bike", "name": "38bcd2ea95f8ff1345ddc2a9e8e099b0"}, {"is_disabled": 0, "is_reserved": 0, "fusion_lat": 0.0, "lat": 38.895439, "fusion_lon": 0.0, "rental_uris": {"ios": "https://dc.lft.to/lastmile_qr_scan", "android": "https://dc.lft.to/lastmile_qr_scan"}, "lon": -77.02172783333333, "bike_id": "24f209a62fca0f247210d9702934606c", "type": "electric_scooter", "name": "24f209a62fca0f247210d9702934606c"}, {"is_disabled": 0, "is_reserved": 0, "fusion_lat": 0.0, "lat": 38.916593666666664, "fusion_lon": 0.0, "rental_uris": {"ios": "https://dc.lft.to/lastmile_qr_scan", "android": "https://dc.lft.to/lastmile_qr_scan"}, "lon": -77.00952883333333, "bike_id": "e37c40ff38729b6229898b287af8780c", "type": "electric_scooter", "name": "e37c40ff38729b6229898b287af8780c"}, {"is_disabled": 0, "is_reserved": 0, "fusion_lat": 0.0, "lat": 38.99098383333333, "fusion_lon": 0.0, "rental_uris": {"ios": "https://dc.lft.to/lastmile_qr_scan", "android": "https://dc.lft.to/lastmile_qr_scan"}, "lon": -76.99374283333333, "bike_id": "f7da86969a58f4d17033186d1b3930cd", "type": "electric_bike", "name": "f7da86969a58f4d17033186d1b3930cd"}, {"is_disabled": 0, "is_reserved": 0, "fusion_lat": 0.0, "lat": 38.897431166666664, "fusion_lon": 0.0, "rental_uris": {"ios": "https://dc.lft.to/lastmile_qr_scan", "android": "https://dc.lft.to/lastmile_qr_scan"}, "lon": -77.0463865, "bike_id": "65fb941e45217f52be5f5986c65d3c23", "type": "electric_scooter", "name": "65fb941e45217f52be5f5986c65d3c23"}, {"is_disabled": 0, "is_reserved": 0, "fusion_lat": 0.0, "lat": 38.92507, "fusion_lon": 0.0, "rental_uris": {"ios": "https://dc.lft.to/lastmile_qr_scan", "android": "https://dc.lft.to/lastmile_qr_scan"}, "lon": -77.02358083333333, "bike_id": "5a91993a01b14bd0b57a65b152f5b2c3", "type": "electric_scooter", "name": "5a91993a01b14bd0b57a65b152f5b2c3"}, {"is_disabled": 0, "is_reserved": 0, "fusion_lat": 0.0, "lat": 38.91030033333333, "fusion_lon": 0.0, "rental_uris": {"ios": "https://dc.lft.to/lastmile_qr_scan", "android": "https://dc.lft.to/lastmile_qr_scan"}, "lon": -76.923336, "bike_id": "91884f30d320fe4e19061059b3ae92e1", "type": "electric_bike", "name": "91884f30d320fe4e19061059b3ae92e1"}, {"is_disabled": 0, "is_reserved": 0, "fusion_lat": 0.0, "lat": 38.91351316666667, "fusion_lon": 0.0, "rental_uris": {"ios": "https://dc.lft.to/lastmile_qr_scan", "android": "https://dc.lft.to/lastmile_qr_scan"}, "lon": -76.971402, "bike_id": "003675629a3972c485b5f6c9759f4719", "type": "electric_scooter", "name": "003675629a3972c485b5f6c9759f4719"}, {"is_disabled": 0, "is_reserved": 0, "fusion_lat": 0.0, "lat": 38.929823166666665, "fusion_lon": 0.0, "rental_uris": {"ios": "https://dc.lft.to/lastmile_qr_scan", "android": "https://dc.lft.to/lastmile_qr_scan"}, "lon": -77.03891616666667, "bike_id": "5d8b8b4dfc13c3ed019c714ec96dcfe4", "type": "electric_scooter", "name": "5d8b8b4dfc13c3ed019c714ec96dcfe4"}, {"is_disabled": 0, "is_reserved": 0, "fusion_lat": 0.0, "lat": 38.8993535, "fusion_lon": 0.0, "rental_uris": {"ios": "https://dc.lft.to/lastmile_qr_scan", "android": "https://dc.lft.to/lastmile_qr_scan"}, "lon": -77.01492133333333, "bike_id": "502f37dc7d75e3264a07ec70c4050e3d", "type": "electric_scooter", "name": "502f37dc7d75e3264a07ec70c4050e3d"}, {"is_disabled": 0, "is_reserved": 0, "fusion_lat": 0.0, "lat": 38.9000105, "fusion_lon": 0.0, "rental_uris": {"ios": "https://dc.lft.to/lastmile_qr_scan", "android": "https://dc.lft.to/lastmile_qr_scan"}, "lon": -77.00667766666666, "bike_id": "1565a41ac945e1652d46f0faf1f8b983", "type": "electric_scooter", "name": "1565a41ac945e1652d46f0faf1f8b983"}, {"is_disabled": 0, "is_reserved": 0, "fusion_lat": 0.0, "lat": 38.93253816666667, "fusion_lon": 0.0, "rental_uris": {"ios": "https://dc.lft.to/lastmile_qr_scan", "android": "https://dc.lft.to/lastmile_qr_scan"}, "lon": -77.02943283333333, "bike_id": "95bb52fb604fd3630207057c568af8e9", "type": "electric_scooter", "name": "95bb52fb604fd3630207057c568af8e9"}, {"is_disabled": 0, "is_reserved": 0, "fusion_lat": 0.0, "lat": 38.9091935, "fusion_lon": 0.0, "rental_uris": {"ios": "https://dc.lft.to/lastmile_qr_scan", "android": "https://dc.lft.to/lastmile_qr_scan"}, "lon": -77.0494635, "bike_id": "8949fa92bb33ac3fe0726682099b57a2", "type": "electric_scooter", "name": "8949fa92bb33ac3fe0726682099b57a2"}, {"is_disabled": 0, "is_reserved": 0, "fusion_lat": 0.0, "lat": 38.92021066666667, "fusion_lon": 0.0, "rental_uris": {"ios": "https://dc.lft.to/lastmile_qr_scan", "android": "https://dc.lft.to/lastmile_qr_scan"}, "lon": -76.99979433333333, "bike_id": "015d8ce2cfb35eaa720a166bcc696798", "type": "electric_scooter", "name": "015d8ce2cfb35eaa720a166bcc696798"}, {"is_disabled": 0, "is_reserved": 0, "fusion_lat": 0.0, "lat": 38.898484, "fusion_lon": 0.0, "rental_uris": {"ios": "https://dc.lft.to/lastmile_qr_scan", "android": "https://dc.lft.to/lastmile_qr_scan"}, "lon": -77.0019215, "bike_id": "1a6a0a41f484154ca34c833ed2aa21d2", "type": "electric_scooter", "name": "1a6a0a41f484154ca34c833ed2aa21d2"}, {"is_disabled": 0, "is_reserved": 0, "fusion_lat": 0.0, "lat": 38.9573495, "fusion_lon": 0.0, "rental_uris": {"ios": "https://dc.lft.to/lastmile_qr_scan", "android": "https://dc.lft.to/lastmile_qr_scan"}, "lon": -77.02418233333333, "bike_id": "25020f6d2140bf29a21ce1b2e0fa3565", "type": "electric_scooter", "name": "25020f6d2140bf29a21ce1b2e0fa3565"}, {"is_disabled": 0, "is_reserved": 0, "fusion_lat": 0.0, "lat": 38.930347833333336, "fusion_lon": 0.0, "rental_uris": {"ios": "https://dc.lft.to/lastmile_qr_scan", "android": "https://dc.lft.to/lastmile_qr_scan"}, "lon": -77.02968, "bike_id": "4866400d28bec28f63ec939857a1ba2d", "type": "electric_scooter", "name": "4866400d28bec28f63ec939857a1ba2d"}, {"is_disabled": 0, "is_reserved": 0, "fusion_lat": 0.0, "lat": 38.925506666666664, "fusion_lon": 0.0, "rental_uris": {"ios": "https://dc.lft.to/lastmile_qr_scan", "android": "https://dc.lft.to/lastmile_qr_scan"}, "lon": -76.996074, "bike_id": "183065718433dcd9f7d02c2da9234385", "type": "electric_scooter", "name": "183065718433dcd9f7d02c2da9234385"}, {"is_disabled": 0, "is_reserved": 0, "fusion_lat": 0.0, "lat": 38.960163, "fusion_lon": 0.0, "rental_uris": {"ios": "https://dc.lft.to/lastmile_qr_scan", "android": "https://dc.lft.to/lastmile_qr_scan"}, "lon": -77.02824066666666, "bike_id": "de89a4ee96d95258d914f81fa5045066", "type": "electric_scooter", "name": "de89a4ee96d95258d914f81fa5045066"}, {"is_disabled": 0, "is_reserved": 0, "fusion_lat": 0.0, "lat": 38.91557933333333, "fusion_lon": 0.0, "rental_uris": {"ios": "https://dc.lft.to/lastmile_qr_scan", "android": "https://dc.lft.to/lastmile_qr_scan"}, "lon": -77.038347, "bike_id": "c27cfd103d450ba48071e1a421569b6b", "type": "electric_scooter", "name": "c27cfd103d450ba48071e1a421569b6b"}, {"is_disabled": 0, "is_reserved": 0, "fusion_lat": 0.0, "lat": 38.903810666666665, "fusion_lon": 0.0, "rental_uris": {"ios": "https://dc.lft.to/lastmile_qr_scan", "android": "https://dc.lft.to/lastmile_qr_scan"}, "lon": -77.01789533333333, "bike_id": "0bfe7ecd62c1e5e91fd619d7692e5b3f", "type": "electric_scooter", "name": "0bfe7ecd62c1e5e91fd619d7692e5b3f"}, {"is_disabled": 0, "is_reserved": 0, "fusion_lat": 0.0, "lat": 38.887106, "fusion_lon": 0.0, "rental_uris": {"ios": "https://dc.lft.to/lastmile_qr_scan", "android": "https://dc.lft.to/lastmile_qr_scan"}, "lon": -76.98382183333334, "bike_id": "853c0c188ae986cd5e62eaa689c37f9c", "type": "electric_scooter", "name": "853c0c188ae986cd5e62eaa689c37f9c"}, {"is_disabled": 0, "is_reserved": 0, "fusion_lat": 0.0, "lat": 38.92190566666667, "fusion_lon": 0.0, "rental_uris": {"ios": "https://dc.lft.to/lastmile_qr_scan", "android": "https://dc.lft.to/lastmile_qr_scan"}, "lon": -77.01822283333334, "bike_id": "04df3f49cd03f35679f5c861cb895d2a", "type": "electric_scooter", "name": "04df3f49cd03f35679f5c861cb895d2a"}, {"is_disabled": 0, "is_reserved": 0, "fusion_lat": 0.0, "lat": 38.88709683333333, "fusion_lon": 0.0, "rental_uris": {"ios": "https://dc.lft.to/lastmile_qr_scan", "android": "https://dc.lft.to/lastmile_qr_scan"}, "lon": -76.9838175, "bike_id": "11f5dfe21ef689296d4d6d88a229f604", "type": "electric_scooter", "name": "11f5dfe21ef689296d4d6d88a229f604"}, {"is_disabled": 0, "is_reserved": 0, "fusion_lat": 0.0, "lat": 38.923692333333335, "fusion_lon": 0.0, "rental_uris": {"ios": "https://dc.lft.to/lastmile_qr_scan", "android": "https://dc.lft.to/lastmile_qr_scan"}, "lon": -77.030944, "bike_id": "23cb3bf3ece7ab89a2ae0c33bf4c0cca", "type": "electric_scooter", "name": "23cb3bf3ece7ab89a2ae0c33bf4c0cca"}, {"is_disabled": 0, "is_reserved": 0, "fusion_lat": 0.0, "lat": 38.91098266666667, "fusion_lon": 0.0, "rental_uris": {"ios": "https://dc.lft.to/lastmile_qr_scan", "android": "https://dc.lft.to/lastmile_qr_scan"}, "lon": -77.04833483333333, "bike_id": "a3fe6b79acadca8c4ae2485ef4ecc20b", "type": "electric_scooter", "name": "a3fe6b79acadca8c4ae2485ef4ecc20b"}, {"is_disabled": 0, "is_reserved": 0, "fusion_lat": 0.0, "lat": 38.901428, "fusion_lon": 0.0, "rental_uris": {"ios": "https://dc.lft.to/lastmile_qr_scan", "android": "https://dc.lft.to/lastmile_qr_scan"}, "lon": -77.029351, "bike_id": "6f5edb02f6f27da666ef17920bb0cdfc", "type": "electric_scooter", "name": "6f5edb02f6f27da666ef17920bb0cdfc"}, {"is_disabled": 0, "is_reserved": 0, "fusion_lat": 0.0, "lat": 38.90185133333333, "fusion_lon": 0.0, "rental_uris": {"ios": "https://dc.lft.to/lastmile_qr_scan", "android": "https://dc.lft.to/lastmile_qr_scan"}, "lon": -76.976718, "bike_id": "e5c6532feaa5a923ad7452d6784197a1", "type": "electric_scooter", "name": "e5c6532feaa5a923ad7452d6784197a1"}, {"is_disabled": 0, "is_reserved": 0, "fusion_lat": 0.0, "lat": 38.85638133333333, "fusion_lon": 0.0, "rental_uris": {"ios": "https://dc.lft.to/lastmile_qr_scan", "android": "https://dc.lft.to/lastmile_qr_scan"}, "lon": -77.06834716666667, "bike_id": "a0737db38a045e5182adb501cc973119", "type": "electric_bike", "name": "a0737db38a045e5182adb501cc973119"}, {"is_disabled": 0, "is_reserved": 0, "fusion_lat": 0.0, "lat": 38.8822115, "fusion_lon": 0.0, "rental_uris": {"ios": "https://dc.lft.to/lastmile_qr_scan", "android": "https://dc.lft.to/lastmile_qr_scan"}, "lon": -76.99735583333333, "bike_id": "c31e95d7673b753eb390f58509cec642", "type": "electric_scooter", "name": "c31e95d7673b753eb390f58509cec642"}, {"is_disabled": 0, "is_reserved": 0, "fusion_lat": 0.0, "lat": 38.8989235, "fusion_lon": 0.0, "rental_uris": {"ios": "https://dc.lft.to/lastmile_qr_scan", "android": "https://dc.lft.to/lastmile_qr_scan"}, "lon": -77.02170033333333, "bike_id": "434422fecf8331eae96ddb21f16fa513", "type": "electric_scooter", "name": "434422fecf8331eae96ddb21f16fa513"}, {"is_disabled": 0, "is_reserved": 0, "fusion_lat": 0.0, "lat": 38.94596716666667, "fusion_lon": 0.0, "rental_uris": {"ios": "https://dc.lft.to/lastmile_qr_scan", "android": "https://dc.lft.to/lastmile_qr_scan"}, "lon": -77.02663433333333, "bike_id": "3151fb71e6d680d34d0156eb7676b089", "type": "electric_scooter", "name": "3151fb71e6d680d34d0156eb7676b089"}, {"is_disabled": 0, "is_reserved": 0, "fusion_lat": 0.0, "lat": 38.875933833333335, "fusion_lon": 0.0, "rental_uris": {"ios": "https://dc.lft.to/lastmile_qr_scan", "android": "https://dc.lft.to/lastmile_qr_scan"}, "lon": -77.00549716666667, "bike_id": "cdda5aef5f52a4e6b888c89bf40814d2", "type": "electric_scooter", "name": "cdda5aef5f52a4e6b888c89bf40814d2"}, {"is_disabled": 0, "is_reserved": 0, "fusion_lat": 0.0, "lat": 38.8656145, "fusion_lon": 0.0, "rental_uris": {"ios": "https://dc.lft.to/lastmile_qr_scan", "android": "https://dc.lft.to/lastmile_qr_scan"}, "lon": -76.9748195, "bike_id": "482f45656f3c41e38485b40c9cfbed41", "type": "electric_bike", "name": "482f45656f3c41e38485b40c9cfbed41"}, {"is_disabled": 0, "is_reserved": 0, "fusion_lat": 0.0, "lat": 38.824304166666664, "fusion_lon": 0.0, "rental_uris": {"ios": "https://dc.lft.to/lastmile_qr_scan", "android": "https://dc.lft.to/lastmile_qr_scan"}, "lon": -77.12042383333333, "bike_id": "34e0fa517cadd50b11e282907e625df4", "type": "electric_bike", "name": "34e0fa517cadd50b11e282907e625df4"}, {"is_disabled": 0, "is_reserved": 0, "fusion_lat": 0.0, "lat": 38.92937233333333, "fusion_lon": 0.0, "rental_uris": {"ios": "https://dc.lft.to/lastmile_qr_scan", "android": "https://dc.lft.to/lastmile_qr_scan"}, "lon": -77.05486833333333, "bike_id": "175aa3b6442118ec15c3c980374614c1", "type": "electric_scooter", "name": "175aa3b6442118ec15c3c980374614c1"}, {"is_disabled": 0, "is_reserved": 0, "fusion_lat": 0.0, "lat": 38.87696666666667, "fusion_lon": 0.0, "rental_uris": {"ios": "https://dc.lft.to/lastmile_qr_scan", "android": "https://dc.lft.to/lastmile_qr_scan"}, "lon": -76.996259, "bike_id": "b24537c69e1b6a34cc5040267967f8da", "type": "electric_scooter", "name": "b24537c69e1b6a34cc5040267967f8da"}, {"is_disabled": 0, "is_reserved": 0, "fusion_lat": 0.0, "lat": 38.844744666666664, "fusion_lon": 0.0, "rental_uris": {"ios": "https://dc.lft.to/lastmile_qr_scan", "android": "https://dc.lft.to/lastmile_qr_scan"}, "lon": -76.99593733333333, "bike_id": "303de141c5cfed8329176380d752c633", "type": "electric_bike", "name": "303de141c5cfed8329176380d752c633"}, {"is_disabled": 0, "is_reserved": 0, "fusion_lat": 0.0, "lat": 38.92241833333333, "fusion_lon": 0.0, "rental_uris": {"ios": "https://dc.lft.to/lastmile_qr_scan", "android": "https://dc.lft.to/lastmile_qr_scan"}, "lon": -77.03665533333333, "bike_id": "059162c8621ab89cb6388f8fa2313b19", "type": "electric_scooter", "name": "059162c8621ab89cb6388f8fa2313b19"}, {"is_disabled": 0, "is_reserved": 0, "fusion_lat": 0.0, "lat": 38.93862416666666, "fusion_lon": 0.0, "rental_uris": {"ios": "https://dc.lft.to/lastmile_qr_scan", "android": "https://dc.lft.to/lastmile_qr_scan"}, "lon": -77.0304685, "bike_id": "23ea90043a7fd0aad5d92bf9f62eabd2", "type": "electric_scooter", "name": "23ea90043a7fd0aad5d92bf9f62eabd2"}, {"is_disabled": 0, "is_reserved": 0, "fusion_lat": 0.0, "lat": 38.947208333333336, "fusion_lon": 0.0, "rental_uris": {"ios": "https://dc.lft.to/lastmile_qr_scan", "android": "https://dc.lft.to/lastmile_qr_scan"}, "lon": -77.02619533333333, "bike_id": "b810761753f754eb39602bc4cb326409", "type": "electric_scooter", "name": "b810761753f754eb39602bc4cb326409"}, {"is_disabled": 0, "is_reserved": 0, "fusion_lat": 0.0, "lat": 38.874381166666666, "fusion_lon": 0.0, "rental_uris": {"ios": "https://dc.lft.to/lastmile_qr_scan", "android": "https://dc.lft.to/lastmile_qr_scan"}, "lon": -77.00282283333334, "bike_id": "8607942cd95aa1e0ca9bab03a17d6f81", "type": "electric_scooter", "name": "8607942cd95aa1e0ca9bab03a17d6f81"}, {"is_disabled": 0, "is_reserved": 0, "fusion_lat": 0.0, "lat": 38.881857, "fusion_lon": 0.0, "rental_uris": {"ios": "https://dc.lft.to/lastmile_qr_scan", "android": "https://dc.lft.to/lastmile_qr_scan"}, "lon": -77.00355883333333, "bike_id": "db2a90de1ca330d1caec0ffc22fb4bfa", "type": "electric_scooter", "name": "db2a90de1ca330d1caec0ffc22fb4bfa"}, {"is_disabled": 0, "is_reserved": 0, "fusion_lat": 0.0, "lat": 38.8708765, "fusion_lon": 0.0, "rental_uris": {"ios": "https://dc.lft.to/lastmile_qr_scan", "android": "https://dc.lft.to/lastmile_qr_scan"}, "lon": -77.01083966666667, "bike_id": "01fdd4bfcf08e9f3201b055b74431e84", "type": "electric_scooter", "name": "01fdd4bfcf08e9f3201b055b74431e84"}, {"is_disabled": 0, "is_reserved": 0, "fusion_lat": 0.0, "lat": 38.888411, "fusion_lon": 0.0, "rental_uris": {"ios": "https://dc.lft.to/lastmile_qr_scan", "android": "https://dc.lft.to/lastmile_qr_scan"}, "lon": -77.04904366666666, "bike_id": "f14bf73dd4ea1bd9cfad6409bbfbcd23", "type": "electric_scooter", "name": "f14bf73dd4ea1bd9cfad6409bbfbcd23"}, {"is_disabled": 0, "is_reserved": 0, "fusion_lat": 0.0, "lat": 38.92430016666667, "fusion_lon": 0.0, "rental_uris": {"ios": "https://dc.lft.to/lastmile_qr_scan", "android": "https://dc.lft.to/lastmile_qr_scan"}, "lon": -77.01956966666667, "bike_id": "59531c97f712b5e7a196cba83d516a0d", "type": "electric_scooter", "name": "59531c97f712b5e7a196cba83d516a0d"}, {"is_disabled": 0, "is_reserved": 0, "fusion_lat": 0.0, "lat": 38.89935583333333, "fusion_lon": 0.0, "rental_uris": {"ios": "https://dc.lft.to/lastmile_qr_scan", "android": "https://dc.lft.to/lastmile_qr_scan"}, "lon": -76.93763816666667, "bike_id": "006b60ac187fd08f4df612c61b364725", "type": "electric_scooter", "name": "006b60ac187fd08f4df612c61b364725"}, {"is_disabled": 0, "is_reserved": 0, "fusion_lat": 0.0, "lat": 38.928255, "fusion_lon": 0.0, "rental_uris": {"ios": "https://dc.lft.to/lastmile_qr_scan", "android": "https://dc.lft.to/lastmile_qr_scan"}, "lon": -77.05967866666667, "bike_id": "26a381566bcaea1ba9d83d60dbccf94d", "type": "electric_bike", "name": "26a381566bcaea1ba9d83d60dbccf94d"}, {"is_disabled": 0, "is_reserved": 0, "fusion_lat": 0.0, "lat": 38.876378333333335, "fusion_lon": 0.0, "rental_uris": {"ios": "https://dc.lft.to/lastmile_qr_scan", "android": "https://dc.lft.to/lastmile_qr_scan"}, "lon": -77.00211816666666, "bike_id": "6c1c71a1e2a9fdf3f0fe528621cef579", "type": "electric_scooter", "name": "6c1c71a1e2a9fdf3f0fe528621cef579"}, {"is_disabled": 0, "is_reserved": 0, "fusion_lat": 0.0, "lat": 38.918041333333335, "fusion_lon": 0.0, "rental_uris": {"ios": "https://dc.lft.to/lastmile_qr_scan", "android": "https://dc.lft.to/lastmile_qr_scan"}, "lon": -77.00009666666666, "bike_id": "7664f0493d3d3c41d8ec3ac9d48cb7c0", "type": "electric_scooter", "name": "7664f0493d3d3c41d8ec3ac9d48cb7c0"}, {"is_disabled": 0, "is_reserved": 0, "fusion_lat": 0.0, "lat": 38.88972016666666, "fusion_lon": 0.0, "rental_uris": {"ios": "https://dc.lft.to/lastmile_qr_scan", "android": "https://dc.lft.to/lastmile_qr_scan"}, "lon": -76.98179816666666, "bike_id": "b02b0453557e93e603a5422255e65b88", "type": "electric_scooter", "name": "b02b0453557e93e603a5422255e65b88"}, {"is_disabled": 0, "is_reserved": 0, "fusion_lat": 0.0, "lat": 38.91182766666667, "fusion_lon": 0.0, "rental_uris": {"ios": "https://dc.lft.to/lastmile_qr_scan", "android": "https://dc.lft.to/lastmile_qr_scan"}, "lon": -77.01214383333334, "bike_id": "ad012989ce3fabe7ea4fa735e13f38f8", "type": "electric_scooter", "name": "ad012989ce3fabe7ea4fa735e13f38f8"}, {"is_disabled": 0, "is_reserved": 0, "fusion_lat": 0.0, "lat": 38.91745133333333, "fusion_lon": 0.0, "rental_uris": {"ios": "https://dc.lft.to/lastmile_qr_scan", "android": "https://dc.lft.to/lastmile_qr_scan"}, "lon": -77.0108415, "bike_id": "e124b29a0b53119778d8194efdb20445", "type": "electric_scooter", "name": "e124b29a0b53119778d8194efdb20445"}, {"is_disabled": 0, "is_reserved": 0, "fusion_lat": 0.0, "lat": 38.919983, "fusion_lon": 0.0, "rental_uris": {"ios": "https://dc.lft.to/lastmile_qr_scan", "android": "https://dc.lft.to/lastmile_qr_scan"}, "lon": -77.0322415, "bike_id": "a6a93aa406cf892a806b816139ff2fcc", "type": "electric_scooter", "name": "a6a93aa406cf892a806b816139ff2fcc"}, {"is_disabled": 0, "is_reserved": 0, "fusion_lat": 0.0, "lat": 38.9044425, "fusion_lon": 0.0, "rental_uris": {"ios": "https://dc.lft.to/lastmile_qr_scan", "android": "https://dc.lft.to/lastmile_qr_scan"}, "lon": -76.97304083333333, "bike_id": "7cf8f2d049b606ebfc184693d66c3680", "type": "electric_scooter", "name": "7cf8f2d049b606ebfc184693d66c3680"}, {"is_disabled": 0, "is_reserved": 0, "fusion_lat": 0.0, "lat": 38.96355466666667, "fusion_lon": 0.0, "rental_uris": {"ios": "https://dc.lft.to/lastmile_qr_scan", "android": "https://dc.lft.to/lastmile_qr_scan"}, "lon": -77.03445616666667, "bike_id": "8ff0cab80a06975ee876e6681304a6bc", "type": "electric_scooter", "name": "8ff0cab80a06975ee876e6681304a6bc"}, {"is_disabled": 0, "is_reserved": 0, "fusion_lat": 0.0, "lat": 38.876599166666665, "fusion_lon": 0.0, "rental_uris": {"ios": "https://dc.lft.to/lastmile_qr_scan", "android": "https://dc.lft.to/lastmile_qr_scan"}, "lon": -77.00466933333334, "bike_id": "ea8299ef18f7286646704b19af307910", "type": "electric_scooter", "name": "ea8299ef18f7286646704b19af307910"}, {"is_disabled": 0, "is_reserved": 0, "fusion_lat": 0.0, "lat": 38.895550166666666, "fusion_lon": 0.0, "rental_uris": {"ios": "https://dc.lft.to/lastmile_qr_scan", "android": "https://dc.lft.to/lastmile_qr_scan"}, "lon": -77.04660266666667, "bike_id": "10a5f769049eb0ba9211346709ea9390", "type": "electric_scooter", "name": "10a5f769049eb0ba9211346709ea9390"}, {"is_disabled": 0, "is_reserved": 0, "fusion_lat": 0.0, "lat": 38.8427235, "fusion_lon": 0.0, "rental_uris": {"ios": "https://dc.lft.to/lastmile_qr_scan", "android": "https://dc.lft.to/lastmile_qr_scan"}, "lon": -76.988387, "bike_id": "db7fbf14fe40ebc0e918ef2f8c41bec3", "type": "electric_scooter", "name": "db7fbf14fe40ebc0e918ef2f8c41bec3"}, {"is_disabled": 0, "is_reserved": 0, "fusion_lat": 0.0, "lat": 38.87753216666667, "fusion_lon": 0.0, "rental_uris": {"ios": "https://dc.lft.to/lastmile_qr_scan", "android": "https://dc.lft.to/lastmile_qr_scan"}, "lon": -77.00454166666667, "bike_id": "6f6fb5e9df2059d28aa39dc3527b9e2a", "type": "electric_scooter", "name": "6f6fb5e9df2059d28aa39dc3527b9e2a"}, {"is_disabled": 0, "is_reserved": 0, "fusion_lat": 0.0, "lat": 38.931206, "fusion_lon": 0.0, "rental_uris": {"ios": "https://dc.lft.to/lastmile_qr_scan", "android": "https://dc.lft.to/lastmile_qr_scan"}, "lon": -77.02072366666667, "bike_id": "a396ff20d293504e1216e68a619e1195", "type": "electric_scooter", "name": "a396ff20d293504e1216e68a619e1195"}, {"is_disabled": 0, "is_reserved": 0, "fusion_lat": 0.0, "lat": 38.91929416666667, "fusion_lon": 0.0, "rental_uris": {"ios": "https://dc.lft.to/lastmile_qr_scan", "android": "https://dc.lft.to/lastmile_qr_scan"}, "lon": -77.0449955, "bike_id": "8ea7449475f221893a428065fa108559", "type": "electric_scooter", "name": "8ea7449475f221893a428065fa108559"}, {"is_disabled": 0, "is_reserved": 0, "fusion_lat": 0.0, "lat": 38.91334633333334, "fusion_lon": 0.0, "rental_uris": {"ios": "https://dc.lft.to/lastmile_qr_scan", "android": "https://dc.lft.to/lastmile_qr_scan"}, "lon": -77.016592, "bike_id": "ec667da5b84c2160d076b349911e876d", "type": "electric_scooter", "name": "ec667da5b84c2160d076b349911e876d"}, {"is_disabled": 0, "is_reserved": 0, "fusion_lat": 0.0, "lat": 38.9163305, "fusion_lon": 0.0, "rental_uris": {"ios": "https://dc.lft.to/lastmile_qr_scan", "android": "https://dc.lft.to/lastmile_qr_scan"}, "lon": -77.00847983333334, "bike_id": "1b750ff1c6b6089f98272f1fc8212ac8", "type": "electric_scooter", "name": "1b750ff1c6b6089f98272f1fc8212ac8"}, {"is_disabled": 0, "is_reserved": 0, "fusion_lat": 0.0, "lat": 38.90650483333334, "fusion_lon": 0.0, "rental_uris": {"ios": "https://dc.lft.to/lastmile_qr_scan", "android": "https://dc.lft.to/lastmile_qr_scan"}, "lon": -77.01127866666667, "bike_id": "73527fc7e0ae05e7aa9ce695b8d57fe6", "type": "electric_scooter", "name": "73527fc7e0ae05e7aa9ce695b8d57fe6"}, {"is_disabled": 0, "is_reserved": 0, "fusion_lat": 0.0, "lat": 38.90890433333333, "fusion_lon": 0.0, "rental_uris": {"ios": "https://dc.lft.to/lastmile_qr_scan", "android": "https://dc.lft.to/lastmile_qr_scan"}, "lon": -77.04399716666667, "bike_id": "00fec6bfc1afdf05919a54a3616b7f55", "type": "electric_scooter", "name": "00fec6bfc1afdf05919a54a3616b7f55"}, {"is_disabled": 0, "is_reserved": 0, "fusion_lat": 0.0, "lat": 38.93659533333334, "fusion_lon": 0.0, "rental_uris": {"ios": "https://dc.lft.to/lastmile_qr_scan", "android": "https://dc.lft.to/lastmile_qr_scan"}, "lon": -77.066074, "bike_id": "5c558babef71f62b6961089e421ffcd0", "type": "electric_scooter", "name": "5c558babef71f62b6961089e421ffcd0"}, {"is_disabled": 0, "is_reserved": 0, "fusion_lat": 0.0, "lat": 38.92549866666667, "fusion_lon": 0.0, "rental_uris": {"ios": "https://dc.lft.to/lastmile_qr_scan", "android": "https://dc.lft.to/lastmile_qr_scan"}, "lon": -77.0032305, "bike_id": "326a28a36ec5f5ef83d587f127ee6c74", "type": "electric_scooter", "name": "326a28a36ec5f5ef83d587f127ee6c74"}, {"is_disabled": 0, "is_reserved": 0, "fusion_lat": 0.0, "lat": 38.93068816666667, "fusion_lon": 0.0, "rental_uris": {"ios": "https://dc.lft.to/lastmile_qr_scan", "android": "https://dc.lft.to/lastmile_qr_scan"}, "lon": -77.040317, "bike_id": "ff2383c76856d9056b12448390d67b1f", "type": "electric_scooter", "name": "ff2383c76856d9056b12448390d67b1f"}, {"is_disabled": 0, "is_reserved": 0, "fusion_lat": 0.0, "lat": 38.897782666666664, "fusion_lon": 0.0, "rental_uris": {"ios": "https://dc.lft.to/lastmile_qr_scan", "android": "https://dc.lft.to/lastmile_qr_scan"}, "lon": -77.02720683333334, "bike_id": "27bf969d0d075ea5ac01bd2d6eb34736", "type": "electric_scooter", "name": "27bf969d0d075ea5ac01bd2d6eb34736"}, {"is_disabled": 0, "is_reserved": 0, "fusion_lat": 0.0, "lat": 38.87789333333333, "fusion_lon": 0.0, "rental_uris": {"ios": "https://dc.lft.to/lastmile_qr_scan", "android": "https://dc.lft.to/lastmile_qr_scan"}, "lon": -77.0013985, "bike_id": "ed6980ff6bcc9ba5a1035037e827538f", "type": "electric_scooter", "name": "ed6980ff6bcc9ba5a1035037e827538f"}, {"is_disabled": 0, "is_reserved": 0, "fusion_lat": 0.0, "lat": 38.913492833333336, "fusion_lon": 0.0, "rental_uris": {"ios": "https://dc.lft.to/lastmile_qr_scan", "android": "https://dc.lft.to/lastmile_qr_scan"}, "lon": -77.04431683333334, "bike_id": "222805c0356186cc72b3d7379f771b4c", "type": "electric_scooter", "name": "222805c0356186cc72b3d7379f771b4c"}, {"is_disabled": 0, "is_reserved": 0, "fusion_lat": 0.0, "lat": 38.940357666666664, "fusion_lon": 0.0, "rental_uris": {"ios": "https://dc.lft.to/lastmile_qr_scan", "android": "https://dc.lft.to/lastmile_qr_scan"}, "lon": -77.02526033333334, "bike_id": "28ee4ba2d6386ff45cdfc551a3cd5017", "type": "electric_scooter", "name": "28ee4ba2d6386ff45cdfc551a3cd5017"}, {"is_disabled": 0, "is_reserved": 0, "fusion_lat": 0.0, "lat": 38.92379783333333, "fusion_lon": 0.0, "rental_uris": {"ios": "https://dc.lft.to/lastmile_qr_scan", "android": "https://dc.lft.to/lastmile_qr_scan"}, "lon": -77.02030583333334, "bike_id": "437e1a2d68bc9dd963c6675316bfb438", "type": "electric_scooter", "name": "437e1a2d68bc9dd963c6675316bfb438"}, {"is_disabled": 0, "is_reserved": 0, "fusion_lat": 0.0, "lat": 38.90721633333333, "fusion_lon": 0.0, "rental_uris": {"ios": "https://dc.lft.to/lastmile_qr_scan", "android": "https://dc.lft.to/lastmile_qr_scan"}, "lon": -77.04806583333334, "bike_id": "305d979074ea2b8eec675de49d5afc97", "type": "electric_scooter", "name": "305d979074ea2b8eec675de49d5afc97"}, {"is_disabled": 0, "is_reserved": 0, "fusion_lat": 0.0, "lat": 38.91677333333333, "fusion_lon": 0.0, "rental_uris": {"ios": "https://dc.lft.to/lastmile_qr_scan", "android": "https://dc.lft.to/lastmile_qr_scan"}, "lon": -77.03647683333334, "bike_id": "771929fd1fb75eca8551a7b5f081ce62", "type": "electric_scooter", "name": "771929fd1fb75eca8551a7b5f081ce62"}, {"is_disabled": 0, "is_reserved": 0, "fusion_lat": 0.0, "lat": 38.9066355, "fusion_lon": 0.0, "rental_uris": {"ios": "https://dc.lft.to/lastmile_qr_scan", "android": "https://dc.lft.to/lastmile_qr_scan"}, "lon": -76.9860445, "bike_id": "896fd3a8428386c76ac3fbb0c153d07d", "type": "electric_scooter", "name": "896fd3a8428386c76ac3fbb0c153d07d"}, {"is_disabled": 0, "is_reserved": 0, "fusion_lat": 0.0, "lat": 38.897381333333335, "fusion_lon": 0.0, "rental_uris": {"ios": "https://dc.lft.to/lastmile_qr_scan", "android": "https://dc.lft.to/lastmile_qr_scan"}, "lon": -77.04814633333334, "bike_id": "09872c74d037f671a87762b111029b7b", "type": "electric_scooter", "name": "09872c74d037f671a87762b111029b7b"}, {"is_disabled": 0, "is_reserved": 0, "fusion_lat": 0.0, "lat": 38.930638333333334, "fusion_lon": 0.0, "rental_uris": {"ios": "https://dc.lft.to/lastmile_qr_scan", "android": "https://dc.lft.to/lastmile_qr_scan"}, "lon": -77.04216033333333, "bike_id": "5da62cd5aac9c4e56e5d049c7942b37d", "type": "electric_scooter", "name": "5da62cd5aac9c4e56e5d049c7942b37d"}, {"is_disabled": 0, "is_reserved": 0, "fusion_lat": 0.0, "lat": 38.91926433333333, "fusion_lon": 0.0, "rental_uris": {"ios": "https://dc.lft.to/lastmile_qr_scan", "android": "https://dc.lft.to/lastmile_qr_scan"}, "lon": -77.009725, "bike_id": "dff4109eaddeee246d07fcf1de36702c", "type": "electric_scooter", "name": "dff4109eaddeee246d07fcf1de36702c"}, {"is_disabled": 0, "is_reserved": 0, "fusion_lat": 0.0, "lat": 38.924884, "fusion_lon": 0.0, "rental_uris": {"ios": "https://dc.lft.to/lastmile_qr_scan", "android": "https://dc.lft.to/lastmile_qr_scan"}, "lon": -77.02835516666667, "bike_id": "52049e740cfede19ff5616235ca4f1c9", "type": "electric_scooter", "name": "52049e740cfede19ff5616235ca4f1c9"}, {"is_disabled": 0, "is_reserved": 0, "fusion_lat": 0.0, "lat": 38.932441, "fusion_lon": 0.0, "rental_uris": {"ios": "https://dc.lft.to/lastmile_qr_scan", "android": "https://dc.lft.to/lastmile_qr_scan"}, "lon": -77.03415683333333, "bike_id": "a63b5caa1b8644f37b5732f14d5f665d", "type": "electric_scooter", "name": "a63b5caa1b8644f37b5732f14d5f665d"}, {"is_disabled": 0, "is_reserved": 0, "fusion_lat": 0.0, "lat": 38.950967166666665, "fusion_lon": 0.0, "rental_uris": {"ios": "https://dc.lft.to/lastmile_qr_scan", "android": "https://dc.lft.to/lastmile_qr_scan"}, "lon": -77.01908133333333, "bike_id": "24b5ffae847adb5abec3f5811768d158", "type": "electric_scooter", "name": "24b5ffae847adb5abec3f5811768d158"}, {"is_disabled": 0, "is_reserved": 0, "fusion_lat": 0.0, "lat": 38.905376833333335, "fusion_lon": 0.0, "rental_uris": {"ios": "https://dc.lft.to/lastmile_qr_scan", "android": "https://dc.lft.to/lastmile_qr_scan"}, "lon": -77.05707266666667, "bike_id": "46af0777d1c37c219a23b60d0d68a0b2", "type": "electric_scooter", "name": "46af0777d1c37c219a23b60d0d68a0b2"}, {"is_disabled": 0, "is_reserved": 0, "fusion_lat": 0.0, "lat": 38.911094, "fusion_lon": 0.0, "rental_uris": {"ios": "https://dc.lft.to/lastmile_qr_scan", "android": "https://dc.lft.to/lastmile_qr_scan"}, "lon": -77.04502783333334, "bike_id": "e0ccaecb7feda523179ba1108e8bd263", "type": "electric_scooter", "name": "e0ccaecb7feda523179ba1108e8bd263"}, {"is_disabled": 0, "is_reserved": 0, "fusion_lat": 0.0, "lat": 39.00001533333333, "fusion_lon": 0.0, "rental_uris": {"ios": "https://dc.lft.to/lastmile_qr_scan", "android": "https://dc.lft.to/lastmile_qr_scan"}, "lon": -76.918013, "bike_id": "8aebfe4ab3587c17ddecf6b5f5952e3b", "type": "electric_bike", "name": "8aebfe4ab3587c17ddecf6b5f5952e3b"}, {"is_disabled": 0, "is_reserved": 0, "fusion_lat": 0.0, "lat": 38.96532083333334, "fusion_lon": 0.0, "rental_uris": {"ios": "https://dc.lft.to/lastmile_qr_scan", "android": "https://dc.lft.to/lastmile_qr_scan"}, "lon": -77.0341325, "bike_id": "b03c0adc1c7d941d106dfa175bf736e4", "type": "electric_bike", "name": "b03c0adc1c7d941d106dfa175bf736e4"}, {"is_disabled": 0, "is_reserved": 0, "fusion_lat": 0.0, "lat": 38.89363316666667, "fusion_lon": 0.0, "rental_uris": {"ios": "https://dc.lft.to/lastmile_qr_scan", "android": "https://dc.lft.to/lastmile_qr_scan"}, "lon": -76.941121, "bike_id": "643f62caad753fedca1ba7e7917cd713", "type": "electric_scooter", "name": "643f62caad753fedca1ba7e7917cd713"}, {"is_disabled": 0, "is_reserved": 0, "fusion_lat": 0.0, "lat": 38.93103816666667, "fusion_lon": 0.0, "rental_uris": {"ios": "https://dc.lft.to/lastmile_qr_scan", "android": "https://dc.lft.to/lastmile_qr_scan"}, "lon": -77.0266495, "bike_id": "dde70b918bf7f406434d4cd06dcfb4f7", "type": "electric_scooter", "name": "dde70b918bf7f406434d4cd06dcfb4f7"}, {"is_disabled": 0, "is_reserved": 0, "fusion_lat": 0.0, "lat": 38.87170066666667, "fusion_lon": 0.0, "rental_uris": {"ios": "https://dc.lft.to/lastmile_qr_scan", "android": "https://dc.lft.to/lastmile_qr_scan"}, "lon": -77.23394266666666, "bike_id": "8e2c0bb0b983fa6d4f0bd6b810ae7748", "type": "electric_bike", "name": "8e2c0bb0b983fa6d4f0bd6b810ae7748"}, {"is_disabled": 0, "is_reserved": 0, "fusion_lat": 0.0, "lat": 38.885266333333334, "fusion_lon": 0.0, "rental_uris": {"ios": "https://dc.lft.to/lastmile_qr_scan", "android": "https://dc.lft.to/lastmile_qr_scan"}, "lon": -76.99806666666667, "bike_id": "b9e4af4b18778cef3cffd518b256a3fc", "type": "electric_scooter", "name": "b9e4af4b18778cef3cffd518b256a3fc"}, {"is_disabled": 0, "is_reserved": 0, "fusion_lat": 0.0, "lat": 38.866667, "fusion_lon": 0.0, "rental_uris": {"ios": "https://dc.lft.to/lastmile_qr_scan", "android": "https://dc.lft.to/lastmile_qr_scan"}, "lon": -77.010835, "bike_id": "15ef19acef9a1a315b374b4035226875", "type": "electric_scooter", "name": "15ef19acef9a1a315b374b4035226875"}, {"is_disabled": 0, "is_reserved": 0, "fusion_lat": 0.0, "lat": 38.90730933333333, "fusion_lon": 0.0, "rental_uris": {"ios": "https://dc.lft.to/lastmile_qr_scan", "android": "https://dc.lft.to/lastmile_qr_scan"}, "lon": -77.03091333333333, "bike_id": "01b4b7fca4b08328286dde9b9018f0f0", "type": "electric_scooter", "name": "01b4b7fca4b08328286dde9b9018f0f0"}, {"is_disabled": 0, "is_reserved": 0, "fusion_lat": 0.0, "lat": 38.89678816666667, "fusion_lon": 0.0, "rental_uris": {"ios": "https://dc.lft.to/lastmile_qr_scan", "android": "https://dc.lft.to/lastmile_qr_scan"}, "lon": -77.0489455, "bike_id": "205c03ccc5361284eaf2346ef3e0d3bd", "type": "electric_scooter", "name": "205c03ccc5361284eaf2346ef3e0d3bd"}, {"is_disabled": 0, "is_reserved": 0, "fusion_lat": 0.0, "lat": 38.807375, "fusion_lon": 0.0, "rental_uris": {"ios": "https://dc.lft.to/lastmile_qr_scan", "android": "https://dc.lft.to/lastmile_qr_scan"}, "lon": -77.09685533333334, "bike_id": "fe383e3a51e8f7dfe14fd7738c814882", "type": "electric_bike", "name": "fe383e3a51e8f7dfe14fd7738c814882"}, {"is_disabled": 0, "is_reserved": 0, "fusion_lat": 0.0, "lat": 38.9002385, "fusion_lon": 0.0, "rental_uris": {"ios": "https://dc.lft.to/lastmile_qr_scan", "android": "https://dc.lft.to/lastmile_qr_scan"}, "lon": -77.03380383333334, "bike_id": "f2fdc09ada12e983e2a469a3ed40794a", "type": "electric_scooter", "name": "f2fdc09ada12e983e2a469a3ed40794a"}, {"is_disabled": 0, "is_reserved": 0, "fusion_lat": 0.0, "lat": 38.9190935, "fusion_lon": 0.0, "rental_uris": {"ios": "https://dc.lft.to/lastmile_qr_scan", "android": "https://dc.lft.to/lastmile_qr_scan"}, "lon": -77.0331465, "bike_id": "30f1035f8c4842f40fb668992fce363d", "type": "electric_scooter", "name": "30f1035f8c4842f40fb668992fce363d"}, {"is_disabled": 0, "is_reserved": 0, "fusion_lat": 0.0, "lat": 38.93515433333334, "fusion_lon": 0.0, "rental_uris": {"ios": "https://dc.lft.to/lastmile_qr_scan", "android": "https://dc.lft.to/lastmile_qr_scan"}, "lon": -77.025312, "bike_id": "43e95731ccc95789eea698e5380ad82f", "type": "electric_scooter", "name": "43e95731ccc95789eea698e5380ad82f"}, {"is_disabled": 0, "is_reserved": 0, "fusion_lat": 0.0, "lat": 38.900266333333335, "fusion_lon": 0.0, "rental_uris": {"ios": "https://dc.lft.to/lastmile_qr_scan", "android": "https://dc.lft.to/lastmile_qr_scan"}, "lon": -77.01132533333333, "bike_id": "21a88dea6d60a34e537e4274bc99f635", "type": "electric_scooter", "name": "21a88dea6d60a34e537e4274bc99f635"}, {"is_disabled": 0, "is_reserved": 0, "fusion_lat": 0.0, "lat": 38.90185983333333, "fusion_lon": 0.0, "rental_uris": {"ios": "https://dc.lft.to/lastmile_qr_scan", "android": "https://dc.lft.to/lastmile_qr_scan"}, "lon": -77.04876216666666, "bike_id": "2efa3d5b58f3c73579b95c2f04bb11a7", "type": "electric_scooter", "name": "2efa3d5b58f3c73579b95c2f04bb11a7"}, {"is_disabled": 0, "is_reserved": 0, "fusion_lat": 0.0, "lat": 38.858407166666666, "fusion_lon": 0.0, "rental_uris": {"ios": "https://dc.lft.to/lastmile_qr_scan", "android": "https://dc.lft.to/lastmile_qr_scan"}, "lon": -76.98827166666666, "bike_id": "0283d2757a69bc14f1278a658c36b806", "type": "electric_scooter", "name": "0283d2757a69bc14f1278a658c36b806"}, {"is_disabled": 0, "is_reserved": 0, "fusion_lat": 0.0, "lat": 38.857831, "fusion_lon": 0.0, "rental_uris": {"ios": "https://dc.lft.to/lastmile_qr_scan", "android": "https://dc.lft.to/lastmile_qr_scan"}, "lon": -76.987528, "bike_id": "07c463e381791a46ffca6a09e117bfa9", "type": "electric_bike", "name": "07c463e381791a46ffca6a09e117bfa9"}, {"is_disabled": 0, "is_reserved": 0, "fusion_lat": 0.0, "lat": 38.907453, "fusion_lon": 0.0, "rental_uris": {"ios": "https://dc.lft.to/lastmile_qr_scan", "android": "https://dc.lft.to/lastmile_qr_scan"}, "lon": -77.041448, "bike_id": "3ab7e1787f59ef415a6a1d4cbe895d67", "type": "electric_scooter", "name": "3ab7e1787f59ef415a6a1d4cbe895d67"}, {"is_disabled": 0, "is_reserved": 0, "fusion_lat": 0.0, "lat": 38.92420583333333, "fusion_lon": 0.0, "rental_uris": {"ios": "https://dc.lft.to/lastmile_qr_scan", "android": "https://dc.lft.to/lastmile_qr_scan"}, "lon": -77.02011166666666, "bike_id": "92cf0e12247fa9ab9753710282ea5412", "type": "electric_scooter", "name": "92cf0e12247fa9ab9753710282ea5412"}, {"is_disabled": 0, "is_reserved": 0, "fusion_lat": 0.0, "lat": 38.83604366666667, "fusion_lon": 0.0, "rental_uris": {"ios": "https://dc.lft.to/lastmile_qr_scan", "android": "https://dc.lft.to/lastmile_qr_scan"}, "lon": -77.00378516666666, "bike_id": "da098b737e7cea6aa779fb01b9e3416d", "type": "electric_bike", "name": "da098b737e7cea6aa779fb01b9e3416d"}, {"is_disabled": 0, "is_reserved": 0, "fusion_lat": 0.0, "lat": 38.923963, "fusion_lon": 0.0, "rental_uris": {"ios": "https://dc.lft.to/lastmile_qr_scan", "android": "https://dc.lft.to/lastmile_qr_scan"}, "lon": -77.0363755, "bike_id": "3cb67995d18448c5c4bb0e998165d004", "type": "electric_scooter", "name": "3cb67995d18448c5c4bb0e998165d004"}, {"is_disabled": 0, "is_reserved": 0, "fusion_lat": 0.0, "lat": 38.9249855, "fusion_lon": 0.0, "rental_uris": {"ios": "https://dc.lft.to/lastmile_qr_scan", "android": "https://dc.lft.to/lastmile_qr_scan"}, "lon": -77.0425695, "bike_id": "00bfe442157b1f8d7c3221e4866a26ee", "type": "electric_bike", "name": "00bfe442157b1f8d7c3221e4866a26ee"}, {"is_disabled": 0, "is_reserved": 0, "fusion_lat": 0.0, "lat": 38.90424083333333, "fusion_lon": 0.0, "rental_uris": {"ios": "https://dc.lft.to/lastmile_qr_scan", "android": "https://dc.lft.to/lastmile_qr_scan"}, "lon": -77.0511935, "bike_id": "c5d8b764636a8e547dadca55a529513d", "type": "electric_scooter", "name": "c5d8b764636a8e547dadca55a529513d"}, {"is_disabled": 0, "is_reserved": 0, "fusion_lat": 0.0, "lat": 38.9232035, "fusion_lon": 0.0, "rental_uris": {"ios": "https://dc.lft.to/lastmile_qr_scan", "android": "https://dc.lft.to/lastmile_qr_scan"}, "lon": -77.02798283333334, "bike_id": "86d95b725cc8065c9ca85a3dc384263f", "type": "electric_scooter", "name": "86d95b725cc8065c9ca85a3dc384263f"}, {"is_disabled": 0, "is_reserved": 0, "fusion_lat": 0.0, "lat": 38.937676, "fusion_lon": 0.0, "rental_uris": {"ios": "https://dc.lft.to/lastmile_qr_scan", "android": "https://dc.lft.to/lastmile_qr_scan"}, "lon": -77.02442283333333, "bike_id": "c38234c85386281e9933d9cd696f173c", "type": "electric_scooter", "name": "c38234c85386281e9933d9cd696f173c"}, {"is_disabled": 0, "is_reserved": 0, "fusion_lat": 0.0, "lat": 38.881029833333336, "fusion_lon": 0.0, "rental_uris": {"ios": "https://dc.lft.to/lastmile_qr_scan", "android": "https://dc.lft.to/lastmile_qr_scan"}, "lon": -77.01241433333334, "bike_id": "0fc6c1c4657764ef16b98dae487e26f7", "type": "electric_scooter", "name": "0fc6c1c4657764ef16b98dae487e26f7"}, {"is_disabled": 0, "is_reserved": 0, "fusion_lat": 0.0, "lat": 38.912016333333334, "fusion_lon": 0.0, "rental_uris": {"ios": "https://dc.lft.to/lastmile_qr_scan", "android": "https://dc.lft.to/lastmile_qr_scan"}, "lon": -77.00083583333333, "bike_id": "16611df83bd6f96c818035ecd358c572", "type": "electric_scooter", "name": "16611df83bd6f96c818035ecd358c572"}, {"is_disabled": 0, "is_reserved": 0, "fusion_lat": 0.0, "lat": 39.005341666666666, "fusion_lon": 0.0, "rental_uris": {"ios": "https://dc.lft.to/lastmile_qr_scan", "android": "https://dc.lft.to/lastmile_qr_scan"}, "lon": -77.1040125, "bike_id": "398a6cf9309669c45d8d12dd8549843a", "type": "electric_bike", "name": "398a6cf9309669c45d8d12dd8549843a"}, {"is_disabled": 0, "is_reserved": 0, "fusion_lat": 0.0, "lat": 38.8852795, "fusion_lon": 0.0, "rental_uris": {"ios": "https://dc.lft.to/lastmile_qr_scan", "android": "https://dc.lft.to/lastmile_qr_scan"}, "lon": -76.99625616666667, "bike_id": "e8209ca49a1456bae44bdf70f7cc34fd", "type": "electric_scooter", "name": "e8209ca49a1456bae44bdf70f7cc34fd"}, {"is_disabled": 0, "is_reserved": 0, "fusion_lat": 0.0, "lat": 38.907758, "fusion_lon": 0.0, "rental_uris": {"ios": "https://dc.lft.to/lastmile_qr_scan", "android": "https://dc.lft.to/lastmile_qr_scan"}, "lon": -77.04521066666666, "bike_id": "fc46ddc6c664e63d3150366c5d224668", "type": "electric_scooter", "name": "fc46ddc6c664e63d3150366c5d224668"}, {"is_disabled": 0, "is_reserved": 0, "fusion_lat": 0.0, "lat": 38.877373166666665, "fusion_lon": 0.0, "rental_uris": {"ios": "https://dc.lft.to/lastmile_qr_scan", "android": "https://dc.lft.to/lastmile_qr_scan"}, "lon": -77.14872333333334, "bike_id": "326203737a1cad56f37fd7662a909904", "type": "electric_bike", "name": "326203737a1cad56f37fd7662a909904"}, {"is_disabled": 0, "is_reserved": 0, "fusion_lat": 0.0, "lat": 38.896344166666665, "fusion_lon": 0.0, "rental_uris": {"ios": "https://dc.lft.to/lastmile_qr_scan", "android": "https://dc.lft.to/lastmile_qr_scan"}, "lon": -76.939299, "bike_id": "84fca0119732c35987e16d0ef684e914", "type": "electric_scooter", "name": "84fca0119732c35987e16d0ef684e914"}, {"is_disabled": 0, "is_reserved": 0, "fusion_lat": 0.0, "lat": 38.89826333333333, "fusion_lon": 0.0, "rental_uris": {"ios": "https://dc.lft.to/lastmile_qr_scan", "android": "https://dc.lft.to/lastmile_qr_scan"}, "lon": -77.0465105, "bike_id": "841ceff7b4e6d8efa0bf3a583622c2d4", "type": "electric_scooter", "name": "841ceff7b4e6d8efa0bf3a583622c2d4"}, {"is_disabled": 0, "is_reserved": 0, "fusion_lat": 0.0, "lat": 38.89744916666667, "fusion_lon": 0.0, "rental_uris": {"ios": "https://dc.lft.to/lastmile_qr_scan", "android": "https://dc.lft.to/lastmile_qr_scan"}, "lon": -77.05481683333333, "bike_id": "0da808193ac905af8c636a9f732ab8e2", "type": "electric_scooter", "name": "0da808193ac905af8c636a9f732ab8e2"}, {"is_disabled": 0, "is_reserved": 0, "fusion_lat": 0.0, "lat": 38.9145115, "fusion_lon": 0.0, "rental_uris": {"ios": "https://dc.lft.to/lastmile_qr_scan", "android": "https://dc.lft.to/lastmile_qr_scan"}, "lon": -77.00884533333333, "bike_id": "f7bda68298836372c0464ff1ac20e189", "type": "electric_scooter", "name": "f7bda68298836372c0464ff1ac20e189"}, {"is_disabled": 0, "is_reserved": 0, "fusion_lat": 0.0, "lat": 38.8814, "fusion_lon": 0.0, "rental_uris": {"ios": "https://dc.lft.to/lastmile_qr_scan", "android": "https://dc.lft.to/lastmile_qr_scan"}, "lon": -77.01311166666666, "bike_id": "80b7e765bd82c378ed1924a4069a5ba8", "type": "electric_scooter", "name": "80b7e765bd82c378ed1924a4069a5ba8"}, {"is_disabled": 0, "is_reserved": 0, "fusion_lat": 0.0, "lat": 38.90555233333333, "fusion_lon": 0.0, "rental_uris": {"ios": "https://dc.lft.to/lastmile_qr_scan", "android": "https://dc.lft.to/lastmile_qr_scan"}, "lon": -77.02764583333334, "bike_id": "70e279d19584abfcf6ede2a03a7a05df", "type": "electric_scooter", "name": "70e279d19584abfcf6ede2a03a7a05df"}, {"is_disabled": 0, "is_reserved": 0, "fusion_lat": 0.0, "lat": 38.950695333333336, "fusion_lon": 0.0, "rental_uris": {"ios": "https://dc.lft.to/lastmile_qr_scan", "android": "https://dc.lft.to/lastmile_qr_scan"}, "lon": -76.99599983333333, "bike_id": "4d5efd97ce743ab83ca05375ba305d53", "type": "electric_bike", "name": "4d5efd97ce743ab83ca05375ba305d53"}, {"is_disabled": 0, "is_reserved": 0, "fusion_lat": 0.0, "lat": 38.9096025, "fusion_lon": 0.0, "rental_uris": {"ios": "https://dc.lft.to/lastmile_qr_scan", "android": "https://dc.lft.to/lastmile_qr_scan"}, "lon": -77.0222025, "bike_id": "3a52bd7e706901c525980ddb21cbe41e", "type": "electric_scooter", "name": "3a52bd7e706901c525980ddb21cbe41e"}, {"is_disabled": 0, "is_reserved": 0, "fusion_lat": 0.0, "lat": 38.953320833333336, "fusion_lon": 0.0, "rental_uris": {"ios": "https://dc.lft.to/lastmile_qr_scan", "android": "https://dc.lft.to/lastmile_qr_scan"}, "lon": -76.98256366666666, "bike_id": "cffd392b2677448bd49962c906546803", "type": "electric_bike", "name": "cffd392b2677448bd49962c906546803"}, {"is_disabled": 0, "is_reserved": 0, "fusion_lat": 0.0, "lat": 38.894860333333334, "fusion_lon": 0.0, "rental_uris": {"ios": "https://dc.lft.to/lastmile_qr_scan", "android": "https://dc.lft.to/lastmile_qr_scan"}, "lon": -77.00982733333333, "bike_id": "02e5af7c1b865fc04f7160f19310e3db", "type": "electric_scooter", "name": "02e5af7c1b865fc04f7160f19310e3db"}, {"is_disabled": 0, "is_reserved": 0, "fusion_lat": 0.0, "lat": 38.903442166666665, "fusion_lon": 0.0, "rental_uris": {"ios": "https://dc.lft.to/lastmile_qr_scan", "android": "https://dc.lft.to/lastmile_qr_scan"}, "lon": -76.9749645, "bike_id": "e32bd25acd10bb9c1eed372bc58c9769", "type": "electric_scooter", "name": "e32bd25acd10bb9c1eed372bc58c9769"}, {"is_disabled": 0, "is_reserved": 0, "fusion_lat": 0.0, "lat": 38.93934766666667, "fusion_lon": 0.0, "rental_uris": {"ios": "https://dc.lft.to/lastmile_qr_scan", "android": "https://dc.lft.to/lastmile_qr_scan"}, "lon": -77.02585116666667, "bike_id": "cdce647c0f6455eaff1ea3a25612f2a7", "type": "electric_scooter", "name": "cdce647c0f6455eaff1ea3a25612f2a7"}, {"is_disabled": 0, "is_reserved": 0, "fusion_lat": 0.0, "lat": 38.92649633333333, "fusion_lon": 0.0, "rental_uris": {"ios": "https://dc.lft.to/lastmile_qr_scan", "android": "https://dc.lft.to/lastmile_qr_scan"}, "lon": -77.090187, "bike_id": "3bb059f726d73bc01c998ef99eeb15bd", "type": "electric_bike", "name": "3bb059f726d73bc01c998ef99eeb15bd"}, {"is_disabled": 0, "is_reserved": 0, "fusion_lat": 0.0, "lat": 38.9169145, "fusion_lon": 0.0, "rental_uris": {"ios": "https://dc.lft.to/lastmile_qr_scan", "android": "https://dc.lft.to/lastmile_qr_scan"}, "lon": -77.02576366666666, "bike_id": "01ec3b969b266dc50228665ef82536fe", "type": "electric_scooter", "name": "01ec3b969b266dc50228665ef82536fe"}, {"is_disabled": 0, "is_reserved": 0, "fusion_lat": 0.0, "lat": 38.90577066666667, "fusion_lon": 0.0, "rental_uris": {"ios": "https://dc.lft.to/lastmile_qr_scan", "android": "https://dc.lft.to/lastmile_qr_scan"}, "lon": -77.00869316666666, "bike_id": "beb5f1bacec66ba0dd07bd0f69ff9f0b", "type": "electric_scooter", "name": "beb5f1bacec66ba0dd07bd0f69ff9f0b"}, {"is_disabled": 0, "is_reserved": 0, "fusion_lat": 0.0, "lat": 38.9715515, "fusion_lon": 0.0, "rental_uris": {"ios": "https://dc.lft.to/lastmile_qr_scan", "android": "https://dc.lft.to/lastmile_qr_scan"}, "lon": -76.9836505, "bike_id": "66c08a4c6e301b527585fe0e04c9f423", "type": "electric_bike", "name": "66c08a4c6e301b527585fe0e04c9f423"}, {"is_disabled": 0, "is_reserved": 0, "fusion_lat": 0.0, "lat": 38.916248833333334, "fusion_lon": 0.0, "rental_uris": {"ios": "https://dc.lft.to/lastmile_qr_scan", "android": "https://dc.lft.to/lastmile_qr_scan"}, "lon": -77.02270766666666, "bike_id": "ec6ea16da80ea80c708815a5aa41dcf0", "type": "electric_scooter", "name": "ec6ea16da80ea80c708815a5aa41dcf0"}, {"is_disabled": 0, "is_reserved": 0, "fusion_lat": 0.0, "lat": 38.967780833333336, "fusion_lon": 0.0, "rental_uris": {"ios": "https://dc.lft.to/lastmile_qr_scan", "android": "https://dc.lft.to/lastmile_qr_scan"}, "lon": -76.996498, "bike_id": "48575de28aca953559e94d59f5830f72", "type": "electric_bike", "name": "48575de28aca953559e94d59f5830f72"}, {"is_disabled": 0, "is_reserved": 0, "fusion_lat": 0.0, "lat": 38.905029166666665, "fusion_lon": 0.0, "rental_uris": {"ios": "https://dc.lft.to/lastmile_qr_scan", "android": "https://dc.lft.to/lastmile_qr_scan"}, "lon": -77.06118783333334, "bike_id": "d7953930678e9971fc4d982e2d877a5d", "type": "electric_scooter", "name": "d7953930678e9971fc4d982e2d877a5d"}, {"is_disabled": 0, "is_reserved": 0, "fusion_lat": 0.0, "lat": 38.91117933333334, "fusion_lon": 0.0, "rental_uris": {"ios": "https://dc.lft.to/lastmile_qr_scan", "android": "https://dc.lft.to/lastmile_qr_scan"}, "lon": -76.99741716666666, "bike_id": "d2224adcd43a173b8a3f3ba2ef5aa957", "type": "electric_scooter", "name": "d2224adcd43a173b8a3f3ba2ef5aa957"}, {"is_disabled": 0, "is_reserved": 0, "fusion_lat": 0.0, "lat": 38.9335425, "fusion_lon": 0.0, "rental_uris": {"ios": "https://dc.lft.to/lastmile_qr_scan", "android": "https://dc.lft.to/lastmile_qr_scan"}, "lon": -77.02560883333334, "bike_id": "d25cda87ef38706f08f1cf9420de5233", "type": "electric_scooter", "name": "d25cda87ef38706f08f1cf9420de5233"}, {"is_disabled": 0, "is_reserved": 0, "fusion_lat": 0.0, "lat": 38.8920005, "fusion_lon": 0.0, "rental_uris": {"ios": "https://dc.lft.to/lastmile_qr_scan", "android": "https://dc.lft.to/lastmile_qr_scan"}, "lon": -77.00294183333334, "bike_id": "c67f34615d78f06e9ab8c3cf20f36ee5", "type": "electric_scooter", "name": "c67f34615d78f06e9ab8c3cf20f36ee5"}, {"is_disabled": 0, "is_reserved": 0, "fusion_lat": 0.0, "lat": 38.807339166666665, "fusion_lon": 0.0, "rental_uris": {"ios": "https://dc.lft.to/lastmile_qr_scan", "android": "https://dc.lft.to/lastmile_qr_scan"}, "lon": -76.99264133333334, "bike_id": "b479ade1735b203fb8e40f86c91dd6a7", "type": "electric_bike", "name": "b479ade1735b203fb8e40f86c91dd6a7"}, {"is_disabled": 0, "is_reserved": 0, "fusion_lat": 0.0, "lat": 38.92446566666667, "fusion_lon": 0.0, "rental_uris": {"ios": "https://dc.lft.to/lastmile_qr_scan", "android": "https://dc.lft.to/lastmile_qr_scan"}, "lon": -77.0204235, "bike_id": "bae6a6f19f8e947b07f8bf37550fc3b8", "type": "electric_scooter", "name": "bae6a6f19f8e947b07f8bf37550fc3b8"}, {"is_disabled": 0, "is_reserved": 0, "fusion_lat": 0.0, "lat": 38.891978333333334, "fusion_lon": 0.0, "rental_uris": {"ios": "https://dc.lft.to/lastmile_qr_scan", "android": "https://dc.lft.to/lastmile_qr_scan"}, "lon": -76.9985685, "bike_id": "ed2d5e4852cdf992ea322e95cd7e9f14", "type": "electric_scooter", "name": "ed2d5e4852cdf992ea322e95cd7e9f14"}, {"is_disabled": 0, "is_reserved": 0, "fusion_lat": 0.0, "lat": 38.921776, "fusion_lon": 0.0, "rental_uris": {"ios": "https://dc.lft.to/lastmile_qr_scan", "android": "https://dc.lft.to/lastmile_qr_scan"}, "lon": -76.998594, "bike_id": "8243eed059f8723f894c36e8f4132656", "type": "electric_scooter", "name": "8243eed059f8723f894c36e8f4132656"}, {"is_disabled": 0, "is_reserved": 0, "fusion_lat": 0.0, "lat": 38.922392, "fusion_lon": 0.0, "rental_uris": {"ios": "https://dc.lft.to/lastmile_qr_scan", "android": "https://dc.lft.to/lastmile_qr_scan"}, "lon": -77.04019266666667, "bike_id": "a6469392d2b424532dbdb6818ee004e1", "type": "electric_scooter", "name": "a6469392d2b424532dbdb6818ee004e1"}, {"is_disabled": 0, "is_reserved": 0, "fusion_lat": 0.0, "lat": 38.90060366666667, "fusion_lon": 0.0, "rental_uris": {"ios": "https://dc.lft.to/lastmile_qr_scan", "android": "https://dc.lft.to/lastmile_qr_scan"}, "lon": -77.006833, "bike_id": "e5f43a2ed04ac25066a79960553bf9a2", "type": "electric_scooter", "name": "e5f43a2ed04ac25066a79960553bf9a2"}, {"is_disabled": 0, "is_reserved": 0, "fusion_lat": 0.0, "lat": 38.9064475, "fusion_lon": 0.0, "rental_uris": {"ios": "https://dc.lft.to/lastmile_qr_scan", "android": "https://dc.lft.to/lastmile_qr_scan"}, "lon": -77.04885183333333, "bike_id": "0d2509fe6f5df0dee053551b3a5a76bf", "type": "electric_scooter", "name": "0d2509fe6f5df0dee053551b3a5a76bf"}, {"is_disabled": 0, "is_reserved": 0, "fusion_lat": 0.0, "lat": 38.93354316666667, "fusion_lon": 0.0, "rental_uris": {"ios": "https://dc.lft.to/lastmile_qr_scan", "android": "https://dc.lft.to/lastmile_qr_scan"}, "lon": -77.03420116666666, "bike_id": "57659e26893a666d06feb7686b338336", "type": "electric_scooter", "name": "57659e26893a666d06feb7686b338336"}, {"is_disabled": 0, "is_reserved": 0, "fusion_lat": 0.0, "lat": 38.894280333333334, "fusion_lon": 0.0, "rental_uris": {"ios": "https://dc.lft.to/lastmile_qr_scan", "android": "https://dc.lft.to/lastmile_qr_scan"}, "lon": -77.01086966666666, "bike_id": "75d18dc2eb6697ccf4050afc24835716", "type": "electric_scooter", "name": "75d18dc2eb6697ccf4050afc24835716"}, {"is_disabled": 0, "is_reserved": 0, "fusion_lat": 0.0, "lat": 38.91052366666667, "fusion_lon": 0.0, "rental_uris": {"ios": "https://dc.lft.to/lastmile_qr_scan", "android": "https://dc.lft.to/lastmile_qr_scan"}, "lon": -77.022092, "bike_id": "bc0d764a978ce3b515ad9d22079b5136", "type": "electric_scooter", "name": "bc0d764a978ce3b515ad9d22079b5136"}, {"is_disabled": 0, "is_reserved": 0, "fusion_lat": 0.0, "lat": 38.920521666666666, "fusion_lon": 0.0, "rental_uris": {"ios": "https://dc.lft.to/lastmile_qr_scan", "android": "https://dc.lft.to/lastmile_qr_scan"}, "lon": -77.0236815, "bike_id": "7770c9a3e9afba42df9b3f8f51722aa3", "type": "electric_scooter", "name": "7770c9a3e9afba42df9b3f8f51722aa3"}, {"is_disabled": 0, "is_reserved": 0, "fusion_lat": 0.0, "lat": 38.9000865, "fusion_lon": 0.0, "rental_uris": {"ios": "https://dc.lft.to/lastmile_qr_scan", "android": "https://dc.lft.to/lastmile_qr_scan"}, "lon": -76.979892, "bike_id": "ddf70b90412cb856261420c85ff9a5cb", "type": "electric_scooter", "name": "ddf70b90412cb856261420c85ff9a5cb"}, {"is_disabled": 0, "is_reserved": 0, "fusion_lat": 0.0, "lat": 38.8792315, "fusion_lon": 0.0, "rental_uris": {"ios": "https://dc.lft.to/lastmile_qr_scan", "android": "https://dc.lft.to/lastmile_qr_scan"}, "lon": -77.0137975, "bike_id": "8c6d949f57e068d9d29f1981187fa89a", "type": "electric_scooter", "name": "8c6d949f57e068d9d29f1981187fa89a"}, {"is_disabled": 0, "is_reserved": 0, "fusion_lat": 0.0, "lat": 38.91593616666667, "fusion_lon": 0.0, "rental_uris": {"ios": "https://dc.lft.to/lastmile_qr_scan", "android": "https://dc.lft.to/lastmile_qr_scan"}, "lon": -77.04370316666666, "bike_id": "d1d2db28bfd66887a97807e10dcdedbd", "type": "electric_scooter", "name": "d1d2db28bfd66887a97807e10dcdedbd"}, {"is_disabled": 0, "is_reserved": 0, "fusion_lat": 0.0, "lat": 38.920934, "fusion_lon": 0.0, "rental_uris": {"ios": "https://dc.lft.to/lastmile_qr_scan", "android": "https://dc.lft.to/lastmile_qr_scan"}, "lon": -77.0411765, "bike_id": "f103de37ea062f241328b30115b54436", "type": "electric_scooter", "name": "f103de37ea062f241328b30115b54436"}, {"is_disabled": 0, "is_reserved": 0, "fusion_lat": 0.0, "lat": 38.917111, "fusion_lon": 0.0, "rental_uris": {"ios": "https://dc.lft.to/lastmile_qr_scan", "android": "https://dc.lft.to/lastmile_qr_scan"}, "lon": -77.03871683333334, "bike_id": "54ee19b9e49ebf31dcf0498684270884", "type": "electric_scooter", "name": "54ee19b9e49ebf31dcf0498684270884"}, {"is_disabled": 0, "is_reserved": 0, "fusion_lat": 0.0, "lat": 38.87939016666667, "fusion_lon": 0.0, "rental_uris": {"ios": "https://dc.lft.to/lastmile_qr_scan", "android": "https://dc.lft.to/lastmile_qr_scan"}, "lon": -77.00537533333333, "bike_id": "ca644466e2bf57f2a48a0899cb6220eb", "type": "electric_scooter", "name": "ca644466e2bf57f2a48a0899cb6220eb"}, {"is_disabled": 0, "is_reserved": 0, "fusion_lat": 0.0, "lat": 38.91555683333333, "fusion_lon": 0.0, "rental_uris": {"ios": "https://dc.lft.to/lastmile_qr_scan", "android": "https://dc.lft.to/lastmile_qr_scan"}, "lon": -77.0510555, "bike_id": "9f87913cc7bc456aa9181bc7b849736d", "type": "electric_scooter", "name": "9f87913cc7bc456aa9181bc7b849736d"}, {"is_disabled": 0, "is_reserved": 0, "fusion_lat": 0.0, "lat": 38.846726333333336, "fusion_lon": 0.0, "rental_uris": {"ios": "https://dc.lft.to/lastmile_qr_scan", "android": "https://dc.lft.to/lastmile_qr_scan"}, "lon": -77.13934733333333, "bike_id": "338212588d3a5713735ed952fabd1496", "type": "electric_bike", "name": "338212588d3a5713735ed952fabd1496"}, {"is_disabled": 0, "is_reserved": 0, "fusion_lat": 0.0, "lat": 38.883555666666666, "fusion_lon": 0.0, "rental_uris": {"ios": "https://dc.lft.to/lastmile_qr_scan", "android": "https://dc.lft.to/lastmile_qr_scan"}, "lon": -76.957703, "bike_id": "3df3045acc3f07632bb6acf96db5d678", "type": "electric_scooter", "name": "3df3045acc3f07632bb6acf96db5d678"}, {"is_disabled": 0, "is_reserved": 0, "fusion_lat": 0.0, "lat": 38.942573833333334, "fusion_lon": 0.0, "rental_uris": {"ios": "https://dc.lft.to/lastmile_qr_scan", "android": "https://dc.lft.to/lastmile_qr_scan"}, "lon": -76.9845465, "bike_id": "6861bf4ff507de9484dbd05cc7d6d76e", "type": "electric_scooter", "name": "6861bf4ff507de9484dbd05cc7d6d76e"}, {"is_disabled": 0, "is_reserved": 0, "fusion_lat": 0.0, "lat": 38.89663083333333, "fusion_lon": 0.0, "rental_uris": {"ios": "https://dc.lft.to/lastmile_qr_scan", "android": "https://dc.lft.to/lastmile_qr_scan"}, "lon": -77.05099966666667, "bike_id": "a8d1acbf44784f1ad5b37cd4bea0e51b", "type": "electric_scooter", "name": "a8d1acbf44784f1ad5b37cd4bea0e51b"}, {"is_disabled": 0, "is_reserved": 0, "fusion_lat": 0.0, "lat": 38.8862225, "fusion_lon": 0.0, "rental_uris": {"ios": "https://dc.lft.to/lastmile_qr_scan", "android": "https://dc.lft.to/lastmile_qr_scan"}, "lon": -76.99020916666667, "bike_id": "79694bfed2ad61a37a819face470b815", "type": "electric_bike", "name": "79694bfed2ad61a37a819face470b815"}, {"is_disabled": 0, "is_reserved": 0, "fusion_lat": 0.0, "lat": 38.9069725, "fusion_lon": 0.0, "rental_uris": {"ios": "https://dc.lft.to/lastmile_qr_scan", "android": "https://dc.lft.to/lastmile_qr_scan"}, "lon": -76.95253566666666, "bike_id": "c4020bd6d1d4bbcee299662cf13d3119", "type": "electric_bike", "name": "c4020bd6d1d4bbcee299662cf13d3119"}, {"is_disabled": 0, "is_reserved": 0, "fusion_lat": 0.0, "lat": 38.947175666666666, "fusion_lon": 0.0, "rental_uris": {"ios": "https://dc.lft.to/lastmile_qr_scan", "android": "https://dc.lft.to/lastmile_qr_scan"}, "lon": -77.068061, "bike_id": "7d96e72764ba54c7982d7b76d7d40740", "type": "electric_scooter", "name": "7d96e72764ba54c7982d7b76d7d40740"}, {"is_disabled": 0, "is_reserved": 0, "fusion_lat": 0.0, "lat": 38.89230716666667, "fusion_lon": 0.0, "rental_uris": {"ios": "https://dc.lft.to/lastmile_qr_scan", "android": "https://dc.lft.to/lastmile_qr_scan"}, "lon": -77.050057, "bike_id": "2c61503e659d793eeb73ae03df9d3b1e", "type": "electric_scooter", "name": "2c61503e659d793eeb73ae03df9d3b1e"}, {"is_disabled": 0, "is_reserved": 0, "fusion_lat": 0.0, "lat": 38.924613, "fusion_lon": 0.0, "rental_uris": {"ios": "https://dc.lft.to/lastmile_qr_scan", "android": "https://dc.lft.to/lastmile_qr_scan"}, "lon": -77.02692016666667, "bike_id": "893aa5ae528fceb10c0ace5bad86c4fb", "type": "electric_scooter", "name": "893aa5ae528fceb10c0ace5bad86c4fb"}, {"is_disabled": 0, "is_reserved": 0, "fusion_lat": 0.0, "lat": 38.91228516666666, "fusion_lon": 0.0, "rental_uris": {"ios": "https://dc.lft.to/lastmile_qr_scan", "android": "https://dc.lft.to/lastmile_qr_scan"}, "lon": -77.063989, "bike_id": "a17eb4d01d94428335cfe49fea069f23", "type": "electric_scooter", "name": "a17eb4d01d94428335cfe49fea069f23"}, {"is_disabled": 0, "is_reserved": 0, "fusion_lat": 0.0, "lat": 38.908817166666665, "fusion_lon": 0.0, "rental_uris": {"ios": "https://dc.lft.to/lastmile_qr_scan", "android": "https://dc.lft.to/lastmile_qr_scan"}, "lon": -77.07435566666666, "bike_id": "64e84f5d22ce7b69c63df3dead5f0adf", "type": "electric_scooter", "name": "64e84f5d22ce7b69c63df3dead5f0adf"}, {"is_disabled": 0, "is_reserved": 0, "fusion_lat": 0.0, "lat": 38.924632333333335, "fusion_lon": 0.0, "rental_uris": {"ios": "https://dc.lft.to/lastmile_qr_scan", "android": "https://dc.lft.to/lastmile_qr_scan"}, "lon": -77.05235833333333, "bike_id": "2adf51030eaa42d9a4f56140988b6e38", "type": "electric_scooter", "name": "2adf51030eaa42d9a4f56140988b6e38"}, {"is_disabled": 0, "is_reserved": 0, "fusion_lat": 0.0, "lat": 38.941738, "fusion_lon": 0.0, "rental_uris": {"ios": "https://dc.lft.to/lastmile_qr_scan", "android": "https://dc.lft.to/lastmile_qr_scan"}, "lon": -77.025359, "bike_id": "728835cc581c7646b4d43ae29b127f7b", "type": "electric_scooter", "name": "728835cc581c7646b4d43ae29b127f7b"}, {"is_disabled": 0, "is_reserved": 0, "fusion_lat": 0.0, "lat": 38.9141085, "fusion_lon": 0.0, "rental_uris": {"ios": "https://dc.lft.to/lastmile_qr_scan", "android": "https://dc.lft.to/lastmile_qr_scan"}, "lon": -77.02116133333334, "bike_id": "08ed5b7fc19172b739c24a34f1694f05", "type": "electric_scooter", "name": "08ed5b7fc19172b739c24a34f1694f05"}, {"is_disabled": 0, "is_reserved": 0, "fusion_lat": 0.0, "lat": 38.87564616666667, "fusion_lon": 0.0, "rental_uris": {"ios": "https://dc.lft.to/lastmile_qr_scan", "android": "https://dc.lft.to/lastmile_qr_scan"}, "lon": -77.04704716666667, "bike_id": "fc954e203e0b238e38542cd0f641ef59", "type": "electric_bike", "name": "fc954e203e0b238e38542cd0f641ef59"}, {"is_disabled": 0, "is_reserved": 0, "fusion_lat": 0.0, "lat": 38.90752233333333, "fusion_lon": 0.0, "rental_uris": {"ios": "https://dc.lft.to/lastmile_qr_scan", "android": "https://dc.lft.to/lastmile_qr_scan"}, "lon": -77.00038283333333, "bike_id": "f37c5c58d08f028ea6b384aadad796c2", "type": "electric_scooter", "name": "f37c5c58d08f028ea6b384aadad796c2"}, {"is_disabled": 0, "is_reserved": 0, "fusion_lat": 0.0, "lat": 38.908961833333336, "fusion_lon": 0.0, "rental_uris": {"ios": "https://dc.lft.to/lastmile_qr_scan", "android": "https://dc.lft.to/lastmile_qr_scan"}, "lon": -77.046743, "bike_id": "fd7d4a3840eec3a86716a59d5091f3cb", "type": "electric_scooter", "name": "fd7d4a3840eec3a86716a59d5091f3cb"}, {"is_disabled": 0, "is_reserved": 0, "fusion_lat": 0.0, "lat": 39.042396, "fusion_lon": 0.0, "rental_uris": {"ios": "https://dc.lft.to/lastmile_qr_scan", "android": "https://dc.lft.to/lastmile_qr_scan"}, "lon": -76.99744616666666, "bike_id": "f560c9879017682b6a5eadfdc4ac0eb2", "type": "electric_bike", "name": "f560c9879017682b6a5eadfdc4ac0eb2"}, {"is_disabled": 0, "is_reserved": 0, "fusion_lat": 0.0, "lat": 38.912786833333335, "fusion_lon": 0.0, "rental_uris": {"ios": "https://dc.lft.to/lastmile_qr_scan", "android": "https://dc.lft.to/lastmile_qr_scan"}, "lon": -77.04668933333333, "bike_id": "37718848cdf13a266c6cb80bfb0a43f0", "type": "electric_scooter", "name": "37718848cdf13a266c6cb80bfb0a43f0"}, {"is_disabled": 0, "is_reserved": 0, "fusion_lat": 0.0, "lat": 38.9984915, "fusion_lon": 0.0, "rental_uris": {"ios": "https://dc.lft.to/lastmile_qr_scan", "android": "https://dc.lft.to/lastmile_qr_scan"}, "lon": -77.00248016666667, "bike_id": "212eb8dacbdbf0e597281f06ed62392a", "type": "electric_bike", "name": "212eb8dacbdbf0e597281f06ed62392a"}, {"is_disabled": 0, "is_reserved": 0, "fusion_lat": 0.0, "lat": 38.900812, "fusion_lon": 0.0, "rental_uris": {"ios": "https://dc.lft.to/lastmile_qr_scan", "android": "https://dc.lft.to/lastmile_qr_scan"}, "lon": -77.0187685, "bike_id": "e66d2227b4988f4392579648767eed52", "type": "electric_scooter", "name": "e66d2227b4988f4392579648767eed52"}, {"is_disabled": 0, "is_reserved": 0, "fusion_lat": 0.0, "lat": 38.94138516666667, "fusion_lon": 0.0, "rental_uris": {"ios": "https://dc.lft.to/lastmile_qr_scan", "android": "https://dc.lft.to/lastmile_qr_scan"}, "lon": -77.02320016666667, "bike_id": "5957d35baf1438c7ed57b8b2dd0eb42c", "type": "electric_scooter", "name": "5957d35baf1438c7ed57b8b2dd0eb42c"}, {"is_disabled": 0, "is_reserved": 0, "fusion_lat": 0.0, "lat": 38.93534783333333, "fusion_lon": 0.0, "rental_uris": {"ios": "https://dc.lft.to/lastmile_qr_scan", "android": "https://dc.lft.to/lastmile_qr_scan"}, "lon": -77.023523, "bike_id": "658ac4657a1144d8f928b6c9d204c631", "type": "electric_scooter", "name": "658ac4657a1144d8f928b6c9d204c631"}, {"is_disabled": 0, "is_reserved": 0, "fusion_lat": 0.0, "lat": 38.92226816666667, "fusion_lon": 0.0, "rental_uris": {"ios": "https://dc.lft.to/lastmile_qr_scan", "android": "https://dc.lft.to/lastmile_qr_scan"}, "lon": -76.97529383333334, "bike_id": "0f2dc08a54151b20f2d0d73ad6720f5b", "type": "electric_scooter", "name": "0f2dc08a54151b20f2d0d73ad6720f5b"}, {"is_disabled": 0, "is_reserved": 0, "fusion_lat": 0.0, "lat": 38.924873, "fusion_lon": 0.0, "rental_uris": {"ios": "https://dc.lft.to/lastmile_qr_scan", "android": "https://dc.lft.to/lastmile_qr_scan"}, "lon": -77.02662383333333, "bike_id": "ab0aeb570e0c9b5e1742c2bb5f3eccce", "type": "electric_scooter", "name": "ab0aeb570e0c9b5e1742c2bb5f3eccce"}, {"is_disabled": 0, "is_reserved": 0, "fusion_lat": 0.0, "lat": 38.922162166666666, "fusion_lon": 0.0, "rental_uris": {"ios": "https://dc.lft.to/lastmile_qr_scan", "android": "https://dc.lft.to/lastmile_qr_scan"}, "lon": -77.0378065, "bike_id": "a77ce9b9d13453b507f6e2efc2c3c282", "type": "electric_scooter", "name": "a77ce9b9d13453b507f6e2efc2c3c282"}, {"is_disabled": 0, "is_reserved": 0, "fusion_lat": 0.0, "lat": 38.928167, "fusion_lon": 0.0, "rental_uris": {"ios": "https://dc.lft.to/lastmile_qr_scan", "android": "https://dc.lft.to/lastmile_qr_scan"}, "lon": -77.04360183333333, "bike_id": "8ea7047e7c4acfbcf6567c8d415c4a78", "type": "electric_scooter", "name": "8ea7047e7c4acfbcf6567c8d415c4a78"}, {"is_disabled": 0, "is_reserved": 0, "fusion_lat": 0.0, "lat": 38.91830516666667, "fusion_lon": 0.0, "rental_uris": {"ios": "https://dc.lft.to/lastmile_qr_scan", "android": "https://dc.lft.to/lastmile_qr_scan"}, "lon": -77.03211233333333, "bike_id": "aee1bef96da6436f5248d2c0c418d188", "type": "electric_scooter", "name": "aee1bef96da6436f5248d2c0c418d188"}, {"is_disabled": 0, "is_reserved": 0, "fusion_lat": 0.0, "lat": 38.898445333333335, "fusion_lon": 0.0, "rental_uris": {"ios": "https://dc.lft.to/lastmile_qr_scan", "android": "https://dc.lft.to/lastmile_qr_scan"}, "lon": -77.00194933333333, "bike_id": "c4abd8ecd86e343a643a2f8469d07125", "type": "electric_scooter", "name": "c4abd8ecd86e343a643a2f8469d07125"}, {"is_disabled": 0, "is_reserved": 0, "fusion_lat": 0.0, "lat": 38.91768116666667, "fusion_lon": 0.0, "rental_uris": {"ios": "https://dc.lft.to/lastmile_qr_scan", "android": "https://dc.lft.to/lastmile_qr_scan"}, "lon": -77.04059966666667, "bike_id": "c303ee309452fe61524253c2ffa64ba9", "type": "electric_scooter", "name": "c303ee309452fe61524253c2ffa64ba9"}, {"is_disabled": 0, "is_reserved": 0, "fusion_lat": 0.0, "lat": 38.92061133333333, "fusion_lon": 0.0, "rental_uris": {"ios": "https://dc.lft.to/lastmile_qr_scan", "android": "https://dc.lft.to/lastmile_qr_scan"}, "lon": -77.04544366666667, "bike_id": "4eb1263ece7b3b8621144b2e60a6254c", "type": "electric_scooter", "name": "4eb1263ece7b3b8621144b2e60a6254c"}, {"is_disabled": 0, "is_reserved": 0, "fusion_lat": 0.0, "lat": 38.8462685, "fusion_lon": 0.0, "rental_uris": {"ios": "https://dc.lft.to/lastmile_qr_scan", "android": "https://dc.lft.to/lastmile_qr_scan"}, "lon": -76.96900416666666, "bike_id": "a62f7932dfde1e5212fb5dac126c3aed", "type": "electric_bike", "name": "a62f7932dfde1e5212fb5dac126c3aed"}, {"is_disabled": 0, "is_reserved": 0, "fusion_lat": 0.0, "lat": 38.90491016666667, "fusion_lon": 0.0, "rental_uris": {"ios": "https://dc.lft.to/lastmile_qr_scan", "android": "https://dc.lft.to/lastmile_qr_scan"}, "lon": -77.02593716666667, "bike_id": "433efd6615994c670862fbb11a3bb320", "type": "electric_scooter", "name": "433efd6615994c670862fbb11a3bb320"}, {"is_disabled": 0, "is_reserved": 0, "fusion_lat": 0.0, "lat": 38.834898, "fusion_lon": 0.0, "rental_uris": {"ios": "https://dc.lft.to/lastmile_qr_scan", "android": "https://dc.lft.to/lastmile_qr_scan"}, "lon": -77.004335, "bike_id": "fa222abd4d5f32f64603cf6901d0afe4", "type": "electric_bike", "name": "fa222abd4d5f32f64603cf6901d0afe4"}, {"is_disabled": 0, "is_reserved": 0, "fusion_lat": 0.0, "lat": 38.97477933333333, "fusion_lon": 0.0, "rental_uris": {"ios": "https://dc.lft.to/lastmile_qr_scan", "android": "https://dc.lft.to/lastmile_qr_scan"}, "lon": -76.9867235, "bike_id": "6dc47ec2aff51e638673a40d44b4cf47", "type": "electric_bike", "name": "6dc47ec2aff51e638673a40d44b4cf47"}, {"is_disabled": 0, "is_reserved": 0, "fusion_lat": 0.0, "lat": 38.91909066666667, "fusion_lon": 0.0, "rental_uris": {"ios": "https://dc.lft.to/lastmile_qr_scan", "android": "https://dc.lft.to/lastmile_qr_scan"}, "lon": -77.024525, "bike_id": "2fe203ae5ad1ac88df833585cc0fd15d", "type": "electric_scooter", "name": "2fe203ae5ad1ac88df833585cc0fd15d"}, {"is_disabled": 0, "is_reserved": 0, "fusion_lat": 0.0, "lat": 39.022960166666664, "fusion_lon": 0.0, "rental_uris": {"ios": "https://dc.lft.to/lastmile_qr_scan", "android": "https://dc.lft.to/lastmile_qr_scan"}, "lon": -77.02104466666667, "bike_id": "a97e63f65bd066a620c5aa6906cf0c79", "type": "electric_bike", "name": "a97e63f65bd066a620c5aa6906cf0c79"}, {"is_disabled": 0, "is_reserved": 0, "fusion_lat": 0.0, "lat": 38.9278045, "fusion_lon": 0.0, "rental_uris": {"ios": "https://dc.lft.to/lastmile_qr_scan", "android": "https://dc.lft.to/lastmile_qr_scan"}, "lon": -77.0296405, "bike_id": "d087a23546882d3ef67b3667da095699", "type": "electric_bike", "name": "d087a23546882d3ef67b3667da095699"}, {"is_disabled": 0, "is_reserved": 0, "fusion_lat": 0.0, "lat": 38.922194, "fusion_lon": 0.0, "rental_uris": {"ios": "https://dc.lft.to/lastmile_qr_scan", "android": "https://dc.lft.to/lastmile_qr_scan"}, "lon": -77.0351855, "bike_id": "2f73d86fbbabbaf445bebbbc78c150a6", "type": "electric_scooter", "name": "2f73d86fbbabbaf445bebbbc78c150a6"}, {"is_disabled": 0, "is_reserved": 0, "fusion_lat": 0.0, "lat": 38.909524166666664, "fusion_lon": 0.0, "rental_uris": {"ios": "https://dc.lft.to/lastmile_qr_scan", "android": "https://dc.lft.to/lastmile_qr_scan"}, "lon": -77.02279633333333, "bike_id": "27973f532bc6dd9da1e0690793e9feff", "type": "electric_bike", "name": "27973f532bc6dd9da1e0690793e9feff"}, {"is_disabled": 0, "is_reserved": 0, "fusion_lat": 0.0, "lat": 38.907288, "fusion_lon": 0.0, "rental_uris": {"ios": "https://dc.lft.to/lastmile_qr_scan", "android": "https://dc.lft.to/lastmile_qr_scan"}, "lon": -77.04017083333333, "bike_id": "fc4df3006ed8e2e26db8e6aeb09376d1", "type": "electric_scooter", "name": "fc4df3006ed8e2e26db8e6aeb09376d1"}, {"is_disabled": 0, "is_reserved": 0, "fusion_lat": 0.0, "lat": 38.916027666666665, "fusion_lon": 0.0, "rental_uris": {"ios": "https://dc.lft.to/lastmile_qr_scan", "android": "https://dc.lft.to/lastmile_qr_scan"}, "lon": -77.02303533333334, "bike_id": "6eb4535d2e81c87d70b5bc88508cdaa4", "type": "electric_scooter", "name": "6eb4535d2e81c87d70b5bc88508cdaa4"}, {"is_disabled": 0, "is_reserved": 0, "fusion_lat": 0.0, "lat": 38.92876033333334, "fusion_lon": 0.0, "rental_uris": {"ios": "https://dc.lft.to/lastmile_qr_scan", "android": "https://dc.lft.to/lastmile_qr_scan"}, "lon": -77.039927, "bike_id": "62bf2fa3b6a0e6fdc567c9a8bcade7f4", "type": "electric_scooter", "name": "62bf2fa3b6a0e6fdc567c9a8bcade7f4"}, {"is_disabled": 0, "is_reserved": 0, "fusion_lat": 0.0, "lat": 38.93358633333333, "fusion_lon": 0.0, "rental_uris": {"ios": "https://dc.lft.to/lastmile_qr_scan", "android": "https://dc.lft.to/lastmile_qr_scan"}, "lon": -77.028444, "bike_id": "d70d17211abb12400babb73fee6abf22", "type": "electric_scooter", "name": "d70d17211abb12400babb73fee6abf22"}, {"is_disabled": 0, "is_reserved": 0, "fusion_lat": 0.0, "lat": 38.9043365, "fusion_lon": 0.0, "rental_uris": {"ios": "https://dc.lft.to/lastmile_qr_scan", "android": "https://dc.lft.to/lastmile_qr_scan"}, "lon": -77.06111533333333, "bike_id": "3ac4f73c58e3b0c51888964a383523a8", "type": "electric_scooter", "name": "3ac4f73c58e3b0c51888964a383523a8"}, {"is_disabled": 0, "is_reserved": 0, "fusion_lat": 0.0, "lat": 38.91952066666666, "fusion_lon": 0.0, "rental_uris": {"ios": "https://dc.lft.to/lastmile_qr_scan", "android": "https://dc.lft.to/lastmile_qr_scan"}, "lon": -77.02305133333333, "bike_id": "02dffacad76abe21067d9a536c147e3b", "type": "electric_scooter", "name": "02dffacad76abe21067d9a536c147e3b"}, {"is_disabled": 0, "is_reserved": 0, "fusion_lat": 0.0, "lat": 38.908123, "fusion_lon": 0.0, "rental_uris": {"ios": "https://dc.lft.to/lastmile_qr_scan", "android": "https://dc.lft.to/lastmile_qr_scan"}, "lon": -77.02529383333334, "bike_id": "7acb3b52d7547c3d9bf27f40d2643df9", "type": "electric_scooter", "name": "7acb3b52d7547c3d9bf27f40d2643df9"}, {"is_disabled": 0, "is_reserved": 0, "fusion_lat": 0.0, "lat": 38.94447533333334, "fusion_lon": 0.0, "rental_uris": {"ios": "https://dc.lft.to/lastmile_qr_scan", "android": "https://dc.lft.to/lastmile_qr_scan"}, "lon": -77.03280466666666, "bike_id": "a3923c0f75859b0bd395128f8b6f859a", "type": "electric_scooter", "name": "a3923c0f75859b0bd395128f8b6f859a"}, {"is_disabled": 0, "is_reserved": 0, "fusion_lat": 0.0, "lat": 38.9164375, "fusion_lon": 0.0, "rental_uris": {"ios": "https://dc.lft.to/lastmile_qr_scan", "android": "https://dc.lft.to/lastmile_qr_scan"}, "lon": -77.0240595, "bike_id": "416a4fcf31782fa791b8f2d48cf90664", "type": "electric_scooter", "name": "416a4fcf31782fa791b8f2d48cf90664"}, {"is_disabled": 0, "is_reserved": 0, "fusion_lat": 0.0, "lat": 38.92080516666667, "fusion_lon": 0.0, "rental_uris": {"ios": "https://dc.lft.to/lastmile_qr_scan", "android": "https://dc.lft.to/lastmile_qr_scan"}, "lon": -77.00455933333333, "bike_id": "c5cb66107d6e42aeef85d4406376ca1a", "type": "electric_scooter", "name": "c5cb66107d6e42aeef85d4406376ca1a"}, {"is_disabled": 0, "is_reserved": 0, "fusion_lat": 0.0, "lat": 38.9460395, "fusion_lon": 0.0, "rental_uris": {"ios": "https://dc.lft.to/lastmile_qr_scan", "android": "https://dc.lft.to/lastmile_qr_scan"}, "lon": -77.0173795, "bike_id": "1c920c14a2e997a28da38b477e7bc3a4", "type": "electric_bike", "name": "1c920c14a2e997a28da38b477e7bc3a4"}, {"is_disabled": 0, "is_reserved": 0, "fusion_lat": 0.0, "lat": 38.9247155, "fusion_lon": 0.0, "rental_uris": {"ios": "https://dc.lft.to/lastmile_qr_scan", "android": "https://dc.lft.to/lastmile_qr_scan"}, "lon": -77.02550133333334, "bike_id": "4561d98d4a0461f95cf11ac52c27170b", "type": "electric_scooter", "name": "4561d98d4a0461f95cf11ac52c27170b"}, {"is_disabled": 0, "is_reserved": 0, "fusion_lat": 0.0, "lat": 38.90843983333333, "fusion_lon": 0.0, "rental_uris": {"ios": "https://dc.lft.to/lastmile_qr_scan", "android": "https://dc.lft.to/lastmile_qr_scan"}, "lon": -77.02061033333334, "bike_id": "f749499beef632dfef400926895c25f7", "type": "electric_scooter", "name": "f749499beef632dfef400926895c25f7"}, {"is_disabled": 0, "is_reserved": 0, "fusion_lat": 0.0, "lat": 38.92100333333333, "fusion_lon": 0.0, "rental_uris": {"ios": "https://dc.lft.to/lastmile_qr_scan", "android": "https://dc.lft.to/lastmile_qr_scan"}, "lon": -77.0364595, "bike_id": "886ab26c8912d13df1506c5f79570823", "type": "electric_scooter", "name": "886ab26c8912d13df1506c5f79570823"}, {"is_disabled": 0, "is_reserved": 0, "fusion_lat": 0.0, "lat": 38.95304566666667, "fusion_lon": 0.0, "rental_uris": {"ios": "https://dc.lft.to/lastmile_qr_scan", "android": "https://dc.lft.to/lastmile_qr_scan"}, "lon": -77.02017516666666, "bike_id": "6f3914efd28fe0f2d03a9ad4b25cdec7", "type": "electric_scooter", "name": "6f3914efd28fe0f2d03a9ad4b25cdec7"}, {"is_disabled": 0, "is_reserved": 0, "fusion_lat": 0.0, "lat": 38.936976, "fusion_lon": 0.0, "rental_uris": {"ios": "https://dc.lft.to/lastmile_qr_scan", "android": "https://dc.lft.to/lastmile_qr_scan"}, "lon": -77.05600166666666, "bike_id": "a9fb47af1a3dd9f22ee02967815afe49", "type": "electric_scooter", "name": "a9fb47af1a3dd9f22ee02967815afe49"}, {"is_disabled": 0, "is_reserved": 0, "fusion_lat": 0.0, "lat": 38.90386633333333, "fusion_lon": 0.0, "rental_uris": {"ios": "https://dc.lft.to/lastmile_qr_scan", "android": "https://dc.lft.to/lastmile_qr_scan"}, "lon": -77.018527, "bike_id": "fbc9150b36c670b0ad27dc9eb2a35116", "type": "electric_scooter", "name": "fbc9150b36c670b0ad27dc9eb2a35116"}, {"is_disabled": 0, "is_reserved": 0, "fusion_lat": 0.0, "lat": 38.9537295, "fusion_lon": 0.0, "rental_uris": {"ios": "https://dc.lft.to/lastmile_qr_scan", "android": "https://dc.lft.to/lastmile_qr_scan"}, "lon": -76.99838366666667, "bike_id": "2ca3f1a1b5b2ce3a06e1d6de306858de", "type": "electric_scooter", "name": "2ca3f1a1b5b2ce3a06e1d6de306858de"}, {"is_disabled": 0, "is_reserved": 0, "fusion_lat": 0.0, "lat": 38.88583283333333, "fusion_lon": 0.0, "rental_uris": {"ios": "https://dc.lft.to/lastmile_qr_scan", "android": "https://dc.lft.to/lastmile_qr_scan"}, "lon": -77.0122735, "bike_id": "b6e4cc7b2d71f44f98a5e4920e805b93", "type": "electric_scooter", "name": "b6e4cc7b2d71f44f98a5e4920e805b93"}, {"is_disabled": 0, "is_reserved": 0, "fusion_lat": 0.0, "lat": 38.93465883333333, "fusion_lon": 0.0, "rental_uris": {"ios": "https://dc.lft.to/lastmile_qr_scan", "android": "https://dc.lft.to/lastmile_qr_scan"}, "lon": -77.02412566666666, "bike_id": "a4f9b0436517e3a97718e3c197a5696a", "type": "electric_scooter", "name": "a4f9b0436517e3a97718e3c197a5696a"}, {"is_disabled": 0, "is_reserved": 0, "fusion_lat": 0.0, "lat": 38.8315935, "fusion_lon": 0.0, "rental_uris": {"ios": "https://dc.lft.to/lastmile_qr_scan", "android": "https://dc.lft.to/lastmile_qr_scan"}, "lon": -76.99554733333333, "bike_id": "b6c67662ac7ce1ac7c0a28e436a8e388", "type": "electric_bike", "name": "b6c67662ac7ce1ac7c0a28e436a8e388"}, {"is_disabled": 0, "is_reserved": 0, "fusion_lat": 0.0, "lat": 38.90593883333333, "fusion_lon": 0.0, "rental_uris": {"ios": "https://dc.lft.to/lastmile_qr_scan", "android": "https://dc.lft.to/lastmile_qr_scan"}, "lon": -77.0674655, "bike_id": "685f2cae210603c5051c27cdc8b0371b", "type": "electric_scooter", "name": "685f2cae210603c5051c27cdc8b0371b"}, {"is_disabled": 0, "is_reserved": 0, "fusion_lat": 0.0, "lat": 38.924864166666666, "fusion_lon": 0.0, "rental_uris": {"ios": "https://dc.lft.to/lastmile_qr_scan", "android": "https://dc.lft.to/lastmile_qr_scan"}, "lon": -77.03183133333333, "bike_id": "361f4c8fa65b8fb4281f965b40a3c457", "type": "electric_scooter", "name": "361f4c8fa65b8fb4281f965b40a3c457"}, {"is_disabled": 0, "is_reserved": 0, "fusion_lat": 0.0, "lat": 38.91586316666667, "fusion_lon": 0.0, "rental_uris": {"ios": "https://dc.lft.to/lastmile_qr_scan", "android": "https://dc.lft.to/lastmile_qr_scan"}, "lon": -76.98297066666666, "bike_id": "096061f3bbe5358b019114128944d231", "type": "electric_scooter", "name": "096061f3bbe5358b019114128944d231"}, {"is_disabled": 0, "is_reserved": 0, "fusion_lat": 0.0, "lat": 38.8764155, "fusion_lon": 0.0, "rental_uris": {"ios": "https://dc.lft.to/lastmile_qr_scan", "android": "https://dc.lft.to/lastmile_qr_scan"}, "lon": -76.99297116666666, "bike_id": "842628bd5ea4f7c6e4c52392c9144de5", "type": "electric_scooter", "name": "842628bd5ea4f7c6e4c52392c9144de5"}, {"is_disabled": 0, "is_reserved": 0, "fusion_lat": 0.0, "lat": 38.909072, "fusion_lon": 0.0, "rental_uris": {"ios": "https://dc.lft.to/lastmile_qr_scan", "android": "https://dc.lft.to/lastmile_qr_scan"}, "lon": -77.0351295, "bike_id": "f3791333a2e561961509018b0805750c", "type": "electric_scooter", "name": "f3791333a2e561961509018b0805750c"}, {"is_disabled": 0, "is_reserved": 0, "fusion_lat": 0.0, "lat": 38.90639133333333, "fusion_lon": 0.0, "rental_uris": {"ios": "https://dc.lft.to/lastmile_qr_scan", "android": "https://dc.lft.to/lastmile_qr_scan"}, "lon": -77.06896933333333, "bike_id": "4df31c9a19854996aa3d4ee04f92e73f", "type": "electric_scooter", "name": "4df31c9a19854996aa3d4ee04f92e73f"}, {"is_disabled": 0, "is_reserved": 0, "fusion_lat": 0.0, "lat": 38.891285333333336, "fusion_lon": 0.0, "rental_uris": {"ios": "https://dc.lft.to/lastmile_qr_scan", "android": "https://dc.lft.to/lastmile_qr_scan"}, "lon": -76.999438, "bike_id": "f57d424cc93a39477cf3152d719ed3fb", "type": "electric_scooter", "name": "f57d424cc93a39477cf3152d719ed3fb"}, {"is_disabled": 0, "is_reserved": 0, "fusion_lat": 0.0, "lat": 38.91300416666667, "fusion_lon": 0.0, "rental_uris": {"ios": "https://dc.lft.to/lastmile_qr_scan", "android": "https://dc.lft.to/lastmile_qr_scan"}, "lon": -77.0433235, "bike_id": "fbf085eefefbca6ec3cb2e10ab43f70b", "type": "electric_scooter", "name": "fbf085eefefbca6ec3cb2e10ab43f70b"}, {"is_disabled": 0, "is_reserved": 0, "fusion_lat": 0.0, "lat": 38.86473216666667, "fusion_lon": 0.0, "rental_uris": {"ios": "https://dc.lft.to/lastmile_qr_scan", "android": "https://dc.lft.to/lastmile_qr_scan"}, "lon": -76.97757316666667, "bike_id": "ca365da6685e7ca3901bb686aa941633", "type": "electric_scooter", "name": "ca365da6685e7ca3901bb686aa941633"}, {"is_disabled": 0, "is_reserved": 0, "fusion_lat": 0.0, "lat": 38.917932, "fusion_lon": 0.0, "rental_uris": {"ios": "https://dc.lft.to/lastmile_qr_scan", "android": "https://dc.lft.to/lastmile_qr_scan"}, "lon": -77.03438733333333, "bike_id": "454c0852191c6def0aea3ec086a9f4a6", "type": "electric_scooter", "name": "454c0852191c6def0aea3ec086a9f4a6"}, {"is_disabled": 0, "is_reserved": 0, "fusion_lat": 0.0, "lat": 38.934008166666665, "fusion_lon": 0.0, "rental_uris": {"ios": "https://dc.lft.to/lastmile_qr_scan", "android": "https://dc.lft.to/lastmile_qr_scan"}, "lon": -77.03522133333334, "bike_id": "b709c6e18a19a8187247e757bf83cfe8", "type": "electric_scooter", "name": "b709c6e18a19a8187247e757bf83cfe8"}, {"is_disabled": 0, "is_reserved": 0, "fusion_lat": 0.0, "lat": 38.900673, "fusion_lon": 0.0, "rental_uris": {"ios": "https://dc.lft.to/lastmile_qr_scan", "android": "https://dc.lft.to/lastmile_qr_scan"}, "lon": -77.050072, "bike_id": "ed526c49ba91fc98119a4a7aacf8dbc8", "type": "electric_scooter", "name": "ed526c49ba91fc98119a4a7aacf8dbc8"}, {"is_disabled": 0, "is_reserved": 0, "fusion_lat": 0.0, "lat": 38.918386166666664, "fusion_lon": 0.0, "rental_uris": {"ios": "https://dc.lft.to/lastmile_qr_scan", "android": "https://dc.lft.to/lastmile_qr_scan"}, "lon": -77.02290933333333, "bike_id": "e186a1ff7207d0d00c49969392c32f81", "type": "electric_scooter", "name": "e186a1ff7207d0d00c49969392c32f81"}, {"is_disabled": 0, "is_reserved": 0, "fusion_lat": 0.0, "lat": 38.90553216666667, "fusion_lon": 0.0, "rental_uris": {"ios": "https://dc.lft.to/lastmile_qr_scan", "android": "https://dc.lft.to/lastmile_qr_scan"}, "lon": -77.0260255, "bike_id": "8caebb7d78e7924f822200e888e97e50", "type": "electric_scooter", "name": "8caebb7d78e7924f822200e888e97e50"}, {"is_disabled": 0, "is_reserved": 0, "fusion_lat": 0.0, "lat": 38.93399733333333, "fusion_lon": 0.0, "rental_uris": {"ios": "https://dc.lft.to/lastmile_qr_scan", "android": "https://dc.lft.to/lastmile_qr_scan"}, "lon": -77.026194, "bike_id": "0cb8c95df6a251c908c88a8d14988369", "type": "electric_scooter", "name": "0cb8c95df6a251c908c88a8d14988369"}, {"is_disabled": 0, "is_reserved": 0, "fusion_lat": 0.0, "lat": 38.896690666666665, "fusion_lon": 0.0, "rental_uris": {"ios": "https://dc.lft.to/lastmile_qr_scan", "android": "https://dc.lft.to/lastmile_qr_scan"}, "lon": -76.949149, "bike_id": "bdb1dc74e422f8271357ab6a5e88011f", "type": "electric_scooter", "name": "bdb1dc74e422f8271357ab6a5e88011f"}, {"is_disabled": 0, "is_reserved": 0, "fusion_lat": 0.0, "lat": 38.90359266666667, "fusion_lon": 0.0, "rental_uris": {"ios": "https://dc.lft.to/lastmile_qr_scan", "android": "https://dc.lft.to/lastmile_qr_scan"}, "lon": -77.01659583333333, "bike_id": "b2ac428d3aee0775e9a9df5fdbacb7ed", "type": "electric_scooter", "name": "b2ac428d3aee0775e9a9df5fdbacb7ed"}, {"is_disabled": 0, "is_reserved": 0, "fusion_lat": 0.0, "lat": 38.911692333333335, "fusion_lon": 0.0, "rental_uris": {"ios": "https://dc.lft.to/lastmile_qr_scan", "android": "https://dc.lft.to/lastmile_qr_scan"}, "lon": -77.00456333333334, "bike_id": "c199c4b9d0e541b88edee0dd4cf30966", "type": "electric_scooter", "name": "c199c4b9d0e541b88edee0dd4cf30966"}, {"is_disabled": 0, "is_reserved": 0, "fusion_lat": 0.0, "lat": 38.90360883333334, "fusion_lon": 0.0, "rental_uris": {"ios": "https://dc.lft.to/lastmile_qr_scan", "android": "https://dc.lft.to/lastmile_qr_scan"}, "lon": -77.00342833333333, "bike_id": "3be2a622ac0fb1bae67450f43d0d075f", "type": "electric_scooter", "name": "3be2a622ac0fb1bae67450f43d0d075f"}, {"is_disabled": 0, "is_reserved": 0, "fusion_lat": 0.0, "lat": 38.92601616666666, "fusion_lon": 0.0, "rental_uris": {"ios": "https://dc.lft.to/lastmile_qr_scan", "android": "https://dc.lft.to/lastmile_qr_scan"}, "lon": -77.02505216666667, "bike_id": "e0c7edf2c98f63d8dba464e43461849f", "type": "electric_scooter", "name": "e0c7edf2c98f63d8dba464e43461849f"}, {"is_disabled": 0, "is_reserved": 0, "fusion_lat": 0.0, "lat": 38.93526416666667, "fusion_lon": 0.0, "rental_uris": {"ios": "https://dc.lft.to/lastmile_qr_scan", "android": "https://dc.lft.to/lastmile_qr_scan"}, "lon": -77.02963983333333, "bike_id": "755bd80ae5a1668ade339f1300b2845d", "type": "electric_scooter", "name": "755bd80ae5a1668ade339f1300b2845d"}, {"is_disabled": 0, "is_reserved": 0, "fusion_lat": 0.0, "lat": 38.917358666666665, "fusion_lon": 0.0, "rental_uris": {"ios": "https://dc.lft.to/lastmile_qr_scan", "android": "https://dc.lft.to/lastmile_qr_scan"}, "lon": -77.02604283333334, "bike_id": "3f64853f94a857c5baeb4561222e8e4b", "type": "electric_scooter", "name": "3f64853f94a857c5baeb4561222e8e4b"}, {"is_disabled": 0, "is_reserved": 0, "fusion_lat": 0.0, "lat": 38.930627666666666, "fusion_lon": 0.0, "rental_uris": {"ios": "https://dc.lft.to/lastmile_qr_scan", "android": "https://dc.lft.to/lastmile_qr_scan"}, "lon": -76.9732875, "bike_id": "aab9052fc3870c66c1b3cb9c3b07f486", "type": "electric_scooter", "name": "aab9052fc3870c66c1b3cb9c3b07f486"}, {"is_disabled": 0, "is_reserved": 0, "fusion_lat": 0.0, "lat": 38.89088266666667, "fusion_lon": 0.0, "rental_uris": {"ios": "https://dc.lft.to/lastmile_qr_scan", "android": "https://dc.lft.to/lastmile_qr_scan"}, "lon": -76.9546305, "bike_id": "e82b0adffdb743c558eba0ab95a0a65f", "type": "electric_bike", "name": "e82b0adffdb743c558eba0ab95a0a65f"}, {"is_disabled": 0, "is_reserved": 0, "fusion_lat": 0.0, "lat": 38.9564075, "fusion_lon": 0.0, "rental_uris": {"ios": "https://dc.lft.to/lastmile_qr_scan", "android": "https://dc.lft.to/lastmile_qr_scan"}, "lon": -77.03631616666667, "bike_id": "1d7d11f3df024ed5d0d6dedef6d75f7d", "type": "electric_scooter", "name": "1d7d11f3df024ed5d0d6dedef6d75f7d"}, {"is_disabled": 0, "is_reserved": 0, "fusion_lat": 0.0, "lat": 38.93340283333333, "fusion_lon": 0.0, "rental_uris": {"ios": "https://dc.lft.to/lastmile_qr_scan", "android": "https://dc.lft.to/lastmile_qr_scan"}, "lon": -77.01934, "bike_id": "e025462ff95cf962013bdff3de1f351d", "type": "electric_scooter", "name": "e025462ff95cf962013bdff3de1f351d"}, {"is_disabled": 0, "is_reserved": 0, "fusion_lat": 0.0, "lat": 38.92741866666667, "fusion_lon": 0.0, "rental_uris": {"ios": "https://dc.lft.to/lastmile_qr_scan", "android": "https://dc.lft.to/lastmile_qr_scan"}, "lon": -77.022681, "bike_id": "1500049b0774451670fb8c9848fb79db", "type": "electric_scooter", "name": "1500049b0774451670fb8c9848fb79db"}, {"is_disabled": 0, "is_reserved": 0, "fusion_lat": 0.0, "lat": 38.9059595, "fusion_lon": 0.0, "rental_uris": {"ios": "https://dc.lft.to/lastmile_qr_scan", "android": "https://dc.lft.to/lastmile_qr_scan"}, "lon": -77.02105966666667, "bike_id": "22ba3ec180ea7a930ea89c6459d69f7b", "type": "electric_scooter", "name": "22ba3ec180ea7a930ea89c6459d69f7b"}, {"is_disabled": 0, "is_reserved": 0, "fusion_lat": 0.0, "lat": 38.929736, "fusion_lon": 0.0, "rental_uris": {"ios": "https://dc.lft.to/lastmile_qr_scan", "android": "https://dc.lft.to/lastmile_qr_scan"}, "lon": -77.02922033333333, "bike_id": "66640e36a06d54ae6a54a022058f054e", "type": "electric_scooter", "name": "66640e36a06d54ae6a54a022058f054e"}, {"is_disabled": 0, "is_reserved": 0, "fusion_lat": 0.0, "lat": 38.961602, "fusion_lon": 0.0, "rental_uris": {"ios": "https://dc.lft.to/lastmile_qr_scan", "android": "https://dc.lft.to/lastmile_qr_scan"}, "lon": -77.02793683333333, "bike_id": "faeb1336ade9ad09834ea956965a42f5", "type": "electric_scooter", "name": "faeb1336ade9ad09834ea956965a42f5"}, {"is_disabled": 0, "is_reserved": 0, "fusion_lat": 0.0, "lat": 38.972874, "fusion_lon": 0.0, "rental_uris": {"ios": "https://dc.lft.to/lastmile_qr_scan", "android": "https://dc.lft.to/lastmile_qr_scan"}, "lon": -77.036248, "bike_id": "974cf321d92e1b299d1284a81a6c9475", "type": "electric_bike", "name": "974cf321d92e1b299d1284a81a6c9475"}, {"is_disabled": 0, "is_reserved": 0, "fusion_lat": 0.0, "lat": 38.91215366666667, "fusion_lon": 0.0, "rental_uris": {"ios": "https://dc.lft.to/lastmile_qr_scan", "android": "https://dc.lft.to/lastmile_qr_scan"}, "lon": -77.043411, "bike_id": "0ec32ffd2407597f7eea6c07dc56d5b7", "type": "electric_scooter", "name": "0ec32ffd2407597f7eea6c07dc56d5b7"}, {"is_disabled": 0, "is_reserved": 0, "fusion_lat": 0.0, "lat": 38.901706833333336, "fusion_lon": 0.0, "rental_uris": {"ios": "https://dc.lft.to/lastmile_qr_scan", "android": "https://dc.lft.to/lastmile_qr_scan"}, "lon": -77.02518833333333, "bike_id": "211d99e537c7ca18b25f35aa07561ddb", "type": "electric_scooter", "name": "211d99e537c7ca18b25f35aa07561ddb"}, {"is_disabled": 0, "is_reserved": 0, "fusion_lat": 0.0, "lat": 38.897401333333335, "fusion_lon": 0.0, "rental_uris": {"ios": "https://dc.lft.to/lastmile_qr_scan", "android": "https://dc.lft.to/lastmile_qr_scan"}, "lon": -77.045553, "bike_id": "1e23babb1d45233d68954244d5c0e8c1", "type": "electric_scooter", "name": "1e23babb1d45233d68954244d5c0e8c1"}, {"is_disabled": 0, "is_reserved": 0, "fusion_lat": 0.0, "lat": 38.952479, "fusion_lon": 0.0, "rental_uris": {"ios": "https://dc.lft.to/lastmile_qr_scan", "android": "https://dc.lft.to/lastmile_qr_scan"}, "lon": -77.09629066666666, "bike_id": "cc27b2a48f0819456b70c10f0be6a503", "type": "electric_bike", "name": "cc27b2a48f0819456b70c10f0be6a503"}, {"is_disabled": 0, "is_reserved": 0, "fusion_lat": 0.0, "lat": 38.84289716666667, "fusion_lon": 0.0, "rental_uris": {"ios": "https://dc.lft.to/lastmile_qr_scan", "android": "https://dc.lft.to/lastmile_qr_scan"}, "lon": -77.0638085, "bike_id": "a20898ddc5ae9b4c0ca03647c5c997f1", "type": "electric_bike", "name": "a20898ddc5ae9b4c0ca03647c5c997f1"}, {"is_disabled": 0, "is_reserved": 0, "fusion_lat": 0.0, "lat": 38.92663116666667, "fusion_lon": 0.0, "rental_uris": {"ios": "https://dc.lft.to/lastmile_qr_scan", "android": "https://dc.lft.to/lastmile_qr_scan"}, "lon": -76.99298383333333, "bike_id": "b0a4085d92b149145b6df9a7e1957284", "type": "electric_scooter", "name": "b0a4085d92b149145b6df9a7e1957284"}, {"is_disabled": 0, "is_reserved": 0, "fusion_lat": 0.0, "lat": 38.84282283333334, "fusion_lon": 0.0, "rental_uris": {"ios": "https://dc.lft.to/lastmile_qr_scan", "android": "https://dc.lft.to/lastmile_qr_scan"}, "lon": -76.98839233333334, "bike_id": "e1f9bfdf72c654158c1e9492f325d15c", "type": "electric_bike", "name": "e1f9bfdf72c654158c1e9492f325d15c"}, {"is_disabled": 0, "is_reserved": 0, "fusion_lat": 0.0, "lat": 38.8875865, "fusion_lon": 0.0, "rental_uris": {"ios": "https://dc.lft.to/lastmile_qr_scan", "android": "https://dc.lft.to/lastmile_qr_scan"}, "lon": -77.156541, "bike_id": "6565e0aeae2392722aa590aa1a3e11a3", "type": "electric_bike", "name": "6565e0aeae2392722aa590aa1a3e11a3"}, {"is_disabled": 0, "is_reserved": 0, "fusion_lat": 0.0, "lat": 38.922384666666666, "fusion_lon": 0.0, "rental_uris": {"ios": "https://dc.lft.to/lastmile_qr_scan", "android": "https://dc.lft.to/lastmile_qr_scan"}, "lon": -77.022676, "bike_id": "534d17e25c0cb9c1f00eff57623262bb", "type": "electric_scooter", "name": "534d17e25c0cb9c1f00eff57623262bb"}, {"is_disabled": 0, "is_reserved": 0, "fusion_lat": 0.0, "lat": 38.936097833333335, "fusion_lon": 0.0, "rental_uris": {"ios": "https://dc.lft.to/lastmile_qr_scan", "android": "https://dc.lft.to/lastmile_qr_scan"}, "lon": -77.03888616666667, "bike_id": "1c0d5eae745adf10c31654dd22d5d0d7", "type": "electric_scooter", "name": "1c0d5eae745adf10c31654dd22d5d0d7"}, {"is_disabled": 0, "is_reserved": 0, "fusion_lat": 0.0, "lat": 38.928614, "fusion_lon": 0.0, "rental_uris": {"ios": "https://dc.lft.to/lastmile_qr_scan", "android": "https://dc.lft.to/lastmile_qr_scan"}, "lon": -77.028848, "bike_id": "8766c8b05b154f5f34e443be024952b8", "type": "electric_scooter", "name": "8766c8b05b154f5f34e443be024952b8"}, {"is_disabled": 0, "is_reserved": 0, "fusion_lat": 0.0, "lat": 38.89890783333333, "fusion_lon": 0.0, "rental_uris": {"ios": "https://dc.lft.to/lastmile_qr_scan", "android": "https://dc.lft.to/lastmile_qr_scan"}, "lon": -77.019726, "bike_id": "f6342d7db2dcb41a9e78b9c9e7bdffb1", "type": "electric_scooter", "name": "f6342d7db2dcb41a9e78b9c9e7bdffb1"}, {"is_disabled": 0, "is_reserved": 0, "fusion_lat": 0.0, "lat": 38.9173465, "fusion_lon": 0.0, "rental_uris": {"ios": "https://dc.lft.to/lastmile_qr_scan", "android": "https://dc.lft.to/lastmile_qr_scan"}, "lon": -77.02301083333333, "bike_id": "d97d3ed2a22ceb73339c9a9f8ad557b7", "type": "electric_scooter", "name": "d97d3ed2a22ceb73339c9a9f8ad557b7"}, {"is_disabled": 0, "is_reserved": 0, "fusion_lat": 0.0, "lat": 38.8947755, "fusion_lon": 0.0, "rental_uris": {"ios": "https://dc.lft.to/lastmile_qr_scan", "android": "https://dc.lft.to/lastmile_qr_scan"}, "lon": -77.0256875, "bike_id": "dd590816dae21e0ae6cc62afa974ef0c", "type": "electric_scooter", "name": "dd590816dae21e0ae6cc62afa974ef0c"}, {"is_disabled": 0, "is_reserved": 0, "fusion_lat": 0.0, "lat": 38.929909333333335, "fusion_lon": 0.0, "rental_uris": {"ios": "https://dc.lft.to/lastmile_qr_scan", "android": "https://dc.lft.to/lastmile_qr_scan"}, "lon": -77.03471866666666, "bike_id": "896833d6e024f29d8626ff90b848efb3", "type": "electric_scooter", "name": "896833d6e024f29d8626ff90b848efb3"}, {"is_disabled": 0, "is_reserved": 0, "fusion_lat": 0.0, "lat": 38.934118, "fusion_lon": 0.0, "rental_uris": {"ios": "https://dc.lft.to/lastmile_qr_scan", "android": "https://dc.lft.to/lastmile_qr_scan"},