{"data": {"bikes": [{"fusion_lat": 0.0, "name": "ad220e5de20ba2a0d605f1c629ddec5c", "is_disabled": 0, "rental_uris": {"android": "https://dc.lft.to/lastmile_qr_scan", "ios": "https://dc.lft.to/lastmile_qr_scan"}, "fusion_lon": 0.0, "lat": 38.902892, "bike_id": "ad220e5de20ba2a0d605f1c629ddec5c", "type": "electric_scooter", "is_reserved": 0, "lon": -77.03644133333333}, {"fusion_lat": 0.0, "name": "cfa81adbd3f6bf283a56267659079156", "is_disabled": 0, "rental_uris": {"android": "https://dc.lft.to/lastmile_qr_scan", "ios": "https://dc.lft.to/lastmile_qr_scan"}, "fusion_lon": 0.0, "lat": 38.88743016666667, "bike_id": "cfa81adbd3f6bf283a56267659079156", "type": "electric_scooter", "is_reserved": 0, "lon": -77.02136633333333}, {"fusion_lat": 0.0, "name": "f82ea6b9fa3669b5b22fa147fb6be3d6", "is_disabled": 0, "rental_uris": {"android": "https://dc.lft.to/lastmile_qr_scan", "ios": "https://dc.lft.to/lastmile_qr_scan"}, "fusion_lon": 0.0, "lat": 38.917768, "bike_id": "f82ea6b9fa3669b5b22fa147fb6be3d6", "type": "electric_scooter", "is_reserved": 0, "lon": -77.03582266666666}, {"fusion_lat": 0.0, "name": "4370f0334a1a8ffb43a5b8dfc269551d", "is_disabled": 0, "rental_uris": {"android": "https://dc.lft.to/lastmile_qr_scan", "ios": "https://dc.lft.to/lastmile_qr_scan"}, "fusion_lon": 0.0, "lat": 38.9171515, "bike_id": "4370f0334a1a8ffb43a5b8dfc269551d", "type": "electric_scooter", "is_reserved": 0, "lon": -77.03859583333333}, {"fusion_lat": 0.0, "name": "033e8fc9c23cac059cc90065056585b1", "is_disabled": 0, "rental_uris": {"android": "https://dc.lft.to/lastmile_qr_scan", "ios": "https://dc.lft.to/lastmile_qr_scan"}, "fusion_lon": 0.0, "lat": 38.89950016666667, "bike_id": "033e8fc9c23cac059cc90065056585b1", "type": "electric_scooter", "is_reserved": 0, "lon": -77.0570145}, {"fusion_lat": 0.0, "name": "ba0c58c181f10779940d77f08fab0c24", "is_disabled": 0, "rental_uris": {"android": "https://dc.lft.to/lastmile_qr_scan", "ios": "https://dc.lft.to/lastmile_qr_scan"}, "fusion_lon": 0.0, "lat": 38.922856833333334, "bike_id": "ba0c58c181f10779940d77f08fab0c24", "type": "electric_scooter", "is_reserved": 0, "lon": -77.0366015}, {"fusion_lat": 0.0, "name": "9c4c27d5faafc9e3659d401212cf72e2", "is_disabled": 0, "rental_uris": {"android": "https://dc.lft.to/lastmile_qr_scan", "ios": "https://dc.lft.to/lastmile_qr_scan"}, "fusion_lon": 0.0, "lat": 38.9139845, "bike_id": "9c4c27d5faafc9e3659d401212cf72e2", "type": "electric_scooter", "is_reserved": 0, "lon": -77.07556783333334}, {"fusion_lat": 0.0, "name": "05f1da85b5b76f7349b0cca610f4475e", "is_disabled": 0, "rental_uris": {"android": "https://dc.lft.to/lastmile_qr_scan", "ios": "https://dc.lft.to/lastmile_qr_scan"}, "fusion_lon": 0.0, "lat": 38.9104605, "bike_id": "05f1da85b5b76f7349b0cca610f4475e", "type": "electric_scooter", "is_reserved": 0, "lon": -77.03308583333333}, {"fusion_lat": 0.0, "name": "46bfa15af6ca01f9bb816ae27fb37b33", "is_disabled": 0, "rental_uris": {"android": "https://dc.lft.to/lastmile_qr_scan", "ios": "https://dc.lft.to/lastmile_qr_scan"}, "fusion_lon": 0.0, "lat": 38.911257, "bike_id": "46bfa15af6ca01f9bb816ae27fb37b33", "type": "electric_scooter", "is_reserved": 0, "lon": -77.04490916666667}, {"fusion_lat": 0.0, "name": "1b94fcd662bdda7e7900de19a5ac3199", "is_disabled": 0, "rental_uris": {"android": "https://dc.lft.to/lastmile_qr_scan", "ios": "https://dc.lft.to/lastmile_qr_scan"}, "fusion_lon": 0.0, "lat": 38.9430935, "bike_id": "1b94fcd662bdda7e7900de19a5ac3199", "type": "electric_scooter", "is_reserved": 0, "lon": -77.06131916666666}, {"fusion_lat": 0.0, "name": "07dc9833bf52ca8423bf7d2081b88cef", "is_disabled": 0, "rental_uris": {"android": "https://dc.lft.to/lastmile_qr_scan", "ios": "https://dc.lft.to/lastmile_qr_scan"}, "fusion_lon": 0.0, "lat": 38.943422, "bike_id": "07dc9833bf52ca8423bf7d2081b88cef", "type": "electric_scooter", "is_reserved": 0, "lon": -77.032464}, {"fusion_lat": 0.0, "name": "4e82af06873d48201c7b42112d07f585", "is_disabled": 0, "rental_uris": {"android": "https://dc.lft.to/lastmile_qr_scan", "ios": "https://dc.lft.to/lastmile_qr_scan"}, "fusion_lon": 0.0, "lat": 38.9002785, "bike_id": "4e82af06873d48201c7b42112d07f585", "type": "electric_scooter", "is_reserved": 0, "lon": -76.99353733333334}, {"fusion_lat": 0.0, "name": "8c3297bed83bc224cd6d150c4a72570a", "is_disabled": 0, "rental_uris": {"android": "https://dc.lft.to/lastmile_qr_scan", "ios": "https://dc.lft.to/lastmile_qr_scan"}, "fusion_lon": 0.0, "lat": 38.91102166666667, "bike_id": "8c3297bed83bc224cd6d150c4a72570a", "type": "electric_scooter", "is_reserved": 0, "lon": -77.04840333333334}, {"fusion_lat": 0.0, "name": "8b5e95b22e1e8d33592d1f9c87b36aad", "is_disabled": 0, "rental_uris": {"android": "https://dc.lft.to/lastmile_qr_scan", "ios": "https://dc.lft.to/lastmile_qr_scan"}, "fusion_lon": 0.0, "lat": 38.9249415, "bike_id": "8b5e95b22e1e8d33592d1f9c87b36aad", "type": "electric_scooter", "is_reserved": 0, "lon": -77.02178283333333}, {"fusion_lat": 0.0, "name": "adb19ad44e1ee34d75632e775636ee9d", "is_disabled": 0, "rental_uris": {"android": "https://dc.lft.to/lastmile_qr_scan", "ios": "https://dc.lft.to/lastmile_qr_scan"}, "fusion_lon": 0.0, "lat": 38.842840833333334, "bike_id": "adb19ad44e1ee34d75632e775636ee9d", "type": "electric_bike", "is_reserved": 0, "lon": -77.044941}, {"fusion_lat": 0.0, "name": "2c776d0dbb9f1a6c6ab9ba36f206ee14", "is_disabled": 0, "rental_uris": {"android": "https://dc.lft.to/lastmile_qr_scan", "ios": "https://dc.lft.to/lastmile_qr_scan"}, "fusion_lon": 0.0, "lat": 38.956062833333334, "bike_id": "2c776d0dbb9f1a6c6ab9ba36f206ee14", "type": "electric_scooter", "is_reserved": 0, "lon": -77.03353333333334}, {"fusion_lat": 0.0, "name": "ad97544cf5a1c026678ccc5594488ee3", "is_disabled": 0, "rental_uris": {"android": "https://dc.lft.to/lastmile_qr_scan", "ios": "https://dc.lft.to/lastmile_qr_scan"}, "fusion_lon": 0.0, "lat": 38.88675083333333, "bike_id": "ad97544cf5a1c026678ccc5594488ee3", "type": "electric_bike", "is_reserved": 0, "lon": -77.16249433333333}, {"fusion_lat": 0.0, "name": "55fb7c60b84cd4451d000a06949502d5", "is_disabled": 0, "rental_uris": {"android": "https://dc.lft.to/lastmile_qr_scan", "ios": "https://dc.lft.to/lastmile_qr_scan"}, "fusion_lon": 0.0, "lat": 38.857976666666666, "bike_id": "55fb7c60b84cd4451d000a06949502d5", "type": "electric_bike", "is_reserved": 0, "lon": -77.05148633333333}, {"fusion_lat": 0.0, "name": "57b58e8762c9b2a4d0bb3ec361e0d50a", "is_disabled": 0, "rental_uris": {"android": "https://dc.lft.to/lastmile_qr_scan", "ios": "https://dc.lft.to/lastmile_qr_scan"}, "fusion_lon": 0.0, "lat": 38.927531333333334, "bike_id": "57b58e8762c9b2a4d0bb3ec361e0d50a", "type": "electric_scooter", "is_reserved": 0, "lon": -77.02451533333333}, {"fusion_lat": 0.0, "name": "3d918c66ce2a3c1010d7dced6dd1ab7e", "is_disabled": 0, "rental_uris": {"android": "https://dc.lft.to/lastmile_qr_scan", "ios": "https://dc.lft.to/lastmile_qr_scan"}, "fusion_lon": 0.0, "lat": 38.94410083333333, "bike_id": "3d918c66ce2a3c1010d7dced6dd1ab7e", "type": "electric_scooter", "is_reserved": 0, "lon": -77.06323783333333}, {"fusion_lat": 0.0, "name": "9f51f4aa8e85c5ebafa165d4d09e56a2", "is_disabled": 0, "rental_uris": {"android": "https://dc.lft.to/lastmile_qr_scan", "ios": "https://dc.lft.to/lastmile_qr_scan"}, "fusion_lon": 0.0, "lat": 38.908015166666665, "bike_id": "9f51f4aa8e85c5ebafa165d4d09e56a2", "type": "electric_scooter", "is_reserved": 0, "lon": -77.04270583333333}, {"fusion_lat": 0.0, "name": "a69e538c740267540d1d992693978a86", "is_disabled": 0, "rental_uris": {"android": "https://dc.lft.to/lastmile_qr_scan", "ios": "https://dc.lft.to/lastmile_qr_scan"}, "fusion_lon": 0.0, "lat": 38.89216183333333, "bike_id": "a69e538c740267540d1d992693978a86", "type": "electric_scooter", "is_reserved": 0, "lon": -77.026337}, {"fusion_lat": 0.0, "name": "1bc2a0ae675235de955de55eb6ae3366", "is_disabled": 0, "rental_uris": {"android": "https://dc.lft.to/lastmile_qr_scan", "ios": "https://dc.lft.to/lastmile_qr_scan"}, "fusion_lon": 0.0, "lat": 38.91706466666667, "bike_id": "1bc2a0ae675235de955de55eb6ae3366", "type": "electric_scooter", "is_reserved": 0, "lon": -77.04002116666666}, {"fusion_lat": 0.0, "name": "bd95085b02c9a06fd5defd9ec49d0a75", "is_disabled": 0, "rental_uris": {"android": "https://dc.lft.to/lastmile_qr_scan", "ios": "https://dc.lft.to/lastmile_qr_scan"}, "fusion_lon": 0.0, "lat": 38.90331033333333, "bike_id": "bd95085b02c9a06fd5defd9ec49d0a75", "type": "electric_bike", "is_reserved": 0, "lon": -76.97527866666667}, {"fusion_lat": 0.0, "name": "113f459db5466b728073c7dee48847b7", "is_disabled": 0, "rental_uris": {"android": "https://dc.lft.to/lastmile_qr_scan", "ios": "https://dc.lft.to/lastmile_qr_scan"}, "fusion_lon": 0.0, "lat": 38.923165, "bike_id": "113f459db5466b728073c7dee48847b7", "type": "electric_scooter", "is_reserved": 0, "lon": -77.0363505}, {"fusion_lat": 0.0, "name": "9801665e3be6febe3807e8cd72cb732c", "is_disabled": 0, "rental_uris": {"android": "https://dc.lft.to/lastmile_qr_scan", "ios": "https://dc.lft.to/lastmile_qr_scan"}, "fusion_lon": 0.0, "lat": 38.93982166666667, "bike_id": "9801665e3be6febe3807e8cd72cb732c", "type": "electric_scooter", "is_reserved": 0, "lon": -77.01916733333333}, {"fusion_lat": 0.0, "name": "07787df15b38a2722a186c6025c223ad", "is_disabled": 0, "rental_uris": {"android": "https://dc.lft.to/lastmile_qr_scan", "ios": "https://dc.lft.to/lastmile_qr_scan"}, "fusion_lon": 0.0, "lat": 38.90042866666667, "bike_id": "07787df15b38a2722a186c6025c223ad", "type": "electric_scooter", "is_reserved": 0, "lon": -77.01172133333333}, {"fusion_lat": 0.0, "name": "6cbeb1b055a60577e34a0228e04cfc20", "is_disabled": 0, "rental_uris": {"android": "https://dc.lft.to/lastmile_qr_scan", "ios": "https://dc.lft.to/lastmile_qr_scan"}, "fusion_lon": 0.0, "lat": 38.89894666666667, "bike_id": "6cbeb1b055a60577e34a0228e04cfc20", "type": "electric_scooter", "is_reserved": 0, "lon": -76.98495733333333}, {"fusion_lat": 0.0, "name": "a25e189d4d7ccc37fcd6778bb44e6be5", "is_disabled": 0, "rental_uris": {"android": "https://dc.lft.to/lastmile_qr_scan", "ios": "https://dc.lft.to/lastmile_qr_scan"}, "fusion_lon": 0.0, "lat": 39.00481633333333, "bike_id": "a25e189d4d7ccc37fcd6778bb44e6be5", "type": "electric_bike", "is_reserved": 0, "lon": -77.02183983333333}, {"fusion_lat": 0.0, "name": "45578b6f61c1ab89a84cfa9fbced54b8", "is_disabled": 0, "rental_uris": {"android": "https://dc.lft.to/lastmile_qr_scan", "ios": "https://dc.lft.to/lastmile_qr_scan"}, "fusion_lon": 0.0, "lat": 38.907639333333336, "bike_id": "45578b6f61c1ab89a84cfa9fbced54b8", "type": "electric_scooter", "is_reserved": 0, "lon": -77.0384205}, {"fusion_lat": 0.0, "name": "2210761d15032304affb90ed54d4cb82", "is_disabled": 0, "rental_uris": {"android": "https://dc.lft.to/lastmile_qr_scan", "ios": "https://dc.lft.to/lastmile_qr_scan"}, "fusion_lon": 0.0, "lat": 38.89224933333333, "bike_id": "2210761d15032304affb90ed54d4cb82", "type": "electric_scooter", "is_reserved": 0, "lon": -77.04334083333333}, {"fusion_lat": 0.0, "name": "50a869426a53ea2a6d987cbfbcd55205", "is_disabled": 0, "rental_uris": {"android": "https://dc.lft.to/lastmile_qr_scan", "ios": "https://dc.lft.to/lastmile_qr_scan"}, "fusion_lon": 0.0, "lat": 38.8358035, "bike_id": "50a869426a53ea2a6d987cbfbcd55205", "type": "electric_bike", "is_reserved": 0, "lon": -76.990137}, {"fusion_lat": 0.0, "name": "b40654a11e2df713876597924bcceede", "is_disabled": 0, "rental_uris": {"android": "https://dc.lft.to/lastmile_qr_scan", "ios": "https://dc.lft.to/lastmile_qr_scan"}, "fusion_lon": 0.0, "lat": 38.893020666666665, "bike_id": "b40654a11e2df713876597924bcceede", "type": "electric_scooter", "is_reserved": 0, "lon": -77.012309}, {"fusion_lat": 0.0, "name": "673d89a7fa80db8e78b26559354c9d24", "is_disabled": 0, "rental_uris": {"android": "https://dc.lft.to/lastmile_qr_scan", "ios": "https://dc.lft.to/lastmile_qr_scan"}, "fusion_lon": 0.0, "lat": 38.933811, "bike_id": "673d89a7fa80db8e78b26559354c9d24", "type": "electric_scooter", "is_reserved": 0, "lon": -77.0387945}, {"fusion_lat": 0.0, "name": "fa29f5e15111a7668149467f0b13de00", "is_disabled": 0, "rental_uris": {"android": "https://dc.lft.to/lastmile_qr_scan", "ios": "https://dc.lft.to/lastmile_qr_scan"}, "fusion_lon": 0.0, "lat": 38.92624633333333, "bike_id": "fa29f5e15111a7668149467f0b13de00", "type": "electric_scooter", "is_reserved": 0, "lon": -77.0350545}, {"fusion_lat": 0.0, "name": "8f66812db6e46d3d6318b2a365e5469e", "is_disabled": 0, "rental_uris": {"android": "https://dc.lft.to/lastmile_qr_scan", "ios": "https://dc.lft.to/lastmile_qr_scan"}, "fusion_lon": 0.0, "lat": 38.910080666666666, "bike_id": "8f66812db6e46d3d6318b2a365e5469e", "type": "electric_scooter", "is_reserved": 0, "lon": -77.049154}, {"fusion_lat": 0.0, "name": "0357b596c252601aee6fe9fe7f2f79b4", "is_disabled": 0, "rental_uris": {"android": "https://dc.lft.to/lastmile_qr_scan", "ios": "https://dc.lft.to/lastmile_qr_scan"}, "fusion_lon": 0.0, "lat": 38.898343833333335, "bike_id": "0357b596c252601aee6fe9fe7f2f79b4", "type": "electric_scooter", "is_reserved": 0, "lon": -77.02507583333333}, {"fusion_lat": 0.0, "name": "c84adb5f9924e1718a7b32e6c5be61ab", "is_disabled": 0, "rental_uris": {"android": "https://dc.lft.to/lastmile_qr_scan", "ios": "https://dc.lft.to/lastmile_qr_scan"}, "fusion_lon": 0.0, "lat": 38.92421566666667, "bike_id": "c84adb5f9924e1718a7b32e6c5be61ab", "type": "electric_scooter", "is_reserved": 0, "lon": -76.99713116666666}, {"fusion_lat": 0.0, "name": "066e9e78a1b30876de350f4c8de990af", "is_disabled": 0, "rental_uris": {"android": "https://dc.lft.to/lastmile_qr_scan", "ios": "https://dc.lft.to/lastmile_qr_scan"}, "fusion_lon": 0.0, "lat": 38.9078245, "bike_id": "066e9e78a1b30876de350f4c8de990af", "type": "electric_scooter", "is_reserved": 0, "lon": -77.0110795}, {"fusion_lat": 0.0, "name": "7c15ab42dde58f3e85f56430a9da44c2", "is_disabled": 0, "rental_uris": {"android": "https://dc.lft.to/lastmile_qr_scan", "ios": "https://dc.lft.to/lastmile_qr_scan"}, "fusion_lon": 0.0, "lat": 38.96591083333333, "bike_id": "7c15ab42dde58f3e85f56430a9da44c2", "type": "electric_scooter", "is_reserved": 0, "lon": -77.0159765}, {"fusion_lat": 0.0, "name": "7c6e4fda0096f803ed8b571aa479aa28", "is_disabled": 0, "rental_uris": {"android": "https://dc.lft.to/lastmile_qr_scan", "ios": "https://dc.lft.to/lastmile_qr_scan"}, "fusion_lon": 0.0, "lat": 38.924797833333336, "bike_id": "7c6e4fda0096f803ed8b571aa479aa28", "type": "electric_scooter", "is_reserved": 0, "lon": -77.03762916666666}, {"fusion_lat": 0.0, "name": "65f05dde12a5c363575be9af18e87fa3", "is_disabled": 0, "rental_uris": {"android": "https://dc.lft.to/lastmile_qr_scan", "ios": "https://dc.lft.to/lastmile_qr_scan"}, "fusion_lon": 0.0, "lat": 38.90235233333333, "bike_id": "65f05dde12a5c363575be9af18e87fa3", "type": "electric_scooter", "is_reserved": 0, "lon": -77.02610383333334}, {"fusion_lat": 0.0, "name": "1cfd4fbbb65e981878590980f750de42", "is_disabled": 0, "rental_uris": {"android": "https://dc.lft.to/lastmile_qr_scan", "ios": "https://dc.lft.to/lastmile_qr_scan"}, "fusion_lon": 0.0, "lat": 38.90738916666667, "bike_id": "1cfd4fbbb65e981878590980f750de42", "type": "electric_scooter", "is_reserved": 0, "lon": -77.04339016666667}, {"fusion_lat": 0.0, "name": "03f3464d2c56358226b2653dc1ed0e4b", "is_disabled": 0, "rental_uris": {"android": "https://dc.lft.to/lastmile_qr_scan", "ios": "https://dc.lft.to/lastmile_qr_scan"}, "fusion_lon": 0.0, "lat": 38.92322, "bike_id": "03f3464d2c56358226b2653dc1ed0e4b", "type": "electric_scooter", "is_reserved": 0, "lon": -77.0402945}, {"fusion_lat": 0.0, "name": "7a6a10ea553ed5b0edf9390b87b9b292", "is_disabled": 0, "rental_uris": {"android": "https://dc.lft.to/lastmile_qr_scan", "ios": "https://dc.lft.to/lastmile_qr_scan"}, "fusion_lon": 0.0, "lat": 38.9043955, "bike_id": "7a6a10ea553ed5b0edf9390b87b9b292", "type": "electric_scooter", "is_reserved": 0, "lon": -77.05816066666667}, {"fusion_lat": 0.0, "name": "af190f15c2fedf113952ae1edf0d785c", "is_disabled": 0, "rental_uris": {"android": "https://dc.lft.to/lastmile_qr_scan", "ios": "https://dc.lft.to/lastmile_qr_scan"}, "fusion_lon": 0.0, "lat": 38.89249383333333, "bike_id": "af190f15c2fedf113952ae1edf0d785c", "type": "electric_scooter", "is_reserved": 0, "lon": -77.03956333333333}, {"fusion_lat": 0.0, "name": "a43f3b929332f86649371ce10e652bf2", "is_disabled": 0, "rental_uris": {"android": "https://dc.lft.to/lastmile_qr_scan", "ios": "https://dc.lft.to/lastmile_qr_scan"}, "fusion_lon": 0.0, "lat": 38.932575166666666, "bike_id": "a43f3b929332f86649371ce10e652bf2", "type": "electric_scooter", "is_reserved": 0, "lon": -77.03257633333334}, {"fusion_lat": 0.0, "name": "cca73cb756ad974a1da25a11f00e9c7b", "is_disabled": 0, "rental_uris": {"android": "https://dc.lft.to/lastmile_qr_scan", "ios": "https://dc.lft.to/lastmile_qr_scan"}, "fusion_lon": 0.0, "lat": 38.926155666666666, "bike_id": "cca73cb756ad974a1da25a11f00e9c7b", "type": "electric_scooter", "is_reserved": 0, "lon": -77.03667983333334}, {"fusion_lat": 0.0, "name": "2595d4c26ca7072158f778d02a6fbdc5", "is_disabled": 0, "rental_uris": {"android": "https://dc.lft.to/lastmile_qr_scan", "ios": "https://dc.lft.to/lastmile_qr_scan"}, "fusion_lon": 0.0, "lat": 38.917633, "bike_id": "2595d4c26ca7072158f778d02a6fbdc5", "type": "electric_scooter", "is_reserved": 0, "lon": -77.06948483333333}, {"fusion_lat": 0.0, "name": "769cbd4acb52e2acc78b4514258df7dc", "is_disabled": 0, "rental_uris": {"android": "https://dc.lft.to/lastmile_qr_scan", "ios": "https://dc.lft.to/lastmile_qr_scan"}, "fusion_lon": 0.0, "lat": 38.920209166666666, "bike_id": "769cbd4acb52e2acc78b4514258df7dc", "type": "electric_scooter", "is_reserved": 0, "lon": -77.0131445}, {"fusion_lat": 0.0, "name": "583b2af5d660b3a79269798454eb076b", "is_disabled": 0, "rental_uris": {"android": "https://dc.lft.to/lastmile_qr_scan", "ios": "https://dc.lft.to/lastmile_qr_scan"}, "fusion_lon": 0.0, "lat": 38.911186, "bike_id": "583b2af5d660b3a79269798454eb076b", "type": "electric_scooter", "is_reserved": 0, "lon": -77.00756083333333}, {"fusion_lat": 0.0, "name": "101d3173460d08c92eb0fbb539f19b90", "is_disabled": 0, "rental_uris": {"android": "https://dc.lft.to/lastmile_qr_scan", "ios": "https://dc.lft.to/lastmile_qr_scan"}, "fusion_lon": 0.0, "lat": 38.9002895, "bike_id": "101d3173460d08c92eb0fbb539f19b90", "type": "electric_scooter", "is_reserved": 0, "lon": -76.9891945}, {"fusion_lat": 0.0, "name": "86e9283e9f6d04555d0681dd52bd0e38", "is_disabled": 0, "rental_uris": {"android": "https://dc.lft.to/lastmile_qr_scan", "ios": "https://dc.lft.to/lastmile_qr_scan"}, "fusion_lon": 0.0, "lat": 38.934788166666664, "bike_id": "86e9283e9f6d04555d0681dd52bd0e38", "type": "electric_scooter", "is_reserved": 0, "lon": -77.07266583333333}, {"fusion_lat": 0.0, "name": "7a229edd66542c59bd413d7b16bd6c77", "is_disabled": 0, "rental_uris": {"android": "https://dc.lft.to/lastmile_qr_scan", "ios": "https://dc.lft.to/lastmile_qr_scan"}, "fusion_lon": 0.0, "lat": 38.89876566666667, "bike_id": "7a229edd66542c59bd413d7b16bd6c77", "type": "electric_scooter", "is_reserved": 0, "lon": -76.93181066666666}, {"fusion_lat": 0.0, "name": "616c5ffa5d33235e8aaaea7052689094", "is_disabled": 0, "rental_uris": {"android": "https://dc.lft.to/lastmile_qr_scan", "ios": "https://dc.lft.to/lastmile_qr_scan"}, "fusion_lon": 0.0, "lat": 38.92498416666667, "bike_id": "616c5ffa5d33235e8aaaea7052689094", "type": "electric_scooter", "is_reserved": 0, "lon": -76.98536283333334}, {"fusion_lat": 0.0, "name": "aa91c3efc6aa18f98ed10b19321cc4ae", "is_disabled": 0, "rental_uris": {"android": "https://dc.lft.to/lastmile_qr_scan", "ios": "https://dc.lft.to/lastmile_qr_scan"}, "fusion_lon": 0.0, "lat": 38.940835, "bike_id": "aa91c3efc6aa18f98ed10b19321cc4ae", "type": "electric_scooter", "is_reserved": 0, "lon": -77.02638233333333}, {"fusion_lat": 0.0, "name": "19d8f80993ba8eb5f7c1b2e17f476eba", "is_disabled": 0, "rental_uris": {"android": "https://dc.lft.to/lastmile_qr_scan", "ios": "https://dc.lft.to/lastmile_qr_scan"}, "fusion_lon": 0.0, "lat": 38.900922333333334, "bike_id": "19d8f80993ba8eb5f7c1b2e17f476eba", "type": "electric_scooter", "is_reserved": 0, "lon": -77.04986133333334}, {"fusion_lat": 0.0, "name": "02535fcbd636f7125a0ed6ac6526d735", "is_disabled": 0, "rental_uris": {"android": "https://dc.lft.to/lastmile_qr_scan", "ios": "https://dc.lft.to/lastmile_qr_scan"}, "fusion_lon": 0.0, "lat": 38.89230233333333, "bike_id": "02535fcbd636f7125a0ed6ac6526d735", "type": "electric_scooter", "is_reserved": 0, "lon": -77.0487425}, {"fusion_lat": 0.0, "name": "8923ac6268cc8644a4c73223e369b4b5", "is_disabled": 0, "rental_uris": {"android": "https://dc.lft.to/lastmile_qr_scan", "ios": "https://dc.lft.to/lastmile_qr_scan"}, "fusion_lon": 0.0, "lat": 38.90362983333333, "bike_id": "8923ac6268cc8644a4c73223e369b4b5", "type": "electric_scooter", "is_reserved": 0, "lon": -77.04263483333334}, {"fusion_lat": 0.0, "name": "cc10154bcb60e5b8bc91a30bb6cb81d7", "is_disabled": 0, "rental_uris": {"android": "https://dc.lft.to/lastmile_qr_scan", "ios": "https://dc.lft.to/lastmile_qr_scan"}, "fusion_lon": 0.0, "lat": 38.906993166666666, "bike_id": "cc10154bcb60e5b8bc91a30bb6cb81d7", "type": "electric_scooter", "is_reserved": 0, "lon": -77.04173366666667}, {"fusion_lat": 0.0, "name": "ba89ac1f667d6090437081e70c0fde35", "is_disabled": 0, "rental_uris": {"android": "https://dc.lft.to/lastmile_qr_scan", "ios": "https://dc.lft.to/lastmile_qr_scan"}, "fusion_lon": 0.0, "lat": 38.8958765, "bike_id": "ba89ac1f667d6090437081e70c0fde35", "type": "electric_scooter", "is_reserved": 0, "lon": -77.02187983333333}, {"fusion_lat": 0.0, "name": "ef107f488cb17c46d8ed2696994f0e32", "is_disabled": 0, "rental_uris": {"android": "https://dc.lft.to/lastmile_qr_scan", "ios": "https://dc.lft.to/lastmile_qr_scan"}, "fusion_lon": 0.0, "lat": 38.91257916666667, "bike_id": "ef107f488cb17c46d8ed2696994f0e32", "type": "electric_scooter", "is_reserved": 0, "lon": -77.01030433333334}, {"fusion_lat": 0.0, "name": "ec49de4e15e7fd8737d65b1509f03fb9", "is_disabled": 0, "rental_uris": {"android": "https://dc.lft.to/lastmile_qr_scan", "ios": "https://dc.lft.to/lastmile_qr_scan"}, "fusion_lon": 0.0, "lat": 38.9205555, "bike_id": "ec49de4e15e7fd8737d65b1509f03fb9", "type": "electric_scooter", "is_reserved": 0, "lon": -77.033942}, {"fusion_lat": 0.0, "name": "e8c9dff243a3ba90fa4f4c8ba9f1e973", "is_disabled": 0, "rental_uris": {"android": "https://dc.lft.to/lastmile_qr_scan", "ios": "https://dc.lft.to/lastmile_qr_scan"}, "fusion_lon": 0.0, "lat": 38.930553333333336, "bike_id": "e8c9dff243a3ba90fa4f4c8ba9f1e973", "type": "electric_scooter", "is_reserved": 0, "lon": -77.0320545}, {"fusion_lat": 0.0, "name": "3ca741df6e1b07c59d0c3165d8518290", "is_disabled": 0, "rental_uris": {"android": "https://dc.lft.to/lastmile_qr_scan", "ios": "https://dc.lft.to/lastmile_qr_scan"}, "fusion_lon": 0.0, "lat": 38.873747, "bike_id": "3ca741df6e1b07c59d0c3165d8518290", "type": "electric_scooter", "is_reserved": 0, "lon": -77.0003455}, {"fusion_lat": 0.0, "name": "56e006d3a9750a74255ce36a9c6dfc8a", "is_disabled": 0, "rental_uris": {"android": "https://dc.lft.to/lastmile_qr_scan", "ios": "https://dc.lft.to/lastmile_qr_scan"}, "fusion_lon": 0.0, "lat": 38.91257233333333, "bike_id": "56e006d3a9750a74255ce36a9c6dfc8a", "type": "electric_scooter", "is_reserved": 0, "lon": -77.03634516666666}, {"fusion_lat": 0.0, "name": "cfdb0e42551c8e7029b02c423b615492", "is_disabled": 0, "rental_uris": {"android": "https://dc.lft.to/lastmile_qr_scan", "ios": "https://dc.lft.to/lastmile_qr_scan"}, "fusion_lon": 0.0, "lat": 38.878324, "bike_id": "cfdb0e42551c8e7029b02c423b615492", "type": "electric_scooter", "is_reserved": 0, "lon": -76.96324066666666}, {"fusion_lat": 0.0, "name": "0654f156300c0351ef0ff8ed4708e556", "is_disabled": 0, "rental_uris": {"android": "https://dc.lft.to/lastmile_qr_scan", "ios": "https://dc.lft.to/lastmile_qr_scan"}, "fusion_lon": 0.0, "lat": 38.9141575, "bike_id": "0654f156300c0351ef0ff8ed4708e556", "type": "electric_scooter", "is_reserved": 0, "lon": -77.03995033333334}, {"fusion_lat": 0.0, "name": "5b5950125d7c70f4724891f632b898e8", "is_disabled": 0, "rental_uris": {"android": "https://dc.lft.to/lastmile_qr_scan", "ios": "https://dc.lft.to/lastmile_qr_scan"}, "fusion_lon": 0.0, "lat": 38.93475083333333, "bike_id": "5b5950125d7c70f4724891f632b898e8", "type": "electric_scooter", "is_reserved": 0, "lon": -77.08664133333333}, {"fusion_lat": 0.0, "name": "e7b8733a58c1c16e667abee1b054898f", "is_disabled": 0, "rental_uris": {"android": "https://dc.lft.to/lastmile_qr_scan", "ios": "https://dc.lft.to/lastmile_qr_scan"}, "fusion_lon": 0.0, "lat": 38.85800033333334, "bike_id": "e7b8733a58c1c16e667abee1b054898f", "type": "electric_bike", "is_reserved": 0, "lon": -76.9872135}, {"fusion_lat": 0.0, "name": "0136ab639c460631c7103e91b3d99fc7", "is_disabled": 0, "rental_uris": {"android": "https://dc.lft.to/lastmile_qr_scan", "ios": "https://dc.lft.to/lastmile_qr_scan"}, "fusion_lon": 0.0, "lat": 38.89221216666667, "bike_id": "0136ab639c460631c7103e91b3d99fc7", "type": "electric_scooter", "is_reserved": 0, "lon": -77.0263145}, {"fusion_lat": 0.0, "name": "207a4c88a196be09c51f071e4ebb79ec", "is_disabled": 0, "rental_uris": {"android": "https://dc.lft.to/lastmile_qr_scan", "ios": "https://dc.lft.to/lastmile_qr_scan"}, "fusion_lon": 0.0, "lat": 38.89603816666666, "bike_id": "207a4c88a196be09c51f071e4ebb79ec", "type": "electric_scooter", "is_reserved": 0, "lon": -77.00929016666667}, {"fusion_lat": 0.0, "name": "6a5330e3d503b30434491841a5326887", "is_disabled": 0, "rental_uris": {"android": "https://dc.lft.to/lastmile_qr_scan", "ios": "https://dc.lft.to/lastmile_qr_scan"}, "fusion_lon": 0.0, "lat": 38.9219285, "bike_id": "6a5330e3d503b30434491841a5326887", "type": "electric_scooter", "is_reserved": 0, "lon": -76.99693516666666}, {"fusion_lat": 0.0, "name": "b015b09830e1272e0c5abcb1391938a3", "is_disabled": 0, "rental_uris": {"android": "https://dc.lft.to/lastmile_qr_scan", "ios": "https://dc.lft.to/lastmile_qr_scan"}, "fusion_lon": 0.0, "lat": 38.900991833333336, "bike_id": "b015b09830e1272e0c5abcb1391938a3", "type": "electric_scooter", "is_reserved": 0, "lon": -77.019795}, {"fusion_lat": 0.0, "name": "a3b35513f7b38f294e0057d5a745d9f7", "is_disabled": 0, "rental_uris": {"android": "https://dc.lft.to/lastmile_qr_scan", "ios": "https://dc.lft.to/lastmile_qr_scan"}, "fusion_lon": 0.0, "lat": 38.9417665, "bike_id": "a3b35513f7b38f294e0057d5a745d9f7", "type": "electric_scooter", "is_reserved": 0, "lon": -77.03651133333334}, {"fusion_lat": 0.0, "name": "5735560b2b469a9618126fe7dae850c1", "is_disabled": 0, "rental_uris": {"android": "https://dc.lft.to/lastmile_qr_scan", "ios": "https://dc.lft.to/lastmile_qr_scan"}, "fusion_lon": 0.0, "lat": 38.917192, "bike_id": "5735560b2b469a9618126fe7dae850c1", "type": "electric_scooter", "is_reserved": 0, "lon": -77.0083205}, {"fusion_lat": 0.0, "name": "5e3115c5b3b7e5d7c33a3007cfef4d86", "is_disabled": 0, "rental_uris": {"android": "https://dc.lft.to/lastmile_qr_scan", "ios": "https://dc.lft.to/lastmile_qr_scan"}, "fusion_lon": 0.0, "lat": 38.918093, "bike_id": "5e3115c5b3b7e5d7c33a3007cfef4d86", "type": "electric_scooter", "is_reserved": 0, "lon": -77.04004133333333}, {"fusion_lat": 0.0, "name": "35228ef921bf55766c967c10b4c8408e", "is_disabled": 0, "rental_uris": {"android": "https://dc.lft.to/lastmile_qr_scan", "ios": "https://dc.lft.to/lastmile_qr_scan"}, "fusion_lon": 0.0, "lat": 38.899421833333335, "bike_id": "35228ef921bf55766c967c10b4c8408e", "type": "electric_scooter", "is_reserved": 0, "lon": -77.02401766666667}, {"fusion_lat": 0.0, "name": "d2577ff13632b906dbc9b76a90fe40fc", "is_disabled": 0, "rental_uris": {"android": "https://dc.lft.to/lastmile_qr_scan", "ios": "https://dc.lft.to/lastmile_qr_scan"}, "fusion_lon": 0.0, "lat": 38.92312966666667, "bike_id": "d2577ff13632b906dbc9b76a90fe40fc", "type": "electric_scooter", "is_reserved": 0, "lon": -77.03750016666666}, {"fusion_lat": 0.0, "name": "abcdabf20283626f5a74a65bfb43f06c", "is_disabled": 0, "rental_uris": {"android": "https://dc.lft.to/lastmile_qr_scan", "ios": "https://dc.lft.to/lastmile_qr_scan"}, "fusion_lon": 0.0, "lat": 38.88366083333333, "bike_id": "abcdabf20283626f5a74a65bfb43f06c", "type": "electric_scooter", "is_reserved": 0, "lon": -77.01955183333334}, {"fusion_lat": 0.0, "name": "a5c4b3afc51f92a9663d64fd02baf6a9", "is_disabled": 0, "rental_uris": {"android": "https://dc.lft.to/lastmile_qr_scan", "ios": "https://dc.lft.to/lastmile_qr_scan"}, "fusion_lon": 0.0, "lat": 38.9055875, "bike_id": "a5c4b3afc51f92a9663d64fd02baf6a9", "type": "electric_scooter", "is_reserved": 0, "lon": -77.034316}, {"fusion_lat": 0.0, "name": "7b3e3495d4c8342df5ab465c28502242", "is_disabled": 0, "rental_uris": {"android": "https://dc.lft.to/lastmile_qr_scan", "ios": "https://dc.lft.to/lastmile_qr_scan"}, "fusion_lon": 0.0, "lat": 38.862492833333334, "bike_id": "7b3e3495d4c8342df5ab465c28502242", "type": "electric_bike", "is_reserved": 0, "lon": -76.98326066666667}, {"fusion_lat": 0.0, "name": "4417d04bf322f535a83cc8eeed7ee9e1", "is_disabled": 0, "rental_uris": {"android": "https://dc.lft.to/lastmile_qr_scan", "ios": "https://dc.lft.to/lastmile_qr_scan"}, "fusion_lon": 0.0, "lat": 38.9214265, "bike_id": "4417d04bf322f535a83cc8eeed7ee9e1", "type": "electric_scooter", "is_reserved": 0, "lon": -77.04009583333334}, {"fusion_lat": 0.0, "name": "b1c472172e8b42c6ae113c8798567a33", "is_disabled": 0, "rental_uris": {"android": "https://dc.lft.to/lastmile_qr_scan", "ios": "https://dc.lft.to/lastmile_qr_scan"}, "fusion_lon": 0.0, "lat": 38.8922975, "bike_id": "b1c472172e8b42c6ae113c8798567a33", "type": "electric_scooter", "is_reserved": 0, "lon": -76.9881535}, {"fusion_lat": 0.0, "name": "2fe691dc118362b9604759dd18f23482", "is_disabled": 0, "rental_uris": {"android": "https://dc.lft.to/lastmile_qr_scan", "ios": "https://dc.lft.to/lastmile_qr_scan"}, "fusion_lon": 0.0, "lat": 38.92863833333333, "bike_id": "2fe691dc118362b9604759dd18f23482", "type": "electric_scooter", "is_reserved": 0, "lon": -77.01388916666667}, {"fusion_lat": 0.0, "name": "95a912f58198eed57a0c61cd5c24439a", "is_disabled": 0, "rental_uris": {"android": "https://dc.lft.to/lastmile_qr_scan", "ios": "https://dc.lft.to/lastmile_qr_scan"}, "fusion_lon": 0.0, "lat": 38.91311116666667, "bike_id": "95a912f58198eed57a0c61cd5c24439a", "type": "electric_scooter", "is_reserved": 0, "lon": -77.0189885}, {"fusion_lat": 0.0, "name": "5bc7aa9deecff4b4ed99544e204a4b52", "is_disabled": 0, "rental_uris": {"android": "https://dc.lft.to/lastmile_qr_scan", "ios": "https://dc.lft.to/lastmile_qr_scan"}, "fusion_lon": 0.0, "lat": 38.907042, "bike_id": "5bc7aa9deecff4b4ed99544e204a4b52", "type": "electric_scooter", "is_reserved": 0, "lon": -77.0504985}, {"fusion_lat": 0.0, "name": "61c97fba73b268870dd7afcd19d9be0f", "is_disabled": 0, "rental_uris": {"android": "https://dc.lft.to/lastmile_qr_scan", "ios": "https://dc.lft.to/lastmile_qr_scan"}, "fusion_lon": 0.0, "lat": 38.806698, "bike_id": "61c97fba73b268870dd7afcd19d9be0f", "type": "electric_bike", "is_reserved": 0, "lon": -77.06915466666666}, {"fusion_lat": 0.0, "name": "6726d700bb58ec26276d4276cb7c1437", "is_disabled": 0, "rental_uris": {"android": "https://dc.lft.to/lastmile_qr_scan", "ios": "https://dc.lft.to/lastmile_qr_scan"}, "fusion_lon": 0.0, "lat": 38.92238316666667, "bike_id": "6726d700bb58ec26276d4276cb7c1437", "type": "electric_scooter", "is_reserved": 0, "lon": -77.02911166666667}, {"fusion_lat": 0.0, "name": "9c733bf5f834bee4444873a2386c835e", "is_disabled": 0, "rental_uris": {"android": "https://dc.lft.to/lastmile_qr_scan", "ios": "https://dc.lft.to/lastmile_qr_scan"}, "fusion_lon": 0.0, "lat": 38.916247166666665, "bike_id": "9c733bf5f834bee4444873a2386c835e", "type": "electric_scooter", "is_reserved": 0, "lon": -77.03201066666666}, {"fusion_lat": 0.0, "name": "de7c756c6be404f837427c64dc446ff0", "is_disabled": 0, "rental_uris": {"android": "https://dc.lft.to/lastmile_qr_scan", "ios": "https://dc.lft.to/lastmile_qr_scan"}, "fusion_lon": 0.0, "lat": 38.90168033333333, "bike_id": "de7c756c6be404f837427c64dc446ff0", "type": "electric_scooter", "is_reserved": 0, "lon": -76.99255016666666}, {"fusion_lat": 0.0, "name": "50b740b31dea4232b0ee7c6620e1a52f", "is_disabled": 0, "rental_uris": {"android": "https://dc.lft.to/lastmile_qr_scan", "ios": "https://dc.lft.to/lastmile_qr_scan"}, "fusion_lon": 0.0, "lat": 38.905627833333334, "bike_id": "50b740b31dea4232b0ee7c6620e1a52f", "type": "electric_scooter", "is_reserved": 0, "lon": -77.04559316666666}, {"fusion_lat": 0.0, "name": "d64f14929f89eb555c6b20f2e18c9ecf", "is_disabled": 0, "rental_uris": {"android": "https://dc.lft.to/lastmile_qr_scan", "ios": "https://dc.lft.to/lastmile_qr_scan"}, "fusion_lon": 0.0, "lat": 38.887365, "bike_id": "d64f14929f89eb555c6b20f2e18c9ecf", "type": "electric_scooter", "is_reserved": 0, "lon": -77.01517433333333}, {"fusion_lat": 0.0, "name": "74372351c26953c7f0cf12d6af440ec6", "is_disabled": 0, "rental_uris": {"android": "https://dc.lft.to/lastmile_qr_scan", "ios": "https://dc.lft.to/lastmile_qr_scan"}, "fusion_lon": 0.0, "lat": 38.904969666666666, "bike_id": "74372351c26953c7f0cf12d6af440ec6", "type": "electric_scooter", "is_reserved": 0, "lon": -77.00930383333333}, {"fusion_lat": 0.0, "name": "02320bfd9290ad64913415e6f9282d45", "is_disabled": 0, "rental_uris": {"android": "https://dc.lft.to/lastmile_qr_scan", "ios": "https://dc.lft.to/lastmile_qr_scan"}, "fusion_lon": 0.0, "lat": 38.912066333333335, "bike_id": "02320bfd9290ad64913415e6f9282d45", "type": "electric_scooter", "is_reserved": 0, "lon": -77.0384535}, {"fusion_lat": 0.0, "name": "b8456a4043b4240f3405b1f9536fffaa", "is_disabled": 0, "rental_uris": {"android": "https://dc.lft.to/lastmile_qr_scan", "ios": "https://dc.lft.to/lastmile_qr_scan"}, "fusion_lon": 0.0, "lat": 38.921861166666666, "bike_id": "b8456a4043b4240f3405b1f9536fffaa", "type": "electric_scooter", "is_reserved": 0, "lon": -77.04035833333333}, {"fusion_lat": 0.0, "name": "f5d88ab33ae9e86f4e3df7d0c8da63ad", "is_disabled": 0, "rental_uris": {"android": "https://dc.lft.to/lastmile_qr_scan", "ios": "https://dc.lft.to/lastmile_qr_scan"}, "fusion_lon": 0.0, "lat": 38.89786133333333, "bike_id": "f5d88ab33ae9e86f4e3df7d0c8da63ad", "type": "electric_scooter", "is_reserved": 0, "lon": -77.02401383333333}, {"fusion_lat": 0.0, "name": "ec07e76622bbce4ec4f1ab0fb9a4baeb", "is_disabled": 0, "rental_uris": {"android": "https://dc.lft.to/lastmile_qr_scan", "ios": "https://dc.lft.to/lastmile_qr_scan"}, "fusion_lon": 0.0, "lat": 38.906669666666666, "bike_id": "ec07e76622bbce4ec4f1ab0fb9a4baeb", "type": "electric_scooter", "is_reserved": 0, "lon": -77.0106695}, {"fusion_lat": 0.0, "name": "9a9d91f79c9dab5801c0b62d30e8fec7", "is_disabled": 0, "rental_uris": {"android": "https://dc.lft.to/lastmile_qr_scan", "ios": "https://dc.lft.to/lastmile_qr_scan"}, "fusion_lon": 0.0, "lat": 38.94197916666667, "bike_id": "9a9d91f79c9dab5801c0b62d30e8fec7", "type": "electric_scooter", "is_reserved": 0, "lon": -77.02567033333334}, {"fusion_lat": 0.0, "name": "c9bb369cc8ddebd101dccb8ae1fad8ed", "is_disabled": 0, "rental_uris": {"android": "https://dc.lft.to/lastmile_qr_scan", "ios": "https://dc.lft.to/lastmile_qr_scan"}, "fusion_lon": 0.0, "lat": 38.88457733333333, "bike_id": "c9bb369cc8ddebd101dccb8ae1fad8ed", "type": "electric_scooter", "is_reserved": 0, "lon": -76.92622766666666}, {"fusion_lat": 0.0, "name": "be12af5d461338609e52700309f308cc", "is_disabled": 0, "rental_uris": {"android": "https://dc.lft.to/lastmile_qr_scan", "ios": "https://dc.lft.to/lastmile_qr_scan"}, "fusion_lon": 0.0, "lat": 38.91706533333333, "bike_id": "be12af5d461338609e52700309f308cc", "type": "electric_scooter", "is_reserved": 0, "lon": -77.03467716666667}, {"fusion_lat": 0.0, "name": "83c0773ec17346a7d3e70f50082f6e11", "is_disabled": 0, "rental_uris": {"android": "https://dc.lft.to/lastmile_qr_scan", "ios": "https://dc.lft.to/lastmile_qr_scan"}, "fusion_lon": 0.0, "lat": 38.909668333333336, "bike_id": "83c0773ec17346a7d3e70f50082f6e11", "type": "electric_scooter", "is_reserved": 0, "lon": -77.04827483333334}, {"fusion_lat": 0.0, "name": "5a9560744365632a693a3120d638fe61", "is_disabled": 0, "rental_uris": {"android": "https://dc.lft.to/lastmile_qr_scan", "ios": "https://dc.lft.to/lastmile_qr_scan"}, "fusion_lon": 0.0, "lat": 38.8987505, "bike_id": "5a9560744365632a693a3120d638fe61", "type": "electric_scooter", "is_reserved": 0, "lon": -77.02189133333333}, {"fusion_lat": 0.0, "name": "3e00c3c471b129d171bb226e8693e691", "is_disabled": 0, "rental_uris": {"android": "https://dc.lft.to/lastmile_qr_scan", "ios": "https://dc.lft.to/lastmile_qr_scan"}, "fusion_lon": 0.0, "lat": 38.905689833333334, "bike_id": "3e00c3c471b129d171bb226e8693e691", "type": "electric_scooter", "is_reserved": 0, "lon": -77.03066533333333}, {"fusion_lat": 0.0, "name": "85a4b1f8e279432df5f469ca7c74875f", "is_disabled": 0, "rental_uris": {"android": "https://dc.lft.to/lastmile_qr_scan", "ios": "https://dc.lft.to/lastmile_qr_scan"}, "fusion_lon": 0.0, "lat": 38.923438, "bike_id": "85a4b1f8e279432df5f469ca7c74875f", "type": "electric_scooter", "is_reserved": 0, "lon": -77.05178266666667}, {"fusion_lat": 0.0, "name": "ae8ec48c86dfef4ac660db7d2833e24b", "is_disabled": 0, "rental_uris": {"android": "https://dc.lft.to/lastmile_qr_scan", "ios": "https://dc.lft.to/lastmile_qr_scan"}, "fusion_lon": 0.0, "lat": 38.905378166666665, "bike_id": "ae8ec48c86dfef4ac660db7d2833e24b", "type": "electric_scooter", "is_reserved": 0, "lon": -77.0591055}, {"fusion_lat": 0.0, "name": "e5f92eb2edea55fd1029cc91097e6cf1", "is_disabled": 0, "rental_uris": {"android": "https://dc.lft.to/lastmile_qr_scan", "ios": "https://dc.lft.to/lastmile_qr_scan"}, "fusion_lon": 0.0, "lat": 38.896396, "bike_id": "e5f92eb2edea55fd1029cc91097e6cf1", "type": "electric_scooter", "is_reserved": 0, "lon": -77.00927666666666}, {"fusion_lat": 0.0, "name": "0ce94e4196c29c569d5e1025fdfe2ae2", "is_disabled": 0, "rental_uris": {"android": "https://dc.lft.to/lastmile_qr_scan", "ios": "https://dc.lft.to/lastmile_qr_scan"}, "fusion_lon": 0.0, "lat": 38.9322425, "bike_id": "0ce94e4196c29c569d5e1025fdfe2ae2", "type": "electric_scooter", "is_reserved": 0, "lon": -76.99492716666667}, {"fusion_lat": 0.0, "name": "ac4f59d2e0e91bd74e617bdf14700188", "is_disabled": 0, "rental_uris": {"android": "https://dc.lft.to/lastmile_qr_scan", "ios": "https://dc.lft.to/lastmile_qr_scan"}, "fusion_lon": 0.0, "lat": 38.8960295, "bike_id": "ac4f59d2e0e91bd74e617bdf14700188", "type": "electric_scooter", "is_reserved": 0, "lon": -76.981101}, {"fusion_lat": 0.0, "name": "a67c58d0b322a48682a93245a4dbd44b", "is_disabled": 0, "rental_uris": {"android": "https://dc.lft.to/lastmile_qr_scan", "ios": "https://dc.lft.to/lastmile_qr_scan"}, "fusion_lon": 0.0, "lat": 38.9197795, "bike_id": "a67c58d0b322a48682a93245a4dbd44b", "type": "electric_scooter", "is_reserved": 0, "lon": -77.04086116666667}, {"fusion_lat": 0.0, "name": "9ca227dff69303e3702bfb2520a063f5", "is_disabled": 0, "rental_uris": {"android": "https://dc.lft.to/lastmile_qr_scan", "ios": "https://dc.lft.to/lastmile_qr_scan"}, "fusion_lon": 0.0, "lat": 38.926070833333334, "bike_id": "9ca227dff69303e3702bfb2520a063f5", "type": "electric_bike", "is_reserved": 0, "lon": -77.06423}, {"fusion_lat": 0.0, "name": "9a8777cfcacc07bd7c76a433673cd5f6", "is_disabled": 0, "rental_uris": {"android": "https://dc.lft.to/lastmile_qr_scan", "ios": "https://dc.lft.to/lastmile_qr_scan"}, "fusion_lon": 0.0, "lat": 38.9393615, "bike_id": "9a8777cfcacc07bd7c76a433673cd5f6", "type": "electric_scooter", "is_reserved": 0, "lon": -77.036729}, {"fusion_lat": 0.0, "name": "bd320ccb06847ce0d3ab147356150fa2", "is_disabled": 0, "rental_uris": {"android": "https://dc.lft.to/lastmile_qr_scan", "ios": "https://dc.lft.to/lastmile_qr_scan"}, "fusion_lon": 0.0, "lat": 38.921333833333335, "bike_id": "bd320ccb06847ce0d3ab147356150fa2", "type": "electric_scooter", "is_reserved": 0, "lon": -77.00406783333334}, {"fusion_lat": 0.0, "name": "2c184b60b87d0c5577c43d89d4199001", "is_disabled": 0, "rental_uris": {"android": "https://dc.lft.to/lastmile_qr_scan", "ios": "https://dc.lft.to/lastmile_qr_scan"}, "fusion_lon": 0.0, "lat": 38.899028333333334, "bike_id": "2c184b60b87d0c5577c43d89d4199001", "type": "electric_scooter", "is_reserved": 0, "lon": -77.03935733333333}, {"fusion_lat": 0.0, "name": "52617422cf37636cc82d160e94415c4d", "is_disabled": 0, "rental_uris": {"android": "https://dc.lft.to/lastmile_qr_scan", "ios": "https://dc.lft.to/lastmile_qr_scan"}, "fusion_lon": 0.0, "lat": 38.916466666666665, "bike_id": "52617422cf37636cc82d160e94415c4d", "type": "electric_scooter", "is_reserved": 0, "lon": -77.021802}, {"fusion_lat": 0.0, "name": "f7a8e5357e593ee90809d7bc7345356e", "is_disabled": 0, "rental_uris": {"android": "https://dc.lft.to/lastmile_qr_scan", "ios": "https://dc.lft.to/lastmile_qr_scan"}, "fusion_lon": 0.0, "lat": 38.903946166666664, "bike_id": "f7a8e5357e593ee90809d7bc7345356e", "type": "electric_scooter", "is_reserved": 0, "lon": -77.04884116666666}, {"fusion_lat": 0.0, "name": "e70e54b00a820f7f294d9806e1b87e82", "is_disabled": 0, "rental_uris": {"android": "https://dc.lft.to/lastmile_qr_scan", "ios": "https://dc.lft.to/lastmile_qr_scan"}, "fusion_lon": 0.0, "lat": 38.9922865, "bike_id": "e70e54b00a820f7f294d9806e1b87e82", "type": "electric_bike", "is_reserved": 0, "lon": -76.94413016666667}, {"fusion_lat": 0.0, "name": "562235e98a1a7b62a8eb1cf233c2befd", "is_disabled": 0, "rental_uris": {"android": "https://dc.lft.to/lastmile_qr_scan", "ios": "https://dc.lft.to/lastmile_qr_scan"}, "fusion_lon": 0.0, "lat": 38.8773815, "bike_id": "562235e98a1a7b62a8eb1cf233c2befd", "type": "electric_scooter", "is_reserved": 0, "lon": -76.97036083333333}, {"fusion_lat": 0.0, "name": "8f5ac3493a5c9cc19987f22676de652f", "is_disabled": 0, "rental_uris": {"android": "https://dc.lft.to/lastmile_qr_scan", "ios": "https://dc.lft.to/lastmile_qr_scan"}, "fusion_lon": 0.0, "lat": 38.986099833333334, "bike_id": "8f5ac3493a5c9cc19987f22676de652f", "type": "electric_scooter", "is_reserved": 0, "lon": -77.02706633333334}, {"fusion_lat": 0.0, "name": "3eab00e391bf7fa07cbd114260f1a706", "is_disabled": 0, "rental_uris": {"android": "https://dc.lft.to/lastmile_qr_scan", "ios": "https://dc.lft.to/lastmile_qr_scan"}, "fusion_lon": 0.0, "lat": 38.903466333333334, "bike_id": "3eab00e391bf7fa07cbd114260f1a706", "type": "electric_scooter", "is_reserved": 0, "lon": -77.03639233333334}, {"fusion_lat": 0.0, "name": "d5ed5ac2e8cbe06f1bcd90dd1e295a65", "is_disabled": 0, "rental_uris": {"android": "https://dc.lft.to/lastmile_qr_scan", "ios": "https://dc.lft.to/lastmile_qr_scan"}, "fusion_lon": 0.0, "lat": 38.90285866666667, "bike_id": "d5ed5ac2e8cbe06f1bcd90dd1e295a65", "type": "electric_scooter", "is_reserved": 0, "lon": -77.03646983333333}, {"fusion_lat": 0.0, "name": "ca08ee5fd504fab0ba99359988f6c935", "is_disabled": 0, "rental_uris": {"android": "https://dc.lft.to/lastmile_qr_scan", "ios": "https://dc.lft.to/lastmile_qr_scan"}, "fusion_lon": 0.0, "lat": 38.876962, "bike_id": "ca08ee5fd504fab0ba99359988f6c935", "type": "electric_scooter", "is_reserved": 0, "lon": -77.00673433333333}, {"fusion_lat": 0.0, "name": "7c3b86db2044ae9a11ace6448fde6e72", "is_disabled": 0, "rental_uris": {"android": "https://dc.lft.to/lastmile_qr_scan", "ios": "https://dc.lft.to/lastmile_qr_scan"}, "fusion_lon": 0.0, "lat": 38.91789416666667, "bike_id": "7c3b86db2044ae9a11ace6448fde6e72", "type": "electric_scooter", "is_reserved": 0, "lon": -77.04044983333333}, {"fusion_lat": 0.0, "name": "3854ec55516cbd3c103ce1cad18d2c47", "is_disabled": 0, "rental_uris": {"android": "https://dc.lft.to/lastmile_qr_scan", "ios": "https://dc.lft.to/lastmile_qr_scan"}, "fusion_lon": 0.0, "lat": 38.925996166666664, "bike_id": "3854ec55516cbd3c103ce1cad18d2c47", "type": "electric_scooter", "is_reserved": 0, "lon": -77.03957716666666}, {"fusion_lat": 0.0, "name": "0d07a4805cfad044458affe3f47816f8", "is_disabled": 0, "rental_uris": {"android": "https://dc.lft.to/lastmile_qr_scan", "ios": "https://dc.lft.to/lastmile_qr_scan"}, "fusion_lon": 0.0, "lat": 38.904586333333334, "bike_id": "0d07a4805cfad044458affe3f47816f8", "type": "electric_scooter", "is_reserved": 0, "lon": -77.05330583333334}, {"fusion_lat": 0.0, "name": "8dc2b4840411ef3aee64d4b58a1f0ab8", "is_disabled": 0, "rental_uris": {"android": "https://dc.lft.to/lastmile_qr_scan", "ios": "https://dc.lft.to/lastmile_qr_scan"}, "fusion_lon": 0.0, "lat": 38.84425916666667, "bike_id": "8dc2b4840411ef3aee64d4b58a1f0ab8", "type": "electric_scooter", "is_reserved": 0, "lon": -76.9977785}, {"fusion_lat": 0.0, "name": "95ee8fb73dd6c767be3d551ce792edf6", "is_disabled": 0, "rental_uris": {"android": "https://dc.lft.to/lastmile_qr_scan", "ios": "https://dc.lft.to/lastmile_qr_scan"}, "fusion_lon": 0.0, "lat": 38.911303833333335, "bike_id": "95ee8fb73dd6c767be3d551ce792edf6", "type": "electric_scooter", "is_reserved": 0, "lon": -77.06534483333333}, {"fusion_lat": 0.0, "name": "13ac820d2cde3425d412ecb996fd1104", "is_disabled": 0, "rental_uris": {"android": "https://dc.lft.to/lastmile_qr_scan", "ios": "https://dc.lft.to/lastmile_qr_scan"}, "fusion_lon": 0.0, "lat": 38.92479633333333, "bike_id": "13ac820d2cde3425d412ecb996fd1104", "type": "electric_scooter", "is_reserved": 0, "lon": -77.02595533333333}, {"fusion_lat": 0.0, "name": "f5047f1c68e851165f10b2f30040716e", "is_disabled": 0, "rental_uris": {"android": "https://dc.lft.to/lastmile_qr_scan", "ios": "https://dc.lft.to/lastmile_qr_scan"}, "fusion_lon": 0.0, "lat": 38.93993066666667, "bike_id": "f5047f1c68e851165f10b2f30040716e", "type": "electric_scooter", "is_reserved": 0, "lon": -77.01656366666667}, {"fusion_lat": 0.0, "name": "d1f407b9bf97ae086a2a8a60a0aaa0e3", "is_disabled": 0, "rental_uris": {"android": "https://dc.lft.to/lastmile_qr_scan", "ios": "https://dc.lft.to/lastmile_qr_scan"}, "fusion_lon": 0.0, "lat": 38.91154866666667, "bike_id": "d1f407b9bf97ae086a2a8a60a0aaa0e3", "type": "electric_scooter", "is_reserved": 0, "lon": -77.03198833333333}, {"fusion_lat": 0.0, "name": "4014ac589ee03f0a3ee51cc580d85137", "is_disabled": 0, "rental_uris": {"android": "https://dc.lft.to/lastmile_qr_scan", "ios": "https://dc.lft.to/lastmile_qr_scan"}, "fusion_lon": 0.0, "lat": 38.874486833333336, "bike_id": "4014ac589ee03f0a3ee51cc580d85137", "type": "electric_scooter", "is_reserved": 0, "lon": -77.00889816666667}, {"fusion_lat": 0.0, "name": "ce04ea9aecf19ba9d521894e83c0488e", "is_disabled": 0, "rental_uris": {"android": "https://dc.lft.to/lastmile_qr_scan", "ios": "https://dc.lft.to/lastmile_qr_scan"}, "fusion_lon": 0.0, "lat": 38.928679333333335, "bike_id": "ce04ea9aecf19ba9d521894e83c0488e", "type": "electric_scooter", "is_reserved": 0, "lon": -77.03410983333333}, {"fusion_lat": 0.0, "name": "1001d3c0aefe4f5e58631f237d4b449a", "is_disabled": 0, "rental_uris": {"android": "https://dc.lft.to/lastmile_qr_scan", "ios": "https://dc.lft.to/lastmile_qr_scan"}, "fusion_lon": 0.0, "lat": 38.936919333333336, "bike_id": "1001d3c0aefe4f5e58631f237d4b449a", "type": "electric_bike", "is_reserved": 0, "lon": -76.9905975}, {"fusion_lat": 0.0, "name": "372b542d36fbb7f80959ee625629e5ea", "is_disabled": 0, "rental_uris": {"android": "https://dc.lft.to/lastmile_qr_scan", "ios": "https://dc.lft.to/lastmile_qr_scan"}, "fusion_lon": 0.0, "lat": 38.8802945, "bike_id": "372b542d36fbb7f80959ee625629e5ea", "type": "electric_scooter", "is_reserved": 0, "lon": -77.02502033333333}, {"fusion_lat": 0.0, "name": "3e1828e26f146e621395212d9613c7f9", "is_disabled": 0, "rental_uris": {"android": "https://dc.lft.to/lastmile_qr_scan", "ios": "https://dc.lft.to/lastmile_qr_scan"}, "fusion_lon": 0.0, "lat": 38.934795666666666, "bike_id": "3e1828e26f146e621395212d9613c7f9", "type": "electric_scooter", "is_reserved": 0, "lon": -77.0726335}, {"fusion_lat": 0.0, "name": "be853ae9145323a906c79b9c14a4f45a", "is_disabled": 0, "rental_uris": {"android": "https://dc.lft.to/lastmile_qr_scan", "ios": "https://dc.lft.to/lastmile_qr_scan"}, "fusion_lon": 0.0, "lat": 38.901335, "bike_id": "be853ae9145323a906c79b9c14a4f45a", "type": "electric_scooter", "is_reserved": 0, "lon": -77.06045916666666}, {"fusion_lat": 0.0, "name": "442e7033a458f4b6f946e60a8afe4cbb", "is_disabled": 0, "rental_uris": {"android": "https://dc.lft.to/lastmile_qr_scan", "ios": "https://dc.lft.to/lastmile_qr_scan"}, "fusion_lon": 0.0, "lat": 38.904046, "bike_id": "442e7033a458f4b6f946e60a8afe4cbb", "type": "electric_scooter", "is_reserved": 0, "lon": -77.02482566666667}, {"fusion_lat": 0.0, "name": "a682b9b6c3c8ea934ccc0dfa86b2a5bf", "is_disabled": 0, "rental_uris": {"android": "https://dc.lft.to/lastmile_qr_scan", "ios": "https://dc.lft.to/lastmile_qr_scan"}, "fusion_lon": 0.0, "lat": 39.036054166666666, "bike_id": "a682b9b6c3c8ea934ccc0dfa86b2a5bf", "type": "electric_bike", "is_reserved": 0, "lon": -77.05545066666667}, {"fusion_lat": 0.0, "name": "8e801b3c295e02322756e0d2b4cf786c", "is_disabled": 0, "rental_uris": {"android": "https://dc.lft.to/lastmile_qr_scan", "ios": "https://dc.lft.to/lastmile_qr_scan"}, "fusion_lon": 0.0, "lat": 38.9176565, "bike_id": "8e801b3c295e02322756e0d2b4cf786c", "type": "electric_scooter", "is_reserved": 0, "lon": -77.014582}, {"fusion_lat": 0.0, "name": "897d14e7234c54a0e840f592a251caec", "is_disabled": 0, "rental_uris": {"android": "https://dc.lft.to/lastmile_qr_scan", "ios": "https://dc.lft.to/lastmile_qr_scan"}, "fusion_lon": 0.0, "lat": 38.93701933333333, "bike_id": "897d14e7234c54a0e840f592a251caec", "type": "electric_scooter", "is_reserved": 0, "lon": -77.03286133333333}, {"fusion_lat": 0.0, "name": "3e0cfaef4aec39ad206f44967491fe69", "is_disabled": 0, "rental_uris": {"android": "https://dc.lft.to/lastmile_qr_scan", "ios": "https://dc.lft.to/lastmile_qr_scan"}, "fusion_lon": 0.0, "lat": 38.91704216666667, "bike_id": "3e0cfaef4aec39ad206f44967491fe69", "type": "electric_scooter", "is_reserved": 0, "lon": -77.02764666666667}, {"fusion_lat": 0.0, "name": "915d158773a4b24b07a898489ee6df98", "is_disabled": 0, "rental_uris": {"android": "https://dc.lft.to/lastmile_qr_scan", "ios": "https://dc.lft.to/lastmile_qr_scan"}, "fusion_lon": 0.0, "lat": 38.886208, "bike_id": "915d158773a4b24b07a898489ee6df98", "type": "electric_scooter", "is_reserved": 0, "lon": -77.02832583333333}, {"fusion_lat": 0.0, "name": "d467015bfcc1b081768243c0128ae051", "is_disabled": 0, "rental_uris": {"android": "https://dc.lft.to/lastmile_qr_scan", "ios": "https://dc.lft.to/lastmile_qr_scan"}, "fusion_lon": 0.0, "lat": 38.8922465, "bike_id": "d467015bfcc1b081768243c0128ae051", "type": "electric_scooter", "is_reserved": 0, "lon": -77.040949}, {"fusion_lat": 0.0, "name": "c4623d11b8b5506964842f9c602ead69", "is_disabled": 0, "rental_uris": {"android": "https://dc.lft.to/lastmile_qr_scan", "ios": "https://dc.lft.to/lastmile_qr_scan"}, "fusion_lon": 0.0, "lat": 38.915638333333334, "bike_id": "c4623d11b8b5506964842f9c602ead69", "type": "electric_scooter", "is_reserved": 0, "lon": -77.0105145}, {"fusion_lat": 0.0, "name": "608f52bc4b6fa2d97305b153fac0cc71", "is_disabled": 0, "rental_uris": {"android": "https://dc.lft.to/lastmile_qr_scan", "ios": "https://dc.lft.to/lastmile_qr_scan"}, "fusion_lon": 0.0, "lat": 38.934520666666664, "bike_id": "608f52bc4b6fa2d97305b153fac0cc71", "type": "electric_scooter", "is_reserved": 0, "lon": -77.03868816666666}, {"fusion_lat": 0.0, "name": "a68497e5b683a73d14d3db09f9c30c09", "is_disabled": 0, "rental_uris": {"android": "https://dc.lft.to/lastmile_qr_scan", "ios": "https://dc.lft.to/lastmile_qr_scan"}, "fusion_lon": 0.0, "lat": 38.899974, "bike_id": "a68497e5b683a73d14d3db09f9c30c09", "type": "electric_scooter", "is_reserved": 0, "lon": -77.02294066666667}, {"fusion_lat": 0.0, "name": "da92a4c7cd0619c2e97d8b85481e691c", "is_disabled": 0, "rental_uris": {"android": "https://dc.lft.to/lastmile_qr_scan", "ios": "https://dc.lft.to/lastmile_qr_scan"}, "fusion_lon": 0.0, "lat": 38.92717116666667, "bike_id": "da92a4c7cd0619c2e97d8b85481e691c", "type": "electric_scooter", "is_reserved": 0, "lon": -77.05361316666666}, {"fusion_lat": 0.0, "name": "ca6513df151eee3fb666d7be74fbb475", "is_disabled": 0, "rental_uris": {"android": "https://dc.lft.to/lastmile_qr_scan", "ios": "https://dc.lft.to/lastmile_qr_scan"}, "fusion_lon": 0.0, "lat": 38.93244033333333, "bike_id": "ca6513df151eee3fb666d7be74fbb475", "type": "electric_scooter", "is_reserved": 0, "lon": -77.02963633333333}, {"fusion_lat": 0.0, "name": "80b58bd7f77b3f2cb32754825f28ae2b", "is_disabled": 0, "rental_uris": {"android": "https://dc.lft.to/lastmile_qr_scan", "ios": "https://dc.lft.to/lastmile_qr_scan"}, "fusion_lon": 0.0, "lat": 38.916953166666666, "bike_id": "80b58bd7f77b3f2cb32754825f28ae2b", "type": "electric_scooter", "is_reserved": 0, "lon": -77.02744466666667}, {"fusion_lat": 0.0, "name": "0e435f46b5087d5c8473407447b8a818", "is_disabled": 0, "rental_uris": {"android": "https://dc.lft.to/lastmile_qr_scan", "ios": "https://dc.lft.to/lastmile_qr_scan"}, "fusion_lon": 0.0, "lat": 38.947227833333336, "bike_id": "0e435f46b5087d5c8473407447b8a818", "type": "electric_scooter", "is_reserved": 0, "lon": -77.02768733333333}, {"fusion_lat": 0.0, "name": "167d40cd5f2b8c4cdd21085ff714053c", "is_disabled": 0, "rental_uris": {"android": "https://dc.lft.to/lastmile_qr_scan", "ios": "https://dc.lft.to/lastmile_qr_scan"}, "fusion_lon": 0.0, "lat": 38.92785166666667, "bike_id": "167d40cd5f2b8c4cdd21085ff714053c", "type": "electric_scooter", "is_reserved": 0, "lon": -77.05315183333333}, {"fusion_lat": 0.0, "name": "b1e0af4d8272642104d5ef543a130926", "is_disabled": 0, "rental_uris": {"android": "https://dc.lft.to/lastmile_qr_scan", "ios": "https://dc.lft.to/lastmile_qr_scan"}, "fusion_lon": 0.0, "lat": 38.862646166666664, "bike_id": "b1e0af4d8272642104d5ef543a130926", "type": "electric_bike", "is_reserved": 0, "lon": -76.98344916666667}, {"fusion_lat": 0.0, "name": "1acab526509d55a5353cfee097a5d039", "is_disabled": 0, "rental_uris": {"android": "https://dc.lft.to/lastmile_qr_scan", "ios": "https://dc.lft.to/lastmile_qr_scan"}, "fusion_lon": 0.0, "lat": 38.90867183333334, "bike_id": "1acab526509d55a5353cfee097a5d039", "type": "electric_bike", "is_reserved": 0, "lon": -77.04408}, {"fusion_lat": 0.0, "name": "0c7141cdf74288182f7b42d6a22a66ee", "is_disabled": 0, "rental_uris": {"android": "https://dc.lft.to/lastmile_qr_scan", "ios": "https://dc.lft.to/lastmile_qr_scan"}, "fusion_lon": 0.0, "lat": 38.962326833333336, "bike_id": "0c7141cdf74288182f7b42d6a22a66ee", "type": "electric_bike", "is_reserved": 0, "lon": -76.9279725}, {"fusion_lat": 0.0, "name": "e7d94f80cb83358864e8acb20cf87307", "is_disabled": 0, "rental_uris": {"android": "https://dc.lft.to/lastmile_qr_scan", "ios": "https://dc.lft.to/lastmile_qr_scan"}, "fusion_lon": 0.0, "lat": 38.91016416666667, "bike_id": "e7d94f80cb83358864e8acb20cf87307", "type": "electric_scooter", "is_reserved": 0, "lon": -77.0385635}, {"fusion_lat": 0.0, "name": "195db05d111b528eed711e4a4cfac923", "is_disabled": 0, "rental_uris": {"android": "https://dc.lft.to/lastmile_qr_scan", "ios": "https://dc.lft.to/lastmile_qr_scan"}, "fusion_lon": 0.0, "lat": 38.908870666666665, "bike_id": "195db05d111b528eed711e4a4cfac923", "type": "electric_scooter", "is_reserved": 0, "lon": -77.04388483333334}, {"fusion_lat": 0.0, "name": "f6776e64d039216345be76e97b9ec354", "is_disabled": 0, "rental_uris": {"android": "https://dc.lft.to/lastmile_qr_scan", "ios": "https://dc.lft.to/lastmile_qr_scan"}, "fusion_lon": 0.0, "lat": 38.92470333333333, "bike_id": "f6776e64d039216345be76e97b9ec354", "type": "electric_scooter", "is_reserved": 0, "lon": -77.03953666666666}, {"fusion_lat": 0.0, "name": "0b5a41d58546b09ac934f9b196856329", "is_disabled": 0, "rental_uris": {"android": "https://dc.lft.to/lastmile_qr_scan", "ios": "https://dc.lft.to/lastmile_qr_scan"}, "fusion_lon": 0.0, "lat": 38.914075, "bike_id": "0b5a41d58546b09ac934f9b196856329", "type": "electric_scooter", "is_reserved": 0, "lon": -77.02483316666667}, {"fusion_lat": 0.0, "name": "ac10ca5cd4290281a1b21017c32824ed", "is_disabled": 0, "rental_uris": {"android": "https://dc.lft.to/lastmile_qr_scan", "ios": "https://dc.lft.to/lastmile_qr_scan"}, "fusion_lon": 0.0, "lat": 38.938700833333336, "bike_id": "ac10ca5cd4290281a1b21017c32824ed", "type": "electric_scooter", "is_reserved": 0, "lon": -77.029185}, {"fusion_lat": 0.0, "name": "4463057b968e8a93db71cbd40200bcb2", "is_disabled": 0, "rental_uris": {"android": "https://dc.lft.to/lastmile_qr_scan", "ios": "https://dc.lft.to/lastmile_qr_scan"}, "fusion_lon": 0.0, "lat": 38.9387685, "bike_id": "4463057b968e8a93db71cbd40200bcb2", "type": "electric_scooter", "is_reserved": 0, "lon": -77.02480966666667}, {"fusion_lat": 0.0, "name": "84090086e47bb6b516725cb1ca3341b3", "is_disabled": 0, "rental_uris": {"android": "https://dc.lft.to/lastmile_qr_scan", "ios": "https://dc.lft.to/lastmile_qr_scan"}, "fusion_lon": 0.0, "lat": 38.94682233333333, "bike_id": "84090086e47bb6b516725cb1ca3341b3", "type": "electric_bike", "is_reserved": 0, "lon": -76.95672183333333}, {"fusion_lat": 0.0, "name": "d55c893200db97365781aa653c34ab7e", "is_disabled": 0, "rental_uris": {"android": "https://dc.lft.to/lastmile_qr_scan", "ios": "https://dc.lft.to/lastmile_qr_scan"}, "fusion_lon": 0.0, "lat": 38.920309, "bike_id": "d55c893200db97365781aa653c34ab7e", "type": "electric_scooter", "is_reserved": 0, "lon": -76.989953}, {"fusion_lat": 0.0, "name": "4cfbf7e1e519ef51690ace9d2bd55905", "is_disabled": 0, "rental_uris": {"android": "https://dc.lft.to/lastmile_qr_scan", "ios": "https://dc.lft.to/lastmile_qr_scan"}, "fusion_lon": 0.0, "lat": 38.9248155, "bike_id": "4cfbf7e1e519ef51690ace9d2bd55905", "type": "electric_bike", "is_reserved": 0, "lon": -77.03200616666666}, {"fusion_lat": 0.0, "name": "5009c838ef248f4ada5fa4949bbb777e", "is_disabled": 0, "rental_uris": {"android": "https://dc.lft.to/lastmile_qr_scan", "ios": "https://dc.lft.to/lastmile_qr_scan"}, "fusion_lon": 0.0, "lat": 38.92719, "bike_id": "5009c838ef248f4ada5fa4949bbb777e", "type": "electric_scooter", "is_reserved": 0, "lon": -77.03060083333334}, {"fusion_lat": 0.0, "name": "bb09eddeda6ccac4d1fd7b2a0bc2192d", "is_disabled": 0, "rental_uris": {"android": "https://dc.lft.to/lastmile_qr_scan", "ios": "https://dc.lft.to/lastmile_qr_scan"}, "fusion_lon": 0.0, "lat": 38.9223455, "bike_id": "bb09eddeda6ccac4d1fd7b2a0bc2192d", "type": "electric_scooter", "is_reserved": 0, "lon": -77.042375}, {"fusion_lat": 0.0, "name": "9fde9333470fe4da5bedef1e557facbc", "is_disabled": 0, "rental_uris": {"android": "https://dc.lft.to/lastmile_qr_scan", "ios": "https://dc.lft.to/lastmile_qr_scan"}, "fusion_lon": 0.0, "lat": 38.81913016666667, "bike_id": "9fde9333470fe4da5bedef1e557facbc", "type": "electric_bike", "is_reserved": 0, "lon": -77.04791183333333}, {"fusion_lat": 0.0, "name": "38e542d64b003f491c33934276248072", "is_disabled": 0, "rental_uris": {"android": "https://dc.lft.to/lastmile_qr_scan", "ios": "https://dc.lft.to/lastmile_qr_scan"}, "fusion_lon": 0.0, "lat": 38.903955333333336, "bike_id": "38e542d64b003f491c33934276248072", "type": "electric_scooter", "is_reserved": 0, "lon": -77.06797283333333}, {"fusion_lat": 0.0, "name": "7f3e695123de0521ea19356ae1f87264", "is_disabled": 0, "rental_uris": {"android": "https://dc.lft.to/lastmile_qr_scan", "ios": "https://dc.lft.to/lastmile_qr_scan"}, "fusion_lon": 0.0, "lat": 38.88300783333333, "bike_id": "7f3e695123de0521ea19356ae1f87264", "type": "electric_scooter", "is_reserved": 0, "lon": -76.94862883333333}, {"fusion_lat": 0.0, "name": "ca9d980802ca1801f5883cb831941602", "is_disabled": 0, "rental_uris": {"android": "https://dc.lft.to/lastmile_qr_scan", "ios": "https://dc.lft.to/lastmile_qr_scan"}, "fusion_lon": 0.0, "lat": 38.888384333333335, "bike_id": "ca9d980802ca1801f5883cb831941602", "type": "electric_scooter", "is_reserved": 0, "lon": -77.048419}, {"fusion_lat": 0.0, "name": "a7c917573215b527a830ecb55676f56a", "is_disabled": 0, "rental_uris": {"android": "https://dc.lft.to/lastmile_qr_scan", "ios": "https://dc.lft.to/lastmile_qr_scan"}, "fusion_lon": 0.0, "lat": 38.90732166666667, "bike_id": "a7c917573215b527a830ecb55676f56a", "type": "electric_scooter", "is_reserved": 0, "lon": -76.93543016666666}, {"fusion_lat": 0.0, "name": "362b2d6b2fc85ed1bd84e5fdc8fa574e", "is_disabled": 0, "rental_uris": {"android": "https://dc.lft.to/lastmile_qr_scan", "ios": "https://dc.lft.to/lastmile_qr_scan"}, "fusion_lon": 0.0, "lat": 38.812509166666665, "bike_id": "362b2d6b2fc85ed1bd84e5fdc8fa574e", "type": "electric_bike", "is_reserved": 0, "lon": -77.11770983333334}, {"fusion_lat": 0.0, "name": "c1e24154b417ffa756fc57a08d4a7174", "is_disabled": 0, "rental_uris": {"android": "https://dc.lft.to/lastmile_qr_scan", "ios": "https://dc.lft.to/lastmile_qr_scan"}, "fusion_lon": 0.0, "lat": 38.91717916666666, "bike_id": "c1e24154b417ffa756fc57a08d4a7174", "type": "electric_scooter", "is_reserved": 0, "lon": -77.038778}, {"fusion_lat": 0.0, "name": "f93577ba3c93b5a260b4ba806da6cd78", "is_disabled": 0, "rental_uris": {"android": "https://dc.lft.to/lastmile_qr_scan", "ios": "https://dc.lft.to/lastmile_qr_scan"}, "fusion_lon": 0.0, "lat": 38.925365166666666, "bike_id": "f93577ba3c93b5a260b4ba806da6cd78", "type": "electric_scooter", "is_reserved": 0, "lon": -77.00760083333333}, {"fusion_lat": 0.0, "name": "fa5d109cff848c5d59f0616e8525c50b", "is_disabled": 0, "rental_uris": {"android": "https://dc.lft.to/lastmile_qr_scan", "ios": "https://dc.lft.to/lastmile_qr_scan"}, "fusion_lon": 0.0, "lat": 38.8070845, "bike_id": "fa5d109cff848c5d59f0616e8525c50b", "type": "electric_bike", "is_reserved": 0, "lon": -77.06172333333333}, {"fusion_lat": 0.0, "name": "35c53597c4a6ddd5fb6b0f063fd7725b", "is_disabled": 0, "rental_uris": {"android": "https://dc.lft.to/lastmile_qr_scan", "ios": "https://dc.lft.to/lastmile_qr_scan"}, "fusion_lon": 0.0, "lat": 38.853602, "bike_id": "35c53597c4a6ddd5fb6b0f063fd7725b", "type": "electric_bike", "is_reserved": 0, "lon": -77.1150405}, {"fusion_lat": 0.0, "name": "650bdda59ecb4fdcccecf104165b5fa7", "is_disabled": 0, "rental_uris": {"android": "https://dc.lft.to/lastmile_qr_scan", "ios": "https://dc.lft.to/lastmile_qr_scan"}, "fusion_lon": 0.0, "lat": 38.89770166666667, "bike_id": "650bdda59ecb4fdcccecf104165b5fa7", "type": "electric_scooter", "is_reserved": 0, "lon": -76.9846095}, {"fusion_lat": 0.0, "name": "426718872c44df420674d12ae5783a78", "is_disabled": 0, "rental_uris": {"android": "https://dc.lft.to/lastmile_qr_scan", "ios": "https://dc.lft.to/lastmile_qr_scan"}, "fusion_lon": 0.0, "lat": 38.887210333333336, "bike_id": "426718872c44df420674d12ae5783a78", "type": "electric_scooter", "is_reserved": 0, "lon": -77.02582683333333}, {"fusion_lat": 0.0, "name": "cdad48de202e2c36340d1c102e5bc67f", "is_disabled": 0, "rental_uris": {"android": "https://dc.lft.to/lastmile_qr_scan", "ios": "https://dc.lft.to/lastmile_qr_scan"}, "fusion_lon": 0.0, "lat": 38.94317266666667, "bike_id": "cdad48de202e2c36340d1c102e5bc67f", "type": "electric_scooter", "is_reserved": 0, "lon": -77.06132583333333}, {"fusion_lat": 0.0, "name": "2d81e5e8621aa8259648b5ce81d7f503", "is_disabled": 0, "rental_uris": {"android": "https://dc.lft.to/lastmile_qr_scan", "ios": "https://dc.lft.to/lastmile_qr_scan"}, "fusion_lon": 0.0, "lat": 38.87377016666667, "bike_id": "2d81e5e8621aa8259648b5ce81d7f503", "type": "electric_scooter", "is_reserved": 0, "lon": -77.00049616666666}, {"fusion_lat": 0.0, "name": "8bd06ad2880af5b14edc83632e190cb6", "is_disabled": 0, "rental_uris": {"android": "https://dc.lft.to/lastmile_qr_scan", "ios": "https://dc.lft.to/lastmile_qr_scan"}, "fusion_lon": 0.0, "lat": 38.916963833333334, "bike_id": "8bd06ad2880af5b14edc83632e190cb6", "type": "electric_scooter", "is_reserved": 0, "lon": -77.03052816666667}, {"fusion_lat": 0.0, "name": "4035d945cf4a938c6ebf3f0fff4d2e24", "is_disabled": 0, "rental_uris": {"android": "https://dc.lft.to/lastmile_qr_scan", "ios": "https://dc.lft.to/lastmile_qr_scan"}, "fusion_lon": 0.0, "lat": 38.91910716666667, "bike_id": "4035d945cf4a938c6ebf3f0fff4d2e24", "type": "electric_scooter", "is_reserved": 0, "lon": -77.0273475}, {"fusion_lat": 0.0, "name": "6760c846903a5482d21f3abddb51efe4", "is_disabled": 0, "rental_uris": {"android": "https://dc.lft.to/lastmile_qr_scan", "ios": "https://dc.lft.to/lastmile_qr_scan"}, "fusion_lon": 0.0, "lat": 38.917095, "bike_id": "6760c846903a5482d21f3abddb51efe4", "type": "electric_scooter", "is_reserved": 0, "lon": -77.038669}, {"fusion_lat": 0.0, "name": "f1d6178bfd85abb3d53a797d12301800", "is_disabled": 0, "rental_uris": {"android": "https://dc.lft.to/lastmile_qr_scan", "ios": "https://dc.lft.to/lastmile_qr_scan"}, "fusion_lon": 0.0, "lat": 38.900102833333335, "bike_id": "f1d6178bfd85abb3d53a797d12301800", "type": "electric_scooter", "is_reserved": 0, "lon": -77.01180233333334}, {"fusion_lat": 0.0, "name": "79e876bb902eb68cb4c8d3a4ec132801", "is_disabled": 0, "rental_uris": {"android": "https://dc.lft.to/lastmile_qr_scan", "ios": "https://dc.lft.to/lastmile_qr_scan"}, "fusion_lon": 0.0, "lat": 38.91714233333333, "bike_id": "79e876bb902eb68cb4c8d3a4ec132801", "type": "electric_scooter", "is_reserved": 0, "lon": -77.03855333333334}, {"fusion_lat": 0.0, "name": "c7473aa150953c3f7beda184265ba292", "is_disabled": 0, "rental_uris": {"android": "https://dc.lft.to/lastmile_qr_scan", "ios": "https://dc.lft.to/lastmile_qr_scan"}, "fusion_lon": 0.0, "lat": 38.91906916666667, "bike_id": "c7473aa150953c3f7beda184265ba292", "type": "electric_scooter", "is_reserved": 0, "lon": -77.02396533333334}, {"fusion_lat": 0.0, "name": "3b45a0a8e2c5391a628a91b78b11a60a", "is_disabled": 0, "rental_uris": {"android": "https://dc.lft.to/lastmile_qr_scan", "ios": "https://dc.lft.to/lastmile_qr_scan"}, "fusion_lon": 0.0, "lat": 38.87736433333333, "bike_id": "3b45a0a8e2c5391a628a91b78b11a60a", "type": "electric_scooter", "is_reserved": 0, "lon": -76.99661916666666}, {"fusion_lat": 0.0, "name": "dbc9b4bf46c7d46cfaf589ea230497c3", "is_disabled": 0, "rental_uris": {"android": "https://dc.lft.to/lastmile_qr_scan", "ios": "https://dc.lft.to/lastmile_qr_scan"}, "fusion_lon": 0.0, "lat": 39.034303333333334, "bike_id": "dbc9b4bf46c7d46cfaf589ea230497c3", "type": "electric_bike", "is_reserved": 0, "lon": -77.0431565}, {"fusion_lat": 0.0, "name": "472267b3f28436ec15d0dd26ef154f7e", "is_disabled": 0, "rental_uris": {"android": "https://dc.lft.to/lastmile_qr_scan", "ios": "https://dc.lft.to/lastmile_qr_scan"}, "fusion_lon": 0.0, "lat": 38.883013, "bike_id": "472267b3f28436ec15d0dd26ef154f7e", "type": "electric_scooter", "is_reserved": 0, "lon": -77.01764333333334}, {"fusion_lat": 0.0, "name": "c6097414397b677be88f562a4e59a56a", "is_disabled": 0, "rental_uris": {"android": "https://dc.lft.to/lastmile_qr_scan", "ios": "https://dc.lft.to/lastmile_qr_scan"}, "fusion_lon": 0.0, "lat": 38.874870666666666, "bike_id": "c6097414397b677be88f562a4e59a56a", "type": "electric_scooter", "is_reserved": 0, "lon": -77.00599}, {"fusion_lat": 0.0, "name": "bcc5695c41bf5988d1739870bb78d54d", "is_disabled": 0, "rental_uris": {"android": "https://dc.lft.to/lastmile_qr_scan", "ios": "https://dc.lft.to/lastmile_qr_scan"}, "fusion_lon": 0.0, "lat": 38.9141515, "bike_id": "bcc5695c41bf5988d1739870bb78d54d", "type": "electric_scooter", "is_reserved": 0, "lon": -77.02814333333333}, {"fusion_lat": 0.0, "name": "9390e425ada17fcb65485daa1ba34281", "is_disabled": 0, "rental_uris": {"android": "https://dc.lft.to/lastmile_qr_scan", "ios": "https://dc.lft.to/lastmile_qr_scan"}, "fusion_lon": 0.0, "lat": 38.901503166666664, "bike_id": "9390e425ada17fcb65485daa1ba34281", "type": "electric_scooter", "is_reserved": 0, "lon": -76.93063633333334}, {"fusion_lat": 0.0, "name": "e93db46237bb9d6e110794e0f5c08f39", "is_disabled": 0, "rental_uris": {"android": "https://dc.lft.to/lastmile_qr_scan", "ios": "https://dc.lft.to/lastmile_qr_scan"}, "fusion_lon": 0.0, "lat": 38.91959133333334, "bike_id": "e93db46237bb9d6e110794e0f5c08f39", "type": "electric_scooter", "is_reserved": 0, "lon": -77.0239485}, {"fusion_lat": 0.0, "name": "41607247bb7a7841e92fb89f157c12d7", "is_disabled": 0, "rental_uris": {"android": "https://dc.lft.to/lastmile_qr_scan", "ios": "https://dc.lft.to/lastmile_qr_scan"}, "fusion_lon": 0.0, "lat": 38.92233483333333, "bike_id": "41607247bb7a7841e92fb89f157c12d7", "type": "electric_scooter", "is_reserved": 0, "lon": -77.04250983333333}, {"fusion_lat": 0.0, "name": "76430b164cbc424d5afaff1006c1dbd7", "is_disabled": 0, "rental_uris": {"android": "https://dc.lft.to/lastmile_qr_scan", "ios": "https://dc.lft.to/lastmile_qr_scan"}, "fusion_lon": 0.0, "lat": 38.928669, "bike_id": "76430b164cbc424d5afaff1006c1dbd7", "type": "electric_scooter", "is_reserved": 0, "lon": -77.03435416666666}, {"fusion_lat": 0.0, "name": "d48e1743aff8e5c7e92cf9f93cb9979a", "is_disabled": 0, "rental_uris": {"android": "https://dc.lft.to/lastmile_qr_scan", "ios": "https://dc.lft.to/lastmile_qr_scan"}, "fusion_lon": 0.0, "lat": 38.90851966666666, "bike_id": "d48e1743aff8e5c7e92cf9f93cb9979a", "type": "electric_scooter", "is_reserved": 0, "lon": -76.99763216666666}, {"fusion_lat": 0.0, "name": "f67b165286aa8527483c170fb03fdaaa", "is_disabled": 0, "rental_uris": {"android": "https://dc.lft.to/lastmile_qr_scan", "ios": "https://dc.lft.to/lastmile_qr_scan"}, "fusion_lon": 0.0, "lat": 38.93829366666667, "bike_id": "f67b165286aa8527483c170fb03fdaaa", "type": "electric_scooter", "is_reserved": 0, "lon": -77.03046733333333}, {"fusion_lat": 0.0, "name": "ca8d21f6378e40ebe64a4ce33229bf84", "is_disabled": 0, "rental_uris": {"android": "https://dc.lft.to/lastmile_qr_scan", "ios": "https://dc.lft.to/lastmile_qr_scan"}, "fusion_lon": 0.0, "lat": 38.913430166666664, "bike_id": "ca8d21f6378e40ebe64a4ce33229bf84", "type": "electric_bike", "is_reserved": 0, "lon": -77.02757333333334}, {"fusion_lat": 0.0, "name": "9e50756dfd07e75c533491c096a6aa71", "is_disabled": 0, "rental_uris": {"android": "https://dc.lft.to/lastmile_qr_scan", "ios": "https://dc.lft.to/lastmile_qr_scan"}, "fusion_lon": 0.0, "lat": 38.923146333333335, "bike_id": "9e50756dfd07e75c533491c096a6aa71", "type": "electric_scooter", "is_reserved": 0, "lon": -77.04127916666667}, {"fusion_lat": 0.0, "name": "9a575d47119bc230b3ccbbd334abe4fa", "is_disabled": 0, "rental_uris": {"android": "https://dc.lft.to/lastmile_qr_scan", "ios": "https://dc.lft.to/lastmile_qr_scan"}, "fusion_lon": 0.0, "lat": 38.9505795, "bike_id": "9a575d47119bc230b3ccbbd334abe4fa", "type": "electric_scooter", "is_reserved": 0, "lon": -77.0802545}, {"fusion_lat": 0.0, "name": "1b74878343cd2cf49d710cdc03b832aa", "is_disabled": 0, "rental_uris": {"android": "https://dc.lft.to/lastmile_qr_scan", "ios": "https://dc.lft.to/lastmile_qr_scan"}, "fusion_lon": 0.0, "lat": 38.90683683333334, "bike_id": "1b74878343cd2cf49d710cdc03b832aa", "type": "electric_bike", "is_reserved": 0, "lon": -76.9449315}, {"fusion_lat": 0.0, "name": "b1b44344f719137ccd271dd1d6147162", "is_disabled": 0, "rental_uris": {"android": "https://dc.lft.to/lastmile_qr_scan", "ios": "https://dc.lft.to/lastmile_qr_scan"}, "fusion_lon": 0.0, "lat": 38.917044, "bike_id": "b1b44344f719137ccd271dd1d6147162", "type": "electric_scooter", "is_reserved": 0, "lon": -77.02425883333333}, {"fusion_lat": 0.0, "name": "c3a722a2be976a62e316116e58b512f8", "is_disabled": 0, "rental_uris": {"android": "https://dc.lft.to/lastmile_qr_scan", "ios": "https://dc.lft.to/lastmile_qr_scan"}, "fusion_lon": 0.0, "lat": 38.91697683333334, "bike_id": "c3a722a2be976a62e316116e58b512f8", "type": "electric_scooter", "is_reserved": 0, "lon": -77.0406855}, {"fusion_lat": 0.0, "name": "067514c4700689ae5e4d9714c79e23ed", "is_disabled": 0, "rental_uris": {"android": "https://dc.lft.to/lastmile_qr_scan", "ios": "https://dc.lft.to/lastmile_qr_scan"}, "fusion_lon": 0.0, "lat": 38.9282665, "bike_id": "067514c4700689ae5e4d9714c79e23ed", "type": "electric_scooter", "is_reserved": 0, "lon": -77.02255}, {"fusion_lat": 0.0, "name": "3d382e0fef65d54697239b646dbc6e4a", "is_disabled": 0, "rental_uris": {"android": "https://dc.lft.to/lastmile_qr_scan", "ios": "https://dc.lft.to/lastmile_qr_scan"}, "fusion_lon": 0.0, "lat": 38.90109833333333, "bike_id": "3d382e0fef65d54697239b646dbc6e4a", "type": "electric_scooter", "is_reserved": 0, "lon": -76.97424216666667}, {"fusion_lat": 0.0, "name": "0d83869823d64cb2f7d79dbcec0ed629", "is_disabled": 0, "rental_uris": {"android": "https://dc.lft.to/lastmile_qr_scan", "ios": "https://dc.lft.to/lastmile_qr_scan"}, "fusion_lon": 0.0, "lat": 38.900966, "bike_id": "0d83869823d64cb2f7d79dbcec0ed629", "type": "electric_scooter", "is_reserved": 0, "lon": -77.02821016666667}, {"fusion_lat": 0.0, "name": "e0d8d4749ef80fa685c89fd9e42ce252", "is_disabled": 0, "rental_uris": {"android": "https://dc.lft.to/lastmile_qr_scan", "ios": "https://dc.lft.to/lastmile_qr_scan"}, "fusion_lon": 0.0, "lat": 38.89720233333333, "bike_id": "e0d8d4749ef80fa685c89fd9e42ce252", "type": "electric_scooter", "is_reserved": 0, "lon": -77.04531033333333}, {"fusion_lat": 0.0, "name": "ba68b9b9a827a798cd084e01e97607ac", "is_disabled": 0, "rental_uris": {"android": "https://dc.lft.to/lastmile_qr_scan", "ios": "https://dc.lft.to/lastmile_qr_scan"}, "fusion_lon": 0.0, "lat": 38.92425316666667, "bike_id": "ba68b9b9a827a798cd084e01e97607ac", "type": "electric_scooter", "is_reserved": 0, "lon": -77.05179333333334}, {"fusion_lat": 0.0, "name": "089d64d757c38353c99b2e62e879c523", "is_disabled": 0, "rental_uris": {"android": "https://dc.lft.to/lastmile_qr_scan", "ios": "https://dc.lft.to/lastmile_qr_scan"}, "fusion_lon": 0.0, "lat": 38.9002225, "bike_id": "089d64d757c38353c99b2e62e879c523", "type": "electric_scooter", "is_reserved": 0, "lon": -77.00337966666666}, {"fusion_lat": 0.0, "name": "7c1ff9a136fc7e4ccca0fdb79fdd32d5", "is_disabled": 0, "rental_uris": {"android": "https://dc.lft.to/lastmile_qr_scan", "ios": "https://dc.lft.to/lastmile_qr_scan"}, "fusion_lon": 0.0, "lat": 38.89656, "bike_id": "7c1ff9a136fc7e4ccca0fdb79fdd32d5", "type": "electric_scooter", "is_reserved": 0, "lon": -77.01168033333333}, {"fusion_lat": 0.0, "name": "d5ee0047a964121fa88261eb7043f136", "is_disabled": 0, "rental_uris": {"android": "https://dc.lft.to/lastmile_qr_scan", "ios": "https://dc.lft.to/lastmile_qr_scan"}, "fusion_lon": 0.0, "lat": 38.871308666666664, "bike_id": "d5ee0047a964121fa88261eb7043f136", "type": "electric_scooter", "is_reserved": 0, "lon": -77.01218416666667}, {"fusion_lat": 0.0, "name": "114b67c6956d37275b89d85feded0b5b", "is_disabled": 0, "rental_uris": {"android": "https://dc.lft.to/lastmile_qr_scan", "ios": "https://dc.lft.to/lastmile_qr_scan"}, "fusion_lon": 0.0, "lat": 38.91038233333333, "bike_id": "114b67c6956d37275b89d85feded0b5b", "type": "electric_scooter", "is_reserved": 0, "lon": -77.043838}, {"fusion_lat": 0.0, "name": "5e118594503a52836fc52e84397139ef", "is_disabled": 0, "rental_uris": {"android": "https://dc.lft.to/lastmile_qr_scan", "ios": "https://dc.lft.to/lastmile_qr_scan"}, "fusion_lon": 0.0, "lat": 38.892975166666666, "bike_id": "5e118594503a52836fc52e84397139ef", "type": "electric_scooter", "is_reserved": 0, "lon": -77.05001316666667}, {"fusion_lat": 0.0, "name": "b309648d72e390ddbf943cd66647e81b", "is_disabled": 0, "rental_uris": {"android": "https://dc.lft.to/lastmile_qr_scan", "ios": "https://dc.lft.to/lastmile_qr_scan"}, "fusion_lon": 0.0, "lat": 38.9261315, "bike_id": "b309648d72e390ddbf943cd66647e81b", "type": "electric_scooter", "is_reserved": 0, "lon": -77.075662}, {"fusion_lat": 0.0, "name": "5d806efb0cb5eed252144803d9b321c7", "is_disabled": 0, "rental_uris": {"android": "https://dc.lft.to/lastmile_qr_scan", "ios": "https://dc.lft.to/lastmile_qr_scan"}, "fusion_lon": 0.0, "lat": 38.916047166666665, "bike_id": "5d806efb0cb5eed252144803d9b321c7", "type": "electric_scooter", "is_reserved": 0, "lon": -77.045543}, {"fusion_lat": 0.0, "name": "80adc6a0a5e54c08d7aa0573258aa0bf", "is_disabled": 0, "rental_uris": {"android": "https://dc.lft.to/lastmile_qr_scan", "ios": "https://dc.lft.to/lastmile_qr_scan"}, "fusion_lon": 0.0, "lat": 38.922995, "bike_id": "80adc6a0a5e54c08d7aa0573258aa0bf", "type": "electric_scooter", "is_reserved": 0, "lon": -77.023288}, {"fusion_lat": 0.0, "name": "af652d105a37cda4c1cf390a2aa4638e", "is_disabled": 0, "rental_uris": {"android": "https://dc.lft.to/lastmile_qr_scan", "ios": "https://dc.lft.to/lastmile_qr_scan"}, "fusion_lon": 0.0, "lat": 38.907271333333334, "bike_id": "af652d105a37cda4c1cf390a2aa4638e", "type": "electric_scooter", "is_reserved": 0, "lon": -77.049866}, {"fusion_lat": 0.0, "name": "bd5215200494654c4c7c3542109c10da", "is_disabled": 0, "rental_uris": {"android": "https://dc.lft.to/lastmile_qr_scan", "ios": "https://dc.lft.to/lastmile_qr_scan"}, "fusion_lon": 0.0, "lat": 38.92600483333333, "bike_id": "bd5215200494654c4c7c3542109c10da", "type": "electric_scooter", "is_reserved": 0, "lon": -77.02157033333333}, {"fusion_lat": 0.0, "name": "f57dfa1245923ab495c178104ef77c90", "is_disabled": 0, "rental_uris": {"android": "https://dc.lft.to/lastmile_qr_scan", "ios": "https://dc.lft.to/lastmile_qr_scan"}, "fusion_lon": 0.0, "lat": 38.961172, "bike_id": "f57dfa1245923ab495c178104ef77c90", "type": "electric_scooter", "is_reserved": 0, "lon": -77.02794733333333}, {"fusion_lat": 0.0, "name": "d4f9b6323b834a01c44cba7b367562ba", "is_disabled": 0, "rental_uris": {"android": "https://dc.lft.to/lastmile_qr_scan", "ios": "https://dc.lft.to/lastmile_qr_scan"}, "fusion_lon": 0.0, "lat": 38.918133, "bike_id": "d4f9b6323b834a01c44cba7b367562ba", "type": "electric_scooter", "is_reserved": 0, "lon": -77.03673283333333}, {"fusion_lat": 0.0, "name": "886f79ec6244edda5c1e1842c25b1ecf", "is_disabled": 0, "rental_uris": {"android": "https://dc.lft.to/lastmile_qr_scan", "ios": "https://dc.lft.to/lastmile_qr_scan"}, "fusion_lon": 0.0, "lat": 38.925698833333335, "bike_id": "886f79ec6244edda5c1e1842c25b1ecf", "type": "electric_scooter", "is_reserved": 0, "lon": -77.04372916666667}, {"fusion_lat": 0.0, "name": "13b50100befa086f05aebe9a41ed4cb1", "is_disabled": 0, "rental_uris": {"android": "https://dc.lft.to/lastmile_qr_scan", "ios": "https://dc.lft.to/lastmile_qr_scan"}, "fusion_lon": 0.0, "lat": 38.9335005, "bike_id": "13b50100befa086f05aebe9a41ed4cb1", "type": "electric_scooter", "is_reserved": 0, "lon": -77.0249095}, {"fusion_lat": 0.0, "name": "acfb3bbdcc59a2e0a00e8e32e9dc95a5", "is_disabled": 0, "rental_uris": {"android": "https://dc.lft.to/lastmile_qr_scan", "ios": "https://dc.lft.to/lastmile_qr_scan"}, "fusion_lon": 0.0, "lat": 38.892227166666665, "bike_id": "acfb3bbdcc59a2e0a00e8e32e9dc95a5", "type": "electric_scooter", "is_reserved": 0, "lon": -77.0418955}, {"fusion_lat": 0.0, "name": "da20d78004bf31c977b08e6a3aff8f8c", "is_disabled": 0, "rental_uris": {"android": "https://dc.lft.to/lastmile_qr_scan", "ios": "https://dc.lft.to/lastmile_qr_scan"}, "fusion_lon": 0.0, "lat": 38.96668066666667, "bike_id": "da20d78004bf31c977b08e6a3aff8f8c", "type": "electric_scooter", "is_reserved": 0, "lon": -77.02549483333334}, {"fusion_lat": 0.0, "name": "8891a6cccce92659f228d15ca621afb7", "is_disabled": 0, "rental_uris": {"android": "https://dc.lft.to/lastmile_qr_scan", "ios": "https://dc.lft.to/lastmile_qr_scan"}, "fusion_lon": 0.0, "lat": 38.901417333333335, "bike_id": "8891a6cccce92659f228d15ca621afb7", "type": "electric_scooter", "is_reserved": 0, "lon": -77.04166466666666}, {"fusion_lat": 0.0, "name": "b9ef1f1a0416235b60fcf298a776bf8c", "is_disabled": 0, "rental_uris": {"android": "https://dc.lft.to/lastmile_qr_scan", "ios": "https://dc.lft.to/lastmile_qr_scan"}, "fusion_lon": 0.0, "lat": 38.903551, "bike_id": "b9ef1f1a0416235b60fcf298a776bf8c", "type": "electric_scooter", "is_reserved": 0, "lon": -77.00738}, {"fusion_lat": 0.0, "name": "5a10627201119a64f25660cbc7a4ebd2", "is_disabled": 0, "rental_uris": {"android": "https://dc.lft.to/lastmile_qr_scan", "ios": "https://dc.lft.to/lastmile_qr_scan"}, "fusion_lon": 0.0, "lat": 38.88423616666667, "bike_id": "5a10627201119a64f25660cbc7a4ebd2", "type": "electric_scooter", "is_reserved": 0, "lon": -77.02323666666666}, {"fusion_lat": 0.0, "name": "4dc72644a4f0a3d2a05dfe985539a5e2", "is_disabled": 0, "rental_uris": {"android": "https://dc.lft.to/lastmile_qr_scan", "ios": "https://dc.lft.to/lastmile_qr_scan"}, "fusion_lon": 0.0, "lat": 38.91561933333333, "bike_id": "4dc72644a4f0a3d2a05dfe985539a5e2", "type": "electric_scooter", "is_reserved": 0, "lon": -77.03110733333334}, {"fusion_lat": 0.0, "name": "56c45b11c89af2e373fe3a5dc776661a", "is_disabled": 0, "rental_uris": {"android": "https://dc.lft.to/lastmile_qr_scan", "ios": "https://dc.lft.to/lastmile_qr_scan"}, "fusion_lon": 0.0, "lat": 38.934105833333334, "bike_id": "56c45b11c89af2e373fe3a5dc776661a", "type": "electric_bike", "is_reserved": 0, "lon": -77.04303583333333}, {"fusion_lat": 0.0, "name": "f636027e50f4343217b049b7c299aea1", "is_disabled": 0, "rental_uris": {"android": "https://dc.lft.to/lastmile_qr_scan", "ios": "https://dc.lft.to/lastmile_qr_scan"}, "fusion_lon": 0.0, "lat": 38.901135833333335, "bike_id": "f636027e50f4343217b049b7c299aea1", "type": "electric_scooter", "is_reserved": 0, "lon": -77.0498715}, {"fusion_lat": 0.0, "name": "a2554eb6ff7f89c40408d1bae041ac02", "is_disabled": 0, "rental_uris": {"android": "https://dc.lft.to/lastmile_qr_scan", "ios": "https://dc.lft.to/lastmile_qr_scan"}, "fusion_lon": 0.0, "lat": 38.90500633333333, "bike_id": "a2554eb6ff7f89c40408d1bae041ac02", "type": "electric_bike", "is_reserved": 0, "lon": -76.97447583333333}, {"fusion_lat": 0.0, "name": "6e0223b575a292eb27ddd49dc9d55d12", "is_disabled": 0, "rental_uris": {"android": "https://dc.lft.to/lastmile_qr_scan", "ios": "https://dc.lft.to/lastmile_qr_scan"}, "fusion_lon": 0.0, "lat": 38.931368666666664, "bike_id": "6e0223b575a292eb27ddd49dc9d55d12", "type": "electric_bike", "is_reserved": 0, "lon": -77.01968033333333}, {"fusion_lat": 0.0, "name": "e344de8947935a528ea5e7ac9a196b60", "is_disabled": 0, "rental_uris": {"android": "https://dc.lft.to/lastmile_qr_scan", "ios": "https://dc.lft.to/lastmile_qr_scan"}, "fusion_lon": 0.0, "lat": 38.90043283333333, "bike_id": "e344de8947935a528ea5e7ac9a196b60", "type": "electric_scooter", "is_reserved": 0, "lon": -77.03300283333333}, {"fusion_lat": 0.0, "name": "54890e8a39c5228c775385fcfd9fd04a", "is_disabled": 0, "rental_uris": {"android": "https://dc.lft.to/lastmile_qr_scan", "ios": "https://dc.lft.to/lastmile_qr_scan"}, "fusion_lon": 0.0, "lat": 38.90394033333333, "bike_id": "54890e8a39c5228c775385fcfd9fd04a", "type": "electric_scooter", "is_reserved": 0, "lon": -77.038402}, {"fusion_lat": 0.0, "name": "b98376c97de8ce1d780d05cbbbf50d0b", "is_disabled": 0, "rental_uris": {"android": "https://dc.lft.to/lastmile_qr_scan", "ios": "https://dc.lft.to/lastmile_qr_scan"}, "fusion_lon": 0.0, "lat": 38.843543333333336, "bike_id": "b98376c97de8ce1d780d05cbbbf50d0b", "type": "electric_bike", "is_reserved": 0, "lon": -76.97823533333333}, {"fusion_lat": 0.0, "name": "21daca24aeb84a53cc7189d34aafcea6", "is_disabled": 0, "rental_uris": {"android": "https://dc.lft.to/lastmile_qr_scan", "ios": "https://dc.lft.to/lastmile_qr_scan"}, "fusion_lon": 0.0, "lat": 38.89665083333333, "bike_id": "21daca24aeb84a53cc7189d34aafcea6", "type": "electric_scooter", "is_reserved": 0, "lon": -77.02483416666666}, {"fusion_lat": 0.0, "name": "fea8b927cf427fa26d140de93d29be81", "is_disabled": 0, "rental_uris": {"android": "https://dc.lft.to/lastmile_qr_scan", "ios": "https://dc.lft.to/lastmile_qr_scan"}, "fusion_lon": 0.0, "lat": 38.88362766666667, "bike_id": "fea8b927cf427fa26d140de93d29be81", "type": "electric_scooter", "is_reserved": 0, "lon": -76.94154616666667}, {"fusion_lat": 0.0, "name": "c3598de9f56b592aea5930812d3bcbad", "is_disabled": 0, "rental_uris": {"android": "https://dc.lft.to/lastmile_qr_scan", "ios": "https://dc.lft.to/lastmile_qr_scan"}, "fusion_lon": 0.0, "lat": 38.923439333333334, "bike_id": "c3598de9f56b592aea5930812d3bcbad", "type": "electric_scooter", "is_reserved": 0, "lon": -77.0522665}, {"fusion_lat": 0.0, "name": "9c8ef24e02cae5e00063527517500a2a", "is_disabled": 0, "rental_uris": {"android": "https://dc.lft.to/lastmile_qr_scan", "ios": "https://dc.lft.to/lastmile_qr_scan"}, "fusion_lon": 0.0, "lat": 38.915775333333336, "bike_id": "9c8ef24e02cae5e00063527517500a2a", "type": "electric_scooter", "is_reserved": 0, "lon": -76.983924}, {"fusion_lat": 0.0, "name": "16a16f1238ceefad7639fec1c8a6daf6", "is_disabled": 0, "rental_uris": {"android": "https://dc.lft.to/lastmile_qr_scan", "ios": "https://dc.lft.to/lastmile_qr_scan"}, "fusion_lon": 0.0, "lat": 38.9015955, "bike_id": "16a16f1238ceefad7639fec1c8a6daf6", "type": "electric_scooter", "is_reserved": 0, "lon": -77.05929466666667}, {"fusion_lat": 0.0, "name": "25af12ea0f2d3c114f4c694ba5edb19b", "is_disabled": 0, "rental_uris": {"android": "https://dc.lft.to/lastmile_qr_scan", "ios": "https://dc.lft.to/lastmile_qr_scan"}, "fusion_lon": 0.0, "lat": 38.917104333333334, "bike_id": "25af12ea0f2d3c114f4c694ba5edb19b", "type": "electric_scooter", "is_reserved": 0, "lon": -77.032284}, {"fusion_lat": 0.0, "name": "1792ffc912c27b326b8778697f181fc1", "is_disabled": 0, "rental_uris": {"android": "https://dc.lft.to/lastmile_qr_scan", "ios": "https://dc.lft.to/lastmile_qr_scan"}, "fusion_lon": 0.0, "lat": 38.92044933333333, "bike_id": "1792ffc912c27b326b8778697f181fc1", "type": "electric_bike", "is_reserved": 0, "lon": -76.9981895}, {"fusion_lat": 0.0, "name": "c3bd1a5f6a2243281f0419a177c55044", "is_disabled": 0, "rental_uris": {"android": "https://dc.lft.to/lastmile_qr_scan", "ios": "https://dc.lft.to/lastmile_qr_scan"}, "fusion_lon": 0.0, "lat": 38.95631933333333, "bike_id": "c3bd1a5f6a2243281f0419a177c55044", "type": "electric_scooter", "is_reserved": 0, "lon": -77.02834783333333}, {"fusion_lat": 0.0, "name": "993eee95ac455c6acabefa927a0944a1", "is_disabled": 0, "rental_uris": {"android": "https://dc.lft.to/lastmile_qr_scan", "ios": "https://dc.lft.to/lastmile_qr_scan"}, "fusion_lon": 0.0, "lat": 38.917815, "bike_id": "993eee95ac455c6acabefa927a0944a1", "type": "electric_bike", "is_reserved": 0, "lon": -77.04258816666666}, {"fusion_lat": 0.0, "name": "cf6ba04d97c2c3119715da59a8ffccf0", "is_disabled": 0, "rental_uris": {"android": "https://dc.lft.to/lastmile_qr_scan", "ios": "https://dc.lft.to/lastmile_qr_scan"}, "fusion_lon": 0.0, "lat": 38.90373266666667, "bike_id": "cf6ba04d97c2c3119715da59a8ffccf0", "type": "electric_scooter", "is_reserved": 0, "lon": -77.03537633333333}, {"fusion_lat": 0.0, "name": "f2f570f0c3df3cf92e6893c2be1d28ee", "is_disabled": 0, "rental_uris": {"android": "https://dc.lft.to/lastmile_qr_scan", "ios": "https://dc.lft.to/lastmile_qr_scan"}, "fusion_lon": 0.0, "lat": 38.88534933333333, "bike_id": "f2f570f0c3df3cf92e6893c2be1d28ee", "type": "electric_scooter", "is_reserved": 0, "lon": -76.99826416666667}, {"fusion_lat": 0.0, "name": "f1e25aadcb321015ca65449083938164", "is_disabled": 0, "rental_uris": {"android": "https://dc.lft.to/lastmile_qr_scan", "ios": "https://dc.lft.to/lastmile_qr_scan"}, "fusion_lon": 0.0, "lat": 38.9027225, "bike_id": "f1e25aadcb321015ca65449083938164", "type": "electric_scooter", "is_reserved": 0, "lon": -76.92900933333334}, {"fusion_lat": 0.0, "name": "aca900f6f603f96988690f770da896e3", "is_disabled": 0, "rental_uris": {"android": "https://dc.lft.to/lastmile_qr_scan", "ios": "https://dc.lft.to/lastmile_qr_scan"}, "fusion_lon": 0.0, "lat": 38.88467883333333, "bike_id": "aca900f6f603f96988690f770da896e3", "type": "electric_scooter", "is_reserved": 0, "lon": -77.02432083333333}, {"fusion_lat": 0.0, "name": "c95e7278a6162aff90bb33b4a3dc8c3a", "is_disabled": 0, "rental_uris": {"android": "https://dc.lft.to/lastmile_qr_scan", "ios": "https://dc.lft.to/lastmile_qr_scan"}, "fusion_lon": 0.0, "lat": 38.901164333333334, "bike_id": "c95e7278a6162aff90bb33b4a3dc8c3a", "type": "electric_scooter", "is_reserved": 0, "lon": -77.0021665}, {"fusion_lat": 0.0, "name": "7bd6b65a77ff4c5ea335ecf36248333f", "is_disabled": 0, "rental_uris": {"android": "https://dc.lft.to/lastmile_qr_scan", "ios": "https://dc.lft.to/lastmile_qr_scan"}, "fusion_lon": 0.0, "lat": 38.9155235, "bike_id": "7bd6b65a77ff4c5ea335ecf36248333f", "type": "electric_scooter", "is_reserved": 0, "lon": -77.02141616666667}, {"fusion_lat": 0.0, "name": "6135dfb653be2872589bfcfe1a7d3dd8", "is_disabled": 0, "rental_uris": {"android": "https://dc.lft.to/lastmile_qr_scan", "ios": "https://dc.lft.to/lastmile_qr_scan"}, "fusion_lon": 0.0, "lat": 38.9199495, "bike_id": "6135dfb653be2872589bfcfe1a7d3dd8", "type": "electric_scooter", "is_reserved": 0, "lon": -77.03217166666667}, {"fusion_lat": 0.0, "name": "cb58236d8c177de39ee17e739927d844", "is_disabled": 0, "rental_uris": {"android": "https://dc.lft.to/lastmile_qr_scan", "ios": "https://dc.lft.to/lastmile_qr_scan"}, "fusion_lon": 0.0, "lat": 38.9243835, "bike_id": "cb58236d8c177de39ee17e739927d844", "type": "electric_scooter", "is_reserved": 0, "lon": -77.0201875}, {"fusion_lat": 0.0, "name": "7957d7900060897eeb5d26f9d65c5ddf", "is_disabled": 0, "rental_uris": {"android": "https://dc.lft.to/lastmile_qr_scan", "ios": "https://dc.lft.to/lastmile_qr_scan"}, "fusion_lon": 0.0, "lat": 38.9223615, "bike_id": "7957d7900060897eeb5d26f9d65c5ddf", "type": "electric_scooter", "is_reserved": 0, "lon": -77.029098}, {"fusion_lat": 0.0, "name": "0302e5c39c6bf19734665db6fe7d1295", "is_disabled": 0, "rental_uris": {"android": "https://dc.lft.to/lastmile_qr_scan", "ios": "https://dc.lft.to/lastmile_qr_scan"}, "fusion_lon": 0.0, "lat": 38.90190033333333, "bike_id": "0302e5c39c6bf19734665db6fe7d1295", "type": "electric_scooter", "is_reserved": 0, "lon": -77.02437}, {"fusion_lat": 0.0, "name": "8db6bef0c83d36424543feddf4d3155c", "is_disabled": 0, "rental_uris": {"android": "https://dc.lft.to/lastmile_qr_scan", "ios": "https://dc.lft.to/lastmile_qr_scan"}, "fusion_lon": 0.0, "lat": 38.9213905, "bike_id": "8db6bef0c83d36424543feddf4d3155c", "type": "electric_scooter", "is_reserved": 0, "lon": -77.01800816666666}, {"fusion_lat": 0.0, "name": "25998c82f887ce1fcab1e739c4b1a36f", "is_disabled": 0, "rental_uris": {"android": "https://dc.lft.to/lastmile_qr_scan", "ios": "https://dc.lft.to/lastmile_qr_scan"}, "fusion_lon": 0.0, "lat": 38.93043933333333, "bike_id": "25998c82f887ce1fcab1e739c4b1a36f", "type": "electric_scooter", "is_reserved": 0, "lon": -77.02354}, {"fusion_lat": 0.0, "name": "b65b76346be007cbab467122fa850c85", "is_disabled": 0, "rental_uris": {"android": "https://dc.lft.to/lastmile_qr_scan", "ios": "https://dc.lft.to/lastmile_qr_scan"}, "fusion_lon": 0.0, "lat": 38.917106833333335, "bike_id": "b65b76346be007cbab467122fa850c85", "type": "electric_scooter", "is_reserved": 0, "lon": -76.97656516666666}, {"fusion_lat": 0.0, "name": "fabf747fe068be2242ad7f2e5489f4c4", "is_disabled": 0, "rental_uris": {"android": "https://dc.lft.to/lastmile_qr_scan", "ios": "https://dc.lft.to/lastmile_qr_scan"}, "fusion_lon": 0.0, "lat": 38.90392133333334, "bike_id": "fabf747fe068be2242ad7f2e5489f4c4", "type": "electric_scooter", "is_reserved": 0, "lon": -77.06019333333333}, {"fusion_lat": 0.0, "name": "6e8265ef7074825db7b1c116f8f6c6ab", "is_disabled": 0, "rental_uris": {"android": "https://dc.lft.to/lastmile_qr_scan", "ios": "https://dc.lft.to/lastmile_qr_scan"}, "fusion_lon": 0.0, "lat": 38.938803666666665, "bike_id": "6e8265ef7074825db7b1c116f8f6c6ab", "type": "electric_scooter", "is_reserved": 0, "lon": -77.02481333333333}, {"fusion_lat": 0.0, "name": "33e93ac84b12bc6bc0b905bf87079bc1", "is_disabled": 0, "rental_uris": {"android": "https://dc.lft.to/lastmile_qr_scan", "ios": "https://dc.lft.to/lastmile_qr_scan"}, "fusion_lon": 0.0, "lat": 38.898856, "bike_id": "33e93ac84b12bc6bc0b905bf87079bc1", "type": "electric_scooter", "is_reserved": 0, "lon": -77.0530015}, {"fusion_lat": 0.0, "name": "8a65f6f7a145c0ad5c18f82980bb8de0", "is_disabled": 0, "rental_uris": {"android": "https://dc.lft.to/lastmile_qr_scan", "ios": "https://dc.lft.to/lastmile_qr_scan"}, "fusion_lon": 0.0, "lat": 38.9024385, "bike_id": "8a65f6f7a145c0ad5c18f82980bb8de0", "type": "electric_scooter", "is_reserved": 0, "lon": -77.01735116666667}, {"fusion_lat": 0.0, "name": "ab66cfe7f2dfdc052a54bc5c91644779", "is_disabled": 0, "rental_uris": {"android": "https://dc.lft.to/lastmile_qr_scan", "ios": "https://dc.lft.to/lastmile_qr_scan"}, "fusion_lon": 0.0, "lat": 38.912774, "bike_id": "ab66cfe7f2dfdc052a54bc5c91644779", "type": "electric_scooter", "is_reserved": 0, "lon": -77.04506116666667}, {"fusion_lat": 0.0, "name": "3e32cdce264053b011d6534565281526", "is_disabled": 0, "rental_uris": {"android": "https://dc.lft.to/lastmile_qr_scan", "ios": "https://dc.lft.to/lastmile_qr_scan"}, "fusion_lon": 0.0, "lat": 38.8363085, "bike_id": "3e32cdce264053b011d6534565281526", "type": "electric_bike", "is_reserved": 0, "lon": -77.06956166666667}, {"fusion_lat": 0.0, "name": "6343b99533dbbe23ab698998040165a7", "is_disabled": 0, "rental_uris": {"android": "https://dc.lft.to/lastmile_qr_scan", "ios": "https://dc.lft.to/lastmile_qr_scan"}, "fusion_lon": 0.0, "lat": 38.90560766666667, "bike_id": "6343b99533dbbe23ab698998040165a7", "type": "electric_scooter", "is_reserved": 0, "lon": -77.02096633333333}, {"fusion_lat": 0.0, "name": "52084712d8f4bec4c9f1a588df2eabbe", "is_disabled": 0, "rental_uris": {"android": "https://dc.lft.to/lastmile_qr_scan", "ios": "https://dc.lft.to/lastmile_qr_scan"}, "fusion_lon": 0.0, "lat": 38.9068655, "bike_id": "52084712d8f4bec4c9f1a588df2eabbe", "type": "electric_scooter", "is_reserved": 0, "lon": -76.9518915}, {"fusion_lat": 0.0, "name": "842232c3734c0941fdebd9c51d298be8", "is_disabled": 0, "rental_uris": {"android": "https://dc.lft.to/lastmile_qr_scan", "ios": "https://dc.lft.to/lastmile_qr_scan"}, "fusion_lon": 0.0, "lat": 38.919881333333336, "bike_id": "842232c3734c0941fdebd9c51d298be8", "type": "electric_scooter", "is_reserved": 0, "lon": -77.03959566666667}, {"fusion_lat": 0.0, "name": "87a3e8a156eaf49a1d94fc6f1c4c702d", "is_disabled": 0, "rental_uris": {"android": "https://dc.lft.to/lastmile_qr_scan", "ios": "https://dc.lft.to/lastmile_qr_scan"}, "fusion_lon": 0.0, "lat": 38.907131, "bike_id": "87a3e8a156eaf49a1d94fc6f1c4c702d", "type": "electric_scooter", "is_reserved": 0, "lon": -77.023853}, {"fusion_lat": 0.0, "name": "8b092afaa693775c8337c87ac4f88f06", "is_disabled": 0, "rental_uris": {"android": "https://dc.lft.to/lastmile_qr_scan", "ios": "https://dc.lft.to/lastmile_qr_scan"}, "fusion_lon": 0.0, "lat": 38.91854633333333, "bike_id": "8b092afaa693775c8337c87ac4f88f06", "type": "electric_bike", "is_reserved": 0, "lon": -76.960903}, {"fusion_lat": 0.0, "name": "016b7e8b9a8054409d02cb922181d411", "is_disabled": 0, "rental_uris": {"android": "https://dc.lft.to/lastmile_qr_scan", "ios": "https://dc.lft.to/lastmile_qr_scan"}, "fusion_lon": 0.0, "lat": 38.911098, "bike_id": "016b7e8b9a8054409d02cb922181d411", "type": "electric_scooter", "is_reserved": 0, "lon": -77.01192666666667}, {"fusion_lat": 0.0, "name": "a44abbcda793fc2074f76b1a0b2836b3", "is_disabled": 0, "rental_uris": {"android": "https://dc.lft.to/lastmile_qr_scan", "ios": "https://dc.lft.to/lastmile_qr_scan"}, "fusion_lon": 0.0, "lat": 38.90244, "bike_id": "a44abbcda793fc2074f76b1a0b2836b3", "type": "electric_scooter", "is_reserved": 0, "lon": -77.046024}, {"fusion_lat": 0.0, "name": "1d0b15ccea63f46fb7c07816902b8ac5", "is_disabled": 0, "rental_uris": {"android": "https://dc.lft.to/lastmile_qr_scan", "ios": "https://dc.lft.to/lastmile_qr_scan"}, "fusion_lon": 0.0, "lat": 38.921307166666665, "bike_id": "1d0b15ccea63f46fb7c07816902b8ac5", "type": "electric_scooter", "is_reserved": 0, "lon": -77.01796083333333}, {"fusion_lat": 0.0, "name": "6b1ee6d468928c529138b0dd81a1fdd5", "is_disabled": 0, "rental_uris": {"android": "https://dc.lft.to/lastmile_qr_scan", "ios": "https://dc.lft.to/lastmile_qr_scan"}, "fusion_lon": 0.0, "lat": 38.920374833333334, "bike_id": "6b1ee6d468928c529138b0dd81a1fdd5", "type": "electric_scooter", "is_reserved": 0, "lon": -77.04183}, {"fusion_lat": 0.0, "name": "0c2900a3b2d273af630edfb542b7e69c", "is_disabled": 0, "rental_uris": {"android": "https://dc.lft.to/lastmile_qr_scan", "ios": "https://dc.lft.to/lastmile_qr_scan"}, "fusion_lon": 0.0, "lat": 38.917613, "bike_id": "0c2900a3b2d273af630edfb542b7e69c", "type": "electric_scooter", "is_reserved": 0, "lon": -77.06950033333334}, {"fusion_lat": 0.0, "name": "b2d14570b219a9c0e1edaa81cc06cbc6", "is_disabled": 0, "rental_uris": {"android": "https://dc.lft.to/lastmile_qr_scan", "ios": "https://dc.lft.to/lastmile_qr_scan"}, "fusion_lon": 0.0, "lat": 38.934868333333334, "bike_id": "b2d14570b219a9c0e1edaa81cc06cbc6", "type": "electric_scooter", "is_reserved": 0, "lon": -77.07274616666666}, {"fusion_lat": 0.0, "name": "da1598dbbc36309b26e0659ea580cb7b", "is_disabled": 0, "rental_uris": {"android": "https://dc.lft.to/lastmile_qr_scan", "ios": "https://dc.lft.to/lastmile_qr_scan"}, "fusion_lon": 0.0, "lat": 38.89790416666666, "bike_id": "da1598dbbc36309b26e0659ea580cb7b", "type": "electric_scooter", "is_reserved": 0, "lon": -76.94732316666666}, {"fusion_lat": 0.0, "name": "d9cde6a1b9c9eb679374f4697e0a81e1", "is_disabled": 0, "rental_uris": {"android": "https://dc.lft.to/lastmile_qr_scan", "ios": "https://dc.lft.to/lastmile_qr_scan"}, "fusion_lon": 0.0, "lat": 38.902659166666666, "bike_id": "d9cde6a1b9c9eb679374f4697e0a81e1", "type": "electric_scooter", "is_reserved": 0, "lon": -77.0362965}, {"fusion_lat": 0.0, "name": "2f2446394a1dbf2702e02ba80c838d19", "is_disabled": 0, "rental_uris": {"android": "https://dc.lft.to/lastmile_qr_scan", "ios": "https://dc.lft.to/lastmile_qr_scan"}, "fusion_lon": 0.0, "lat": 38.914783, "bike_id": "2f2446394a1dbf2702e02ba80c838d19", "type": "electric_scooter", "is_reserved": 0, "lon": -77.04234333333333}, {"fusion_lat": 0.0, "name": "f36d761547f9eb260dc4a11a890c8f5e", "is_disabled": 0, "rental_uris": {"android": "https://dc.lft.to/lastmile_qr_scan", "ios": "https://dc.lft.to/lastmile_qr_scan"}, "fusion_lon": 0.0, "lat": 38.9234795, "bike_id": "f36d761547f9eb260dc4a11a890c8f5e", "type": "electric_scooter", "is_reserved": 0, "lon": -77.0390285}, {"fusion_lat": 0.0, "name": "0a054fbcaaeec4b1f98b75d5848c0603", "is_disabled": 0, "rental_uris": {"android": "https://dc.lft.to/lastmile_qr_scan", "ios": "https://dc.lft.to/lastmile_qr_scan"}, "fusion_lon": 0.0, "lat": 38.9024255, "bike_id": "0a054fbcaaeec4b1f98b75d5848c0603", "type": "electric_scooter", "is_reserved": 0, "lon": -77.01816666666667}, {"fusion_lat": 0.0, "name": "2488329d62866fdf14a0df34d07e5cf4", "is_disabled": 0, "rental_uris": {"android": "https://dc.lft.to/lastmile_qr_scan", "ios": "https://dc.lft.to/lastmile_qr_scan"}, "fusion_lon": 0.0, "lat": 38.9427295, "bike_id": "2488329d62866fdf14a0df34d07e5cf4", "type": "electric_scooter", "is_reserved": 0, "lon": -77.03259583333333}, {"fusion_lat": 0.0, "name": "6a3231adbddf012950f31172d82693df", "is_disabled": 0, "rental_uris": {"android": "https://dc.lft.to/lastmile_qr_scan", "ios": "https://dc.lft.to/lastmile_qr_scan"}, "fusion_lon": 0.0, "lat": 38.9348855, "bike_id": "6a3231adbddf012950f31172d82693df", "type": "electric_scooter", "is_reserved": 0, "lon": -77.072712}, {"fusion_lat": 0.0, "name": "6a2f2b1ea6295be1f51fd1cc9c3c4f6b", "is_disabled": 0, "rental_uris": {"android": "https://dc.lft.to/lastmile_qr_scan", "ios": "https://dc.lft.to/lastmile_qr_scan"}, "fusion_lon": 0.0, "lat": 38.898596833333336, "bike_id": "6a2f2b1ea6295be1f51fd1cc9c3c4f6b", "type": "electric_bike", "is_reserved": 0, "lon": -77.01954166666667}, {"fusion_lat": 0.0, "name": "9960394a52d55a5bf7ea7862c3d58372", "is_disabled": 0, "rental_uris": {"android": "https://dc.lft.to/lastmile_qr_scan", "ios": "https://dc.lft.to/lastmile_qr_scan"}, "fusion_lon": 0.0, "lat": 38.90812916666667, "bike_id": "9960394a52d55a5bf7ea7862c3d58372", "type": "electric_scooter", "is_reserved": 0, "lon": -77.04336},