{"data": {"bikes": [{"is_reserved": 0, "type": "electric_scooter", "bike_id": "6fa9f18f5ef0776a2faa669c091a3c49", "lat": 38.89911266666667, "lon": -77.02723483333334, "rental_uris": {"android": "https://dc.lft.to/lastmile_qr_scan", "ios": "https://dc.lft.to/lastmile_qr_scan"}, "is_disabled": 0, "fusion_lat": 0.0, "name": "6fa9f18f5ef0776a2faa669c091a3c49", "fusion_lon": 0.0}, {"is_reserved": 0, "type": "electric_scooter", "bike_id": "ca2094139db244ffe5c8ad72643b1556", "lat": 38.923306833333335, "lon": -77.05677133333333, "rental_uris": {"android": "https://dc.lft.to/lastmile_qr_scan", "ios": "https://dc.lft.to/lastmile_qr_scan"}, "is_disabled": 0, "fusion_lat": 0.0, "name": "ca2094139db244ffe5c8ad72643b1556", "fusion_lon": 0.0}, {"is_reserved": 0, "type": "electric_scooter", "bike_id": "651f267f79b9658dd757e2ab19af12b8", "lat": 38.916756166666666, "lon": -77.03202916666666, "rental_uris": {"android": "https://dc.lft.to/lastmile_qr_scan", "ios": "https://dc.lft.to/lastmile_qr_scan"}, "is_disabled": 0, "fusion_lat": 0.0, "name": "651f267f79b9658dd757e2ab19af12b8", "fusion_lon": 0.0}, {"is_reserved": 0, "type": "electric_scooter", "bike_id": "c39a9659de76082b61b42cd7f7aa8670", "lat": 38.9751895, "lon": -77.01739166666667, "rental_uris": {"android": "https://dc.lft.to/lastmile_qr_scan", "ios": "https://dc.lft.to/lastmile_qr_scan"}, "is_disabled": 0, "fusion_lat": 0.0, "name": "c39a9659de76082b61b42cd7f7aa8670", "fusion_lon": 0.0}, {"is_reserved": 0, "type": "electric_scooter", "bike_id": "f1130fe8afc33e3fe4f55a8a0027a733", "lat": 38.91810866666667, "lon": -77.045334, "rental_uris": {"android": "https://dc.lft.to/lastmile_qr_scan", "ios": "https://dc.lft.to/lastmile_qr_scan"}, "is_disabled": 0, "fusion_lat": 0.0, "name": "f1130fe8afc33e3fe4f55a8a0027a733", "fusion_lon": 0.0}, {"is_reserved": 0, "type": "electric_scooter", "bike_id": "a7309cdab76ff558b45a376b22de5e1b", "lat": 38.93776483333333, "lon": -77.032849, "rental_uris": {"android": "https://dc.lft.to/lastmile_qr_scan", "ios": "https://dc.lft.to/lastmile_qr_scan"}, "is_disabled": 0, "fusion_lat": 0.0, "name": "a7309cdab76ff558b45a376b22de5e1b", "fusion_lon": 0.0}, {"is_reserved": 0, "type": "electric_scooter", "bike_id": "2c5fb32ce28b447ad431abc156edb73b", "lat": 38.910802, "lon": -77.0447825, "rental_uris": {"android": "https://dc.lft.to/lastmile_qr_scan", "ios": "https://dc.lft.to/lastmile_qr_scan"}, "is_disabled": 0, "fusion_lat": 0.0, "name": "2c5fb32ce28b447ad431abc156edb73b", "fusion_lon": 0.0}, {"is_reserved": 0, "type": "electric_scooter", "bike_id": "4b0ac1ab76bcaa539f7e2076de279cfd", "lat": 38.9260415, "lon": -77.021678, "rental_uris": {"android": "https://dc.lft.to/lastmile_qr_scan", "ios": "https://dc.lft.to/lastmile_qr_scan"}, "is_disabled": 0, "fusion_lat": 0.0, "name": "4b0ac1ab76bcaa539f7e2076de279cfd", "fusion_lon": 0.0}, {"is_reserved": 0, "type": "electric_bike", "bike_id": "95c254cd9c4ad6ca709ea565e0de52a5", "lat": 38.95753033333333, "lon": -76.98022916666666, "rental_uris": {"android": "https://dc.lft.to/lastmile_qr_scan", "ios": "https://dc.lft.to/lastmile_qr_scan"}, "is_disabled": 0, "fusion_lat": 0.0, "name": "95c254cd9c4ad6ca709ea565e0de52a5", "fusion_lon": 0.0}, {"is_reserved": 0, "type": "electric_scooter", "bike_id": "a36fdcea40a11f05e822f673e54b084b", "lat": 38.903501, "lon": -76.98615116666667, "rental_uris": {"android": "https://dc.lft.to/lastmile_qr_scan", "ios": "https://dc.lft.to/lastmile_qr_scan"}, "is_disabled": 0, "fusion_lat": 0.0, "name": "a36fdcea40a11f05e822f673e54b084b", "fusion_lon": 0.0}, {"is_reserved": 0, "type": "electric_scooter", "bike_id": "2f1d2083fa0524fbb426c0506f9a6927", "lat": 38.91864533333333, "lon": -77.04151266666666, "rental_uris": {"android": "https://dc.lft.to/lastmile_qr_scan", "ios": "https://dc.lft.to/lastmile_qr_scan"}, "is_disabled": 0, "fusion_lat": 0.0, "name": "2f1d2083fa0524fbb426c0506f9a6927", "fusion_lon": 0.0}, {"is_reserved": 0, "type": "electric_scooter", "bike_id": "a2b5fb6b0706a92d4c584abd0ab4390d", "lat": 38.92905783333333, "lon": -77.03631366666667, "rental_uris": {"android": "https://dc.lft.to/lastmile_qr_scan", "ios": "https://dc.lft.to/lastmile_qr_scan"}, "is_disabled": 0, "fusion_lat": 0.0, "name": "a2b5fb6b0706a92d4c584abd0ab4390d", "fusion_lon": 0.0}, {"is_reserved": 0, "type": "electric_scooter", "bike_id": "67d8ad78d2bdf60ca9f1875a756112a3", "lat": 38.887727, "lon": -76.93262233333333, "rental_uris": {"android": "https://dc.lft.to/lastmile_qr_scan", "ios": "https://dc.lft.to/lastmile_qr_scan"}, "is_disabled": 0, "fusion_lat": 0.0, "name": "67d8ad78d2bdf60ca9f1875a756112a3", "fusion_lon": 0.0}, {"is_reserved": 0, "type": "electric_scooter", "bike_id": "c02d17a3d1c210f9634482c380ae7b8f", "lat": 38.91112, "lon": -77.03250316666667, "rental_uris": {"android": "https://dc.lft.to/lastmile_qr_scan", "ios": "https://dc.lft.to/lastmile_qr_scan"}, "is_disabled": 0, "fusion_lat": 0.0, "name": "c02d17a3d1c210f9634482c380ae7b8f", "fusion_lon": 0.0}, {"is_reserved": 0, "type": "electric_scooter", "bike_id": "55d5a056bfab1415be6c525fbb91a22c", "lat": 38.920300166666664, "lon": -76.9854395, "rental_uris": {"android": "https://dc.lft.to/lastmile_qr_scan", "ios": "https://dc.lft.to/lastmile_qr_scan"}, "is_disabled": 0, "fusion_lat": 0.0, "name": "55d5a056bfab1415be6c525fbb91a22c", "fusion_lon": 0.0}, {"is_reserved": 0, "type": "electric_scooter", "bike_id": "8e157954bbe13839e29811a48f0fd3ff", "lat": 38.90528716666667, "lon": -77.06103916666666, "rental_uris": {"android": "https://dc.lft.to/lastmile_qr_scan", "ios": "https://dc.lft.to/lastmile_qr_scan"}, "is_disabled": 0, "fusion_lat": 0.0, "name": "8e157954bbe13839e29811a48f0fd3ff", "fusion_lon": 0.0}, {"is_reserved": 0, "type": "electric_scooter", "bike_id": "dc0b377c6815421aa006e5ce79b551e1", "lat": 38.9214955, "lon": -77.03874483333334, "rental_uris": {"android": "https://dc.lft.to/lastmile_qr_scan", "ios": "https://dc.lft.to/lastmile_qr_scan"}, "is_disabled": 0, "fusion_lat": 0.0, "name": "dc0b377c6815421aa006e5ce79b551e1", "fusion_lon": 0.0}, {"is_reserved": 0, "type": "electric_scooter", "bike_id": "011efb6c50ce37fe180cb7ddcd47fe70", "lat": 38.9054045, "lon": -77.02688283333333, "rental_uris": {"android": "https://dc.lft.to/lastmile_qr_scan", "ios": "https://dc.lft.to/lastmile_qr_scan"}, "is_disabled": 0, "fusion_lat": 0.0, "name": "011efb6c50ce37fe180cb7ddcd47fe70", "fusion_lon": 0.0}, {"is_reserved": 0, "type": "electric_bike", "bike_id": "14bc35f2b0616854c8f1601996a41301", "lat": 38.932141, "lon": -77.02339266666667, "rental_uris": {"android": "https://dc.lft.to/lastmile_qr_scan", "ios": "https://dc.lft.to/lastmile_qr_scan"}, "is_disabled": 0, "fusion_lat": 0.0, "name": "14bc35f2b0616854c8f1601996a41301", "fusion_lon": 0.0}, {"is_reserved": 0, "type": "electric_bike", "bike_id": "75e68d9af590d823da2703392d916a21", "lat": 38.8675725, "lon": -76.94537383333333, "rental_uris": {"android": "https://dc.lft.to/lastmile_qr_scan", "ios": "https://dc.lft.to/lastmile_qr_scan"}, "is_disabled": 0, "fusion_lat": 0.0, "name": "75e68d9af590d823da2703392d916a21", "fusion_lon": 0.0}, {"is_reserved": 0, "type": "electric_scooter", "bike_id": "ee69568dc122ff7a8fb7d681c129530b", "lat": 38.922143, "lon": -77.04248883333334, "rental_uris": {"android": "https://dc.lft.to/lastmile_qr_scan", "ios": "https://dc.lft.to/lastmile_qr_scan"}, "is_disabled": 0, "fusion_lat": 0.0, "name": "ee69568dc122ff7a8fb7d681c129530b", "fusion_lon": 0.0}, {"is_reserved": 0, "type": "electric_scooter", "bike_id": "d454d568d5ec644c0c612f508d2d087a", "lat": 38.88517616666667, "lon": -76.9962725, "rental_uris": {"android": "https://dc.lft.to/lastmile_qr_scan", "ios": "https://dc.lft.to/lastmile_qr_scan"}, "is_disabled": 0, "fusion_lat": 0.0, "name": "d454d568d5ec644c0c612f508d2d087a", "fusion_lon": 0.0}, {"is_reserved": 0, "type": "electric_scooter", "bike_id": "6b54bf8887a5ff8a959f7ae0d4d89942", "lat": 38.915916, "lon": -77.0175235, "rental_uris": {"android": "https://dc.lft.to/lastmile_qr_scan", "ios": "https://dc.lft.to/lastmile_qr_scan"}, "is_disabled": 0, "fusion_lat": 0.0, "name": "6b54bf8887a5ff8a959f7ae0d4d89942", "fusion_lon": 0.0}, {"is_reserved": 0, "type": "electric_scooter", "bike_id": "03fd71c2d39a44f376b997389755ee98", "lat": 38.8987565, "lon": -76.93180033333333, "rental_uris": {"android": "https://dc.lft.to/lastmile_qr_scan", "ios": "https://dc.lft.to/lastmile_qr_scan"}, "is_disabled": 0, "fusion_lat": 0.0, "name": "03fd71c2d39a44f376b997389755ee98", "fusion_lon": 0.0}, {"is_reserved": 0, "type": "electric_scooter", "bike_id": "cef21c7d99f6af8d6100d0b2c32853ed", "lat": 38.91926266666667, "lon": -77.04479583333334, "rental_uris": {"android": "https://dc.lft.to/lastmile_qr_scan", "ios": "https://dc.lft.to/lastmile_qr_scan"}, "is_disabled": 0, "fusion_lat": 0.0, "name": "cef21c7d99f6af8d6100d0b2c32853ed", "fusion_lon": 0.0}, {"is_reserved": 0, "type": "electric_scooter", "bike_id": "86f2577d2d755400d43dfc472127d51c", "lat": 38.9288785, "lon": -77.01371816666666, "rental_uris": {"android": "https://dc.lft.to/lastmile_qr_scan", "ios": "https://dc.lft.to/lastmile_qr_scan"}, "is_disabled": 0, "fusion_lat": 0.0, "name": "86f2577d2d755400d43dfc472127d51c", "fusion_lon": 0.0}, {"is_reserved": 0, "type": "electric_scooter", "bike_id": "bf23ef6c75080da67a6e4718a9f4f954", "lat": 38.92769466666667, "lon": -77.02780783333333, "rental_uris": {"android": "https://dc.lft.to/lastmile_qr_scan", "ios": "https://dc.lft.to/lastmile_qr_scan"}, "is_disabled": 0, "fusion_lat": 0.0, "name": "bf23ef6c75080da67a6e4718a9f4f954", "fusion_lon": 0.0}, {"is_reserved": 0, "type": "electric_scooter", "bike_id": "3cd13dcbba80ee50a6a9e2c2f32fba1b", "lat": 38.922455, "lon": -77.042525, "rental_uris": {"android": "https://dc.lft.to/lastmile_qr_scan", "ios": "https://dc.lft.to/lastmile_qr_scan"}, "is_disabled": 0, "fusion_lat": 0.0, "name": "3cd13dcbba80ee50a6a9e2c2f32fba1b", "fusion_lon": 0.0}, {"is_reserved": 0, "type": "electric_scooter", "bike_id": "a2c1348f8c58c89b106c30b17bfc9fda", "lat": 38.90672433333334, "lon": -77.00909933333334, "rental_uris": {"android": "https://dc.lft.to/lastmile_qr_scan", "ios": "https://dc.lft.to/lastmile_qr_scan"}, "is_disabled": 0, "fusion_lat": 0.0, "name": "a2c1348f8c58c89b106c30b17bfc9fda", "fusion_lon": 0.0}, {"is_reserved": 0, "type": "electric_scooter", "bike_id": "d004be24ac5e413558c8af0f3989fee5", "lat": 38.92840833333333, "lon": -77.05505716666667, "rental_uris": {"android": "https://dc.lft.to/lastmile_qr_scan", "ios": "https://dc.lft.to/lastmile_qr_scan"}, "is_disabled": 0, "fusion_lat": 0.0, "name": "d004be24ac5e413558c8af0f3989fee5", "fusion_lon": 0.0}, {"is_reserved": 0, "type": "electric_scooter", "bike_id": "6dc658be037f1dca48e88c710a2a07e7", "lat": 38.917386, "lon": -77.02793866666667, "rental_uris": {"android": "https://dc.lft.to/lastmile_qr_scan", "ios": "https://dc.lft.to/lastmile_qr_scan"}, "is_disabled": 0, "fusion_lat": 0.0, "name": "6dc658be037f1dca48e88c710a2a07e7", "fusion_lon": 0.0}, {"is_reserved": 0, "type": "electric_scooter", "bike_id": "cc3827f74a0a3a02ca9f37a054b8b4d8", "lat": 38.923835833333335, "lon": -77.02692916666666, "rental_uris": {"android": "https://dc.lft.to/lastmile_qr_scan", "ios": "https://dc.lft.to/lastmile_qr_scan"}, "is_disabled": 0, "fusion_lat": 0.0, "name": "cc3827f74a0a3a02ca9f37a054b8b4d8", "fusion_lon": 0.0}, {"is_reserved": 0, "type": "electric_scooter", "bike_id": "d8a55b10ebc31b1e79ec5d1666e85975", "lat": 38.90683516666667, "lon": -77.0625325, "rental_uris": {"android": "https://dc.lft.to/lastmile_qr_scan", "ios": "https://dc.lft.to/lastmile_qr_scan"}, "is_disabled": 0, "fusion_lat": 0.0, "name": "d8a55b10ebc31b1e79ec5d1666e85975", "fusion_lon": 0.0}, {"is_reserved": 0, "type": "electric_scooter", "bike_id": "e69cce2d359624f3b65a214069e0e13e", "lat": 38.9407355, "lon": -77.05489433333334, "rental_uris": {"android": "https://dc.lft.to/lastmile_qr_scan", "ios": "https://dc.lft.to/lastmile_qr_scan"}, "is_disabled": 0, "fusion_lat": 0.0, "name": "e69cce2d359624f3b65a214069e0e13e", "fusion_lon": 0.0}, {"is_reserved": 0, "type": "electric_scooter", "bike_id": "be071e96cc3246d53c35fcd4375b727d", "lat": 38.90210833333333, "lon": -77.048686, "rental_uris": {"android": "https://dc.lft.to/lastmile_qr_scan", "ios": "https://dc.lft.to/lastmile_qr_scan"}, "is_disabled": 0, "fusion_lat": 0.0, "name": "be071e96cc3246d53c35fcd4375b727d", "fusion_lon": 0.0}, {"is_reserved": 0, "type": "electric_scooter", "bike_id": "30dc76abe5251a58f2a1e6614f10c023", "lat": 38.90563, "lon": -77.0414715, "rental_uris": {"android": "https://dc.lft.to/lastmile_qr_scan", "ios": "https://dc.lft.to/lastmile_qr_scan"}, "is_disabled": 0, "fusion_lat": 0.0, "name": "30dc76abe5251a58f2a1e6614f10c023", "fusion_lon": 0.0}, {"is_reserved": 0, "type": "electric_scooter", "bike_id": "7d42206a9f8353434e9840ccc604f61e", "lat": 38.9022025, "lon": -77.02152983333333, "rental_uris": {"android": "https://dc.lft.to/lastmile_qr_scan", "ios": "https://dc.lft.to/lastmile_qr_scan"}, "is_disabled": 0, "fusion_lat": 0.0, "name": "7d42206a9f8353434e9840ccc604f61e", "fusion_lon": 0.0}, {"is_reserved": 0, "type": "electric_scooter", "bike_id": "b3d81946a0c5bb742c7cb2a650784549", "lat": 38.9226315, "lon": -77.04304866666666, "rental_uris": {"android": "https://dc.lft.to/lastmile_qr_scan", "ios": "https://dc.lft.to/lastmile_qr_scan"}, "is_disabled": 0, "fusion_lat": 0.0, "name": "b3d81946a0c5bb742c7cb2a650784549", "fusion_lon": 0.0}, {"is_reserved": 0, "type": "electric_scooter", "bike_id": "91b317654bdfe94ea4da36c82c18368a", "lat": 38.906887166666664, "lon": -77.0345475, "rental_uris": {"android": "https://dc.lft.to/lastmile_qr_scan", "ios": "https://dc.lft.to/lastmile_qr_scan"}, "is_disabled": 0, "fusion_lat": 0.0, "name": "91b317654bdfe94ea4da36c82c18368a", "fusion_lon": 0.0}, {"is_reserved": 0, "type": "electric_scooter", "bike_id": "761dba40b097c7022c96ec481540806a", "lat": 38.9241415, "lon": -77.02009766666667, "rental_uris": {"android": "https://dc.lft.to/lastmile_qr_scan", "ios": "https://dc.lft.to/lastmile_qr_scan"}, "is_disabled": 0, "fusion_lat": 0.0, "name": "761dba40b097c7022c96ec481540806a", "fusion_lon": 0.0}, {"is_reserved": 0, "type": "electric_scooter", "bike_id": "0182dd4458a9415d428258ff832e6083", "lat": 38.9276585, "lon": -77.0276295, "rental_uris": {"android": "https://dc.lft.to/lastmile_qr_scan", "ios": "https://dc.lft.to/lastmile_qr_scan"}, "is_disabled": 0, "fusion_lat": 0.0, "name": "0182dd4458a9415d428258ff832e6083", "fusion_lon": 0.0}, {"is_reserved": 0, "type": "electric_scooter", "bike_id": "8d67fc82b12fbea4e18c37e43968068a", "lat": 38.91042433333333, "lon": -77.03326333333334, "rental_uris": {"android": "https://dc.lft.to/lastmile_qr_scan", "ios": "https://dc.lft.to/lastmile_qr_scan"}, "is_disabled": 0, "fusion_lat": 0.0, "name": "8d67fc82b12fbea4e18c37e43968068a", "fusion_lon": 0.0}, {"is_reserved": 0, "type": "electric_scooter", "bike_id": "2ca81a568aab26f802c73de9ba0821ba", "lat": 38.9192145, "lon": -77.04827616666667, "rental_uris": {"android": "https://dc.lft.to/lastmile_qr_scan", "ios": "https://dc.lft.to/lastmile_qr_scan"}, "is_disabled": 0, "fusion_lat": 0.0, "name": "2ca81a568aab26f802c73de9ba0821ba", "fusion_lon": 0.0}, {"is_reserved": 0, "type": "electric_scooter", "bike_id": "8dfbe93777062b4c95214e3e4ce62d42", "lat": 38.89732433333333, "lon": -77.02211683333333, "rental_uris": {"android": "https://dc.lft.to/lastmile_qr_scan", "ios": "https://dc.lft.to/lastmile_qr_scan"}, "is_disabled": 0, "fusion_lat": 0.0, "name": "8dfbe93777062b4c95214e3e4ce62d42", "fusion_lon": 0.0}, {"is_reserved": 0, "type": "electric_scooter", "bike_id": "e8cddd5570296e6fd7a04525123fb718", "lat": 38.931313833333334, "lon": -77.02304666666667, "rental_uris": {"android": "https://dc.lft.to/lastmile_qr_scan", "ios": "https://dc.lft.to/lastmile_qr_scan"}, "is_disabled": 0, "fusion_lat": 0.0, "name": "e8cddd5570296e6fd7a04525123fb718", "fusion_lon": 0.0}, {"is_reserved": 0, "type": "electric_scooter", "bike_id": "f0ac1b9371e3ed962d8eb3e24b13bdd2", "lat": 38.96031116666666, "lon": -77.07151, "rental_uris": {"android": "https://dc.lft.to/lastmile_qr_scan", "ios": "https://dc.lft.to/lastmile_qr_scan"}, "is_disabled": 0, "fusion_lat": 0.0, "name": "f0ac1b9371e3ed962d8eb3e24b13bdd2", "fusion_lon": 0.0}, {"is_reserved": 0, "type": "electric_bike", "bike_id": "7038b8b867a999fa1a3fe65d8358a685", "lat": 38.94475533333333, "lon": -76.986871, "rental_uris": {"android": "https://dc.lft.to/lastmile_qr_scan", "ios": "https://dc.lft.to/lastmile_qr_scan"}, "is_disabled": 0, "fusion_lat": 0.0, "name": "7038b8b867a999fa1a3fe65d8358a685", "fusion_lon": 0.0}, {"is_reserved": 0, "type": "electric_scooter", "bike_id": "a784334156c301db1b2575933db6dcc8", "lat": 38.92280683333333, "lon": -77.04293, "rental_uris": {"android": "https://dc.lft.to/lastmile_qr_scan", "ios": "https://dc.lft.to/lastmile_qr_scan"}, "is_disabled": 0, "fusion_lat": 0.0, "name": "a784334156c301db1b2575933db6dcc8", "fusion_lon": 0.0}, {"is_reserved": 0, "type": "electric_scooter", "bike_id": "4c719fd780d2098055cb7797435639a3", "lat": 38.90959766666667, "lon": -77.0242885, "rental_uris": {"android": "https://dc.lft.to/lastmile_qr_scan", "ios": "https://dc.lft.to/lastmile_qr_scan"}, "is_disabled": 0, "fusion_lat": 0.0, "name": "4c719fd780d2098055cb7797435639a3", "fusion_lon": 0.0}, {"is_reserved": 0, "type": "electric_scooter", "bike_id": "15d796a3aa2c835d53d97138ed2dfd17", "lat": 38.902981, "lon": -77.0226325, "rental_uris": {"android": "https://dc.lft.to/lastmile_qr_scan", "ios": "https://dc.lft.to/lastmile_qr_scan"}, "is_disabled": 0, "fusion_lat": 0.0, "name": "15d796a3aa2c835d53d97138ed2dfd17", "fusion_lon": 0.0}, {"is_reserved": 0, "type": "electric_scooter", "bike_id": "0070e78e35da4907f5dccae32c0eeab0", "lat": 38.9142805, "lon": -77.03210466666667, "rental_uris": {"android": "https://dc.lft.to/lastmile_qr_scan", "ios": "https://dc.lft.to/lastmile_qr_scan"}, "is_disabled": 0, "fusion_lat": 0.0, "name": "0070e78e35da4907f5dccae32c0eeab0", "fusion_lon": 0.0}, {"is_reserved": 0, "type": "electric_scooter", "bike_id": "768609483d994daf45471472e4d63d25", "lat": 38.905704666666665, "lon": -77.005994, "rental_uris": {"android": "https://dc.lft.to/lastmile_qr_scan", "ios": "https://dc.lft.to/lastmile_qr_scan"}, "is_disabled": 0, "fusion_lat": 0.0, "name": "768609483d994daf45471472e4d63d25", "fusion_lon": 0.0}, {"is_reserved": 0, "type": "electric_scooter", "bike_id": "5950c2c15585d8f3de6044ffdbae1ae2", "lat": 38.8877145, "lon": -77.0150565, "rental_uris": {"android": "https://dc.lft.to/lastmile_qr_scan", "ios": "https://dc.lft.to/lastmile_qr_scan"}, "is_disabled": 0, "fusion_lat": 0.0, "name": "5950c2c15585d8f3de6044ffdbae1ae2", "fusion_lon": 0.0}, {"is_reserved": 0, "type": "electric_scooter", "bike_id": "7f9ef16454f27f50cbda314ec4403f71", "lat": 38.916940333333336, "lon": -77.04107483333334, "rental_uris": {"android": "https://dc.lft.to/lastmile_qr_scan", "ios": "https://dc.lft.to/lastmile_qr_scan"}, "is_disabled": 0, "fusion_lat": 0.0, "name": "7f9ef16454f27f50cbda314ec4403f71", "fusion_lon": 0.0}, {"is_reserved": 0, "type": "electric_scooter", "bike_id": "d5d57885e937c69de14c31dde6f6521e", "lat": 38.905327666666665, "lon": -77.056774, "rental_uris": {"android": "https://dc.lft.to/lastmile_qr_scan", "ios": "https://dc.lft.to/lastmile_qr_scan"}, "is_disabled": 0, "fusion_lat": 0.0, "name": "d5d57885e937c69de14c31dde6f6521e", "fusion_lon": 0.0}, {"is_reserved": 0, "type": "electric_scooter", "bike_id": "b783f9da2d33168377c373b7c1b03bb1", "lat": 38.91122516666667, "lon": -77.02203366666667, "rental_uris": {"android": "https://dc.lft.to/lastmile_qr_scan", "ios": "https://dc.lft.to/lastmile_qr_scan"}, "is_disabled": 0, "fusion_lat": 0.0, "name": "b783f9da2d33168377c373b7c1b03bb1", "fusion_lon": 0.0}, {"is_reserved": 0, "type": "electric_scooter", "bike_id": "fda21f703873ba3c24dcb14ed3e4e39b", "lat": 38.915650666666664, "lon": -77.02556783333333, "rental_uris": {"android": "https://dc.lft.to/lastmile_qr_scan", "ios": "https://dc.lft.to/lastmile_qr_scan"}, "is_disabled": 0, "fusion_lat": 0.0, "name": "fda21f703873ba3c24dcb14ed3e4e39b", "fusion_lon": 0.0}, {"is_reserved": 0, "type": "electric_scooter", "bike_id": "cddea1ffbf832032ebca554419e19297", "lat": 38.92379733333333, "lon": -77.01914616666667, "rental_uris": {"android": "https://dc.lft.to/lastmile_qr_scan", "ios": "https://dc.lft.to/lastmile_qr_scan"}, "is_disabled": 0, "fusion_lat": 0.0, "name": "cddea1ffbf832032ebca554419e19297", "fusion_lon": 0.0}, {"is_reserved": 0, "type": "electric_scooter", "bike_id": "db460cbf3f09e78aa153f873098b07de", "lat": 38.90812066666667, "lon": -77.036854, "rental_uris": {"android": "https://dc.lft.to/lastmile_qr_scan", "ios": "https://dc.lft.to/lastmile_qr_scan"}, "is_disabled": 0, "fusion_lat": 0.0, "name": "db460cbf3f09e78aa153f873098b07de", "fusion_lon": 0.0}, {"is_reserved": 0, "type": "electric_bike", "bike_id": "de4cc06445d2bfadbf957029ced6875e", "lat": 38.90050333333333, "lon": -76.97789716666666, "rental_uris": {"android": "https://dc.lft.to/lastmile_qr_scan", "ios": "https://dc.lft.to/lastmile_qr_scan"}, "is_disabled": 0, "fusion_lat": 0.0, "name": "de4cc06445d2bfadbf957029ced6875e", "fusion_lon": 0.0}, {"is_reserved": 0, "type": "electric_scooter", "bike_id": "50c25fedaa04a9a6b2fdcb6673316819", "lat": 38.90546633333334, "lon": -77.0570365, "rental_uris": {"android": "https://dc.lft.to/lastmile_qr_scan", "ios": "https://dc.lft.to/lastmile_qr_scan"}, "is_disabled": 0, "fusion_lat": 0.0, "name": "50c25fedaa04a9a6b2fdcb6673316819", "fusion_lon": 0.0}, {"is_reserved": 0, "type": "electric_scooter", "bike_id": "99d9d8f4596b2a76029999cd318fceb4", "lat": 38.90724733333333, "lon": -77.0319505, "rental_uris": {"android": "https://dc.lft.to/lastmile_qr_scan", "ios": "https://dc.lft.to/lastmile_qr_scan"}, "is_disabled": 0, "fusion_lat": 0.0, "name": "99d9d8f4596b2a76029999cd318fceb4", "fusion_lon": 0.0}, {"is_reserved": 0, "type": "electric_scooter", "bike_id": "ff760794cd15b5fb39814c342db31b57", "lat": 38.89366916666667, "lon": -77.02812816666666, "rental_uris": {"android": "https://dc.lft.to/lastmile_qr_scan", "ios": "https://dc.lft.to/lastmile_qr_scan"}, "is_disabled": 0, "fusion_lat": 0.0, "name": "ff760794cd15b5fb39814c342db31b57", "fusion_lon": 0.0}, {"is_reserved": 0, "type": "electric_bike", "bike_id": "15015c2ff8d9cd39c7885cef1b1ef645", "lat": 38.949654, "lon": -76.96096116666666, "rental_uris": {"android": "https://dc.lft.to/lastmile_qr_scan", "ios": "https://dc.lft.to/lastmile_qr_scan"}, "is_disabled": 0, "fusion_lat": 0.0, "name": "15015c2ff8d9cd39c7885cef1b1ef645", "fusion_lon": 0.0}, {"is_reserved": 0, "type": "electric_scooter", "bike_id": "6bd7edba727e35cab92672622c085457", "lat": 38.921980166666664, "lon": -76.99708583333333, "rental_uris": {"android": "https://dc.lft.to/lastmile_qr_scan", "ios": "https://dc.lft.to/lastmile_qr_scan"}, "is_disabled": 0, "fusion_lat": 0.0, "name": "6bd7edba727e35cab92672622c085457", "fusion_lon": 0.0}, {"is_reserved": 0, "type": "electric_scooter", "bike_id": "eaa3f8e16b52c3a474c4f2e1d75910c9", "lat": 38.915551666666666, "lon": -77.02360766666666, "rental_uris": {"android": "https://dc.lft.to/lastmile_qr_scan", "ios": "https://dc.lft.to/lastmile_qr_scan"}, "is_disabled": 0, "fusion_lat": 0.0, "name": "eaa3f8e16b52c3a474c4f2e1d75910c9", "fusion_lon": 0.0}, {"is_reserved": 0, "type": "electric_scooter", "bike_id": "eb47b04e922f91cfe14b73fb5cb314e9", "lat": 38.93865533333334, "lon": -77.026515, "rental_uris": {"android": "https://dc.lft.to/lastmile_qr_scan", "ios": "https://dc.lft.to/lastmile_qr_scan"}, "is_disabled": 0, "fusion_lat": 0.0, "name": "eb47b04e922f91cfe14b73fb5cb314e9", "fusion_lon": 0.0}, {"is_reserved": 0, "type": "electric_scooter", "bike_id": "be5ec7d6413742ea98127b8348878026", "lat": 38.905183, "lon": -77.05661816666667, "rental_uris": {"android": "https://dc.lft.to/lastmile_qr_scan", "ios": "https://dc.lft.to/lastmile_qr_scan"}, "is_disabled": 0, "fusion_lat": 0.0, "name": "be5ec7d6413742ea98127b8348878026", "fusion_lon": 0.0}, {"is_reserved": 0, "type": "electric_scooter", "bike_id": "7c2d119611765382b8b56488e0a3d7f5", "lat": 38.8726865, "lon": -77.01718216666667, "rental_uris": {"android": "https://dc.lft.to/lastmile_qr_scan", "ios": "https://dc.lft.to/lastmile_qr_scan"}, "is_disabled": 0, "fusion_lat": 0.0, "name": "7c2d119611765382b8b56488e0a3d7f5", "fusion_lon": 0.0}, {"is_reserved": 0, "type": "electric_bike", "bike_id": "71e0752ee08171d516a2ab79cd55f973", "lat": 38.808645166666665, "lon": -77.11258833333333, "rental_uris": {"android": "https://dc.lft.to/lastmile_qr_scan", "ios": "https://dc.lft.to/lastmile_qr_scan"}, "is_disabled": 0, "fusion_lat": 0.0, "name": "71e0752ee08171d516a2ab79cd55f973", "fusion_lon": 0.0}, {"is_reserved": 0, "type": "electric_scooter", "bike_id": "31dca2c8b96528a5b710b9071128e2d9", "lat": 38.87167016666667, "lon": -77.01316883333334, "rental_uris": {"android": "https://dc.lft.to/lastmile_qr_scan", "ios": "https://dc.lft.to/lastmile_qr_scan"}, "is_disabled": 0, "fusion_lat": 0.0, "name": "31dca2c8b96528a5b710b9071128e2d9", "fusion_lon": 0.0}, {"is_reserved": 0, "type": "electric_scooter", "bike_id": "f6eeac80c81cddb5309bba95c9285ac9", "lat": 38.906801333333334, "lon": -77.062576, "rental_uris": {"android": "https://dc.lft.to/lastmile_qr_scan", "ios": "https://dc.lft.to/lastmile_qr_scan"}, "is_disabled": 0, "fusion_lat": 0.0, "name": "f6eeac80c81cddb5309bba95c9285ac9", "fusion_lon": 0.0}, {"is_reserved": 0, "type": "electric_scooter", "bike_id": "f4ea29c06d857e941705fdb8a8206435", "lat": 38.90851633333333, "lon": -76.99796466666666, "rental_uris": {"android": "https://dc.lft.to/lastmile_qr_scan", "ios": "https://dc.lft.to/lastmile_qr_scan"}, "is_disabled": 0, "fusion_lat": 0.0, "name": "f4ea29c06d857e941705fdb8a8206435", "fusion_lon": 0.0}, {"is_reserved": 0, "type": "electric_scooter", "bike_id": "6d7a014fc7342e75977ad5f3f70405b3", "lat": 38.90979083333333, "lon": -77.047884, "rental_uris": {"android": "https://dc.lft.to/lastmile_qr_scan", "ios": "https://dc.lft.to/lastmile_qr_scan"}, "is_disabled": 0, "fusion_lat": 0.0, "name": "6d7a014fc7342e75977ad5f3f70405b3", "fusion_lon": 0.0}, {"is_reserved": 0, "type": "electric_scooter", "bike_id": "e9b846b93bbb0fc69c26b65455471710", "lat": 38.9055435, "lon": -77.04146016666667, "rental_uris": {"android": "https://dc.lft.to/lastmile_qr_scan", "ios": "https://dc.lft.to/lastmile_qr_scan"}, "is_disabled": 0, "fusion_lat": 0.0, "name": "e9b846b93bbb0fc69c26b65455471710", "fusion_lon": 0.0}, {"is_reserved": 0, "type": "electric_scooter", "bike_id": "640e4525f0187cb648bfe9cb4daf98d4", "lat": 38.901115, "lon": -77.03382633333334, "rental_uris": {"android": "https://dc.lft.to/lastmile_qr_scan", "ios": "https://dc.lft.to/lastmile_qr_scan"}, "is_disabled": 0, "fusion_lat": 0.0, "name": "640e4525f0187cb648bfe9cb4daf98d4", "fusion_lon": 0.0}, {"is_reserved": 0, "type": "electric_scooter", "bike_id": "7a7f31c14d809b7c44783f2b9bfc77ae", "lat": 38.918438, "lon": -77.04522133333333, "rental_uris": {"android": "https://dc.lft.to/lastmile_qr_scan", "ios": "https://dc.lft.to/lastmile_qr_scan"}, "is_disabled": 0, "fusion_lat": 0.0, "name": "7a7f31c14d809b7c44783f2b9bfc77ae", "fusion_lon": 0.0}, {"is_reserved": 0, "type": "electric_scooter", "bike_id": "5e29c5baf748992d6828a0ee91085b05", "lat": 38.91266383333333, "lon": -77.03280783333334, "rental_uris": {"android": "https://dc.lft.to/lastmile_qr_scan", "ios": "https://dc.lft.to/lastmile_qr_scan"}, "is_disabled": 0, "fusion_lat": 0.0, "name": "5e29c5baf748992d6828a0ee91085b05", "fusion_lon": 0.0}, {"is_reserved": 0, "type": "electric_scooter", "bike_id": "b59e750d49fbe4332e3f19bf38951c68", "lat": 38.957341, "lon": -77.03623966666666, "rental_uris": {"android": "https://dc.lft.to/lastmile_qr_scan", "ios": "https://dc.lft.to/lastmile_qr_scan"}, "is_disabled": 0, "fusion_lat": 0.0, "name": "b59e750d49fbe4332e3f19bf38951c68", "fusion_lon": 0.0}, {"is_reserved": 0, "type": "electric_scooter", "bike_id": "ed6ef63a6549eedefdd869b5a79a4b81", "lat": 38.924394, "lon": -76.99682033333333, "rental_uris": {"android": "https://dc.lft.to/lastmile_qr_scan", "ios": "https://dc.lft.to/lastmile_qr_scan"}, "is_disabled": 0, "fusion_lat": 0.0, "name": "ed6ef63a6549eedefdd869b5a79a4b81", "fusion_lon": 0.0}, {"is_reserved": 0, "type": "electric_scooter", "bike_id": "10ac12a47f49f5fba2d10149f8476239", "lat": 38.9195205, "lon": -77.018444, "rental_uris": {"android": "https://dc.lft.to/lastmile_qr_scan", "ios": "https://dc.lft.to/lastmile_qr_scan"}, "is_disabled": 0, "fusion_lat": 0.0, "name": "10ac12a47f49f5fba2d10149f8476239", "fusion_lon": 0.0}, {"is_reserved": 0, "type": "electric_scooter", "bike_id": "a0f018e9f39ce8f337089778f8301e21", "lat": 38.90570783333333, "lon": -77.0265175, "rental_uris": {"android": "https://dc.lft.to/lastmile_qr_scan", "ios": "https://dc.lft.to/lastmile_qr_scan"}, "is_disabled": 0, "fusion_lat": 0.0, "name": "a0f018e9f39ce8f337089778f8301e21", "fusion_lon": 0.0}, {"is_reserved": 0, "type": "electric_scooter", "bike_id": "56144291ef6cbb0694fbeb3ac30c2210", "lat": 38.89564683333333, "lon": -76.9821755, "rental_uris": {"android": "https://dc.lft.to/lastmile_qr_scan", "ios": "https://dc.lft.to/lastmile_qr_scan"}, "is_disabled": 0, "fusion_lat": 0.0, "name": "56144291ef6cbb0694fbeb3ac30c2210", "fusion_lon": 0.0}, {"is_reserved": 0, "type": "electric_bike", "bike_id": "f683a730c1685560f216766b1bc568ac", "lat": 38.84941666666667, "lon": -77.11745133333334, "rental_uris": {"android": "https://dc.lft.to/lastmile_qr_scan", "ios": "https://dc.lft.to/lastmile_qr_scan"}, "is_disabled": 0, "fusion_lat": 0.0, "name": "f683a730c1685560f216766b1bc568ac", "fusion_lon": 0.0}, {"is_reserved": 0, "type": "electric_scooter", "bike_id": "a5740aa18e3f412c6277c96bd386d94a", "lat": 38.90543, "lon": -77.0591235, "rental_uris": {"android": "https://dc.lft.to/lastmile_qr_scan", "ios": "https://dc.lft.to/lastmile_qr_scan"}, "is_disabled": 0, "fusion_lat": 0.0, "name": "a5740aa18e3f412c6277c96bd386d94a", "fusion_lon": 0.0}, {"is_reserved": 0, "type": "electric_scooter", "bike_id": "bd4db729c2c7ca060894d7761a6b1133", "lat": 38.89789116666667, "lon": -77.048855, "rental_uris": {"android": "https://dc.lft.to/lastmile_qr_scan", "ios": "https://dc.lft.to/lastmile_qr_scan"}, "is_disabled": 0, "fusion_lat": 0.0, "name": "bd4db729c2c7ca060894d7761a6b1133", "fusion_lon": 0.0}, {"is_reserved": 0, "type": "electric_scooter", "bike_id": "d08d5bf50eaf663a9270f1f38493f49b", "lat": 38.926168833333335, "lon": -77.05655383333334, "rental_uris": {"android": "https://dc.lft.to/lastmile_qr_scan", "ios": "https://dc.lft.to/lastmile_qr_scan"}, "is_disabled": 0, "fusion_lat": 0.0, "name": "d08d5bf50eaf663a9270f1f38493f49b", "fusion_lon": 0.0}, {"is_reserved": 0, "type": "electric_scooter", "bike_id": "7d93f5164ca89433be9f3a8479cc13bd", "lat": 38.898871, "lon": -77.03982883333333, "rental_uris": {"android": "https://dc.lft.to/lastmile_qr_scan", "ios": "https://dc.lft.to/lastmile_qr_scan"}, "is_disabled": 0, "fusion_lat": 0.0, "name": "7d93f5164ca89433be9f3a8479cc13bd", "fusion_lon": 0.0}, {"is_reserved": 0, "type": "electric_scooter", "bike_id": "603186ee1ac395c6c176bd9c485f5bdd", "lat": 38.9107625, "lon": -77.01623466666666, "rental_uris": {"android": "https://dc.lft.to/lastmile_qr_scan", "ios": "https://dc.lft.to/lastmile_qr_scan"}, "is_disabled": 0, "fusion_lat": 0.0, "name": "603186ee1ac395c6c176bd9c485f5bdd", "fusion_lon": 0.0}, {"is_reserved": 0, "type": "electric_scooter", "bike_id": "0b98bcbd5b08744586b7418d6e7ed1c7", "lat": 38.89520916666667, "lon": -76.992088, "rental_uris": {"android": "https://dc.lft.to/lastmile_qr_scan", "ios": "https://dc.lft.to/lastmile_qr_scan"}, "is_disabled": 0, "fusion_lat": 0.0, "name": "0b98bcbd5b08744586b7418d6e7ed1c7", "fusion_lon": 0.0}, {"is_reserved": 0, "type": "electric_scooter", "bike_id": "15a0035879ad153274100e70fdcb4655", "lat": 38.936984833333334, "lon": -77.05599766666667, "rental_uris": {"android": "https://dc.lft.to/lastmile_qr_scan", "ios": "https://dc.lft.to/lastmile_qr_scan"}, "is_disabled": 0, "fusion_lat": 0.0, "name": "15a0035879ad153274100e70fdcb4655", "fusion_lon": 0.0}, {"is_reserved": 0, "type": "electric_scooter", "bike_id": "f04371490adcb19f2f5b86463696954c", "lat": 38.9086955, "lon": -77.03472066666667, "rental_uris": {"android": "https://dc.lft.to/lastmile_qr_scan", "ios": "https://dc.lft.to/lastmile_qr_scan"}, "is_disabled": 0, "fusion_lat": 0.0, "name": "f04371490adcb19f2f5b86463696954c", "fusion_lon": 0.0}, {"is_reserved": 0, "type": "electric_scooter", "bike_id": "bf0a256cb45ab06131eb02d9aa0b6480", "lat": 38.91119166666667, "lon": -77.02238883333334, "rental_uris": {"android": "https://dc.lft.to/lastmile_qr_scan", "ios": "https://dc.lft.to/lastmile_qr_scan"}, "is_disabled": 0, "fusion_lat": 0.0, "name": "bf0a256cb45ab06131eb02d9aa0b6480", "fusion_lon": 0.0}, {"is_reserved": 0, "type": "electric_scooter", "bike_id": "b5b81404ccc393ced17c021fd7b2c126", "lat": 38.953783333333334, "lon": -77.00184783333333, "rental_uris": {"android": "https://dc.lft.to/lastmile_qr_scan", "ios": "https://dc.lft.to/lastmile_qr_scan"}, "is_disabled": 0, "fusion_lat": 0.0, "name": "b5b81404ccc393ced17c021fd7b2c126", "fusion_lon": 0.0}, {"is_reserved": 0, "type": "electric_scooter", "bike_id": "cc8bd2d26d8183d01684dd9002f653c4", "lat": 38.924502, "lon": -77.05188916666667, "rental_uris": {"android": "https://dc.lft.to/lastmile_qr_scan", "ios": "https://dc.lft.to/lastmile_qr_scan"}, "is_disabled": 0, "fusion_lat": 0.0, "name": "cc8bd2d26d8183d01684dd9002f653c4", "fusion_lon": 0.0}, {"is_reserved": 0, "type": "electric_scooter", "bike_id": "e2c4292e0eb06b29769599e3c1b6781d", "lat": 38.896770833333335, "lon": -77.03238933333333, "rental_uris": {"android": "https://dc.lft.to/lastmile_qr_scan", "ios": "https://dc.lft.to/lastmile_qr_scan"}, "is_disabled": 0, "fusion_lat": 0.0, "name": "e2c4292e0eb06b29769599e3c1b6781d", "fusion_lon": 0.0}, {"is_reserved": 0, "type": "electric_scooter", "bike_id": "767e65319b86835cea0f8fbcb23e54d8", "lat": 38.89941733333333, "lon": -76.9770255, "rental_uris": {"android": "https://dc.lft.to/lastmile_qr_scan", "ios": "https://dc.lft.to/lastmile_qr_scan"}, "is_disabled": 0, "fusion_lat": 0.0, "name": "767e65319b86835cea0f8fbcb23e54d8", "fusion_lon": 0.0}, {"is_reserved": 0, "type": "electric_scooter", "bike_id": "a3a8d05b1237946ca6d257ba6a94110c", "lat": 38.9113525, "lon": -77.044067, "rental_uris": {"android": "https://dc.lft.to/lastmile_qr_scan", "ios": "https://dc.lft.to/lastmile_qr_scan"}, "is_disabled": 0, "fusion_lat": 0.0, "name": "a3a8d05b1237946ca6d257ba6a94110c", "fusion_lon": 0.0}, {"is_reserved": 0, "type": "electric_scooter", "bike_id": "2a028ef3f034ec6d632bcaf639354805", "lat": 38.89716933333333, "lon": -77.03278383333334, "rental_uris": {"android": "https://dc.lft.to/lastmile_qr_scan", "ios": "https://dc.lft.to/lastmile_qr_scan"}, "is_disabled": 0, "fusion_lat": 0.0, "name": "2a028ef3f034ec6d632bcaf639354805", "fusion_lon": 0.0}, {"is_reserved": 0, "type": "electric_bike", "bike_id": "e1913eae1df91da549354db0981e629f", "lat": 39.000315, "lon": -77.04741216666666, "rental_uris": {"android": "https://dc.lft.to/lastmile_qr_scan", "ios": "https://dc.lft.to/lastmile_qr_scan"}, "is_disabled": 0, "fusion_lat": 0.0, "name": "e1913eae1df91da549354db0981e629f", "fusion_lon": 0.0}, {"is_reserved": 0, "type": "electric_scooter", "bike_id": "8abfd971f653cd1c3da30ded9cc78dcb", "lat": 38.863744833333335, "lon": -76.99059916666667, "rental_uris": {"android": "https://dc.lft.to/lastmile_qr_scan", "ios": "https://dc.lft.to/lastmile_qr_scan"}, "is_disabled": 0, "fusion_lat": 0.0, "name": "8abfd971f653cd1c3da30ded9cc78dcb", "fusion_lon": 0.0}, {"is_reserved": 0, "type": "electric_scooter", "bike_id": "7e2877feb8bcdeb501fd357f603d6f97", "lat": 38.895999333333336, "lon": -77.02137683333333, "rental_uris": {"android": "https://dc.lft.to/lastmile_qr_scan", "ios": "https://dc.lft.to/lastmile_qr_scan"}, "is_disabled": 0, "fusion_lat": 0.0, "name": "7e2877feb8bcdeb501fd357f603d6f97", "fusion_lon": 0.0}, {"is_reserved": 0, "type": "electric_scooter", "bike_id": "e76aa78ee7d1cd19945da2c85c9477b8", "lat": 38.899347666666664, "lon": -77.00353033333333, "rental_uris": {"android": "https://dc.lft.to/lastmile_qr_scan", "ios": "https://dc.lft.to/lastmile_qr_scan"}, "is_disabled": 0, "fusion_lat": 0.0, "name": "e76aa78ee7d1cd19945da2c85c9477b8", "fusion_lon": 0.0}, {"is_reserved": 0, "type": "electric_scooter", "bike_id": "24b41d2193e141a8b42499568d4ad904", "lat": 38.903675166666666, "lon": -76.984864, "rental_uris": {"android": "https://dc.lft.to/lastmile_qr_scan", "ios": "https://dc.lft.to/lastmile_qr_scan"}, "is_disabled": 0, "fusion_lat": 0.0, "name": "24b41d2193e141a8b42499568d4ad904", "fusion_lon": 0.0}, {"is_reserved": 0, "type": "electric_scooter", "bike_id": "0a047d7447b916ba32def3ada3d73b53", "lat": 38.89495866666667, "lon": -77.02141516666667, "rental_uris": {"android": "https://dc.lft.to/lastmile_qr_scan", "ios": "https://dc.lft.to/lastmile_qr_scan"}, "is_disabled": 0, "fusion_lat": 0.0, "name": "0a047d7447b916ba32def3ada3d73b53", "fusion_lon": 0.0}, {"is_reserved": 0, "type": "electric_scooter", "bike_id": "8b3281b22ff823429163d0e18e3e9d98", "lat": 38.914705, "lon": -76.984423, "rental_uris": {"android": "https://dc.lft.to/lastmile_qr_scan", "ios": "https://dc.lft.to/lastmile_qr_scan"}, "is_disabled": 0, "fusion_lat": 0.0, "name": "8b3281b22ff823429163d0e18e3e9d98", "fusion_lon": 0.0}, {"is_reserved": 0, "type": "electric_scooter", "bike_id": "aae966aa1c77066c454970d871fa4b2b", "lat": 38.91541316666667, "lon": -77.04458633333333, "rental_uris": {"android": "https://dc.lft.to/lastmile_qr_scan", "ios": "https://dc.lft.to/lastmile_qr_scan"}, "is_disabled": 0, "fusion_lat": 0.0, "name": "aae966aa1c77066c454970d871fa4b2b", "fusion_lon": 0.0}, {"is_reserved": 0, "type": "electric_scooter", "bike_id": "973c505a5c1122f4d17354fe78aef815", "lat": 38.87744416666666, "lon": -77.018671, "rental_uris": {"android": "https://dc.lft.to/lastmile_qr_scan", "ios": "https://dc.lft.to/lastmile_qr_scan"}, "is_disabled": 0, "fusion_lat": 0.0, "name": "973c505a5c1122f4d17354fe78aef815", "fusion_lon": 0.0}, {"is_reserved": 0, "type": "electric_scooter", "bike_id": "19b68c122e93e94a9152e902fe7e5a1e", "lat": 38.937548166666666, "lon": -77.028352, "rental_uris": {"android": "https://dc.lft.to/lastmile_qr_scan", "ios": "https://dc.lft.to/lastmile_qr_scan"}, "is_disabled": 0, "fusion_lat": 0.0, "name": "19b68c122e93e94a9152e902fe7e5a1e", "fusion_lon": 0.0}, {"is_reserved": 0, "type": "electric_scooter", "bike_id": "ff49ec75e9d293400fa890d9e00d8408", "lat": 38.91553583333334, "lon": -77.033126, "rental_uris": {"android": "https://dc.lft.to/lastmile_qr_scan", "ios": "https://dc.lft.to/lastmile_qr_scan"}, "is_disabled": 0, "fusion_lat": 0.0, "name": "ff49ec75e9d293400fa890d9e00d8408", "fusion_lon": 0.0}, {"is_reserved": 0, "type": "electric_scooter", "bike_id": "2460bef2e6cf8b5ade1c079040ec02e9", "lat": 38.905734833333334, "lon": -77.00772383333333, "rental_uris": {"android": "https://dc.lft.to/lastmile_qr_scan", "ios": "https://dc.lft.to/lastmile_qr_scan"}, "is_disabled": 0, "fusion_lat": 0.0, "name": "2460bef2e6cf8b5ade1c079040ec02e9", "fusion_lon": 0.0}, {"is_reserved": 0, "type": "electric_scooter", "bike_id": "416080c9a42d13d1bcb2dfb848f0a3d9", "lat": 38.88156016666667, "lon": -76.995064, "rental_uris": {"android": "https://dc.lft.to/lastmile_qr_scan", "ios": "https://dc.lft.to/lastmile_qr_scan"}, "is_disabled": 0, "fusion_lat": 0.0, "name": "416080c9a42d13d1bcb2dfb848f0a3d9", "fusion_lon": 0.0}, {"is_reserved": 0, "type": "electric_scooter", "bike_id": "bdb7124bfad478ab09ea8dbd146a7042", "lat": 38.8897435, "lon": -76.99939116666667, "rental_uris": {"android": "https://dc.lft.to/lastmile_qr_scan", "ios": "https://dc.lft.to/lastmile_qr_scan"}, "is_disabled": 0, "fusion_lat": 0.0, "name": "bdb7124bfad478ab09ea8dbd146a7042", "fusion_lon": 0.0}, {"is_reserved": 0, "type": "electric_scooter", "bike_id": "84b0e79aa4270bdfa6208df70343742a", "lat": 38.8991845, "lon": -77.03214433333333, "rental_uris": {"android": "https://dc.lft.to/lastmile_qr_scan", "ios": "https://dc.lft.to/lastmile_qr_scan"}, "is_disabled": 0, "fusion_lat": 0.0, "name": "84b0e79aa4270bdfa6208df70343742a", "fusion_lon": 0.0}, {"is_reserved": 0, "type": "electric_scooter", "bike_id": "8f5fd593dbb2cca96bc7d0539ca932bc", "lat": 38.8947465, "lon": -77.026914, "rental_uris": {"android": "https://dc.lft.to/lastmile_qr_scan", "ios": "https://dc.lft.to/lastmile_qr_scan"}, "is_disabled": 0, "fusion_lat": 0.0, "name": "8f5fd593dbb2cca96bc7d0539ca932bc", "fusion_lon": 0.0}, {"is_reserved": 0, "type": "electric_scooter", "bike_id": "3e87eb7f9d54be64c6dd3ba89c7c05f3", "lat": 38.92239083333333, "lon": -77.03133116666666, "rental_uris": {"android": "https://dc.lft.to/lastmile_qr_scan", "ios": "https://dc.lft.to/lastmile_qr_scan"}, "is_disabled": 0, "fusion_lat": 0.0, "name": "3e87eb7f9d54be64c6dd3ba89c7c05f3", "fusion_lon": 0.0}, {"is_reserved": 0, "type": "electric_scooter", "bike_id": "9f142cc1e890993f6ef8fdccc2fd554a", "lat": 38.93357183333333, "lon": -77.02406916666666, "rental_uris": {"android": "https://dc.lft.to/lastmile_qr_scan", "ios": "https://dc.lft.to/lastmile_qr_scan"}, "is_disabled": 0, "fusion_lat": 0.0, "name": "9f142cc1e890993f6ef8fdccc2fd554a", "fusion_lon": 0.0}, {"is_reserved": 0, "type": "electric_scooter", "bike_id": "892c6c9452e5a96017dfba43f7f7ef08", "lat": 38.92619416666667, "lon": -77.0433085, "rental_uris": {"android": "https://dc.lft.to/lastmile_qr_scan", "ios": "https://dc.lft.to/lastmile_qr_scan"}, "is_disabled": 0, "fusion_lat": 0.0, "name": "892c6c9452e5a96017dfba43f7f7ef08", "fusion_lon": 0.0}, {"is_reserved": 0, "type": "electric_scooter", "bike_id": "e7b79c2478a4fbf879f05891e18d6240", "lat": 38.94434966666667, "lon": -76.979631, "rental_uris": {"android": "https://dc.lft.to/lastmile_qr_scan", "ios": "https://dc.lft.to/lastmile_qr_scan"}, "is_disabled": 0, "fusion_lat": 0.0, "name": "e7b79c2478a4fbf879f05891e18d6240", "fusion_lon": 0.0}, {"is_reserved": 0, "type": "electric_bike", "bike_id": "5adc0fc5f1e4085a6d9403ddbeb6332c", "lat": 39.08491716666666, "lon": -76.95057583333333, "rental_uris": {"android": "https://dc.lft.to/lastmile_qr_scan", "ios": "https://dc.lft.to/lastmile_qr_scan"}, "is_disabled": 0, "fusion_lat": 0.0, "name": "5adc0fc5f1e4085a6d9403ddbeb6332c", "fusion_lon": 0.0}, {"is_reserved": 0, "type": "electric_scooter", "bike_id": "0e359f44fafaba85561796e731e3ec51", "lat": 38.939969166666664, "lon": -77.01958333333333, "rental_uris": {"android": "https://dc.lft.to/lastmile_qr_scan", "ios": "https://dc.lft.to/lastmile_qr_scan"}, "is_disabled": 0, "fusion_lat": 0.0, "name": "0e359f44fafaba85561796e731e3ec51", "fusion_lon": 0.0}, {"is_reserved": 0, "type": "electric_scooter", "bike_id": "51093ee0fb27e7e33437a8e4439832cb", "lat": 38.91819116666667, "lon": -77.0417355, "rental_uris": {"android": "https://dc.lft.to/lastmile_qr_scan", "ios": "https://dc.lft.to/lastmile_qr_scan"}, "is_disabled": 0, "fusion_lat": 0.0, "name": "51093ee0fb27e7e33437a8e4439832cb", "fusion_lon": 0.0}, {"is_reserved": 0, "type": "electric_bike", "bike_id": "2773ad937745da6ef555c155894fd5f5", "lat": 38.887078333333335, "lon": -77.0035395, "rental_uris": {"android": "https://dc.lft.to/lastmile_qr_scan", "ios": "https://dc.lft.to/lastmile_qr_scan"}, "is_disabled": 0, "fusion_lat": 0.0, "name": "2773ad937745da6ef555c155894fd5f5", "fusion_lon": 0.0}, {"is_reserved": 0, "type": "electric_scooter", "bike_id": "b9c694e8dde6a1020e55898b2062c8a8", "lat": 38.91477883333334, "lon": -77.03234083333334, "rental_uris": {"android": "https://dc.lft.to/lastmile_qr_scan", "ios": "https://dc.lft.to/lastmile_qr_scan"}, "is_disabled": 0, "fusion_lat": 0.0, "name": "b9c694e8dde6a1020e55898b2062c8a8", "fusion_lon": 0.0}, {"is_reserved": 0, "type": "electric_scooter", "bike_id": "1a2398a2143da7aa56f13492f515c124", "lat": 38.8953135, "lon": -77.0447465, "rental_uris": {"android": "https://dc.lft.to/lastmile_qr_scan", "ios": "https://dc.lft.to/lastmile_qr_scan"}, "is_disabled": 0, "fusion_lat": 0.0, "name": "1a2398a2143da7aa56f13492f515c124", "fusion_lon": 0.0}, {"is_reserved": 0, "type": "electric_scooter", "bike_id": "84a39a6e2d60db9090f01ac2d4541fcd", "lat": 38.909865333333336, "lon": -77.0238975, "rental_uris": {"android": "https://dc.lft.to/lastmile_qr_scan", "ios": "https://dc.lft.to/lastmile_qr_scan"}, "is_disabled": 0, "fusion_lat": 0.0, "name": "84a39a6e2d60db9090f01ac2d4541fcd", "fusion_lon": 0.0}, {"is_reserved": 0, "type": "electric_scooter", "bike_id": "015099be0aaacba90852435610497340", "lat": 38.929851666666664, "lon": -77.0347545, "rental_uris": {"android": "https://dc.lft.to/lastmile_qr_scan", "ios": "https://dc.lft.to/lastmile_qr_scan"}, "is_disabled": 0, "fusion_lat": 0.0, "name": "015099be0aaacba90852435610497340", "fusion_lon": 0.0}, {"is_reserved": 0, "type": "electric_scooter", "bike_id": "8c570a0b89e8c06c72a2e9be3a4d1a08", "lat": 38.89788266666667, "lon": -77.02731233333333, "rental_uris": {"android": "https://dc.lft.to/lastmile_qr_scan", "ios": "https://dc.lft.to/lastmile_qr_scan"}, "is_disabled": 0, "fusion_lat": 0.0, "name": "8c570a0b89e8c06c72a2e9be3a4d1a08", "fusion_lon": 0.0}, {"is_reserved": 0, "type": "electric_scooter", "bike_id": "f85ceb4e51494f4e702d6bbc9a18c12c", "lat": 38.911784, "lon": -77.02195316666666, "rental_uris": {"android": "https://dc.lft.to/lastmile_qr_scan", "ios": "https://dc.lft.to/lastmile_qr_scan"}, "is_disabled": 0, "fusion_lat": 0.0, "name": "f85ceb4e51494f4e702d6bbc9a18c12c", "fusion_lon": 0.0}, {"is_reserved": 0, "type": "electric_scooter", "bike_id": "032e152b8188279818a87111605335e2", "lat": 38.920493, "lon": -77.0257885, "rental_uris": {"android": "https://dc.lft.to/lastmile_qr_scan", "ios": "https://dc.lft.to/lastmile_qr_scan"}, "is_disabled": 0, "fusion_lat": 0.0, "name": "032e152b8188279818a87111605335e2", "fusion_lon": 0.0}, {"is_reserved": 0, "type": "electric_scooter", "bike_id": "b43be1924a57cc91197bc5e13f4a4aa1", "lat": 38.91567366666666, "lon": -77.02972683333333, "rental_uris": {"android": "https://dc.lft.to/lastmile_qr_scan", "ios": "https://dc.lft.to/lastmile_qr_scan"}, "is_disabled": 0, "fusion_lat": 0.0, "name": "b43be1924a57cc91197bc5e13f4a4aa1", "fusion_lon": 0.0}, {"is_reserved": 0, "type": "electric_scooter", "bike_id": "a30ecbff5c1312f41d1092319a3c93c5", "lat": 38.9104275, "lon": -77.038278, "rental_uris": {"android": "https://dc.lft.to/lastmile_qr_scan", "ios": "https://dc.lft.to/lastmile_qr_scan"}, "is_disabled": 0, "fusion_lat": 0.0, "name": "a30ecbff5c1312f41d1092319a3c93c5", "fusion_lon": 0.0}, {"is_reserved": 0, "type": "electric_scooter", "bike_id": "ddb5793fc0dda9e223956d832d13428d", "lat": 38.95090783333333, "lon": -77.02536833333333, "rental_uris": {"android": "https://dc.lft.to/lastmile_qr_scan", "ios": "https://dc.lft.to/lastmile_qr_scan"}, "is_disabled": 0, "fusion_lat": 0.0, "name": "ddb5793fc0dda9e223956d832d13428d", "fusion_lon": 0.0}, {"is_reserved": 0, "type": "electric_scooter", "bike_id": "f77936d9dc79c821c6c30df4fbcb6452", "lat": 38.88509966666667, "lon": -77.01115916666667, "rental_uris": {"android": "https://dc.lft.to/lastmile_qr_scan", "ios": "https://dc.lft.to/lastmile_qr_scan"}, "is_disabled": 0, "fusion_lat": 0.0, "name": "f77936d9dc79c821c6c30df4fbcb6452", "fusion_lon": 0.0}, {"is_reserved": 0, "type": "electric_scooter", "bike_id": "4997af9adcdb80ba7cacd0c9472e0d1b", "lat": 38.925676833333334, "lon": -76.970052, "rental_uris": {"android": "https://dc.lft.to/lastmile_qr_scan", "ios": "https://dc.lft.to/lastmile_qr_scan"}, "is_disabled": 0, "fusion_lat": 0.0, "name": "4997af9adcdb80ba7cacd0c9472e0d1b", "fusion_lon": 0.0}, {"is_reserved": 0, "type": "electric_scooter", "bike_id": "5e99adfe430e4a0d62eda459879d735b", "lat": 38.929689, "lon": -77.0234015, "rental_uris": {"android": "https://dc.lft.to/lastmile_qr_scan", "ios": "https://dc.lft.to/lastmile_qr_scan"}, "is_disabled": 0, "fusion_lat": 0.0, "name": "5e99adfe430e4a0d62eda459879d735b", "fusion_lon": 0.0}, {"is_reserved": 0, "type": "electric_scooter", "bike_id": "67d422fd5ecdc32b798413c53170739a", "lat": 38.900436, "lon": -76.99167983333334, "rental_uris": {"android": "https://dc.lft.to/lastmile_qr_scan", "ios": "https://dc.lft.to/lastmile_qr_scan"}, "is_disabled": 0, "fusion_lat": 0.0, "name": "67d422fd5ecdc32b798413c53170739a", "fusion_lon": 0.0}, {"is_reserved": 0, "type": "electric_scooter", "bike_id": "1c434f9e1ca48d2413439296d1b9c964", "lat": 38.92084283333333, "lon": -77.0243585, "rental_uris": {"android": "https://dc.lft.to/lastmile_qr_scan", "ios": "https://dc.lft.to/lastmile_qr_scan"}, "is_disabled": 0, "fusion_lat": 0.0, "name": "1c434f9e1ca48d2413439296d1b9c964", "fusion_lon": 0.0}, {"is_reserved": 0, "type": "electric_scooter", "bike_id": "84ae717e60f641e925833f8cf92ddd35", "lat": 38.931814, "lon": -77.023527, "rental_uris": {"android": "https://dc.lft.to/lastmile_qr_scan", "ios": "https://dc.lft.to/lastmile_qr_scan"}, "is_disabled": 0, "fusion_lat": 0.0, "name": "84ae717e60f641e925833f8cf92ddd35", "fusion_lon": 0.0}, {"is_reserved": 0, "type": "electric_scooter", "bike_id": "9c046144f111666b32ef8956417b8816", "lat": 38.89915033333333, "lon": -77.0318975, "rental_uris": {"android": "https://dc.lft.to/lastmile_qr_scan", "ios": "https://dc.lft.to/lastmile_qr_scan"}, "is_disabled": 0, "fusion_lat": 0.0, "name": "9c046144f111666b32ef8956417b8816", "fusion_lon": 0.0}, {"is_reserved": 0, "type": "electric_scooter", "bike_id": "937a944fc51ee64af0448d0022c4a6bb", "lat": 38.916714999999996, "lon": -77.02969616666667, "rental_uris": {"android": "https://dc.lft.to/lastmile_qr_scan", "ios": "https://dc.lft.to/lastmile_qr_scan"}, "is_disabled": 0, "fusion_lat": 0.0, "name": "937a944fc51ee64af0448d0022c4a6bb", "fusion_lon": 0.0}, {"is_reserved": 0, "type": "electric_scooter", "bike_id": "a97df06f5c9cbf414c7dd0da9afc6f44", "lat": 38.920472833333335, "lon": -77.02580216666667, "rental_uris": {"android": "https://dc.lft.to/lastmile_qr_scan", "ios": "https://dc.lft.to/lastmile_qr_scan"}, "is_disabled": 0, "fusion_lat": 0.0, "name": "a97df06f5c9cbf414c7dd0da9afc6f44", "fusion_lon": 0.0}, {"is_reserved": 0, "type": "electric_scooter", "bike_id": "3c1cf19d04a3e6782b61dc29e23659be", "lat": 38.90512233333333, "lon": -77.05993233333334, "rental_uris": {"android": "https://dc.lft.to/lastmile_qr_scan", "ios": "https://dc.lft.to/lastmile_qr_scan"}, "is_disabled": 0, "fusion_lat": 0.0, "name": "3c1cf19d04a3e6782b61dc29e23659be", "fusion_lon": 0.0}, {"is_reserved": 0, "type": "electric_scooter", "bike_id": "26d94df17f7e8b35ec00ad55cf1d5e55", "lat": 38.947329, "lon": -77.02461883333334, "rental_uris": {"android": "https://dc.lft.to/lastmile_qr_scan", "ios": "https://dc.lft.to/lastmile_qr_scan"}, "is_disabled": 0, "fusion_lat": 0.0, "name": "26d94df17f7e8b35ec00ad55cf1d5e55", "fusion_lon": 0.0}, {"is_reserved": 0, "type": "electric_scooter", "bike_id": "05f2c388b4e124c39f60f5bd78bb722a", "lat": 38.930849333333335, "lon": -77.03500666666666, "rental_uris": {"android": "https://dc.lft.to/lastmile_qr_scan", "ios": "https://dc.lft.to/lastmile_qr_scan"}, "is_disabled": 0, "fusion_lat": 0.0, "name": "05f2c388b4e124c39f60f5bd78bb722a", "fusion_lon": 0.0}, {"is_reserved": 0, "type": "electric_scooter", "bike_id": "664a2cbfdccc9fa3a310509ff3242517", "lat": 38.93371633333334, "lon": -77.0572365, "rental_uris": {"android": "https://dc.lft.to/lastmile_qr_scan", "ios": "https://dc.lft.to/lastmile_qr_scan"}, "is_disabled": 0, "fusion_lat": 0.0, "name": "664a2cbfdccc9fa3a310509ff3242517", "fusion_lon": 0.0}, {"is_reserved": 0, "type": "electric_scooter", "bike_id": "23ceb5f2a102013c725f8844499dacb2", "lat": 38.898907, "lon": -77.01608583333334, "rental_uris": {"android": "https://dc.lft.to/lastmile_qr_scan", "ios": "https://dc.lft.to/lastmile_qr_scan"}, "is_disabled": 0, "fusion_lat": 0.0, "name": "23ceb5f2a102013c725f8844499dacb2", "fusion_lon": 0.0}, {"is_reserved": 0, "type": "electric_scooter", "bike_id": "4cb81d270623c82ee4a848b8dfb99601", "lat": 38.936685, "lon": -77.03634833333334, "rental_uris": {"android": "https://dc.lft.to/lastmile_qr_scan", "ios": "https://dc.lft.to/lastmile_qr_scan"}, "is_disabled": 0, "fusion_lat": 0.0, "name": "4cb81d270623c82ee4a848b8dfb99601", "fusion_lon": 0.0}, {"is_reserved": 0, "type": "electric_bike", "bike_id": "17bb2208d4c10ab2435d7c49c3f2dfef", "lat": 38.97420533333333, "lon": -77.012566, "rental_uris": {"android": "https://dc.lft.to/lastmile_qr_scan", "ios": "https://dc.lft.to/lastmile_qr_scan"}, "is_disabled": 0, "fusion_lat": 0.0, "name": "17bb2208d4c10ab2435d7c49c3f2dfef", "fusion_lon": 0.0}, {"is_reserved": 0, "type": "electric_scooter", "bike_id": "c7ea177d741708b1e7827aa72c638a42", "lat": 38.9156815, "lon": -77.02114616666667, "rental_uris": {"android": "https://dc.lft.to/lastmile_qr_scan", "ios": "https://dc.lft.to/lastmile_qr_scan"}, "is_disabled": 0, "fusion_lat": 0.0, "name": "c7ea177d741708b1e7827aa72c638a42", "fusion_lon": 0.0}, {"is_reserved": 0, "type": "electric_scooter", "bike_id": "8ba8546d56766f979b393d216aa69fb0", "lat": 38.918766833333336, "lon": -77.042471, "rental_uris": {"android": "https://dc.lft.to/lastmile_qr_scan", "ios": "https://dc.lft.to/lastmile_qr_scan"}, "is_disabled": 0, "fusion_lat": 0.0, "name": "8ba8546d56766f979b393d216aa69fb0", "fusion_lon": 0.0}, {"is_reserved": 0, "type": "electric_scooter", "bike_id": "1d91995300125dca4b928e7162257074", "lat": 38.90092666666666, "lon": -77.04730616666667, "rental_uris": {"android": "https://dc.lft.to/lastmile_qr_scan", "ios": "https://dc.lft.to/lastmile_qr_scan"}, "is_disabled": 0, "fusion_lat": 0.0, "name": "1d91995300125dca4b928e7162257074", "fusion_lon": 0.0}, {"is_reserved": 0, "type": "electric_scooter", "bike_id": "a63ec5262765abcfad9f36aff528ac5d", "lat": 38.935138333333335, "lon": -77.03346616666667, "rental_uris": {"android": "https://dc.lft.to/lastmile_qr_scan", "ios": "https://dc.lft.to/lastmile_qr_scan"}, "is_disabled": 0, "fusion_lat": 0.0, "name": "a63ec5262765abcfad9f36aff528ac5d", "fusion_lon": 0.0}, {"is_reserved": 0, "type": "electric_scooter", "bike_id": "afde29f54b39ecc4e58f3a1998d6c35c", "lat": 38.923841833333334, "lon": -77.02750016666667, "rental_uris": {"android": "https://dc.lft.to/lastmile_qr_scan", "ios": "https://dc.lft.to/lastmile_qr_scan"}, "is_disabled": 0, "fusion_lat": 0.0, "name": "afde29f54b39ecc4e58f3a1998d6c35c", "fusion_lon": 0.0}, {"is_reserved": 0, "type": "electric_bike", "bike_id": "88391da3529faf217ac1901ce760ac7a", "lat": 38.9085965, "lon": -76.9848145, "rental_uris": {"android": "https://dc.lft.to/lastmile_qr_scan", "ios": "https://dc.lft.to/lastmile_qr_scan"}, "is_disabled": 0, "fusion_lat": 0.0, "name": "88391da3529faf217ac1901ce760ac7a", "fusion_lon": 0.0}, {"is_reserved": 0, "type": "electric_scooter", "bike_id": "f4c81fa08e4c698992b66c189fcea939", "lat": 38.9012145, "lon": -77.00006733333333, "rental_uris": {"android": "https://dc.lft.to/lastmile_qr_scan", "ios": "https://dc.lft.to/lastmile_qr_scan"}, "is_disabled": 0, "fusion_lat": 0.0, "name": "f4c81fa08e4c698992b66c189fcea939", "fusion_lon": 0.0}, {"is_reserved": 0, "type": "electric_scooter", "bike_id": "fedc5d22450116d4457b76090c6e7226", "lat": 38.91182716666667, "lon": -77.02192183333334, "rental_uris": {"android": "https://dc.lft.to/lastmile_qr_scan", "ios": "https://dc.lft.to/lastmile_qr_scan"}, "is_disabled": 0, "fusion_lat": 0.0, "name": "fedc5d22450116d4457b76090c6e7226", "fusion_lon": 0.0}, {"is_reserved": 0, "type": "electric_scooter", "bike_id": "1166272960915c39174897d603a0bfeb", "lat": 38.898287833333335, "lon": -77.04811716666667, "rental_uris": {"android": "https://dc.lft.to/lastmile_qr_scan", "ios": "https://dc.lft.to/lastmile_qr_scan"}, "is_disabled": 0, "fusion_lat": 0.0, "name": "1166272960915c39174897d603a0bfeb", "fusion_lon": 0.0}, {"is_reserved": 0, "type": "electric_scooter", "bike_id": "9fa115792ca494199c4167fb1ab8c71b", "lat": 38.8791095, "lon": -77.02204016666667, "rental_uris": {"android": "https://dc.lft.to/lastmile_qr_scan", "ios": "https://dc.lft.to/lastmile_qr_scan"}, "is_disabled": 0, "fusion_lat": 0.0, "name": "9fa115792ca494199c4167fb1ab8c71b", "fusion_lon": 0.0}, {"is_reserved": 0, "type": "electric_scooter", "bike_id": "9f926d4c34dca3a4c2a5722946c1881a", "lat": 38.902712333333334, "lon": -77.02769316666667, "rental_uris": {"android": "https://dc.lft.to/lastmile_qr_scan", "ios": "https://dc.lft.to/lastmile_qr_scan"}, "is_disabled": 0, "fusion_lat": 0.0, "name": "9f926d4c34dca3a4c2a5722946c1881a", "fusion_lon": 0.0}, {"is_reserved": 0, "type": "electric_scooter", "bike_id": "ec79e91b7c79f6c405e334df295a0d02", "lat": 38.92543283333333, "lon": -77.0347335, "rental_uris": {"android": "https://dc.lft.to/lastmile_qr_scan", "ios": "https://dc.lft.to/lastmile_qr_scan"}, "is_disabled": 0, "fusion_lat": 0.0, "name": "ec79e91b7c79f6c405e334df295a0d02", "fusion_lon": 0.0}, {"is_reserved": 0, "type": "electric_scooter", "bike_id": "efef562a337555c66980bdc25141c78b", "lat": 38.92606883333333, "lon": -77.02420233333333, "rental_uris": {"android": "https://dc.lft.to/lastmile_qr_scan", "ios": "https://dc.lft.to/lastmile_qr_scan"}, "is_disabled": 0, "fusion_lat": 0.0, "name": "efef562a337555c66980bdc25141c78b", "fusion_lon": 0.0}, {"is_reserved": 0, "type": "electric_scooter", "bike_id": "241c0f195c566fa300107a53d39577e4", "lat": 38.955005166666666, "lon": -76.995836, "rental_uris": {"android": "https://dc.lft.to/lastmile_qr_scan", "ios": "https://dc.lft.to/lastmile_qr_scan"}, "is_disabled": 0, "fusion_lat": 0.0, "name": "241c0f195c566fa300107a53d39577e4", "fusion_lon": 0.0}, {"is_reserved": 0, "type": "electric_scooter", "bike_id": "5a154f7d710047f069ab679aff96d7ad", "lat": 38.89950266666666, "lon": -77.04794083333333, "rental_uris": {"android": "https://dc.lft.to/lastmile_qr_scan", "ios": "https://dc.lft.to/lastmile_qr_scan"}, "is_disabled": 0, "fusion_lat": 0.0, "name": "5a154f7d710047f069ab679aff96d7ad", "fusion_lon": 0.0}, {"is_reserved": 0, "type": "electric_scooter", "bike_id": "dc624027f12f159ad2395cc25f22ab40", "lat": 38.91113283333333, "lon": -77.0190525, "rental_uris": {"android": "https://dc.lft.to/lastmile_qr_scan", "ios": "https://dc.lft.to/lastmile_qr_scan"}, "is_disabled": 0, "fusion_lat": 0.0, "name": "dc624027f12f159ad2395cc25f22ab40", "fusion_lon": 0.0}, {"is_reserved": 0, "type": "electric_scooter", "bike_id": "9752003d0bba217c2d90173baa1153f5", "lat": 38.93013916666666, "lon": -77.02343866666666, "rental_uris": {"android": "https://dc.lft.to/lastmile_qr_scan", "ios": "https://dc.lft.to/lastmile_qr_scan"}, "is_disabled": 0, "fusion_lat": 0.0, "name": "9752003d0bba217c2d90173baa1153f5", "fusion_lon": 0.0}, {"is_reserved": 0, "type": "electric_scooter", "bike_id": "5247e211d90f53d154e240660c9ab1d1", "lat": 38.934093833333336, "lon": -77.04546333333333, "rental_uris": {"android": "https://dc.lft.to/lastmile_qr_scan", "ios": "https://dc.lft.to/lastmile_qr_scan"}, "is_disabled": 0, "fusion_lat": 0.0, "name": "5247e211d90f53d154e240660c9ab1d1", "fusion_lon": 0.0}, {"is_reserved": 0, "type": "electric_scooter", "bike_id": "73610553916cae6395146447ec67e3ee", "lat": 38.94510183333333, "lon": -77.03364866666666, "rental_uris": {"android": "https://dc.lft.to/lastmile_qr_scan", "ios": "https://dc.lft.to/lastmile_qr_scan"}, "is_disabled": 0, "fusion_lat": 0.0, "name": "73610553916cae6395146447ec67e3ee", "fusion_lon": 0.0}, {"is_reserved": 0, "type": "electric_scooter", "bike_id": "371bbb67a4f7092fda2c0314e26a3e75", "lat": 38.907311166666666, "lon": -77.03445716666667, "rental_uris": {"android": "https://dc.lft.to/lastmile_qr_scan", "ios": "https://dc.lft.to/lastmile_qr_scan"}, "is_disabled": 0, "fusion_lat": 0.0, "name": "371bbb67a4f7092fda2c0314e26a3e75", "fusion_lon": 0.0}, {"is_reserved": 0, "type": "electric_scooter", "bike_id": "fe17cbee92865a0def65091a8ee7c752", "lat": 38.89735683333333, "lon": -77.0078075, "rental_uris": {"android": "https://dc.lft.to/lastmile_qr_scan", "ios": "https://dc.lft.to/lastmile_qr_scan"}, "is_disabled": 0, "fusion_lat": 0.0, "name": "fe17cbee92865a0def65091a8ee7c752", "fusion_lon": 0.0}, {"is_reserved": 0, "type": "electric_scooter", "bike_id": "e5e615de83534886bfe6e30543533ec6", "lat": 38.880516, "lon": -77.00540783333334, "rental_uris": {"android": "https://dc.lft.to/lastmile_qr_scan", "ios": "https://dc.lft.to/lastmile_qr_scan"}, "is_disabled": 0, "fusion_lat": 0.0, "name": "e5e615de83534886bfe6e30543533ec6", "fusion_lon": 0.0}, {"is_reserved": 0, "type": "electric_scooter", "bike_id": "19523d79933fa4c84b3f2ab017fd7fd7", "lat": 38.9388015, "lon": -77.03281266666667, "rental_uris": {"android": "https://dc.lft.to/lastmile_qr_scan", "ios": "https://dc.lft.to/lastmile_qr_scan"}, "is_disabled": 0, "fusion_lat": 0.0, "name": "19523d79933fa4c84b3f2ab017fd7fd7", "fusion_lon": 0.0}, {"is_reserved": 0, "type": "electric_scooter", "bike_id": "6194fa85a5742462bad442a047817b7e", "lat": 38.9328345, "lon": -77.03941083333333, "rental_uris": {"android": "https://dc.lft.to/lastmile_qr_scan", "ios": "https://dc.lft.to/lastmile_qr_scan"}, "is_disabled": 0, "fusion_lat": 0.0, "name": "6194fa85a5742462bad442a047817b7e", "fusion_lon": 0.0}, {"is_reserved": 0, "type": "electric_scooter", "bike_id": "092509fb13118d6e1c96cdefa9f028e6", "lat": 38.9265395, "lon": -77.02702016666667, "rental_uris": {"android": "https://dc.lft.to/lastmile_qr_scan", "ios": "https://dc.lft.to/lastmile_qr_scan"}, "is_disabled": 0, "fusion_lat": 0.0, "name": "092509fb13118d6e1c96cdefa9f028e6", "fusion_lon": 0.0}, {"is_reserved": 0, "type": "electric_scooter", "bike_id": "96e9344fa011b2d4385d6862d372c602", "lat": 38.916267166666664, "lon": -77.031712, "rental_uris": {"android": "https://dc.lft.to/lastmile_qr_scan", "ios": "https://dc.lft.to/lastmile_qr_scan"}, "is_disabled": 0, "fusion_lat": 0.0, "name": "96e9344fa011b2d4385d6862d372c602", "fusion_lon": 0.0}, {"is_reserved": 0, "type": "electric_scooter", "bike_id": "ca6934f0a165f4a24a2067d479b7e7b3", "lat": 38.943139333333335, "lon": -77.06172933333333, "rental_uris": {"android": "https://dc.lft.to/lastmile_qr_scan", "ios": "https://dc.lft.to/lastmile_qr_scan"}, "is_disabled": 0, "fusion_lat": 0.0, "name": "ca6934f0a165f4a24a2067d479b7e7b3", "fusion_lon": 0.0}, {"is_reserved": 0, "type": "electric_scooter", "bike_id": "d0aeb9de9ad89b8d901a265ffdb5c6a7", "lat": 38.93115683333333, "lon": -77.0232725, "rental_uris": {"android": "https://dc.lft.to/lastmile_qr_scan", "ios": "https://dc.lft.to/lastmile_qr_scan"}, "is_disabled": 0, "fusion_lat": 0.0, "name": "d0aeb9de9ad89b8d901a265ffdb5c6a7", "fusion_lon": 0.0}, {"is_reserved": 0, "type": "electric_scooter", "bike_id": "6605bb058ac55cc25266d09aefa2420c", "lat": 38.87896883333333, "lon": -77.02212733333333, "rental_uris": {"android": "https://dc.lft.to/lastmile_qr_scan", "ios": "https://dc.lft.to/lastmile_qr_scan"}, "is_disabled": 0, "fusion_lat": 0.0, "name": "6605bb058ac55cc25266d09aefa2420c", "fusion_lon": 0.0}, {"is_reserved": 0, "type": "electric_scooter", "bike_id": "2d28371f7e5afaac2a0f0aeb1d5f64c8", "lat": 38.90369833333333, "lon": -77.03532533333333, "rental_uris": {"android": "https://dc.lft.to/lastmile_qr_scan", "ios": "https://dc.lft.to/lastmile_qr_scan"}, "is_disabled": 0, "fusion_lat": 0.0, "name": "2d28371f7e5afaac2a0f0aeb1d5f64c8", "fusion_lon": 0.0}, {"is_reserved": 0, "type": "electric_bike", "bike_id": "60f70da583d29e35a36085adb843c316", "lat": 38.96251783333334, "lon": -76.99663583333333, "rental_uris": {"android": "https://dc.lft.to/lastmile_qr_scan", "ios": "https://dc.lft.to/lastmile_qr_scan"}, "is_disabled": 0, "fusion_lat": 0.0, "name": "60f70da583d29e35a36085adb843c316", "fusion_lon": 0.0}, {"is_reserved": 0, "type": "electric_scooter", "bike_id": "1e6c97a4830d84455ab8cfca4832aa0c", "lat": 38.917661, "lon": -77.04176883333334, "rental_uris": {"android": "https://dc.lft.to/lastmile_qr_scan", "ios": "https://dc.lft.to/lastmile_qr_scan"}, "is_disabled": 0, "fusion_lat": 0.0, "name": "1e6c97a4830d84455ab8cfca4832aa0c", "fusion_lon": 0.0}, {"is_reserved": 0, "type": "electric_scooter", "bike_id": "2a53c077b5bbd1bae5f80290a7c585b1", "lat": 38.905570166666664, "lon": -77.00799766666667, "rental_uris": {"android": "https://dc.lft.to/lastmile_qr_scan", "ios": "https://dc.lft.to/lastmile_qr_scan"}, "is_disabled": 0, "fusion_lat": 0.0, "name": "2a53c077b5bbd1bae5f80290a7c585b1", "fusion_lon": 0.0}, {"is_reserved": 0, "type": "electric_scooter", "bike_id": "95857973558bc32ae631f2725866100d", "lat": 38.9142185, "lon": -77.02967133333334, "rental_uris": {"android": "https://dc.lft.to/lastmile_qr_scan", "ios": "https://dc.lft.to/lastmile_qr_scan"}, "is_disabled": 0, "fusion_lat": 0.0, "name": "95857973558bc32ae631f2725866100d", "fusion_lon": 0.0}, {"is_reserved": 0, "type": "electric_scooter", "bike_id": "dfcd93e1878b882b73c566e198b27fcd", "lat": 38.893763666666665, "lon": -77.02825333333334, "rental_uris": {"android": "https://dc.lft.to/lastmile_qr_scan", "ios": "https://dc.lft.to/lastmile_qr_scan"}, "is_disabled": 0, "fusion_lat": 0.0, "name": "dfcd93e1878b882b73c566e198b27fcd", "fusion_lon": 0.0}, {"is_reserved": 0, "type": "electric_scooter", "bike_id": "3ef087e36b54a1abc7ee88693b8121f8", "lat": 38.920853666666666, "lon": -77.01374666666666, "rental_uris": {"android": "https://dc.lft.to/lastmile_qr_scan", "ios": "https://dc.lft.to/lastmile_qr_scan"}, "is_disabled": 0, "fusion_lat": 0.0, "name": "3ef087e36b54a1abc7ee88693b8121f8", "fusion_lon": 0.0}, {"is_reserved": 0, "type": "electric_scooter", "bike_id": "efc527cfaeade896b645b1bab42a1a99", "lat": 38.91859316666667, "lon": -76.96542933333333, "rental_uris": {"android": "https://dc.lft.to/lastmile_qr_scan", "ios": "https://dc.lft.to/lastmile_qr_scan"}, "is_disabled": 0, "fusion_lat": 0.0, "name": "efc527cfaeade896b645b1bab42a1a99", "fusion_lon": 0.0}, {"is_reserved": 0, "type": "electric_scooter", "bike_id": "e80697ea7cd2d20f81119cf25283bbf8", "lat": 38.915816166666666, "lon": -77.02205683333334, "rental_uris": {"android": "https://dc.lft.to/lastmile_qr_scan", "ios": "https://dc.lft.to/lastmile_qr_scan"}, "is_disabled": 0, "fusion_lat": 0.0, "name": "e80697ea7cd2d20f81119cf25283bbf8", "fusion_lon": 0.0}, {"is_reserved": 0, "type": "electric_scooter", "bike_id": "772c50f1e832e42c9ab3e9d56766308d", "lat": 38.903997833333335, "lon": -77.06787466666667, "rental_uris": {"android": "https://dc.lft.to/lastmile_qr_scan", "ios": "https://dc.lft.to/lastmile_qr_scan"}, "is_disabled": 0, "fusion_lat": 0.0, "name": "772c50f1e832e42c9ab3e9d56766308d", "fusion_lon": 0.0}, {"is_reserved": 0, "type": "electric_scooter", "bike_id": "429589cae6eb107360e6d59c5d743869", "lat": 38.929395666666665, "lon": -76.99787383333333, "rental_uris": {"android": "https://dc.lft.to/lastmile_qr_scan", "ios": "https://dc.lft.to/lastmile_qr_scan"}, "is_disabled": 0, "fusion_lat": 0.0, "name": "429589cae6eb107360e6d59c5d743869", "fusion_lon": 0.0}, {"is_reserved": 0, "type": "electric_scooter", "bike_id": "32dbedb0dd2b7d416086bf5c6e4e0e0f", "lat": 38.903614, "lon": -77.00350716666667, "rental_uris": {"android": "https://dc.lft.to/lastmile_qr_scan", "ios": "https://dc.lft.to/lastmile_qr_scan"}, "is_disabled": 0, "fusion_lat": 0.0, "name": "32dbedb0dd2b7d416086bf5c6e4e0e0f", "fusion_lon": 0.0}, {"is_reserved": 0, "type": "electric_bike", "bike_id": "f1364f48e5c465b78ef7770d91f8bcbd", "lat": 38.93204816666667, "lon": -77.02345883333334, "rental_uris": {"android": "https://dc.lft.to/lastmile_qr_scan", "ios": "https://dc.lft.to/lastmile_qr_scan"}, "is_disabled": 0, "fusion_lat": 0.0, "name": "f1364f48e5c465b78ef7770d91f8bcbd", "fusion_lon": 0.0}, {"is_reserved": 0, "type": "electric_scooter", "bike_id": "196080f5d5c738ac729147077783b68f", "lat": 38.9168545, "lon": -77.03637333333333, "rental_uris": {"android": "https://dc.lft.to/lastmile_qr_scan", "ios": "https://dc.lft.to/lastmile_qr_scan"}, "is_disabled": 0, "fusion_lat": 0.0, "name": "196080f5d5c738ac729147077783b68f", "fusion_lon": 0.0}, {"is_reserved": 0, "type": "electric_scooter", "bike_id": "2ce3a788e5372484665348cfb78bafa9", "lat": 38.901526833333335, "lon": -77.059235, "rental_uris": {"android": "https://dc.lft.to/lastmile_qr_scan", "ios": "https://dc.lft.to/lastmile_qr_scan"}, "is_disabled": 0, "fusion_lat": 0.0, "name": "2ce3a788e5372484665348cfb78bafa9", "fusion_lon": 0.0}, {"is_reserved": 0, "type": "electric_scooter", "bike_id": "e439f43a1525000be4845d84ba024434", "lat": 38.892365833333336, "lon": -77.048963, "rental_uris": {"android": "https://dc.lft.to/lastmile_qr_scan", "ios": "https://dc.lft.to/lastmile_qr_scan"}, "is_disabled": 0, "fusion_lat": 0.0, "name": "e439f43a1525000be4845d84ba024434", "fusion_lon": 0.0}, {"is_reserved": 0, "type": "electric_scooter", "bike_id": "b16776e3979b4ac29bb5fbe4c678c180", "lat": 38.92550216666667, "lon": -76.99954133333334, "rental_uris": {"android": "https://dc.lft.to/lastmile_qr_scan", "ios": "https://dc.lft.to/lastmile_qr_scan"}, "is_disabled": 0, "fusion_lat": 0.0, "name": "b16776e3979b4ac29bb5fbe4c678c180", "fusion_lon": 0.0}, {"is_reserved": 0, "type": "electric_scooter", "bike_id": "d724840d57484ad20b68c0839eb97ba2", "lat": 38.90393616666667, "lon": -77.03151533333333, "rental_uris": {"android": "https://dc.lft.to/lastmile_qr_scan", "ios": "https://dc.lft.to/lastmile_qr_scan"}, "is_disabled": 0, "fusion_lat": 0.0, "name": "d724840d57484ad20b68c0839eb97ba2", "fusion_lon": 0.0}, {"is_reserved": 0, "type": "electric_scooter", "bike_id": "a6c4d0cfe1cf79e404b21b3ef713eca5", "lat": 38.896795833333336, "lon": -77.012136, "rental_uris": {"android": "https://dc.lft.to/lastmile_qr_scan", "ios": "https://dc.lft.to/lastmile_qr_scan"}, "is_disabled": 0, "fusion_lat": 0.0, "name": "a6c4d0cfe1cf79e404b21b3ef713eca5", "fusion_lon": 0.0}, {"is_reserved": 0, "type": "electric_scooter", "bike_id": "fbfe280e6361c04d3e21067e0d450efa", "lat": 38.87342733333333, "lon": -76.99161766666667, "rental_uris": {"android": "https://dc.lft.to/lastmile_qr_scan", "ios": "https://dc.lft.to/lastmile_qr_scan"}, "is_disabled": 0, "fusion_lat": 0.0, "name": "fbfe280e6361c04d3e21067e0d450efa", "fusion_lon": 0.0}, {"is_reserved": 0, "type": "electric_scooter", "bike_id": "16f6ad26500164799c74ea11ee014b64", "lat": 38.92179633333333, "lon": -77.04232233333333, "rental_uris": {"android": "https://dc.lft.to/lastmile_qr_scan", "ios": "https://dc.lft.to/lastmile_qr_scan"}, "is_disabled": 0, "fusion_lat": 0.0, "name": "16f6ad26500164799c74ea11ee014b64", "fusion_lon": 0.0}, {"is_reserved": 0, "type": "electric_scooter", "bike_id": "7583e4a9542637bee71f2ff93b6ccbe5", "lat": 38.91665833333333, "lon": -77.02708583333333, "rental_uris": {"android": "https://dc.lft.to/lastmile_qr_scan", "ios": "https://dc.lft.to/lastmile_qr_scan"}, "is_disabled": 0, "fusion_lat": 0.0, "name": "7583e4a9542637bee71f2ff93b6ccbe5", "fusion_lon": 0.0}, {"is_reserved": 0, "type": "electric_scooter", "bike_id": "743f4d433cbee19c6f23c0c330e10b66", "lat": 38.92150733333333, "lon": -77.03658416666667, "rental_uris": {"android": "https://dc.lft.to/lastmile_qr_scan", "ios": "https://dc.lft.to/lastmile_qr_scan"}, "is_disabled": 0, "fusion_lat": 0.0, "name": "743f4d433cbee19c6f23c0c330e10b66", "fusion_lon": 0.0}, {"is_reserved": 0, "type": "electric_scooter", "bike_id": "22dcaf877d1f8d71465fbb3cd9185463", "lat": 38.90541233333333, "lon": -77.06279466666666, "rental_uris": {"android": "https://dc.lft.to/lastmile_qr_scan", "ios": "https://dc.lft.to/lastmile_qr_scan"}, "is_disabled": 0, "fusion_lat": 0.0, "name": "22dcaf877d1f8d71465fbb3cd9185463", "fusion_lon": 0.0}, {"is_reserved": 0, "type": "electric_scooter", "bike_id": "e708ecbd43fa612c42b1e4fdf1422354", "lat": 38.9274875, "lon": -77.02139533333333, "rental_uris": {"android": "https://dc.lft.to/lastmile_qr_scan", "ios": "https://dc.lft.to/lastmile_qr_scan"}, "is_disabled": 0, "fusion_lat": 0.0, "name": "e708ecbd43fa612c42b1e4fdf1422354", "fusion_lon": 0.0}, {"is_reserved": 0, "type": "electric_bike", "bike_id": "59ff264364ec8b7d4d4c42749f4b50a6", "lat": 38.807346833333334, "lon": -76.99256683333333, "rental_uris": {"android": "https://dc.lft.to/lastmile_qr_scan", "ios": "https://dc.lft.to/lastmile_qr_scan"}, "is_disabled": 0, "fusion_lat": 0.0, "name": "59ff264364ec8b7d4d4c42749f4b50a6", "fusion_lon": 0.0}, {"is_reserved": 0, "type": "electric_scooter", "bike_id": "412046a6689de6c75af8938b7347de8b", "lat": 38.92247583333334, "lon": -77.02881833333333, "rental_uris": {"android": "https://dc.lft.to/lastmile_qr_scan", "ios": "https://dc.lft.to/lastmile_qr_scan"}, "is_disabled": 0, "fusion_lat": 0.0, "name": "412046a6689de6c75af8938b7347de8b", "fusion_lon": 0.0}, {"is_reserved": 0, "type": "electric_scooter", "bike_id": "c6414e2b2010275ffe5c6eb395879271", "lat": 38.89709966666667, "lon": -77.05359416666667, "rental_uris": {"android": "https://dc.lft.to/lastmile_qr_scan", "ios": "https://dc.lft.to/lastmile_qr_scan"}, "is_disabled": 0, "fusion_lat": 0.0, "name": "c6414e2b2010275ffe5c6eb395879271", "fusion_lon": 0.0}, {"is_reserved": 0, "type": "electric_scooter", "bike_id": "b60c31b99a06b30b1b573ab32e62825f", "lat": 38.89982083333334, "lon": -77.02710816666666, "rental_uris": {"android": "https://dc.lft.to/lastmile_qr_scan", "ios": "https://dc.lft.to/lastmile_qr_scan"}, "is_disabled": 0, "fusion_lat": 0.0, "name": "b60c31b99a06b30b1b573ab32e62825f", "fusion_lon": 0.0}, {"is_reserved": 0, "type": "electric_scooter", "bike_id": "b3abe427d204fa8e12338897b7386315", "lat": 38.93260633333333, "lon": -77.02679333333333, "rental_uris": {"android": "https://dc.lft.to/lastmile_qr_scan", "ios": "https://dc.lft.to/lastmile_qr_scan"}, "is_disabled": 0, "fusion_lat": 0.0, "name": "b3abe427d204fa8e12338897b7386315", "fusion_lon": 0.0}, {"is_reserved": 0, "type": "electric_scooter", "bike_id": "1ee998454729b2c49adcee46a7b6b9bb", "lat": 38.9018145, "lon": -76.92891433333334, "rental_uris": {"android": "https://dc.lft.to/lastmile_qr_scan", "ios": "https://dc.lft.to/lastmile_qr_scan"}, "is_disabled": 0, "fusion_lat": 0.0, "name": "1ee998454729b2c49adcee46a7b6b9bb", "fusion_lon": 0.0}, {"is_reserved": 0, "type": "electric_bike", "bike_id": "1969af4ff858909f0c72711f71b35ee2", "lat": 38.888378833333334, "lon": -76.95739516666667, "rental_uris": {"android": "https://dc.lft.to/lastmile_qr_scan", "ios": "https://dc.lft.to/lastmile_qr_scan"}, "is_disabled": 0, "fusion_lat": 0.0, "name": "1969af4ff858909f0c72711f71b35ee2", "fusion_lon": 0.0}, {"is_reserved": 0, "type": "electric_scooter", "bike_id": "562ba0b0197f9dc661770a51a80813dd", "lat": 38.9464975, "lon": -77.06559016666667, "rental_uris": {"android": "https://dc.lft.to/lastmile_qr_scan", "ios": "https://dc.lft.to/lastmile_qr_scan"}, "is_disabled": 0, "fusion_lat": 0.0, "name": "562ba0b0197f9dc661770a51a80813dd", "fusion_lon": 0.0}, {"is_reserved": 0, "type": "electric_scooter", "bike_id": "b0ac570fe00d1c17363dbfc9dea30b9c", "lat": 38.90516683333333, "lon": -76.99563666666667, "rental_uris": {"android": "https://dc.lft.to/lastmile_qr_scan", "ios": "https://dc.lft.to/lastmile_qr_scan"}, "is_disabled": 0, "fusion_lat": 0.0, "name": "b0ac570fe00d1c17363dbfc9dea30b9c", "fusion_lon": 0.0}, {"is_reserved": 0, "type": "electric_scooter", "bike_id": "5e5abf2b13de5ec1fea4ca5adc94f928", "lat": 38.91400266666667, "lon": -77.03318216666666, "rental_uris": {"android": "https://dc.lft.to/lastmile_qr_scan", "ios": "https://dc.lft.to/lastmile_qr_scan"}, "is_disabled": 0, "fusion_lat": 0.0, "name": "5e5abf2b13de5ec1fea4ca5adc94f928", "fusion_lon": 0.0}, {"is_reserved": 0, "type": "electric_scooter", "bike_id": "04b1f8212962aa9807f5902afe2da6de", "lat": 38.900609333333335, "lon": -77.0543065, "rental_uris": {"android": "https://dc.lft.to/lastmile_qr_scan", "ios": "https://dc.lft.to/lastmile_qr_scan"}, "is_disabled": 0, "fusion_lat": 0.0, "name": "04b1f8212962aa9807f5902afe2da6de", "fusion_lon": 0.0}, {"is_reserved": 0, "type": "electric_scooter", "bike_id": "d0b4983d9f90972e1be23960573c69f3", "lat": 38.9126805, "lon": -77.04393516666667, "rental_uris": {"android": "https://dc.lft.to/lastmile_qr_scan", "ios": "https://dc.lft.to/lastmile_qr_scan"}, "is_disabled": 0, "fusion_lat": 0.0, "name": "d0b4983d9f90972e1be23960573c69f3", "fusion_lon": 0.0}, {"is_reserved": 0, "type": "electric_scooter", "bike_id": "57eef3f6d1bc8c62aa983c6da596f51f", "lat": 38.901663166666665, "lon": -77.02920566666667, "rental_uris": {"android": "https://dc.lft.to/lastmile_qr_scan", "ios": "https://dc.lft.to/lastmile_qr_scan"}, "is_disabled": 0, "fusion_lat": 0.0, "name": "57eef3f6d1bc8c62aa983c6da596f51f", "fusion_lon": 0.0}, {"is_reserved": 0, "type": "electric_scooter", "bike_id": "e22701e382c0d6e94eef8bbdf3e00449", "lat": 38.90567933333333, "lon": -77.0070765, "rental_uris": {"android": "https://dc.lft.to/lastmile_qr_scan", "ios": "https://dc.lft.to/lastmile_qr_scan"}, "is_disabled": 0, "fusion_lat": 0.0, "name": "e22701e382c0d6e94eef8bbdf3e00449", "fusion_lon": 0.0}, {"is_reserved": 0, "type": "electric_scooter", "bike_id": "704ab5f55bb3602cdf38d44fb8647f5e", "lat": 38.886352333333335, "lon": -76.99638383333334, "rental_uris": {"android": "https://dc.lft.to/lastmile_qr_scan", "ios": "https://dc.lft.to/lastmile_qr_scan"}, "is_disabled": 0, "fusion_lat": 0.0, "name": "704ab5f55bb3602cdf38d44fb8647f5e", "fusion_lon": 0.0}, {"is_reserved": 0, "type": "electric_scooter", "bike_id": "957faf870ac31d802f5c8673b6854b6b", "lat": 38.92776383333333, "lon": -77.02772616666667, "rental_uris": {"android": "https://dc.lft.to/lastmile_qr_scan", "ios": "https://dc.lft.to/lastmile_qr_scan"}, "is_disabled": 0, "fusion_lat": 0.0, "name": "957faf870ac31d802f5c8673b6854b6b", "fusion_lon": 0.0}, {"is_reserved": 0, "type": "electric_scooter", "bike_id": "79cf22d9f6ab373abc0b0b35ada6acc5", "lat": 38.89440483333333, "lon": -76.98085116666667, "rental_uris": {"android": "https://dc.lft.to/lastmile_qr_scan", "ios": "https://dc.lft.to/lastmile_qr_scan"}, "is_disabled": 0, "fusion_lat": 0.0, "name": "79cf22d9f6ab373abc0b0b35ada6acc5", "fusion_lon": 0.0}, {"is_reserved": 0, "type": "electric_scooter", "bike_id": "ed1622932d101528732ab0d8e62c29d0", "lat": 38.937612333333334, "lon": -77.02466733333333, "rental_uris": {"android": "https://dc.lft.to/lastmile_qr_scan", "ios": "https://dc.lft.to/lastmile_qr_scan"}, "is_disabled": 0, "fusion_lat": 0.0, "name": "ed1622932d101528732ab0d8e62c29d0", "fusion_lon": 0.0}, {"is_reserved": 0, "type": "electric_scooter", "bike_id": "eb865b604704478305b27981cf466dd5", "lat": 38.88773, "lon": -76.93263683333333, "rental_uris": {"android": "https://dc.lft.to/lastmile_qr_scan", "ios": "https://dc.lft.to/lastmile_qr_scan"}, "is_disabled": 0, "fusion_lat": 0.0, "name": "eb865b604704478305b27981cf466dd5", "fusion_lon": 0.0}, {"is_reserved": 0, "type": "electric_scooter", "bike_id": "c2827f8959e6964ad7ae6e71dd016784", "lat": 38.91672283333333, "lon": -77.029752, "rental_uris": {"android": "https://dc.lft.to/lastmile_qr_scan", "ios": "https://dc.lft.to/lastmile_qr_scan"}, "is_disabled": 0, "fusion_lat": 0.0, "name": "c2827f8959e6964ad7ae6e71dd016784", "fusion_lon": 0.0}, {"is_reserved": 0, "type": "electric_scooter", "bike_id": "0212f93e5f759bc33f24c958c0a58e73", "lat": 38.90499616666666, "lon": -77.0282235, "rental_uris": {"android": "https://dc.lft.to/lastmile_qr_scan", "ios": "https://dc.lft.to/lastmile_qr_scan"}, "is_disabled": 0, "fusion_lat": 0.0, "name": "0212f93e5f759bc33f24c958c0a58e73", "fusion_lon": 0.0}, {"is_reserved": 0, "type": "electric_scooter", "bike_id": "94575cc95d7af226e0c6f2b5fda659f9", "lat": 38.951533833333336, "lon": -77.01865583333333, "rental_uris": {"android": "https://dc.lft.to/lastmile_qr_scan", "ios": "https://dc.lft.to/lastmile_qr_scan"}, "is_disabled": 0, "fusion_lat": 0.0, "name": "94575cc95d7af226e0c6f2b5fda659f9", "fusion_lon": 0.0}, {"is_reserved": 0, "type": "electric_scooter", "bike_id": "3b88c1a56ef6e96872bea3e0cc35284d", "lat": 38.872891, "lon": -77.00987166666667, "rental_uris": {"android": "https://dc.lft.to/lastmile_qr_scan", "ios": "https://dc.lft.to/lastmile_qr_scan"}, "is_disabled": 0, "fusion_lat": 0.0, "name": "3b88c1a56ef6e96872bea3e0cc35284d", "fusion_lon": 0.0}, {"is_reserved": 0, "type": "electric_scooter", "bike_id": "0755a5daca29ed6251780b8d9f4911d8", "lat": 38.9101185, "lon": -77.038468, "rental_uris": {"android": "https://dc.lft.to/lastmile_qr_scan", "ios": "https://dc.lft.to/lastmile_qr_scan"}, "is_disabled": 0, "fusion_lat": 0.0, "name": "0755a5daca29ed6251780b8d9f4911d8", "fusion_lon": 0.0}, {"is_reserved": 0, "type": "electric_scooter", "bike_id": "a1cbdebcdb6b93655c413d343fcbff00", "lat": 38.943245833333336, "lon": -77.07581333333333, "rental_uris": {"android": "https://dc.lft.to/lastmile_qr_scan", "ios": "https://dc.lft.to/lastmile_qr_scan"}, "is_disabled": 0, "fusion_lat": 0.0, "name": "a1cbdebcdb6b93655c413d343fcbff00", "fusion_lon": 0.0}, {"is_reserved": 0, "type": "electric_scooter", "bike_id": "06d7bca1d281c64acf9eca0389cac014", "lat": 38.912246833333334, "lon": -77.01123983333333, "rental_uris": {"android": "https://dc.lft.to/lastmile_qr_scan", "ios": "https://dc.lft.to/lastmile_qr_scan"}, "is_disabled": 0, "fusion_lat": 0.0, "name": "06d7bca1d281c64acf9eca0389cac014", "fusion_lon": 0.0}, {"is_reserved": 0, "type": "electric_scooter", "bike_id": "9084ed1f91b019bbeaf52979ffcaca00", "lat": 38.93370733333333, "lon": -77.02022566666666, "rental_uris": {"android": "https://dc.lft.to/lastmile_qr_scan", "ios": "https://dc.lft.to/lastmile_qr_scan"}, "is_disabled": 0, "fusion_lat": 0.0, "name": "9084ed1f91b019bbeaf52979ffcaca00", "fusion_lon": 0.0}, {"is_reserved": 0, "type": "electric_scooter", "bike_id": "9f8b572ff017d27403863b4b7fc39232", "lat": 38.894808833333336, "lon": -77.0500655, "rental_uris": {"android": "https://dc.lft.to/lastmile_qr_scan", "ios": "https://dc.lft.to/lastmile_qr_scan"}, "is_disabled": 0, "fusion_lat": 0.0, "name": "9f8b572ff017d27403863b4b7fc39232", "fusion_lon": 0.0}, {"is_reserved": 0, "type": "electric_scooter", "bike_id": "d271cbc8d36895673e8b9bf8cc9d93c4", "lat": 38.916971, "lon": -77.05293666666667, "rental_uris": {"android": "https://dc.lft.to/lastmile_qr_scan", "ios": "https://dc.lft.to/lastmile_qr_scan"}, "is_disabled": 0, "fusion_lat": 0.0, "name": "d271cbc8d36895673e8b9bf8cc9d93c4", "fusion_lon": 0.0}, {"is_reserved": 0, "type": "electric_scooter", "bike_id": "2f7f342ff231985eed50f9bcbb6e923f", "lat": 38.93592483333333, "lon": -77.03371466666667, "rental_uris": {"android": "https://dc.lft.to/lastmile_qr_scan", "ios": "https://dc.lft.to/lastmile_qr_scan"}, "is_disabled": 0, "fusion_lat": 0.0, "name": "2f7f342ff231985eed50f9bcbb6e923f", "fusion_lon": 0.0}, {"is_reserved": 0, "type": "electric_scooter", "bike_id": "383028917dd803c38cb20ba4ba9d8a8d", "lat": 38.89891866666667, "lon": -76.979987, "rental_uris": {"android": "https://dc.lft.to/lastmile_qr_scan", "ios": "https://dc.lft.to/lastmile_qr_scan"}, "is_disabled": 0, "fusion_lat": 0.0, "name": "383028917dd803c38cb20ba4ba9d8a8d", "fusion_lon": 0.0}, {"is_reserved": 0, "type": "electric_bike", "bike_id": "07fc34941b16c1683fb87cd0c4e9b6e8", "lat": 38.97311633333333, "lon": -76.994845, "rental_uris": {"android": "https://dc.lft.to/lastmile_qr_scan", "ios": "https://dc.lft.to/lastmile_qr_scan"}, "is_disabled": 0, "fusion_lat": 0.0, "name": "07fc34941b16c1683fb87cd0c4e9b6e8", "fusion_lon": 0.0}, {"is_reserved": 0, "type": "electric_scooter", "bike_id": "bad74692f07079ea4b36ae5d34277652", "lat": 38.914195, "lon": -77.02243516666667, "rental_uris": {"android": "https://dc.lft.to/lastmile_qr_scan", "ios": "https://dc.lft.to/lastmile_qr_scan"}, "is_disabled": 0, "fusion_lat": 0.0, "name": "bad74692f07079ea4b36ae5d34277652", "fusion_lon": 0.0}, {"is_reserved": 0, "type": "electric_scooter", "bike_id": "e45609512474b31c2affbaaa8fc8e114", "lat": 38.8953505, "lon": -77.03012766666667, "rental_uris": {"android": "https://dc.lft.to/lastmile_qr_scan", "ios": "https://dc.lft.to/lastmile_qr_scan"}, "is_disabled": 0, "fusion_lat": 0.0, "name": "e45609512474b31c2affbaaa8fc8e114", "fusion_lon": 0.0}, {"is_reserved": 0, "type": "electric_scooter", "bike_id": "2c6ec8d67e35e17b3e8eb702b70f81a3", "lat": 38.89779133333333, "lon": -77.03188316666666, "rental_uris": {"android": "https://dc.lft.to/lastmile_qr_scan", "ios": "https://dc.lft.to/lastmile_qr_scan"}, "is_disabled": 0, "fusion_lat": 0.0, "name": "2c6ec8d67e35e17b3e8eb702b70f81a3", "fusion_lon": 0.0}, {"is_reserved": 0, "type": "electric_scooter", "bike_id": "150b773ba86df6ed100fca43abddd0eb", "lat": 38.9147555, "lon": -77.03205316666667, "rental_uris": {"android": "https://dc.lft.to/lastmile_qr_scan", "ios": "https://dc.lft.to/lastmile_qr_scan"}, "is_disabled": 0, "fusion_lat": 0.0, "name": "150b773ba86df6ed100fca43abddd0eb", "fusion_lon": 0.0}, {"is_reserved": 0, "type": "electric_scooter", "bike_id": "04c9ce7fece95ae3f0de979dd0b2f3af", "lat": 38.92011466666666, "lon": -77.041835, "rental_uris": {"android": "https://dc.lft.to/lastmile_qr_scan", "ios": "https://dc.lft.to/lastmile_qr_scan"}, "is_disabled": 0, "fusion_lat": 0.0, "name": "04c9ce7fece95ae3f0de979dd0b2f3af", "fusion_lon": 0.0}, {"is_reserved": 0, "type": "electric_scooter", "bike_id": "81cf96fa0d7ce0daf26a7e4b90fe33c5", "lat": 38.896781833333335, "lon": -77.01215583333334, "rental_uris": {"android": "https://dc.lft.to/lastmile_qr_scan", "ios": "https://dc.lft.to/lastmile_qr_scan"}, "is_disabled": 0, "fusion_lat": 0.0, "name": "81cf96fa0d7ce0daf26a7e4b90fe33c5", "fusion_lon": 0.0}, {"is_reserved": 0, "type": "electric_scooter", "bike_id": "ed4a22de96e20d92650265250caa69c7", "lat": 38.9141165, "lon": -76.98164666666666, "rental_uris": {"android": "https://dc.lft.to/lastmile_qr_scan", "ios": "https://dc.lft.to/lastmile_qr_scan"}, "is_disabled": 0, "fusion_lat": 0.0, "name": "ed4a22de96e20d92650265250caa69c7", "fusion_lon": 0.0}, {"is_reserved": 0, "type": "electric_scooter", "bike_id": "972e28c21ef00e0e3d98650c5486a31e", "lat": 38.917071666666665, "lon": -77.04185166666667, "rental_uris": {"android": "https://dc.lft.to/lastmile_qr_scan", "ios": "https://dc.lft.to/lastmile_qr_scan"}, "is_disabled": 0, "fusion_lat": 0.0, "name": "972e28c21ef00e0e3d98650c5486a31e", "fusion_lon": 0.0}, {"is_reserved": 0, "type": "electric_scooter", "bike_id": "a30c6255d8023c918f7511668d140810", "lat": 38.939532, "lon": -77.02760133333334, "rental_uris": {"android": "https://dc.lft.to/lastmile_qr_scan", "ios": "https://dc.lft.to/lastmile_qr_scan"}, "is_disabled": 0, "fusion_lat": 0.0, "name": "a30c6255d8023c918f7511668d140810", "fusion_lon": 0.0}, {"is_reserved": 0, "type": "electric_bike", "bike_id": "c970f4af1aa3af01a34fd4a66f29bbc3", "lat": 38.92071583333333, "lon": -76.995834, "rental_uris": {"android": "https://dc.lft.to/lastmile_qr_scan", "ios": "https://dc.lft.to/lastmile_qr_scan"}, "is_disabled": 0, "fusion_lat": 0.0, "name": "c970f4af1aa3af01a34fd4a66f29bbc3", "fusion_lon": 0.0}, {"is_reserved": 0, "type": "electric_scooter", "bike_id": "c375f90b9547bca6baa434f217b95a57", "lat": 38.917641, "lon": -77.0046555, "rental_uris": {"android": "https://dc.lft.to/lastmile_qr_scan", "ios": "https://dc.lft.to/lastmile_qr_scan"}, "is_disabled": 0, "fusion_lat": 0.0, "name": "c375f90b9547bca6baa434f217b95a57", "fusion_lon": 0.0}, {"is_reserved": 0, "type": "electric_scooter", "bike_id": "f1bb2670414d36834fee22bad8433b43", "lat": 38.8777965, "lon": -76.995082, "rental_uris": {"android": "https://dc.lft.to/lastmile_qr_scan", "ios": "https://dc.lft.to/lastmile_qr_scan"}, "is_disabled": 0, "fusion_lat": 0.0, "name": "f1bb2670414d36834fee22bad8433b43", "fusion_lon": 0.0}, {"is_reserved": 0, "type": "electric_bike", "bike_id": "6c33d1d13394888351abb28ecff1793a", "lat": 38.92624083333333, "lon": -77.04215816666667, "rental_uris": {"android": "https://dc.lft.to/lastmile_qr_scan", "ios": "https://dc.lft.to/lastmile_qr_scan"}, "is_disabled": 0, "fusion_lat": 0.0, "name": "6c33d1d13394888351abb28ecff1793a", "fusion_lon": 0.0}, {"is_reserved": 0, "type": "electric_bike", "bike_id": "0e2a7bc257995857b273d846e743e5b9", "lat": 38.91706583333333, "lon": -77.05720533333333, "rental_uris": {"android": "https://dc.lft.to/lastmile_qr_scan", "ios": "https://dc.lft.to/lastmile_qr_scan"}, "is_disabled": 0, "fusion_lat": 0.0, "name": "0e2a7bc257995857b273d846e743e5b9", "fusion_lon": 0.0}, {"is_reserved": 0, "type": "electric_scooter", "bike_id": "be2eb61f3db97a0620149e291453d71f", "lat": 38.88320083333333, "lon": -77.02411366666666, "rental_uris": {"android": "https://dc.lft.to/lastmile_qr_scan", "ios": "https://dc.lft.to/lastmile_qr_scan"}, "is_disabled": 0, "fusion_lat": 0.0, "name": "be2eb61f3db97a0620149e291453d71f", "fusion_lon": 0.0}, {"is_reserved": 0, "type": "electric_scooter", "bike_id": "8ec884c736df19f5dc5371463ae541c3", "lat": 38.911845, "lon": -77.04170233333333, "rental_uris": {"android": "https://dc.lft.to/lastmile_qr_scan", "ios": "https://dc.lft.to/lastmile_qr_scan"}, "is_disabled": 0, "fusion_lat": 0.0, "name": "8ec884c736df19f5dc5371463ae541c3", "fusion_lon": 0.0}, {"is_reserved": 0, "type": "electric_bike", "bike_id": "f76a9e57c01a27c861a04acf8a28f8b3", "lat": 38.946663, "lon": -76.99338866666666, "rental_uris": {"android": "https://dc.lft.to/lastmile_qr_scan", "ios": "https://dc.lft.to/lastmile_qr_scan"}, "is_disabled": 0, "fusion_lat": 0.0, "name": "f76a9e57c01a27c861a04acf8a28f8b3", "fusion_lon": 0.0}, {"is_reserved": 0, "type": "electric_scooter", "bike_id": "719a5b5cf8f361662c7092999485114e", "lat": 38.897435333333334, "lon": -76.9977225, "rental_uris": {"android": "https://dc.lft.to/lastmile_qr_scan", "ios": "https://dc.lft.to/lastmile_qr_scan"}, "is_disabled": 0, "fusion_lat": 0.0, "name": "719a5b5cf8f361662c7092999485114e", "fusion_lon": 0.0}, {"is_reserved": 0, "type": "electric_scooter", "bike_id": "b14eecf1d91deeceec8c8b4508e432d7", "lat": 38.919102, "lon": -77.0344525, "rental_uris": {"android": "https://dc.lft.to/lastmile_qr_scan", "ios": "https://dc.lft.to/lastmile_qr_scan"}, "is_disabled": 0, "fusion_lat": 0.0, "name": "b14eecf1d91deeceec8c8b4508e432d7", "fusion_lon": 0.0}, {"is_reserved": 0, "type": "electric_scooter", "bike_id": "78bde8bc30d43b5a610f07b1b13ffd02", "lat": 38.916496333333335, "lon": -77.02381916666667, "rental_uris": {"android": "https://dc.lft.to/lastmile_qr_scan", "ios": "https://dc.lft.to/lastmile_qr_scan"}, "is_disabled": 0, "fusion_lat": 0.0, "name": "78bde8bc30d43b5a610f07b1b13ffd02", "fusion_lon": 0.0}, {"is_reserved": 0, "type": "electric_bike", "bike_id": "15ffbe6270497873b028c529a90c1d9f", "lat": 38.90281566666667, "lon": -77.02895933333333, "rental_uris": {"android": "https://dc.lft.to/lastmile_qr_scan", "ios": "https://dc.lft.to/lastmile_qr_scan"}, "is_disabled": 0, "fusion_lat": 0.0, "name": "15ffbe6270497873b028c529a90c1d9f", "fusion_lon": 0.0}, {"is_reserved": 0, "type": "electric_scooter", "bike_id": "fe865e00d5e1a765c05d2fd7c056d09d", "lat": 38.917886, "lon": -77.03174433333334, "rental_uris": {"android": "https://dc.lft.to/lastmile_qr_scan", "ios": "https://dc.lft.to/lastmile_qr_scan"}, "is_disabled": 0, "fusion_lat": 0.0, "name": "fe865e00d5e1a765c05d2fd7c056d09d", "fusion_lon": 0.0}, {"is_reserved": 0, "type": "electric_scooter", "bike_id": "e5433741de5b99149e82fb6901387a22", "lat": 38.926561666666665, "lon": -77.04070133333333, "rental_uris": {"android": "https://dc.lft.to/lastmile_qr_scan", "ios": "https://dc.lft.to/lastmile_qr_scan"}, "is_disabled": 0, "fusion_lat": 0.0, "name": "e5433741de5b99149e82fb6901387a22", "fusion_lon": 0.0}, {"is_reserved": 0, "type": "electric_scooter", "bike_id": "67f5d0dff1c4ad975c776701812fdfd1", "lat": 38.9208285, "lon": -77.07697366666666, "rental_uris": {"android": "https://dc.lft.to/lastmile_qr_scan", "ios": "https://dc.lft.to/lastmile_qr_scan"}, "is_disabled": 0, "fusion_lat": 0.0, "name": "67f5d0dff1c4ad975c776701812fdfd1", "fusion_lon": 0.0}, {"is_reserved": 0, "type": "electric_scooter", "bike_id": "2a656564bcab14b86efde10d41fdd39f", "lat": 38.918018000000004, "lon": -77.03445166666667, "rental_uris": {"android": "https://dc.lft.to/lastmile_qr_scan", "ios": "https://dc.lft.to/lastmile_qr_scan"}, "is_disabled": 0, "fusion_lat": 0.0, "name": "2a656564bcab14b86efde10d41fdd39f", "fusion_lon": 0.0}, {"is_reserved": 0, "type": "electric_scooter", "bike_id": "ed35a62c665d6585f1bc0cc40eed7f51", "lat": 38.901501833333334, "lon": -77.02973516666667, "rental_uris": {"android": "https://dc.lft.to/lastmile_qr_scan", "ios": "https://dc.lft.to/lastmile_qr_scan"}, "is_disabled": 0, "fusion_lat": 0.0, "name": "ed35a62c665d6585f1bc0cc40eed7f51", "fusion_lon": 0.0}, {"is_reserved": 0, "type": "electric_scooter", "bike_id": "73ecfd6c0ad1fe4686eab8fb5bdbcdf3", "lat": 38.92605916666667, "lon": -77.0216775, "rental_uris": {"android": "https://dc.lft.to/lastmile_qr_scan", "ios": "https://dc.lft.to/lastmile_qr_scan"}, "is_disabled": 0, "fusion_lat": 0.0, "name": "73ecfd6c0ad1fe4686eab8fb5bdbcdf3", "fusion_lon": 0.0}, {"is_reserved": 0, "type": "electric_scooter", "bike_id": "9313473fd83aacb98594298796cbe112", "lat": 38.898965833333335, "lon": -77.0161305, "rental_uris": {"android": "https://dc.lft.to/lastmile_qr_scan", "ios": "https://dc.lft.to/lastmile_qr_scan"}, "is_disabled": 0, "fusion_lat": 0.0, "name": "9313473fd83aacb98594298796cbe112", "fusion_lon": 0.0}, {"is_reserved": 0, "type": "electric_scooter", "bike_id": "98db1dd096c077cb39322896a7ec70e0", "lat": 38.903913833333334, "lon": -77.04189416666667, "rental_uris": {"android": "https://dc.lft.to/lastmile_qr_scan", "ios": "https://dc.lft.to/lastmile_qr_scan"}, "is_disabled": 0, "fusion_lat": 0.0, "name": "98db1dd096c077cb39322896a7ec70e0", "fusion_lon": 0.0}, {"is_reserved": 0, "type": "electric_scooter", "bike_id": "96e730597ae81e2d146c156785781fb8", "lat": 38.917083, "lon": -77.04070816666666, "rental_uris": {"android": "https://dc.lft.to/lastmile_qr_scan", "ios": "https://dc.lft.to/lastmile_qr_scan"}, "is_disabled": 0, "fusion_lat": 0.0, "name": "96e730597ae81e2d146c156785781fb8", "fusion_lon": 0.0}, {"is_reserved": 0, "type": "electric_scooter", "bike_id": "9df70ee63c891e4e9a665746e6b96ac4", "lat": 38.917820666666664, "lon": -77.04097283333333, "rental_uris": {"android": "https://dc.lft.to/lastmile_qr_scan", "ios": "https://dc.lft.to/lastmile_qr_scan"}, "is_disabled": 0, "fusion_lat": 0.0, "name": "9df70ee63c891e4e9a665746e6b96ac4", "fusion_lon": 0.0}, {"is_reserved": 0, "type": "electric_bike", "bike_id": "b112772c475f61f805f21c3e23e918eb", "lat": 38.849143, "lon": -77.079339, "rental_uris": {"android": "https://dc.lft.to/lastmile_qr_scan", "ios": "https://dc.lft.to/lastmile_qr_scan"}, "is_disabled": 0, "fusion_lat": 0.0, "name": "b112772c475f61f805f21c3e23e918eb", "fusion_lon": 0.0}, {"is_reserved": 0, "type": "electric_scooter", "bike_id": "8122be98c68ed3335747858e5ec54e82", "lat": 38.93181, "lon": -77.02352216666667, "rental_uris": {"android": "https://dc.lft.to/lastmile_qr_scan", "ios": "https://dc.lft.to/lastmile_qr_scan"}, "is_disabled": 0, "fusion_lat": 0.0, "name": "8122be98c68ed3335747858e5ec54e82", "fusion_lon": 0.0}, {"is_reserved": 0, "type": "electric_scooter", "bike_id": "1e0f060865f3df24cb44350926843672", "lat": 38.93478283333334, "lon": -77.05646133333333, "rental_uris": {"android": "https://dc.lft.to/lastmile_qr_scan", "ios": "https://dc.lft.to/lastmile_qr_scan"}, "is_disabled": 0, "fusion_lat": 0.0, "name": "1e0f060865f3df24cb44350926843672", "fusion_lon": 0.0}, {"is_reserved": 0, "type": "electric_scooter", "bike_id": "1a7bc25c7f9b942fc3fa5b441b284cae", "lat": 38.904107833333335, "lon": -76.97332283333333, "rental_uris": {"android": "https://dc.lft.to/lastmile_qr_scan", "ios": "https://dc.lft.to/lastmile_qr_scan"}, "is_disabled": 0, "fusion_lat": 0.0, "name": "1a7bc25c7f9b942fc3fa5b441b284cae", "fusion_lon": 0.0}, {"is_reserved": 0, "type": "electric_scooter", "bike_id": "9df6af9c8dedcf04d74ad21e1d9e21f3", "lat": 38.93568766666667, "lon": -77.03300616666667, "rental_uris": {"android": "https://dc.lft.to/lastmile_qr_scan", "ios": "https://dc.lft.to/lastmile_qr_scan"}, "is_disabled": 0, "fusion_lat": 0.0, "name": "9df6af9c8dedcf04d74ad21e1d9e21f3", "fusion_lon": 0.0}, {"is_reserved": 0, "type": "electric_scooter", "bike_id": "77b8a216bdec6db52d8c812a64829b8f", "lat": 38.897547333333335, "lon": -77.02985116666666, "rental_uris": {"android": "https://dc.lft.to/lastmile_qr_scan", "ios": "https://dc.lft.to/lastmile_qr_scan"}, "is_disabled": 0, "fusion_lat": 0.0, "name": "77b8a216bdec6db52d8c812a64829b8f", "fusion_lon": 0.0}, {"is_reserved": 0, "type": "electric_bike", "bike_id": "6544419c75545985656f62e03cb753b8", "lat": 38.81335683333333, "lon": -77.05111266666667, "rental_uris": {"android": "https://dc.lft.to/lastmile_qr_scan", "ios": "https://dc.lft.to/lastmile_qr_scan"}, "is_disabled": 0, "fusion_lat": 0.0, "name": "6544419c75545985656f62e03cb753b8", "fusion_lon": 0.0}, {"is_reserved": 0, "type": "electric_scooter", "bike_id": "1944977de48dfdb56794edb5cf704299", "lat": 38.91750233333333, "lon": -77.04069633333333, "rental_uris": {"android": "https://dc.lft.to/lastmile_qr_scan", "ios": "https://dc.lft.to/lastmile_qr_scan"}, "is_disabled": 0, "fusion_lat": 0.0, "name": "1944977de48dfdb56794edb5cf704299", "fusion_lon": 0.0}, {"is_reserved": 0, "type": "electric_bike", "bike_id": "e27830efd6ad5d41f4fe8c8cbc84c966", "lat": 38.92449416666667, "lon": -77.01919516666666, "rental_uris": {"android": "https://dc.lft.to/lastmile_qr_scan", "ios": "https://dc.lft.to/lastmile_qr_scan"}, "is_disabled": 0, "fusion_lat": 0.0, "name": "e27830efd6ad5d41f4fe8c8cbc84c966", "fusion_lon": 0.0}, {"is_reserved": 0, "type": "electric_scooter", "bike_id": "6da153c2f3bc399ada84c12d015138c1", "lat": 38.8961155, "lon": -77.02207433333334, "rental_uris": {"android": "https://dc.lft.to/lastmile_qr_scan", "ios": "https://dc.lft.to/lastmile_qr_scan"}, "is_disabled": 0, "fusion_lat": 0.0, "name": "6da153c2f3bc399ada84c12d015138c1", "fusion_lon": 0.0}, {"is_reserved": 0, "type": "electric_scooter", "bike_id": "a8097444995be044645b9fe7a8c93116", "lat": 38.912572, "lon": -77.03863666666666, "rental_uris": {"android": "https://dc.lft.to/lastmile_qr_scan", "ios": "https://dc.lft.to/lastmile_qr_scan"}, "is_disabled": 0, "fusion_lat": 0.0, "name": "a8097444995be044645b9fe7a8c93116", "fusion_lon": 0.0}, {"is_reserved": 0, "type": "electric_scooter", "bike_id": "1a6f9c74f18117d09ecc8b63edaf9a0d", "lat": 38.89718933333333, "lon": -77.02137733333333, "rental_uris": {"android": "https://dc.lft.to/lastmile_qr_scan", "ios": "https://dc.lft.to/lastmile_qr_scan"}, "is_disabled": 0, "fusion_lat": 0.0, "name": "1a6f9c74f18117d09ecc8b63edaf9a0d", "fusion_lon": 0.0}, {"is_reserved": 0, "type": "electric_bike", "bike_id": "ab41dc5a4b608f542c06bda3dde7b914", "lat": 38.87732416666667, "lon": -77.11849383333333, "rental_uris": {"android": "https://dc.lft.to/lastmile_qr_scan", "ios": "https://dc.lft.to/lastmile_qr_scan"}, "is_disabled": 0, "fusion_lat": 0.0, "name": "ab41dc5a4b608f542c06bda3dde7b914", "fusion_lon": 0.0}, {"is_reserved": 0, "type": "electric_scooter", "bike_id": "3c1b8ca1f549133355c8c3745b8c2c41", "lat": 38.9154825, "lon": -76.98370466666667, "rental_uris": {"android": "https://dc.lft.to/lastmile_qr_scan", "ios": "https://dc.lft.to/lastmile_qr_scan"}, "is_disabled": 0, "fusion_lat": 0.0, "name": "3c1b8ca1f549133355c8c3745b8c2c41", "fusion_lon": 0.0}, {"is_reserved": 0, "type": "electric_scooter", "bike_id": "897818c701655b3851c5b292712c2a71", "lat": 38.8989015, "lon": -76.99355933333334, "rental_uris": {"android": "https://dc.lft.to/lastmile_qr_scan", "ios": "https://dc.lft.to/lastmile_qr_scan"}, "is_disabled": 0, "fusion_lat": 0.0, "name": "897818c701655b3851c5b292712c2a71", "fusion_lon": 0.0}, {"is_reserved": 0, "type": "electric_scooter", "bike_id": "925542588288dd88e13803c119c15024", "lat": 38.933695, "lon": -77.03468683333334, "rental_uris": {"android": "https://dc.lft.to/lastmile_qr_scan", "ios": "https://dc.lft.to/lastmile_qr_scan"}, "is_disabled": 0, "fusion_lat": 0.0, "name": "925542588288dd88e13803c119c15024", "fusion_lon": 0.0},