{"data": {"bikes": [{"fusion_lat": 0.0, "bike_id": "86e3b9f1e577ba0bac791a29378c06d2", "fusion_lon": 0.0, "lon": -77.04330716666666, "lat": 38.908809166666664, "is_reserved": 0, "is_disabled": 0, "rental_uris": {"android": "https://dc.lft.to/lastmile_qr_scan", "ios": "https://dc.lft.to/lastmile_qr_scan"}, "name": "86e3b9f1e577ba0bac791a29378c06d2", "type": "electric_scooter"}, {"fusion_lat": 0.0, "bike_id": "fda190b8b7f3181b8fd2dea19db0cd83", "fusion_lon": 0.0, "lon": -77.0394575, "lat": 38.908263833333336, "is_reserved": 0, "is_disabled": 0, "rental_uris": {"android": "https://dc.lft.to/lastmile_qr_scan", "ios": "https://dc.lft.to/lastmile_qr_scan"}, "name": "fda190b8b7f3181b8fd2dea19db0cd83", "type": "electric_scooter"}, {"fusion_lat": 0.0, "bike_id": "b1d5cdb232ba22536e48c49cc6a7e968", "fusion_lon": 0.0, "lon": -77.02220933333334, "lat": 38.9247275, "is_reserved": 0, "is_disabled": 0, "rental_uris": {"android": "https://dc.lft.to/lastmile_qr_scan", "ios": "https://dc.lft.to/lastmile_qr_scan"}, "name": "b1d5cdb232ba22536e48c49cc6a7e968", "type": "electric_scooter"}, {"fusion_lat": 0.0, "bike_id": "a1401b52accbc36e1a7020e3c96642dc", "fusion_lon": 0.0, "lon": -77.01926083333333, "lat": 38.92209716666667, "is_reserved": 0, "is_disabled": 0, "rental_uris": {"android": "https://dc.lft.to/lastmile_qr_scan", "ios": "https://dc.lft.to/lastmile_qr_scan"}, "name": "a1401b52accbc36e1a7020e3c96642dc", "type": "electric_scooter"}, {"fusion_lat": 0.0, "bike_id": "116383a1c51e4ea1576eb25ea5f313cb", "fusion_lon": 0.0, "lon": -77.03377183333333, "lat": 38.909764833333334, "is_reserved": 0, "is_disabled": 0, "rental_uris": {"android": "https://dc.lft.to/lastmile_qr_scan", "ios": "https://dc.lft.to/lastmile_qr_scan"}, "name": "116383a1c51e4ea1576eb25ea5f313cb", "type": "electric_scooter"}, {"fusion_lat": 0.0, "bike_id": "b7c0616b1f45216a8de9c279a1e15a8d", "fusion_lon": 0.0, "lon": -77.06781633333334, "lat": 38.90456566666667, "is_reserved": 0, "is_disabled": 0, "rental_uris": {"android": "https://dc.lft.to/lastmile_qr_scan", "ios": "https://dc.lft.to/lastmile_qr_scan"}, "name": "b7c0616b1f45216a8de9c279a1e15a8d", "type": "electric_scooter"}, {"fusion_lat": 0.0, "bike_id": "ae662147400ae7cc7a9f174e9cbca96b", "fusion_lon": 0.0, "lon": -77.03212866666667, "lat": 38.89732566666667, "is_reserved": 0, "is_disabled": 0, "rental_uris": {"android": "https://dc.lft.to/lastmile_qr_scan", "ios": "https://dc.lft.to/lastmile_qr_scan"}, "name": "ae662147400ae7cc7a9f174e9cbca96b", "type": "electric_scooter"}, {"fusion_lat": 0.0, "bike_id": "79706d6ab4d13cfc0a3f86a9beb393c3", "fusion_lon": 0.0, "lon": -77.03183466666667, "lat": 38.887359833333335, "is_reserved": 0, "is_disabled": 0, "rental_uris": {"android": "https://dc.lft.to/lastmile_qr_scan", "ios": "https://dc.lft.to/lastmile_qr_scan"}, "name": "79706d6ab4d13cfc0a3f86a9beb393c3", "type": "electric_scooter"}, {"fusion_lat": 0.0, "bike_id": "acec062f91c81c3c3ea423ecad6e7a53", "fusion_lon": 0.0, "lon": -77.0227805, "lat": 38.91655266666667, "is_reserved": 0, "is_disabled": 0, "rental_uris": {"android": "https://dc.lft.to/lastmile_qr_scan", "ios": "https://dc.lft.to/lastmile_qr_scan"}, "name": "acec062f91c81c3c3ea423ecad6e7a53", "type": "electric_scooter"}, {"fusion_lat": 0.0, "bike_id": "96b43ae8f6d682bbdca50ae5e8363d6f", "fusion_lon": 0.0, "lon": -77.1310235, "lat": 39.0243065, "is_reserved": 0, "is_disabled": 0, "rental_uris": {"android": "https://dc.lft.to/lastmile_qr_scan", "ios": "https://dc.lft.to/lastmile_qr_scan"}, "name": "96b43ae8f6d682bbdca50ae5e8363d6f", "type": "electric_bike"}, {"fusion_lat": 0.0, "bike_id": "4d4a5fc21a8f8c182145876f5827beb7", "fusion_lon": 0.0, "lon": -77.0212395, "lat": 38.93577716666667, "is_reserved": 0, "is_disabled": 0, "rental_uris": {"android": "https://dc.lft.to/lastmile_qr_scan", "ios": "https://dc.lft.to/lastmile_qr_scan"}, "name": "4d4a5fc21a8f8c182145876f5827beb7", "type": "electric_scooter"}, {"fusion_lat": 0.0, "bike_id": "205744f49961c5cd80dfb5478f5f3425", "fusion_lon": 0.0, "lon": -76.995972, "lat": 38.884229500000004, "is_reserved": 0, "is_disabled": 0, "rental_uris": {"android": "https://dc.lft.to/lastmile_qr_scan", "ios": "https://dc.lft.to/lastmile_qr_scan"}, "name": "205744f49961c5cd80dfb5478f5f3425", "type": "electric_scooter"}, {"fusion_lat": 0.0, "bike_id": "83c2e16e2a68004c5080986676e2ecee", "fusion_lon": 0.0, "lon": -77.03803566666667, "lat": 38.93117933333333, "is_reserved": 0, "is_disabled": 0, "rental_uris": {"android": "https://dc.lft.to/lastmile_qr_scan", "ios": "https://dc.lft.to/lastmile_qr_scan"}, "name": "83c2e16e2a68004c5080986676e2ecee", "type": "electric_scooter"}, {"fusion_lat": 0.0, "bike_id": "d925d78a02a9f7489827650e3e0aab12", "fusion_lon": 0.0, "lon": -77.03217333333333, "lat": 38.897751166666666, "is_reserved": 0, "is_disabled": 0, "rental_uris": {"android": "https://dc.lft.to/lastmile_qr_scan", "ios": "https://dc.lft.to/lastmile_qr_scan"}, "name": "d925d78a02a9f7489827650e3e0aab12", "type": "electric_scooter"}, {"fusion_lat": 0.0, "bike_id": "40ae2bbd2e737a1633ac248c9cabe9b9", "fusion_lon": 0.0, "lon": -77.03441, "lat": 38.909828, "is_reserved": 0, "is_disabled": 0, "rental_uris": {"android": "https://dc.lft.to/lastmile_qr_scan", "ios": "https://dc.lft.to/lastmile_qr_scan"}, "name": "40ae2bbd2e737a1633ac248c9cabe9b9", "type": "electric_scooter"}, {"fusion_lat": 0.0, "bike_id": "5b057c2eb0646bfb4fe7e9a99252e093", "fusion_lon": 0.0, "lon": -77.0270375, "lat": 38.9498655, "is_reserved": 0, "is_disabled": 0, "rental_uris": {"android": "https://dc.lft.to/lastmile_qr_scan", "ios": "https://dc.lft.to/lastmile_qr_scan"}, "name": "5b057c2eb0646bfb4fe7e9a99252e093", "type": "electric_scooter"}, {"fusion_lat": 0.0, "bike_id": "d5f641737e3e2bfec63459f1f8b2f1ed", "fusion_lon": 0.0, "lon": -77.03659933333333, "lat": 38.921236666666665, "is_reserved": 0, "is_disabled": 0, "rental_uris": {"android": "https://dc.lft.to/lastmile_qr_scan", "ios": "https://dc.lft.to/lastmile_qr_scan"}, "name": "d5f641737e3e2bfec63459f1f8b2f1ed", "type": "electric_scooter"}, {"fusion_lat": 0.0, "bike_id": "394381731a70c7eaa334c21f668efc89", "fusion_lon": 0.0, "lon": -76.972103, "lat": 38.89282566666667, "is_reserved": 0, "is_disabled": 0, "rental_uris": {"android": "https://dc.lft.to/lastmile_qr_scan", "ios": "https://dc.lft.to/lastmile_qr_scan"}, "name": "394381731a70c7eaa334c21f668efc89", "type": "electric_bike"}, {"fusion_lat": 0.0, "bike_id": "25c5388de7cf57f67abacbc5ba8904ae", "fusion_lon": 0.0, "lon": -77.05017933333333, "lat": 38.905150166666665, "is_reserved": 0, "is_disabled": 0, "rental_uris": {"android": "https://dc.lft.to/lastmile_qr_scan", "ios": "https://dc.lft.to/lastmile_qr_scan"}, "name": "25c5388de7cf57f67abacbc5ba8904ae", "type": "electric_scooter"}, {"fusion_lat": 0.0, "bike_id": "762510cc36cc86d3ab397753773831bd", "fusion_lon": 0.0, "lon": -76.99276083333334, "lat": 38.86028066666667, "is_reserved": 0, "is_disabled": 0, "rental_uris": {"android": "https://dc.lft.to/lastmile_qr_scan", "ios": "https://dc.lft.to/lastmile_qr_scan"}, "name": "762510cc36cc86d3ab397753773831bd", "type": "electric_scooter"}, {"fusion_lat": 0.0, "bike_id": "59f494a42bfe5845e1f26b369ba6f306", "fusion_lon": 0.0, "lon": -77.13928416666667, "lat": 38.8729595, "is_reserved": 0, "is_disabled": 0, "rental_uris": {"android": "https://dc.lft.to/lastmile_qr_scan", "ios": "https://dc.lft.to/lastmile_qr_scan"}, "name": "59f494a42bfe5845e1f26b369ba6f306", "type": "electric_bike"}, {"fusion_lat": 0.0, "bike_id": "0072ef04b0700f3b0031c70af4649252", "fusion_lon": 0.0, "lon": -77.02373933333334, "lat": 38.917846833333336, "is_reserved": 0, "is_disabled": 0, "rental_uris": {"android": "https://dc.lft.to/lastmile_qr_scan", "ios": "https://dc.lft.to/lastmile_qr_scan"}, "name": "0072ef04b0700f3b0031c70af4649252", "type": "electric_scooter"}, {"fusion_lat": 0.0, "bike_id": "01c33e941c5d7e82fb38d7f71769b555", "fusion_lon": 0.0, "lon": -77.0557705, "lat": 38.930519833333335, "is_reserved": 0, "is_disabled": 0, "rental_uris": {"android": "https://dc.lft.to/lastmile_qr_scan", "ios": "https://dc.lft.to/lastmile_qr_scan"}, "name": "01c33e941c5d7e82fb38d7f71769b555", "type": "electric_scooter"}, {"fusion_lat": 0.0, "bike_id": "57369752e434c32f017bd32188efc307", "fusion_lon": 0.0, "lon": -76.99150566666667, "lat": 38.89342716666667, "is_reserved": 0, "is_disabled": 0, "rental_uris": {"android": "https://dc.lft.to/lastmile_qr_scan", "ios": "https://dc.lft.to/lastmile_qr_scan"}, "name": "57369752e434c32f017bd32188efc307", "type": "electric_scooter"}, {"fusion_lat": 0.0, "bike_id": "8e276c5d4b6f409454d1474d4c938d19", "fusion_lon": 0.0, "lon": -77.04495833333333, "lat": 38.91327616666667, "is_reserved": 0, "is_disabled": 0, "rental_uris": {"android": "https://dc.lft.to/lastmile_qr_scan", "ios": "https://dc.lft.to/lastmile_qr_scan"}, "name": "8e276c5d4b6f409454d1474d4c938d19", "type": "electric_scooter"}, {"fusion_lat": 0.0, "bike_id": "549b717f5b0bc4d22b147f6d5daa911e", "fusion_lon": 0.0, "lon": -77.12466983333333, "lat": 38.85372183333333, "is_reserved": 0, "is_disabled": 0, "rental_uris": {"android": "https://dc.lft.to/lastmile_qr_scan", "ios": "https://dc.lft.to/lastmile_qr_scan"}, "name": "549b717f5b0bc4d22b147f6d5daa911e", "type": "electric_bike"}, {"fusion_lat": 0.0, "bike_id": "b0ddd0ef3955786fbe626bb938f439ce", "fusion_lon": 0.0, "lon": -77.03474083333333, "lat": 38.90725366666667, "is_reserved": 0, "is_disabled": 0, "rental_uris": {"android": "https://dc.lft.to/lastmile_qr_scan", "ios": "https://dc.lft.to/lastmile_qr_scan"}, "name": "b0ddd0ef3955786fbe626bb938f439ce", "type": "electric_scooter"}, {"fusion_lat": 0.0, "bike_id": "08d9c69ce9125c2441722d0434b61036", "fusion_lon": 0.0, "lon": -77.038666, "lat": 38.91255133333333, "is_reserved": 0, "is_disabled": 0, "rental_uris": {"android": "https://dc.lft.to/lastmile_qr_scan", "ios": "https://dc.lft.to/lastmile_qr_scan"}, "name": "08d9c69ce9125c2441722d0434b61036", "type": "electric_scooter"}, {"fusion_lat": 0.0, "bike_id": "6f57dedaf2783412f0e6bf0b1819c3e0", "fusion_lon": 0.0, "lon": -76.9852965, "lat": 38.86684183333333, "is_reserved": 0, "is_disabled": 0, "rental_uris": {"android": "https://dc.lft.to/lastmile_qr_scan", "ios": "https://dc.lft.to/lastmile_qr_scan"}, "name": "6f57dedaf2783412f0e6bf0b1819c3e0", "type": "electric_scooter"}, {"fusion_lat": 0.0, "bike_id": "3788d02bbdd12e747eae1fb36b3d26f5", "fusion_lon": 0.0, "lon": -77.0365465, "lat": 38.90281566666667, "is_reserved": 0, "is_disabled": 0, "rental_uris": {"android": "https://dc.lft.to/lastmile_qr_scan", "ios": "https://dc.lft.to/lastmile_qr_scan"}, "name": "3788d02bbdd12e747eae1fb36b3d26f5", "type": "electric_scooter"}, {"fusion_lat": 0.0, "bike_id": "c9b0385832b663289409631b5d363753", "fusion_lon": 0.0, "lon": -77.01330033333333, "lat": 38.900329, "is_reserved": 0, "is_disabled": 0, "rental_uris": {"android": "https://dc.lft.to/lastmile_qr_scan", "ios": "https://dc.lft.to/lastmile_qr_scan"}, "name": "c9b0385832b663289409631b5d363753", "type": "electric_scooter"}, {"fusion_lat": 0.0, "bike_id": "97d1f6e1a57f1b1417290b5704e03f1d", "fusion_lon": 0.0, "lon": -77.03661633333333, "lat": 38.923844, "is_reserved": 0, "is_disabled": 0, "rental_uris": {"android": "https://dc.lft.to/lastmile_qr_scan", "ios": "https://dc.lft.to/lastmile_qr_scan"}, "name": "97d1f6e1a57f1b1417290b5704e03f1d", "type": "electric_scooter"}, {"fusion_lat": 0.0, "bike_id": "4c60ffc6273f1c1f34317c6c8dc2df8c", "fusion_lon": 0.0, "lon": -77.0248125, "lat": 38.938483166666664, "is_reserved": 0, "is_disabled": 0, "rental_uris": {"android": "https://dc.lft.to/lastmile_qr_scan", "ios": "https://dc.lft.to/lastmile_qr_scan"}, "name": "4c60ffc6273f1c1f34317c6c8dc2df8c", "type": "electric_scooter"}, {"fusion_lat": 0.0, "bike_id": "0c153cdfdcda48c382627eab172b1bd4", "fusion_lon": 0.0, "lon": -77.05000916666667, "lat": 38.89225016666666, "is_reserved": 0, "is_disabled": 0, "rental_uris": {"android": "https://dc.lft.to/lastmile_qr_scan", "ios": "https://dc.lft.to/lastmile_qr_scan"}, "name": "0c153cdfdcda48c382627eab172b1bd4", "type": "electric_scooter"}, {"fusion_lat": 0.0, "bike_id": "137897b3ed3674cc64f57331106f153e", "fusion_lon": 0.0, "lon": -77.06207916666666, "lat": 38.920380333333334, "is_reserved": 0, "is_disabled": 0, "rental_uris": {"android": "https://dc.lft.to/lastmile_qr_scan", "ios": "https://dc.lft.to/lastmile_qr_scan"}, "name": "137897b3ed3674cc64f57331106f153e", "type": "electric_bike"}, {"fusion_lat": 0.0, "bike_id": "45100776ff89f4d0a0d88c8536ac4e74", "fusion_lon": 0.0, "lon": -77.003699, "lat": 38.907293833333334, "is_reserved": 0, "is_disabled": 0, "rental_uris": {"android": "https://dc.lft.to/lastmile_qr_scan", "ios": "https://dc.lft.to/lastmile_qr_scan"}, "name": "45100776ff89f4d0a0d88c8536ac4e74", "type": "electric_scooter"}, {"fusion_lat": 0.0, "bike_id": "47e320eb12a0d07e695f608bd9be367e", "fusion_lon": 0.0, "lon": -77.01734083333334, "lat": 38.887433, "is_reserved": 0, "is_disabled": 0, "rental_uris": {"android": "https://dc.lft.to/lastmile_qr_scan", "ios": "https://dc.lft.to/lastmile_qr_scan"}, "name": "47e320eb12a0d07e695f608bd9be367e", "type": "electric_scooter"}, {"fusion_lat": 0.0, "bike_id": "d0f61d8e69208406ac76e5030f67f587", "fusion_lon": 0.0, "lon": -76.9074445, "lat": 38.8961135, "is_reserved": 0, "is_disabled": 0, "rental_uris": {"android": "https://dc.lft.to/lastmile_qr_scan", "ios": "https://dc.lft.to/lastmile_qr_scan"}, "name": "d0f61d8e69208406ac76e5030f67f587", "type": "electric_bike"}, {"fusion_lat": 0.0, "bike_id": "cac70a69fbc1b4d90959050b5a16a583", "fusion_lon": 0.0, "lon": -77.03659283333333, "lat": 38.93131316666667, "is_reserved": 0, "is_disabled": 0, "rental_uris": {"android": "https://dc.lft.to/lastmile_qr_scan", "ios": "https://dc.lft.to/lastmile_qr_scan"}, "name": "cac70a69fbc1b4d90959050b5a16a583", "type": "electric_scooter"}, {"fusion_lat": 0.0, "bike_id": "819d3659a6ab258b223a68cfaccb974a", "fusion_lon": 0.0, "lon": -77.0150065, "lat": 38.926678, "is_reserved": 0, "is_disabled": 0, "rental_uris": {"android": "https://dc.lft.to/lastmile_qr_scan", "ios": "https://dc.lft.to/lastmile_qr_scan"}, "name": "819d3659a6ab258b223a68cfaccb974a", "type": "electric_scooter"}, {"fusion_lat": 0.0, "bike_id": "e98fb873a2c38afd64a9d3d13381d5e2", "fusion_lon": 0.0, "lon": -76.994809, "lat": 38.88608416666667, "is_reserved": 0, "is_disabled": 0, "rental_uris": {"android": "https://dc.lft.to/lastmile_qr_scan", "ios": "https://dc.lft.to/lastmile_qr_scan"}, "name": "e98fb873a2c38afd64a9d3d13381d5e2", "type": "electric_scooter"}, {"fusion_lat": 0.0, "bike_id": "d86a9e479f92b5f09c41cf8539d860fb", "fusion_lon": 0.0, "lon": -76.9853125, "lat": 38.866831, "is_reserved": 0, "is_disabled": 0, "rental_uris": {"android": "https://dc.lft.to/lastmile_qr_scan", "ios": "https://dc.lft.to/lastmile_qr_scan"}, "name": "d86a9e479f92b5f09c41cf8539d860fb", "type": "electric_scooter"}, {"fusion_lat": 0.0, "bike_id": "053a0a2fe2d8e643a0195e5c0f47b686", "fusion_lon": 0.0, "lon": -77.02210066666666, "lat": 38.9246405, "is_reserved": 0, "is_disabled": 0, "rental_uris": {"android": "https://dc.lft.to/lastmile_qr_scan", "ios": "https://dc.lft.to/lastmile_qr_scan"}, "name": "053a0a2fe2d8e643a0195e5c0f47b686", "type": "electric_scooter"}, {"fusion_lat": 0.0, "bike_id": "1cc7e08f6039da4ff4fecefdf359d720", "fusion_lon": 0.0, "lon": -77.0599855, "lat": 38.80437716666667, "is_reserved": 0, "is_disabled": 0, "rental_uris": {"android": "https://dc.lft.to/lastmile_qr_scan", "ios": "https://dc.lft.to/lastmile_qr_scan"}, "name": "1cc7e08f6039da4ff4fecefdf359d720", "type": "electric_bike"}, {"fusion_lat": 0.0, "bike_id": "934092577cde095a0a497e7d54848d61", "fusion_lon": 0.0, "lon": -77.0467905, "lat": 38.89555766666667, "is_reserved": 0, "is_disabled": 0, "rental_uris": {"android": "https://dc.lft.to/lastmile_qr_scan", "ios": "https://dc.lft.to/lastmile_qr_scan"}, "name": "934092577cde095a0a497e7d54848d61", "type": "electric_scooter"}, {"fusion_lat": 0.0, "bike_id": "bf963c1892ec77c0715a5da41f9abe9d", "fusion_lon": 0.0, "lon": -77.01669466666667, "lat": 38.913939, "is_reserved": 0, "is_disabled": 0, "rental_uris": {"android": "https://dc.lft.to/lastmile_qr_scan", "ios": "https://dc.lft.to/lastmile_qr_scan"}, "name": "bf963c1892ec77c0715a5da41f9abe9d", "type": "electric_scooter"}, {"fusion_lat": 0.0, "bike_id": "cc05db8f0bc8ef2e3b8ea52e0ffb4b65", "fusion_lon": 0.0, "lon": -77.021748, "lat": 38.94294283333333, "is_reserved": 0, "is_disabled": 0, "rental_uris": {"android": "https://dc.lft.to/lastmile_qr_scan", "ios": "https://dc.lft.to/lastmile_qr_scan"}, "name": "cc05db8f0bc8ef2e3b8ea52e0ffb4b65", "type": "electric_scooter"}, {"fusion_lat": 0.0, "bike_id": "24217f0bee2cc5069ceda032af6618c9", "fusion_lon": 0.0, "lon": -77.04182883333333, "lat": 38.89248666666667, "is_reserved": 0, "is_disabled": 0, "rental_uris": {"android": "https://dc.lft.to/lastmile_qr_scan", "ios": "https://dc.lft.to/lastmile_qr_scan"}, "name": "24217f0bee2cc5069ceda032af6618c9", "type": "electric_scooter"}, {"fusion_lat": 0.0, "bike_id": "b4266c51440f351e1a1a13572aae73ff", "fusion_lon": 0.0, "lon": -77.02238233333334, "lat": 38.90857883333334, "is_reserved": 0, "is_disabled": 0, "rental_uris": {"android": "https://dc.lft.to/lastmile_qr_scan", "ios": "https://dc.lft.to/lastmile_qr_scan"}, "name": "b4266c51440f351e1a1a13572aae73ff", "type": "electric_scooter"}, {"fusion_lat": 0.0, "bike_id": "47197b922664a08bcb2176846acd4e32", "fusion_lon": 0.0, "lon": -77.02448733333334, "lat": 38.9031975, "is_reserved": 0, "is_disabled": 0, "rental_uris": {"android": "https://dc.lft.to/lastmile_qr_scan", "ios": "https://dc.lft.to/lastmile_qr_scan"}, "name": "47197b922664a08bcb2176846acd4e32", "type": "electric_scooter"}, {"fusion_lat": 0.0, "bike_id": "cb1b48ce46d639a2c985c4f8b10f830b", "fusion_lon": 0.0, "lon": -77.03808416666666, "lat": 38.996650833333334, "is_reserved": 0, "is_disabled": 0, "rental_uris": {"android": "https://dc.lft.to/lastmile_qr_scan", "ios": "https://dc.lft.to/lastmile_qr_scan"}, "name": "cb1b48ce46d639a2c985c4f8b10f830b", "type": "electric_bike"}, {"fusion_lat": 0.0, "bike_id": "c1485d5abdfba6ec66cc03ad5978afeb", "fusion_lon": 0.0, "lon": -77.030878, "lat": 38.93860216666667, "is_reserved": 0, "is_disabled": 0, "rental_uris": {"android": "https://dc.lft.to/lastmile_qr_scan", "ios": "https://dc.lft.to/lastmile_qr_scan"}, "name": "c1485d5abdfba6ec66cc03ad5978afeb", "type": "electric_scooter"}, {"fusion_lat": 0.0, "bike_id": "59ffbc22b58ba718be2ba084642e655e", "fusion_lon": 0.0, "lon": -77.01591016666667, "lat": 38.88495566666667, "is_reserved": 0, "is_disabled": 0, "rental_uris": {"android": "https://dc.lft.to/lastmile_qr_scan", "ios": "https://dc.lft.to/lastmile_qr_scan"}, "name": "59ffbc22b58ba718be2ba084642e655e", "type": "electric_scooter"}, {"fusion_lat": 0.0, "bike_id": "271877232d57a0a83a1c0b985f234545", "fusion_lon": 0.0, "lon": -77.02654716666666, "lat": 38.92607783333333, "is_reserved": 0, "is_disabled": 0, "rental_uris": {"android": "https://dc.lft.to/lastmile_qr_scan", "ios": "https://dc.lft.to/lastmile_qr_scan"}, "name": "271877232d57a0a83a1c0b985f234545", "type": "electric_scooter"}, {"fusion_lat": 0.0, "bike_id": "45cbdc0dc30c03f5ce85fa2f51abcb8f", "fusion_lon": 0.0, "lon": -77.0213985, "lat": 38.924797166666664, "is_reserved": 0, "is_disabled": 0, "rental_uris": {"android": "https://dc.lft.to/lastmile_qr_scan", "ios": "https://dc.lft.to/lastmile_qr_scan"}, "name": "45cbdc0dc30c03f5ce85fa2f51abcb8f", "type": "electric_scooter"}, {"fusion_lat": 0.0, "bike_id": "5c044b1cdd0d6b129a2df0c7398b8a0c", "fusion_lon": 0.0, "lon": -76.94724633333334, "lat": 38.897345333333334, "is_reserved": 0, "is_disabled": 0, "rental_uris": {"android": "https://dc.lft.to/lastmile_qr_scan", "ios": "https://dc.lft.to/lastmile_qr_scan"}, "name": "5c044b1cdd0d6b129a2df0c7398b8a0c", "type": "electric_scooter"}, {"fusion_lat": 0.0, "bike_id": "b9a622175002f5a385f338a7044ac552", "fusion_lon": 0.0, "lon": -77.0328135, "lat": 38.9409755, "is_reserved": 0, "is_disabled": 0, "rental_uris": {"android": "https://dc.lft.to/lastmile_qr_scan", "ios": "https://dc.lft.to/lastmile_qr_scan"}, "name": "b9a622175002f5a385f338a7044ac552", "type": "electric_scooter"}, {"fusion_lat": 0.0, "bike_id": "6a6a9fc861322f969ad3c5fddbec8e35", "fusion_lon": 0.0, "lon": -77.04669633333333, "lat": 38.911002333333336, "is_reserved": 0, "is_disabled": 0, "rental_uris": {"android": "https://dc.lft.to/lastmile_qr_scan", "ios": "https://dc.lft.to/lastmile_qr_scan"}, "name": "6a6a9fc861322f969ad3c5fddbec8e35", "type": "electric_scooter"}, {"fusion_lat": 0.0, "bike_id": "b07577276c9e8fee652b09377e0b9aa9", "fusion_lon": 0.0, "lon": -76.99780516666667, "lat": 38.8442245, "is_reserved": 0, "is_disabled": 0, "rental_uris": {"android": "https://dc.lft.to/lastmile_qr_scan", "ios": "https://dc.lft.to/lastmile_qr_scan"}, "name": "b07577276c9e8fee652b09377e0b9aa9", "type": "electric_scooter"}, {"fusion_lat": 0.0, "bike_id": "f7209efcafa3426e942d8c5e749c5bde", "fusion_lon": 0.0, "lon": -77.05296616666666, "lat": 38.9052015, "is_reserved": 0, "is_disabled": 0, "rental_uris": {"android": "https://dc.lft.to/lastmile_qr_scan", "ios": "https://dc.lft.to/lastmile_qr_scan"}, "name": "f7209efcafa3426e942d8c5e749c5bde", "type": "electric_scooter"}, {"fusion_lat": 0.0, "bike_id": "1165a6000825cd8f41eeaafc0503d2d6", "fusion_lon": 0.0, "lon": -77.07919616666666, "lat": 38.94636333333333, "is_reserved": 0, "is_disabled": 0, "rental_uris": {"android": "https://dc.lft.to/lastmile_qr_scan", "ios": "https://dc.lft.to/lastmile_qr_scan"}, "name": "1165a6000825cd8f41eeaafc0503d2d6", "type": "electric_scooter"}, {"fusion_lat": 0.0, "bike_id": "b51b23570fef914c7949f7ead7caae07", "fusion_lon": 0.0, "lon": -77.03861983333333, "lat": 38.9066035, "is_reserved": 0, "is_disabled": 0, "rental_uris": {"android": "https://dc.lft.to/lastmile_qr_scan", "ios": "https://dc.lft.to/lastmile_qr_scan"}, "name": "b51b23570fef914c7949f7ead7caae07", "type": "electric_scooter"}, {"fusion_lat": 0.0, "bike_id": "dff209c755f45eb14792de5d439ba2cd", "fusion_lon": 0.0, "lon": -76.9301275, "lat": 38.89651116666667, "is_reserved": 0, "is_disabled": 0, "rental_uris": {"android": "https://dc.lft.to/lastmile_qr_scan", "ios": "https://dc.lft.to/lastmile_qr_scan"}, "name": "dff209c755f45eb14792de5d439ba2cd", "type": "electric_bike"}, {"fusion_lat": 0.0, "bike_id": "91674624662ed4ecbb64bcd6d9e58f1a", "fusion_lon": 0.0, "lon": -77.04175266666667, "lat": 38.9034605, "is_reserved": 0, "is_disabled": 0, "rental_uris": {"android": "https://dc.lft.to/lastmile_qr_scan", "ios": "https://dc.lft.to/lastmile_qr_scan"}, "name": "91674624662ed4ecbb64bcd6d9e58f1a", "type": "electric_scooter"}, {"fusion_lat": 0.0, "bike_id": "0f078ced48e182faefbb3d24f137c76e", "fusion_lon": 0.0, "lon": -76.93175833333333, "lat": 38.898831333333334, "is_reserved": 0, "is_disabled": 0, "rental_uris": {"android": "https://dc.lft.to/lastmile_qr_scan", "ios": "https://dc.lft.to/lastmile_qr_scan"}, "name": "0f078ced48e182faefbb3d24f137c76e", "type": "electric_scooter"}, {"fusion_lat": 0.0, "bike_id": "ae9d141111a11c21952b504e561d0e5b", "fusion_lon": 0.0, "lon": -77.02721283333334, "lat": 38.8973165, "is_reserved": 0, "is_disabled": 0, "rental_uris": {"android": "https://dc.lft.to/lastmile_qr_scan", "ios": "https://dc.lft.to/lastmile_qr_scan"}, "name": "ae9d141111a11c21952b504e561d0e5b", "type": "electric_scooter"}, {"fusion_lat": 0.0, "bike_id": "4a18f985834ac7414e378baa13060a0a", "fusion_lon": 0.0, "lon": -77.02564466666666, "lat": 38.938591833333334, "is_reserved": 0, "is_disabled": 0, "rental_uris": {"android": "https://dc.lft.to/lastmile_qr_scan", "ios": "https://dc.lft.to/lastmile_qr_scan"}, "name": "4a18f985834ac7414e378baa13060a0a", "type": "electric_scooter"}, {"fusion_lat": 0.0, "bike_id": "0a323cb15c5e4c0dfd33c7873ae4c92e", "fusion_lon": 0.0, "lon": -77.03295516666667, "lat": 38.95651266666667, "is_reserved": 0, "is_disabled": 0, "rental_uris": {"android": "https://dc.lft.to/lastmile_qr_scan", "ios": "https://dc.lft.to/lastmile_qr_scan"}, "name": "0a323cb15c5e4c0dfd33c7873ae4c92e", "type": "electric_scooter"}, {"fusion_lat": 0.0, "bike_id": "88383695c4a33e648eabbf1ea5aa8c6a", "fusion_lon": 0.0, "lon": -76.95749216666667, "lat": 38.884244333333335, "is_reserved": 0, "is_disabled": 0, "rental_uris": {"android": "https://dc.lft.to/lastmile_qr_scan", "ios": "https://dc.lft.to/lastmile_qr_scan"}, "name": "88383695c4a33e648eabbf1ea5aa8c6a", "type": "electric_scooter"}, {"fusion_lat": 0.0, "bike_id": "6522a281676d440ad3914764189ce504", "fusion_lon": 0.0, "lon": -77.08029266666667, "lat": 38.950564166666666, "is_reserved": 0, "is_disabled": 0, "rental_uris": {"android": "https://dc.lft.to/lastmile_qr_scan", "ios": "https://dc.lft.to/lastmile_qr_scan"}, "name": "6522a281676d440ad3914764189ce504", "type": "electric_scooter"}, {"fusion_lat": 0.0, "bike_id": "715734773555ae28b253b59bd26f306e", "fusion_lon": 0.0, "lon": -76.99884333333333, "lat": 38.92056183333333, "is_reserved": 0, "is_disabled": 0, "rental_uris": {"android": "https://dc.lft.to/lastmile_qr_scan", "ios": "https://dc.lft.to/lastmile_qr_scan"}, "name": "715734773555ae28b253b59bd26f306e", "type": "electric_scooter"}, {"fusion_lat": 0.0, "bike_id": "a953d7c1af2c51633c1542a1e6ae8c96", "fusion_lon": 0.0, "lon": -77.03270933333333, "lat": 38.93101383333333, "is_reserved": 0, "is_disabled": 0, "rental_uris": {"android": "https://dc.lft.to/lastmile_qr_scan", "ios": "https://dc.lft.to/lastmile_qr_scan"}, "name": "a953d7c1af2c51633c1542a1e6ae8c96", "type": "electric_scooter"}, {"fusion_lat": 0.0, "bike_id": "af74da7eee768ea324bb46f6feb3ceff", "fusion_lon": 0.0, "lon": -77.02216266666667, "lat": 38.878951666666666, "is_reserved": 0, "is_disabled": 0, "rental_uris": {"android": "https://dc.lft.to/lastmile_qr_scan", "ios": "https://dc.lft.to/lastmile_qr_scan"}, "name": "af74da7eee768ea324bb46f6feb3ceff", "type": "electric_scooter"}, {"fusion_lat": 0.0, "bike_id": "eaab816ebcf5becb1ca7f5d875b19d37", "fusion_lon": 0.0, "lon": -77.0330835, "lat": 38.898287, "is_reserved": 0, "is_disabled": 0, "rental_uris": {"android": "https://dc.lft.to/lastmile_qr_scan", "ios": "https://dc.lft.to/lastmile_qr_scan"}, "name": "eaab816ebcf5becb1ca7f5d875b19d37", "type": "electric_scooter"}, {"fusion_lat": 0.0, "bike_id": "9ef19ba3c8c7ad8573f5cd0297deb974", "fusion_lon": 0.0, "lon": -77.03964916666666, "lat": 38.89218966666667, "is_reserved": 0, "is_disabled": 0, "rental_uris": {"android": "https://dc.lft.to/lastmile_qr_scan", "ios": "https://dc.lft.to/lastmile_qr_scan"}, "name": "9ef19ba3c8c7ad8573f5cd0297deb974", "type": "electric_scooter"}, {"fusion_lat": 0.0, "bike_id": "3f6708ed8d6bb932dbc510bb452f5953", "fusion_lon": 0.0, "lon": -77.02741833333333, "lat": 38.89721183333333, "is_reserved": 0, "is_disabled": 0, "rental_uris": {"android": "https://dc.lft.to/lastmile_qr_scan", "ios": "https://dc.lft.to/lastmile_qr_scan"}, "name": "3f6708ed8d6bb932dbc510bb452f5953", "type": "electric_scooter"}, {"fusion_lat": 0.0, "bike_id": "425225275244924cffe443d61bdca432", "fusion_lon": 0.0, "lon": -77.043378, "lat": 38.89220183333333, "is_reserved": 0, "is_disabled": 0, "rental_uris": {"android": "https://dc.lft.to/lastmile_qr_scan", "ios": "https://dc.lft.to/lastmile_qr_scan"}, "name": "425225275244924cffe443d61bdca432", "type": "electric_scooter"}, {"fusion_lat": 0.0, "bike_id": "5cf947dc564c65ec54a573adcbf9ae66", "fusion_lon": 0.0, "lon": -77.04183016666667, "lat": 38.923033833333335, "is_reserved": 0, "is_disabled": 0, "rental_uris": {"android": "https://dc.lft.to/lastmile_qr_scan", "ios": "https://dc.lft.to/lastmile_qr_scan"}, "name": "5cf947dc564c65ec54a573adcbf9ae66", "type": "electric_scooter"}, {"fusion_lat": 0.0, "bike_id": "28d814a8cef7efdd8c23b7e446ad9900", "fusion_lon": 0.0, "lon": -77.03181733333334, "lat": 38.9174515, "is_reserved": 0, "is_disabled": 0, "rental_uris": {"android": "https://dc.lft.to/lastmile_qr_scan", "ios": "https://dc.lft.to/lastmile_qr_scan"}, "name": "28d814a8cef7efdd8c23b7e446ad9900", "type": "electric_scooter"}, {"fusion_lat": 0.0, "bike_id": "9ae85bbe803ab272c72fbae65d6254f0", "fusion_lon": 0.0, "lon": -77.0197715, "lat": 38.88394533333334, "is_reserved": 0, "is_disabled": 0, "rental_uris": {"android": "https://dc.lft.to/lastmile_qr_scan", "ios": "https://dc.lft.to/lastmile_qr_scan"}, "name": "9ae85bbe803ab272c72fbae65d6254f0", "type": "electric_scooter"}, {"fusion_lat": 0.0, "bike_id": "7e5083acbe13a51cd0bf63693ea41e7a", "fusion_lon": 0.0, "lon": -76.99004866666667, "lat": 38.865103833333336, "is_reserved": 0, "is_disabled": 0, "rental_uris": {"android": "https://dc.lft.to/lastmile_qr_scan", "ios": "https://dc.lft.to/lastmile_qr_scan"}, "name": "7e5083acbe13a51cd0bf63693ea41e7a", "type": "electric_scooter"}, {"fusion_lat": 0.0, "bike_id": "3aae17e54269c214e17083bb331a67f1", "fusion_lon": 0.0, "lon": -76.993749, "lat": 38.879706166666665, "is_reserved": 0, "is_disabled": 0, "rental_uris": {"android": "https://dc.lft.to/lastmile_qr_scan", "ios": "https://dc.lft.to/lastmile_qr_scan"}, "name": "3aae17e54269c214e17083bb331a67f1", "type": "electric_scooter"}, {"fusion_lat": 0.0, "bike_id": "11d316f8d43f5ec36c6785099fb6dc7f", "fusion_lon": 0.0, "lon": -77.03813383333333, "lat": 38.90657383333333, "is_reserved": 0, "is_disabled": 0, "rental_uris": {"android": "https://dc.lft.to/lastmile_qr_scan", "ios": "https://dc.lft.to/lastmile_qr_scan"}, "name": "11d316f8d43f5ec36c6785099fb6dc7f", "type": "electric_scooter"}, {"fusion_lat": 0.0, "bike_id": "b5572199a939eda182de53862a94b92e", "fusion_lon": 0.0, "lon": -77.03744033333334, "lat": 38.918058, "is_reserved": 0, "is_disabled": 0, "rental_uris": {"android": "https://dc.lft.to/lastmile_qr_scan", "ios": "https://dc.lft.to/lastmile_qr_scan"}, "name": "b5572199a939eda182de53862a94b92e", "type": "electric_scooter"}, {"fusion_lat": 0.0, "bike_id": "6ceeb2c469edf3fe3347739e1fe0df8a", "fusion_lon": 0.0, "lon": -76.98858233333333, "lat": 38.86729533333333, "is_reserved": 0, "is_disabled": 0, "rental_uris": {"android": "https://dc.lft.to/lastmile_qr_scan", "ios": "https://dc.lft.to/lastmile_qr_scan"}, "name": "6ceeb2c469edf3fe3347739e1fe0df8a", "type": "electric_scooter"}, {"fusion_lat": 0.0, "bike_id": "65329164d45ff1a609caf8cdce9d2371", "fusion_lon": 0.0, "lon": -77.01737616666666, "lat": 38.88744116666667, "is_reserved": 0, "is_disabled": 0, "rental_uris": {"android": "https://dc.lft.to/lastmile_qr_scan", "ios": "https://dc.lft.to/lastmile_qr_scan"}, "name": "65329164d45ff1a609caf8cdce9d2371", "type": "electric_scooter"}, {"fusion_lat": 0.0, "bike_id": "93dbdfa5b797f3c0641fc39ff1fbcb6c", "fusion_lon": 0.0, "lon": -77.02089366666667, "lat": 38.88187166666667, "is_reserved": 0, "is_disabled": 0, "rental_uris": {"android": "https://dc.lft.to/lastmile_qr_scan", "ios": "https://dc.lft.to/lastmile_qr_scan"}, "name": "93dbdfa5b797f3c0641fc39ff1fbcb6c", "type": "electric_scooter"}, {"fusion_lat": 0.0, "bike_id": "eac717ff48401dfff71fbea358a56bb3", "fusion_lon": 0.0, "lon": -77.0134635, "lat": 38.878113166666665, "is_reserved": 0, "is_disabled": 0, "rental_uris": {"android": "https://dc.lft.to/lastmile_qr_scan", "ios": "https://dc.lft.to/lastmile_qr_scan"}, "name": "eac717ff48401dfff71fbea358a56bb3", "type": "electric_scooter"}, {"fusion_lat": 0.0, "bike_id": "8f0c0749759257167bab8bc0d283730a", "fusion_lon": 0.0, "lon": -77.02292533333333, "lat": 38.90784583333333, "is_reserved": 0, "is_disabled": 0, "rental_uris": {"android": "https://dc.lft.to/lastmile_qr_scan", "ios": "https://dc.lft.to/lastmile_qr_scan"}, "name": "8f0c0749759257167bab8bc0d283730a", "type": "electric_scooter"}, {"fusion_lat": 0.0, "bike_id": "c5afa7fe1bad793cd185bb72604a296d", "fusion_lon": 0.0, "lon": -77.03756366666667, "lat": 38.907772333333334, "is_reserved": 0, "is_disabled": 0, "rental_uris": {"android": "https://dc.lft.to/lastmile_qr_scan", "ios": "https://dc.lft.to/lastmile_qr_scan"}, "name": "c5afa7fe1bad793cd185bb72604a296d", "type": "electric_scooter"}, {"fusion_lat": 0.0, "bike_id": "62d7d2a4678ae540c9c7a10e2614a9ea", "fusion_lon": 0.0, "lon": -77.02878033333333, "lat": 38.9169455, "is_reserved": 0, "is_disabled": 0, "rental_uris": {"android": "https://dc.lft.to/lastmile_qr_scan", "ios": "https://dc.lft.to/lastmile_qr_scan"}, "name": "62d7d2a4678ae540c9c7a10e2614a9ea", "type": "electric_scooter"}, {"fusion_lat": 0.0, "bike_id": "3c5ae125f09b5326cf7c73aefa97834e", "fusion_lon": 0.0, "lon": -77.03443433333334, "lat": 38.9330035, "is_reserved": 0, "is_disabled": 0, "rental_uris": {"android": "https://dc.lft.to/lastmile_qr_scan", "ios": "https://dc.lft.to/lastmile_qr_scan"}, "name": "3c5ae125f09b5326cf7c73aefa97834e", "type": "electric_scooter"}, {"fusion_lat": 0.0, "bike_id": "6aa3f1f47724713beda3826d13ecb231", "fusion_lon": 0.0, "lon": -76.9819705, "lat": 38.96738366666666, "is_reserved": 0, "is_disabled": 0, "rental_uris": {"android": "https://dc.lft.to/lastmile_qr_scan", "ios": "https://dc.lft.to/lastmile_qr_scan"}, "name": "6aa3f1f47724713beda3826d13ecb231", "type": "electric_bike"}, {"fusion_lat": 0.0, "bike_id": "3c2925ef142cd5496cc291c982f068c1", "fusion_lon": 0.0, "lon": -77.02777216666667, "lat": 38.89199033333333, "is_reserved": 0, "is_disabled": 0, "rental_uris": {"android": "https://dc.lft.to/lastmile_qr_scan", "ios": "https://dc.lft.to/lastmile_qr_scan"}, "name": "3c2925ef142cd5496cc291c982f068c1", "type": "electric_scooter"}, {"fusion_lat": 0.0, "bike_id": "bcae5fbc7f11020fa7aa30e6f9b9713c", "fusion_lon": 0.0, "lon": -77.02847766666666, "lat": 38.9341645, "is_reserved": 0, "is_disabled": 0, "rental_uris": {"android": "https://dc.lft.to/lastmile_qr_scan", "ios": "https://dc.lft.to/lastmile_qr_scan"}, "name": "bcae5fbc7f11020fa7aa30e6f9b9713c", "type": "electric_scooter"}, {"fusion_lat": 0.0, "bike_id": "acc41031b0fd52c14ba04394777a3713", "fusion_lon": 0.0, "lon": -77.06655616666667, "lat": 38.905928833333334, "is_reserved": 0, "is_disabled": 0, "rental_uris": {"android": "https://dc.lft.to/lastmile_qr_scan", "ios": "https://dc.lft.to/lastmile_qr_scan"}, "name": "acc41031b0fd52c14ba04394777a3713", "type": "electric_scooter"}, {"fusion_lat": 0.0, "bike_id": "f0278dd6b7ae40a937943f29d78025ea", "fusion_lon": 0.0, "lon": -77.03390933333333, "lat": 38.9072675, "is_reserved": 0, "is_disabled": 0, "rental_uris": {"android": "https://dc.lft.to/lastmile_qr_scan", "ios": "https://dc.lft.to/lastmile_qr_scan"}, "name": "f0278dd6b7ae40a937943f29d78025ea", "type": "electric_scooter"}, {"fusion_lat": 0.0, "bike_id": "b88b0df2c5772e1269282abd7d330df8", "fusion_lon": 0.0, "lon": -76.99839333333334, "lat": 38.894586, "is_reserved": 0, "is_disabled": 0, "rental_uris": {"android": "https://dc.lft.to/lastmile_qr_scan", "ios": "https://dc.lft.to/lastmile_qr_scan"}, "name": "b88b0df2c5772e1269282abd7d330df8", "type": "electric_scooter"}, {"fusion_lat": 0.0, "bike_id": "2f12ea9e9de970227c61591b6d868a8c", "fusion_lon": 0.0, "lon": -77.0534025, "lat": 38.85260783333333, "is_reserved": 0, "is_disabled": 0, "rental_uris": {"android": "https://dc.lft.to/lastmile_qr_scan", "ios": "https://dc.lft.to/lastmile_qr_scan"}, "name": "2f12ea9e9de970227c61591b6d868a8c", "type": "electric_bike"}, {"fusion_lat": 0.0, "bike_id": "c2f3ab62890d95a593642770fc448fa3", "fusion_lon": 0.0, "lon": -76.996849, "lat": 38.886968833333334, "is_reserved": 0, "is_disabled": 0, "rental_uris": {"android": "https://dc.lft.to/lastmile_qr_scan", "ios": "https://dc.lft.to/lastmile_qr_scan"}, "name": "c2f3ab62890d95a593642770fc448fa3", "type": "electric_scooter"}, {"fusion_lat": 0.0, "bike_id": "5277a84e1856c1d6aa359161380ebeca", "fusion_lon": 0.0, "lon": -77.0343955, "lat": 38.9179925, "is_reserved": 0, "is_disabled": 0, "rental_uris": {"android": "https://dc.lft.to/lastmile_qr_scan", "ios": "https://dc.lft.to/lastmile_qr_scan"}, "name": "5277a84e1856c1d6aa359161380ebeca", "type": "electric_scooter"}, {"fusion_lat": 0.0, "bike_id": "9cc928b3974b41bd20b2a0f80db5d72b", "fusion_lon": 0.0, "lon": -77.0044555, "lat": 38.877455166666664, "is_reserved": 0, "is_disabled": 0, "rental_uris": {"android": "https://dc.lft.to/lastmile_qr_scan", "ios": "https://dc.lft.to/lastmile_qr_scan"}, "name": "9cc928b3974b41bd20b2a0f80db5d72b", "type": "electric_scooter"}, {"fusion_lat": 0.0, "bike_id": "4a9ed9eea860489c99c720010e244dea", "fusion_lon": 0.0, "lon": -77.0277555, "lat": 38.89194483333333, "is_reserved": 0, "is_disabled": 0, "rental_uris": {"android": "https://dc.lft.to/lastmile_qr_scan", "ios": "https://dc.lft.to/lastmile_qr_scan"}, "name": "4a9ed9eea860489c99c720010e244dea", "type": "electric_scooter"}, {"fusion_lat": 0.0, "bike_id": "c7147e3cf46639d658063bbdaf9bb4cb", "fusion_lon": 0.0, "lon": -76.93187183333333, "lat": 38.8987255, "is_reserved": 0, "is_disabled": 0, "rental_uris": {"android": "https://dc.lft.to/lastmile_qr_scan", "ios": "https://dc.lft.to/lastmile_qr_scan"}, "name": "c7147e3cf46639d658063bbdaf9bb4cb", "type": "electric_scooter"}, {"fusion_lat": 0.0, "bike_id": "57079ef9569bbb85e2154e7701da95ac", "fusion_lon": 0.0, "lon": -77.079044, "lat": 38.83932883333333, "is_reserved": 0, "is_disabled": 0, "rental_uris": {"android": "https://dc.lft.to/lastmile_qr_scan", "ios": "https://dc.lft.to/lastmile_qr_scan"}, "name": "57079ef9569bbb85e2154e7701da95ac", "type": "electric_bike"}, {"fusion_lat": 0.0, "bike_id": "3853afc5b5bed128ea27a8e1fa58ad6a", "fusion_lon": 0.0, "lon": -77.04033316666667, "lat": 38.901188166666664, "is_reserved": 0, "is_disabled": 0, "rental_uris": {"android": "https://dc.lft.to/lastmile_qr_scan", "ios": "https://dc.lft.to/lastmile_qr_scan"}, "name": "3853afc5b5bed128ea27a8e1fa58ad6a", "type": "electric_scooter"}, {"fusion_lat": 0.0, "bike_id": "3fb95b28ef0a8816ae3629723f3b3e74", "fusion_lon": 0.0, "lon": -77.0306605, "lat": 38.922459, "is_reserved": 0, "is_disabled": 0, "rental_uris": {"android": "https://dc.lft.to/lastmile_qr_scan", "ios": "https://dc.lft.to/lastmile_qr_scan"}, "name": "3fb95b28ef0a8816ae3629723f3b3e74", "type": "electric_scooter"}, {"fusion_lat": 0.0, "bike_id": "8ad96c5da241128cfaf6eae3192d3339", "fusion_lon": 0.0, "lon": -77.03676583333333, "lat": 38.92266983333333, "is_reserved": 0, "is_disabled": 0, "rental_uris": {"android": "https://dc.lft.to/lastmile_qr_scan", "ios": "https://dc.lft.to/lastmile_qr_scan"}, "name": "8ad96c5da241128cfaf6eae3192d3339", "type": "electric_scooter"}, {"fusion_lat": 0.0, "bike_id": "ca6a4076639e5167ffe738e4aff6b700", "fusion_lon": 0.0, "lon": -77.0360575, "lat": 38.934846666666665, "is_reserved": 0, "is_disabled": 0, "rental_uris": {"android": "https://dc.lft.to/lastmile_qr_scan", "ios": "https://dc.lft.to/lastmile_qr_scan"}, "name": "ca6a4076639e5167ffe738e4aff6b700", "type": "electric_scooter"}, {"fusion_lat": 0.0, "bike_id": "1eeda289ec2e26e006729e918842f5fc", "fusion_lon": 0.0, "lon": -77.04167633333333, "lat": 38.919807666666664, "is_reserved": 0, "is_disabled": 0, "rental_uris": {"android": "https://dc.lft.to/lastmile_qr_scan", "ios": "https://dc.lft.to/lastmile_qr_scan"}, "name": "1eeda289ec2e26e006729e918842f5fc", "type": "electric_scooter"}, {"fusion_lat": 0.0, "bike_id": "95c9ad1287ab5f7590100401ec94debb", "fusion_lon": 0.0, "lon": -77.059115, "lat": 38.903115166666666, "is_reserved": 0, "is_disabled": 0, "rental_uris": {"android": "https://dc.lft.to/lastmile_qr_scan", "ios": "https://dc.lft.to/lastmile_qr_scan"}, "name": "95c9ad1287ab5f7590100401ec94debb", "type": "electric_scooter"}, {"fusion_lat": 0.0, "bike_id": "4db94b84b5b2ece735451136d70f23b3", "fusion_lon": 0.0, "lon": -77.03107733333333, "lat": 38.915608166666665, "is_reserved": 0, "is_disabled": 0, "rental_uris": {"android": "https://dc.lft.to/lastmile_qr_scan", "ios": "https://dc.lft.to/lastmile_qr_scan"}, "name": "4db94b84b5b2ece735451136d70f23b3", "type": "electric_scooter"}, {"fusion_lat": 0.0, "bike_id": "3421e45dd1770b4b011c04db60167dcd", "fusion_lon": 0.0, "lon": -76.983627, "lat": 38.915522, "is_reserved": 0, "is_disabled": 0, "rental_uris": {"android": "https://dc.lft.to/lastmile_qr_scan", "ios": "https://dc.lft.to/lastmile_qr_scan"}, "name": "3421e45dd1770b4b011c04db60167dcd", "type": "electric_scooter"}, {"fusion_lat": 0.0, "bike_id": "dd8230c5a51629a29b432ba666002265", "fusion_lon": 0.0, "lon": -76.998802, "lat": 38.92059183333333, "is_reserved": 0, "is_disabled": 0, "rental_uris": {"android": "https://dc.lft.to/lastmile_qr_scan", "ios": "https://dc.lft.to/lastmile_qr_scan"}, "name": "dd8230c5a51629a29b432ba666002265", "type": "electric_scooter"}, {"fusion_lat": 0.0, "bike_id": "d4162c4c741cdb95884670367099ab18", "fusion_lon": 0.0, "lon": -77.02650983333334, "lat": 38.93860683333333, "is_reserved": 0, "is_disabled": 0, "rental_uris": {"android": "https://dc.lft.to/lastmile_qr_scan", "ios": "https://dc.lft.to/lastmile_qr_scan"}, "name": "d4162c4c741cdb95884670367099ab18", "type": "electric_scooter"}, {"fusion_lat": 0.0, "bike_id": "bc3192ae2d944c2c107ff5b81e9807e5", "fusion_lon": 0.0, "lon": -77.044996, "lat": 38.91415683333334, "is_reserved": 0, "is_disabled": 0, "rental_uris": {"android": "https://dc.lft.to/lastmile_qr_scan", "ios": "https://dc.lft.to/lastmile_qr_scan"}, "name": "bc3192ae2d944c2c107ff5b81e9807e5", "type": "electric_scooter"}, {"fusion_lat": 0.0, "bike_id": "7597dcde375dac06ed149d265e6f3723", "fusion_lon": 0.0, "lon": -76.99354516666666, "lat": 38.845018333333336, "is_reserved": 0, "is_disabled": 0, "rental_uris": {"android": "https://dc.lft.to/lastmile_qr_scan", "ios": "https://dc.lft.to/lastmile_qr_scan"}, "name": "7597dcde375dac06ed149d265e6f3723", "type": "electric_bike"}, {"fusion_lat": 0.0, "bike_id": "a5509964c26bc55f3d0c4f2887bd2f88", "fusion_lon": 0.0, "lon": -77.05004733333334, "lat": 38.89197, "is_reserved": 0, "is_disabled": 0, "rental_uris": {"android": "https://dc.lft.to/lastmile_qr_scan", "ios": "https://dc.lft.to/lastmile_qr_scan"}, "name": "a5509964c26bc55f3d0c4f2887bd2f88", "type": "electric_scooter"}, {"fusion_lat": 0.0, "bike_id": "e236305ddab162f37430241a2c015215", "fusion_lon": 0.0, "lon": -77.03295133333333, "lat": 38.910315, "is_reserved": 0, "is_disabled": 0, "rental_uris": {"android": "https://dc.lft.to/lastmile_qr_scan", "ios": "https://dc.lft.to/lastmile_qr_scan"}, "name": "e236305ddab162f37430241a2c015215", "type": "electric_scooter"}, {"fusion_lat": 0.0, "bike_id": "8ea96f1121915a6036a9f24c3224e80f", "fusion_lon": 0.0, "lon": -77.05045533333333, "lat": 38.923614666666666, "is_reserved": 0, "is_disabled": 0, "rental_uris": {"android": "https://dc.lft.to/lastmile_qr_scan", "ios": "https://dc.lft.to/lastmile_qr_scan"}, "name": "8ea96f1121915a6036a9f24c3224e80f", "type": "electric_scooter"}, {"fusion_lat": 0.0, "bike_id": "140ec67a7ca4f032267e72ccbcc03d00", "fusion_lon": 0.0, "lon": -76.95057516666667, "lat": 38.89304216666667, "is_reserved": 0, "is_disabled": 0, "rental_uris": {"android": "https://dc.lft.to/lastmile_qr_scan", "ios": "https://dc.lft.to/lastmile_qr_scan"}, "name": "140ec67a7ca4f032267e72ccbcc03d00", "type": "electric_scooter"}, {"fusion_lat": 0.0, "bike_id": "77deb5b38a21934c88167ecbc7cac3a4", "fusion_lon": 0.0, "lon": -77.04482866666666, "lat": 38.90542633333333, "is_reserved": 0, "is_disabled": 0, "rental_uris": {"android": "https://dc.lft.to/lastmile_qr_scan", "ios": "https://dc.lft.to/lastmile_qr_scan"}, "name": "77deb5b38a21934c88167ecbc7cac3a4", "type": "electric_scooter"}, {"fusion_lat": 0.0, "bike_id": "c4afdbb0b604d00bb8fe1729464f2049", "fusion_lon": 0.0, "lon": -77.03555066666667, "lat": 38.9338095, "is_reserved": 0, "is_disabled": 0, "rental_uris": {"android": "https://dc.lft.to/lastmile_qr_scan", "ios": "https://dc.lft.to/lastmile_qr_scan"}, "name": "c4afdbb0b604d00bb8fe1729464f2049", "type": "electric_scooter"}, {"fusion_lat": 0.0, "bike_id": "e5e162f8b3024b0c5cedcc7e85c774e2", "fusion_lon": 0.0, "lon": -76.9785955, "lat": 38.90722366666667, "is_reserved": 0, "is_disabled": 0, "rental_uris": {"android": "https://dc.lft.to/lastmile_qr_scan", "ios": "https://dc.lft.to/lastmile_qr_scan"}, "name": "e5e162f8b3024b0c5cedcc7e85c774e2", "type": "electric_scooter"}, {"fusion_lat": 0.0, "bike_id": "cd1c0a94c48f255c8b16b6f079d9fbb9", "fusion_lon": 0.0, "lon": -77.01779466666666, "lat": 38.88614366666667, "is_reserved": 0, "is_disabled": 0, "rental_uris": {"android": "https://dc.lft.to/lastmile_qr_scan", "ios": "https://dc.lft.to/lastmile_qr_scan"}, "name": "cd1c0a94c48f255c8b16b6f079d9fbb9", "type": "electric_scooter"}, {"fusion_lat": 0.0, "bike_id": "9c1a92a828ecf7420eb33c53deadcda9", "fusion_lon": 0.0, "lon": -77.02089183333334, "lat": 38.92906516666667, "is_reserved": 0, "is_disabled": 0, "rental_uris": {"android": "https://dc.lft.to/lastmile_qr_scan", "ios": "https://dc.lft.to/lastmile_qr_scan"}, "name": "9c1a92a828ecf7420eb33c53deadcda9", "type": "electric_scooter"}, {"fusion_lat": 0.0, "bike_id": "866728b55bae6bcd70ec6b100f2c680f", "fusion_lon": 0.0, "lon": -77.03929416666666, "lat": 38.89913583333333, "is_reserved": 0, "is_disabled": 0, "rental_uris": {"android": "https://dc.lft.to/lastmile_qr_scan", "ios": "https://dc.lft.to/lastmile_qr_scan"}, "name": "866728b55bae6bcd70ec6b100f2c680f", "type": "electric_scooter"}, {"fusion_lat": 0.0, "bike_id": "4d426d0dd1e9db873ba9eab9b644316a", "fusion_lon": 0.0, "lon": -77.03441533333333, "lat": 38.909806833333334, "is_reserved": 0, "is_disabled": 0, "rental_uris": {"android": "https://dc.lft.to/lastmile_qr_scan", "ios": "https://dc.lft.to/lastmile_qr_scan"}, "name": "4d426d0dd1e9db873ba9eab9b644316a", "type": "electric_scooter"}, {"fusion_lat": 0.0, "bike_id": "18c8012f6e0e008563673b2fc6204af1", "fusion_lon": 0.0, "lon": -77.04673366666667, "lat": 38.892320833333336, "is_reserved": 0, "is_disabled": 0, "rental_uris": {"android": "https://dc.lft.to/lastmile_qr_scan", "ios": "https://dc.lft.to/lastmile_qr_scan"}, "name": "18c8012f6e0e008563673b2fc6204af1", "type": "electric_scooter"}, {"fusion_lat": 0.0, "bike_id": "152e133a5815fc686a0eaf1f578658e8", "fusion_lon": 0.0, "lon": -77.05386333333334, "lat": 38.927593, "is_reserved": 0, "is_disabled": 0, "rental_uris": {"android": "https://dc.lft.to/lastmile_qr_scan", "ios": "https://dc.lft.to/lastmile_qr_scan"}, "name": "152e133a5815fc686a0eaf1f578658e8", "type": "electric_scooter"}, {"fusion_lat": 0.0, "bike_id": "b3e38a740df3d0e3c6216742dafefc5a", "fusion_lon": 0.0, "lon": -77.03847633333334, "lat": 38.91215483333333, "is_reserved": 0, "is_disabled": 0, "rental_uris": {"android": "https://dc.lft.to/lastmile_qr_scan", "ios": "https://dc.lft.to/lastmile_qr_scan"}, "name": "b3e38a740df3d0e3c6216742dafefc5a", "type": "electric_scooter"}, {"fusion_lat": 0.0, "bike_id": "799de6e8b94fbe6c0b9d70601462a936", "fusion_lon": 0.0, "lon": -77.0487765, "lat": 38.892326, "is_reserved": 0, "is_disabled": 0, "rental_uris": {"android": "https://dc.lft.to/lastmile_qr_scan", "ios": "https://dc.lft.to/lastmile_qr_scan"}, "name": "799de6e8b94fbe6c0b9d70601462a936", "type": "electric_scooter"}, {"fusion_lat": 0.0, "bike_id": "ec43c6c3f93dc2bae1836913d9cc3b70", "fusion_lon": 0.0, "lon": -76.9488735, "lat": 38.895058166666665, "is_reserved": 0, "is_disabled": 0, "rental_uris": {"android": "https://dc.lft.to/lastmile_qr_scan", "ios": "https://dc.lft.to/lastmile_qr_scan"}, "name": "ec43c6c3f93dc2bae1836913d9cc3b70", "type": "electric_scooter"}, {"fusion_lat": 0.0, "bike_id": "fd0184cc059a84e872654311e7ca4ad4", "fusion_lon": 0.0, "lon": -77.03134633333333, "lat": 38.91549216666667, "is_reserved": 0, "is_disabled": 0, "rental_uris": {"android": "https://dc.lft.to/lastmile_qr_scan", "ios": "https://dc.lft.to/lastmile_qr_scan"}, "name": "fd0184cc059a84e872654311e7ca4ad4", "type": "electric_scooter"}, {"fusion_lat": 0.0, "bike_id": "6b568a999d3372068ce0d44beeec25f7", "fusion_lon": 0.0, "lon": -77.11156166666666, "lat": 38.855103, "is_reserved": 0, "is_disabled": 0, "rental_uris": {"android": "https://dc.lft.to/lastmile_qr_scan", "ios": "https://dc.lft.to/lastmile_qr_scan"}, "name": "6b568a999d3372068ce0d44beeec25f7", "type": "electric_bike"}, {"fusion_lat": 0.0, "bike_id": "40af3f4d03ad107231b7ff562cd499b9", "fusion_lon": 0.0, "lon": -77.034696, "lat": 38.91706816666667, "is_reserved": 0, "is_disabled": 0, "rental_uris": {"android": "https://dc.lft.to/lastmile_qr_scan", "ios": "https://dc.lft.to/lastmile_qr_scan"}, "name": "40af3f4d03ad107231b7ff562cd499b9", "type": "electric_scooter"}, {"fusion_lat": 0.0, "bike_id": "2b0b12a1b7065069afc18c8e7805153d", "fusion_lon": 0.0, "lon": -77.00132466666666, "lat": 38.91241016666667, "is_reserved": 0, "is_disabled": 0, "rental_uris": {"android": "https://dc.lft.to/lastmile_qr_scan", "ios": "https://dc.lft.to/lastmile_qr_scan"}, "name": "2b0b12a1b7065069afc18c8e7805153d", "type": "electric_scooter"}, {"fusion_lat": 0.0, "bike_id": "80fa00705db4e28234880de782244610", "fusion_lon": 0.0, "lon": -77.04234483333333, "lat": 38.92182866666667, "is_reserved": 0, "is_disabled": 0, "rental_uris": {"android": "https://dc.lft.to/lastmile_qr_scan", "ios": "https://dc.lft.to/lastmile_qr_scan"}, "name": "80fa00705db4e28234880de782244610", "type": "electric_scooter"}, {"fusion_lat": 0.0, "bike_id": "e4e123cd9d8bfcd0431e5e535f0bba9a", "fusion_lon": 0.0, "lon": -77.03206583333333, "lat": 38.916441166666665, "is_reserved": 0, "is_disabled": 0, "rental_uris": {"android": "https://dc.lft.to/lastmile_qr_scan", "ios": "https://dc.lft.to/lastmile_qr_scan"}, "name": "e4e123cd9d8bfcd0431e5e535f0bba9a", "type": "electric_scooter"}, {"fusion_lat": 0.0, "bike_id": "e944c9e161cba92011d17017313ee14e", "fusion_lon": 0.0, "lon": -77.05893183333333, "lat": 38.93603066666667, "is_reserved": 0, "is_disabled": 0, "rental_uris": {"android": "https://dc.lft.to/lastmile_qr_scan", "ios": "https://dc.lft.to/lastmile_qr_scan"}, "name": "e944c9e161cba92011d17017313ee14e", "type": "electric_scooter"}, {"fusion_lat": 0.0, "bike_id": "d3ab1a91643d56d1fbc89850e1b54fe2", "fusion_lon": 0.0, "lon": -77.06164816666667, "lat": 38.91296833333333, "is_reserved": 0, "is_disabled": 0, "rental_uris": {"android": "https://dc.lft.to/lastmile_qr_scan", "ios": "https://dc.lft.to/lastmile_qr_scan"}, "name": "d3ab1a91643d56d1fbc89850e1b54fe2", "type": "electric_scooter"}, {"fusion_lat": 0.0, "bike_id": "fb7665877d1773460f7ac8199b956710", "fusion_lon": 0.0, "lon": -77.04361766666666, "lat": 39.01538383333333, "is_reserved": 0, "is_disabled": 0, "rental_uris": {"android": "https://dc.lft.to/lastmile_qr_scan", "ios": "https://dc.lft.to/lastmile_qr_scan"}, "name": "fb7665877d1773460f7ac8199b956710", "type": "electric_bike"}, {"fusion_lat": 0.0, "bike_id": "79ac0f290b665062cb3740e4a60da391", "fusion_lon": 0.0, "lon": -77.01185783333334, "lat": 38.90018416666667, "is_reserved": 0, "is_disabled": 0, "rental_uris": {"android": "https://dc.lft.to/lastmile_qr_scan", "ios": "https://dc.lft.to/lastmile_qr_scan"}, "name": "79ac0f290b665062cb3740e4a60da391", "type": "electric_scooter"}, {"fusion_lat": 0.0, "bike_id": "c430a68ae396216a24a826c4f9fb11a2", "fusion_lon": 0.0, "lon": -77.03364433333333, "lat": 38.90120183333333, "is_reserved": 0, "is_disabled": 0, "rental_uris": {"android": "https://dc.lft.to/lastmile_qr_scan", "ios": "https://dc.lft.to/lastmile_qr_scan"}, "name": "c430a68ae396216a24a826c4f9fb11a2", "type": "electric_scooter"}, {"fusion_lat": 0.0, "bike_id": "e131d587fc151368debce291f8799fd9", "fusion_lon": 0.0, "lon": -77.0145335, "lat": 38.92979866666667, "is_reserved": 0, "is_disabled": 0, "rental_uris": {"android": "https://dc.lft.to/lastmile_qr_scan", "ios": "https://dc.lft.to/lastmile_qr_scan"}, "name": "e131d587fc151368debce291f8799fd9", "type": "electric_scooter"}, {"fusion_lat": 0.0, "bike_id": "6b59d037a65b4e552f812bff968d2324", "fusion_lon": 0.0, "lon": -77.02718366666667, "lat": 38.897806833333334, "is_reserved": 0, "is_disabled": 0, "rental_uris": {"android": "https://dc.lft.to/lastmile_qr_scan", "ios": "https://dc.lft.to/lastmile_qr_scan"}, "name": "6b59d037a65b4e552f812bff968d2324", "type": "electric_scooter"}, {"fusion_lat": 0.0, "bike_id": "0a172f5e18b63084489056ec85bd32f6", "fusion_lon": 0.0, "lon": -76.933571, "lat": 38.888009333333336, "is_reserved": 0, "is_disabled": 0, "rental_uris": {"android": "https://dc.lft.to/lastmile_qr_scan", "ios": "https://dc.lft.to/lastmile_qr_scan"}, "name": "0a172f5e18b63084489056ec85bd32f6", "type": "electric_scooter"}, {"fusion_lat": 0.0, "bike_id": "6fc40b4feed135105e55a91d22538f74", "fusion_lon": 0.0, "lon": -77.04997533333334, "lat": 38.89230166666667, "is_reserved": 0, "is_disabled": 0, "rental_uris": {"android": "https://dc.lft.to/lastmile_qr_scan", "ios": "https://dc.lft.to/lastmile_qr_scan"}, "name": "6fc40b4feed135105e55a91d22538f74", "type": "electric_scooter"}, {"fusion_lat": 0.0, "bike_id": "ac9c2d07bdfa9f95de5dab6ebb0afbeb", "fusion_lon": 0.0, "lon": -77.02796166666667, "lat": 38.916956166666665, "is_reserved": 0, "is_disabled": 0, "rental_uris": {"android": "https://dc.lft.to/lastmile_qr_scan", "ios": "https://dc.lft.to/lastmile_qr_scan"}, "name": "ac9c2d07bdfa9f95de5dab6ebb0afbeb", "type": "electric_scooter"}, {"fusion_lat": 0.0, "bike_id": "5f7a8043e14eb5ca44ff9f772186f212", "fusion_lon": 0.0, "lon": -77.04605183333334, "lat": 38.902452833333335, "is_reserved": 0, "is_disabled": 0, "rental_uris": {"android": "https://dc.lft.to/lastmile_qr_scan", "ios": "https://dc.lft.to/lastmile_qr_scan"}, "name": "5f7a8043e14eb5ca44ff9f772186f212", "type": "electric_scooter"}, {"fusion_lat": 0.0, "bike_id": "392cce530e2f03485e6d898b0585df08", "fusion_lon": 0.0, "lon": -77.02438433333333, "lat": 38.9025495, "is_reserved": 0, "is_disabled": 0, "rental_uris": {"android": "https://dc.lft.to/lastmile_qr_scan", "ios": "https://dc.lft.to/lastmile_qr_scan"}, "name": "392cce530e2f03485e6d898b0585df08", "type": "electric_scooter"}, {"fusion_lat": 0.0, "bike_id": "8f3031e5b0c4880fff6d95d17595585f", "fusion_lon": 0.0, "lon": -76.99489216666667, "lat": 38.842158, "is_reserved": 0, "is_disabled": 0, "rental_uris": {"android": "https://dc.lft.to/lastmile_qr_scan", "ios": "https://dc.lft.to/lastmile_qr_scan"}, "name": "8f3031e5b0c4880fff6d95d17595585f", "type": "electric_scooter"}, {"fusion_lat": 0.0, "bike_id": "9e1c7306fcb31f74b336573019b97534", "fusion_lon": 0.0, "lon": -77.02952166666667, "lat": 38.916742666666664, "is_reserved": 0, "is_disabled": 0, "rental_uris": {"android": "https://dc.lft.to/lastmile_qr_scan", "ios": "https://dc.lft.to/lastmile_qr_scan"}, "name": "9e1c7306fcb31f74b336573019b97534", "type": "electric_scooter"}, {"fusion_lat": 0.0, "bike_id": "04b2a44c1ec42a408bcf10ae65f68818", "fusion_lon": 0.0, "lon": -77.04267466666667, "lat": 38.922307833333335, "is_reserved": 0, "is_disabled": 0, "rental_uris": {"android": "https://dc.lft.to/lastmile_qr_scan", "ios": "https://dc.lft.to/lastmile_qr_scan"}, "name": "04b2a44c1ec42a408bcf10ae65f68818", "type": "electric_scooter"}, {"fusion_lat": 0.0, "bike_id": "25b41e866245fe5373e589cb7760c529", "fusion_lon": 0.0, "lon": -77.03827633333333, "lat": 38.91031866666667, "is_reserved": 0, "is_disabled": 0, "rental_uris": {"android": "https://dc.lft.to/lastmile_qr_scan", "ios": "https://dc.lft.to/lastmile_qr_scan"}, "name": "25b41e866245fe5373e589cb7760c529", "type": "electric_scooter"}, {"fusion_lat": 0.0, "bike_id": "bf44a4d7c70dbde3a89c18bcfef62cb4", "fusion_lon": 0.0, "lon": -76.95475316666666, "lat": 38.8863645, "is_reserved": 0, "is_disabled": 0, "rental_uris": {"android": "https://dc.lft.to/lastmile_qr_scan", "ios": "https://dc.lft.to/lastmile_qr_scan"}, "name": "bf44a4d7c70dbde3a89c18bcfef62cb4", "type": "electric_scooter"}, {"fusion_lat": 0.0, "bike_id": "f5a62bb3380b2ad35c1d85fec6ecf94b", "fusion_lon": 0.0, "lon": -77.0418, "lat": 38.905366666666666, "is_reserved": 0, "is_disabled": 0, "rental_uris": {"android": "https://dc.lft.to/lastmile_qr_scan", "ios": "https://dc.lft.to/lastmile_qr_scan"}, "name": "f5a62bb3380b2ad35c1d85fec6ecf94b", "type": "electric_scooter"}, {"fusion_lat": 0.0, "bike_id": "b1c4282003960a22ec07bad2bec57f4e", "fusion_lon": 0.0, "lon": -77.05204366666666, "lat": 38.90305216666667, "is_reserved": 0, "is_disabled": 0, "rental_uris": {"android": "https://dc.lft.to/lastmile_qr_scan", "ios": "https://dc.lft.to/lastmile_qr_scan"}, "name": "b1c4282003960a22ec07bad2bec57f4e", "type": "electric_scooter"}, {"fusion_lat": 0.0, "bike_id": "66703a1c30531f9d2c9fb85940f4cfc2", "fusion_lon": 0.0, "lon": -77.043124, "lat": 38.90893166666667, "is_reserved": 0, "is_disabled": 0, "rental_uris": {"android": "https://dc.lft.to/lastmile_qr_scan", "ios": "https://dc.lft.to/lastmile_qr_scan"}, "name": "66703a1c30531f9d2c9fb85940f4cfc2", "type": "electric_scooter"}, {"fusion_lat": 0.0, "bike_id": "27d58bb56d044bb715a73e9cf22a58a9", "fusion_lon": 0.0, "lon": -77.03847483333334, "lat": 38.911983666666664, "is_reserved": 0, "is_disabled": 0, "rental_uris": {"android": "https://dc.lft.to/lastmile_qr_scan", "ios": "https://dc.lft.to/lastmile_qr_scan"}, "name": "27d58bb56d044bb715a73e9cf22a58a9", "type": "electric_scooter"}, {"fusion_lat": 0.0, "bike_id": "003139686783dc2e90b2f27c433182dd", "fusion_lon": 0.0, "lon": -77.031926, "lat": 38.91305783333333, "is_reserved": 0, "is_disabled": 0, "rental_uris": {"android": "https://dc.lft.to/lastmile_qr_scan", "ios": "https://dc.lft.to/lastmile_qr_scan"}, "name": "003139686783dc2e90b2f27c433182dd", "type": "electric_scooter"}, {"fusion_lat": 0.0, "bike_id": "ea693b0a081d822c057f2e5b0a75663e", "fusion_lon": 0.0, "lon": -77.006019, "lat": 38.87309916666667, "is_reserved": 0, "is_disabled": 0, "rental_uris": {"android": "https://dc.lft.to/lastmile_qr_scan", "ios": "https://dc.lft.to/lastmile_qr_scan"}, "name": "ea693b0a081d822c057f2e5b0a75663e", "type": "electric_scooter"}, {"fusion_lat": 0.0, "bike_id": "793750c4eca5d500e8ba0a7ba2042162", "fusion_lon": 0.0, "lon": -77.0319445, "lat": 38.89967683333333, "is_reserved": 0, "is_disabled": 0, "rental_uris": {"android": "https://dc.lft.to/lastmile_qr_scan", "ios": "https://dc.lft.to/lastmile_qr_scan"}, "name": "793750c4eca5d500e8ba0a7ba2042162", "type": "electric_scooter"}, {"fusion_lat": 0.0, "bike_id": "c04f191b78bc8cea3e25c5c08d7fe3ab", "fusion_lon": 0.0, "lon": -76.9883955, "lat": 38.901187166666666, "is_reserved": 0, "is_disabled": 0, "rental_uris": {"android": "https://dc.lft.to/lastmile_qr_scan", "ios": "https://dc.lft.to/lastmile_qr_scan"}, "name": "c04f191b78bc8cea3e25c5c08d7fe3ab", "type": "electric_scooter"}, {"fusion_lat": 0.0, "bike_id": "b68feb131460ab4450025e718e172324", "fusion_lon": 0.0, "lon": -77.0489065, "lat": 38.906053166666666, "is_reserved": 0, "is_disabled": 0, "rental_uris": {"android": "https://dc.lft.to/lastmile_qr_scan", "ios": "https://dc.lft.to/lastmile_qr_scan"}, "name": "b68feb131460ab4450025e718e172324", "type": "electric_scooter"}, {"fusion_lat": 0.0, "bike_id": "c98432eeddaa51cd9bb79ffa898af41f", "fusion_lon": 0.0, "lon": -77.03870933333333, "lat": 38.90640783333333, "is_reserved": 0, "is_disabled": 0, "rental_uris": {"android": "https://dc.lft.to/lastmile_qr_scan", "ios": "https://dc.lft.to/lastmile_qr_scan"}, "name": "c98432eeddaa51cd9bb79ffa898af41f", "type": "electric_scooter"}, {"fusion_lat": 0.0, "bike_id": "08052333f272fea54a2e3ddde3b976f4", "fusion_lon": 0.0, "lon": -77.02092766666667, "lat": 38.92708983333333, "is_reserved": 0, "is_disabled": 0, "rental_uris": {"android": "https://dc.lft.to/lastmile_qr_scan", "ios": "https://dc.lft.to/lastmile_qr_scan"}, "name": "08052333f272fea54a2e3ddde3b976f4", "type": "electric_scooter"}, {"fusion_lat": 0.0, "bike_id": "c1c7a384f2819bdb9d7a36fd65c1f7d2", "fusion_lon": 0.0, "lon": -77.01642133333333, "lat": 38.92900366666667, "is_reserved": 0, "is_disabled": 0, "rental_uris": {"android": "https://dc.lft.to/lastmile_qr_scan", "ios": "https://dc.lft.to/lastmile_qr_scan"}, "name": "c1c7a384f2819bdb9d7a36fd65c1f7d2", "type": "electric_scooter"}, {"fusion_lat": 0.0, "bike_id": "5dc5ad7a19a75bbb01aa7e728b449f3d", "fusion_lon": 0.0, "lon": -77.04674183333333, "lat": 38.89552533333333, "is_reserved": 0, "is_disabled": 0, "rental_uris": {"android": "https://dc.lft.to/lastmile_qr_scan", "ios": "https://dc.lft.to/lastmile_qr_scan"}, "name": "5dc5ad7a19a75bbb01aa7e728b449f3d", "type": "electric_scooter"}, {"fusion_lat": 0.0, "bike_id": "1f5349be243258ddd0cb5a7e9e26abd2", "fusion_lon": 0.0, "lon": -77.03641933333333, "lat": 38.92462283333333, "is_reserved": 0, "is_disabled": 0, "rental_uris": {"android": "https://dc.lft.to/lastmile_qr_scan", "ios": "https://dc.lft.to/lastmile_qr_scan"}, "name": "1f5349be243258ddd0cb5a7e9e26abd2", "type": "electric_scooter"}, {"fusion_lat": 0.0, "bike_id": "ab0507722a60bfcf1b9247239e77b599", "fusion_lon": 0.0, "lon": -77.09489883333333, "lat": 38.807609166666666, "is_reserved": 0, "is_disabled": 0, "rental_uris": {"android": "https://dc.lft.to/lastmile_qr_scan", "ios": "https://dc.lft.to/lastmile_qr_scan"}, "name": "ab0507722a60bfcf1b9247239e77b599", "type": "electric_bike"}, {"fusion_lat": 0.0, "bike_id": "0cf60b6d74d92d71daf5750c0cc7bcc0", "fusion_lon": 0.0, "lon": -77.03245516666667, "lat": 38.90855883333333, "is_reserved": 0, "is_disabled": 0, "rental_uris": {"android": "https://dc.lft.to/lastmile_qr_scan", "ios": "https://dc.lft.to/lastmile_qr_scan"}, "name": "0cf60b6d74d92d71daf5750c0cc7bcc0", "type": "electric_scooter"}, {"fusion_lat": 0.0, "bike_id": "31cac963fa6d1568bc3d972846668fc6", "fusion_lon": 0.0, "lon": -77.0385095, "lat": 38.9041765, "is_reserved": 0, "is_disabled": 0, "rental_uris": {"android": "https://dc.lft.to/lastmile_qr_scan", "ios": "https://dc.lft.to/lastmile_qr_scan"}, "name": "31cac963fa6d1568bc3d972846668fc6", "type": "electric_scooter"}, {"fusion_lat": 0.0, "bike_id": "10d067f6c88e1e6e8986a47a4fc8695f", "fusion_lon": 0.0, "lon": -77.02385866666667, "lat": 38.906918833333336, "is_reserved": 0, "is_disabled": 0, "rental_uris": {"android": "https://dc.lft.to/lastmile_qr_scan", "ios": "https://dc.lft.to/lastmile_qr_scan"}, "name": "10d067f6c88e1e6e8986a47a4fc8695f", "type": "electric_scooter"}, {"fusion_lat": 0.0, "bike_id": "a459f06402e9820bfb3b58e4ad74178a", "fusion_lon": 0.0, "lon": -77.0518305, "lat": 38.92378983333333, "is_reserved": 0, "is_disabled": 0, "rental_uris": {"android": "https://dc.lft.to/lastmile_qr_scan", "ios": "https://dc.lft.to/lastmile_qr_scan"}, "name": "a459f06402e9820bfb3b58e4ad74178a", "type": "electric_scooter"}, {"fusion_lat": 0.0, "bike_id": "da68c23c69d311762d55fe673bbbac32", "fusion_lon": 0.0, "lon": -77.08028083333333, "lat": 38.95057766666667, "is_reserved": 0, "is_disabled": 0, "rental_uris": {"android": "https://dc.lft.to/lastmile_qr_scan", "ios": "https://dc.lft.to/lastmile_qr_scan"}, "name": "da68c23c69d311762d55fe673bbbac32", "type": "electric_scooter"}, {"fusion_lat": 0.0, "bike_id": "fcf9d35f82891fbd0a500c574aa6c03c", "fusion_lon": 0.0, "lon": -77.031829, "lat": 38.92490016666667, "is_reserved": 0, "is_disabled": 0, "rental_uris": {"android": "https://dc.lft.to/lastmile_qr_scan", "ios": "https://dc.lft.to/lastmile_qr_scan"}, "name": "fcf9d35f82891fbd0a500c574aa6c03c", "type": "electric_scooter"}, {"fusion_lat": 0.0, "bike_id": "ae8171352682f050aead6f61898e5dc2", "fusion_lon": 0.0, "lon": -77.01071966666666, "lat": 38.89628, "is_reserved": 0, "is_disabled": 0, "rental_uris": {"android": "https://dc.lft.to/lastmile_qr_scan", "ios": "https://dc.lft.to/lastmile_qr_scan"}, "name": "ae8171352682f050aead6f61898e5dc2", "type": "electric_scooter"}, {"fusion_lat": 0.0, "bike_id": "81f651349d736883f6a453a1597bbdad", "fusion_lon": 0.0, "lon": -77.01740283333334, "lat": 38.88740266666667, "is_reserved": 0, "is_disabled": 0, "rental_uris": {"android": "https://dc.lft.to/lastmile_qr_scan", "ios": "https://dc.lft.to/lastmile_qr_scan"}, "name": "81f651349d736883f6a453a1597bbdad", "type": "electric_scooter"}, {"fusion_lat": 0.0, "bike_id": "32ea7faed4aff549cdc16289d72f4baa", "fusion_lon": 0.0, "lon": -77.03229683333333, "lat": 38.929884666666666, "is_reserved": 0, "is_disabled": 0, "rental_uris": {"android": "https://dc.lft.to/lastmile_qr_scan", "ios": "https://dc.lft.to/lastmile_qr_scan"}, "name": "32ea7faed4aff549cdc16289d72f4baa", "type": "electric_scooter"}, {"fusion_lat": 0.0, "bike_id": "bd11c8839159b13c647f0db01de28723", "fusion_lon": 0.0, "lon": -77.03196033333333, "lat": 38.913024666666665, "is_reserved": 0, "is_disabled": 0, "rental_uris": {"android": "https://dc.lft.to/lastmile_qr_scan", "ios": "https://dc.lft.to/lastmile_qr_scan"}, "name": "bd11c8839159b13c647f0db01de28723", "type": "electric_scooter"}, {"fusion_lat": 0.0, "bike_id": "943f115fc5e96906b6bd8a79baf406ae", "fusion_lon": 0.0, "lon": -77.031831, "lat": 38.89618466666667, "is_reserved": 0, "is_disabled": 0, "rental_uris": {"android": "https://dc.lft.to/lastmile_qr_scan", "ios": "https://dc.lft.to/lastmile_qr_scan"}, "name": "943f115fc5e96906b6bd8a79baf406ae", "type": "electric_scooter"}, {"fusion_lat": 0.0, "bike_id": "6135d3bf5d3156189247a75d50bcd35b", "fusion_lon": 0.0, "lon": -77.041115, "lat": 38.915527166666664, "is_reserved": 0, "is_disabled": 0, "rental_uris": {"android": "https://dc.lft.to/lastmile_qr_scan", "ios": "https://dc.lft.to/lastmile_qr_scan"}, "name": "6135d3bf5d3156189247a75d50bcd35b", "type": "electric_scooter"}, {"fusion_lat": 0.0, "bike_id": "07d44b139936480922e0cef4f409d3d8", "fusion_lon": 0.0, "lon": -77.09468883333334, "lat": 38.86937616666667, "is_reserved": 0, "is_disabled": 0, "rental_uris": {"android": "https://dc.lft.to/lastmile_qr_scan", "ios": "https://dc.lft.to/lastmile_qr_scan"}, "name": "07d44b139936480922e0cef4f409d3d8", "type": "electric_bike"}, {"fusion_lat": 0.0, "bike_id": "8eaa0ceb6cb5d31b8e6f23608dda0cfe", "fusion_lon": 0.0, "lon": -77.0329755, "lat": 38.89915, "is_reserved": 0, "is_disabled": 0, "rental_uris": {"android": "https://dc.lft.to/lastmile_qr_scan", "ios": "https://dc.lft.to/lastmile_qr_scan"}, "name": "8eaa0ceb6cb5d31b8e6f23608dda0cfe", "type": "electric_scooter"}, {"fusion_lat": 0.0, "bike_id": "bf4a63a4728d896d40a6a32b551199cb", "fusion_lon": 0.0, "lon": -77.00652883333333, "lat": 38.87155516666667, "is_reserved": 0, "is_disabled": 0, "rental_uris": {"android": "https://dc.lft.to/lastmile_qr_scan", "ios": "https://dc.lft.to/lastmile_qr_scan"}, "name": "bf4a63a4728d896d40a6a32b551199cb", "type": "electric_scooter"}, {"fusion_lat": 0.0, "bike_id": "5fad261cecb3f97e737c687fbaa855e5", "fusion_lon": 0.0, "lon": -77.04870433333333, "lat": 38.9072065, "is_reserved": 0, "is_disabled": 0, "rental_uris": {"android": "https://dc.lft.to/lastmile_qr_scan", "ios": "https://dc.lft.to/lastmile_qr_scan"}, "name": "5fad261cecb3f97e737c687fbaa855e5", "type": "electric_scooter"}, {"fusion_lat": 0.0, "bike_id": "16230b38ce2627d65bdf64a674d34934", "fusion_lon": 0.0, "lon": -77.036009, "lat": 38.9075435, "is_reserved": 0, "is_disabled": 0, "rental_uris": {"android": "https://dc.lft.to/lastmile_qr_scan", "ios": "https://dc.lft.to/lastmile_qr_scan"}, "name": "16230b38ce2627d65bdf64a674d34934", "type": "electric_scooter"}, {"fusion_lat": 0.0, "bike_id": "87e1a211fb1cbe5de0b01ea06bead2d5", "fusion_lon": 0.0, "lon": -77.03960933333333, "lat": 38.898592, "is_reserved": 0, "is_disabled": 0, "rental_uris": {"android": "https://dc.lft.to/lastmile_qr_scan", "ios": "https://dc.lft.to/lastmile_qr_scan"}, "name": "87e1a211fb1cbe5de0b01ea06bead2d5", "type": "electric_scooter"}, {"fusion_lat": 0.0, "bike_id": "ef15fd4d27138df1e208bd3acf7489cb", "fusion_lon": 0.0, "lon": -77.0186015, "lat": 38.91492733333333, "is_reserved": 0, "is_disabled": 0, "rental_uris": {"android": "https://dc.lft.to/lastmile_qr_scan", "ios": "https://dc.lft.to/lastmile_qr_scan"}, "name": "ef15fd4d27138df1e208bd3acf7489cb", "type": "electric_scooter"}, {"fusion_lat": 0.0, "bike_id": "b290ed47b52a9ab03a164b078742c9a7", "fusion_lon": 0.0, "lon": -77.03548533333333, "lat": 38.908220166666666, "is_reserved": 0, "is_disabled": 0, "rental_uris": {"android": "https://dc.lft.to/lastmile_qr_scan", "ios": "https://dc.lft.to/lastmile_qr_scan"}, "name": "b290ed47b52a9ab03a164b078742c9a7", "type": "electric_scooter"}, {"fusion_lat": 0.0, "bike_id": "69e5622517641ef5b2095bba3554c7f5", "fusion_lon": 0.0, "lon": -76.98147433333334, "lat": 38.905600166666666, "is_reserved": 0, "is_disabled": 0, "rental_uris": {"android": "https://dc.lft.to/lastmile_qr_scan", "ios": "https://dc.lft.to/lastmile_qr_scan"}, "name": "69e5622517641ef5b2095bba3554c7f5", "type": "electric_scooter"}, {"fusion_lat": 0.0, "bike_id": "657e0854f71b404d31cb85ea7645a763", "fusion_lon": 0.0, "lon": -77.04869533333333, "lat": 38.91329833333333, "is_reserved": 0, "is_disabled": 0, "rental_uris": {"android": "https://dc.lft.to/lastmile_qr_scan", "ios": "https://dc.lft.to/lastmile_qr_scan"}, "name": "657e0854f71b404d31cb85ea7645a763", "type": "electric_scooter"}, {"fusion_lat": 0.0, "bike_id": "76fadddb90a8d815baf03be0c6ffd6e8", "fusion_lon": 0.0, "lon": -77.04251366666666, "lat": 38.90010616666667, "is_reserved": 0, "is_disabled": 0, "rental_uris": {"android": "https://dc.lft.to/lastmile_qr_scan", "ios": "https://dc.lft.to/lastmile_qr_scan"}, "name": "76fadddb90a8d815baf03be0c6ffd6e8", "type": "electric_scooter"}, {"fusion_lat": 0.0, "bike_id": "4347a482efe081346820a45e4d6cdc76", "fusion_lon": 0.0, "lon": -77.04608683333333, "lat": 38.915525333333335, "is_reserved": 0, "is_disabled": 0, "rental_uris": {"android": "https://dc.lft.to/lastmile_qr_scan", "ios": "https://dc.lft.to/lastmile_qr_scan"}, "name": "4347a482efe081346820a45e4d6cdc76", "type": "electric_scooter"}, {"fusion_lat": 0.0, "bike_id": "7f7347e9ac738df7ab7d62ded0114f64", "fusion_lon": 0.0, "lon": -77.00528266666667, "lat": 38.92977783333333, "is_reserved": 0, "is_disabled": 0, "rental_uris": {"android": "https://dc.lft.to/lastmile_qr_scan", "ios": "https://dc.lft.to/lastmile_qr_scan"}, "name": "7f7347e9ac738df7ab7d62ded0114f64", "type": "electric_scooter"}, {"fusion_lat": 0.0, "bike_id": "21b0ac38e24f6c8ba146d48c5d770176", "fusion_lon": 0.0, "lon": -77.04487783333333, "lat": 38.892256, "is_reserved": 0, "is_disabled": 0, "rental_uris": {"android": "https://dc.lft.to/lastmile_qr_scan", "ios": "https://dc.lft.to/lastmile_qr_scan"}, "name": "21b0ac38e24f6c8ba146d48c5d770176", "type": "electric_scooter"}, {"fusion_lat": 0.0, "bike_id": "b56596dc5b9409a490edb587a70be11f", "fusion_lon": 0.0, "lon": -76.93063433333333, "lat": 38.883861333333336, "is_reserved": 0, "is_disabled": 0, "rental_uris": {"android": "https://dc.lft.to/lastmile_qr_scan", "ios": "https://dc.lft.to/lastmile_qr_scan"}, "name": "b56596dc5b9409a490edb587a70be11f", "type": "electric_scooter"}, {"fusion_lat": 0.0, "bike_id": "cc0adb19cbf9e1bcff3729406917c3a1", "fusion_lon": 0.0, "lon": -77.02268, "lat": 38.937581, "is_reserved": 0, "is_disabled": 0, "rental_uris": {"android": "https://dc.lft.to/lastmile_qr_scan", "ios": "https://dc.lft.to/lastmile_qr_scan"}, "name": "cc0adb19cbf9e1bcff3729406917c3a1", "type": "electric_scooter"}, {"fusion_lat": 0.0, "bike_id": "7095787b3f0e0dd0ab6b92400302476a", "fusion_lon": 0.0, "lon": -77.02041716666666, "lat": 38.9086715, "is_reserved": 0, "is_disabled": 0, "rental_uris": {"android": "https://dc.lft.to/lastmile_qr_scan", "ios": "https://dc.lft.to/lastmile_qr_scan"}, "name": "7095787b3f0e0dd0ab6b92400302476a", "type": "electric_scooter"}, {"fusion_lat": 0.0, "bike_id": "1d0c40f76ff784a63b6e947d68e673fa", "fusion_lon": 0.0, "lon": -77.054131, "lat": 38.950431333333334, "is_reserved": 0, "is_disabled": 0, "rental_uris": {"android": "https://dc.lft.to/lastmile_qr_scan", "ios": "https://dc.lft.to/lastmile_qr_scan"}, "name": "1d0c40f76ff784a63b6e947d68e673fa", "type": "electric_scooter"}, {"fusion_lat": 0.0, "bike_id": "1f4a825f5e53dc61441ff6e60016010d", "fusion_lon": 0.0, "lon": -77.0266495, "lat": 38.91688533333333, "is_reserved": 0, "is_disabled": 0, "rental_uris": {"android": "https://dc.lft.to/lastmile_qr_scan", "ios": "https://dc.lft.to/lastmile_qr_scan"}, "name": "1f4a825f5e53dc61441ff6e60016010d", "type": "electric_scooter"}, {"fusion_lat": 0.0, "bike_id": "96b4836bf5248f8172a7999208ad486e", "fusion_lon": 0.0, "lon": -77.01281633333333, "lat": 38.915618, "is_reserved": 0, "is_disabled": 0, "rental_uris": {"android": "https://dc.lft.to/lastmile_qr_scan", "ios": "https://dc.lft.to/lastmile_qr_scan"}, "name": "96b4836bf5248f8172a7999208ad486e", "type": "electric_scooter"}, {"fusion_lat": 0.0, "bike_id": "d691bfcc5dd4abd0b29be231eb4a7e39", "fusion_lon": 0.0, "lon": -77.02660433333334, "lat": 38.92175983333333, "is_reserved": 0, "is_disabled": 0, "rental_uris": {"android": "https://dc.lft.to/lastmile_qr_scan", "ios": "https://dc.lft.to/lastmile_qr_scan"}, "name": "d691bfcc5dd4abd0b29be231eb4a7e39", "type": "electric_scooter"}, {"fusion_lat": 0.0, "bike_id": "0ca652fcde7d02ea0f750f44a94227c9", "fusion_lon": 0.0, "lon": -77.04312516666667, "lat": 38.922182666666664, "is_reserved": 0, "is_disabled": 0, "rental_uris": {"android": "https://dc.lft.to/lastmile_qr_scan", "ios": "https://dc.lft.to/lastmile_qr_scan"}, "name": "0ca652fcde7d02ea0f750f44a94227c9", "type": "electric_scooter"}, {"fusion_lat": 0.0, "bike_id": "d05f6d61c8bf4dcd9e4059c9ca967188", "fusion_lon": 0.0, "lon": -77.0187845, "lat": 38.9376745, "is_reserved": 0, "is_disabled": 0, "rental_uris": {"android": "https://dc.lft.to/lastmile_qr_scan", "ios": "https://dc.lft.to/lastmile_qr_scan"}, "name": "d05f6d61c8bf4dcd9e4059c9ca967188", "type": "electric_bike"}, {"fusion_lat": 0.0, "bike_id": "68aa9da744c40e3d8b1208a1e561a6c4", "fusion_lon": 0.0, "lon": -77.04351766666667, "lat": 38.921714, "is_reserved": 0, "is_disabled": 0, "rental_uris": {"android": "https://dc.lft.to/lastmile_qr_scan", "ios": "https://dc.lft.to/lastmile_qr_scan"}, "name": "68aa9da744c40e3d8b1208a1e561a6c4", "type": "electric_scooter"}, {"fusion_lat": 0.0, "bike_id": "55ad5d84b414a90ebdf2bf3437cc5d6a", "fusion_lon": 0.0, "lon": -77.03174833333334, "lat": 38.891981, "is_reserved": 0, "is_disabled": 0, "rental_uris": {"android": "https://dc.lft.to/lastmile_qr_scan", "ios": "https://dc.lft.to/lastmile_qr_scan"}, "name": "55ad5d84b414a90ebdf2bf3437cc5d6a", "type": "electric_scooter"}, {"fusion_lat": 0.0, "bike_id": "cfd3dbbe4022e85e2e1a3debb3508b86", "fusion_lon": 0.0, "lon": -76.98525783333334, "lat": 38.86682733333333, "is_reserved": 0, "is_disabled": 0, "rental_uris": {"android": "https://dc.lft.to/lastmile_qr_scan", "ios": "https://dc.lft.to/lastmile_qr_scan"}, "name": "cfd3dbbe4022e85e2e1a3debb3508b86", "type": "electric_scooter"}, {"fusion_lat": 0.0, "bike_id": "9d7c3bd841aa5837e831b9760768f12c", "fusion_lon": 0.0, "lon": -77.04338466666667, "lat": 38.89219, "is_reserved": 0, "is_disabled": 0, "rental_uris": {"android": "https://dc.lft.to/lastmile_qr_scan", "ios": "https://dc.lft.to/lastmile_qr_scan"}, "name": "9d7c3bd841aa5837e831b9760768f12c", "type": "electric_scooter"}, {"fusion_lat": 0.0, "bike_id": "4af219e0671ed8e9e3252fee34480e02", "fusion_lon": 0.0, "lon": -77.027808, "lat": 38.89594783333333, "is_reserved": 0, "is_disabled": 0, "rental_uris": {"android": "https://dc.lft.to/lastmile_qr_scan", "ios": "https://dc.lft.to/lastmile_qr_scan"}, "name": "4af219e0671ed8e9e3252fee34480e02", "type": "electric_scooter"}, {"fusion_lat": 0.0, "bike_id": "81e5bb843f0b3d3cc1c4504a98351426", "fusion_lon": 0.0, "lon": -77.04145316666667, "lat": 38.901372, "is_reserved": 0, "is_disabled": 0, "rental_uris": {"android": "https://dc.lft.to/lastmile_qr_scan", "ios": "https://dc.lft.to/lastmile_qr_scan"}, "name": "81e5bb843f0b3d3cc1c4504a98351426", "type": "electric_scooter"}, {"fusion_lat": 0.0, "bike_id": "5ff3e5b22832151a4a45636e6c231fd8", "fusion_lon": 0.0, "lon": -77.04508083333333, "lat": 38.89218416666667, "is_reserved": 0, "is_disabled": 0, "rental_uris": {"android": "https://dc.lft.to/lastmile_qr_scan", "ios": "https://dc.lft.to/lastmile_qr_scan"}, "name": "5ff3e5b22832151a4a45636e6c231fd8", "type": "electric_scooter"}, {"fusion_lat": 0.0, "bike_id": "f98befae8851166939372c96d55b51dd", "fusion_lon": 0.0, "lon": -77.04416233333333, "lat": 38.897332666666664, "is_reserved": 0, "is_disabled": 0, "rental_uris": {"android": "https://dc.lft.to/lastmile_qr_scan", "ios": "https://dc.lft.to/lastmile_qr_scan"}, "name": "f98befae8851166939372c96d55b51dd", "type": "electric_scooter"}, {"fusion_lat": 0.0, "bike_id": "59788fc4c0d722eee84b7fe4e7bf9f92", "fusion_lon": 0.0, "lon": -77.01894483333334, "lat": 38.930875666666665, "is_reserved": 0, "is_disabled": 0, "rental_uris": {"android": "https://dc.lft.to/lastmile_qr_scan", "ios": "https://dc.lft.to/lastmile_qr_scan"}, "name": "59788fc4c0d722eee84b7fe4e7bf9f92", "type": "electric_scooter"}, {"fusion_lat": 0.0, "bike_id": "a3a8910ac66cfa14c5fd4b53eb0a47ea", "fusion_lon": 0.0, "lon": -77.00531483333333, "lat": 38.909814833333336, "is_reserved": 0, "is_disabled": 0, "rental_uris": {"android": "https://dc.lft.to/lastmile_qr_scan", "ios": "https://dc.lft.to/lastmile_qr_scan"}, "name": "a3a8910ac66cfa14c5fd4b53eb0a47ea", "type": "electric_scooter"}, {"fusion_lat": 0.0, "bike_id": "ce78b6025da14ebb94f0392e9e1ff25d", "fusion_lon": 0.0, "lon": -77.02445933333334, "lat": 38.91417283333333, "is_reserved": 0, "is_disabled": 0, "rental_uris": {"android": "https://dc.lft.to/lastmile_qr_scan", "ios": "https://dc.lft.to/lastmile_qr_scan"}, "name": "ce78b6025da14ebb94f0392e9e1ff25d", "type": "electric_scooter"}, {"fusion_lat": 0.0, "bike_id": "4c7b00500c36d70aaae35d8e26a42700", "fusion_lon": 0.0, "lon": -77.02391033333333, "lat": 38.89803833333333, "is_reserved": 0, "is_disabled": 0, "rental_uris": {"android": "https://dc.lft.to/lastmile_qr_scan", "ios": "https://dc.lft.to/lastmile_qr_scan"}, "name": "4c7b00500c36d70aaae35d8e26a42700", "type": "electric_scooter"}, {"fusion_lat": 0.0, "bike_id": "03d46129453b458dbffbc31cdc824484", "fusion_lon": 0.0, "lon": -77.00753683333333, "lat": 38.9072165, "is_reserved": 0, "is_disabled": 0, "rental_uris": {"android": "https://dc.lft.to/lastmile_qr_scan", "ios": "https://dc.lft.to/lastmile_qr_scan"}, "name": "03d46129453b458dbffbc31cdc824484", "type": "electric_scooter"}, {"fusion_lat": 0.0, "bike_id": "921a9db4e39a90926af61730fe208e1a", "fusion_lon": 0.0, "lon": -76.99061866666666, "lat": 38.86374633333333, "is_reserved": 0, "is_disabled": 0, "rental_uris": {"android": "https://dc.lft.to/lastmile_qr_scan", "ios": "https://dc.lft.to/lastmile_qr_scan"}, "name": "921a9db4e39a90926af61730fe208e1a", "type": "electric_scooter"}, {"fusion_lat": 0.0, "bike_id": "1335455ddd6d804f6b02688d59ee03e8", "fusion_lon": 0.0, "lon": -77.01762366666667, "lat": 38.87668716666667, "is_reserved": 0, "is_disabled": 0, "rental_uris": {"android": "https://dc.lft.to/lastmile_qr_scan", "ios": "https://dc.lft.to/lastmile_qr_scan"}, "name": "1335455ddd6d804f6b02688d59ee03e8", "type": "electric_scooter"}, {"fusion_lat": 0.0, "bike_id": "ccdce8465e63fd01558e8efca305e402", "fusion_lon": 0.0, "lon": -77.02386, "lat": 38.89235216666667, "is_reserved": 0, "is_disabled": 0, "rental_uris": {"android": "https://dc.lft.to/lastmile_qr_scan", "ios": "https://dc.lft.to/lastmile_qr_scan"}, "name": "ccdce8465e63fd01558e8efca305e402", "type": "electric_scooter"}, {"fusion_lat": 0.0, "bike_id": "e85ceccb1df9d57cead828a745b5dfeb", "fusion_lon": 0.0, "lon": -76.94884183333333, "lat": 38.8950935, "is_reserved": 0, "is_disabled": 0, "rental_uris": {"android": "https://dc.lft.to/lastmile_qr_scan", "ios": "https://dc.lft.to/lastmile_qr_scan"}, "name": "e85ceccb1df9d57cead828a745b5dfeb", "type": "electric_scooter"}, {"fusion_lat": 0.0, "bike_id": "57ca0735d78f1b7749705759bb5b678f", "fusion_lon": 0.0, "lon": -77.0003475, "lat": 38.897383833333336, "is_reserved": 0, "is_disabled": 0, "rental_uris": {"android": "https://dc.lft.to/lastmile_qr_scan", "ios": "https://dc.lft.to/lastmile_qr_scan"}, "name": "57ca0735d78f1b7749705759bb5b678f", "type": "electric_scooter"}, {"fusion_lat": 0.0, "bike_id": "ed135d9b77a0668b864ad5eb79c2d104", "fusion_lon": 0.0, "lon": -77.033933, "lat": 38.90269033333333, "is_reserved": 0, "is_disabled": 0, "rental_uris": {"android": "https://dc.lft.to/lastmile_qr_scan", "ios": "https://dc.lft.to/lastmile_qr_scan"}, "name": "ed135d9b77a0668b864ad5eb79c2d104", "type": "electric_scooter"}, {"fusion_lat": 0.0, "bike_id": "a0536152627b7da38165ce19564e2264", "fusion_lon": 0.0, "lon": -77.03172666666667, "lat": 38.8919725, "is_reserved": 0, "is_disabled": 0, "rental_uris": {"android": "https://dc.lft.to/lastmile_qr_scan", "ios": "https://dc.lft.to/lastmile_qr_scan"}, "name": "a0536152627b7da38165ce19564e2264", "type": "electric_scooter"}, {"fusion_lat": 0.0, "bike_id": "dd323a74bc3c3e4d92414950161bdbed", "fusion_lon": 0.0, "lon": -77.04703516666666, "lat": 38.9213485, "is_reserved": 0, "is_disabled": 0, "rental_uris": {"android": "https://dc.lft.to/lastmile_qr_scan", "ios": "https://dc.lft.to/lastmile_qr_scan"}, "name": "dd323a74bc3c3e4d92414950161bdbed", "type": "electric_scooter"}, {"fusion_lat": 0.0, "bike_id": "316f2c86d12f5196a7754db5763e5deb", "fusion_lon": 0.0, "lon": -77.0466535, "lat": 38.90437716666667, "is_reserved": 0, "is_disabled": 0, "rental_uris": {"android": "https://dc.lft.to/lastmile_qr_scan", "ios": "https://dc.lft.to/lastmile_qr_scan"}, "name": "316f2c86d12f5196a7754db5763e5deb", "type": "electric_scooter"}, {"fusion_lat": 0.0, "bike_id": "ca949c1120ca3a7f72175a4143064181", "fusion_lon": 0.0, "lon": -77.0515115, "lat": 38.923711, "is_reserved": 0, "is_disabled": 0, "rental_uris": {"android": "https://dc.lft.to/lastmile_qr_scan", "ios": "https://dc.lft.to/lastmile_qr_scan"}, "name": "ca949c1120ca3a7f72175a4143064181", "type": "electric_scooter"}, {"fusion_lat": 0.0, "bike_id": "ef371c5cfd6470cbc3b169129842dd8c", "fusion_lon": 0.0, "lon": -77.0332595, "lat": 38.90014016666667, "is_reserved": 0, "is_disabled": 0, "rental_uris": {"android": "https://dc.lft.to/lastmile_qr_scan", "ios": "https://dc.lft.to/lastmile_qr_scan"}, "name": "ef371c5cfd6470cbc3b169129842dd8c", "type": "electric_scooter"}, {"fusion_lat": 0.0, "bike_id": "fadb9eef083d7e519df4ac61576819ec", "fusion_lon": 0.0, "lon": -77.022761, "lat": 38.924777, "is_reserved": 0, "is_disabled": 0, "rental_uris": {"android": "https://dc.lft.to/lastmile_qr_scan", "ios": "https://dc.lft.to/lastmile_qr_scan"}, "name": "fadb9eef083d7e519df4ac61576819ec", "type": "electric_scooter"}, {"fusion_lat": 0.0, "bike_id": "5da3dfb8df7d967c58582dc3701986c4", "fusion_lon": 0.0, "lon": -77.03218333333334, "lat": 38.89220316666667, "is_reserved": 0, "is_disabled": 0, "rental_uris": {"android": "https://dc.lft.to/lastmile_qr_scan", "ios": "https://dc.lft.to/lastmile_qr_scan"}, "name": "5da3dfb8df7d967c58582dc3701986c4", "type": "electric_scooter"}, {"fusion_lat": 0.0, "bike_id": "143532b689b2868391483c9382a314cf", "fusion_lon": 0.0, "lon": -77.04267816666666, "lat": 38.89995033333334, "is_reserved": 0, "is_disabled": 0, "rental_uris": {"android": "https://dc.lft.to/lastmile_qr_scan", "ios": "https://dc.lft.to/lastmile_qr_scan"}, "name": "143532b689b2868391483c9382a314cf", "type": "electric_scooter"}, {"fusion_lat": 0.0, "bike_id": "f83e02901861646a2c152f34f404b229", "fusion_lon": 0.0, "lon": -77.041949, "lat": 38.89975316666667, "is_reserved": 0, "is_disabled": 0, "rental_uris": {"android": "https://dc.lft.to/lastmile_qr_scan", "ios": "https://dc.lft.to/lastmile_qr_scan"}, "name": "f83e02901861646a2c152f34f404b229", "type": "electric_scooter"}, {"fusion_lat": 0.0, "bike_id": "9d6194491fc71fdad4056724fe205545", "fusion_lon": 0.0, "lon": -77.03605466666667, "lat": 38.936842, "is_reserved": 0, "is_disabled": 0, "rental_uris": {"android": "https://dc.lft.to/lastmile_qr_scan", "ios": "https://dc.lft.to/lastmile_qr_scan"}, "name": "9d6194491fc71fdad4056724fe205545", "type": "electric_scooter"}, {"fusion_lat": 0.0, "bike_id": "f1b201fac71a85442a89db81a4ddf4fc", "fusion_lon": 0.0, "lon": -77.0449385, "lat": 38.915196333333334, "is_reserved": 0, "is_disabled": 0, "rental_uris": {"android": "https://dc.lft.to/lastmile_qr_scan", "ios": "https://dc.lft.to/lastmile_qr_scan"}, "name": "f1b201fac71a85442a89db81a4ddf4fc", "type": "electric_scooter"}, {"fusion_lat": 0.0, "bike_id": "fec7e8aee90ac0bc48002cf762dfb89c", "fusion_lon": 0.0, "lon": -77.03224283333333, "lat": 38.92583283333333, "is_reserved": 0, "is_disabled": 0, "rental_uris": {"android": "https://dc.lft.to/lastmile_qr_scan", "ios": "https://dc.lft.to/lastmile_qr_scan"}, "name": "fec7e8aee90ac0bc48002cf762dfb89c", "type": "electric_scooter"}, {"fusion_lat": 0.0, "bike_id": "1cba764ad824bf48936ab33cc68941ce", "fusion_lon": 0.0, "lon": -76.997965, "lat": 38.82908283333333, "is_reserved": 0, "is_disabled": 0, "rental_uris": {"android": "https://dc.lft.to/lastmile_qr_scan", "ios": "https://dc.lft.to/lastmile_qr_scan"}, "name": "1cba764ad824bf48936ab33cc68941ce", "type": "electric_bike"}, {"fusion_lat": 0.0, "bike_id": "acca06b3986d67cd008ad17ab7f14090", "fusion_lon": 0.0, "lon": -77.023169, "lat": 38.8947795, "is_reserved": 0, "is_disabled": 0, "rental_uris": {"android": "https://dc.lft.to/lastmile_qr_scan", "ios": "https://dc.lft.to/lastmile_qr_scan"}, "name": "acca06b3986d67cd008ad17ab7f14090", "type": "electric_scooter"}, {"fusion_lat": 0.0, "bike_id": "6856d11ced498bf3200d8c27af26f318", "fusion_lon": 0.0, "lon": -77.1171095, "lat": 38.867426, "is_reserved": 0, "is_disabled": 0, "rental_uris": {"android": "https://dc.lft.to/lastmile_qr_scan", "ios": "https://dc.lft.to/lastmile_qr_scan"}, "name": "6856d11ced498bf3200d8c27af26f318", "type": "electric_bike"}, {"fusion_lat": 0.0, "bike_id": "fb44dd786e45f8e5201b449d96c769b5", "fusion_lon": 0.0, "lon": -77.03094183333333, "lat": 38.910605833333335, "is_reserved": 0, "is_disabled": 0, "rental_uris": {"android": "https://dc.lft.to/lastmile_qr_scan", "ios": "https://dc.lft.to/lastmile_qr_scan"}, "name": "fb44dd786e45f8e5201b449d96c769b5", "type": "electric_scooter"}, {"fusion_lat": 0.0, "bike_id": "6f9e299f59553d335a4032d2c4015bfd", "fusion_lon": 0.0, "lon": -77.0258635, "lat": 38.918167833333335, "is_reserved": 0, "is_disabled": 0, "rental_uris": {"android": "https://dc.lft.to/lastmile_qr_scan", "ios": "https://dc.lft.to/lastmile_qr_scan"}, "name": "6f9e299f59553d335a4032d2c4015bfd", "type": "electric_scooter"}, {"fusion_lat": 0.0, "bike_id": "20ced0134e065fbac96ab8333248ca76", "fusion_lon": 0.0, "lon": -77.07621983333334, "lat": 38.965739166666665, "is_reserved": 0, "is_disabled": 0, "rental_uris": {"android": "https://dc.lft.to/lastmile_qr_scan", "ios": "https://dc.lft.to/lastmile_qr_scan"}, "name": "20ced0134e065fbac96ab8333248ca76", "type": "electric_bike"}, {"fusion_lat": 0.0, "bike_id": "b6f34f5ce5482467fbcbab301d8c8931", "fusion_lon": 0.0, "lon": -77.019189, "lat": 38.92377783333333, "is_reserved": 0, "is_disabled": 0, "rental_uris": {"android": "https://dc.lft.to/lastmile_qr_scan", "ios": "https://dc.lft.to/lastmile_qr_scan"}, "name": "b6f34f5ce5482467fbcbab301d8c8931", "type": "electric_scooter"}, {"fusion_lat": 0.0, "bike_id": "78e098374f5ce20f478fac7513733655", "fusion_lon": 0.0, "lon": -76.95750866666667, "lat": 38.884257166666664, "is_reserved": 0, "is_disabled": 0, "rental_uris": {"android": "https://dc.lft.to/lastmile_qr_scan", "ios": "https://dc.lft.to/lastmile_qr_scan"}, "name": "78e098374f5ce20f478fac7513733655", "type": "electric_scooter"}, {"fusion_lat": 0.0, "bike_id": "40ea899910171590223b7a6bb875d1b8", "fusion_lon": 0.0, "lon": -77.03517, "lat": 38.965173, "is_reserved": 0, "is_disabled": 0, "rental_uris": {"android": "https://dc.lft.to/lastmile_qr_scan", "ios": "https://dc.lft.to/lastmile_qr_scan"}, "name": "40ea899910171590223b7a6bb875d1b8", "type": "electric_bike"}, {"fusion_lat": 0.0, "bike_id": "8a4463708d1303d6944e4d4799b35224", "fusion_lon": 0.0, "lon": -77.02140316666667, "lat": 38.924865, "is_reserved": 0, "is_disabled": 0, "rental_uris": {"android": "https://dc.lft.to/lastmile_qr_scan", "ios": "https://dc.lft.to/lastmile_qr_scan"}, "name": "8a4463708d1303d6944e4d4799b35224", "type": "electric_scooter"}, {"fusion_lat": 0.0, "bike_id": "f3ceb15fbd0872e7ab80845539dedd57", "fusion_lon": 0.0, "lon": -77.02581416666666, "lat": 38.900748666666665, "is_reserved": 0, "is_disabled": 0, "rental_uris": {"android": "https://dc.lft.to/lastmile_qr_scan", "ios": "https://dc.lft.to/lastmile_qr_scan"}, "name": "f3ceb15fbd0872e7ab80845539dedd57", "type": "electric_scooter"}, {"fusion_lat": 0.0, "bike_id": "7c8d23e0747edaaa9ad390e0282d873b", "fusion_lon": 0.0, "lon": -77.03207033333334, "lat": 38.91133283333333, "is_reserved": 0, "is_disabled": 0, "rental_uris": {"android": "https://dc.lft.to/lastmile_qr_scan", "ios": "https://dc.lft.to/lastmile_qr_scan"}, "name": "7c8d23e0747edaaa9ad390e0282d873b", "type": "electric_scooter"}, {"fusion_lat": 0.0, "bike_id": "fe7d9aa8a87bb214a3aad01f592c063a", "fusion_lon": 0.0, "lon": -77.02480183333333, "lat": 38.8848695, "is_reserved": 0, "is_disabled": 0, "rental_uris": {"android": "https://dc.lft.to/lastmile_qr_scan", "ios": "https://dc.lft.to/lastmile_qr_scan"}, "name": "fe7d9aa8a87bb214a3aad01f592c063a", "type": "electric_scooter"}, {"fusion_lat": 0.0, "bike_id": "beeda62767f173a1fbbec4fa939c8ea7", "fusion_lon": 0.0, "lon": -77.044949, "lat": 38.90247733333333, "is_reserved": 0, "is_disabled": 0, "rental_uris": {"android": "https://dc.lft.to/lastmile_qr_scan", "ios": "https://dc.lft.to/lastmile_qr_scan"}, "name": "beeda62767f173a1fbbec4fa939c8ea7", "type": "electric_scooter"}, {"fusion_lat": 0.0, "bike_id": "83f48f4ec080775bb67bb2001796fe1a", "fusion_lon": 0.0, "lon": -76.93759816666666, "lat": 38.890334833333334, "is_reserved": 0, "is_disabled": 0, "rental_uris": {"android": "https://dc.lft.to/lastmile_qr_scan", "ios": "https://dc.lft.to/lastmile_qr_scan"}, "name": "83f48f4ec080775bb67bb2001796fe1a", "type": "electric_scooter"}, {"fusion_lat": 0.0, "bike_id": "e21c8626e247ebb0aced4fdc92daea3e", "fusion_lon": 0.0, "lon": -77.05240483333333, "lat": 38.92544483333333, "is_reserved": 0, "is_disabled": 0, "rental_uris": {"android": "https://dc.lft.to/lastmile_qr_scan", "ios": "https://dc.lft.to/lastmile_qr_scan"}, "name": "e21c8626e247ebb0aced4fdc92daea3e", "type": "electric_scooter"}, {"fusion_lat": 0.0, "bike_id": "45b7ab6e87df0bd33dcb487b4e91af2c", "fusion_lon": 0.0, "lon": -77.0418405, "lat": 38.892522666666665, "is_reserved": 0, "is_disabled": 0, "rental_uris": {"android": "https://dc.lft.to/lastmile_qr_scan", "ios": "https://dc.lft.to/lastmile_qr_scan"}, "name": "45b7ab6e87df0bd33dcb487b4e91af2c", "type": "electric_scooter"}, {"fusion_lat": 0.0, "bike_id": "6b396a9f90dd42d60e98b5d5b60dfe1b", "fusion_lon": 0.0, "lon": -77.02897366666667, "lat": 38.91682933333333, "is_reserved": 0, "is_disabled": 0, "rental_uris": {"android": "https://dc.lft.to/lastmile_qr_scan", "ios": "https://dc.lft.to/lastmile_qr_scan"}, "name": "6b396a9f90dd42d60e98b5d5b60dfe1b", "type": "electric_scooter"}, {"fusion_lat": 0.0, "bike_id": "8f28c39edb5c904efca059ff75e51e0a", "fusion_lon": 0.0, "lon": -77.0271245, "lat": 38.9066505, "is_reserved": 0, "is_disabled": 0, "rental_uris": {"android": "https://dc.lft.to/lastmile_qr_scan", "ios": "https://dc.lft.to/lastmile_qr_scan"}, "name": "8f28c39edb5c904efca059ff75e51e0a", "type": "electric_scooter"}, {"fusion_lat": 0.0, "bike_id": "1afc0b99b6d67f6884953deda27c4c0c", "fusion_lon": 0.0, "lon": -77.0662155, "lat": 38.91212383333333, "is_reserved": 0, "is_disabled": 0, "rental_uris": {"android": "https://dc.lft.to/lastmile_qr_scan", "ios": "https://dc.lft.to/lastmile_qr_scan"}, "name": "1afc0b99b6d67f6884953deda27c4c0c", "type": "electric_scooter"}, {"fusion_lat": 0.0, "bike_id": "54edef076839309ef94357aa9b67f5a7", "fusion_lon": 0.0, "lon": -77.02845633333334, "lat": 38.93277583333333, "is_reserved": 0, "is_disabled": 0, "rental_uris": {"android": "https://dc.lft.to/lastmile_qr_scan", "ios": "https://dc.lft.to/lastmile_qr_scan"}, "name": "54edef076839309ef94357aa9b67f5a7", "type": "electric_scooter"}, {"fusion_lat": 0.0, "bike_id": "8deb3af35db83ae9957f7c1d93a58b24", "fusion_lon": 0.0, "lon": -77.02123983333334, "lat": 38.92232083333333, "is_reserved": 0, "is_disabled": 0, "rental_uris": {"android": "https://dc.lft.to/lastmile_qr_scan", "ios": "https://dc.lft.to/lastmile_qr_scan"}, "name": "8deb3af35db83ae9957f7c1d93a58b24", "type": "electric_scooter"}, {"fusion_lat": 0.0, "bike_id": "54bdc1042576c80d182e16ae57d27844", "fusion_lon": 0.0, "lon": -77.03832033333333, "lat": 38.906775333333336, "is_reserved": 0, "is_disabled": 0, "rental_uris": {"android": "https://dc.lft.to/lastmile_qr_scan", "ios": "https://dc.lft.to/lastmile_qr_scan"}, "name": "54bdc1042576c80d182e16ae57d27844", "type": "electric_scooter"}, {"fusion_lat": 0.0, "bike_id": "02ae457c9657c2588d1a7554e5163955", "fusion_lon": 0.0, "lon": -77.0311075, "lat": 38.91563266666667, "is_reserved": 0, "is_disabled": 0, "rental_uris": {"android": "https://dc.lft.to/lastmile_qr_scan", "ios": "https://dc.lft.to/lastmile_qr_scan"}, "name": "02ae457c9657c2588d1a7554e5163955", "type": "electric_scooter"}, {"fusion_lat": 0.0, "bike_id": "8de2f61cd3b27dbf7ea7922c2dd2e26d", "fusion_lon": 0.0, "lon": -76.98780516666666, "lat": 38.86734466666667, "is_reserved": 0, "is_disabled": 0, "rental_uris": {"android": "https://dc.lft.to/lastmile_qr_scan", "ios": "https://dc.lft.to/lastmile_qr_scan"}, "name": "8de2f61cd3b27dbf7ea7922c2dd2e26d", "type": "electric_scooter"}, {"fusion_lat": 0.0, "bike_id": "df96046514b32ef56602e8349ebabe6f", "fusion_lon": 0.0, "lon": -77.029234, "lat": 38.934613166666665, "is_reserved": 0, "is_disabled": 0, "rental_uris": {"android": "https://dc.lft.to/lastmile_qr_scan", "ios": "https://dc.lft.to/lastmile_qr_scan"}, "name": "df96046514b32ef56602e8349ebabe6f", "type": "electric_scooter"}, {"fusion_lat": 0.0, "bike_id": "7817f5170034a63afb44eed7b6a61a38", "fusion_lon": 0.0, "lon": -77.0195475, "lat": 38.92306983333334, "is_reserved": 0, "is_disabled": 0, "rental_uris": {"android": "https://dc.lft.to/lastmile_qr_scan", "ios": "https://dc.lft.to/lastmile_qr_scan"}, "name": "7817f5170034a63afb44eed7b6a61a38", "type": "electric_scooter"}, {"fusion_lat": 0.0, "bike_id": "f04e5189e51fdfac755307e0cd71023b", "fusion_lon": 0.0, "lon": -76.97671566666666, "lat": 38.95244666666667, "is_reserved": 0, "is_disabled": 0, "rental_uris": {"android": "https://dc.lft.to/lastmile_qr_scan", "ios": "https://dc.lft.to/lastmile_qr_scan"}, "name": "f04e5189e51fdfac755307e0cd71023b", "type": "electric_bike"}, {"fusion_lat": 0.0, "bike_id": "79c21711b48f24bf6c2a5d587b4333bc", "fusion_lon": 0.0, "lon": -77.03836116666666, "lat": 38.91187866666667, "is_reserved": 0, "is_disabled": 0, "rental_uris": {"android": "https://dc.lft.to/lastmile_qr_scan", "ios": "https://dc.lft.to/lastmile_qr_scan"}, "name": "79c21711b48f24bf6c2a5d587b4333bc", "type": "electric_scooter"}, {"fusion_lat": 0.0, "bike_id": "248d1608779f02b2534cbb7cab82965f", "fusion_lon": 0.0, "lon": -77.04658266666667, "lat": 38.89949683333333, "is_reserved": 0, "is_disabled": 0, "rental_uris": {"android": "https://dc.lft.to/lastmile_qr_scan", "ios": "https://dc.lft.to/lastmile_qr_scan"}, "name": "248d1608779f02b2534cbb7cab82965f", "type": "electric_scooter"}, {"fusion_lat": 0.0, "bike_id": "6fb937cfb3163d9750f4759118ad33ab", "fusion_lon": 0.0, "lon": -77.0393815, "lat": 38.899122, "is_reserved": 0, "is_disabled": 0, "rental_uris": {"android": "https://dc.lft.to/lastmile_qr_scan", "ios": "https://dc.lft.to/lastmile_qr_scan"}, "name": "6fb937cfb3163d9750f4759118ad33ab", "type": "electric_scooter"}, {"fusion_lat": 0.0, "bike_id": "e684e00c5c3bd34b03526147584fd5dc", "fusion_lon": 0.0, "lon": -77.00986033333334, "lat": 38.87290483333334, "is_reserved": 0, "is_disabled": 0, "rental_uris": {"android": "https://dc.lft.to/lastmile_qr_scan", "ios": "https://dc.lft.to/lastmile_qr_scan"}, "name": "e684e00c5c3bd34b03526147584fd5dc", "type": "electric_scooter"}, {"fusion_lat": 0.0, "bike_id": "01c96150d1fda8b733bec3bd50e4b617", "fusion_lon": 0.0, "lon": -77.166276, "lat": 38.88832433333334, "is_reserved": 0, "is_disabled": 0, "rental_uris": {"android": "https://dc.lft.to/lastmile_qr_scan", "ios": "https://dc.lft.to/lastmile_qr_scan"}, "name": "01c96150d1fda8b733bec3bd50e4b617", "type": "electric_bike"}, {"fusion_lat": 0.0, "bike_id": "ae7953cfdf479ab9fec748dc2d8a3947", "fusion_lon": 0.0, "lon": -77.02531483333334, "lat": 38.940995, "is_reserved": 0, "is_disabled": 0, "rental_uris": {"android": "https://dc.lft.to/lastmile_qr_scan", "ios": "https://dc.lft.to/lastmile_qr_scan"}, "name": "ae7953cfdf479ab9fec748dc2d8a3947", "type": "electric_scooter"}, {"fusion_lat": 0.0, "bike_id": "27d7c1b789378e4a0d600d2f1a8e44fa", "fusion_lon": 0.0, "lon": -76.99523216666667, "lat": 38.89171783333333, "is_reserved": 0, "is_disabled": 0, "rental_uris": {"android": "https://dc.lft.to/lastmile_qr_scan", "ios": "https://dc.lft.to/lastmile_qr_scan"}, "name": "27d7c1b789378e4a0d600d2f1a8e44fa", "type": "electric_scooter"}, {"fusion_lat": 0.0, "bike_id": "d70efa321226091c2e7dac7340b5fde3", "fusion_lon": 0.0, "lon": -77.031033, "lat": 38.924772, "is_reserved": 0, "is_disabled": 0, "rental_uris": {"android": "https://dc.lft.to/lastmile_qr_scan", "ios": "https://dc.lft.to/lastmile_qr_scan"}, "name": "d70efa321226091c2e7dac7340b5fde3", "type": "electric_scooter"}, {"fusion_lat": 0.0, "bike_id": "2725bd5172c021169cf44f37855fd0ea", "fusion_lon": 0.0, "lon": -77.02750783333333, "lat": 38.881431666666664, "is_reserved": 0, "is_disabled": 0, "rental_uris": {"android": "https://dc.lft.to/lastmile_qr_scan", "ios": "https://dc.lft.to/lastmile_qr_scan"}, "name": "2725bd5172c021169cf44f37855fd0ea", "type": "electric_scooter"}, {"fusion_lat": 0.0, "bike_id": "9b482e19f73bfd0372a623a9e659c922", "fusion_lon": 0.0, "lon": -77.02466516666667, "lat": 38.938514833333336, "is_reserved": 0, "is_disabled": 0, "rental_uris": {"android": "https://dc.lft.to/lastmile_qr_scan", "ios": "https://dc.lft.to/lastmile_qr_scan"}, "name": "9b482e19f73bfd0372a623a9e659c922", "type": "electric_scooter"}, {"fusion_lat": 0.0, "bike_id": "ad9a80780f71dd9bd79f222a3dac86af", "fusion_lon": 0.0, "lon": -76.9949965, "lat": 38.86242083333333, "is_reserved": 0, "is_disabled": 0, "rental_uris": {"android": "https://dc.lft.to/lastmile_qr_scan", "ios": "https://dc.lft.to/lastmile_qr_scan"}, "name": "ad9a80780f71dd9bd79f222a3dac86af", "type": "electric_scooter"}, {"fusion_lat": 0.0, "bike_id": "4a0f1d2a915ea04dad8c14b34a8f7c79", "fusion_lon": 0.0, "lon": -77.03264433333334, "lat": 38.948420166666665, "is_reserved": 0, "is_disabled": 0, "rental_uris": {"android": "https://dc.lft.to/lastmile_qr_scan", "ios": "https://dc.lft.to/lastmile_qr_scan"}, "name": "4a0f1d2a915ea04dad8c14b34a8f7c79", "type": "electric_scooter"}, {"fusion_lat": 0.0, "bike_id": "b8973522fcf390568407505efa040e2e", "fusion_lon": 0.0, "lon": -76.99408466666667, "lat": 38.900083, "is_reserved": 0, "is_disabled": 0, "rental_uris": {"android": "https://dc.lft.to/lastmile_qr_scan", "ios": "https://dc.lft.to/lastmile_qr_scan"}, "name": "b8973522fcf390568407505efa040e2e", "type": "electric_bike"}, {"fusion_lat": 0.0, "bike_id": "da0607c347428fe0dd19265afa33c0fa", "fusion_lon": 0.0, "lon": -77.03999033333334, "lat": 38.93274866666667, "is_reserved": 0, "is_disabled": 0, "rental_uris": {"android": "https://dc.lft.to/lastmile_qr_scan", "ios": "https://dc.lft.to/lastmile_qr_scan"}, "name": "da0607c347428fe0dd19265afa33c0fa", "type": "electric_scooter"}, {"fusion_lat": 0.0, "bike_id": "9f6cea11952526cc1afbb921b8e924d7", "fusion_lon": 0.0, "lon": -77.04257616666666, "lat": 38.904095, "is_reserved": 0, "is_disabled": 0, "rental_uris": {"android": "https://dc.lft.to/lastmile_qr_scan", "ios": "https://dc.lft.to/lastmile_qr_scan"}, "name": "9f6cea11952526cc1afbb921b8e924d7", "type": "electric_scooter"}, {"fusion_lat": 0.0, "bike_id": "73891adfbb63aaf02211bad2db863a26", "fusion_lon": 0.0, "lon": -77.03207933333333, "lat": 38.9149755, "is_reserved": 0, "is_disabled": 0, "rental_uris": {"android": "https://dc.lft.to/lastmile_qr_scan", "ios": "https://dc.lft.to/lastmile_qr_scan"}, "name": "73891adfbb63aaf02211bad2db863a26", "type": "electric_scooter"}, {"fusion_lat": 0.0, "bike_id": "d5caef1f9a3cb230a5a8856cc813b7bb", "fusion_lon": 0.0, "lon": -77.04142566666667, "lat": 38.9163475, "is_reserved": 0, "is_disabled": 0, "rental_uris": {"android": "https://dc.lft.to/lastmile_qr_scan", "ios": "https://dc.lft.to/lastmile_qr_scan"}, "name": "d5caef1f9a3cb230a5a8856cc813b7bb", "type": "electric_bike"},