{"data": {"bikes": [{"is_reserved": 0, "bike_id": "f835153f1c67ebbf6e4a4d91070fad8d", "type": "electric_bike", "name": "f835153f1c67ebbf6e4a4d91070fad8d", "is_disabled": 0, "fusion_lon": 0.0, "rental_uris": {"android": "https://dc.lft.to/lastmile_qr_scan", "ios": "https://dc.lft.to/lastmile_qr_scan"}, "lat": 38.99831533333333, "lon": -76.99776616666666, "fusion_lat": 0.0}, {"is_reserved": 0, "bike_id": "3666e8434758f6d7db32bc2d52982867", "type": "electric_scooter", "name": "3666e8434758f6d7db32bc2d52982867", "is_disabled": 0, "fusion_lon": 0.0, "rental_uris": {"android": "https://dc.lft.to/lastmile_qr_scan", "ios": "https://dc.lft.to/lastmile_qr_scan"}, "lat": 38.926079333333334, "lon": -77.02960833333333, "fusion_lat": 0.0}, {"is_reserved": 0, "bike_id": "e5bc1d6f6f01f14a7abcf19efcada0dd", "type": "electric_bike", "name": "e5bc1d6f6f01f14a7abcf19efcada0dd", "is_disabled": 0, "fusion_lon": 0.0, "rental_uris": {"android": "https://dc.lft.to/lastmile_qr_scan", "ios": "https://dc.lft.to/lastmile_qr_scan"}, "lat": 38.9262385, "lon": -77.03310433333333, "fusion_lat": 0.0}, {"is_reserved": 0, "bike_id": "811ef955fcd41091f15224397018bc1f", "type": "electric_scooter", "name": "811ef955fcd41091f15224397018bc1f", "is_disabled": 0, "fusion_lon": 0.0, "rental_uris": {"android": "https://dc.lft.to/lastmile_qr_scan", "ios": "https://dc.lft.to/lastmile_qr_scan"}, "lat": 38.906512166666666, "lon": -76.98380433333334, "fusion_lat": 0.0}, {"is_reserved": 0, "bike_id": "c28c4e705258e2f3539cc68d29c57407", "type": "electric_scooter", "name": "c28c4e705258e2f3539cc68d29c57407", "is_disabled": 0, "fusion_lon": 0.0, "rental_uris": {"android": "https://dc.lft.to/lastmile_qr_scan", "ios": "https://dc.lft.to/lastmile_qr_scan"}, "lat": 38.89898216666667, "lon": -77.0329395, "fusion_lat": 0.0}, {"is_reserved": 0, "bike_id": "e4ce72646a8865a1672498ab074b5cc2", "type": "electric_scooter", "name": "e4ce72646a8865a1672498ab074b5cc2", "is_disabled": 0, "fusion_lon": 0.0, "rental_uris": {"android": "https://dc.lft.to/lastmile_qr_scan", "ios": "https://dc.lft.to/lastmile_qr_scan"}, "lat": 38.9199515, "lon": -77.017844, "fusion_lat": 0.0}, {"is_reserved": 0, "bike_id": "eb02e004bb495d37c19fba472db33985", "type": "electric_scooter", "name": "eb02e004bb495d37c19fba472db33985", "is_disabled": 0, "fusion_lon": 0.0, "rental_uris": {"android": "https://dc.lft.to/lastmile_qr_scan", "ios": "https://dc.lft.to/lastmile_qr_scan"}, "lat": 38.91449183333334, "lon": -77.02182633333334, "fusion_lat": 0.0}, {"is_reserved": 0, "bike_id": "6fe5556c9a6a7c8122091a75b5bdf06d", "type": "electric_scooter", "name": "6fe5556c9a6a7c8122091a75b5bdf06d", "is_disabled": 0, "fusion_lon": 0.0, "rental_uris": {"android": "https://dc.lft.to/lastmile_qr_scan", "ios": "https://dc.lft.to/lastmile_qr_scan"}, "lat": 38.918366666666664, "lon": -77.03439366666667, "fusion_lat": 0.0}, {"is_reserved": 0, "bike_id": "7f839ae60ae687a21d229e4fab25c3ff", "type": "electric_scooter", "name": "7f839ae60ae687a21d229e4fab25c3ff", "is_disabled": 0, "fusion_lon": 0.0, "rental_uris": {"android": "https://dc.lft.to/lastmile_qr_scan", "ios": "https://dc.lft.to/lastmile_qr_scan"}, "lat": 38.906581833333334, "lon": -76.98602466666667, "fusion_lat": 0.0}, {"is_reserved": 0, "bike_id": "bb8c9c165df0961c0d07c2061775f417", "type": "electric_scooter", "name": "bb8c9c165df0961c0d07c2061775f417", "is_disabled": 0, "fusion_lon": 0.0, "rental_uris": {"android": "https://dc.lft.to/lastmile_qr_scan", "ios": "https://dc.lft.to/lastmile_qr_scan"}, "lat": 38.940614333333336, "lon": -77.03284416666666, "fusion_lat": 0.0}, {"is_reserved": 0, "bike_id": "90ee215abe6acf339a501bdb63c0ef8f", "type": "electric_scooter", "name": "90ee215abe6acf339a501bdb63c0ef8f", "is_disabled": 0, "fusion_lon": 0.0, "rental_uris": {"android": "https://dc.lft.to/lastmile_qr_scan", "ios": "https://dc.lft.to/lastmile_qr_scan"}, "lat": 38.924982666666665, "lon": -77.02181233333333, "fusion_lat": 0.0}, {"is_reserved": 0, "bike_id": "1eea5103e4f2ea71c0539a144e111eeb", "type": "electric_scooter", "name": "1eea5103e4f2ea71c0539a144e111eeb", "is_disabled": 0, "fusion_lon": 0.0, "rental_uris": {"android": "https://dc.lft.to/lastmile_qr_scan", "ios": "https://dc.lft.to/lastmile_qr_scan"}, "lat": 38.91177783333333, "lon": -77.00208, "fusion_lat": 0.0}, {"is_reserved": 0, "bike_id": "d1f9e076b11e6978a2c83578290fa13a", "type": "electric_scooter", "name": "d1f9e076b11e6978a2c83578290fa13a", "is_disabled": 0, "fusion_lon": 0.0, "rental_uris": {"android": "https://dc.lft.to/lastmile_qr_scan", "ios": "https://dc.lft.to/lastmile_qr_scan"}, "lat": 38.90257366666667, "lon": -76.99515216666667, "fusion_lat": 0.0}, {"is_reserved": 0, "bike_id": "4e389fc99afdc6b90f21704c8991ee10", "type": "electric_scooter", "name": "4e389fc99afdc6b90f21704c8991ee10", "is_disabled": 0, "fusion_lon": 0.0, "rental_uris": {"android": "https://dc.lft.to/lastmile_qr_scan", "ios": "https://dc.lft.to/lastmile_qr_scan"}, "lat": 38.909690833333336, "lon": -77.03853466666666, "fusion_lat": 0.0}, {"is_reserved": 0, "bike_id": "0c640c5ff8949abd30fdc7555c101524", "type": "electric_scooter", "name": "0c640c5ff8949abd30fdc7555c101524", "is_disabled": 0, "fusion_lon": 0.0, "rental_uris": {"android": "https://dc.lft.to/lastmile_qr_scan", "ios": "https://dc.lft.to/lastmile_qr_scan"}, "lat": 38.90670716666666, "lon": -77.0363625, "fusion_lat": 0.0}, {"is_reserved": 0, "bike_id": "f8944e578ae0369a678633e4b9c3af45", "type": "electric_scooter", "name": "f8944e578ae0369a678633e4b9c3af45", "is_disabled": 0, "fusion_lon": 0.0, "rental_uris": {"android": "https://dc.lft.to/lastmile_qr_scan", "ios": "https://dc.lft.to/lastmile_qr_scan"}, "lat": 38.876788, "lon": -77.006644, "fusion_lat": 0.0}, {"is_reserved": 0, "bike_id": "2e3c43c0b9a7f3f94b5ba7de8e6efe0a", "type": "electric_scooter", "name": "2e3c43c0b9a7f3f94b5ba7de8e6efe0a", "is_disabled": 0, "fusion_lon": 0.0, "rental_uris": {"android": "https://dc.lft.to/lastmile_qr_scan", "ios": "https://dc.lft.to/lastmile_qr_scan"}, "lat": 38.92240116666667, "lon": -77.029146, "fusion_lat": 0.0}, {"is_reserved": 0, "bike_id": "eeaf2abde709f2959fbeb4056898ce74", "type": "electric_scooter", "name": "eeaf2abde709f2959fbeb4056898ce74", "is_disabled": 0, "fusion_lon": 0.0, "rental_uris": {"android": "https://dc.lft.to/lastmile_qr_scan", "ios": "https://dc.lft.to/lastmile_qr_scan"}, "lat": 38.926057166666666, "lon": -77.022891, "fusion_lat": 0.0}, {"is_reserved": 0, "bike_id": "c156f02277be0dcdd90803c1074af889", "type": "electric_scooter", "name": "c156f02277be0dcdd90803c1074af889", "is_disabled": 0, "fusion_lon": 0.0, "rental_uris": {"android": "https://dc.lft.to/lastmile_qr_scan", "ios": "https://dc.lft.to/lastmile_qr_scan"}, "lat": 38.930644666666666, "lon": -77.03822416666667, "fusion_lat": 0.0}, {"is_reserved": 0, "bike_id": "990c15391cec5bb007d248a2370a9cc7", "type": "electric_scooter", "name": "990c15391cec5bb007d248a2370a9cc7", "is_disabled": 0, "fusion_lon": 0.0, "rental_uris": {"android": "https://dc.lft.to/lastmile_qr_scan", "ios": "https://dc.lft.to/lastmile_qr_scan"}, "lat": 38.93900933333333, "lon": -77.03337616666667, "fusion_lat": 0.0}, {"is_reserved": 0, "bike_id": "b9d7c38f6fd6c1f9e5ba518fac551595", "type": "electric_scooter", "name": "b9d7c38f6fd6c1f9e5ba518fac551595", "is_disabled": 0, "fusion_lon": 0.0, "rental_uris": {"android": "https://dc.lft.to/lastmile_qr_scan", "ios": "https://dc.lft.to/lastmile_qr_scan"}, "lat": 38.88610116666667, "lon": -77.0310425, "fusion_lat": 0.0}, {"is_reserved": 0, "bike_id": "30f090005cda59649837c3f6345e72ab", "type": "electric_scooter", "name": "30f090005cda59649837c3f6345e72ab", "is_disabled": 0, "fusion_lon": 0.0, "rental_uris": {"android": "https://dc.lft.to/lastmile_qr_scan", "ios": "https://dc.lft.to/lastmile_qr_scan"}, "lat": 38.9169035, "lon": -77.03861233333333, "fusion_lat": 0.0}, {"is_reserved": 0, "bike_id": "7f6aa55861cdbaa5c53a3686d177d377", "type": "electric_scooter", "name": "7f6aa55861cdbaa5c53a3686d177d377", "is_disabled": 0, "fusion_lon": 0.0, "rental_uris": {"android": "https://dc.lft.to/lastmile_qr_scan", "ios": "https://dc.lft.to/lastmile_qr_scan"}, "lat": 38.904359166666666, "lon": -77.02907266666666, "fusion_lat": 0.0}, {"is_reserved": 0, "bike_id": "c5d541ebb362c893bd53394b362f28a1", "type": "electric_scooter", "name": "c5d541ebb362c893bd53394b362f28a1", "is_disabled": 0, "fusion_lon": 0.0, "rental_uris": {"android": "https://dc.lft.to/lastmile_qr_scan", "ios": "https://dc.lft.to/lastmile_qr_scan"}, "lat": 38.86511983333333, "lon": -76.97342983333333, "fusion_lat": 0.0}, {"is_reserved": 0, "bike_id": "941da2cf5dd062d589b3a56783b04e81", "type": "electric_scooter", "name": "941da2cf5dd062d589b3a56783b04e81", "is_disabled": 0, "fusion_lon": 0.0, "rental_uris": {"android": "https://dc.lft.to/lastmile_qr_scan", "ios": "https://dc.lft.to/lastmile_qr_scan"}, "lat": 38.907333666666666, "lon": -77.00704483333334, "fusion_lat": 0.0}, {"is_reserved": 0, "bike_id": "ab1a00396e9a030fd51cd6c0ed0aec0e", "type": "electric_scooter", "name": "ab1a00396e9a030fd51cd6c0ed0aec0e", "is_disabled": 0, "fusion_lon": 0.0, "rental_uris": {"android": "https://dc.lft.to/lastmile_qr_scan", "ios": "https://dc.lft.to/lastmile_qr_scan"}, "lat": 38.898617333333334, "lon": -77.04247816666667, "fusion_lat": 0.0}, {"is_reserved": 0, "bike_id": "35de907c91b10bb7aac77d57b3925f51", "type": "electric_scooter", "name": "35de907c91b10bb7aac77d57b3925f51", "is_disabled": 0, "fusion_lon": 0.0, "rental_uris": {"android": "https://dc.lft.to/lastmile_qr_scan", "ios": "https://dc.lft.to/lastmile_qr_scan"}, "lat": 38.91052666666667, "lon": -76.99749933333334, "fusion_lat": 0.0}, {"is_reserved": 0, "bike_id": "f7a225c81ced7656e79e36b8b10fe3c4", "type": "electric_scooter", "name": "f7a225c81ced7656e79e36b8b10fe3c4", "is_disabled": 0, "fusion_lon": 0.0, "rental_uris": {"android": "https://dc.lft.to/lastmile_qr_scan", "ios": "https://dc.lft.to/lastmile_qr_scan"}, "lat": 38.9176785, "lon": -77.02714166666667, "fusion_lat": 0.0}, {"is_reserved": 0, "bike_id": "16b383e83684791792a78a7397656f56", "type": "electric_scooter", "name": "16b383e83684791792a78a7397656f56", "is_disabled": 0, "fusion_lon": 0.0, "rental_uris": {"android": "https://dc.lft.to/lastmile_qr_scan", "ios": "https://dc.lft.to/lastmile_qr_scan"}, "lat": 38.9237165, "lon": -77.02535266666666, "fusion_lat": 0.0}, {"is_reserved": 0, "bike_id": "39fe9002be095879d11b75514b277b66", "type": "electric_scooter", "name": "39fe9002be095879d11b75514b277b66", "is_disabled": 0, "fusion_lon": 0.0, "rental_uris": {"android": "https://dc.lft.to/lastmile_qr_scan", "ios": "https://dc.lft.to/lastmile_qr_scan"}, "lat": 38.921478, "lon": -77.03862633333334, "fusion_lat": 0.0}, {"is_reserved": 0, "bike_id": "41873f3dbc73bc052c09691835fe25e2", "type": "electric_bike", "name": "41873f3dbc73bc052c09691835fe25e2", "is_disabled": 0, "fusion_lon": 0.0, "rental_uris": {"android": "https://dc.lft.to/lastmile_qr_scan", "ios": "https://dc.lft.to/lastmile_qr_scan"}, "lat": 38.97441466666667, "lon": -77.09617933333334, "fusion_lat": 0.0}, {"is_reserved": 0, "bike_id": "26f17ce6b29ff44d8892ff253a0dcbcd", "type": "electric_bike", "name": "26f17ce6b29ff44d8892ff253a0dcbcd", "is_disabled": 0, "fusion_lon": 0.0, "rental_uris": {"android": "https://dc.lft.to/lastmile_qr_scan", "ios": "https://dc.lft.to/lastmile_qr_scan"}, "lat": 38.94174483333333, "lon": -76.95353316666667, "fusion_lat": 0.0}, {"is_reserved": 0, "bike_id": "557421cf903b43ac610fee14b91d3c2c", "type": "electric_scooter", "name": "557421cf903b43ac610fee14b91d3c2c", "is_disabled": 0, "fusion_lon": 0.0, "rental_uris": {"android": "https://dc.lft.to/lastmile_qr_scan", "ios": "https://dc.lft.to/lastmile_qr_scan"}, "lat": 38.93038266666667, "lon": -77.05741983333333, "fusion_lat": 0.0}, {"is_reserved": 0, "bike_id": "d72512ca9406459d11d1b9100abb79cc", "type": "electric_scooter", "name": "d72512ca9406459d11d1b9100abb79cc", "is_disabled": 0, "fusion_lon": 0.0, "rental_uris": {"android": "https://dc.lft.to/lastmile_qr_scan", "ios": "https://dc.lft.to/lastmile_qr_scan"}, "lat": 38.9262185, "lon": -77.02266816666666, "fusion_lat": 0.0}, {"is_reserved": 0, "bike_id": "46ef37c612cc3c8012accc29cad36e86", "type": "electric_scooter", "name": "46ef37c612cc3c8012accc29cad36e86", "is_disabled": 0, "fusion_lon": 0.0, "rental_uris": {"android": "https://dc.lft.to/lastmile_qr_scan", "ios": "https://dc.lft.to/lastmile_qr_scan"}, "lat": 38.9187895, "lon": -77.00918333333334, "fusion_lat": 0.0}, {"is_reserved": 0, "bike_id": "66c655caa271d570dde5ddb96d025df7", "type": "electric_scooter", "name": "66c655caa271d570dde5ddb96d025df7", "is_disabled": 0, "fusion_lon": 0.0, "rental_uris": {"android": "https://dc.lft.to/lastmile_qr_scan", "ios": "https://dc.lft.to/lastmile_qr_scan"}, "lat": 38.90897566666666, "lon": -77.03177166666667, "fusion_lat": 0.0}, {"is_reserved": 0, "bike_id": "e2ca36d792498844275db9be25b7df1a", "type": "electric_scooter", "name": "e2ca36d792498844275db9be25b7df1a", "is_disabled": 0, "fusion_lon": 0.0, "rental_uris": {"android": "https://dc.lft.to/lastmile_qr_scan", "ios": "https://dc.lft.to/lastmile_qr_scan"}, "lat": 38.91418733333333, "lon": -77.03171983333333, "fusion_lat": 0.0}, {"is_reserved": 0, "bike_id": "a86f84d13d6449f72a568071aceb2ff9", "type": "electric_scooter", "name": "a86f84d13d6449f72a568071aceb2ff9", "is_disabled": 0, "fusion_lon": 0.0, "rental_uris": {"android": "https://dc.lft.to/lastmile_qr_scan", "ios": "https://dc.lft.to/lastmile_qr_scan"}, "lat": 38.92370366666667, "lon": -77.05033683333333, "fusion_lat": 0.0}, {"is_reserved": 0, "bike_id": "f204bb62cb6cee9532c26d2fca153ca7", "type": "electric_scooter", "name": "f204bb62cb6cee9532c26d2fca153ca7", "is_disabled": 0, "fusion_lon": 0.0, "rental_uris": {"android": "https://dc.lft.to/lastmile_qr_scan", "ios": "https://dc.lft.to/lastmile_qr_scan"}, "lat": 38.893877333333336, "lon": -77.04781466666667, "fusion_lat": 0.0}, {"is_reserved": 0, "bike_id": "96482e22c4831bc459c0de0a2ef5ad49", "type": "electric_scooter", "name": "96482e22c4831bc459c0de0a2ef5ad49", "is_disabled": 0, "fusion_lon": 0.0, "rental_uris": {"android": "https://dc.lft.to/lastmile_qr_scan", "ios": "https://dc.lft.to/lastmile_qr_scan"}, "lat": 38.9233025, "lon": -77.0228795, "fusion_lat": 0.0}, {"is_reserved": 0, "bike_id": "cf03d201ca68333e7d77d9fc44d57f73", "type": "electric_scooter", "name": "cf03d201ca68333e7d77d9fc44d57f73", "is_disabled": 0, "fusion_lon": 0.0, "rental_uris": {"android": "https://dc.lft.to/lastmile_qr_scan", "ios": "https://dc.lft.to/lastmile_qr_scan"}, "lat": 38.9211835, "lon": -77.03176466666666, "fusion_lat": 0.0}, {"is_reserved": 0, "bike_id": "a00c2060fe2496b228ff7499f6597138", "type": "electric_scooter", "name": "a00c2060fe2496b228ff7499f6597138", "is_disabled": 0, "fusion_lon": 0.0, "rental_uris": {"android": "https://dc.lft.to/lastmile_qr_scan", "ios": "https://dc.lft.to/lastmile_qr_scan"}, "lat": 38.895535333333335, "lon": -77.027171, "fusion_lat": 0.0}, {"is_reserved": 0, "bike_id": "7f1e22eafa60d31eee360411f0cee13e", "type": "electric_scooter", "name": "7f1e22eafa60d31eee360411f0cee13e", "is_disabled": 0, "fusion_lon": 0.0, "rental_uris": {"android": "https://dc.lft.to/lastmile_qr_scan", "ios": "https://dc.lft.to/lastmile_qr_scan"}, "lat": 38.923893666666665, "lon": -77.04063133333334, "fusion_lat": 0.0}, {"is_reserved": 0, "bike_id": "f5b3e32be6c2d0ea5c233fe51f0862ef", "type": "electric_scooter", "name": "f5b3e32be6c2d0ea5c233fe51f0862ef", "is_disabled": 0, "fusion_lon": 0.0, "rental_uris": {"android": "https://dc.lft.to/lastmile_qr_scan", "ios": "https://dc.lft.to/lastmile_qr_scan"}, "lat": 38.91187433333333, "lon": -77.03505033333333, "fusion_lat": 0.0}, {"is_reserved": 0, "bike_id": "afd4e8bf88193066d1a6b81115d0e04b", "type": "electric_scooter", "name": "afd4e8bf88193066d1a6b81115d0e04b", "is_disabled": 0, "fusion_lon": 0.0, "rental_uris": {"android": "https://dc.lft.to/lastmile_qr_scan", "ios": "https://dc.lft.to/lastmile_qr_scan"}, "lat": 38.9054375, "lon": -77.05005416666667, "fusion_lat": 0.0}, {"is_reserved": 0, "bike_id": "2af8b5ddef07d0191f23b2685e63e395", "type": "electric_scooter", "name": "2af8b5ddef07d0191f23b2685e63e395", "is_disabled": 0, "fusion_lon": 0.0, "rental_uris": {"android": "https://dc.lft.to/lastmile_qr_scan", "ios": "https://dc.lft.to/lastmile_qr_scan"}, "lat": 38.91120083333333, "lon": -77.0382665, "fusion_lat": 0.0}, {"is_reserved": 0, "bike_id": "a929b345f705fc5cc546f6d0df87e690", "type": "electric_scooter", "name": "a929b345f705fc5cc546f6d0df87e690", "is_disabled": 0, "fusion_lon": 0.0, "rental_uris": {"android": "https://dc.lft.to/lastmile_qr_scan", "ios": "https://dc.lft.to/lastmile_qr_scan"}, "lat": 38.906725333333334, "lon": -77.07321733333333, "fusion_lat": 0.0}, {"is_reserved": 0, "bike_id": "e01d19973a79b3540dc7550a89d204b8", "type": "electric_scooter", "name": "e01d19973a79b3540dc7550a89d204b8", "is_disabled": 0, "fusion_lon": 0.0, "rental_uris": {"android": "https://dc.lft.to/lastmile_qr_scan", "ios": "https://dc.lft.to/lastmile_qr_scan"}, "lat": 38.902507666666665, "lon": -77.03957733333333, "fusion_lat": 0.0}, {"is_reserved": 0, "bike_id": "1a05f2ab2c4901d423c2783941c5e11f", "type": "electric_scooter", "name": "1a05f2ab2c4901d423c2783941c5e11f", "is_disabled": 0, "fusion_lon": 0.0, "rental_uris": {"android": "https://dc.lft.to/lastmile_qr_scan", "ios": "https://dc.lft.to/lastmile_qr_scan"}, "lat": 38.89227433333333, "lon": -77.04497966666666, "fusion_lat": 0.0}, {"is_reserved": 0, "bike_id": "4a820d021226aab9a4b3dc2443ac9298", "type": "electric_scooter", "name": "4a820d021226aab9a4b3dc2443ac9298", "is_disabled": 0, "fusion_lon": 0.0, "rental_uris": {"android": "https://dc.lft.to/lastmile_qr_scan", "ios": "https://dc.lft.to/lastmile_qr_scan"}, "lat": 38.902713166666665, "lon": -77.03827316666667, "fusion_lat": 0.0}, {"is_reserved": 0, "bike_id": "4225afefef7f5bfe34c22eeb26d86a17", "type": "electric_scooter", "name": "4225afefef7f5bfe34c22eeb26d86a17", "is_disabled": 0, "fusion_lon": 0.0, "rental_uris": {"android": "https://dc.lft.to/lastmile_qr_scan", "ios": "https://dc.lft.to/lastmile_qr_scan"}, "lat": 38.93133816666667, "lon": -77.03254316666667, "fusion_lat": 0.0}, {"is_reserved": 0, "bike_id": "d67308a95f111b91d15f41340f829290", "type": "electric_scooter", "name": "d67308a95f111b91d15f41340f829290", "is_disabled": 0, "fusion_lon": 0.0, "rental_uris": {"android": "https://dc.lft.to/lastmile_qr_scan", "ios": "https://dc.lft.to/lastmile_qr_scan"}, "lat": 38.90321933333333, "lon": -76.99257383333334, "fusion_lat": 0.0}, {"is_reserved": 0, "bike_id": "fc914f1c85ec08936d2fead06f7c1583", "type": "electric_scooter", "name": "fc914f1c85ec08936d2fead06f7c1583", "is_disabled": 0, "fusion_lon": 0.0, "rental_uris": {"android": "https://dc.lft.to/lastmile_qr_scan", "ios": "https://dc.lft.to/lastmile_qr_scan"}, "lat": 38.92441933333333, "lon": -77.01944733333333, "fusion_lat": 0.0}, {"is_reserved": 0, "bike_id": "1600aa812c6618219c905c373b631095", "type": "electric_scooter", "name": "1600aa812c6618219c905c373b631095", "is_disabled": 0, "fusion_lon": 0.0, "rental_uris": {"android": "https://dc.lft.to/lastmile_qr_scan", "ios": "https://dc.lft.to/lastmile_qr_scan"}, "lat": 38.93069716666667, "lon": -77.02332366666667, "fusion_lat": 0.0}, {"is_reserved": 0, "bike_id": "c104d1020e71208d7d0621dae8c43588", "type": "electric_scooter", "name": "c104d1020e71208d7d0621dae8c43588", "is_disabled": 0, "fusion_lon": 0.0, "rental_uris": {"android": "https://dc.lft.to/lastmile_qr_scan", "ios": "https://dc.lft.to/lastmile_qr_scan"}, "lat": 38.906275666666666, "lon": -77.01526033333333, "fusion_lat": 0.0}, {"is_reserved": 0, "bike_id": "7f96ab4256da843f1b8411bc4072a2cc", "type": "electric_scooter", "name": "7f96ab4256da843f1b8411bc4072a2cc", "is_disabled": 0, "fusion_lon": 0.0, "rental_uris": {"android": "https://dc.lft.to/lastmile_qr_scan", "ios": "https://dc.lft.to/lastmile_qr_scan"}, "lat": 38.94450166666667, "lon": -77.06346133333334, "fusion_lat": 0.0}, {"is_reserved": 0, "bike_id": "f8f2198d5c7450722cc870fc984a0c84", "type": "electric_scooter", "name": "f8f2198d5c7450722cc870fc984a0c84", "is_disabled": 0, "fusion_lon": 0.0, "rental_uris": {"android": "https://dc.lft.to/lastmile_qr_scan", "ios": "https://dc.lft.to/lastmile_qr_scan"}, "lat": 38.92535316666667, "lon": -77.03393933333334, "fusion_lat": 0.0}, {"is_reserved": 0, "bike_id": "1f2424c19ee9fd33fda7f3590b08a276", "type": "electric_bike", "name": "1f2424c19ee9fd33fda7f3590b08a276", "is_disabled": 0, "fusion_lon": 0.0, "rental_uris": {"android": "https://dc.lft.to/lastmile_qr_scan", "ios": "https://dc.lft.to/lastmile_qr_scan"}, "lat": 38.87175283333333, "lon": -77.23394866666666, "fusion_lat": 0.0}, {"is_reserved": 0, "bike_id": "004b35589ae8c374b7d4882b7cbe595c", "type": "electric_scooter", "name": "004b35589ae8c374b7d4882b7cbe595c", "is_disabled": 0, "fusion_lon": 0.0, "rental_uris": {"android": "https://dc.lft.to/lastmile_qr_scan", "ios": "https://dc.lft.to/lastmile_qr_scan"}, "lat": 38.92352783333333, "lon": -77.034102, "fusion_lat": 0.0}, {"is_reserved": 0, "bike_id": "186c8f7ac95f635f6eead12261b11708", "type": "electric_scooter", "name": "186c8f7ac95f635f6eead12261b11708", "is_disabled": 0, "fusion_lon": 0.0, "rental_uris": {"android": "https://dc.lft.to/lastmile_qr_scan", "ios": "https://dc.lft.to/lastmile_qr_scan"}, "lat": 38.8727405, "lon": -77.01507583333333, "fusion_lat": 0.0}, {"is_reserved": 0, "bike_id": "820153b10c90f3fd014d5887c08f4ace", "type": "electric_scooter", "name": "820153b10c90f3fd014d5887c08f4ace", "is_disabled": 0, "fusion_lon": 0.0, "rental_uris": {"android": "https://dc.lft.to/lastmile_qr_scan", "ios": "https://dc.lft.to/lastmile_qr_scan"}, "lat": 38.90210666666667, "lon": -76.99236816666667, "fusion_lat": 0.0}, {"is_reserved": 0, "bike_id": "2d35c350c13bbae8e4c701a0b838faa1", "type": "electric_scooter", "name": "2d35c350c13bbae8e4c701a0b838faa1", "is_disabled": 0, "fusion_lon": 0.0, "rental_uris": {"android": "https://dc.lft.to/lastmile_qr_scan", "ios": "https://dc.lft.to/lastmile_qr_scan"}, "lat": 38.92128966666667, "lon": -77.02140766666666, "fusion_lat": 0.0}, {"is_reserved": 0, "bike_id": "b2ff0f595717744593b2f5416f087691", "type": "electric_scooter", "name": "b2ff0f595717744593b2f5416f087691", "is_disabled": 0, "fusion_lon": 0.0, "rental_uris": {"android": "https://dc.lft.to/lastmile_qr_scan", "ios": "https://dc.lft.to/lastmile_qr_scan"}, "lat": 38.89803283333333, "lon": -77.04612683333333, "fusion_lat": 0.0}, {"is_reserved": 0, "bike_id": "0b6c98dfae52527ccae74850443d1e78", "type": "electric_scooter", "name": "0b6c98dfae52527ccae74850443d1e78", "is_disabled": 0, "fusion_lon": 0.0, "rental_uris": {"android": "https://dc.lft.to/lastmile_qr_scan", "ios": "https://dc.lft.to/lastmile_qr_scan"}, "lat": 38.94415016666667, "lon": -77.01905666666667, "fusion_lat": 0.0}, {"is_reserved": 0, "bike_id": "1d93552e2be4cce433c2d43e85f0f1ec", "type": "electric_scooter", "name": "1d93552e2be4cce433c2d43e85f0f1ec", "is_disabled": 0, "fusion_lon": 0.0, "rental_uris": {"android": "https://dc.lft.to/lastmile_qr_scan", "ios": "https://dc.lft.to/lastmile_qr_scan"}, "lat": 38.875404333333336, "lon": -77.00603566666666, "fusion_lat": 0.0}, {"is_reserved": 0, "bike_id": "7266e25161a0ed406e36730fa5086af5", "type": "electric_scooter", "name": "7266e25161a0ed406e36730fa5086af5", "is_disabled": 0, "fusion_lon": 0.0, "rental_uris": {"android": "https://dc.lft.to/lastmile_qr_scan", "ios": "https://dc.lft.to/lastmile_qr_scan"}, "lat": 38.9206355, "lon": -77.04237283333333, "fusion_lat": 0.0}, {"is_reserved": 0, "bike_id": "5365ef15638b723be339035d691a4366", "type": "electric_scooter", "name": "5365ef15638b723be339035d691a4366", "is_disabled": 0, "fusion_lon": 0.0, "rental_uris": {"android": "https://dc.lft.to/lastmile_qr_scan", "ios": "https://dc.lft.to/lastmile_qr_scan"}, "lat": 38.92553316666667, "lon": -77.03222966666667, "fusion_lat": 0.0}, {"is_reserved": 0, "bike_id": "64552c60a33d037864b1468922c3c57e", "type": "electric_scooter", "name": "64552c60a33d037864b1468922c3c57e", "is_disabled": 0, "fusion_lon": 0.0, "rental_uris": {"android": "https://dc.lft.to/lastmile_qr_scan", "ios": "https://dc.lft.to/lastmile_qr_scan"}, "lat": 38.89501416666667, "lon": -76.9487425, "fusion_lat": 0.0}, {"is_reserved": 0, "bike_id": "34a13c306e7029d6e04c6a153e2ce76c", "type": "electric_scooter", "name": "34a13c306e7029d6e04c6a153e2ce76c", "is_disabled": 0, "fusion_lon": 0.0, "rental_uris": {"android": "https://dc.lft.to/lastmile_qr_scan", "ios": "https://dc.lft.to/lastmile_qr_scan"}, "lat": 38.910662333333335, "lon": -77.05375566666666, "fusion_lat": 0.0}, {"is_reserved": 0, "bike_id": "753dc04a8e945e0c8301e2825b07b2c1", "type": "electric_scooter", "name": "753dc04a8e945e0c8301e2825b07b2c1", "is_disabled": 0, "fusion_lon": 0.0, "rental_uris": {"android": "https://dc.lft.to/lastmile_qr_scan", "ios": "https://dc.lft.to/lastmile_qr_scan"}, "lat": 38.9171215, "lon": -77.0387155, "fusion_lat": 0.0}, {"is_reserved": 0, "bike_id": "189dc4cd0001e5cf8d6149170f4c0200", "type": "electric_bike", "name": "189dc4cd0001e5cf8d6149170f4c0200", "is_disabled": 0, "fusion_lon": 0.0, "rental_uris": {"android": "https://dc.lft.to/lastmile_qr_scan", "ios": "https://dc.lft.to/lastmile_qr_scan"}, "lat": 38.80742983333333, "lon": -77.0968805, "fusion_lat": 0.0}, {"is_reserved": 0, "bike_id": "8f65f9ad12d602c44e89f0dffe944b9c", "type": "electric_bike", "name": "8f65f9ad12d602c44e89f0dffe944b9c", "is_disabled": 0, "fusion_lon": 0.0, "rental_uris": {"android": "https://dc.lft.to/lastmile_qr_scan", "ios": "https://dc.lft.to/lastmile_qr_scan"}, "lat": 38.86500783333334, "lon": -76.977553, "fusion_lat": 0.0}, {"is_reserved": 0, "bike_id": "2bc2d6d74fc702253343173b9fcbafc7", "type": "electric_scooter", "name": "2bc2d6d74fc702253343173b9fcbafc7", "is_disabled": 0, "fusion_lon": 0.0, "rental_uris": {"android": "https://dc.lft.to/lastmile_qr_scan", "ios": "https://dc.lft.to/lastmile_qr_scan"}, "lat": 38.9080965, "lon": -77.08395433333334, "fusion_lat": 0.0}, {"is_reserved": 0, "bike_id": "7d15e70a313d2d7c9a3951e88556ed80", "type": "electric_scooter", "name": "7d15e70a313d2d7c9a3951e88556ed80", "is_disabled": 0, "fusion_lon": 0.0, "rental_uris": {"android": "https://dc.lft.to/lastmile_qr_scan", "ios": "https://dc.lft.to/lastmile_qr_scan"}, "lat": 38.9130545, "lon": -77.01740816666667, "fusion_lat": 0.0}, {"is_reserved": 0, "bike_id": "230b6614901c638b7efdb76f9afff490", "type": "electric_scooter", "name": "230b6614901c638b7efdb76f9afff490", "is_disabled": 0, "fusion_lon": 0.0, "rental_uris": {"android": "https://dc.lft.to/lastmile_qr_scan", "ios": "https://dc.lft.to/lastmile_qr_scan"}, "lat": 38.9565725, "lon": -77.01316916666667, "fusion_lat": 0.0}, {"is_reserved": 0, "bike_id": "c403640e917a16235d4c28a9a0a2e2ef", "type": "electric_scooter", "name": "c403640e917a16235d4c28a9a0a2e2ef", "is_disabled": 0, "fusion_lon": 0.0, "rental_uris": {"android": "https://dc.lft.to/lastmile_qr_scan", "ios": "https://dc.lft.to/lastmile_qr_scan"}, "lat": 38.90245566666667, "lon": -76.98967666666667, "fusion_lat": 0.0}, {"is_reserved": 0, "bike_id": "7dfd92ffac698a5870aeb6e32277d5bd", "type": "electric_scooter", "name": "7dfd92ffac698a5870aeb6e32277d5bd", "is_disabled": 0, "fusion_lon": 0.0, "rental_uris": {"android": "https://dc.lft.to/lastmile_qr_scan", "ios": "https://dc.lft.to/lastmile_qr_scan"}, "lat": 38.8861365, "lon": -77.0179415, "fusion_lat": 0.0}, {"is_reserved": 0, "bike_id": "2617c38321f4134ee93307811c305e60", "type": "electric_scooter", "name": "2617c38321f4134ee93307811c305e60", "is_disabled": 0, "fusion_lon": 0.0, "rental_uris": {"android": "https://dc.lft.to/lastmile_qr_scan", "ios": "https://dc.lft.to/lastmile_qr_scan"}, "lat": 38.94462383333333, "lon": -77.00660733333333, "fusion_lat": 0.0}, {"is_reserved": 0, "bike_id": "e1b7f175e0d3f388e247f7e66d30d3bf", "type": "electric_scooter", "name": "e1b7f175e0d3f388e247f7e66d30d3bf", "is_disabled": 0, "fusion_lon": 0.0, "rental_uris": {"android": "https://dc.lft.to/lastmile_qr_scan", "ios": "https://dc.lft.to/lastmile_qr_scan"}, "lat": 38.924314333333335, "lon": -77.042431, "fusion_lat": 0.0}, {"is_reserved": 0, "bike_id": "282dddf5b321f72b31f167ea8f382ee9", "type": "electric_scooter", "name": "282dddf5b321f72b31f167ea8f382ee9", "is_disabled": 0, "fusion_lon": 0.0, "rental_uris": {"android": "https://dc.lft.to/lastmile_qr_scan", "ios": "https://dc.lft.to/lastmile_qr_scan"}, "lat": 38.904631, "lon": -77.04851433333333, "fusion_lat": 0.0}, {"is_reserved": 0, "bike_id": "fc94d06ee9a149fe32a53fd088e70c63", "type": "electric_scooter", "name": "fc94d06ee9a149fe32a53fd088e70c63", "is_disabled": 0, "fusion_lon": 0.0, "rental_uris": {"android": "https://dc.lft.to/lastmile_qr_scan", "ios": "https://dc.lft.to/lastmile_qr_scan"}, "lat": 38.901567, "lon": -77.00891616666667, "fusion_lat": 0.0}, {"is_reserved": 0, "bike_id": "63032c06ac3d1ca745dd68f57965b50e", "type": "electric_scooter", "name": "63032c06ac3d1ca745dd68f57965b50e", "is_disabled": 0, "fusion_lon": 0.0, "rental_uris": {"android": "https://dc.lft.to/lastmile_qr_scan", "ios": "https://dc.lft.to/lastmile_qr_scan"}, "lat": 38.892363833333334, "lon": -77.04361383333334, "fusion_lat": 0.0}, {"is_reserved": 0, "bike_id": "72031f1d3384c1b836ee942e1143ca35", "type": "electric_scooter", "name": "72031f1d3384c1b836ee942e1143ca35", "is_disabled": 0, "fusion_lon": 0.0, "rental_uris": {"android": "https://dc.lft.to/lastmile_qr_scan", "ios": "https://dc.lft.to/lastmile_qr_scan"}, "lat": 38.905680833333335, "lon": -77.00581883333334, "fusion_lat": 0.0}, {"is_reserved": 0, "bike_id": "116ea8caba12734349eb26343b3d6a09", "type": "electric_scooter", "name": "116ea8caba12734349eb26343b3d6a09", "is_disabled": 0, "fusion_lon": 0.0, "rental_uris": {"android": "https://dc.lft.to/lastmile_qr_scan", "ios": "https://dc.lft.to/lastmile_qr_scan"}, "lat": 38.9221555, "lon": -77.0203005, "fusion_lat": 0.0}, {"is_reserved": 0, "bike_id": "54f22b2ea09475f916a87d96ddaf38d6", "type": "electric_bike", "name": "54f22b2ea09475f916a87d96ddaf38d6", "is_disabled": 0, "fusion_lon": 0.0, "rental_uris": {"android": "https://dc.lft.to/lastmile_qr_scan", "ios": "https://dc.lft.to/lastmile_qr_scan"}, "lat": 38.90354466666667, "lon": -76.98096333333334, "fusion_lat": 0.0}, {"is_reserved": 0, "bike_id": "2cade87ae46a8f8fdc6131c54d1e8dc3", "type": "electric_scooter", "name": "2cade87ae46a8f8fdc6131c54d1e8dc3", "is_disabled": 0, "fusion_lon": 0.0, "rental_uris": {"android": "https://dc.lft.to/lastmile_qr_scan", "ios": "https://dc.lft.to/lastmile_qr_scan"}, "lat": 38.93593116666667, "lon": -77.03519183333333, "fusion_lat": 0.0}, {"is_reserved": 0, "bike_id": "1e3f952c8497bf0d01c6f2bb22fe36d7", "type": "electric_scooter", "name": "1e3f952c8497bf0d01c6f2bb22fe36d7", "is_disabled": 0, "fusion_lon": 0.0, "rental_uris": {"android": "https://dc.lft.to/lastmile_qr_scan", "ios": "https://dc.lft.to/lastmile_qr_scan"}, "lat": 38.91856083333333, "lon": -77.03181466666666, "fusion_lat": 0.0}, {"is_reserved": 0, "bike_id": "05f42923c716082e06f3bbc5f436b092", "type": "electric_scooter", "name": "05f42923c716082e06f3bbc5f436b092", "is_disabled": 0, "fusion_lon": 0.0, "rental_uris": {"android": "https://dc.lft.to/lastmile_qr_scan", "ios": "https://dc.lft.to/lastmile_qr_scan"}, "lat": 38.944208, "lon": -77.01778, "fusion_lat": 0.0}, {"is_reserved": 0, "bike_id": "3c511ab2f47a20cc5d5ed1183aa70071", "type": "electric_scooter", "name": "3c511ab2f47a20cc5d5ed1183aa70071", "is_disabled": 0, "fusion_lon": 0.0, "rental_uris": {"android": "https://dc.lft.to/lastmile_qr_scan", "ios": "https://dc.lft.to/lastmile_qr_scan"}, "lat": 38.9078615, "lon": -77.01081683333334, "fusion_lat": 0.0}, {"is_reserved": 0, "bike_id": "efb04f13cceeeac6ae668ba300450b1a", "type": "electric_scooter", "name": "efb04f13cceeeac6ae668ba300450b1a", "is_disabled": 0, "fusion_lon": 0.0, "rental_uris": {"android": "https://dc.lft.to/lastmile_qr_scan", "ios": "https://dc.lft.to/lastmile_qr_scan"}, "lat": 38.907672, "lon": -77.035349, "fusion_lat": 0.0}, {"is_reserved": 0, "bike_id": "711016e8d2b1cb8dd192a92090de8e04", "type": "electric_scooter", "name": "711016e8d2b1cb8dd192a92090de8e04", "is_disabled": 0, "fusion_lon": 0.0, "rental_uris": {"android": "https://dc.lft.to/lastmile_qr_scan", "ios": "https://dc.lft.to/lastmile_qr_scan"}, "lat": 38.90275666666667, "lon": -77.01763266666667, "fusion_lat": 0.0}, {"is_reserved": 0, "bike_id": "2d54e326bc3f92c8577e075b19a7d18f", "type": "electric_scooter", "name": "2d54e326bc3f92c8577e075b19a7d18f", "is_disabled": 0, "fusion_lon": 0.0, "rental_uris": {"android": "https://dc.lft.to/lastmile_qr_scan", "ios": "https://dc.lft.to/lastmile_qr_scan"}, "lat": 38.936215, "lon": -77.032815, "fusion_lat": 0.0}, {"is_reserved": 0, "bike_id": "356ccafe88b8ef3e86117c32bf8344ad", "type": "electric_scooter", "name": "356ccafe88b8ef3e86117c32bf8344ad", "is_disabled": 0, "fusion_lon": 0.0, "rental_uris": {"android": "https://dc.lft.to/lastmile_qr_scan", "ios": "https://dc.lft.to/lastmile_qr_scan"}, "lat": 38.92693366666666, "lon": -77.02576266666667, "fusion_lat": 0.0}, {"is_reserved": 0, "bike_id": "b392013aeb476432196e06f3d33f0165", "type": "electric_scooter", "name": "b392013aeb476432196e06f3d33f0165", "is_disabled": 0, "fusion_lon": 0.0, "rental_uris": {"android": "https://dc.lft.to/lastmile_qr_scan", "ios": "https://dc.lft.to/lastmile_qr_scan"}, "lat": 38.89554833333333, "lon": -76.9305705, "fusion_lat": 0.0}, {"is_reserved": 0, "bike_id": "130b0e4bc8943dd0d514f181e5c2cc4c", "type": "electric_scooter", "name": "130b0e4bc8943dd0d514f181e5c2cc4c", "is_disabled": 0, "fusion_lon": 0.0, "rental_uris": {"android": "https://dc.lft.to/lastmile_qr_scan", "ios": "https://dc.lft.to/lastmile_qr_scan"}, "lat": 38.915499833333335, "lon": -77.03166766666666, "fusion_lat": 0.0}, {"is_reserved": 0, "bike_id": "6462a4d53152c3ef75a9f9364b8a607a", "type": "electric_scooter", "name": "6462a4d53152c3ef75a9f9364b8a607a", "is_disabled": 0, "fusion_lon": 0.0, "rental_uris": {"android": "https://dc.lft.to/lastmile_qr_scan", "ios": "https://dc.lft.to/lastmile_qr_scan"}, "lat": 38.885111333333334, "lon": -77.01116633333334, "fusion_lat": 0.0}, {"is_reserved": 0, "bike_id": "2c37342cfbfa9655fa59947c73c8fb51", "type": "electric_scooter", "name": "2c37342cfbfa9655fa59947c73c8fb51", "is_disabled": 0, "fusion_lon": 0.0, "rental_uris": {"android": "https://dc.lft.to/lastmile_qr_scan", "ios": "https://dc.lft.to/lastmile_qr_scan"}, "lat": 38.9007555, "lon": -77.05408133333333, "fusion_lat": 0.0}, {"is_reserved": 0, "bike_id": "5b706c186abd16e54c3d632e07355bd2", "type": "electric_scooter", "name": "5b706c186abd16e54c3d632e07355bd2", "is_disabled": 0, "fusion_lon": 0.0, "rental_uris": {"android": "https://dc.lft.to/lastmile_qr_scan", "ios": "https://dc.lft.to/lastmile_qr_scan"}, "lat": 38.916258166666665, "lon": -77.039877, "fusion_lat": 0.0}, {"is_reserved": 0, "bike_id": "5bc948142651d642129b861a45877765", "type": "electric_scooter", "name": "5bc948142651d642129b861a45877765", "is_disabled": 0, "fusion_lon": 0.0, "rental_uris": {"android": "https://dc.lft.to/lastmile_qr_scan", "ios": "https://dc.lft.to/lastmile_qr_scan"}, "lat": 38.919994833333334, "lon": -77.04076433333333, "fusion_lat": 0.0}, {"is_reserved": 0, "bike_id": "bc371bbc2ccd5e53cefa16597d16d918", "type": "electric_scooter", "name": "bc371bbc2ccd5e53cefa16597d16d918", "is_disabled": 0, "fusion_lon": 0.0, "rental_uris": {"android": "https://dc.lft.to/lastmile_qr_scan", "ios": "https://dc.lft.to/lastmile_qr_scan"}, "lat": 38.9216645, "lon": -77.02192866666667, "fusion_lat": 0.0}, {"is_reserved": 0, "bike_id": "6811a94bf7ac5d511227003a8d90bb2e", "type": "electric_scooter", "name": "6811a94bf7ac5d511227003a8d90bb2e", "is_disabled": 0, "fusion_lon": 0.0, "rental_uris": {"android": "https://dc.lft.to/lastmile_qr_scan", "ios": "https://dc.lft.to/lastmile_qr_scan"}, "lat": 38.9088735, "lon": -77.04390683333334, "fusion_lat": 0.0}, {"is_reserved": 0, "bike_id": "4a1c63fbe36eb0261ad70b7b16243428", "type": "electric_scooter", "name": "4a1c63fbe36eb0261ad70b7b16243428", "is_disabled": 0, "fusion_lon": 0.0, "rental_uris": {"android": "https://dc.lft.to/lastmile_qr_scan", "ios": "https://dc.lft.to/lastmile_qr_scan"}, "lat": 38.9205245, "lon": -77.02378883333333, "fusion_lat": 0.0}, {"is_reserved": 0, "bike_id": "fd011fdcb0716f2fd2d24357a71aac2b", "type": "electric_scooter", "name": "fd011fdcb0716f2fd2d24357a71aac2b", "is_disabled": 0, "fusion_lon": 0.0, "rental_uris": {"android": "https://dc.lft.to/lastmile_qr_scan", "ios": "https://dc.lft.to/lastmile_qr_scan"}, "lat": 38.8872725, "lon": -76.98356366666667, "fusion_lat": 0.0}, {"is_reserved": 0, "bike_id": "bdaabf88ab22b97436fc690bf6deb0b8", "type": "electric_scooter", "name": "bdaabf88ab22b97436fc690bf6deb0b8", "is_disabled": 0, "fusion_lon": 0.0, "rental_uris": {"android": "https://dc.lft.to/lastmile_qr_scan", "ios": "https://dc.lft.to/lastmile_qr_scan"}, "lat": 38.926614, "lon": -77.01471466666666, "fusion_lat": 0.0}, {"is_reserved": 0, "bike_id": "23ac39b50acb96adb8b848162fdc00c2", "type": "electric_bike", "name": "23ac39b50acb96adb8b848162fdc00c2", "is_disabled": 0, "fusion_lon": 0.0, "rental_uris": {"android": "https://dc.lft.to/lastmile_qr_scan", "ios": "https://dc.lft.to/lastmile_qr_scan"}, "lat": 38.8887545, "lon": -76.9570025, "fusion_lat": 0.0}, {"is_reserved": 0, "bike_id": "74a5fb5cbd2c7e6e24e32144902c6a77", "type": "electric_scooter", "name": "74a5fb5cbd2c7e6e24e32144902c6a77", "is_disabled": 0, "fusion_lon": 0.0, "rental_uris": {"android": "https://dc.lft.to/lastmile_qr_scan", "ios": "https://dc.lft.to/lastmile_qr_scan"}, "lat": 38.905308166666664, "lon": -77.06042133333334, "fusion_lat": 0.0}, {"is_reserved": 0, "bike_id": "d42bf77a8964d54f67700c810e31aab6", "type": "electric_scooter", "name": "d42bf77a8964d54f67700c810e31aab6", "is_disabled": 0, "fusion_lon": 0.0, "rental_uris": {"android": "https://dc.lft.to/lastmile_qr_scan", "ios": "https://dc.lft.to/lastmile_qr_scan"}, "lat": 38.915585666666665, "lon": -77.04451883333333, "fusion_lat": 0.0}, {"is_reserved": 0, "bike_id": "a4cb986a84592a2fb240bdaaa0c993c6", "type": "electric_scooter", "name": "a4cb986a84592a2fb240bdaaa0c993c6", "is_disabled": 0, "fusion_lon": 0.0, "rental_uris": {"android": "https://dc.lft.to/lastmile_qr_scan", "ios": "https://dc.lft.to/lastmile_qr_scan"}, "lat": 38.905275833333334, "lon": -77.0624405, "fusion_lat": 0.0}, {"is_reserved": 0, "bike_id": "f85197e5a6136b6c117087f46ab4ed9f", "type": "electric_scooter", "name": "f85197e5a6136b6c117087f46ab4ed9f", "is_disabled": 0, "fusion_lon": 0.0, "rental_uris": {"android": "https://dc.lft.to/lastmile_qr_scan", "ios": "https://dc.lft.to/lastmile_qr_scan"}, "lat": 38.921174, "lon": -77.041154, "fusion_lat": 0.0}, {"is_reserved": 0, "bike_id": "3bc00b23bacb07281f67fd7f1e7bc3d3", "type": "electric_scooter", "name": "3bc00b23bacb07281f67fd7f1e7bc3d3", "is_disabled": 0, "fusion_lon": 0.0, "rental_uris": {"android": "https://dc.lft.to/lastmile_qr_scan", "ios": "https://dc.lft.to/lastmile_qr_scan"}, "lat": 38.904682333333334, "lon": -77.04850816666666, "fusion_lat": 0.0}, {"is_reserved": 0, "bike_id": "0c2c2dc4ac692a31db2e61b457e3b2a4", "type": "electric_bike", "name": "0c2c2dc4ac692a31db2e61b457e3b2a4", "is_disabled": 0, "fusion_lon": 0.0, "rental_uris": {"android": "https://dc.lft.to/lastmile_qr_scan", "ios": "https://dc.lft.to/lastmile_qr_scan"}, "lat": 38.926103833333336, "lon": -77.0243425, "fusion_lat": 0.0}, {"is_reserved": 0, "bike_id": "36b34f29620e53258b0c27fb14b565ce", "type": "electric_scooter", "name": "36b34f29620e53258b0c27fb14b565ce", "is_disabled": 0, "fusion_lon": 0.0, "rental_uris": {"android": "https://dc.lft.to/lastmile_qr_scan", "ios": "https://dc.lft.to/lastmile_qr_scan"}, "lat": 38.92232816666667, "lon": -77.04610166666667, "fusion_lat": 0.0}, {"is_reserved": 0, "bike_id": "92e76b4686b633c3f10e05f6c1e0e5c2", "type": "electric_bike", "name": "92e76b4686b633c3f10e05f6c1e0e5c2", "is_disabled": 0, "fusion_lon": 0.0, "rental_uris": {"android": "https://dc.lft.to/lastmile_qr_scan", "ios": "https://dc.lft.to/lastmile_qr_scan"}, "lat": 38.924121, "lon": -77.050381, "fusion_lat": 0.0}, {"is_reserved": 0, "bike_id": "dcced3220683ea2d130992d57055811a", "type": "electric_scooter", "name": "dcced3220683ea2d130992d57055811a", "is_disabled": 0, "fusion_lon": 0.0, "rental_uris": {"android": "https://dc.lft.to/lastmile_qr_scan", "ios": "https://dc.lft.to/lastmile_qr_scan"}, "lat": 38.92099366666667, "lon": -77.02193383333334, "fusion_lat": 0.0}, {"is_reserved": 0, "bike_id": "0be216c08c9843579994f03568d3f78f", "type": "electric_bike", "name": "0be216c08c9843579994f03568d3f78f", "is_disabled": 0, "fusion_lon": 0.0, "rental_uris": {"android": "https://dc.lft.to/lastmile_qr_scan", "ios": "https://dc.lft.to/lastmile_qr_scan"}, "lat": 38.95014183333333, "lon": -77.01558983333334, "fusion_lat": 0.0}, {"is_reserved": 0, "bike_id": "b991ed5c9e89212f7917083e4c433630", "type": "electric_scooter", "name": "b991ed5c9e89212f7917083e4c433630", "is_disabled": 0, "fusion_lon": 0.0, "rental_uris": {"android": "https://dc.lft.to/lastmile_qr_scan", "ios": "https://dc.lft.to/lastmile_qr_scan"}, "lat": 38.926927166666665, "lon": -77.02570833333333, "fusion_lat": 0.0}, {"is_reserved": 0, "bike_id": "77918d96995d95134977da0ec0e45894", "type": "electric_scooter", "name": "77918d96995d95134977da0ec0e45894", "is_disabled": 0, "fusion_lon": 0.0, "rental_uris": {"android": "https://dc.lft.to/lastmile_qr_scan", "ios": "https://dc.lft.to/lastmile_qr_scan"}, "lat": 38.923230833333335, "lon": -77.01959433333333, "fusion_lat": 0.0}, {"is_reserved": 0, "bike_id": "4e503a08a53af2ba007abac92d998f0b", "type": "electric_scooter", "name": "4e503a08a53af2ba007abac92d998f0b", "is_disabled": 0, "fusion_lon": 0.0, "rental_uris": {"android": "https://dc.lft.to/lastmile_qr_scan", "ios": "https://dc.lft.to/lastmile_qr_scan"}, "lat": 38.920834, "lon": -77.025114, "fusion_lat": 0.0}, {"is_reserved": 0, "bike_id": "a1c689e869855c0806c5457063b10cc6", "type": "electric_scooter", "name": "a1c689e869855c0806c5457063b10cc6", "is_disabled": 0, "fusion_lon": 0.0, "rental_uris": {"android": "https://dc.lft.to/lastmile_qr_scan", "ios": "https://dc.lft.to/lastmile_qr_scan"}, "lat": 38.915522333333335, "lon": -77.02204916666666, "fusion_lat": 0.0}, {"is_reserved": 0, "bike_id": "2b00493b2bf2b204a732c68cb8243cef", "type": "electric_scooter", "name": "2b00493b2bf2b204a732c68cb8243cef", "is_disabled": 0, "fusion_lon": 0.0, "rental_uris": {"android": "https://dc.lft.to/lastmile_qr_scan", "ios": "https://dc.lft.to/lastmile_qr_scan"}, "lat": 38.914164166666666, "lon": -77.0222895, "fusion_lat": 0.0}, {"is_reserved": 0, "bike_id": "0ddda5ddaef72292b5de33474c0dec36", "type": "electric_scooter", "name": "0ddda5ddaef72292b5de33474c0dec36", "is_disabled": 0, "fusion_lon": 0.0, "rental_uris": {"android": "https://dc.lft.to/lastmile_qr_scan", "ios": "https://dc.lft.to/lastmile_qr_scan"}, "lat": 38.91402433333333, "lon": -77.01804033333333, "fusion_lat": 0.0}, {"is_reserved": 0, "bike_id": "658d741492ebb247f3669cd8c24554a0", "type": "electric_scooter", "name": "658d741492ebb247f3669cd8c24554a0", "is_disabled": 0, "fusion_lon": 0.0, "rental_uris": {"android": "https://dc.lft.to/lastmile_qr_scan", "ios": "https://dc.lft.to/lastmile_qr_scan"}, "lat": 38.88737316666667, "lon": -77.015052, "fusion_lat": 0.0}, {"is_reserved": 0, "bike_id": "afb990be6daf06c5baaac305247f705b", "type": "electric_bike", "name": "afb990be6daf06c5baaac305247f705b", "is_disabled": 0, "fusion_lon": 0.0, "rental_uris": {"android": "https://dc.lft.to/lastmile_qr_scan", "ios": "https://dc.lft.to/lastmile_qr_scan"}, "lat": 38.83587966666666, "lon": -76.99018, "fusion_lat": 0.0}, {"is_reserved": 0, "bike_id": "21f4f23da424627498f75bbcc8cbf48c", "type": "electric_bike", "name": "21f4f23da424627498f75bbcc8cbf48c", "is_disabled": 0, "fusion_lon": 0.0, "rental_uris": {"android": "https://dc.lft.to/lastmile_qr_scan", "ios": "https://dc.lft.to/lastmile_qr_scan"}, "lat": 38.920612166666665, "lon": -77.03062483333333, "fusion_lat": 0.0}, {"is_reserved": 0, "bike_id": "099ef2048ba0a4f2ea1f3adf430ecd87", "type": "electric_scooter", "name": "099ef2048ba0a4f2ea1f3adf430ecd87", "is_disabled": 0, "fusion_lon": 0.0, "rental_uris": {"android": "https://dc.lft.to/lastmile_qr_scan", "ios": "https://dc.lft.to/lastmile_qr_scan"}, "lat": 38.91925, "lon": -77.03184833333333, "fusion_lat": 0.0}, {"is_reserved": 0, "bike_id": "0df6d7e9568216df6a9ce56184b84c2f", "type": "electric_scooter", "name": "0df6d7e9568216df6a9ce56184b84c2f", "is_disabled": 0, "fusion_lon": 0.0, "rental_uris": {"android": "https://dc.lft.to/lastmile_qr_scan", "ios": "https://dc.lft.to/lastmile_qr_scan"}, "lat": 38.9057575, "lon": -77.0070275, "fusion_lat": 0.0}, {"is_reserved": 0, "bike_id": "ffb641706072af2698b8b488ce8b6e2f", "type": "electric_scooter", "name": "ffb641706072af2698b8b488ce8b6e2f", "is_disabled": 0, "fusion_lon": 0.0, "rental_uris": {"android": "https://dc.lft.to/lastmile_qr_scan", "ios": "https://dc.lft.to/lastmile_qr_scan"}, "lat": 38.942946666666664, "lon": -77.059261, "fusion_lat": 0.0}, {"is_reserved": 0, "bike_id": "651c9497eff0dcae97401b460f713223", "type": "electric_scooter", "name": "651c9497eff0dcae97401b460f713223", "is_disabled": 0, "fusion_lon": 0.0, "rental_uris": {"android": "https://dc.lft.to/lastmile_qr_scan", "ios": "https://dc.lft.to/lastmile_qr_scan"}, "lat": 38.9002925, "lon": -77.043895, "fusion_lat": 0.0}, {"is_reserved": 0, "bike_id": "48483c28556cb46f4d7fffbd02f07a58", "type": "electric_scooter", "name": "48483c28556cb46f4d7fffbd02f07a58", "is_disabled": 0, "fusion_lon": 0.0, "rental_uris": {"android": "https://dc.lft.to/lastmile_qr_scan", "ios": "https://dc.lft.to/lastmile_qr_scan"}, "lat": 38.898577, "lon": -76.93187066666667, "fusion_lat": 0.0}, {"is_reserved": 0, "bike_id": "55c322a06e51213ef49bde74ba21a14e", "type": "electric_scooter", "name": "55c322a06e51213ef49bde74ba21a14e", "is_disabled": 0, "fusion_lon": 0.0, "rental_uris": {"android": "https://dc.lft.to/lastmile_qr_scan", "ios": "https://dc.lft.to/lastmile_qr_scan"}, "lat": 38.944489, "lon": -77.06343266666667, "fusion_lat": 0.0}, {"is_reserved": 0, "bike_id": "0436e44d4417f5029dc13b6b4cdc43d6", "type": "electric_scooter", "name": "0436e44d4417f5029dc13b6b4cdc43d6", "is_disabled": 0, "fusion_lon": 0.0, "rental_uris": {"android": "https://dc.lft.to/lastmile_qr_scan", "ios": "https://dc.lft.to/lastmile_qr_scan"}, "lat": 38.918101, "lon": -77.068267, "fusion_lat": 0.0}, {"is_reserved": 0, "bike_id": "79bcc2a38e1f3c931ae9fb2a5fed9b23", "type": "electric_scooter", "name": "79bcc2a38e1f3c931ae9fb2a5fed9b23", "is_disabled": 0, "fusion_lon": 0.0, "rental_uris": {"android": "https://dc.lft.to/lastmile_qr_scan", "ios": "https://dc.lft.to/lastmile_qr_scan"}, "lat": 38.965099333333335, "lon": -77.0628625, "fusion_lat": 0.0}, {"is_reserved": 0, "bike_id": "80bc667f364aa3cd4b0ee145527b40c2", "type": "electric_scooter", "name": "80bc667f364aa3cd4b0ee145527b40c2", "is_disabled": 0, "fusion_lon": 0.0, "rental_uris": {"android": "https://dc.lft.to/lastmile_qr_scan", "ios": "https://dc.lft.to/lastmile_qr_scan"}, "lat": 38.905928, "lon": -76.9862455, "fusion_lat": 0.0}, {"is_reserved": 0, "bike_id": "ada98d5b7e6a526dc30a4852ee4f20a2", "type": "electric_scooter", "name": "ada98d5b7e6a526dc30a4852ee4f20a2", "is_disabled": 0, "fusion_lon": 0.0, "rental_uris": {"android": "https://dc.lft.to/lastmile_qr_scan", "ios": "https://dc.lft.to/lastmile_qr_scan"}, "lat": 38.932281333333336, "lon": -77.0412705, "fusion_lat": 0.0}, {"is_reserved": 0, "bike_id": "63a54e4285983a9268fe8ae506689950", "type": "electric_scooter", "name": "63a54e4285983a9268fe8ae506689950", "is_disabled": 0, "fusion_lon": 0.0, "rental_uris": {"android": "https://dc.lft.to/lastmile_qr_scan", "ios": "https://dc.lft.to/lastmile_qr_scan"}, "lat": 38.90625033333333, "lon": -77.02593233333333, "fusion_lat": 0.0}, {"is_reserved": 0, "bike_id": "5bb2d4c4634dd8e4954e4573f03afc5c", "type": "electric_scooter", "name": "5bb2d4c4634dd8e4954e4573f03afc5c", "is_disabled": 0, "fusion_lon": 0.0, "rental_uris": {"android": "https://dc.lft.to/lastmile_qr_scan", "ios": "https://dc.lft.to/lastmile_qr_scan"}, "lat": 38.931053, "lon": -77.02474283333333, "fusion_lat": 0.0}, {"is_reserved": 0, "bike_id": "5e3b46f1a515a01273fc7cbb64438044", "type": "electric_scooter", "name": "5e3b46f1a515a01273fc7cbb64438044", "is_disabled": 0, "fusion_lon": 0.0, "rental_uris": {"android": "https://dc.lft.to/lastmile_qr_scan", "ios": "https://dc.lft.to/lastmile_qr_scan"}, "lat": 38.914140333333336, "lon": -77.021864, "fusion_lat": 0.0}, {"is_reserved": 0, "bike_id": "f6b91f56b23630e9fc72b2ea13f37b21", "type": "electric_scooter", "name": "f6b91f56b23630e9fc72b2ea13f37b21", "is_disabled": 0, "fusion_lon": 0.0, "rental_uris": {"android": "https://dc.lft.to/lastmile_qr_scan", "ios": "https://dc.lft.to/lastmile_qr_scan"}, "lat": 38.94348633333333, "lon": -77.06109883333333, "fusion_lat": 0.0}, {"is_reserved": 0, "bike_id": "360114892fd5fd13caaa94482001f16d", "type": "electric_scooter", "name": "360114892fd5fd13caaa94482001f16d", "is_disabled": 0, "fusion_lon": 0.0, "rental_uris": {"android": "https://dc.lft.to/lastmile_qr_scan", "ios": "https://dc.lft.to/lastmile_qr_scan"}, "lat": 38.90125916666667, "lon": -77.0031855, "fusion_lat": 0.0}, {"is_reserved": 0, "bike_id": "924edb6e82d689c9d38c9f6bf0c11597", "type": "electric_scooter", "name": "924edb6e82d689c9d38c9f6bf0c11597", "is_disabled": 0, "fusion_lon": 0.0, "rental_uris": {"android": "https://dc.lft.to/lastmile_qr_scan", "ios": "https://dc.lft.to/lastmile_qr_scan"}, "lat": 38.898821166666664, "lon": -77.0488285, "fusion_lat": 0.0}, {"is_reserved": 0, "bike_id": "70797ac5dbadf4d0197c784cf676fd24", "type": "electric_scooter", "name": "70797ac5dbadf4d0197c784cf676fd24", "is_disabled": 0, "fusion_lon": 0.0, "rental_uris": {"android": "https://dc.lft.to/lastmile_qr_scan", "ios": "https://dc.lft.to/lastmile_qr_scan"}, "lat": 38.9187575, "lon": -77.03193516666667, "fusion_lat": 0.0}, {"is_reserved": 0, "bike_id": "777f3019769f89ac6553585ced090d12", "type": "electric_scooter", "name": "777f3019769f89ac6553585ced090d12", "is_disabled": 0, "fusion_lon": 0.0, "rental_uris": {"android": "https://dc.lft.to/lastmile_qr_scan", "ios": "https://dc.lft.to/lastmile_qr_scan"}, "lat": 38.89898566666667, "lon": -77.00896733333333, "fusion_lat": 0.0}, {"is_reserved": 0, "bike_id": "150002bd9c125e43f164e333a42c3cd8", "type": "electric_scooter", "name": "150002bd9c125e43f164e333a42c3cd8", "is_disabled": 0, "fusion_lon": 0.0, "rental_uris": {"android": "https://dc.lft.to/lastmile_qr_scan", "ios": "https://dc.lft.to/lastmile_qr_scan"}, "lat": 38.8957995, "lon": -77.01515166666667, "fusion_lat": 0.0}, {"is_reserved": 0, "bike_id": "39c4ab2458c60ff816dc0010c2505ac9", "type": "electric_scooter", "name": "39c4ab2458c60ff816dc0010c2505ac9", "is_disabled": 0, "fusion_lon": 0.0, "rental_uris": {"android": "https://dc.lft.to/lastmile_qr_scan", "ios": "https://dc.lft.to/lastmile_qr_scan"}, "lat": 38.95276883333333, "lon": -77.02382566666667, "fusion_lat": 0.0}, {"is_reserved": 0, "bike_id": "0794476817ad46c3fe014bcb78be8089", "type": "electric_scooter", "name": "0794476817ad46c3fe014bcb78be8089", "is_disabled": 0, "fusion_lon": 0.0, "rental_uris": {"android": "https://dc.lft.to/lastmile_qr_scan", "ios": "https://dc.lft.to/lastmile_qr_scan"}, "lat": 38.92411283333333, "lon": -77.020089, "fusion_lat": 0.0}, {"is_reserved": 0, "bike_id": "183372fb1a6e382916416d4a2a72fccf", "type": "electric_scooter", "name": "183372fb1a6e382916416d4a2a72fccf", "is_disabled": 0, "fusion_lon": 0.0, "rental_uris": {"android": "https://dc.lft.to/lastmile_qr_scan", "ios": "https://dc.lft.to/lastmile_qr_scan"}, "lat": 38.891208666666664, "lon": -76.9408675, "fusion_lat": 0.0}, {"is_reserved": 0, "bike_id": "cbac3ddc11a0e3c2cbb642950cd5f76d", "type": "electric_scooter", "name": "cbac3ddc11a0e3c2cbb642950cd5f76d", "is_disabled": 0, "fusion_lon": 0.0, "rental_uris": {"android": "https://dc.lft.to/lastmile_qr_scan", "ios": "https://dc.lft.to/lastmile_qr_scan"}, "lat": 38.913120166666666, "lon": -77.01610983333333, "fusion_lat": 0.0}, {"is_reserved": 0, "bike_id": "9d84fdae4f54c515f8ec2b80be050c5d", "type": "electric_scooter", "name": "9d84fdae4f54c515f8ec2b80be050c5d", "is_disabled": 0, "fusion_lon": 0.0, "rental_uris": {"android": "https://dc.lft.to/lastmile_qr_scan", "ios": "https://dc.lft.to/lastmile_qr_scan"}, "lat": 38.9112095, "lon": -77.0484355, "fusion_lat": 0.0}, {"is_reserved": 0, "bike_id": "475e71e61b52b18fc7bd08704eccb382", "type": "electric_scooter", "name": "475e71e61b52b18fc7bd08704eccb382", "is_disabled": 0, "fusion_lon": 0.0, "rental_uris": {"android": "https://dc.lft.to/lastmile_qr_scan", "ios": "https://dc.lft.to/lastmile_qr_scan"}, "lat": 38.923808333333334, "lon": -77.029563, "fusion_lat": 0.0}, {"is_reserved": 0, "bike_id": "150eae8c748ad09946d855905b18f146", "type": "electric_scooter", "name": "150eae8c748ad09946d855905b18f146", "is_disabled": 0, "fusion_lon": 0.0, "rental_uris": {"android": "https://dc.lft.to/lastmile_qr_scan", "ios": "https://dc.lft.to/lastmile_qr_scan"}, "lat": 38.93071883333333, "lon": -77.023349, "fusion_lat": 0.0}, {"is_reserved": 0, "bike_id": "0fece82a7b6be3f4c4adf0336163d5a4", "type": "electric_scooter", "name": "0fece82a7b6be3f4c4adf0336163d5a4", "is_disabled": 0, "fusion_lon": 0.0, "rental_uris": {"android": "https://dc.lft.to/lastmile_qr_scan", "ios": "https://dc.lft.to/lastmile_qr_scan"}, "lat": 38.91096316666667, "lon": -77.02545883333333, "fusion_lat": 0.0}, {"is_reserved": 0, "bike_id": "99e1d71fdfe3448363249948797d62e4", "type": "electric_scooter", "name": "99e1d71fdfe3448363249948797d62e4", "is_disabled": 0, "fusion_lon": 0.0, "rental_uris": {"android": "https://dc.lft.to/lastmile_qr_scan", "ios": "https://dc.lft.to/lastmile_qr_scan"}, "lat": 38.9487615, "lon": -77.06456516666667, "fusion_lat": 0.0}, {"is_reserved": 0, "bike_id": "9115c1a3955727b2a54e7d1f228b02f8", "type": "electric_scooter", "name": "9115c1a3955727b2a54e7d1f228b02f8", "is_disabled": 0, "fusion_lon": 0.0, "rental_uris": {"android": "https://dc.lft.to/lastmile_qr_scan", "ios": "https://dc.lft.to/lastmile_qr_scan"}, "lat": 38.88602483333333, "lon": -76.9250015, "fusion_lat": 0.0}, {"is_reserved": 0, "bike_id": "8b82d2ea176aca9461cb63d90b610d9d", "type": "electric_scooter", "name": "8b82d2ea176aca9461cb63d90b610d9d", "is_disabled": 0, "fusion_lon": 0.0, "rental_uris": {"android": "https://dc.lft.to/lastmile_qr_scan", "ios": "https://dc.lft.to/lastmile_qr_scan"}, "lat": 38.9130285, "lon": -77.04264566666667, "fusion_lat": 0.0}, {"is_reserved": 0, "bike_id": "7dd90fdaab7e05f910704e961d0977f6", "type": "electric_scooter", "name": "7dd90fdaab7e05f910704e961d0977f6", "is_disabled": 0, "fusion_lon": 0.0, "rental_uris": {"android": "https://dc.lft.to/lastmile_qr_scan", "ios": "https://dc.lft.to/lastmile_qr_scan"}, "lat": 38.89635, "lon": -77.03323766666666, "fusion_lat": 0.0}, {"is_reserved": 0, "bike_id": "4f159d4c7d25e03bee5dd1b2d05c1040", "type": "electric_scooter", "name": "4f159d4c7d25e03bee5dd1b2d05c1040", "is_disabled": 0, "fusion_lon": 0.0, "rental_uris": {"android": "https://dc.lft.to/lastmile_qr_scan", "ios": "https://dc.lft.to/lastmile_qr_scan"}, "lat": 38.90638466666667, "lon": -77.01688883333334, "fusion_lat": 0.0}, {"is_reserved": 0, "bike_id": "9e81a4af303017c9ff6190d46e380cfa", "type": "electric_scooter", "name": "9e81a4af303017c9ff6190d46e380cfa", "is_disabled": 0, "fusion_lon": 0.0, "rental_uris": {"android": "https://dc.lft.to/lastmile_qr_scan", "ios": "https://dc.lft.to/lastmile_qr_scan"}, "lat": 38.92854166666667, "lon": -77.03307533333333, "fusion_lat": 0.0}, {"is_reserved": 0, "bike_id": "ed3874c2c16967f9651598e8ccc4c689", "type": "electric_scooter", "name": "ed3874c2c16967f9651598e8ccc4c689", "is_disabled": 0, "fusion_lon": 0.0, "rental_uris": {"android": "https://dc.lft.to/lastmile_qr_scan", "ios": "https://dc.lft.to/lastmile_qr_scan"}, "lat": 38.915431833333336, "lon": -77.04470066666667, "fusion_lat": 0.0}, {"is_reserved": 0, "bike_id": "50a34286aa32ed74a08cdf524c3ea038", "type": "electric_scooter", "name": "50a34286aa32ed74a08cdf524c3ea038", "is_disabled": 0, "fusion_lon": 0.0, "rental_uris": {"android": "https://dc.lft.to/lastmile_qr_scan", "ios": "https://dc.lft.to/lastmile_qr_scan"}, "lat": 38.94413333333333, "lon": -77.06336933333333, "fusion_lat": 0.0}, {"is_reserved": 0, "bike_id": "81eac8385465b337eb4a1b1613f40ef7", "type": "electric_scooter", "name": "81eac8385465b337eb4a1b1613f40ef7", "is_disabled": 0, "fusion_lon": 0.0, "rental_uris": {"android": "https://dc.lft.to/lastmile_qr_scan", "ios": "https://dc.lft.to/lastmile_qr_scan"}, "lat": 38.89988816666666, "lon": -76.99489566666666, "fusion_lat": 0.0}, {"is_reserved": 0, "bike_id": "9788c3156e556ca49a95e60e1a2a37b3", "type": "electric_scooter", "name": "9788c3156e556ca49a95e60e1a2a37b3", "is_disabled": 0, "fusion_lon": 0.0, "rental_uris": {"android": "https://dc.lft.to/lastmile_qr_scan", "ios": "https://dc.lft.to/lastmile_qr_scan"}, "lat": 38.89134883333333, "lon": -76.99021616666667, "fusion_lat": 0.0}, {"is_reserved": 0, "bike_id": "73fa4b227c62c2132ac5872eff39d4b5", "type": "electric_scooter", "name": "73fa4b227c62c2132ac5872eff39d4b5", "is_disabled": 0, "fusion_lon": 0.0, "rental_uris": {"android": "https://dc.lft.to/lastmile_qr_scan", "ios": "https://dc.lft.to/lastmile_qr_scan"}, "lat": 38.93534833333333, "lon": -77.0234925, "fusion_lat": 0.0}, {"is_reserved": 0, "bike_id": "3e0e3092acae347f69823f8689d1b25c", "type": "electric_scooter", "name": "3e0e3092acae347f69823f8689d1b25c", "is_disabled": 0, "fusion_lon": 0.0, "rental_uris": {"android": "https://dc.lft.to/lastmile_qr_scan", "ios": "https://dc.lft.to/lastmile_qr_scan"}, "lat": 38.91857183333333, "lon": -77.012973, "fusion_lat": 0.0}, {"is_reserved": 0, "bike_id": "905786e556ac5bff925f2ee3e1f39d22", "type": "electric_scooter", "name": "905786e556ac5bff925f2ee3e1f39d22", "is_disabled": 0, "fusion_lon": 0.0, "rental_uris": {"android": "https://dc.lft.to/lastmile_qr_scan", "ios": "https://dc.lft.to/lastmile_qr_scan"}, "lat": 38.9192755, "lon": -77.07990666666667, "fusion_lat": 0.0}, {"is_reserved": 0, "bike_id": "7011b5724b9c2eeb44485649440c1b10", "type": "electric_scooter", "name": "7011b5724b9c2eeb44485649440c1b10", "is_disabled": 0, "fusion_lon": 0.0, "rental_uris": {"android": "https://dc.lft.to/lastmile_qr_scan", "ios": "https://dc.lft.to/lastmile_qr_scan"}, "lat": 38.91197116666667, "lon": -77.03257716666667, "fusion_lat": 0.0}, {"is_reserved": 0, "bike_id": "f14a91ce5ba3e3de90cce9d6808cf818", "type": "electric_scooter", "name": "f14a91ce5ba3e3de90cce9d6808cf818", "is_disabled": 0, "fusion_lon": 0.0, "rental_uris": {"android": "https://dc.lft.to/lastmile_qr_scan", "ios": "https://dc.lft.to/lastmile_qr_scan"}, "lat": 38.900998666666666, "lon": -76.98336016666667, "fusion_lat": 0.0}, {"is_reserved": 0, "bike_id": "e4381ec3fbfa84ce3ad336203c0f9a7c", "type": "electric_scooter", "name": "e4381ec3fbfa84ce3ad336203c0f9a7c", "is_disabled": 0, "fusion_lon": 0.0, "rental_uris": {"android": "https://dc.lft.to/lastmile_qr_scan", "ios": "https://dc.lft.to/lastmile_qr_scan"}, "lat": 38.904103, "lon": -76.973275, "fusion_lat": 0.0}, {"is_reserved": 0, "bike_id": "3d469d17eb609756d5fd2c42f8db88a3", "type": "electric_scooter", "name": "3d469d17eb609756d5fd2c42f8db88a3", "is_disabled": 0, "fusion_lon": 0.0, "rental_uris": {"android": "https://dc.lft.to/lastmile_qr_scan", "ios": "https://dc.lft.to/lastmile_qr_scan"}, "lat": 38.912346166666666, "lon": -77.0188575, "fusion_lat": 0.0}, {"is_reserved": 0, "bike_id": "431e47c96416b8351c890c5c0faaf887", "type": "electric_bike", "name": "431e47c96416b8351c890c5c0faaf887", "is_disabled": 0, "fusion_lon": 0.0, "rental_uris": {"android": "https://dc.lft.to/lastmile_qr_scan", "ios": "https://dc.lft.to/lastmile_qr_scan"}, "lat": 38.947281833333335, "lon": -77.02582116666666, "fusion_lat": 0.0}, {"is_reserved": 0, "bike_id": "a79b01cee33600d36d92d42f6094f9d1", "type": "electric_scooter", "name": "a79b01cee33600d36d92d42f6094f9d1", "is_disabled": 0, "fusion_lon": 0.0, "rental_uris": {"android": "https://dc.lft.to/lastmile_qr_scan", "ios": "https://dc.lft.to/lastmile_qr_scan"}, "lat": 38.902786166666665, "lon": -77.00191716666667, "fusion_lat": 0.0}, {"is_reserved": 0, "bike_id": "9aa4edc48df909060d983ae47fcd67de", "type": "electric_scooter", "name": "9aa4edc48df909060d983ae47fcd67de", "is_disabled": 0, "fusion_lon": 0.0, "rental_uris": {"android": "https://dc.lft.to/lastmile_qr_scan", "ios": "https://dc.lft.to/lastmile_qr_scan"}, "lat": 38.890278, "lon": -76.944635, "fusion_lat": 0.0}, {"is_reserved": 0, "bike_id": "451c8630f7f341628cc5961f40f05e5f", "type": "electric_scooter", "name": "451c8630f7f341628cc5961f40f05e5f", "is_disabled": 0, "fusion_lon": 0.0, "rental_uris": {"android": "https://dc.lft.to/lastmile_qr_scan", "ios": "https://dc.lft.to/lastmile_qr_scan"}, "lat": 38.87863816666667, "lon": -77.00837183333333, "fusion_lat": 0.0}, {"is_reserved": 0, "bike_id": "4a0579f24a659721c874109db4c111d7", "type": "electric_scooter", "name": "4a0579f24a659721c874109db4c111d7", "is_disabled": 0, "fusion_lon": 0.0, "rental_uris": {"android": "https://dc.lft.to/lastmile_qr_scan", "ios": "https://dc.lft.to/lastmile_qr_scan"}, "lat": 38.90543533333334, "lon": -77.03442266666667, "fusion_lat": 0.0}, {"is_reserved": 0, "bike_id": "accb917d5270322158cd9642a221a51b", "type": "electric_scooter", "name": "accb917d5270322158cd9642a221a51b", "is_disabled": 0, "fusion_lon": 0.0, "rental_uris": {"android": "https://dc.lft.to/lastmile_qr_scan", "ios": "https://dc.lft.to/lastmile_qr_scan"}, "lat": 38.911174833333334, "lon": -77.04089816666666, "fusion_lat": 0.0}, {"is_reserved": 0, "bike_id": "fe26fcfdd86366d7a76ab1ef5b7da91b", "type": "electric_scooter", "name": "fe26fcfdd86366d7a76ab1ef5b7da91b", "is_disabled": 0, "fusion_lon": 0.0, "rental_uris": {"android": "https://dc.lft.to/lastmile_qr_scan", "ios": "https://dc.lft.to/lastmile_qr_scan"}, "lat": 38.9002735, "lon": -76.99868816666667, "fusion_lat": 0.0}, {"is_reserved": 0, "bike_id": "1d41e0ae8825616d8ef3759993cb3793", "type": "electric_scooter", "name": "1d41e0ae8825616d8ef3759993cb3793", "is_disabled": 0, "fusion_lon": 0.0, "rental_uris": {"android": "https://dc.lft.to/lastmile_qr_scan", "ios": "https://dc.lft.to/lastmile_qr_scan"}, "lat": 38.88588333333333, "lon": -77.01974983333334, "fusion_lat": 0.0}, {"is_reserved": 0, "bike_id": "959aa874e1a7757a193fd1242aac7042", "type": "electric_scooter", "name": "959aa874e1a7757a193fd1242aac7042", "is_disabled": 0, "fusion_lon": 0.0, "rental_uris": {"android": "https://dc.lft.to/lastmile_qr_scan", "ios": "https://dc.lft.to/lastmile_qr_scan"}, "lat": 38.90956366666666, "lon": -77.034675, "fusion_lat": 0.0}, {"is_reserved": 0, "bike_id": "1f50f3ce863535fcfd7176d95ebb7244", "type": "electric_scooter", "name": "1f50f3ce863535fcfd7176d95ebb7244", "is_disabled": 0, "fusion_lon": 0.0, "rental_uris": {"android": "https://dc.lft.to/lastmile_qr_scan", "ios": "https://dc.lft.to/lastmile_qr_scan"}, "lat": 38.9002865, "lon": -76.99868166666667, "fusion_lat": 0.0}, {"is_reserved": 0, "bike_id": "db1c374cf34eeab8fe245327935e3ac4", "type": "electric_scooter", "name": "db1c374cf34eeab8fe245327935e3ac4", "is_disabled": 0, "fusion_lon": 0.0, "rental_uris": {"android": "https://dc.lft.to/lastmile_qr_scan", "ios": "https://dc.lft.to/lastmile_qr_scan"}, "lat": 38.90207766666666, "lon": -77.0480125, "fusion_lat": 0.0}, {"is_reserved": 0, "bike_id": "f6388eda528e150b04300e2ed33585ef", "type": "electric_scooter", "name": "f6388eda528e150b04300e2ed33585ef", "is_disabled": 0, "fusion_lon": 0.0, "rental_uris": {"android": "https://dc.lft.to/lastmile_qr_scan", "ios": "https://dc.lft.to/lastmile_qr_scan"}, "lat": 38.914477833333336, "lon": -77.02289, "fusion_lat": 0.0}, {"is_reserved": 0, "bike_id": "46821cb96c727871b58e7708f17a3533", "type": "electric_scooter", "name": "46821cb96c727871b58e7708f17a3533", "is_disabled": 0, "fusion_lon": 0.0, "rental_uris": {"android": "https://dc.lft.to/lastmile_qr_scan", "ios": "https://dc.lft.to/lastmile_qr_scan"}, "lat": 38.889681833333334, "lon": -76.98036216666667, "fusion_lat": 0.0}, {"is_reserved": 0, "bike_id": "3d0451afa2589d5b70f7b5860049b55e", "type": "electric_scooter", "name": "3d0451afa2589d5b70f7b5860049b55e", "is_disabled": 0, "fusion_lon": 0.0, "rental_uris": {"android": "https://dc.lft.to/lastmile_qr_scan", "ios": "https://dc.lft.to/lastmile_qr_scan"}, "lat": 38.932651166666666, "lon": -77.01922983333333, "fusion_lat": 0.0}, {"is_reserved": 0, "bike_id": "73e4849acc85726682cd2e292d2fe37a", "type": "electric_scooter", "name": "73e4849acc85726682cd2e292d2fe37a", "is_disabled": 0, "fusion_lon": 0.0, "rental_uris": {"android": "https://dc.lft.to/lastmile_qr_scan", "ios": "https://dc.lft.to/lastmile_qr_scan"}, "lat": 38.927620166666664, "lon": -77.03656283333333, "fusion_lat": 0.0}, {"is_reserved": 0, "bike_id": "ac881c764e39351fd41bbc40756e4206", "type": "electric_scooter", "name": "ac881c764e39351fd41bbc40756e4206", "is_disabled": 0, "fusion_lon": 0.0, "rental_uris": {"android": "https://dc.lft.to/lastmile_qr_scan", "ios": "https://dc.lft.to/lastmile_qr_scan"}, "lat": 38.922284833333336, "lon": -77.03897466666666, "fusion_lat": 0.0}, {"is_reserved": 0, "bike_id": "c956ba6e499d37a7d8a320173779615b", "type": "electric_scooter", "name": "c956ba6e499d37a7d8a320173779615b", "is_disabled": 0, "fusion_lon": 0.0, "rental_uris": {"android": "https://dc.lft.to/lastmile_qr_scan", "ios": "https://dc.lft.to/lastmile_qr_scan"}, "lat": 38.930315666666665, "lon": -77.02631133333334, "fusion_lat": 0.0}, {"is_reserved": 0, "bike_id": "75c7c8d5a800b8846a6f886fd16000e7", "type": "electric_bike", "name": "75c7c8d5a800b8846a6f886fd16000e7", "is_disabled": 0, "fusion_lon": 0.0, "rental_uris": {"android": "https://dc.lft.to/lastmile_qr_scan", "ios": "https://dc.lft.to/lastmile_qr_scan"}, "lat": 38.881369166666666, "lon": -76.98112633333334, "fusion_lat": 0.0}, {"is_reserved": 0, "bike_id": "e684e09bdcc228a8f3ffa0f3368891b8", "type": "electric_scooter", "name": "e684e09bdcc228a8f3ffa0f3368891b8", "is_disabled": 0, "fusion_lon": 0.0, "rental_uris": {"android": "https://dc.lft.to/lastmile_qr_scan", "ios": "https://dc.lft.to/lastmile_qr_scan"}, "lat": 38.923289, "lon": -77.05572083333334, "fusion_lat": 0.0}, {"is_reserved": 0, "bike_id": "dbe01a5178a15a3f84528da1f450b96b", "type": "electric_scooter", "name": "dbe01a5178a15a3f84528da1f450b96b", "is_disabled": 0, "fusion_lon": 0.0, "rental_uris": {"android": "https://dc.lft.to/lastmile_qr_scan", "ios": "https://dc.lft.to/lastmile_qr_scan"}, "lat": 38.924435, "lon": -77.0365685, "fusion_lat": 0.0}, {"is_reserved": 0, "bike_id": "37cba736da515edcfc87f7b3ea7a6da0", "type": "electric_scooter", "name": "37cba736da515edcfc87f7b3ea7a6da0", "is_disabled": 0, "fusion_lon": 0.0, "rental_uris": {"android": "https://dc.lft.to/lastmile_qr_scan", "ios": "https://dc.lft.to/lastmile_qr_scan"}, "lat": 38.907843, "lon": -77.0725285, "fusion_lat": 0.0}, {"is_reserved": 0, "bike_id": "f330d9658f7d99e2eaeca06ed179c1c0", "type": "electric_scooter", "name": "f330d9658f7d99e2eaeca06ed179c1c0", "is_disabled": 0, "fusion_lon": 0.0, "rental_uris": {"android": "https://dc.lft.to/lastmile_qr_scan", "ios": "https://dc.lft.to/lastmile_qr_scan"}, "lat": 38.890352, "lon": -76.99010466666667, "fusion_lat": 0.0}, {"is_reserved": 0, "bike_id": "d24928d678eac4e75fb17802d0cb3ab5", "type": "electric_scooter", "name": "d24928d678eac4e75fb17802d0cb3ab5", "is_disabled": 0, "fusion_lon": 0.0, "rental_uris": {"android": "https://dc.lft.to/lastmile_qr_scan", "ios": "https://dc.lft.to/lastmile_qr_scan"}, "lat": 38.89848766666667, "lon": -77.04340516666667, "fusion_lat": 0.0}, {"is_reserved": 0, "bike_id": "75534532b03409d62c210071f8c3c499", "type": "electric_bike", "name": "75534532b03409d62c210071f8c3c499", "is_disabled": 0, "fusion_lon": 0.0, "rental_uris": {"android": "https://dc.lft.to/lastmile_qr_scan", "ios": "https://dc.lft.to/lastmile_qr_scan"}, "lat": 38.932708166666664, "lon": -77.06561416666666, "fusion_lat": 0.0}, {"is_reserved": 0, "bike_id": "354882d1b9defc769cc89a85f67a2437", "type": "electric_scooter", "name": "354882d1b9defc769cc89a85f67a2437", "is_disabled": 0, "fusion_lon": 0.0, "rental_uris": {"android": "https://dc.lft.to/lastmile_qr_scan", "ios": "https://dc.lft.to/lastmile_qr_scan"}, "lat": 38.90098416666667, "lon": -77.0502225, "fusion_lat": 0.0}, {"is_reserved": 0, "bike_id": "5627366b81c05c8124cdde767801cdac", "type": "electric_scooter", "name": "5627366b81c05c8124cdde767801cdac", "is_disabled": 0, "fusion_lon": 0.0, "rental_uris": {"android": "https://dc.lft.to/lastmile_qr_scan", "ios": "https://dc.lft.to/lastmile_qr_scan"}, "lat": 38.907084, "lon": -76.98699333333333, "fusion_lat": 0.0}, {"is_reserved": 0, "bike_id": "f6827fe21b97f9d7e5f05872bba9fc6f", "type": "electric_scooter", "name": "f6827fe21b97f9d7e5f05872bba9fc6f", "is_disabled": 0, "fusion_lon": 0.0, "rental_uris": {"android": "https://dc.lft.to/lastmile_qr_scan", "ios": "https://dc.lft.to/lastmile_qr_scan"}, "lat": 38.910437333333334, "lon": -77.06456533333333, "fusion_lat": 0.0}, {"is_reserved": 0, "bike_id": "8f3d98415e979db4c662b448d1695263", "type": "electric_scooter", "name": "8f3d98415e979db4c662b448d1695263", "is_disabled": 0, "fusion_lon": 0.0, "rental_uris": {"android": "https://dc.lft.to/lastmile_qr_scan", "ios": "https://dc.lft.to/lastmile_qr_scan"}, "lat": 38.900160666666665, "lon": -77.02283516666667, "fusion_lat": 0.0}, {"is_reserved": 0, "bike_id": "dc72e3af49bfffce767a7313197ae4ac", "type": "electric_scooter", "name": "dc72e3af49bfffce767a7313197ae4ac", "is_disabled": 0, "fusion_lon": 0.0, "rental_uris": {"android": "https://dc.lft.to/lastmile_qr_scan", "ios": "https://dc.lft.to/lastmile_qr_scan"}, "lat": 38.935316666666665, "lon": -77.02345933333334, "fusion_lat": 0.0}, {"is_reserved": 0, "bike_id": "634e4e9cba66fb8b7abaff5604746b17", "type": "electric_bike", "name": "634e4e9cba66fb8b7abaff5604746b17", "is_disabled": 0, "fusion_lon": 0.0, "rental_uris": {"android": "https://dc.lft.to/lastmile_qr_scan", "ios": "https://dc.lft.to/lastmile_qr_scan"}, "lat": 38.92895766666667, "lon": -77.23176416666666, "fusion_lat": 0.0}, {"is_reserved": 0, "bike_id": "722309234706e0f78edeeccf4b134f3b", "type": "electric_scooter", "name": "722309234706e0f78edeeccf4b134f3b", "is_disabled": 0, "fusion_lon": 0.0, "rental_uris": {"android": "https://dc.lft.to/lastmile_qr_scan", "ios": "https://dc.lft.to/lastmile_qr_scan"}, "lat": 38.909799166666666, "lon": -77.00876916666667, "fusion_lat": 0.0}, {"is_reserved": 0, "bike_id": "edbb675abb083923dd0f935e344ce361", "type": "electric_bike", "name": "edbb675abb083923dd0f935e344ce361", "is_disabled": 0, "fusion_lon": 0.0, "rental_uris": {"android": "https://dc.lft.to/lastmile_qr_scan", "ios": "https://dc.lft.to/lastmile_qr_scan"}, "lat": 38.83825133333333, "lon": -77.0792565, "fusion_lat": 0.0}, {"is_reserved": 0, "bike_id": "9604d28507bd6f007b4703a5486b23fd", "type": "electric_scooter", "name": "9604d28507bd6f007b4703a5486b23fd", "is_disabled": 0, "fusion_lon": 0.0, "rental_uris": {"android": "https://dc.lft.to/lastmile_qr_scan", "ios": "https://dc.lft.to/lastmile_qr_scan"}, "lat": 38.922456333333336, "lon": -77.03074383333333, "fusion_lat": 0.0}, {"is_reserved": 0, "bike_id": "e52f25af994a4ed83b758a22f96ff4fd", "type": "electric_scooter", "name": "e52f25af994a4ed83b758a22f96ff4fd", "is_disabled": 0, "fusion_lon": 0.0, "rental_uris": {"android": "https://dc.lft.to/lastmile_qr_scan", "ios": "https://dc.lft.to/lastmile_qr_scan"}, "lat": 38.9104855, "lon": -77.03439866666666, "fusion_lat": 0.0}, {"is_reserved": 0, "bike_id": "ee12e98bd4218aec5855789e116130f1", "type": "electric_bike", "name": "ee12e98bd4218aec5855789e116130f1", "is_disabled": 0, "fusion_lon": 0.0, "rental_uris": {"android": "https://dc.lft.to/lastmile_qr_scan", "ios": "https://dc.lft.to/lastmile_qr_scan"}, "lat": 38.90978883333333, "lon": -77.08824316666667, "fusion_lat": 0.0}, {"is_reserved": 0, "bike_id": "a9f788970b9edacf9c5daf6434cc36e9", "type": "electric_scooter", "name": "a9f788970b9edacf9c5daf6434cc36e9", "is_disabled": 0, "fusion_lon": 0.0, "rental_uris": {"android": "https://dc.lft.to/lastmile_qr_scan", "ios": "https://dc.lft.to/lastmile_qr_scan"}, "lat": 38.92649616666667, "lon": -77.03704666666667, "fusion_lat": 0.0}, {"is_reserved": 0, "bike_id": "9201fb4bfcf2b3c1e57e6e2df4ae94fd", "type": "electric_scooter", "name": "9201fb4bfcf2b3c1e57e6e2df4ae94fd", "is_disabled": 0, "fusion_lon": 0.0, "rental_uris": {"android": "https://dc.lft.to/lastmile_qr_scan", "ios": "https://dc.lft.to/lastmile_qr_scan"}, "lat": 38.93817, "lon": -77.02669166666666, "fusion_lat": 0.0}, {"is_reserved": 0, "bike_id": "657f4670a76c0df9213312eaab78c955", "type": "electric_scooter", "name": "657f4670a76c0df9213312eaab78c955", "is_disabled": 0, "fusion_lon": 0.0, "rental_uris": {"android": "https://dc.lft.to/lastmile_qr_scan", "ios": "https://dc.lft.to/lastmile_qr_scan"}, "lat": 38.898840666666665, "lon": -77.03926016666666, "fusion_lat": 0.0}, {"is_reserved": 0, "bike_id": "03234510935c7ea1b0508c666a7e90f1", "type": "electric_scooter", "name": "03234510935c7ea1b0508c666a7e90f1", "is_disabled": 0, "fusion_lon": 0.0, "rental_uris": {"android": "https://dc.lft.to/lastmile_qr_scan", "ios": "https://dc.lft.to/lastmile_qr_scan"}, "lat": 38.921567333333336, "lon": -77.0337975, "fusion_lat": 0.0}, {"is_reserved": 0, "bike_id": "56149700937baddefa7879742cee3f24", "type": "electric_scooter", "name": "56149700937baddefa7879742cee3f24", "is_disabled": 0, "fusion_lon": 0.0, "rental_uris": {"android": "https://dc.lft.to/lastmile_qr_scan", "ios": "https://dc.lft.to/lastmile_qr_scan"}, "lat": 38.88653983333333, "lon": -77.001004, "fusion_lat": 0.0}, {"is_reserved": 0, "bike_id": "90619dc3eb0251dfbbc39fabb620daf7", "type": "electric_scooter", "name": "90619dc3eb0251dfbbc39fabb620daf7", "is_disabled": 0, "fusion_lon": 0.0, "rental_uris": {"android": "https://dc.lft.to/lastmile_qr_scan", "ios": "https://dc.lft.to/lastmile_qr_scan"}, "lat": 38.92195266666667, "lon": -77.03519183333333, "fusion_lat": 0.0}, {"is_reserved": 0, "bike_id": "0fc53563380d014fceda75cb7fdc69fb", "type": "electric_bike", "name": "0fc53563380d014fceda75cb7fdc69fb", "is_disabled": 0, "fusion_lon": 0.0, "rental_uris": {"android": "https://dc.lft.to/lastmile_qr_scan", "ios": "https://dc.lft.to/lastmile_qr_scan"}, "lat": 38.83138116666667, "lon": -77.11330683333334, "fusion_lat": 0.0}, {"is_reserved": 0, "bike_id": "06742e70155720d8ad9a1ded5e1ccc46", "type": "electric_scooter", "name": "06742e70155720d8ad9a1ded5e1ccc46", "is_disabled": 0, "fusion_lon": 0.0, "rental_uris": {"android": "https://dc.lft.to/lastmile_qr_scan", "ios": "https://dc.lft.to/lastmile_qr_scan"}, "lat": 38.9581515, "lon": -77.01448416666666, "fusion_lat": 0.0}, {"is_reserved": 0, "bike_id": "482eb1b3f948221f59faff281d99e868", "type": "electric_scooter", "name": "482eb1b3f948221f59faff281d99e868", "is_disabled": 0, "fusion_lon": 0.0, "rental_uris": {"android": "https://dc.lft.to/lastmile_qr_scan", "ios": "https://dc.lft.to/lastmile_qr_scan"}, "lat": 38.92111666666667, "lon": -77.02240083333334, "fusion_lat": 0.0}, {"is_reserved": 0, "bike_id": "b9ddeed3b6c7afcbf64769f28484ea4d", "type": "electric_scooter", "name": "b9ddeed3b6c7afcbf64769f28484ea4d", "is_disabled": 0, "fusion_lon": 0.0, "rental_uris": {"android": "https://dc.lft.to/lastmile_qr_scan", "ios": "https://dc.lft.to/lastmile_qr_scan"}, "lat": 38.901159166666666, "lon": -77.04328683333334, "fusion_lat": 0.0}, {"is_reserved": 0, "bike_id": "c6e71b10633480af49ca1953fd29e1eb", "type": "electric_scooter", "name": "c6e71b10633480af49ca1953fd29e1eb", "is_disabled": 0, "fusion_lon": 0.0, "rental_uris": {"android": "https://dc.lft.to/lastmile_qr_scan", "ios": "https://dc.lft.to/lastmile_qr_scan"}, "lat": 38.88432566666667, "lon": -76.9967765, "fusion_lat": 0.0}, {"is_reserved": 0, "bike_id": "a6dd0fa22c53e7daf748b30406184cdd", "type": "electric_scooter", "name": "a6dd0fa22c53e7daf748b30406184cdd", "is_disabled": 0, "fusion_lon": 0.0, "rental_uris": {"android": "https://dc.lft.to/lastmile_qr_scan", "ios": "https://dc.lft.to/lastmile_qr_scan"}, "lat": 38.903738, "lon": -77.04213166666666, "fusion_lat": 0.0}, {"is_reserved": 0, "bike_id": "57324f6fed07a0af01a09ca650441670", "type": "electric_scooter", "name": "57324f6fed07a0af01a09ca650441670", "is_disabled": 0, "fusion_lon": 0.0, "rental_uris": {"android": "https://dc.lft.to/lastmile_qr_scan", "ios": "https://dc.lft.to/lastmile_qr_scan"}, "lat": 38.925994333333335, "lon": -77.02498666666666, "fusion_lat": 0.0}, {"is_reserved": 0, "bike_id": "ea8aa49d30d4bebb8807043ec0a3d1d7", "type": "electric_scooter", "name": "ea8aa49d30d4bebb8807043ec0a3d1d7", "is_disabled": 0, "fusion_lon": 0.0, "rental_uris": {"android": "https://dc.lft.to/lastmile_qr_scan", "ios": "https://dc.lft.to/lastmile_qr_scan"}, "lat": 38.90649, "lon": -76.9857725, "fusion_lat": 0.0}, {"is_reserved": 0, "bike_id": "44a28ff5722bef2f02ef308af3ece69b", "type": "electric_bike", "name": "44a28ff5722bef2f02ef308af3ece69b", "is_disabled": 0, "fusion_lon": 0.0, "rental_uris": {"android": "https://dc.lft.to/lastmile_qr_scan", "ios": "https://dc.lft.to/lastmile_qr_scan"}, "lat": 38.982193, "lon": -77.09658383333333, "fusion_lat": 0.0}, {"is_reserved": 0, "bike_id": "1e239976575dd0e98087baf8d4212c87", "type": "electric_scooter", "name": "1e239976575dd0e98087baf8d4212c87", "is_disabled": 0, "fusion_lon": 0.0, "rental_uris": {"android": "https://dc.lft.to/lastmile_qr_scan", "ios": "https://dc.lft.to/lastmile_qr_scan"}, "lat": 38.879634833333334, "lon": -77.00790966666666, "fusion_lat": 0.0}, {"is_reserved": 0, "bike_id": "21d1d086e64dbba940706a99c41014cf", "type": "electric_bike", "name": "21d1d086e64dbba940706a99c41014cf", "is_disabled": 0, "fusion_lon": 0.0, "rental_uris": {"android": "https://dc.lft.to/lastmile_qr_scan", "ios": "https://dc.lft.to/lastmile_qr_scan"}, "lat": 38.863603833333336, "lon": -77.08280416666666, "fusion_lat": 0.0}, {"is_reserved": 0, "bike_id": "a31ed1013ea4c7a603c06f5de2b14909", "type": "electric_bike", "name": "a31ed1013ea4c7a603c06f5de2b14909", "is_disabled": 0, "fusion_lon": 0.0, "rental_uris": {"android": "https://dc.lft.to/lastmile_qr_scan", "ios": "https://dc.lft.to/lastmile_qr_scan"}, "lat": 38.99231483333333, "lon": -77.06529816666666, "fusion_lat": 0.0}, {"is_reserved": 0, "bike_id": "464d9994f76dfce9289eed820741a672", "type": "electric_scooter", "name": "464d9994f76dfce9289eed820741a672", "is_disabled": 0, "fusion_lon": 0.0, "rental_uris": {"android": "https://dc.lft.to/lastmile_qr_scan", "ios": "https://dc.lft.to/lastmile_qr_scan"}, "lat": 38.96646883333333, "lon": -77.0275055, "fusion_lat": 0.0}, {"is_reserved": 0, "bike_id": "0c1e2bd14f21ede72601b700403a7238", "type": "electric_scooter", "name": "0c1e2bd14f21ede72601b700403a7238", "is_disabled": 0, "fusion_lon": 0.0, "rental_uris": {"android": "https://dc.lft.to/lastmile_qr_scan", "ios": "https://dc.lft.to/lastmile_qr_scan"}, "lat": 38.92096133333333, "lon": -77.02507483333333, "fusion_lat": 0.0}, {"is_reserved": 0, "bike_id": "08a575c4de1d058852580365f989e87e", "type": "electric_scooter", "name": "08a575c4de1d058852580365f989e87e", "is_disabled": 0, "fusion_lon": 0.0, "rental_uris": {"android": "https://dc.lft.to/lastmile_qr_scan", "ios": "https://dc.lft.to/lastmile_qr_scan"}, "lat": 38.9090065, "lon": -76.99911416666667, "fusion_lat": 0.0}, {"is_reserved": 0, "bike_id": "7c62f531322ad2e2a354dce8960be6b9", "type": "electric_bike", "name": "7c62f531322ad2e2a354dce8960be6b9", "is_disabled": 0, "fusion_lon": 0.0, "rental_uris": {"android": "https://dc.lft.to/lastmile_qr_scan", "ios": "https://dc.lft.to/lastmile_qr_scan"}, "lat": 38.99228433333333, "lon": -77.035858, "fusion_lat": 0.0}, {"is_reserved": 0, "bike_id": "6ad9ca190cddc0c3f9565846cd1f7014", "type": "electric_bike", "name": "6ad9ca190cddc0c3f9565846cd1f7014", "is_disabled": 0, "fusion_lon": 0.0, "rental_uris": {"android": "https://dc.lft.to/lastmile_qr_scan", "ios": "https://dc.lft.to/lastmile_qr_scan"}, "lat": 38.836076166666665, "lon": -77.00373966666666, "fusion_lat": 0.0}, {"is_reserved": 0, "bike_id": "3b25559a08b62bc30729cd8294f3c2ce", "type": "electric_scooter", "name": "3b25559a08b62bc30729cd8294f3c2ce", "is_disabled": 0, "fusion_lon": 0.0, "rental_uris": {"android": "https://dc.lft.to/lastmile_qr_scan", "ios": "https://dc.lft.to/lastmile_qr_scan"}, "lat": 38.947419, "lon": -77.02370216666667, "fusion_lat": 0.0}, {"is_reserved": 0, "bike_id": "071d895f81333275ad44d16c586ca2d6", "type": "electric_scooter", "name": "071d895f81333275ad44d16c586ca2d6", "is_disabled": 0, "fusion_lon": 0.0, "rental_uris": {"android": "https://dc.lft.to/lastmile_qr_scan", "ios": "https://dc.lft.to/lastmile_qr_scan"}, "lat": 38.904605333333336, "lon": -77.01631733333333, "fusion_lat": 0.0}, {"is_reserved": 0, "bike_id": "50864a6f285d8977b3f7cea43c514ace", "type": "electric_scooter", "name": "50864a6f285d8977b3f7cea43c514ace", "is_disabled": 0, "fusion_lon": 0.0, "rental_uris": {"android": "https://dc.lft.to/lastmile_qr_scan", "ios": "https://dc.lft.to/lastmile_qr_scan"}, "lat": 38.8974015, "lon": -77.00779783333333, "fusion_lat": 0.0}, {"is_reserved": 0, "bike_id": "6811fdf8ec70241035e64fccb4eaa3c8", "type": "electric_scooter", "name": "6811fdf8ec70241035e64fccb4eaa3c8", "is_disabled": 0, "fusion_lon": 0.0, "rental_uris": {"android": "https://dc.lft.to/lastmile_qr_scan", "ios": "https://dc.lft.to/lastmile_qr_scan"}, "lat": 38.899245666666665, "lon": -77.02800883333333, "fusion_lat": 0.0}, {"is_reserved": 0, "bike_id": "96c5a3bb4191a7dfa80cc845df2c369e", "type": "electric_scooter", "name": "96c5a3bb4191a7dfa80cc845df2c369e", "is_disabled": 0, "fusion_lon": 0.0, "rental_uris": {"android": "https://dc.lft.to/lastmile_qr_scan", "ios": "https://dc.lft.to/lastmile_qr_scan"}, "lat": 38.92419116666667, "lon": -77.01939733333333, "fusion_lat": 0.0}, {"is_reserved": 0, "bike_id": "3aa170beff0e09e254c9df7f77a2d77f", "type": "electric_scooter", "name": "3aa170beff0e09e254c9df7f77a2d77f", "is_disabled": 0, "fusion_lon": 0.0, "rental_uris": {"android": "https://dc.lft.to/lastmile_qr_scan", "ios": "https://dc.lft.to/lastmile_qr_scan"}, "lat": 38.931884333333336, "lon": -77.03867866666667, "fusion_lat": 0.0}, {"is_reserved": 0, "bike_id": "a2c177fb0ca6ba9de1b165bf43fc421f", "type": "electric_scooter", "name": "a2c177fb0ca6ba9de1b165bf43fc421f", "is_disabled": 0, "fusion_lon": 0.0, "rental_uris": {"android": "https://dc.lft.to/lastmile_qr_scan", "ios": "https://dc.lft.to/lastmile_qr_scan"}, "lat": 38.897275666666665, "lon": -77.02679716666667, "fusion_lat": 0.0}, {"is_reserved": 0, "bike_id": "a503191150d51503aeb68e7687d7e0a1", "type": "electric_bike", "name": "a503191150d51503aeb68e7687d7e0a1", "is_disabled": 0, "fusion_lon": 0.0, "rental_uris": {"android": "https://dc.lft.to/lastmile_qr_scan", "ios": "https://dc.lft.to/lastmile_qr_scan"}, "lat": 38.83813516666667, "lon": -77.00277833333334, "fusion_lat": 0.0}, {"is_reserved": 0, "bike_id": "22dcd194ba5c0700586103ff6fb5b0ee", "type": "electric_scooter", "name": "22dcd194ba5c0700586103ff6fb5b0ee", "is_disabled": 0, "fusion_lon": 0.0, "rental_uris": {"android": "https://dc.lft.to/lastmile_qr_scan", "ios": "https://dc.lft.to/lastmile_qr_scan"}, "lat": 38.915899833333334, "lon": -77.01458166666667, "fusion_lat": 0.0}, {"is_reserved": 0, "bike_id": "eac23b3ddc548c774d40abbcc28db073", "type": "electric_scooter", "name": "eac23b3ddc548c774d40abbcc28db073", "is_disabled": 0, "fusion_lon": 0.0, "rental_uris": {"android": "https://dc.lft.to/lastmile_qr_scan", "ios": "https://dc.lft.to/lastmile_qr_scan"}, "lat": 38.919322333333334, "lon": -77.03421766666666, "fusion_lat": 0.0}, {"is_reserved": 0, "bike_id": "161c667998a49279f53252b78130279d", "type": "electric_scooter", "name": "161c667998a49279f53252b78130279d", "is_disabled": 0, "fusion_lon": 0.0, "rental_uris": {"android": "https://dc.lft.to/lastmile_qr_scan", "ios": "https://dc.lft.to/lastmile_qr_scan"}, "lat": 38.89727933333333, "lon": -77.0268025, "fusion_lat": 0.0}, {"is_reserved": 0, "bike_id": "db59c8c857e2ed150cddf5b22607f623", "type": "electric_scooter", "name": "db59c8c857e2ed150cddf5b22607f623", "is_disabled": 0, "fusion_lon": 0.0, "rental_uris": {"android": "https://dc.lft.to/lastmile_qr_scan", "ios": "https://dc.lft.to/lastmile_qr_scan"}, "lat": 38.942798, "lon": -77.02930866666667, "fusion_lat": 0.0}, {"is_reserved": 0, "bike_id": "86c0606fb543a7d749d52b7e50c14384", "type": "electric_bike", "name": "86c0606fb543a7d749d52b7e50c14384", "is_disabled": 0, "fusion_lon": 0.0, "rental_uris": {"android": "https://dc.lft.to/lastmile_qr_scan", "ios": "https://dc.lft.to/lastmile_qr_scan"}, "lat": 38.93514166666667, "lon": -77.05413383333334, "fusion_lat": 0.0}, {"is_reserved": 0, "bike_id": "716f4f5b3d33148d1174b1e339c0fadc", "type": "electric_scooter", "name": "716f4f5b3d33148d1174b1e339c0fadc", "is_disabled": 0, "fusion_lon": 0.0, "rental_uris": {"android": "https://dc.lft.to/lastmile_qr_scan", "ios": "https://dc.lft.to/lastmile_qr_scan"}, "lat": 38.927182, "lon": -77.05978733333333, "fusion_lat": 0.0}, {"is_reserved": 0, "bike_id": "cd7281d7ea759c355bc8d052dfb7b3be", "type": "electric_scooter", "name": "cd7281d7ea759c355bc8d052dfb7b3be", "is_disabled": 0, "fusion_lon": 0.0, "rental_uris": {"android": "https://dc.lft.to/lastmile_qr_scan", "ios": "https://dc.lft.to/lastmile_qr_scan"}, "lat": 38.926019833333335, "lon": -77.02148933333334, "fusion_lat": 0.0}, {"is_reserved": 0, "bike_id": "8cf724a82cb0115f19ce9a0f824c36b8", "type": "electric_bike", "name": "8cf724a82cb0115f19ce9a0f824c36b8", "is_disabled": 0, "fusion_lon": 0.0, "rental_uris": {"android": "https://dc.lft.to/lastmile_qr_scan", "ios": "https://dc.lft.to/lastmile_qr_scan"}, "lat": 39.0038025, "lon": -77.01292183333334, "fusion_lat": 0.0}, {"is_reserved": 0, "bike_id": "baa64c4edbab784d2cb8bd6ec27124bc", "type": "electric_scooter", "name": "baa64c4edbab784d2cb8bd6ec27124bc", "is_disabled": 0, "fusion_lon": 0.0, "rental_uris": {"android": "https://dc.lft.to/lastmile_qr_scan", "ios": "https://dc.lft.to/lastmile_qr_scan"}, "lat": 38.901254333333334, "lon": -77.017876, "fusion_lat": 0.0}, {"is_reserved": 0, "bike_id": "82f73d4541c89432d9ba08140dc303bd", "type": "electric_scooter", "name": "82f73d4541c89432d9ba08140dc303bd", "is_disabled": 0, "fusion_lon": 0.0, "rental_uris": {"android": "https://dc.lft.to/lastmile_qr_scan", "ios": "https://dc.lft.to/lastmile_qr_scan"}, "lat": 38.944536166666666, "lon": -77.02333666666667, "fusion_lat": 0.0}, {"is_reserved": 0, "bike_id": "32ce5e01fe5340138b199577dd159e01", "type": "electric_scooter", "name": "32ce5e01fe5340138b199577dd159e01", "is_disabled": 0, "fusion_lon": 0.0, "rental_uris": {"android": "https://dc.lft.to/lastmile_qr_scan", "ios": "https://dc.lft.to/lastmile_qr_scan"}, "lat": 38.935353166666665, "lon": -77.03091216666667, "fusion_lat": 0.0}, {"is_reserved": 0, "bike_id": "05a526c93ab951ea318068620495fe37", "type": "electric_bike", "name": "05a526c93ab951ea318068620495fe37", "is_disabled": 0, "fusion_lon": 0.0, "rental_uris": {"android": "https://dc.lft.to/lastmile_qr_scan", "ios": "https://dc.lft.to/lastmile_qr_scan"}, "lat": 38.966817166666665, "lon": -77.02296133333333, "fusion_lat": 0.0}, {"is_reserved": 0, "bike_id": "8c706cef29378c5c9d501bfb1c6f7b11", "type": "electric_scooter", "name": "8c706cef29378c5c9d501bfb1c6f7b11", "is_disabled": 0, "fusion_lon": 0.0, "rental_uris": {"android": "https://dc.lft.to/lastmile_qr_scan", "ios": "https://dc.lft.to/lastmile_qr_scan"}, "lat": 38.919192, "lon": -77.0299505, "fusion_lat": 0.0}, {"is_reserved": 0, "bike_id": "eebc30491aacfb5bb47ab6e4832f2714", "type": "electric_scooter", "name": "eebc30491aacfb5bb47ab6e4832f2714", "is_disabled": 0, "fusion_lon": 0.0, "rental_uris": {"android": "https://dc.lft.to/lastmile_qr_scan", "ios": "https://dc.lft.to/lastmile_qr_scan"}, "lat": 38.927000666666665, "lon": -77.0207945, "fusion_lat": 0.0}, {"is_reserved": 0, "bike_id": "3caff6dc474c4ba5090e0bc767da9caf", "type": "electric_scooter", "name": "3caff6dc474c4ba5090e0bc767da9caf", "is_disabled": 0, "fusion_lon": 0.0, "rental_uris": {"android": "https://dc.lft.to/lastmile_qr_scan", "ios": "https://dc.lft.to/lastmile_qr_scan"}, "lat": 38.91206433333333, "lon": -77.0321075, "fusion_lat": 0.0}, {"is_reserved": 0, "bike_id": "32263da0a34a6c5e134cf3d3639116c5", "type": "electric_scooter", "name": "32263da0a34a6c5e134cf3d3639116c5", "is_disabled": 0, "fusion_lon": 0.0, "rental_uris": {"android": "https://dc.lft.to/lastmile_qr_scan", "ios": "https://dc.lft.to/lastmile_qr_scan"}, "lat": 38.92294016666666, "lon": -77.02243816666666, "fusion_lat": 0.0}, {"is_reserved": 0, "bike_id": "5f9e3bae8f59a1a42da9ff0ef290a61c", "type": "electric_scooter", "name": "5f9e3bae8f59a1a42da9ff0ef290a61c", "is_disabled": 0, "fusion_lon": 0.0, "rental_uris": {"android": "https://dc.lft.to/lastmile_qr_scan", "ios": "https://dc.lft.to/lastmile_qr_scan"}, "lat": 38.90891166666667, "lon": -76.98235566666666, "fusion_lat": 0.0}, {"is_reserved": 0, "bike_id": "b448c5e09b3cc033c931555dced4889c", "type": "electric_scooter", "name": "b448c5e09b3cc033c931555dced4889c", "is_disabled": 0, "fusion_lon": 0.0, "rental_uris": {"android": "https://dc.lft.to/lastmile_qr_scan", "ios": "https://dc.lft.to/lastmile_qr_scan"}, "lat": 38.880749333333334, "lon": -76.9321645, "fusion_lat": 0.0}, {"is_reserved": 0, "bike_id": "dd7c6f5b292d4291915078c80536fc51", "type": "electric_scooter", "name": "dd7c6f5b292d4291915078c80536fc51", "is_disabled": 0, "fusion_lon": 0.0, "rental_uris": {"android": "https://dc.lft.to/lastmile_qr_scan", "ios": "https://dc.lft.to/lastmile_qr_scan"}, "lat": 38.9255325, "lon": -77.05293566666667, "fusion_lat": 0.0}, {"is_reserved": 0, "bike_id": "b80fb70638806c79c8f31e7c38e4fd88", "type": "electric_scooter", "name": "b80fb70638806c79c8f31e7c38e4fd88", "is_disabled": 0, "fusion_lon": 0.0, "rental_uris": {"android": "https://dc.lft.to/lastmile_qr_scan", "ios": "https://dc.lft.to/lastmile_qr_scan"}, "lat": 38.918158166666664, "lon": -77.027242, "fusion_lat": 0.0}, {"is_reserved": 0, "bike_id": "6c51bc9a2285219c7e788f0b078e1b14", "type": "electric_scooter", "name": "6c51bc9a2285219c7e788f0b078e1b14", "is_disabled": 0, "fusion_lon": 0.0, "rental_uris": {"android": "https://dc.lft.to/lastmile_qr_scan", "ios": "https://dc.lft.to/lastmile_qr_scan"}, "lat": 38.892042833333335, "lon": -76.99014533333333, "fusion_lat": 0.0}, {"is_reserved": 0, "bike_id": "da4073d7ad53af2d5e90f995c2122fad", "type": "electric_scooter", "name": "da4073d7ad53af2d5e90f995c2122fad", "is_disabled": 0, "fusion_lon": 0.0, "rental_uris": {"android": "https://dc.lft.to/lastmile_qr_scan", "ios": "https://dc.lft.to/lastmile_qr_scan"}, "lat": 38.88089683333333, "lon": -76.99510166666667, "fusion_lat": 0.0}, {"is_reserved": 0, "bike_id": "748ed801cb621cca66d6d4d7f3c0b2e7", "type": "electric_scooter", "name": "748ed801cb621cca66d6d4d7f3c0b2e7", "is_disabled": 0, "fusion_lon": 0.0, "rental_uris": {"android": "https://dc.lft.to/lastmile_qr_scan", "ios": "https://dc.lft.to/lastmile_qr_scan"}, "lat": 38.912643, "lon": -77.0386675, "fusion_lat": 0.0}, {"is_reserved": 0, "bike_id": "01901d4e0f5c9bdd3009d1386795caa5", "type": "electric_scooter", "name": "01901d4e0f5c9bdd3009d1386795caa5", "is_disabled": 0, "fusion_lon": 0.0, "rental_uris": {"android": "https://dc.lft.to/lastmile_qr_scan", "ios": "https://dc.lft.to/lastmile_qr_scan"}, "lat": 38.886031, "lon": -76.92502116666667, "fusion_lat": 0.0}, {"is_reserved": 0, "bike_id": "7578b0dcd63cf5c1346f3a14872061e1", "type": "electric_scooter", "name": "7578b0dcd63cf5c1346f3a14872061e1", "is_disabled": 0, "fusion_lon": 0.0, "rental_uris": {"android": "https://dc.lft.to/lastmile_qr_scan", "ios": "https://dc.lft.to/lastmile_qr_scan"}, "lat": 38.87287033333333, "lon": -77.0169815, "fusion_lat": 0.0}, {"is_reserved": 0, "bike_id": "03283f28f018081002365bc810c99b2e", "type": "electric_scooter", "name": "03283f28f018081002365bc810c99b2e", "is_disabled": 0, "fusion_lon": 0.0, "rental_uris": {"android": "https://dc.lft.to/lastmile_qr_scan", "ios": "https://dc.lft.to/lastmile_qr_scan"}, "lat": 38.87683333333333, "lon": -77.0006195, "fusion_lat": 0.0}, {"is_reserved": 0, "bike_id": "63bcb4552b78568f512855606b4f1158", "type": "electric_scooter", "name": "63bcb4552b78568f512855606b4f1158", "is_disabled": 0, "fusion_lon": 0.0, "rental_uris": {"android": "https://dc.lft.to/lastmile_qr_scan", "ios": "https://dc.lft.to/lastmile_qr_scan"}, "lat": 38.916024166666666, "lon": -77.036635, "fusion_lat": 0.0}, {"is_reserved": 0, "bike_id": "b9d9370bd30f6de4ebdc2cb7cbcaf880", "type": "electric_scooter", "name": "b9d9370bd30f6de4ebdc2cb7cbcaf880", "is_disabled": 0, "fusion_lon": 0.0, "rental_uris": {"android": "https://dc.lft.to/lastmile_qr_scan", "ios": "https://dc.lft.to/lastmile_qr_scan"}, "lat": 38.9208485, "lon": -77.03654233333333, "fusion_lat": 0.0}, {"is_reserved": 0, "bike_id": "da9f053dcdfaa86ebd7ae5631ef6af9f", "type": "electric_scooter", "name": "da9f053dcdfaa86ebd7ae5631ef6af9f", "is_disabled": 0, "fusion_lon": 0.0, "rental_uris": {"android": "https://dc.lft.to/lastmile_qr_scan", "ios": "https://dc.lft.to/lastmile_qr_scan"}, "lat": 38.95614233333333, "lon": -77.02763333333333, "fusion_lat": 0.0}, {"is_reserved": 0, "bike_id": "6a7f599552059427cce0f4cd6a027087", "type": "electric_scooter", "name": "6a7f599552059427cce0f4cd6a027087", "is_disabled": 0, "fusion_lon": 0.0, "rental_uris": {"android": "https://dc.lft.to/lastmile_qr_scan", "ios": "https://dc.lft.to/lastmile_qr_scan"}, "lat": 38.92418083333333, "lon": -77.03537266666666, "fusion_lat": 0.0}, {"is_reserved": 0, "bike_id": "98db7620b2df4216a528d330ea94af87", "type": "electric_scooter", "name": "98db7620b2df4216a528d330ea94af87", "is_disabled": 0, "fusion_lon": 0.0, "rental_uris": {"android": "https://dc.lft.to/lastmile_qr_scan", "ios": "https://dc.lft.to/lastmile_qr_scan"}, "lat": 38.918193333333335, "lon": -77.03203833333333, "fusion_lat": 0.0}, {"is_reserved": 0, "bike_id": "cf5da16b4778b700ec0930d998b36049", "type": "electric_scooter", "name": "cf5da16b4778b700ec0930d998b36049", "is_disabled": 0, "fusion_lon": 0.0, "rental_uris": {"android": "https://dc.lft.to/lastmile_qr_scan", "ios": "https://dc.lft.to/lastmile_qr_scan"}, "lat": 38.8988255, "lon": -77.05358833333334, "fusion_lat": 0.0}, {"is_reserved": 0, "bike_id": "b9828551179bcf94906408b6cd0dbfcc", "type": "electric_scooter", "name": "b9828551179bcf94906408b6cd0dbfcc", "is_disabled": 0, "fusion_lon": 0.0, "rental_uris": {"android": "https://dc.lft.to/lastmile_qr_scan", "ios": "https://dc.lft.to/lastmile_qr_scan"}, "lat": 38.897445166666664, "lon": -77.03245383333334, "fusion_lat": 0.0}, {"is_reserved": 0, "bike_id": "fd8b8d6d8499b8c6e78a5e00e56c6463", "type": "electric_scooter", "name": "fd8b8d6d8499b8c6e78a5e00e56c6463", "is_disabled": 0, "fusion_lon": 0.0, "rental_uris": {"android": "https://dc.lft.to/lastmile_qr_scan", "ios": "https://dc.lft.to/lastmile_qr_scan"}, "lat": 38.924781833333334, "lon": -77.022223, "fusion_lat": 0.0}, {"is_reserved": 0, "bike_id": "8c0d618755662a0c99c98fe42dc31217", "type": "electric_scooter", "name": "8c0d618755662a0c99c98fe42dc31217", "is_disabled": 0, "fusion_lon": 0.0, "rental_uris": {"android": "https://dc.lft.to/lastmile_qr_scan", "ios": "https://dc.lft.to/lastmile_qr_scan"}, "lat": 38.925036166666665, "lon": -77.03930833333334, "fusion_lat": 0.0}, {"is_reserved": 0, "bike_id": "2f9a22015eaa43cb047bd7d37b551646", "type": "electric_scooter", "name": "2f9a22015eaa43cb047bd7d37b551646", "is_disabled": 0, "fusion_lon": 0.0, "rental_uris": {"android": "https://dc.lft.to/lastmile_qr_scan", "ios": "https://dc.lft.to/lastmile_qr_scan"}, "lat": 38.903874, "lon": -77.04563866666666, "fusion_lat": 0.0}, {"is_reserved": 0, "bike_id": "779c54aa352087b9bbbd30ad47bb6e3e", "type": "electric_scooter", "name": "779c54aa352087b9bbbd30ad47bb6e3e", "is_disabled": 0, "fusion_lon": 0.0, "rental_uris": {"android": "https://dc.lft.to/lastmile_qr_scan", "ios": "https://dc.lft.to/lastmile_qr_scan"}, "lat": 38.90960716666667, "lon": -77.01185883333333, "fusion_lat": 0.0}, {"is_reserved": 0, "bike_id": "0478dbf5cd99fdfb567e43e4d2207d36", "type": "electric_bike", "name": "0478dbf5cd99fdfb567e43e4d2207d36", "is_disabled": 0, "fusion_lon": 0.0, "rental_uris": {"android": "https://dc.lft.to/lastmile_qr_scan", "ios": "https://dc.lft.to/lastmile_qr_scan"}, "lat": 38.80056366666667, "lon": -77.12837883333333, "fusion_lat": 0.0}, {"is_reserved": 0, "bike_id": "1af8c58e2351a716e2254b667dd13514", "type": "electric_scooter", "name": "1af8c58e2351a716e2254b667dd13514", "is_disabled": 0, "fusion_lon": 0.0, "rental_uris": {"android": "https://dc.lft.to/lastmile_qr_scan", "ios": "https://dc.lft.to/lastmile_qr_scan"}, "lat": 38.9518955, "lon": -77.0263885, "fusion_lat": 0.0}, {"is_reserved": 0, "bike_id": "0af1c0a35b2aca516684154bce5b5b30", "type": "electric_bike", "name": "0af1c0a35b2aca516684154bce5b5b30", "is_disabled": 0, "fusion_lon": 0.0, "rental_uris": {"android": "https://dc.lft.to/lastmile_qr_scan", "ios": "https://dc.lft.to/lastmile_qr_scan"}, "lat": 38.9253995, "lon": -77.00114983333333, "fusion_lat": 0.0}, {"is_reserved": 0, "bike_id": "ecb5fd629f0a56ac15f33c775d93eda0", "type": "electric_bike", "name": "ecb5fd629f0a56ac15f33c775d93eda0", "is_disabled": 0, "fusion_lon": 0.0, "rental_uris": {"android": "https://dc.lft.to/lastmile_qr_scan", "ios": "https://dc.lft.to/lastmile_qr_scan"}, "lat": 39.022957166666664, "lon": -77.02101666666667, "fusion_lat": 0.0}, {"is_reserved": 0, "bike_id": "5c6a601d017837351f6fb0a89cbd6e78", "type": "electric_bike", "name": "5c6a601d017837351f6fb0a89cbd6e78", "is_disabled": 0, "fusion_lon": 0.0, "rental_uris": {"android": "https://dc.lft.to/lastmile_qr_scan", "ios": "https://dc.lft.to/lastmile_qr_scan"}, "lat": 38.9447795, "lon": -76.98691783333334, "fusion_lat": 0.0}, {"is_reserved": 0, "bike_id": "e1b726c3354374b594a7e4493c3e86b6", "type": "electric_scooter", "name": "e1b726c3354374b594a7e4493c3e86b6", "is_disabled": 0, "fusion_lon": 0.0, "rental_uris": {"android": "https://dc.lft.to/lastmile_qr_scan", "ios": "https://dc.lft.to/lastmile_qr_scan"}, "lat": 38.8956885, "lon": -77.02937016666667, "fusion_lat": 0.0}, {"is_reserved": 0, "bike_id": "57d29c0dea8cce259ffc8dd326cd8a86", "type": "electric_scooter", "name": "57d29c0dea8cce259ffc8dd326cd8a86", "is_disabled": 0, "fusion_lon": 0.0, "rental_uris": {"android": "https://dc.lft.to/lastmile_qr_scan", "ios": "https://dc.lft.to/lastmile_qr_scan"}, "lat": 38.92544916666667, "lon": -77.02277133333334, "fusion_lat": 0.0}, {"is_reserved": 0, "bike_id": "e012f618df8c5f530cd512b14bee2898", "type": "electric_bike", "name": "e012f618df8c5f530cd512b14bee2898", "is_disabled": 0, "fusion_lon": 0.0, "rental_uris": {"android": "https://dc.lft.to/lastmile_qr_scan", "ios": "https://dc.lft.to/lastmile_qr_scan"}, "lat": 38.918617833333336, "lon": -76.96095266666667, "fusion_lat": 0.0}, {"is_reserved": 0, "bike_id": "c49807da127ade60c8be720bcf78a74d", "type": "electric_scooter", "name": "c49807da127ade60c8be720bcf78a74d", "is_disabled": 0, "fusion_lon": 0.0, "rental_uris": {"android": "https://dc.lft.to/lastmile_qr_scan", "ios": "https://dc.lft.to/lastmile_qr_scan"}, "lat": 38.90381416666666, "lon": -77.0262265, "fusion_lat": 0.0}, {"is_reserved": 0, "bike_id": "92a7d1442aa2a7093c26faae13f5f090", "type": "electric_bike", "name": "92a7d1442aa2a7093c26faae13f5f090", "is_disabled": 0, "fusion_lon": 0.0, "rental_uris": {"android": "https://dc.lft.to/lastmile_qr_scan", "ios": "https://dc.lft.to/lastmile_qr_scan"}, "lat": 38.81943483333333, "lon": -77.00208083333334, "fusion_lat": 0.0}, {"is_reserved": 0, "bike_id": "192605019735a76cf4ea3412bb7d2e4a", "type": "electric_bike", "name": "192605019735a76cf4ea3412bb7d2e4a", "is_disabled": 0, "fusion_lon": 0.0, "rental_uris": {"android": "https://dc.lft.to/lastmile_qr_scan", "ios": "https://dc.lft.to/lastmile_qr_scan"},