{"data": {"bikes": [{"type": "electric_scooter", "name": "fce1c8ada143b2fdd310a66557a3f614", "fusion_lat": 0.0, "fusion_lon": 0.0, "lon": -77.0326745, "is_disabled": 0, "bike_id": "fce1c8ada143b2fdd310a66557a3f614", "is_reserved": 0, "rental_uris": {"android": "https://dc.lft.to/lastmile_qr_scan", "ios": "https://dc.lft.to/lastmile_qr_scan"}, "lat": 38.90447983333333}, {"type": "electric_scooter", "name": "522d72317c1f0fbbe5d28926453da202", "fusion_lat": 0.0, "fusion_lon": 0.0, "lon": -77.02315666666667, "is_disabled": 0, "bike_id": "522d72317c1f0fbbe5d28926453da202", "is_reserved": 0, "rental_uris": {"android": "https://dc.lft.to/lastmile_qr_scan", "ios": "https://dc.lft.to/lastmile_qr_scan"}, "lat": 38.917928}, {"type": "electric_scooter", "name": "9c2aa36fc8251d23e8f2e9c6544e6667", "fusion_lat": 0.0, "fusion_lon": 0.0, "lon": -77.02398333333333, "is_disabled": 0, "bike_id": "9c2aa36fc8251d23e8f2e9c6544e6667", "is_reserved": 0, "rental_uris": {"android": "https://dc.lft.to/lastmile_qr_scan", "ios": "https://dc.lft.to/lastmile_qr_scan"}, "lat": 38.92082966666667}, {"type": "electric_scooter", "name": "4af035eee6c687aa474d0511e347ccb2", "fusion_lat": 0.0, "fusion_lon": 0.0, "lon": -77.027122, "is_disabled": 0, "bike_id": "4af035eee6c687aa474d0511e347ccb2", "is_reserved": 0, "rental_uris": {"android": "https://dc.lft.to/lastmile_qr_scan", "ios": "https://dc.lft.to/lastmile_qr_scan"}, "lat": 38.918188666666666}, {"type": "electric_scooter", "name": "da091b195d96daefe4fa2dc1c2171da7", "fusion_lat": 0.0, "fusion_lon": 0.0, "lon": -77.011605, "is_disabled": 0, "bike_id": "da091b195d96daefe4fa2dc1c2171da7", "is_reserved": 0, "rental_uris": {"android": "https://dc.lft.to/lastmile_qr_scan", "ios": "https://dc.lft.to/lastmile_qr_scan"}, "lat": 38.902496}, {"type": "electric_scooter", "name": "ab0ded72a323bd9c2c5eb9cdf924fd45", "fusion_lat": 0.0, "fusion_lon": 0.0, "lon": -77.02610733333333, "is_disabled": 0, "bike_id": "ab0ded72a323bd9c2c5eb9cdf924fd45", "is_reserved": 0, "rental_uris": {"android": "https://dc.lft.to/lastmile_qr_scan", "ios": "https://dc.lft.to/lastmile_qr_scan"}, "lat": 38.9184355}, {"type": "electric_scooter", "name": "83c02ca2ce7e1fab385d36ba53059b39", "fusion_lat": 0.0, "fusion_lon": 0.0, "lon": -77.06858183333334, "is_disabled": 0, "bike_id": "83c02ca2ce7e1fab385d36ba53059b39", "is_reserved": 0, "rental_uris": {"android": "https://dc.lft.to/lastmile_qr_scan", "ios": "https://dc.lft.to/lastmile_qr_scan"}, "lat": 38.95280283333334}, {"type": "electric_scooter", "name": "c37acc6022396f4b9084274424f939e8", "fusion_lat": 0.0, "fusion_lon": 0.0, "lon": -77.0661335, "is_disabled": 0, "bike_id": "c37acc6022396f4b9084274424f939e8", "is_reserved": 0, "rental_uris": {"android": "https://dc.lft.to/lastmile_qr_scan", "ios": "https://dc.lft.to/lastmile_qr_scan"}, "lat": 38.911110666666666}, {"type": "electric_scooter", "name": "2b2de7d087d6f2c7d6e5e2085f90aabb", "fusion_lat": 0.0, "fusion_lon": 0.0, "lon": -77.0279115, "is_disabled": 0, "bike_id": "2b2de7d087d6f2c7d6e5e2085f90aabb", "is_reserved": 0, "rental_uris": {"android": "https://dc.lft.to/lastmile_qr_scan", "ios": "https://dc.lft.to/lastmile_qr_scan"}, "lat": 38.93190466666667}, {"type": "electric_bike", "name": "bf9aab5acf65d2c07f61ac57c0582fda", "fusion_lat": 0.0, "fusion_lon": 0.0, "lon": -77.09014416666666, "is_disabled": 0, "bike_id": "bf9aab5acf65d2c07f61ac57c0582fda", "is_reserved": 0, "rental_uris": {"android": "https://dc.lft.to/lastmile_qr_scan", "ios": "https://dc.lft.to/lastmile_qr_scan"}, "lat": 38.92649183333333}, {"type": "electric_bike", "name": "6ad9b58e771a7931323fee09b1758192", "fusion_lat": 0.0, "fusion_lon": 0.0, "lon": -76.956982, "is_disabled": 0, "bike_id": "6ad9b58e771a7931323fee09b1758192", "is_reserved": 0, "rental_uris": {"android": "https://dc.lft.to/lastmile_qr_scan", "ios": "https://dc.lft.to/lastmile_qr_scan"}, "lat": 38.85093216666667}, {"type": "electric_scooter", "name": "6cfccdf7a7e638c39f30c0747b57f13b", "fusion_lat": 0.0, "fusion_lon": 0.0, "lon": -77.0056735, "is_disabled": 0, "bike_id": "6cfccdf7a7e638c39f30c0747b57f13b", "is_reserved": 0, "rental_uris": {"android": "https://dc.lft.to/lastmile_qr_scan", "ios": "https://dc.lft.to/lastmile_qr_scan"}, "lat": 38.90578433333334}, {"type": "electric_scooter", "name": "7d286bc8e285325e0821d84c0e9276f1", "fusion_lat": 0.0, "fusion_lon": 0.0, "lon": -77.033602, "is_disabled": 0, "bike_id": "7d286bc8e285325e0821d84c0e9276f1", "is_reserved": 0, "rental_uris": {"android": "https://dc.lft.to/lastmile_qr_scan", "ios": "https://dc.lft.to/lastmile_qr_scan"}, "lat": 38.90042183333333}, {"type": "electric_scooter", "name": "7e2285c8eb291c7551ccd6229c86523f", "fusion_lat": 0.0, "fusion_lon": 0.0, "lon": -76.95750516666666, "is_disabled": 0, "bike_id": "7e2285c8eb291c7551ccd6229c86523f", "is_reserved": 0, "rental_uris": {"android": "https://dc.lft.to/lastmile_qr_scan", "ios": "https://dc.lft.to/lastmile_qr_scan"}, "lat": 38.8839255}, {"type": "electric_scooter", "name": "28014aa847567bb7931d1da229105df4", "fusion_lat": 0.0, "fusion_lon": 0.0, "lon": -77.01468566666667, "is_disabled": 0, "bike_id": "28014aa847567bb7931d1da229105df4", "is_reserved": 0, "rental_uris": {"android": "https://dc.lft.to/lastmile_qr_scan", "ios": "https://dc.lft.to/lastmile_qr_scan"}, "lat": 38.917558}, {"type": "electric_scooter", "name": "5db5f3703c97457d558d6f976751a94f", "fusion_lat": 0.0, "fusion_lon": 0.0, "lon": -77.0260295, "is_disabled": 0, "bike_id": "5db5f3703c97457d558d6f976751a94f", "is_reserved": 0, "rental_uris": {"android": "https://dc.lft.to/lastmile_qr_scan", "ios": "https://dc.lft.to/lastmile_qr_scan"}, "lat": 38.901669166666665}, {"type": "electric_scooter", "name": "1c1bdb834ad79ba7963737efcd87eb12", "fusion_lat": 0.0, "fusion_lon": 0.0, "lon": -77.02282116666666, "is_disabled": 0, "bike_id": "1c1bdb834ad79ba7963737efcd87eb12", "is_reserved": 0, "rental_uris": {"android": "https://dc.lft.to/lastmile_qr_scan", "ios": "https://dc.lft.to/lastmile_qr_scan"}, "lat": 38.917045}, {"type": "electric_scooter", "name": "640a444a7caa90f3a6c1e3d184161d25", "fusion_lat": 0.0, "fusion_lon": 0.0, "lon": -77.02233, "is_disabled": 0, "bike_id": "640a444a7caa90f3a6c1e3d184161d25", "is_reserved": 0, "rental_uris": {"android": "https://dc.lft.to/lastmile_qr_scan", "ios": "https://dc.lft.to/lastmile_qr_scan"}, "lat": 38.908676166666666}, {"type": "electric_bike", "name": "fbec9147923411ae19a26881036f96f7", "fusion_lat": 0.0, "fusion_lon": 0.0, "lon": -77.12729816666666, "is_disabled": 0, "bike_id": "fbec9147923411ae19a26881036f96f7", "is_reserved": 0, "rental_uris": {"android": "https://dc.lft.to/lastmile_qr_scan", "ios": "https://dc.lft.to/lastmile_qr_scan"}, "lat": 38.89560133333333}, {"type": "electric_scooter", "name": "1ffe035e5b08be87fcc506e4883a75d2", "fusion_lat": 0.0, "fusion_lon": 0.0, "lon": -77.04010133333334, "is_disabled": 0, "bike_id": "1ffe035e5b08be87fcc506e4883a75d2", "is_reserved": 0, "rental_uris": {"android": "https://dc.lft.to/lastmile_qr_scan", "ios": "https://dc.lft.to/lastmile_qr_scan"}, "lat": 38.9059505}, {"type": "electric_scooter", "name": "456d88f2537c0d71eacf8a1ac709ce4c", "fusion_lat": 0.0, "fusion_lon": 0.0, "lon": -76.9885705, "is_disabled": 0, "bike_id": "456d88f2537c0d71eacf8a1ac709ce4c", "is_reserved": 0, "rental_uris": {"android": "https://dc.lft.to/lastmile_qr_scan", "ios": "https://dc.lft.to/lastmile_qr_scan"}, "lat": 38.89162366666667}, {"type": "electric_scooter", "name": "a426a7a98404eba7da42ea9ee02618a8", "fusion_lat": 0.0, "fusion_lon": 0.0, "lon": -76.99914266666667, "is_disabled": 0, "bike_id": "a426a7a98404eba7da42ea9ee02618a8", "is_reserved": 0, "rental_uris": {"android": "https://dc.lft.to/lastmile_qr_scan", "ios": "https://dc.lft.to/lastmile_qr_scan"}, "lat": 38.92453283333333}, {"type": "electric_scooter", "name": "592db668379f00e128ed9140c95931a2", "fusion_lat": 0.0, "fusion_lon": 0.0, "lon": -77.02956216666666, "is_disabled": 0, "bike_id": "592db668379f00e128ed9140c95931a2", "is_reserved": 0, "rental_uris": {"android": "https://dc.lft.to/lastmile_qr_scan", "ios": "https://dc.lft.to/lastmile_qr_scan"}, "lat": 38.916846}, {"type": "electric_scooter", "name": "b28dd1306593f1fdfb6823d9be8a7d2c", "fusion_lat": 0.0, "fusion_lon": 0.0, "lon": -77.01799066666666, "is_disabled": 0, "bike_id": "b28dd1306593f1fdfb6823d9be8a7d2c", "is_reserved": 0, "rental_uris": {"android": "https://dc.lft.to/lastmile_qr_scan", "ios": "https://dc.lft.to/lastmile_qr_scan"}, "lat": 38.919424}, {"type": "electric_scooter", "name": "4c1517c80158ed13b01967a9ecbe2439", "fusion_lat": 0.0, "fusion_lon": 0.0, "lon": -77.0222745, "is_disabled": 0, "bike_id": "4c1517c80158ed13b01967a9ecbe2439", "is_reserved": 0, "rental_uris": {"android": "https://dc.lft.to/lastmile_qr_scan", "ios": "https://dc.lft.to/lastmile_qr_scan"}, "lat": 38.91269716666667}, {"type": "electric_scooter", "name": "913e0f2c2201160cd75a29ae212103c0", "fusion_lat": 0.0, "fusion_lon": 0.0, "lon": -77.0417245, "is_disabled": 0, "bike_id": "913e0f2c2201160cd75a29ae212103c0", "is_reserved": 0, "rental_uris": {"android": "https://dc.lft.to/lastmile_qr_scan", "ios": "https://dc.lft.to/lastmile_qr_scan"}, "lat": 38.9201535}, {"type": "electric_scooter", "name": "66b7e14b23ad1991308afe2ef02d8801", "fusion_lat": 0.0, "fusion_lon": 0.0, "lon": -76.99916233333333, "is_disabled": 0, "bike_id": "66b7e14b23ad1991308afe2ef02d8801", "is_reserved": 0, "rental_uris": {"android": "https://dc.lft.to/lastmile_qr_scan", "ios": "https://dc.lft.to/lastmile_qr_scan"}, "lat": 38.93753666666667}, {"type": "electric_scooter", "name": "3eeb1b27e7304e09471fe386e80ee887", "fusion_lat": 0.0, "fusion_lon": 0.0, "lon": -76.98361366666667, "is_disabled": 0, "bike_id": "3eeb1b27e7304e09471fe386e80ee887", "is_reserved": 0, "rental_uris": {"android": "https://dc.lft.to/lastmile_qr_scan", "ios": "https://dc.lft.to/lastmile_qr_scan"}, "lat": 38.887478}, {"type": "electric_scooter", "name": "e5bead95e1fca3f51a7fc3bec7861dc4", "fusion_lat": 0.0, "fusion_lon": 0.0, "lon": -77.03398066666666, "is_disabled": 0, "bike_id": "e5bead95e1fca3f51a7fc3bec7861dc4", "is_reserved": 0, "rental_uris": {"android": "https://dc.lft.to/lastmile_qr_scan", "ios": "https://dc.lft.to/lastmile_qr_scan"}, "lat": 38.901322666666665}, {"type": "electric_scooter", "name": "f3c7e647dc93603ce42c6acd44d0a8a2", "fusion_lat": 0.0, "fusion_lon": 0.0, "lon": -77.02254383333333, "is_disabled": 0, "bike_id": "f3c7e647dc93603ce42c6acd44d0a8a2", "is_reserved": 0, "rental_uris": {"android": "https://dc.lft.to/lastmile_qr_scan", "ios": "https://dc.lft.to/lastmile_qr_scan"}, "lat": 38.89485166666667}, {"type": "electric_bike", "name": "c962bf7b2ca859ecfaab057d289b9951", "fusion_lat": 0.0, "fusion_lon": 0.0, "lon": -76.98690266666667, "is_disabled": 0, "bike_id": "c962bf7b2ca859ecfaab057d289b9951", "is_reserved": 0, "rental_uris": {"android": "https://dc.lft.to/lastmile_qr_scan", "ios": "https://dc.lft.to/lastmile_qr_scan"}, "lat": 38.944726333333335}, {"type": "electric_scooter", "name": "6a3e0634c43dce154aa38cf66b32d8d9", "fusion_lat": 0.0, "fusion_lon": 0.0, "lon": -77.04867866666666, "is_disabled": 0, "bike_id": "6a3e0634c43dce154aa38cf66b32d8d9", "is_reserved": 0, "rental_uris": {"android": "https://dc.lft.to/lastmile_qr_scan", "ios": "https://dc.lft.to/lastmile_qr_scan"}, "lat": 38.9110175}, {"type": "electric_scooter", "name": "432ec8ec21f2f2d0daaa6da479742c16", "fusion_lat": 0.0, "fusion_lon": 0.0, "lon": -77.01753983333333, "is_disabled": 0, "bike_id": "432ec8ec21f2f2d0daaa6da479742c16", "is_reserved": 0, "rental_uris": {"android": "https://dc.lft.to/lastmile_qr_scan", "ios": "https://dc.lft.to/lastmile_qr_scan"}, "lat": 38.902662166666666}, {"type": "electric_scooter", "name": "ef463313cf57e82828fc7f65a99bd22b", "fusion_lat": 0.0, "fusion_lon": 0.0, "lon": -77.023243, "is_disabled": 0, "bike_id": "ef463313cf57e82828fc7f65a99bd22b", "is_reserved": 0, "rental_uris": {"android": "https://dc.lft.to/lastmile_qr_scan", "ios": "https://dc.lft.to/lastmile_qr_scan"}, "lat": 38.9306235}, {"type": "electric_scooter", "name": "d0c90945054b7bab402273f82fb7ade6", "fusion_lat": 0.0, "fusion_lon": 0.0, "lon": -77.03465683333333, "is_disabled": 0, "bike_id": "d0c90945054b7bab402273f82fb7ade6", "is_reserved": 0, "rental_uris": {"android": "https://dc.lft.to/lastmile_qr_scan", "ios": "https://dc.lft.to/lastmile_qr_scan"}, "lat": 38.9172395}, {"type": "electric_scooter", "name": "4fc60571e92af4e5b041b0692b9d99f2", "fusion_lat": 0.0, "fusion_lon": 0.0, "lon": -77.04876883333333, "is_disabled": 0, "bike_id": "4fc60571e92af4e5b041b0692b9d99f2", "is_reserved": 0, "rental_uris": {"android": "https://dc.lft.to/lastmile_qr_scan", "ios": "https://dc.lft.to/lastmile_qr_scan"}, "lat": 38.9090965}, {"type": "electric_scooter", "name": "d89589596152e62b44563345e4317bc8", "fusion_lat": 0.0, "fusion_lon": 0.0, "lon": -77.019991, "is_disabled": 0, "bike_id": "d89589596152e62b44563345e4317bc8", "is_reserved": 0, "rental_uris": {"android": "https://dc.lft.to/lastmile_qr_scan", "ios": "https://dc.lft.to/lastmile_qr_scan"}, "lat": 38.91154483333333}, {"type": "electric_scooter", "name": "9d1180ef87bbb076dc242ebc53a59cb1", "fusion_lat": 0.0, "fusion_lon": 0.0, "lon": -76.98570883333333, "is_disabled": 0, "bike_id": "9d1180ef87bbb076dc242ebc53a59cb1", "is_reserved": 0, "rental_uris": {"android": "https://dc.lft.to/lastmile_qr_scan", "ios": "https://dc.lft.to/lastmile_qr_scan"}, "lat": 38.896170166666664}, {"type": "electric_scooter", "name": "a98a1fb9c18461ad3aa9acaa40c2abad", "fusion_lat": 0.0, "fusion_lon": 0.0, "lon": -77.02905783333334, "is_disabled": 0, "bike_id": "a98a1fb9c18461ad3aa9acaa40c2abad", "is_reserved": 0, "rental_uris": {"android": "https://dc.lft.to/lastmile_qr_scan", "ios": "https://dc.lft.to/lastmile_qr_scan"}, "lat": 38.952942666666665}, {"type": "electric_scooter", "name": "98303fce4dc6df78f9d5fc7d184acfe9", "fusion_lat": 0.0, "fusion_lon": 0.0, "lon": -77.07372766666667, "is_disabled": 0, "bike_id": "98303fce4dc6df78f9d5fc7d184acfe9", "is_reserved": 0, "rental_uris": {"android": "https://dc.lft.to/lastmile_qr_scan", "ios": "https://dc.lft.to/lastmile_qr_scan"}, "lat": 38.895965833333335}, {"type": "electric_scooter", "name": "83d9bc4baaae70c02a87bcf3384dcc5d", "fusion_lat": 0.0, "fusion_lon": 0.0, "lon": -77.025159, "is_disabled": 0, "bike_id": "83d9bc4baaae70c02a87bcf3384dcc5d", "is_reserved": 0, "rental_uris": {"android": "https://dc.lft.to/lastmile_qr_scan", "ios": "https://dc.lft.to/lastmile_qr_scan"}, "lat": 38.92078583333333}, {"type": "electric_bike", "name": "da76522c33007b3f2b90cee6ee88da79", "fusion_lat": 0.0, "fusion_lon": 0.0, "lon": -77.02807933333334, "is_disabled": 0, "bike_id": "da76522c33007b3f2b90cee6ee88da79", "is_reserved": 0, "rental_uris": {"android": "https://dc.lft.to/lastmile_qr_scan", "ios": "https://dc.lft.to/lastmile_qr_scan"}, "lat": 38.965982833333335}, {"type": "electric_scooter", "name": "9351fd3c6e7b9c818fd2e29c6d0341aa", "fusion_lat": 0.0, "fusion_lon": 0.0, "lon": -76.98372166666667, "is_disabled": 0, "bike_id": "9351fd3c6e7b9c818fd2e29c6d0341aa", "is_reserved": 0, "rental_uris": {"android": "https://dc.lft.to/lastmile_qr_scan", "ios": "https://dc.lft.to/lastmile_qr_scan"}, "lat": 38.892637666666666}, {"type": "electric_scooter", "name": "938d054a74c6dd9fe9f05791b2065dda", "fusion_lat": 0.0, "fusion_lon": 0.0, "lon": -77.03617966666667, "is_disabled": 0, "bike_id": "938d054a74c6dd9fe9f05791b2065dda", "is_reserved": 0, "rental_uris": {"android": "https://dc.lft.to/lastmile_qr_scan", "ios": "https://dc.lft.to/lastmile_qr_scan"}, "lat": 38.903621}, {"type": "electric_scooter", "name": "c3f8810bc0addbccbafa378027df1178", "fusion_lat": 0.0, "fusion_lon": 0.0, "lon": -77.031882, "is_disabled": 0, "bike_id": "c3f8810bc0addbccbafa378027df1178", "is_reserved": 0, "rental_uris": {"android": "https://dc.lft.to/lastmile_qr_scan", "ios": "https://dc.lft.to/lastmile_qr_scan"}, "lat": 38.913457}, {"type": "electric_scooter", "name": "897e169c63803643ee8d0ea4d65fa79a", "fusion_lat": 0.0, "fusion_lon": 0.0, "lon": -76.9489365, "is_disabled": 0, "bike_id": "897e169c63803643ee8d0ea4d65fa79a", "is_reserved": 0, "rental_uris": {"android": "https://dc.lft.to/lastmile_qr_scan", "ios": "https://dc.lft.to/lastmile_qr_scan"}, "lat": 38.895380833333334}, {"type": "electric_scooter", "name": "049244bd3878905e18850f6a8e60b9a8", "fusion_lat": 0.0, "fusion_lon": 0.0, "lon": -77.0363055, "is_disabled": 0, "bike_id": "049244bd3878905e18850f6a8e60b9a8", "is_reserved": 0, "rental_uris": {"android": "https://dc.lft.to/lastmile_qr_scan", "ios": "https://dc.lft.to/lastmile_qr_scan"}, "lat": 38.933097333333336}, {"type": "electric_scooter", "name": "9adb33ea9d8bdbb8e5a75e9762d18902", "fusion_lat": 0.0, "fusion_lon": 0.0, "lon": -77.04781966666667, "is_disabled": 0, "bike_id": "9adb33ea9d8bdbb8e5a75e9762d18902", "is_reserved": 0, "rental_uris": {"android": "https://dc.lft.to/lastmile_qr_scan", "ios": "https://dc.lft.to/lastmile_qr_scan"}, "lat": 38.9086285}, {"type": "electric_scooter", "name": "498ee3acf082fa734e1646ec6c2eb84f", "fusion_lat": 0.0, "fusion_lon": 0.0, "lon": -77.01700433333333, "is_disabled": 0, "bike_id": "498ee3acf082fa734e1646ec6c2eb84f", "is_reserved": 0, "rental_uris": {"android": "https://dc.lft.to/lastmile_qr_scan", "ios": "https://dc.lft.to/lastmile_qr_scan"}, "lat": 38.87292766666667}, {"type": "electric_scooter", "name": "b96bec29502e917f01f136245ed4cca8", "fusion_lat": 0.0, "fusion_lon": 0.0, "lon": -77.01764633333333, "is_disabled": 0, "bike_id": "b96bec29502e917f01f136245ed4cca8", "is_reserved": 0, "rental_uris": {"android": "https://dc.lft.to/lastmile_qr_scan", "ios": "https://dc.lft.to/lastmile_qr_scan"}, "lat": 38.876912}, {"type": "electric_scooter", "name": "be00232793c3ffa8137643789266499e", "fusion_lat": 0.0, "fusion_lon": 0.0, "lon": -77.039206, "is_disabled": 0, "bike_id": "be00232793c3ffa8137643789266499e", "is_reserved": 0, "rental_uris": {"android": "https://dc.lft.to/lastmile_qr_scan", "ios": "https://dc.lft.to/lastmile_qr_scan"}, "lat": 38.92096866666667}, {"type": "electric_scooter", "name": "c3b5f650f58ab7f1e4412f56e6204887", "fusion_lat": 0.0, "fusion_lon": 0.0, "lon": -76.92634233333334, "is_disabled": 0, "bike_id": "c3b5f650f58ab7f1e4412f56e6204887", "is_reserved": 0, "rental_uris": {"android": "https://dc.lft.to/lastmile_qr_scan", "ios": "https://dc.lft.to/lastmile_qr_scan"}, "lat": 38.883771333333335}, {"type": "electric_scooter", "name": "0859cf4503359f9c27ade606634e053f", "fusion_lat": 0.0, "fusion_lon": 0.0, "lon": -77.0359855, "is_disabled": 0, "bike_id": "0859cf4503359f9c27ade606634e053f", "is_reserved": 0, "rental_uris": {"android": "https://dc.lft.to/lastmile_qr_scan", "ios": "https://dc.lft.to/lastmile_qr_scan"}, "lat": 38.9035765}, {"type": "electric_scooter", "name": "53d538aa3c05b3a246d66db5db1a446f", "fusion_lat": 0.0, "fusion_lon": 0.0, "lon": -77.0259215, "is_disabled": 0, "bike_id": "53d538aa3c05b3a246d66db5db1a446f", "is_reserved": 0, "rental_uris": {"android": "https://dc.lft.to/lastmile_qr_scan", "ios": "https://dc.lft.to/lastmile_qr_scan"}, "lat": 38.9016055}, {"type": "electric_scooter", "name": "20f7e17dc6a590af816580de335b571c", "fusion_lat": 0.0, "fusion_lon": 0.0, "lon": -76.94890066666666, "is_disabled": 0, "bike_id": "20f7e17dc6a590af816580de335b571c", "is_reserved": 0, "rental_uris": {"android": "https://dc.lft.to/lastmile_qr_scan", "ios": "https://dc.lft.to/lastmile_qr_scan"}, "lat": 38.895346}, {"type": "electric_scooter", "name": "d67f0ab1db88b585880deb66758825c6", "fusion_lat": 0.0, "fusion_lon": 0.0, "lon": -76.98364366666667, "is_disabled": 0, "bike_id": "d67f0ab1db88b585880deb66758825c6", "is_reserved": 0, "rental_uris": {"android": "https://dc.lft.to/lastmile_qr_scan", "ios": "https://dc.lft.to/lastmile_qr_scan"}, "lat": 38.922013}, {"type": "electric_scooter", "name": "8428c36c83d7abcbc3a6a855a0a1276b", "fusion_lat": 0.0, "fusion_lon": 0.0, "lon": -77.0395005, "is_disabled": 0, "bike_id": "8428c36c83d7abcbc3a6a855a0a1276b", "is_reserved": 0, "rental_uris": {"android": "https://dc.lft.to/lastmile_qr_scan", "ios": "https://dc.lft.to/lastmile_qr_scan"}, "lat": 38.90270983333333}, {"type": "electric_scooter", "name": "e2158e679df82758f631cc2c8683f1f2", "fusion_lat": 0.0, "fusion_lon": 0.0, "lon": -76.92664216666667, "is_disabled": 0, "bike_id": "e2158e679df82758f631cc2c8683f1f2", "is_reserved": 0, "rental_uris": {"android": "https://dc.lft.to/lastmile_qr_scan", "ios": "https://dc.lft.to/lastmile_qr_scan"}, "lat": 38.882577166666664}, {"type": "electric_scooter", "name": "52adf4631c1fcf3370eb8fd460ebe51e", "fusion_lat": 0.0, "fusion_lon": 0.0, "lon": -77.01951133333333, "is_disabled": 0, "bike_id": "52adf4631c1fcf3370eb8fd460ebe51e", "is_reserved": 0, "rental_uris": {"android": "https://dc.lft.to/lastmile_qr_scan", "ios": "https://dc.lft.to/lastmile_qr_scan"}, "lat": 38.930334}, {"type": "electric_scooter", "name": "a1890568c3d75ee27bc806cb56506f7c", "fusion_lat": 0.0, "fusion_lon": 0.0, "lon": -77.048539, "is_disabled": 0, "bike_id": "a1890568c3d75ee27bc806cb56506f7c", "is_reserved": 0, "rental_uris": {"android": "https://dc.lft.to/lastmile_qr_scan", "ios": "https://dc.lft.to/lastmile_qr_scan"}, "lat": 38.912686}, {"type": "electric_scooter", "name": "a6eeee7ffca2e0bfd0df1a604bdb8334", "fusion_lat": 0.0, "fusion_lon": 0.0, "lon": -77.0273215, "is_disabled": 0, "bike_id": "a6eeee7ffca2e0bfd0df1a604bdb8334", "is_reserved": 0, "rental_uris": {"android": "https://dc.lft.to/lastmile_qr_scan", "ios": "https://dc.lft.to/lastmile_qr_scan"}, "lat": 38.93395966666667}, {"type": "electric_scooter", "name": "42fc32cfe7fd7d23741610682be06760", "fusion_lat": 0.0, "fusion_lon": 0.0, "lon": -77.005629, "is_disabled": 0, "bike_id": "42fc32cfe7fd7d23741610682be06760", "is_reserved": 0, "rental_uris": {"android": "https://dc.lft.to/lastmile_qr_scan", "ios": "https://dc.lft.to/lastmile_qr_scan"}, "lat": 38.87554183333334}, {"type": "electric_scooter", "name": "ddfb2f8db397a62415351ebec5f0a1c7", "fusion_lat": 0.0, "fusion_lon": 0.0, "lon": -77.02411416666666, "is_disabled": 0, "bike_id": "ddfb2f8db397a62415351ebec5f0a1c7", "is_reserved": 0, "rental_uris": {"android": "https://dc.lft.to/lastmile_qr_scan", "ios": "https://dc.lft.to/lastmile_qr_scan"}, "lat": 38.92054016666667}, {"type": "electric_bike", "name": "538d75bd3ea08af26c5a7cf8b120c148", "fusion_lat": 0.0, "fusion_lon": 0.0, "lon": -76.99354233333334, "is_disabled": 0, "bike_id": "538d75bd3ea08af26c5a7cf8b120c148", "is_reserved": 0, "rental_uris": {"android": "https://dc.lft.to/lastmile_qr_scan", "ios": "https://dc.lft.to/lastmile_qr_scan"}, "lat": 38.83672966666666}, {"type": "electric_scooter", "name": "ec6e33ca94650b70224a7e8e0a53a38e", "fusion_lat": 0.0, "fusion_lon": 0.0, "lon": -76.948922, "is_disabled": 0, "bike_id": "ec6e33ca94650b70224a7e8e0a53a38e", "is_reserved": 0, "rental_uris": {"android": "https://dc.lft.to/lastmile_qr_scan", "ios": "https://dc.lft.to/lastmile_qr_scan"}, "lat": 38.8953565}, {"type": "electric_scooter", "name": "3a587315ce2a7b6f3f89711cd09f7dee", "fusion_lat": 0.0, "fusion_lon": 0.0, "lon": -77.00238233333333, "is_disabled": 0, "bike_id": "3a587315ce2a7b6f3f89711cd09f7dee", "is_reserved": 0, "rental_uris": {"android": "https://dc.lft.to/lastmile_qr_scan", "ios": "https://dc.lft.to/lastmile_qr_scan"}, "lat": 38.90034083333333}, {"type": "electric_scooter", "name": "a2afcea9e436b04afd0bc7464f2c560e", "fusion_lat": 0.0, "fusion_lon": 0.0, "lon": -77.02266466666667, "is_disabled": 0, "bike_id": "a2afcea9e436b04afd0bc7464f2c560e", "is_reserved": 0, "rental_uris": {"android": "https://dc.lft.to/lastmile_qr_scan", "ios": "https://dc.lft.to/lastmile_qr_scan"}, "lat": 38.924675}, {"type": "electric_scooter", "name": "b88939266a51abeacb38be160a014764", "fusion_lat": 0.0, "fusion_lon": 0.0, "lon": -77.0346995, "is_disabled": 0, "bike_id": "b88939266a51abeacb38be160a014764", "is_reserved": 0, "rental_uris": {"android": "https://dc.lft.to/lastmile_qr_scan", "ios": "https://dc.lft.to/lastmile_qr_scan"}, "lat": 38.911814}, {"type": "electric_scooter", "name": "2aa9ab49ac900d670a9c12a363cbff53", "fusion_lat": 0.0, "fusion_lon": 0.0, "lon": -77.02144, "is_disabled": 0, "bike_id": "2aa9ab49ac900d670a9c12a363cbff53", "is_reserved": 0, "rental_uris": {"android": "https://dc.lft.to/lastmile_qr_scan", "ios": "https://dc.lft.to/lastmile_qr_scan"}, "lat": 38.9275375}, {"type": "electric_scooter", "name": "b28589c0a049e25816ba9ccaa8d39ac3", "fusion_lat": 0.0, "fusion_lon": 0.0, "lon": -77.023656, "is_disabled": 0, "bike_id": "b28589c0a049e25816ba9ccaa8d39ac3", "is_reserved": 0, "rental_uris": {"android": "https://dc.lft.to/lastmile_qr_scan", "ios": "https://dc.lft.to/lastmile_qr_scan"}, "lat": 38.920696}, {"type": "electric_scooter", "name": "4a40a14faea1019e18654c52906244f0", "fusion_lat": 0.0, "fusion_lon": 0.0, "lon": -77.025716, "is_disabled": 0, "bike_id": "4a40a14faea1019e18654c52906244f0", "is_reserved": 0, "rental_uris": {"android": "https://dc.lft.to/lastmile_qr_scan", "ios": "https://dc.lft.to/lastmile_qr_scan"}, "lat": 38.9419705}, {"type": "electric_scooter", "name": "8d96a2eb7469cdabfb8f1e991ae72d79", "fusion_lat": 0.0, "fusion_lon": 0.0, "lon": -77.01848216666667, "is_disabled": 0, "bike_id": "8d96a2eb7469cdabfb8f1e991ae72d79", "is_reserved": 0, "rental_uris": {"android": "https://dc.lft.to/lastmile_qr_scan", "ios": "https://dc.lft.to/lastmile_qr_scan"}, "lat": 38.909616166666666}, {"type": "electric_scooter", "name": "734b1c082fa9e7c1e5b2bf0bbadee04a", "fusion_lat": 0.0, "fusion_lon": 0.0, "lon": -77.01215283333333, "is_disabled": 0, "bike_id": "734b1c082fa9e7c1e5b2bf0bbadee04a", "is_reserved": 0, "rental_uris": {"android": "https://dc.lft.to/lastmile_qr_scan", "ios": "https://dc.lft.to/lastmile_qr_scan"}, "lat": 38.918237166666664}, {"type": "electric_scooter", "name": "348ccc6e520b8e82257305fa9dda52f0", "fusion_lat": 0.0, "fusion_lon": 0.0, "lon": -77.03282966666667, "is_disabled": 0, "bike_id": "348ccc6e520b8e82257305fa9dda52f0", "is_reserved": 0, "rental_uris": {"android": "https://dc.lft.to/lastmile_qr_scan", "ios": "https://dc.lft.to/lastmile_qr_scan"}, "lat": 38.919993833333336}, {"type": "electric_scooter", "name": "bb3d94cd132581ca5eb53914014015ea", "fusion_lat": 0.0, "fusion_lon": 0.0, "lon": -77.0385395, "is_disabled": 0, "bike_id": "bb3d94cd132581ca5eb53914014015ea", "is_reserved": 0, "rental_uris": {"android": "https://dc.lft.to/lastmile_qr_scan", "ios": "https://dc.lft.to/lastmile_qr_scan"}, "lat": 38.91662616666667}, {"type": "electric_scooter", "name": "60eef3d1b796aaeb8118e179bcc4178c", "fusion_lat": 0.0, "fusion_lon": 0.0, "lon": -77.02505933333333, "is_disabled": 0, "bike_id": "60eef3d1b796aaeb8118e179bcc4178c", "is_reserved": 0, "rental_uris": {"android": "https://dc.lft.to/lastmile_qr_scan", "ios": "https://dc.lft.to/lastmile_qr_scan"}, "lat": 38.92098}, {"type": "electric_scooter", "name": "0bd2d07e7aa5b0b60aa052f63b51d3f8", "fusion_lat": 0.0, "fusion_lon": 0.0, "lon": -77.03631616666667, "is_disabled": 0, "bike_id": "0bd2d07e7aa5b0b60aa052f63b51d3f8", "is_reserved": 0, "rental_uris": {"android": "https://dc.lft.to/lastmile_qr_scan", "ios": "https://dc.lft.to/lastmile_qr_scan"}, "lat": 38.936848166666664}, {"type": "electric_scooter", "name": "cd90b8aa589e1006d440685644e27aad", "fusion_lat": 0.0, "fusion_lon": 0.0, "lon": -77.039575, "is_disabled": 0, "bike_id": "cd90b8aa589e1006d440685644e27aad", "is_reserved": 0, "rental_uris": {"android": "https://dc.lft.to/lastmile_qr_scan", "ios": "https://dc.lft.to/lastmile_qr_scan"}, "lat": 38.9333115}, {"type": "electric_scooter", "name": "da262d42d7c5903995af322af1382349", "fusion_lat": 0.0, "fusion_lon": 0.0, "lon": -77.059241, "is_disabled": 0, "bike_id": "da262d42d7c5903995af322af1382349", "is_reserved": 0, "rental_uris": {"android": "https://dc.lft.to/lastmile_qr_scan", "ios": "https://dc.lft.to/lastmile_qr_scan"}, "lat": 38.902726333333334}, {"type": "electric_scooter", "name": "de3156797e3ae29e4d70b562a60caa50", "fusion_lat": 0.0, "fusion_lon": 0.0, "lon": -77.07867066666667, "is_disabled": 0, "bike_id": "de3156797e3ae29e4d70b562a60caa50", "is_reserved": 0, "rental_uris": {"android": "https://dc.lft.to/lastmile_qr_scan", "ios": "https://dc.lft.to/lastmile_qr_scan"}, "lat": 38.924653}, {"type": "electric_scooter", "name": "aa3a490869a4803b5fe05c8250bf0f41", "fusion_lat": 0.0, "fusion_lon": 0.0, "lon": -77.03636316666666, "is_disabled": 0, "bike_id": "aa3a490869a4803b5fe05c8250bf0f41", "is_reserved": 0, "rental_uris": {"android": "https://dc.lft.to/lastmile_qr_scan", "ios": "https://dc.lft.to/lastmile_qr_scan"}, "lat": 38.92592616666667}, {"type": "electric_scooter", "name": "a713c59e3dd146d31ced4a6085e9a032", "fusion_lat": 0.0, "fusion_lon": 0.0, "lon": -77.03961766666667, "is_disabled": 0, "bike_id": "a713c59e3dd146d31ced4a6085e9a032", "is_reserved": 0, "rental_uris": {"android": "https://dc.lft.to/lastmile_qr_scan", "ios": "https://dc.lft.to/lastmile_qr_scan"}, "lat": 38.892478}, {"type": "electric_scooter", "name": "e88c1766c125ffa06e2b36600932d18d", "fusion_lat": 0.0, "fusion_lon": 0.0, "lon": -77.01637316666667, "is_disabled": 0, "bike_id": "e88c1766c125ffa06e2b36600932d18d", "is_reserved": 0, "rental_uris": {"android": "https://dc.lft.to/lastmile_qr_scan", "ios": "https://dc.lft.to/lastmile_qr_scan"}, "lat": 38.9037935}, {"type": "electric_bike", "name": "9570f9d989c16f8483704ecbd829e29b", "fusion_lat": 0.0, "fusion_lon": 0.0, "lon": -77.007652, "is_disabled": 0, "bike_id": "9570f9d989c16f8483704ecbd829e29b", "is_reserved": 0, "rental_uris": {"android": "https://dc.lft.to/lastmile_qr_scan", "ios": "https://dc.lft.to/lastmile_qr_scan"}, "lat": 38.99781883333333}, {"type": "electric_scooter", "name": "45f3dddd6f3ca686f464cede4f7c32cc", "fusion_lat": 0.0, "fusion_lon": 0.0, "lon": -77.01763533333333, "is_disabled": 0, "bike_id": "45f3dddd6f3ca686f464cede4f7c32cc", "is_reserved": 0, "rental_uris": {"android": "https://dc.lft.to/lastmile_qr_scan", "ios": "https://dc.lft.to/lastmile_qr_scan"}, "lat": 38.876870333333336}, {"type": "electric_scooter", "name": "c716551d3bc1e3e39e1deb376d0d3478", "fusion_lat": 0.0, "fusion_lon": 0.0, "lon": -77.0032035, "is_disabled": 0, "bike_id": "c716551d3bc1e3e39e1deb376d0d3478", "is_reserved": 0, "rental_uris": {"android": "https://dc.lft.to/lastmile_qr_scan", "ios": "https://dc.lft.to/lastmile_qr_scan"}, "lat": 38.913410666666664}, {"type": "electric_scooter", "name": "1825c06194f11b2edc4cac2afc1c583d", "fusion_lat": 0.0, "fusion_lon": 0.0, "lon": -77.00285083333333, "is_disabled": 0, "bike_id": "1825c06194f11b2edc4cac2afc1c583d", "is_reserved": 0, "rental_uris": {"android": "https://dc.lft.to/lastmile_qr_scan", "ios": "https://dc.lft.to/lastmile_qr_scan"}, "lat": 38.87722633333333}, {"type": "electric_bike", "name": "08f85ff0b19ec33010503609d3d96f02", "fusion_lat": 0.0, "fusion_lon": 0.0, "lon": -76.945577, "is_disabled": 0, "bike_id": "08f85ff0b19ec33010503609d3d96f02", "is_reserved": 0, "rental_uris": {"android": "https://dc.lft.to/lastmile_qr_scan", "ios": "https://dc.lft.to/lastmile_qr_scan"}, "lat": 38.9829635}, {"type": "electric_scooter", "name": "0d5af52c3a56e6a18d652532104a3cba", "fusion_lat": 0.0, "fusion_lon": 0.0, "lon": -77.05001883333334, "is_disabled": 0, "bike_id": "0d5af52c3a56e6a18d652532104a3cba", "is_reserved": 0, "rental_uris": {"android": "https://dc.lft.to/lastmile_qr_scan", "ios": "https://dc.lft.to/lastmile_qr_scan"}, "lat": 38.901143833333336}, {"type": "electric_bike", "name": "a7a09be98cc0d2d504c11c11053948d2", "fusion_lat": 0.0, "fusion_lon": 0.0, "lon": -76.952459, "is_disabled": 0, "bike_id": "a7a09be98cc0d2d504c11c11053948d2", "is_reserved": 0, "rental_uris": {"android": "https://dc.lft.to/lastmile_qr_scan", "ios": "https://dc.lft.to/lastmile_qr_scan"}, "lat": 38.884653}, {"type": "electric_scooter", "name": "9e5b09b0b7455188e11df4f1f2c062b3", "fusion_lat": 0.0, "fusion_lon": 0.0, "lon": -77.00200116666667, "is_disabled": 0, "bike_id": "9e5b09b0b7455188e11df4f1f2c062b3", "is_reserved": 0, "rental_uris": {"android": "https://dc.lft.to/lastmile_qr_scan", "ios": "https://dc.lft.to/lastmile_qr_scan"}, "lat": 38.90238}, {"type": "electric_scooter", "name": "12683de4d67e1f475ae9ef2fb59b3061", "fusion_lat": 0.0, "fusion_lon": 0.0, "lon": -77.034539, "is_disabled": 0, "bike_id": "12683de4d67e1f475ae9ef2fb59b3061", "is_reserved": 0, "rental_uris": {"android": "https://dc.lft.to/lastmile_qr_scan", "ios": "https://dc.lft.to/lastmile_qr_scan"}, "lat": 38.90847}, {"type": "electric_scooter", "name": "de573fe6128c3088e5a00df9d6623e35", "fusion_lat": 0.0, "fusion_lon": 0.0, "lon": -77.09666966666667, "is_disabled": 0, "bike_id": "de573fe6128c3088e5a00df9d6623e35", "is_reserved": 0, "rental_uris": {"android": "https://dc.lft.to/lastmile_qr_scan", "ios": "https://dc.lft.to/lastmile_qr_scan"}, "lat": 38.91761983333333}, {"type": "electric_scooter", "name": "c46286c509041f76c2c9d2e72a2743fb", "fusion_lat": 0.0, "fusion_lon": 0.0, "lon": -77.020432, "is_disabled": 0, "bike_id": "c46286c509041f76c2c9d2e72a2743fb", "is_reserved": 0, "rental_uris": {"android": "https://dc.lft.to/lastmile_qr_scan", "ios": "https://dc.lft.to/lastmile_qr_scan"}, "lat": 38.89971466666667}, {"type": "electric_scooter", "name": "74cd084434416febbcbf69087489f7f2", "fusion_lat": 0.0, "fusion_lon": 0.0, "lon": -77.04347716666666, "is_disabled": 0, "bike_id": "74cd084434416febbcbf69087489f7f2", "is_reserved": 0, "rental_uris": {"android": "https://dc.lft.to/lastmile_qr_scan", "ios": "https://dc.lft.to/lastmile_qr_scan"}, "lat": 38.903963166666664}, {"type": "electric_scooter", "name": "f432dfcf8f9199ec9c6c3c0a975e0041", "fusion_lat": 0.0, "fusion_lon": 0.0, "lon": -77.01993983333334, "is_disabled": 0, "bike_id": "f432dfcf8f9199ec9c6c3c0a975e0041", "is_reserved": 0, "rental_uris": {"android": "https://dc.lft.to/lastmile_qr_scan", "ios": "https://dc.lft.to/lastmile_qr_scan"}, "lat": 38.887192}, {"type": "electric_scooter", "name": "5fdf35eda3200fef67015524f8ebc1ee", "fusion_lat": 0.0, "fusion_lon": 0.0, "lon": -77.02585183333333, "is_disabled": 0, "bike_id": "5fdf35eda3200fef67015524f8ebc1ee", "is_reserved": 0, "rental_uris": {"android": "https://dc.lft.to/lastmile_qr_scan", "ios": "https://dc.lft.to/lastmile_qr_scan"}, "lat": 38.920340333333336}, {"type": "electric_scooter", "name": "f0f8e5ef5ec003c50c2c9b07766bdc79", "fusion_lat": 0.0, "fusion_lon": 0.0, "lon": -77.0446205, "is_disabled": 0, "bike_id": "f0f8e5ef5ec003c50c2c9b07766bdc79", "is_reserved": 0, "rental_uris": {"android": "https://dc.lft.to/lastmile_qr_scan", "ios": "https://dc.lft.to/lastmile_qr_scan"}, "lat": 38.924671333333336}, {"type": "electric_scooter", "name": "1d6c646c236d58ad071039737943991a", "fusion_lat": 0.0, "fusion_lon": 0.0, "lon": -77.02553066666667, "is_disabled": 0, "bike_id": "1d6c646c236d58ad071039737943991a", "is_reserved": 0, "rental_uris": {"android": "https://dc.lft.to/lastmile_qr_scan", "ios": "https://dc.lft.to/lastmile_qr_scan"}, "lat": 38.91633516666667}, {"type": "electric_bike", "name": "4a76000191682c3d3669c58f089442aa", "fusion_lat": 0.0, "fusion_lon": 0.0, "lon": -76.98762433333333, "is_disabled": 0, "bike_id": "4a76000191682c3d3669c58f089442aa", "is_reserved": 0, "rental_uris": {"android": "https://dc.lft.to/lastmile_qr_scan", "ios": "https://dc.lft.to/lastmile_qr_scan"}, "lat": 38.857688}, {"type": "electric_scooter", "name": "2e74ee544ad288e872ccfb2879388667", "fusion_lat": 0.0, "fusion_lon": 0.0, "lon": -76.98377116666667, "is_disabled": 0, "bike_id": "2e74ee544ad288e872ccfb2879388667", "is_reserved": 0, "rental_uris": {"android": "https://dc.lft.to/lastmile_qr_scan", "ios": "https://dc.lft.to/lastmile_qr_scan"}, "lat": 38.899711}, {"type": "electric_scooter", "name": "6f5ad18a34f438f03cb7dcb11792fe01", "fusion_lat": 0.0, "fusion_lon": 0.0, "lon": -77.02954683333333, "is_disabled": 0, "bike_id": "6f5ad18a34f438f03cb7dcb11792fe01", "is_reserved": 0, "rental_uris": {"android": "https://dc.lft.to/lastmile_qr_scan", "ios": "https://dc.lft.to/lastmile_qr_scan"}, "lat": 38.90493383333333}, {"type": "electric_scooter", "name": "ec07d958fb281141360b1022f7f54174", "fusion_lat": 0.0, "fusion_lon": 0.0, "lon": -77.03858416666667, "is_disabled": 0, "bike_id": "ec07d958fb281141360b1022f7f54174", "is_reserved": 0, "rental_uris": {"android": "https://dc.lft.to/lastmile_qr_scan", "ios": "https://dc.lft.to/lastmile_qr_scan"}, "lat": 38.91706333333333}, {"type": "electric_scooter", "name": "dd6d4dc06c7fb9bab9cba671ae9aebcb", "fusion_lat": 0.0, "fusion_lon": 0.0, "lon": -77.0107785, "is_disabled": 0, "bike_id": "dd6d4dc06c7fb9bab9cba671ae9aebcb", "is_reserved": 0, "rental_uris": {"android": "https://dc.lft.to/lastmile_qr_scan", "ios": "https://dc.lft.to/lastmile_qr_scan"}, "lat": 38.89540566666667}, {"type": "electric_scooter", "name": "71c50f662e117b546493a5262cf9a40d", "fusion_lat": 0.0, "fusion_lon": 0.0, "lon": -77.02702033333334, "is_disabled": 0, "bike_id": "71c50f662e117b546493a5262cf9a40d", "is_reserved": 0, "rental_uris": {"android": "https://dc.lft.to/lastmile_qr_scan", "ios": "https://dc.lft.to/lastmile_qr_scan"}, "lat": 38.9086945}, {"type": "electric_scooter", "name": "79ffa935a22e5d1b07609e9b36b4f012", "fusion_lat": 0.0, "fusion_lon": 0.0, "lon": -77.035104, "is_disabled": 0, "bike_id": "79ffa935a22e5d1b07609e9b36b4f012", "is_reserved": 0, "rental_uris": {"android": "https://dc.lft.to/lastmile_qr_scan", "ios": "https://dc.lft.to/lastmile_qr_scan"}, "lat": 38.918817}, {"type": "electric_scooter", "name": "9b5a98703bc915de3fdb5e304d328afc", "fusion_lat": 0.0, "fusion_lon": 0.0, "lon": -77.01101566666667, "is_disabled": 0, "bike_id": "9b5a98703bc915de3fdb5e304d328afc", "is_reserved": 0, "rental_uris": {"android": "https://dc.lft.to/lastmile_qr_scan", "ios": "https://dc.lft.to/lastmile_qr_scan"}, "lat": 38.907375}, {"type": "electric_scooter", "name": "bcf8bdc5101838a058ae5fe9de8241a1", "fusion_lat": 0.0, "fusion_lon": 0.0, "lon": -77.03449666666667, "is_disabled": 0, "bike_id": "bcf8bdc5101838a058ae5fe9de8241a1", "is_reserved": 0, "rental_uris": {"android": "https://dc.lft.to/lastmile_qr_scan", "ios": "https://dc.lft.to/lastmile_qr_scan"}, "lat": 38.908437166666666}, {"type": "electric_bike", "name": "16318f4e88f2e7c45c2c411d2d0986d4", "fusion_lat": 0.0, "fusion_lon": 0.0, "lon": -77.046794, "is_disabled": 0, "bike_id": "16318f4e88f2e7c45c2c411d2d0986d4", "is_reserved": 0, "rental_uris": {"android": "https://dc.lft.to/lastmile_qr_scan", "ios": "https://dc.lft.to/lastmile_qr_scan"}, "lat": 38.9165395}, {"type": "electric_scooter", "name": "6b226755e39e8bc377942272f0ff75fc", "fusion_lat": 0.0, "fusion_lon": 0.0, "lon": -77.0629965, "is_disabled": 0, "bike_id": "6b226755e39e8bc377942272f0ff75fc", "is_reserved": 0, "rental_uris": {"android": "https://dc.lft.to/lastmile_qr_scan", "ios": "https://dc.lft.to/lastmile_qr_scan"}, "lat": 38.90397466666667}, {"type": "electric_bike", "name": "9325534d237fd09d3b55777518056718", "fusion_lat": 0.0, "fusion_lon": 0.0, "lon": -77.01205033333333, "is_disabled": 0, "bike_id": "9325534d237fd09d3b55777518056718", "is_reserved": 0, "rental_uris": {"android": "https://dc.lft.to/lastmile_qr_scan", "ios": "https://dc.lft.to/lastmile_qr_scan"}, "lat": 38.9507135}, {"type": "electric_scooter", "name": "a8190a0c242a19c1a87c2ff59783d166", "fusion_lat": 0.0, "fusion_lon": 0.0, "lon": -77.03404266666666, "is_disabled": 0, "bike_id": "a8190a0c242a19c1a87c2ff59783d166", "is_reserved": 0, "rental_uris": {"android": "https://dc.lft.to/lastmile_qr_scan", "ios": "https://dc.lft.to/lastmile_qr_scan"}, "lat": 38.90436566666666}, {"type": "electric_scooter", "name": "7abaf0129d1af45114b1fa66a2d2da70", "fusion_lat": 0.0, "fusion_lon": 0.0, "lon": -77.01573366666666, "is_disabled": 0, "bike_id": "7abaf0129d1af45114b1fa66a2d2da70", "is_reserved": 0, "rental_uris": {"android": "https://dc.lft.to/lastmile_qr_scan", "ios": "https://dc.lft.to/lastmile_qr_scan"}, "lat": 38.87657016666667}, {"type": "electric_scooter", "name": "a4d38897eb82ce4e704b9adcb4e9cbee", "fusion_lat": 0.0, "fusion_lon": 0.0, "lon": -77.02206166666667, "is_disabled": 0, "bike_id": "a4d38897eb82ce4e704b9adcb4e9cbee", "is_reserved": 0, "rental_uris": {"android": "https://dc.lft.to/lastmile_qr_scan", "ios": "https://dc.lft.to/lastmile_qr_scan"}, "lat": 38.892299}, {"type": "electric_scooter", "name": "9da560c936885fb3c3638e2c921df569", "fusion_lat": 0.0, "fusion_lon": 0.0, "lon": -77.04524633333334, "is_disabled": 0, "bike_id": "9da560c936885fb3c3638e2c921df569", "is_reserved": 0, "rental_uris": {"android": "https://dc.lft.to/lastmile_qr_scan", "ios": "https://dc.lft.to/lastmile_qr_scan"}, "lat": 38.9110795}, {"type": "electric_scooter", "name": "66a44beaf938392a75dcd9ebf89a9d6e", "fusion_lat": 0.0, "fusion_lon": 0.0, "lon": -77.03562833333334, "is_disabled": 0, "bike_id": "66a44beaf938392a75dcd9ebf89a9d6e", "is_reserved": 0, "rental_uris": {"android": "https://dc.lft.to/lastmile_qr_scan", "ios": "https://dc.lft.to/lastmile_qr_scan"}, "lat": 38.91817366666667}, {"type": "electric_scooter", "name": "d9ade9e357dc04a7d9b248607ef10053", "fusion_lat": 0.0, "fusion_lon": 0.0, "lon": -77.0475, "is_disabled": 0, "bike_id": "d9ade9e357dc04a7d9b248607ef10053", "is_reserved": 0, "rental_uris": {"android": "https://dc.lft.to/lastmile_qr_scan", "ios": "https://dc.lft.to/lastmile_qr_scan"}, "lat": 38.91287716666667}, {"type": "electric_scooter", "name": "3f5b60c3fddf4bea984b5ca59f733284", "fusion_lat": 0.0, "fusion_lon": 0.0, "lon": -77.02356166666667, "is_disabled": 0, "bike_id": "3f5b60c3fddf4bea984b5ca59f733284", "is_reserved": 0, "rental_uris": {"android": "https://dc.lft.to/lastmile_qr_scan", "ios": "https://dc.lft.to/lastmile_qr_scan"}, "lat": 38.93534416666667}, {"type": "electric_scooter", "name": "5c48dfd0eddeaf6d1866fb60f4a6c53b", "fusion_lat": 0.0, "fusion_lon": 0.0, "lon": -77.04559083333334, "is_disabled": 0, "bike_id": "5c48dfd0eddeaf6d1866fb60f4a6c53b", "is_reserved": 0, "rental_uris": {"android": "https://dc.lft.to/lastmile_qr_scan", "ios": "https://dc.lft.to/lastmile_qr_scan"}, "lat": 38.9007445}, {"type": "electric_bike", "name": "059b1fa73cca2f92d1fb02ea8ba1fadb", "fusion_lat": 0.0, "fusion_lon": 0.0, "lon": -77.01230183333334, "is_disabled": 0, "bike_id": "059b1fa73cca2f92d1fb02ea8ba1fadb", "is_reserved": 0, "rental_uris": {"android": "https://dc.lft.to/lastmile_qr_scan", "ios": "https://dc.lft.to/lastmile_qr_scan"}, "lat": 38.95084933333333}, {"type": "electric_scooter", "name": "5b266494fd0966b52d8af7a2851c6a00", "fusion_lat": 0.0, "fusion_lon": 0.0, "lon": -77.042787, "is_disabled": 0, "bike_id": "5b266494fd0966b52d8af7a2851c6a00", "is_reserved": 0, "rental_uris": {"android": "https://dc.lft.to/lastmile_qr_scan", "ios": "https://dc.lft.to/lastmile_qr_scan"}, "lat": 38.90364533333333}, {"type": "electric_scooter", "name": "31153263f3ced959dd20f84ea04b5482", "fusion_lat": 0.0, "fusion_lon": 0.0, "lon": -76.99743133333334, "is_disabled": 0, "bike_id": "31153263f3ced959dd20f84ea04b5482", "is_reserved": 0, "rental_uris": {"android": "https://dc.lft.to/lastmile_qr_scan", "ios": "https://dc.lft.to/lastmile_qr_scan"}, "lat": 38.8850435}, {"type": "electric_scooter", "name": "8410970a1ed0016819f7a0af90f946e4", "fusion_lat": 0.0, "fusion_lon": 0.0, "lon": -77.025546, "is_disabled": 0, "bike_id": "8410970a1ed0016819f7a0af90f946e4", "is_reserved": 0, "rental_uris": {"android": "https://dc.lft.to/lastmile_qr_scan", "ios": "https://dc.lft.to/lastmile_qr_scan"}, "lat": 38.97003016666667}, {"type": "electric_scooter", "name": "16dd0b717a577b4268f23691b9a7e03b", "fusion_lat": 0.0, "fusion_lon": 0.0, "lon": -77.03851016666667, "is_disabled": 0, "bike_id": "16dd0b717a577b4268f23691b9a7e03b", "is_reserved": 0, "rental_uris": {"android": "https://dc.lft.to/lastmile_qr_scan", "ios": "https://dc.lft.to/lastmile_qr_scan"}, "lat": 38.9154315}, {"type": "electric_scooter", "name": "318818a00adcc2616d1f582eaa91f1fa", "fusion_lat": 0.0, "fusion_lon": 0.0, "lon": -77.04337466666667, "is_disabled": 0, "bike_id": "318818a00adcc2616d1f582eaa91f1fa", "is_reserved": 0, "rental_uris": {"android": "https://dc.lft.to/lastmile_qr_scan", "ios": "https://dc.lft.to/lastmile_qr_scan"}, "lat": 38.907304833333335}, {"type": "electric_scooter", "name": "e754d235b687ec2fd02a2f8fa94c5a51", "fusion_lat": 0.0, "fusion_lon": 0.0, "lon": -77.019985, "is_disabled": 0, "bike_id": "e754d235b687ec2fd02a2f8fa94c5a51", "is_reserved": 0, "rental_uris": {"android": "https://dc.lft.to/lastmile_qr_scan", "ios": "https://dc.lft.to/lastmile_qr_scan"}, "lat": 38.9662785}, {"type": "electric_scooter", "name": "76c2e720b8df6f0c5a3e1774d6fb3cf0", "fusion_lat": 0.0, "fusion_lon": 0.0, "lon": -77.04342316666667, "is_disabled": 0, "bike_id": "76c2e720b8df6f0c5a3e1774d6fb3cf0", "is_reserved": 0, "rental_uris": {"android": "https://dc.lft.to/lastmile_qr_scan", "ios": "https://dc.lft.to/lastmile_qr_scan"}, "lat": 38.90641516666667}, {"type": "electric_bike", "name": "8878a1787906f6298329c200e0d740e2", "fusion_lat": 0.0, "fusion_lon": 0.0, "lon": -76.96150366666667, "is_disabled": 0, "bike_id": "8878a1787906f6298329c200e0d740e2", "is_reserved": 0, "rental_uris": {"android": "https://dc.lft.to/lastmile_qr_scan", "ios": "https://dc.lft.to/lastmile_qr_scan"}, "lat": 38.8561745}, {"type": "electric_scooter", "name": "41072b70e669b77cf392fdf3015c30aa", "fusion_lat": 0.0, "fusion_lon": 0.0, "lon": -77.03849166666667, "is_disabled": 0, "bike_id": "41072b70e669b77cf392fdf3015c30aa", "is_reserved": 0, "rental_uris": {"android": "https://dc.lft.to/lastmile_qr_scan", "ios": "https://dc.lft.to/lastmile_qr_scan"}, "lat": 38.916666666666664}, {"type": "electric_scooter", "name": "32c4afe601fa5ed37d08edecaf7129d2", "fusion_lat": 0.0, "fusion_lon": 0.0, "lon": -77.0282185, "is_disabled": 0, "bike_id": "32c4afe601fa5ed37d08edecaf7129d2", "is_reserved": 0, "rental_uris": {"android": "https://dc.lft.to/lastmile_qr_scan", "ios": "https://dc.lft.to/lastmile_qr_scan"}, "lat": 38.90914133333333}, {"type": "electric_scooter", "name": "582fde492c88f380395d1353df176e7f", "fusion_lat": 0.0, "fusion_lon": 0.0, "lon": -77.04566366666667, "is_disabled": 0, "bike_id": "582fde492c88f380395d1353df176e7f", "is_reserved": 0, "rental_uris": {"android": "https://dc.lft.to/lastmile_qr_scan", "ios": "https://dc.lft.to/lastmile_qr_scan"}, "lat": 38.903808}, {"type": "electric_scooter", "name": "e5bc795c91ccc1fcf19b87a4a43ea2c6", "fusion_lat": 0.0, "fusion_lon": 0.0, "lon": -77.03989266666666, "is_disabled": 0, "bike_id": "e5bc795c91ccc1fcf19b87a4a43ea2c6", "is_reserved": 0, "rental_uris": {"android": "https://dc.lft.to/lastmile_qr_scan", "ios": "https://dc.lft.to/lastmile_qr_scan"}, "lat": 38.89548216666667}, {"type": "electric_scooter", "name": "5e5dfc1a0c42cd7f4d31818d6cb981f2", "fusion_lat": 0.0, "fusion_lon": 0.0, "lon": -77.00733166666667, "is_disabled": 0, "bike_id": "5e5dfc1a0c42cd7f4d31818d6cb981f2", "is_reserved": 0, "rental_uris": {"android": "https://dc.lft.to/lastmile_qr_scan", "ios": "https://dc.lft.to/lastmile_qr_scan"}, "lat": 38.876726166666664}, {"type": "electric_scooter", "name": "7d877bfcb402c4ed538b665c3657692a", "fusion_lat": 0.0, "fusion_lon": 0.0, "lon": -77.02912833333333, "is_disabled": 0, "bike_id": "7d877bfcb402c4ed538b665c3657692a", "is_reserved": 0, "rental_uris": {"android": "https://dc.lft.to/lastmile_qr_scan", "ios": "https://dc.lft.to/lastmile_qr_scan"}, "lat": 38.89725033333333}, {"type": "electric_bike", "name": "916e4c66844dbba93d6154f623677868", "fusion_lat": 0.0, "fusion_lon": 0.0, "lon": -77.08405283333333, "is_disabled": 0, "bike_id": "916e4c66844dbba93d6154f623677868", "is_reserved": 0, "rental_uris": {"android": "https://dc.lft.to/lastmile_qr_scan", "ios": "https://dc.lft.to/lastmile_qr_scan"}, "lat": 38.913046333333334}, {"type": "electric_bike", "name": "c3a3c9f9c75d05d2199cd42f3b5e3064", "fusion_lat": 0.0, "fusion_lon": 0.0, "lon": -77.03626466666667, "is_disabled": 0, "bike_id": "c3a3c9f9c75d05d2199cd42f3b5e3064", "is_reserved": 0, "rental_uris": {"android": "https://dc.lft.to/lastmile_qr_scan", "ios": "https://dc.lft.to/lastmile_qr_scan"}, "lat": 38.97298766666667}, {"type": "electric_bike", "name": "db312fe01e236be573bc18751af7e546", "fusion_lat": 0.0, "fusion_lon": 0.0, "lon": -76.982257, "is_disabled": 0, "bike_id": "db312fe01e236be573bc18751af7e546", "is_reserved": 0, "rental_uris": {"android": "https://dc.lft.to/lastmile_qr_scan", "ios": "https://dc.lft.to/lastmile_qr_scan"}, "lat": 38.878788166666666}, {"type": "electric_bike", "name": "84686584aeb97edb7be9ec99f042dbb0", "fusion_lat": 0.0, "fusion_lon": 0.0, "lon": -77.10212916666667, "is_disabled": 0, "bike_id": "84686584aeb97edb7be9ec99f042dbb0", "is_reserved": 0, "rental_uris": {"android": "https://dc.lft.to/lastmile_qr_scan", "ios": "https://dc.lft.to/lastmile_qr_scan"}, "lat": 38.9199585}, {"type": "electric_scooter", "name": "8ab1b59e70cd585471d186693cd75c4f", "fusion_lat": 0.0, "fusion_lon": 0.0, "lon": -77.0066445, "is_disabled": 0, "bike_id": "8ab1b59e70cd585471d186693cd75c4f", "is_reserved": 0, "rental_uris": {"android": "https://dc.lft.to/lastmile_qr_scan", "ios": "https://dc.lft.to/lastmile_qr_scan"}, "lat": 38.90000583333333}, {"type": "electric_scooter", "name": "c39ef841e64b76c9717f38eeb6ec4343", "fusion_lat": 0.0, "fusion_lon": 0.0, "lon": -77.01872233333333, "is_disabled": 0, "bike_id": "c39ef841e64b76c9717f38eeb6ec4343", "is_reserved": 0, "rental_uris": {"android": "https://dc.lft.to/lastmile_qr_scan", "ios": "https://dc.lft.to/lastmile_qr_scan"}, "lat": 38.8765855}, {"type": "electric_bike", "name": "bb88464b0af0164f024803c3398bc2e9", "fusion_lat": 0.0, "fusion_lon": 0.0, "lon": -76.9792525, "is_disabled": 0, "bike_id": "bb88464b0af0164f024803c3398bc2e9", "is_reserved": 0, "rental_uris": {"android": "https://dc.lft.to/lastmile_qr_scan", "ios": "https://dc.lft.to/lastmile_qr_scan"}, "lat": 38.9167965}, {"type": "electric_scooter", "name": "a8c765a88b8713c412559a45eecd8d69", "fusion_lat": 0.0, "fusion_lon": 0.0, "lon": -77.02962716666667, "is_disabled": 0, "bike_id": "a8c765a88b8713c412559a45eecd8d69", "is_reserved": 0, "rental_uris": {"android": "https://dc.lft.to/lastmile_qr_scan", "ios": "https://dc.lft.to/lastmile_qr_scan"}, "lat": 38.9323695}, {"type": "electric_bike", "name": "a946dbb00c6f5c325bb55c0c151d49c5", "fusion_lat": 0.0, "fusion_lon": 0.0, "lon": -76.9868905, "is_disabled": 0, "bike_id": "a946dbb00c6f5c325bb55c0c151d49c5", "is_reserved": 0, "rental_uris": {"android": "https://dc.lft.to/lastmile_qr_scan", "ios": "https://dc.lft.to/lastmile_qr_scan"}, "lat": 38.94472116666667}, {"type": "electric_scooter", "name": "a9aaf1eadc51a97eaf9a09f12cfa6e9c", "fusion_lat": 0.0, "fusion_lon": 0.0, "lon": -77.02589266666666, "is_disabled": 0, "bike_id": "a9aaf1eadc51a97eaf9a09f12cfa6e9c", "is_reserved": 0, "rental_uris": {"android": "https://dc.lft.to/lastmile_qr_scan", "ios": "https://dc.lft.to/lastmile_qr_scan"}, "lat": 38.958109}, {"type": "electric_bike", "name": "7b1b7291c1fb3765006d27f00deed5d9", "fusion_lat": 0.0, "fusion_lon": 0.0, "lon": -76.96916333333333, "is_disabled": 0, "bike_id": "7b1b7291c1fb3765006d27f00deed5d9", "is_reserved": 0, "rental_uris": {"android": "https://dc.lft.to/lastmile_qr_scan", "ios": "https://dc.lft.to/lastmile_qr_scan"}, "lat": 38.846152333333336}, {"type": "electric_scooter", "name": "f6164ed90f9690fdbdebb2e9d6bd228f", "fusion_lat": 0.0, "fusion_lon": 0.0, "lon": -77.033168, "is_disabled": 0, "bike_id": "f6164ed90f9690fdbdebb2e9d6bd228f", "is_reserved": 0, "rental_uris": {"android": "https://dc.lft.to/lastmile_qr_scan", "ios": "https://dc.lft.to/lastmile_qr_scan"}, "lat": 38.938854}, {"type": "electric_bike", "name": "e1fc29d2960365aaad5ee37d330cf273", "fusion_lat": 0.0, "fusion_lon": 0.0, "lon": -76.96268533333334, "is_disabled": 0, "bike_id": "e1fc29d2960365aaad5ee37d330cf273", "is_reserved": 0, "rental_uris": {"android": "https://dc.lft.to/lastmile_qr_scan", "ios": "https://dc.lft.to/lastmile_qr_scan"}, "lat": 38.96785716666667}, {"type": "electric_scooter", "name": "744ea511c4ab022b80844e0935050b9a", "fusion_lat": 0.0, "fusion_lon": 0.0, "lon": -77.03473633333333, "is_disabled": 0, "bike_id": "744ea511c4ab022b80844e0935050b9a", "is_reserved": 0, "rental_uris": {"android": "https://dc.lft.to/lastmile_qr_scan", "ios": "https://dc.lft.to/lastmile_qr_scan"}, "lat": 38.905568}, {"type": "electric_bike", "name": "734ead04d5686f9013268778bdc26884", "fusion_lat": 0.0, "fusion_lon": 0.0, "lon": -77.086168, "is_disabled": 0, "bike_id": "734ead04d5686f9013268778bdc26884", "is_reserved": 0, "rental_uris": {"android": "https://dc.lft.to/lastmile_qr_scan", "ios": "https://dc.lft.to/lastmile_qr_scan"}, "lat": 38.93127633333334}, {"type": "electric_scooter", "name": "511b34ec9b8986d0f9898f06204a4a85", "fusion_lat": 0.0, "fusion_lon": 0.0, "lon": -77.02185216666666, "is_disabled": 0, "bike_id": "511b34ec9b8986d0f9898f06204a4a85", "is_reserved": 0, "rental_uris": {"android": "https://dc.lft.to/lastmile_qr_scan", "ios": "https://dc.lft.to/lastmile_qr_scan"}, "lat": 38.9054405}, {"type": "electric_scooter", "name": "501e5510bf7c973902fdb2a1b0e18377", "fusion_lat": 0.0, "fusion_lon": 0.0, "lon": -76.9834305, "is_disabled": 0, "bike_id": "501e5510bf7c973902fdb2a1b0e18377", "is_reserved": 0, "rental_uris": {"android": "https://dc.lft.to/lastmile_qr_scan", "ios": "https://dc.lft.to/lastmile_qr_scan"}, "lat": 38.895446166666666}, {"type": "electric_scooter", "name": "c85eba898e4288b9f355e3235323d8b8", "fusion_lat": 0.0, "fusion_lon": 0.0, "lon": -77.0335625, "is_disabled": 0, "bike_id": "c85eba898e4288b9f355e3235323d8b8", "is_reserved": 0, "rental_uris": {"android": "https://dc.lft.to/lastmile_qr_scan", "ios": "https://dc.lft.to/lastmile_qr_scan"}, "lat": 38.9234235}, {"type": "electric_scooter", "name": "afbe4858484c72f70ef0603d6037ad13", "fusion_lat": 0.0, "fusion_lon": 0.0, "lon": -77.01781983333333, "is_disabled": 0, "bike_id": "afbe4858484c72f70ef0603d6037ad13", "is_reserved": 0, "rental_uris": {"android": "https://dc.lft.to/lastmile_qr_scan", "ios": "https://dc.lft.to/lastmile_qr_scan"}, "lat": 38.91993083333333}, {"type": "electric_scooter", "name": "02ba04a85e56ea0883f34555ae501410", "fusion_lat": 0.0, "fusion_lon": 0.0, "lon": -77.0034955, "is_disabled": 0, "bike_id": "02ba04a85e56ea0883f34555ae501410", "is_reserved": 0, "rental_uris": {"android": "https://dc.lft.to/lastmile_qr_scan", "ios": "https://dc.lft.to/lastmile_qr_scan"}, "lat": 38.91628033333333}, {"type": "electric_bike", "name": "a90b036188a917f7b58448eb92ddfc32", "fusion_lat": 0.0, "fusion_lon": 0.0, "lon": -77.11414083333334, "is_disabled": 0, "bike_id": "a90b036188a917f7b58448eb92ddfc32", "is_reserved": 0, "rental_uris": {"android": "https://dc.lft.to/lastmile_qr_scan", "ios": "https://dc.lft.to/lastmile_qr_scan"}, "lat": 38.87319933333333}, {"type": "electric_scooter", "name": "d05b5bbd0f2c60d5f5f6ee53e879ac45", "fusion_lat": 0.0, "fusion_lon": 0.0, "lon": -77.02098766666667, "is_disabled": 0, "bike_id": "d05b5bbd0f2c60d5f5f6ee53e879ac45", "is_reserved": 0, "rental_uris": {"android": "https://dc.lft.to/lastmile_qr_scan", "ios": "https://dc.lft.to/lastmile_qr_scan"}, "lat": 38.930107666666665}, {"type": "electric_scooter", "name": "04657a1eef756b51b5f2f6f36acf6a9f", "fusion_lat": 0.0, "fusion_lon": 0.0, "lon": -77.03669033333334, "is_disabled": 0, "bike_id": "04657a1eef756b51b5f2f6f36acf6a9f", "is_reserved": 0, "rental_uris": {"android": "https://dc.lft.to/lastmile_qr_scan", "ios": "https://dc.lft.to/lastmile_qr_scan"}, "lat": 38.91818}, {"type": "electric_scooter", "name": "5f98d994c14fac3349a02551db6f3b95", "fusion_lat": 0.0, "fusion_lon": 0.0, "lon": -77.04324083333333, "is_disabled": 0, "bike_id": "5f98d994c14fac3349a02551db6f3b95", "is_reserved": 0, "rental_uris": {"android": "https://dc.lft.to/lastmile_qr_scan", "ios": "https://dc.lft.to/lastmile_qr_scan"}, "lat": 38.934127333333336}, {"type": "electric_scooter", "name": "5a3229b4455b8b8bdc5c88c805106ec3", "fusion_lat": 0.0, "fusion_lon": 0.0, "lon": -77.02203233333333, "is_disabled": 0, "bike_id": "5a3229b4455b8b8bdc5c88c805106ec3", "is_reserved": 0, "rental_uris": {"android": "https://dc.lft.to/lastmile_qr_scan", "ios": "https://dc.lft.to/lastmile_qr_scan"}, "lat": 38.91438483333334}, {"type": "electric_scooter", "name": "3140446d1f9c689f2b1964733106fbc1", "fusion_lat": 0.0, "fusion_lon": 0.0, "lon": -77.00625016666666, "is_disabled": 0, "bike_id": "3140446d1f9c689f2b1964733106fbc1", "is_reserved": 0, "rental_uris": {"android": "https://dc.lft.to/lastmile_qr_scan", "ios": "https://dc.lft.to/lastmile_qr_scan"}, "lat": 38.871958166666666}, {"type": "electric_scooter", "name": "6df58b799de195a1e6fef4e4eeac90ee", "fusion_lat": 0.0, "fusion_lon": 0.0, "lon": -77.04880366666667, "is_disabled": 0, "bike_id": "6df58b799de195a1e6fef4e4eeac90ee", "is_reserved": 0, "rental_uris": {"android": "https://dc.lft.to/lastmile_qr_scan", "ios": "https://dc.lft.to/lastmile_qr_scan"}, "lat": 38.91057216666667}, {"type": "electric_scooter", "name": "670acbfdf3114d59dd27eabd41abfe8e", "fusion_lat": 0.0, "fusion_lon": 0.0, "lon": -77.02289033333334, "is_disabled": 0, "bike_id": "670acbfdf3114d59dd27eabd41abfe8e", "is_reserved": 0, "rental_uris": {"android": "https://dc.lft.to/lastmile_qr_scan", "ios": "https://dc.lft.to/lastmile_qr_scan"}, "lat": 38.91703583333334}, {"type": "electric_scooter", "name": "bc1a34522bdc60d1cae19413729b9de6", "fusion_lat": 0.0, "fusion_lon": 0.0, "lon": -77.04865283333334, "is_disabled": 0, "bike_id": "bc1a34522bdc60d1cae19413729b9de6", "is_reserved": 0, "rental_uris": {"android": "https://dc.lft.to/lastmile_qr_scan", "ios": "https://dc.lft.to/lastmile_qr_scan"}, "lat": 38.91258366666667}, {"type": "electric_scooter", "name": "7e6ef0dba73d9828a595b52bfeb9092c", "fusion_lat": 0.0, "fusion_lon": 0.0, "lon": -76.98374083333333, "is_disabled": 0, "bike_id": "7e6ef0dba73d9828a595b52bfeb9092c", "is_reserved": 0, "rental_uris": {"android": "https://dc.lft.to/lastmile_qr_scan", "ios": "https://dc.lft.to/lastmile_qr_scan"}, "lat": 38.8913785}, {"type": "electric_scooter", "name": "859411b3e39e9ae5c17ccc2fffc92614", "fusion_lat": 0.0, "fusion_lon": 0.0, "lon": -77.06691166666667, "is_disabled": 0, "bike_id": "859411b3e39e9ae5c17ccc2fffc92614", "is_reserved": 0, "rental_uris": {"android": "https://dc.lft.to/lastmile_qr_scan", "ios": "https://dc.lft.to/lastmile_qr_scan"}, "lat": 38.950231}, {"type": "electric_scooter", "name": "9d748558bef6a7aeaa92e230eec03bb4", "fusion_lat": 0.0, "fusion_lon": 0.0, "lon": -77.01796983333334, "is_disabled": 0, "bike_id": "9d748558bef6a7aeaa92e230eec03bb4", "is_reserved": 0, "rental_uris": {"android": "https://dc.lft.to/lastmile_qr_scan", "ios": "https://dc.lft.to/lastmile_qr_scan"}, "lat": 38.91939216666667}, {"type": "electric_scooter", "name": "92eafa63cf62b9a9bdd6738f252226c3", "fusion_lat": 0.0, "fusion_lon": 0.0, "lon": -77.0228605, "is_disabled": 0, "bike_id": "92eafa63cf62b9a9bdd6738f252226c3", "is_reserved": 0, "rental_uris": {"android": "https://dc.lft.to/lastmile_qr_scan", "ios": "https://dc.lft.to/lastmile_qr_scan"}, "lat": 38.9268665}, {"type": "electric_scooter", "name": "80f3862bb0616aff0a6246187d76cc52", "fusion_lat": 0.0, "fusion_lon": 0.0, "lon": -77.013352, "is_disabled": 0, "bike_id": "80f3862bb0616aff0a6246187d76cc52", "is_reserved": 0, "rental_uris": {"android": "https://dc.lft.to/lastmile_qr_scan", "ios": "https://dc.lft.to/lastmile_qr_scan"}, "lat": 38.88121116666667}, {"type": "electric_scooter", "name": "19195207d2f37cc596409a74662518dd", "fusion_lat": 0.0, "fusion_lon": 0.0, "lon": -76.97652266666667, "is_disabled": 0, "bike_id": "19195207d2f37cc596409a74662518dd", "is_reserved": 0, "rental_uris": {"android": "https://dc.lft.to/lastmile_qr_scan", "ios": "https://dc.lft.to/lastmile_qr_scan"}, "lat": 38.903618333333334}, {"type": "electric_bike", "name": "07d8ff7176584c3842da9110d5689966", "fusion_lat": 0.0, "fusion_lon": 0.0, "lon": -77.0955925, "is_disabled": 0, "bike_id": "07d8ff7176584c3842da9110d5689966", "is_reserved": 0, "rental_uris": {"android": "https://dc.lft.to/lastmile_qr_scan", "ios": "https://dc.lft.to/lastmile_qr_scan"}, "lat": 38.858766}, {"type": "electric_scooter", "name": "cba75c5532922e16833af02d9cccbbdb", "fusion_lat": 0.0, "fusion_lon": 0.0, "lon": -77.04351066666666, "is_disabled": 0, "bike_id": "cba75c5532922e16833af02d9cccbbdb", "is_reserved": 0, "rental_uris": {"android": "https://dc.lft.to/lastmile_qr_scan", "ios": "https://dc.lft.to/lastmile_qr_scan"}, "lat": 38.904791333333336}, {"type": "electric_scooter", "name": "d2fae6df0f9e3062e7fe90b9eded2329", "fusion_lat": 0.0, "fusion_lon": 0.0, "lon": -77.0230285, "is_disabled": 0, "bike_id": "d2fae6df0f9e3062e7fe90b9eded2329", "is_reserved": 0, "rental_uris": {"android": "https://dc.lft.to/lastmile_qr_scan", "ios": "https://dc.lft.to/lastmile_qr_scan"}, "lat": 38.920821333333336}, {"type": "electric_scooter", "name": "d28d74a828e1f84ae1cf3665c82e93a6", "fusion_lat": 0.0, "fusion_lon": 0.0, "lon": -77.0256955, "is_disabled": 0, "bike_id": "d28d74a828e1f84ae1cf3665c82e93a6", "is_reserved": 0, "rental_uris": {"android": "https://dc.lft.to/lastmile_qr_scan", "ios": "https://dc.lft.to/lastmile_qr_scan"}, "lat": 38.941987166666664}, {"type": "electric_scooter", "name": "9cc66f195e8e9eb9a371e111cdeb54d8", "fusion_lat": 0.0, "fusion_lon": 0.0, "lon": -77.035095, "is_disabled": 0, "bike_id": "9cc66f195e8e9eb9a371e111cdeb54d8", "is_reserved": 0, "rental_uris": {"android": "https://dc.lft.to/lastmile_qr_scan", "ios": "https://dc.lft.to/lastmile_qr_scan"}, "lat": 38.921569}, {"type": "electric_scooter", "name": "d3ca03dc016de2c63f9fe1e4d7260d70", "fusion_lat": 0.0, "fusion_lon": 0.0, "lon": -77.03264033333333, "is_disabled": 0, "bike_id": "d3ca03dc016de2c63f9fe1e4d7260d70", "is_reserved": 0, "rental_uris": {"android": "https://dc.lft.to/lastmile_qr_scan", "ios": "https://dc.lft.to/lastmile_qr_scan"}, "lat": 38.9330585}, {"type": "electric_scooter", "name": "6047df16398dac2cd5eaa810223f0fde", "fusion_lat": 0.0, "fusion_lon": 0.0, "lon": -77.03970333333334, "is_disabled": 0, "bike_id": "6047df16398dac2cd5eaa810223f0fde", "is_reserved": 0, "rental_uris": {"android": "https://dc.lft.to/lastmile_qr_scan", "ios": "https://dc.lft.to/lastmile_qr_scan"}, "lat": 38.89892866666667}, {"type": "electric_scooter", "name": "29d61ced5faaf061915bdeed1086f146", "fusion_lat": 0.0, "fusion_lon": 0.0, "lon": -77.03499166666667, "is_disabled": 0, "bike_id": "29d61ced5faaf061915bdeed1086f146", "is_reserved": 0, "rental_uris": {"android": "https://dc.lft.to/lastmile_qr_scan", "ios": "https://dc.lft.to/lastmile_qr_scan"}, "lat": 38.91710166666667}, {"type": "electric_scooter", "name": "53ad54780847f367e550ea64d86afaae", "fusion_lat": 0.0, "fusion_lon": 0.0, "lon": -77.040944, "is_disabled": 0, "bike_id": "53ad54780847f367e550ea64d86afaae", "is_reserved": 0, "rental_uris": {"android": "https://dc.lft.to/lastmile_qr_scan", "ios": "https://dc.lft.to/lastmile_qr_scan"}, "lat": 38.92070483333333}, {"type": "electric_scooter", "name": "e3c46e801d45dd55d7ad75109f55f112", "fusion_lat": 0.0, "fusion_lon": 0.0, "lon": -77.02774766666667, "is_disabled": 0, "bike_id": "e3c46e801d45dd55d7ad75109f55f112", "is_reserved": 0, "rental_uris": {"android": "https://dc.lft.to/lastmile_qr_scan", "ios": "https://dc.lft.to/lastmile_qr_scan"}, "lat": 38.96582016666667}, {"type": "electric_scooter", "name": "819b883eb5c09044076b64bb2b81090e", "fusion_lat": 0.0, "fusion_lon": 0.0, "lon": -76.99315433333334, "is_disabled": 0, "bike_id": "819b883eb5c09044076b64bb2b81090e", "is_reserved": 0, "rental_uris": {"android": "https://dc.lft.to/lastmile_qr_scan", "ios": "https://dc.lft.to/lastmile_qr_scan"}, "lat": 38.92015933333333}, {"type": "electric_scooter", "name": "c9fe1ecbdbe2a9185524b30ce6735ca1", "fusion_lat": 0.0, "fusion_lon": 0.0, "lon": -77.02514316666667, "is_disabled": 0, "bike_id": "c9fe1ecbdbe2a9185524b30ce6735ca1", "is_reserved": 0, "rental_uris": {"android": "https://dc.lft.to/lastmile_qr_scan", "ios": "https://dc.lft.to/lastmile_qr_scan"}, "lat": 38.9207895}, {"type": "electric_scooter", "name": "72a69ee89bc6d702131342cffd0ed294", "fusion_lat": 0.0, "fusion_lon": 0.0, "lon": -77.02294916666666, "is_disabled": 0, "bike_id": "72a69ee89bc6d702131342cffd0ed294", "is_reserved": 0, "rental_uris": {"android": "https://dc.lft.to/lastmile_qr_scan", "ios": "https://dc.lft.to/lastmile_qr_scan"}, "lat": 38.91637333333333}, {"type": "electric_scooter", "name": "29288ac604204b6d6496c28aebdb10fa", "fusion_lat": 0.0, "fusion_lon": 0.0, "lon": -77.02110583333334, "is_disabled": 0, "bike_id": "29288ac604204b6d6496c28aebdb10fa", "is_reserved": 0, "rental_uris": {"android": "https://dc.lft.to/lastmile_qr_scan", "ios": "https://dc.lft.to/lastmile_qr_scan"}, "lat": 38.90603083333333}, {"type": "electric_scooter", "name": "86edf2376915d59be7a74ebccb4979b8", "fusion_lat": 0.0, "fusion_lon": 0.0, "lon": -77.03166116666667, "is_disabled": 0, "bike_id": "86edf2376915d59be7a74ebccb4979b8", "is_reserved": 0, "rental_uris": {"android": "https://dc.lft.to/lastmile_qr_scan", "ios": "https://dc.lft.to/lastmile_qr_scan"}, "lat": 38.893197}, {"type": "electric_scooter", "name": "238172aefcf425576a0a09053f7666c9", "fusion_lat": 0.0, "fusion_lon": 0.0, "lon": -77.02963866666667, "is_disabled": 0, "bike_id": "238172aefcf425576a0a09053f7666c9", "is_reserved": 0, "rental_uris": {"android": "https://dc.lft.to/lastmile_qr_scan", "ios": "https://dc.lft.to/lastmile_qr_scan"}, "lat": 38.90495116666666}, {"type": "electric_scooter", "name": "bb7365fe9b45ac5c5abf8ddecf627365", "fusion_lat": 0.0, "fusion_lon": 0.0, "lon": -76.99038283333333, "is_disabled": 0, "bike_id": "bb7365fe9b45ac5c5abf8ddecf627365", "is_reserved": 0, "rental_uris": {"android": "https://dc.lft.to/lastmile_qr_scan", "ios": "https://dc.lft.to/lastmile_qr_scan"}, "lat": 38.898526833333335}, {"type": "electric_scooter", "name": "45cacc0b6c6acaeb64017539c899597f", "fusion_lat": 0.0, "fusion_lon": 0.0, "lon": -77.02902466666667, "is_disabled": 0, "bike_id": "45cacc0b6c6acaeb64017539c899597f", "is_reserved": 0, "rental_uris": {"android": "https://dc.lft.to/lastmile_qr_scan", "ios": "https://dc.lft.to/lastmile_qr_scan"}, "lat": 38.936848166666664}, {"type": "electric_scooter", "name": "d7393a3aa83b75a821427faf80dddac6", "fusion_lat": 0.0, "fusion_lon": 0.0, "lon": -76.985184, "is_disabled": 0, "bike_id": "d7393a3aa83b75a821427faf80dddac6", "is_reserved": 0, "rental_uris": {"android": "https://dc.lft.to/lastmile_qr_scan", "ios": "https://dc.lft.to/lastmile_qr_scan"}, "lat": 38.860134}, {"type": "electric_scooter", "name": "15f0756a41a6a242ecbc7eac9524e800", "fusion_lat": 0.0, "fusion_lon": 0.0, "lon": -77.03868766666666, "is_disabled": 0, "bike_id": "15f0756a41a6a242ecbc7eac9524e800", "is_reserved": 0, "rental_uris": {"android": "https://dc.lft.to/lastmile_qr_scan", "ios": "https://dc.lft.to/lastmile_qr_scan"}, "lat": 38.91260333333334}, {"type": "electric_scooter", "name": "a6575fc835d01501c085fdfe4c5b1e65", "fusion_lat": 0.0, "fusion_lon": 0.0, "lon": -77.0462645, "is_disabled": 0, "bike_id": "a6575fc835d01501c085fdfe4c5b1e65", "is_reserved": 0, "rental_uris": {"android": "https://dc.lft.to/lastmile_qr_scan", "ios": "https://dc.lft.to/lastmile_qr_scan"}, "lat": 38.919324833333334}, {"type": "electric_scooter", "name": "733629b4fc4d8e38afb0efd0681315e6", "fusion_lat": 0.0, "fusion_lon": 0.0, "lon": -77.0215685, "is_disabled": 0, "bike_id": "733629b4fc4d8e38afb0efd0681315e6", "is_reserved": 0, "rental_uris": {"android": "https://dc.lft.to/lastmile_qr_scan", "ios": "https://dc.lft.to/lastmile_qr_scan"}, "lat": 38.887445}, {"type": "electric_scooter", "name": "cd15ff2e1cedf6c7a004672bd3674f65", "fusion_lat": 0.0, "fusion_lon": 0.0, "lon": -77.03906866666667, "is_disabled": 0, "bike_id": "cd15ff2e1cedf6c7a004672bd3674f65", "is_reserved": 0, "rental_uris": {"android": "https://dc.lft.to/lastmile_qr_scan", "ios": "https://dc.lft.to/lastmile_qr_scan"}, "lat": 38.91419283333333}, {"type": "electric_scooter", "name": "7f22ef1cf3234bb1c9af8b73c220d44b", "fusion_lat": 0.0, "fusion_lon": 0.0, "lon": -77.02842933333334, "is_disabled": 0, "bike_id": "7f22ef1cf3234bb1c9af8b73c220d44b", "is_reserved": 0, "rental_uris": {"android": "https://dc.lft.to/lastmile_qr_scan", "ios": "https://dc.lft.to/lastmile_qr_scan"}, "lat": 38.925696}, {"type": "electric_scooter", "name": "d69b5a809906f377c205da1a2da4f3d5", "fusion_lat": 0.0, "fusion_lon": 0.0, "lon": -77.0327025, "is_disabled": 0, "bike_id": "d69b5a809906f377c205da1a2da4f3d5", "is_reserved": 0, "rental_uris": {"android": "https://dc.lft.to/lastmile_qr_scan", "ios": "https://dc.lft.to/lastmile_qr_scan"}, "lat": 38.932453833333334}, {"type": "electric_scooter", "name": "f5239c69aed418848079f1a9a155fa5e", "fusion_lat": 0.0, "fusion_lon": 0.0, "lon": -77.04172866666667, "is_disabled": 0, "bike_id": "f5239c69aed418848079f1a9a155fa5e", "is_reserved": 0, "rental_uris": {"android": "https://dc.lft.to/lastmile_qr_scan", "ios": "https://dc.lft.to/lastmile_qr_scan"}, "lat": 38.91394066666667}, {"type": "electric_scooter", "name": "f83dc4b510410cf2b125754af9dd6326", "fusion_lat": 0.0, "fusion_lon": 0.0, "lon": -77.01015616666666, "is_disabled": 0, "bike_id": "f83dc4b510410cf2b125754af9dd6326", "is_reserved": 0, "rental_uris": {"android": "https://dc.lft.to/lastmile_qr_scan", "ios": "https://dc.lft.to/lastmile_qr_scan"}, "lat": 38.912585166666666}, {"type": "electric_scooter", "name": "7d4dd2a2f8f9b0c27d7332bb244e8d0a", "fusion_lat": 0.0, "fusion_lon": 0.0, "lon": -76.9318955, "is_disabled": 0, "bike_id": "7d4dd2a2f8f9b0c27d7332bb244e8d0a", "is_reserved": 0, "rental_uris": {"android": "https://dc.lft.to/lastmile_qr_scan", "ios": "https://dc.lft.to/lastmile_qr_scan"}, "lat": 38.89856833333333}, {"type": "electric_scooter", "name": "8c75be7aa1b0c173c5d38aafdee309c9", "fusion_lat": 0.0, "fusion_lon": 0.0, "lon": -77.05753766666666, "is_disabled": 0, "bike_id": "8c75be7aa1b0c173c5d38aafdee309c9", "is_reserved": 0, "rental_uris": {"android": "https://dc.lft.to/lastmile_qr_scan", "ios": "https://dc.lft.to/lastmile_qr_scan"}, "lat": 38.9245125}, {"type": "electric_scooter", "name": "359b95de3756bf2f1c074fe54b762b5b", "fusion_lat": 0.0, "fusion_lon": 0.0, "lon": -77.03195166666667, "is_disabled": 0, "bike_id": "359b95de3756bf2f1c074fe54b762b5b", "is_reserved": 0, "rental_uris": {"android": "https://dc.lft.to/lastmile_qr_scan", "ios": "https://dc.lft.to/lastmile_qr_scan"}, "lat": 38.93065883333333}, {"type": "electric_scooter", "name": "b0a1e62336b12d525f807c961574e2bd", "fusion_lat": 0.0, "fusion_lon": 0.0, "lon": -77.0698435, "is_disabled": 0, "bike_id": "b0a1e62336b12d525f807c961574e2bd", "is_reserved": 0, "rental_uris": {"android": "https://dc.lft.to/lastmile_qr_scan", "ios": "https://dc.lft.to/lastmile_qr_scan"}, "lat": 38.95527633333333}, {"type": "electric_scooter", "name": "6956e489236e5f32763babf4a30c129a", "fusion_lat": 0.0, "fusion_lon": 0.0, "lon": -77.02327283333334, "is_disabled": 0, "bike_id": "6956e489236e5f32763babf4a30c129a", "is_reserved": 0, "rental_uris": {"android": "https://dc.lft.to/lastmile_qr_scan", "ios": "https://dc.lft.to/lastmile_qr_scan"}, "lat": 38.897283333333334}, {"type": "electric_scooter", "name": "bf6768b725d1c0552fdb79fe6d932022", "fusion_lat": 0.0, "fusion_lon": 0.0, "lon": -77.01840066666666, "is_disabled": 0, "bike_id": "bf6768b725d1c0552fdb79fe6d932022", "is_reserved": 0, "rental_uris": {"android": "https://dc.lft.to/lastmile_qr_scan", "ios": "https://dc.lft.to/lastmile_qr_scan"}, "lat": 38.905248}, {"type": "electric_scooter", "name": "63c73358499cc82436e225ddf6c3a2d9", "fusion_lat": 0.0, "fusion_lon": 0.0, "lon": -77.0111405, "is_disabled": 0, "bike_id": "63c73358499cc82436e225ddf6c3a2d9", "is_reserved": 0, "rental_uris": {"android": "https://dc.lft.to/lastmile_qr_scan", "ios": "https://dc.lft.to/lastmile_qr_scan"}, "lat": 38.89476783333333}, {"type": "electric_scooter", "name": "229d7f7c73579ae4bd527cb7d5cdb297", "fusion_lat": 0.0, "fusion_lon": 0.0, "lon": -77.03838733333333, "is_disabled": 0, "bike_id": "229d7f7c73579ae4bd527cb7d5cdb297", "is_reserved": 0, "rental_uris": {"android": "https://dc.lft.to/lastmile_qr_scan", "ios": "https://dc.lft.to/lastmile_qr_scan"}, "lat": 38.914915}, {"type": "electric_scooter", "name": "aa382d915423140f821bc98e0e30b97b", "fusion_lat": 0.0, "fusion_lon": 0.0, "lon": -76.99670633333334, "is_disabled": 0, "bike_id": "aa382d915423140f821bc98e0e30b97b", "is_reserved": 0, "rental_uris": {"android": "https://dc.lft.to/lastmile_qr_scan", "ios": "https://dc.lft.to/lastmile_qr_scan"}, "lat": 38.93243833333333}, {"type": "electric_scooter", "name": "763862816ed2f919265cf5adf539879b", "fusion_lat": 0.0, "fusion_lon": 0.0, "lon": -77.047367, "is_disabled": 0, "bike_id": "763862816ed2f919265cf5adf539879b", "is_reserved": 0, "rental_uris": {"android": "https://dc.lft.to/lastmile_qr_scan", "ios": "https://dc.lft.to/lastmile_qr_scan"}, "lat": 38.895528666666664}, {"type": "electric_scooter", "name": "e5a46859661175f0e367652dbb95085e", "fusion_lat": 0.0, "fusion_lon": 0.0, "lon": -77.032114, "is_disabled": 0, "bike_id": "e5a46859661175f0e367652dbb95085e", "is_reserved": 0, "rental_uris": {"android": "https://dc.lft.to/lastmile_qr_scan", "ios": "https://dc.lft.to/lastmile_qr_scan"}, "lat": 38.9183825}, {"type": "electric_scooter", "name": "2b8690ee6d3395922f6f3ec3b253fa1f", "fusion_lat": 0.0, "fusion_lon": 0.0, "lon": -77.051744, "is_disabled": 0, "bike_id": "2b8690ee6d3395922f6f3ec3b253fa1f", "is_reserved": 0, "rental_uris": {"android": "https://dc.lft.to/lastmile_qr_scan", "ios": "https://dc.lft.to/lastmile_qr_scan"}, "lat": 38.90320333333333}, {"type": "electric_scooter", "name": "cdbbd940ff889e5e470fa21610874297", "fusion_lat": 0.0, "fusion_lon": 0.0, "lon": -77.01552033333333, "is_disabled": 0, "bike_id": "cdbbd940ff889e5e470fa21610874297", "is_reserved": 0, "rental_uris": {"android": "https://dc.lft.to/lastmile_qr_scan", "ios": "https://dc.lft.to/lastmile_qr_scan"}, "lat": 38.88494}, {"type": "electric_scooter", "name": "709ee20c9370244c2226e0a7de17bd27", "fusion_lat": 0.0, "fusion_lon": 0.0, "lon": -77.0459055, "is_disabled": 0, "bike_id": "709ee20c9370244c2226e0a7de17bd27", "is_reserved": 0, "rental_uris": {"android": "https://dc.lft.to/lastmile_qr_scan", "ios": "https://dc.lft.to/lastmile_qr_scan"}, "lat": 38.914465}, {"type": "electric_bike", "name": "e1d4125e06c47602354a7f09773227fd", "fusion_lat": 0.0, "fusion_lon": 0.0, "lon": -76.99682283333334, "is_disabled": 0, "bike_id": "e1d4125e06c47602354a7f09773227fd", "is_reserved": 0, "rental_uris": {"android": "https://dc.lft.to/lastmile_qr_scan", "ios": "https://dc.lft.to/lastmile_qr_scan"}, "lat": 38.83817916666667}, {"type": "electric_scooter", "name": "c2a246be2108da486b857970400f1b75", "fusion_lat": 0.0, "fusion_lon": 0.0, "lon": -77.06853633333333, "is_disabled": 0, "bike_id": "c2a246be2108da486b857970400f1b75", "is_reserved": 0, "rental_uris": {"android": "https://dc.lft.to/lastmile_qr_scan", "ios": "https://dc.lft.to/lastmile_qr_scan"}, "lat": 38.904088}, {"type": "electric_scooter", "name": "90bec55671b5952d24f60c5259e39dae", "fusion_lat": 0.0, "fusion_lon": 0.0, "lon": -77.06039466666667, "is_disabled": 0, "bike_id": "90bec55671b5952d24f60c5259e39dae", "is_reserved": 0, "rental_uris": {"android": "https://dc.lft.to/lastmile_qr_scan", "ios": "https://dc.lft.to/lastmile_qr_scan"}, "lat": 38.902354333333335}, {"type": "electric_scooter", "name": "57c4d7921693bc440bd395bc0417a15c", "fusion_lat": 0.0, "fusion_lon": 0.0, "lon": -77.00054616666667, "is_disabled": 0, "bike_id": "57c4d7921693bc440bd395bc0417a15c", "is_reserved": 0, "rental_uris": {"android": "https://dc.lft.to/lastmile_qr_scan", "ios": "https://dc.lft.to/lastmile_qr_scan"}, "lat": 38.87500166666667}, {"type": "electric_scooter", "name": "fa04dba4d43ab17437894af54758eeea", "fusion_lat": 0.0, "fusion_lon": 0.0, "lon": -77.03522133333334, "is_disabled": 0, "bike_id": "fa04dba4d43ab17437894af54758eeea", "is_reserved": 0, "rental_uris": {"android": "https://dc.lft.to/lastmile_qr_scan", "ios": "https://dc.lft.to/lastmile_qr_scan"}, "lat": 38.92212266666667}, {"type": "electric_scooter", "name": "dc7dc2c1184df634f0da67a51f6aac41", "fusion_lat": 0.0, "fusion_lon": 0.0, "lon": -77.021345, "is_disabled": 0, "bike_id": "dc7dc2c1184df634f0da67a51f6aac41", "is_reserved": 0, "rental_uris": {"android": "https://dc.lft.to/lastmile_qr_scan", "ios": "https://dc.lft.to/lastmile_qr_scan"}, "lat": 38.926991666666666}, {"type": "electric_scooter", "name": "3f1b4db4ca9575a4ea6b9b51b8ff2760", "fusion_lat": 0.0, "fusion_lon": 0.0, "lon": -76.98853616666666, "is_disabled": 0, "bike_id": "3f1b4db4ca9575a4ea6b9b51b8ff2760", "is_reserved": 0, "rental_uris": {"android": "https://dc.lft.to/lastmile_qr_scan", "ios": "https://dc.lft.to/lastmile_qr_scan"}, "lat": 38.844235833333336}, {"type": "electric_scooter", "name": "ba4b5dbb59bb92c199cef1f85a44a1cc", "fusion_lat": 0.0, "fusion_lon": 0.0, "lon": -77.0238715, "is_disabled": 0, "bike_id": "ba4b5dbb59bb92c199cef1f85a44a1cc", "is_reserved": 0, "rental_uris": {"android": "https://dc.lft.to/lastmile_qr_scan", "ios": "https://dc.lft.to/lastmile_qr_scan"}, "lat": 38.90707916666667}, {"type": "electric_scooter", "name": "13039ae9748fbe8beae0f641d720dbfd", "fusion_lat": 0.0, "fusion_lon": 0.0, "lon": -77.0175755, "is_disabled": 0, "bike_id": "13039ae9748fbe8beae0f641d720dbfd", "is_reserved": 0, "rental_uris": {"android": "https://dc.lft.to/lastmile_qr_scan", "ios": "https://dc.lft.to/lastmile_qr_scan"}, "lat": 38.90261866666667}, {"type": "electric_bike", "name": "1721247cac756091c12d75085b96f623", "fusion_lat": 0.0, "fusion_lon": 0.0, "lon": -77.01227183333333, "is_disabled": 0, "bike_id": "1721247cac756091c12d75085b96f623", "is_reserved": 0, "rental_uris": {"android": "https://dc.lft.to/lastmile_qr_scan", "ios": "https://dc.lft.to/lastmile_qr_scan"}, "lat": 38.95077633333333}, {"type": "electric_bike", "name": "d7244e5caf6872261998983ee6e325a3", "fusion_lat": 0.0, "fusion_lon": 0.0, "lon": -77.09618066666667, "is_disabled": 0, "bike_id": "d7244e5caf6872261998983ee6e325a3", "is_reserved": 0, "rental_uris": {"android": "https://dc.lft.to/lastmile_qr_scan", "ios": "https://dc.lft.to/lastmile_qr_scan"}, "lat": 38.974411833333335}, {"type": "electric_scooter", "name": "1865b5a89a754dd78b7911a6e2e90b78", "fusion_lat": 0.0, "fusion_lon": 0.0, "lon": -77.0553015, "is_disabled": 0, "bike_id": "1865b5a89a754dd78b7911a6e2e90b78", "is_reserved": 0, "rental_uris": {"android": "https://dc.lft.to/lastmile_qr_scan", "ios": "https://dc.lft.to/lastmile_qr_scan"}, "lat": 38.90999583333333}, {"type": "electric_scooter", "name": "4d7a98a4e8887620e38b13108215b2f7", "fusion_lat": 0.0, "fusion_lon": 0.0, "lon": -77.02570166666666, "is_disabled": 0, "bike_id": "4d7a98a4e8887620e38b13108215b2f7", "is_reserved": 0, "rental_uris": {"android": "https://dc.lft.to/lastmile_qr_scan", "ios": "https://dc.lft.to/lastmile_qr_scan"}, "lat": 38.94194816666667}, {"type": "electric_scooter", "name": "4b82ffba669970662c8c3603b5ccf0da", "fusion_lat": 0.0, "fusion_lon": 0.0, "lon": -77.00102633333333, "is_disabled": 0, "bike_id": "4b82ffba669970662c8c3603b5ccf0da", "is_reserved": 0, "rental_uris": {"android": "https://dc.lft.to/lastmile_qr_scan", "ios": "https://dc.lft.to/lastmile_qr_scan"}, "lat": 38.876366}, {"type": "electric_scooter", "name": "ef8fa91e0c78dc2846d0e51cfe99edc9", "fusion_lat": 0.0, "fusion_lon": 0.0, "lon": -77.01735616666667, "is_disabled": 0, "bike_id": "ef8fa91e0c78dc2846d0e51cfe99edc9", "is_reserved": 0, "rental_uris": {"android": "https://dc.lft.to/lastmile_qr_scan", "ios": "https://dc.lft.to/lastmile_qr_scan"}, "lat": 38.87706466666667}, {"type": "electric_scooter", "name": "fa30e7ae787a50edc31a5d0bf32f9b47", "fusion_lat": 0.0, "fusion_lon": 0.0, "lon": -77.0096065, "is_disabled": 0, "bike_id": "fa30e7ae787a50edc31a5d0bf32f9b47", "is_reserved": 0, "rental_uris": {"android": "https://dc.lft.to/lastmile_qr_scan", "ios": "https://dc.lft.to/lastmile_qr_scan"}, "lat": 38.87457833333333}, {"type": "electric_scooter", "name": "b5c8f888115263554363242b10aeae15", "fusion_lat": 0.0, "fusion_lon": 0.0, "lon": -77.03093316666667, "is_disabled": 0, "bike_id": "b5c8f888115263554363242b10aeae15", "is_reserved": 0, "rental_uris": {"android": "https://dc.lft.to/lastmile_qr_scan", "ios": "https://dc.lft.to/lastmile_qr_scan"}, "lat": 38.910302333333334}, {"type": "electric_scooter", "name": "86b682e17743ddf30da31d6643da9e3b", "fusion_lat": 0.0, "fusion_lon": 0.0, "lon": -77.0575025, "is_disabled": 0, "bike_id": "86b682e17743ddf30da31d6643da9e3b", "is_reserved": 0, "rental_uris": {"android": "https://dc.lft.to/lastmile_qr_scan", "ios": "https://dc.lft.to/lastmile_qr_scan"}, "lat": 38.930371}, {"type": "electric_bike", "name": "16883c744bf19bcb700cdabf46076be3", "fusion_lat": 0.0, "fusion_lon": 0.0, "lon": -76.93331633333334, "is_disabled": 0, "bike_id": "16883c744bf19bcb700cdabf46076be3", "is_reserved": 0, "rental_uris": {"android": "https://dc.lft.to/lastmile_qr_scan", "ios": "https://dc.lft.to/lastmile_qr_scan"}, "lat": 38.951539}, {"type": "electric_scooter", "name": "5cfc7b80cd0b905a28cf19786212c1be", "fusion_lat": 0.0, "fusion_lon": 0.0, "lon": -77.03652133333334, "is_disabled": 0, "bike_id": "5cfc7b80cd0b905a28cf19786212c1be", "is_reserved": 0, "rental_uris": {"android": "https://dc.lft.to/lastmile_qr_scan", "ios": "https://dc.lft.to/lastmile_qr_scan"}, "lat": 38.913166833333335}, {"type": "electric_bike", "name": "50ba583dc0e5c1f02f59979bcefc80c3", "fusion_lat": 0.0, "fusion_lon": 0.0, "lon": -77.06048116666666, "is_disabled": 0, "bike_id": "50ba583dc0e5c1f02f59979bcefc80c3", "is_reserved": 0, "rental_uris": {"android": "https://dc.lft.to/lastmile_qr_scan", "ios": "https://dc.lft.to/lastmile_qr_scan"}, "lat": 38.943365166666666}, {"type": "electric_scooter", "name": "f8173920ec070f01a9d744bd36f51455", "fusion_lat": 0.0, "fusion_lon": 0.0, "lon": -77.04609266666667, "is_disabled": 0, "bike_id": "f8173920ec070f01a9d744bd36f51455", "is_reserved": 0, "rental_uris": {"android": "https://dc.lft.to/lastmile_qr_scan", "ios": "https://dc.lft.to/lastmile_qr_scan"}, "lat": 38.93283133333333}, {"type": "electric_scooter", "name": "8156e7f314190af0f65a72a76a85c2c5", "fusion_lat": 0.0, "fusion_lon": 0.0, "lon": -77.0219, "is_disabled": 0, "bike_id": "8156e7f314190af0f65a72a76a85c2c5", "is_reserved": 0, "rental_uris": {"android": "https://dc.lft.to/lastmile_qr_scan", "ios": "https://dc.lft.to/lastmile_qr_scan"}, "lat": 38.90791083333333}, {"type": "electric_scooter", "name": "d1589631f7b2b1e9e20141939d795269", "fusion_lat": 0.0, "fusion_lon": 0.0, "lon": -77.03406766666667, "is_disabled": 0, "bike_id": "d1589631f7b2b1e9e20141939d795269", "is_reserved": 0, "rental_uris": {"android": "https://dc.lft.to/lastmile_qr_scan", "ios": "https://dc.lft.to/lastmile_qr_scan"}, "lat": 38.9243845}, {"type": "electric_scooter", "name": "0f222a34120eebe539f831e8271ca40b", "fusion_lat": 0.0, "fusion_lon": 0.0, "lon": -77.03671866666667, "is_disabled": 0, "bike_id": "0f222a34120eebe539f831e8271ca40b", "is_reserved": 0, "rental_uris": {"android": "https://dc.lft.to/lastmile_qr_scan", "ios": "https://dc.lft.to/lastmile_qr_scan"}, "lat": 38.91816266666667}, {"type": "electric_scooter", "name": "8983154316380280178e2f708df9246d", "fusion_lat": 0.0, "fusion_lon": 0.0, "lon": -77.072481, "is_disabled": 0, "bike_id": "8983154316380280178e2f708df9246d", "is_reserved": 0, "rental_uris": {"android": "https://dc.lft.to/lastmile_qr_scan", "ios": "https://dc.lft.to/lastmile_qr_scan"}, "lat": 38.93460966666667}, {"type": "electric_scooter", "name": "af5185d25eac854c8e121f55766f3231", "fusion_lat": 0.0, "fusion_lon": 0.0, "lon": -77.0347805, "is_disabled": 0, "bike_id": "af5185d25eac854c8e121f55766f3231", "is_reserved": 0, "rental_uris": {"android": "https://dc.lft.to/lastmile_qr_scan", "ios": "https://dc.lft.to/lastmile_qr_scan"}, "lat": 38.93531}, {"type": "electric_scooter", "name": "a0a4843cfdf6f8667b729f664e89aa60", "fusion_lat": 0.0, "fusion_lon": 0.0, "lon": -77.05510483333333, "is_disabled": 0, "bike_id": "a0a4843cfdf6f8667b729f664e89aa60", "is_reserved": 0, "rental_uris": {"android": "https://dc.lft.to/lastmile_qr_scan", "ios": "https://dc.lft.to/lastmile_qr_scan"}, "lat": 38.92836366666667}, {"type": "electric_scooter", "name": "4816aeeb34194a406c77f559e108d629", "fusion_lat": 0.0, "fusion_lon": 0.0, "lon": -77.0394185, "is_disabled": 0, "bike_id": "4816aeeb34194a406c77f559e108d629", "is_reserved": 0, "rental_uris": {"android": "https://dc.lft.to/lastmile_qr_scan", "ios": "https://dc.lft.to/lastmile_qr_scan"}, "lat": 38.902673}, {"type": "electric_scooter", "name": "c256800acc367032adec9e81b3d07160", "fusion_lat": 0.0, "fusion_lon": 0.0, "lon": -77.03451616666666, "is_disabled": 0, "bike_id": "c256800acc367032adec9e81b3d07160", "is_reserved": 0, "rental_uris": {"android": "https://dc.lft.to/lastmile_qr_scan", "ios": "https://dc.lft.to/lastmile_qr_scan"}, "lat": 38.915974}, {"type": "electric_scooter", "name": "ef68d592f00fda99e72c1c16be9b3720", "fusion_lat": 0.0, "fusion_lon": 0.0, "lon": -77.00053933333334, "is_disabled": 0, "bike_id": "ef68d592f00fda99e72c1c16be9b3720", "is_reserved": 0, "rental_uris": {"android": "https://dc.lft.to/lastmile_qr_scan", "ios": "https://dc.lft.to/lastmile_qr_scan"}, "lat": 38.87882916666667}, {"type": "electric_scooter", "name": "015a18bf121d16f069eba9e567e9bc51", "fusion_lat": 0.0, "fusion_lon": 0.0, "lon": -76.944637, "is_disabled": 0, "bike_id": "015a18bf121d16f069eba9e567e9bc51", "is_reserved": 0, "rental_uris": {"android": "https://dc.lft.to/lastmile_qr_scan", "ios": "https://dc.lft.to/lastmile_qr_scan"}, "lat": 38.890243}, {"type": "electric_scooter", "name": "5e12ce1b09979406a0038df059eb1bca", "fusion_lat": 0.0, "fusion_lon": 0.0, "lon": -77.03138183333333, "is_disabled": 0, "bike_id": "5e12ce1b09979406a0038df059eb1bca", "is_reserved": 0, "rental_uris": {"android": "https://dc.lft.to/lastmile_qr_scan", "ios": "https://dc.lft.to/lastmile_qr_scan"}, "lat": 38.92377666666667}, {"type": "electric_scooter", "name": "4ade28777a0dfd668b43bdecb4f9bd5b", "fusion_lat": 0.0, "fusion_lon": 0.0, "lon": -77.02649466666666, "is_disabled": 0, "bike_id": "4ade28777a0dfd668b43bdecb4f9bd5b", "is_reserved": 0, "rental_uris": {"android": "https://dc.lft.to/lastmile_qr_scan", "ios": "https://dc.lft.to/lastmile_qr_scan"}, "lat": 38.930998833333334}, {"type": "electric_scooter", "name": "06298e3ca42ff1fcac837fcef31f7fe7", "fusion_lat": 0.0, "fusion_lon": 0.0, "lon": -77.018698, "is_disabled": 0, "bike_id": "06298e3ca42ff1fcac837fcef31f7fe7", "is_reserved": 0, "rental_uris": {"android": "https://dc.lft.to/lastmile_qr_scan", "ios": "https://dc.lft.to/lastmile_qr_scan"}, "lat": 38.951502833333336}, {"type": "electric_bike", "name": "170172c563196dd8ab611608d630a3f1", "fusion_lat": 0.0, "fusion_lon": 0.0, "lon": -77.03760783333334, "is_disabled": 0, "bike_id": "170172c563196dd8ab611608d630a3f1", "is_reserved": 0, "rental_uris": {"android": "https://dc.lft.to/lastmile_qr_scan", "ios": "https://dc.lft.to/lastmile_qr_scan"}, "lat": 38.9396725}, {"type": "electric_scooter", "name": "0e05b45439ae2219a92c54c8ff5c8a5d", "fusion_lat": 0.0, "fusion_lon": 0.0, "lon": -77.0209785, "is_disabled": 0, "bike_id": "0e05b45439ae2219a92c54c8ff5c8a5d", "is_reserved": 0, "rental_uris": {"android": "https://dc.lft.to/lastmile_qr_scan", "ios": "https://dc.lft.to/lastmile_qr_scan"}, "lat": 38.916369833333334}, {"type": "electric_scooter", "name": "074113ece8632b9bf58758bfb6e5cd0d", "fusion_lat": 0.0, "fusion_lon": 0.0, "lon": -77.02281716666667, "is_disabled": 0, "bike_id": "074113ece8632b9bf58758bfb6e5cd0d", "is_reserved": 0, "rental_uris": {"android": "https://dc.lft.to/lastmile_qr_scan", "ios": "https://dc.lft.to/lastmile_qr_scan"}, "lat": 38.91622433333333}, {"type": "electric_scooter", "name": "3f26752897b5eca068d55c12d919e953", "fusion_lat": 0.0, "fusion_lon": 0.0, "lon": -77.02581033333334, "is_disabled": 0, "bike_id": "3f26752897b5eca068d55c12d919e953", "is_reserved": 0, "rental_uris": {"android": "https://dc.lft.to/lastmile_qr_scan", "ios": "https://dc.lft.to/lastmile_qr_scan"}, "lat": 38.925250166666665}, {"type": "electric_scooter", "name": "d6d48a60a8ad278b10d13da63ae8c281", "fusion_lat": 0.0, "fusion_lon": 0.0, "lon": -77.00765116666666, "is_disabled": 0, "bike_id": "d6d48a60a8ad278b10d13da63ae8c281", "is_reserved": 0, "rental_uris": {"android": "https://dc.lft.to/lastmile_qr_scan", "ios": "https://dc.lft.to/lastmile_qr_scan"}, "lat": 38.90741033333333}, {"type": "electric_scooter", "name": "ae7066a47554250d1c8196a8c870b8f8", "fusion_lat": 0.0, "fusion_lon": 0.0, "lon": -77.005763, "is_disabled": 0, "bike_id": "ae7066a47554250d1c8196a8c870b8f8", "is_reserved": 0, "rental_uris": {"android": "https://dc.lft.to/lastmile_qr_scan", "ios": "https://dc.lft.to/lastmile_qr_scan"}, "lat": 38.90554816666667}, {"type": "electric_scooter", "name": "7708630ca27ae605d1351b8efa7e0c6f", "fusion_lat": 0.0, "fusion_lon": 0.0, "lon": -77.007376, "is_disabled": 0, "bike_id": "7708630ca27ae605d1351b8efa7e0c6f", "is_reserved": 0, "rental_uris": {"android": "https://dc.lft.to/lastmile_qr_scan", "ios": "https://dc.lft.to/lastmile_qr_scan"}, "lat": 38.87581183333333}, {"type": "electric_scooter", "name": "16bd5e6a4961a7e845d64a3ce23cb298", "fusion_lat": 0.0, "fusion_lon": 0.0, "lon": -77.02300733333334, "is_disabled": 0, "bike_id": "16bd5e6a4961a7e845d64a3ce23cb298", "is_reserved": 0, "rental_uris": {"android": "https://dc.lft.to/lastmile_qr_scan", "ios": "https://dc.lft.to/lastmile_qr_scan"}, "lat": 38.920831}, {"type": "electric_bike", "name": "877ae1758b1a8e2ae6caace4f68e8d25", "fusion_lat": 0.0, "fusion_lon": 0.0, "lon": -76.9423035, "is_disabled": 0, "bike_id": "877ae1758b1a8e2ae6caace4f68e8d25", "is_reserved": 0, "rental_uris": {"android": "https://dc.lft.to/lastmile_qr_scan", "ios": "https://dc.lft.to/lastmile_qr_scan"}, "lat": 38.8905015}, {"type": "electric_bike", "name": "fba313b4e8d091bbeb75efd7289960c4", "fusion_lat": 0.0, "fusion_lon": 0.0, "lon": -76.99370183333333, "is_disabled": 0, "bike_id": "fba313b4e8d091bbeb75efd7289960c4", "is_reserved": 0, "rental_uris": {"android": "https://dc.lft.to/lastmile_qr_scan", "ios": "https://dc.lft.to/lastmile_qr_scan"}, "lat": 38.990969666666665}, {"type": "electric_scooter", "name": "d05cd58f0c5f86ddc4e972c6491b165a", "fusion_lat": 0.0, "fusion_lon": 0.0, "lon": -77.03846633333333, "is_disabled": 0, "bike_id": "d05cd58f0c5f86ddc4e972c6491b165a", "is_reserved": 0, "rental_uris": {"android": "https://dc.lft.to/lastmile_qr_scan", "ios": "https://dc.lft.to/lastmile_qr_scan"}, "lat": 38.909902}, {"type": "electric_scooter", "name": "eb81fc114d0c9e3df824e5a25fcace70", "fusion_lat": 0.0, "fusion_lon": 0.0, "lon": -77.0176755, "is_disabled": 0, "bike_id": "eb81fc114d0c9e3df824e5a25fcace70", "is_reserved": 0, "rental_uris": {"android": "https://dc.lft.to/lastmile_qr_scan", "ios": "https://dc.lft.to/lastmile_qr_scan"}, "lat": 38.876894666666665}, {"type": "electric_scooter", "name": "b7fbe4045943d460526c7dbaebd96483", "fusion_lat": 0.0, "fusion_lon": 0.0, "lon": -77.04199766666666, "is_disabled": 0, "bike_id": "b7fbe4045943d460526c7dbaebd96483", "is_reserved": 0, "rental_uris": {"android": "https://dc.lft.to/lastmile_qr_scan", "ios": "https://dc.lft.to/lastmile_qr_scan"}, "lat": 38.920432166666664}, {"type": "electric_scooter", "name": "d7a56fcd1a6fa97536e06d56d7900752", "fusion_lat": 0.0, "fusion_lon": 0.0, "lon": -77.02165683333334, "is_disabled": 0, "bike_id": "d7a56fcd1a6fa97536e06d56d7900752", "is_reserved": 0, "rental_uris": {"android": "https://dc.lft.to/lastmile_qr_scan", "ios": "https://dc.lft.to/lastmile_qr_scan"}, "lat": 38.897085833333335}, {"type": "electric_bike", "name": "5fadc26a8897acd4e7c773ee1609e1ba", "fusion_lat": 0.0, "fusion_lon": 0.0, "lon": -77.06697233333334, "is_disabled": 0, "bike_id": "5fadc26a8897acd4e7c773ee1609e1ba", "is_reserved": 0, "rental_uris": {"android": "https://dc.lft.to/lastmile_qr_scan", "ios": "https://dc.lft.to/lastmile_qr_scan"}, "lat": 38.831723333333336}, {"type": "electric_scooter", "name": "b7fdecaae48a91d13f2c0932bb2a26d9", "fusion_lat": 0.0, "fusion_lon": 0.0, "lon": -76.93622283333333, "is_disabled": 0, "bike_id": "b7fdecaae48a91d13f2c0932bb2a26d9", "is_reserved": 0, "rental_uris": {"android": "https://dc.lft.to/lastmile_qr_scan", "ios": "https://dc.lft.to/lastmile_qr_scan"}, "lat": 38.8834975}, {"type": "electric_scooter", "name": "2be2f23317c1264592c75c5fee4776c5", "fusion_lat": 0.0, "fusion_lon": 0.0, "lon": -77.01440966666667, "is_disabled": 0, "bike_id": "2be2f23317c1264592c75c5fee4776c5", "is_reserved": 0, "rental_uris": {"android": "https://dc.lft.to/lastmile_qr_scan", "ios": "https://dc.lft.to/lastmile_qr_scan"}, "lat": 38.90959683333333}, {"type": "electric_scooter", "name": "9e9dd8886b3b6a2ab6e506dde85a0a83", "fusion_lat": 0.0, "fusion_lon": 0.0, "lon": -77.03638966666666, "is_disabled": 0, "bike_id": "9e9dd8886b3b6a2ab6e506dde85a0a83", "is_reserved": 0, "rental_uris": {"android": "https://dc.lft.to/lastmile_qr_scan", "ios": "https://dc.lft.to/lastmile_qr_scan"}, "lat": 38.930599666666666}, {"type": "electric_scooter", "name": "67d78823106e7c238d213c4c7db0cdfb", "fusion_lat": 0.0, "fusion_lon": 0.0, "lon": -77.00204016666666, "is_disabled": 0, "bike_id": "67d78823106e7c238d213c4c7db0cdfb", "is_reserved": 0, "rental_uris": {"android": "https://dc.lft.to/lastmile_qr_scan", "ios": "https://dc.lft.to/lastmile_qr_scan"}, "lat": 38.90239016666666}, {"type": "electric_scooter", "name": "0627905d3971ceee3594c650814e9602", "fusion_lat": 0.0, "fusion_lon": 0.0, "lon": -77.024961, "is_disabled": 0, "bike_id": "0627905d3971ceee3594c650814e9602", "is_reserved": 0, "rental_uris": {"android": "https://dc.lft.to/lastmile_qr_scan", "ios": "https://dc.lft.to/lastmile_qr_scan"}, "lat": 38.935664}, {"type": "electric_scooter", "name": "2c2a2ad3637fbfbbdbe1983442da7654", "fusion_lat": 0.0, "fusion_lon": 0.0, "lon": -77.0327515, "is_disabled": 0, "bike_id": "2c2a2ad3637fbfbbdbe1983442da7654", "is_reserved": 0, "rental_uris": {"android": "https://dc.lft.to/lastmile_qr_scan", "ios": "https://dc.lft.to/lastmile_qr_scan"}, "lat": 38.92871566666667}, {"type": "electric_scooter", "name": "eb060ce0107c971848809dd6d7e2144a", "fusion_lat": 0.0, "fusion_lon": 0.0, "lon": -77.02782916666666, "is_disabled": 0, "bike_id": "eb060ce0107c971848809dd6d7e2144a", "is_reserved": 0, "rental_uris": {"android": "https://dc.lft.to/lastmile_qr_scan", "ios": "https://dc.lft.to/lastmile_qr_scan"}, "lat": 38.956123}, {"type": "electric_scooter", "name": "c7eabc4ab9a5023d494e4c172bfa7f2c", "fusion_lat": 0.0, "fusion_lon": 0.0, "lon": -77.02076666666666, "is_disabled": 0, "bike_id": "c7eabc4ab9a5023d494e4c172bfa7f2c", "is_reserved": 0, "rental_uris": {"android": "https://dc.lft.to/lastmile_qr_scan", "ios": "https://dc.lft.to/lastmile_qr_scan"}, "lat": 38.881886}, {"type": "electric_scooter", "name": "44dfe43d6db229e6be974aff7a80f90d", "fusion_lat": 0.0, "fusion_lon": 0.0, "lon": -76.97040416666667, "is_disabled": 0, "bike_id": "44dfe43d6db229e6be974aff7a80f90d", "is_reserved": 0, "rental_uris": {"android": "https://dc.lft.to/lastmile_qr_scan", "ios": "https://dc.lft.to/lastmile_qr_scan"}, "lat": 38.87316583333333}, {"type": "electric_scooter", "name": "6148eb0f7cab0ca4ed4d3d2dc8d7553b", "fusion_lat": 0.0, "fusion_lon": 0.0, "lon": -76.99766883333334, "is_disabled": 0, "bike_id": "6148eb0f7cab0ca4ed4d3d2dc8d7553b", "is_reserved": 0, "rental_uris": {"android": "https://dc.lft.to/lastmile_qr_scan", "ios": "https://dc.lft.to/lastmile_qr_scan"}, "lat": 38.9227975}, {"type": "electric_scooter", "name": "ae10f93aa7dd99d2cb5f9c76e3a9b875", "fusion_lat": 0.0, "fusion_lon": 0.0, "lon": -77.02111716666667, "is_disabled": 0, "bike_id": "ae10f93aa7dd99d2cb5f9c76e3a9b875", "is_reserved": 0, "rental_uris": {"android": "https://dc.lft.to/lastmile_qr_scan", "ios": "https://dc.lft.to/lastmile_qr_scan"}, "lat": 38.909389166666664}, {"type": "electric_scooter", "name": "acb887c56bbf06fb08799439b701a454", "fusion_lat": 0.0, "fusion_lon": 0.0, "lon": -76.97212033333334, "is_disabled": 0, "bike_id": "acb887c56bbf06fb08799439b701a454", "is_reserved": 0, "rental_uris": {"android": "https://dc.lft.to/lastmile_qr_scan", "ios": "https://dc.lft.to/lastmile_qr_scan"}, "lat": 38.91716183333333}, {"type": "electric_scooter", "name": "690c5bea6a8a3615143d6d5c77c37669", "fusion_lat": 0.0, "fusion_lon": 0.0, "lon": -77.0137975, "is_disabled": 0, "bike_id": "690c5bea6a8a3615143d6d5c77c37669", "is_reserved": 0, "rental_uris": {"android": "https://dc.lft.to/lastmile_qr_scan", "ios": "https://dc.lft.to/lastmile_qr_scan"}, "lat": 38.898256}, {"type": "electric_scooter", "name": "59a0c7d1409d0ae76b20f2458e89b570", "fusion_lat": 0.0, "fusion_lon": 0.0, "lon": -77.01783433333334, "is_disabled": 0, "bike_id": "59a0c7d1409d0ae76b20f2458e89b570", "is_reserved": 0, "rental_uris": {"android": "https://dc.lft.to/lastmile_qr_scan", "ios": "https://dc.lft.to/lastmile_qr_scan"}, "lat": 38.877515}, {"type": "electric_scooter", "name": "c65b84a6db8976496557aeaccacce5e3", "fusion_lat": 0.0, "fusion_lon": 0.0, "lon": -77.01978833333334, "is_disabled": 0, "bike_id": "c65b84a6db8976496557aeaccacce5e3", "is_reserved": 0, "rental_uris": {"android": "https://dc.lft.to/lastmile_qr_scan", "ios": "https://dc.lft.to/lastmile_qr_scan"}, "lat": 38.90504333333333}, {"type": "electric_scooter", "name": "764e790a47a62a87bb56af93bdf4cd83", "fusion_lat": 0.0, "fusion_lon": 0.0, "lon": -77.0542075, "is_disabled": 0, "bike_id": "764e790a47a62a87bb56af93bdf4cd83", "is_reserved": 0, "rental_uris": {"android": "https://dc.lft.to/lastmile_qr_scan", "ios": "https://dc.lft.to/lastmile_qr_scan"}, "lat": 38.9235065}, {"type": "electric_scooter", "name": "c49759e518b99dcaea9ae702b050019b", "fusion_lat": 0.0, "fusion_lon": 0.0, "lon": -77.04409333333334, "is_disabled": 0, "bike_id": "c49759e518b99dcaea9ae702b050019b", "is_reserved": 0, "rental_uris": {"android": "https://dc.lft.to/lastmile_qr_scan", "ios": "https://dc.lft.to/lastmile_qr_scan"}, "lat": 38.89593466666667}, {"type": "electric_bike", "name": "e5aae95cdc739d6308022b2dfe0202bb", "fusion_lat": 0.0, "fusion_lon": 0.0, "lon": -77.09970133333333, "is_disabled": 0, "bike_id": "e5aae95cdc739d6308022b2dfe0202bb", "is_reserved": 0, "rental_uris": {"android": "https://dc.lft.to/lastmile_qr_scan", "ios": "https://dc.lft.to/lastmile_qr_scan"}, "lat": 38.857897333333334}, {"type": "electric_bike", "name": "872eb743193e355ce697b2eaa5efcaf0", "fusion_lat": 0.0, "fusion_lon": 0.0, "lon": -77.0945485, "is_disabled": 0, "bike_id": "872eb743193e355ce697b2eaa5efcaf0", "is_reserved": 0, "rental_uris": {"android": "https://dc.lft.to/lastmile_qr_scan", "ios": "https://dc.lft.to/lastmile_qr_scan"}, "lat": 38.8075565}, {"type": "electric_scooter", "name": "f5ec9bd85564959935b3e969be918d15", "fusion_lat": 0.0, "fusion_lon": 0.0, "lon": -76.92923883333333, "is_disabled": 0, "bike_id": "f5ec9bd85564959935b3e969be918d15", "is_reserved": 0, "rental_uris": {"android": "https://dc.lft.to/lastmile_qr_scan", "ios": "https://dc.lft.to/lastmile_qr_scan"}, "lat": 38.892054}, {"type": "electric_scooter", "name": "ac219b4c79d1b249ad5d31b7b700fbe3", "fusion_lat": 0.0, "fusion_lon": 0.0, "lon": -77.03239266666667, "is_disabled": 0, "bike_id": "ac219b4c79d1b249ad5d31b7b700fbe3", "is_reserved": 0, "rental_uris": {"android": "https://dc.lft.to/lastmile_qr_scan", "ios": "https://dc.lft.to/lastmile_qr_scan"}, "lat": 38.914178166666666}, {"type": "electric_scooter", "name": "db3d313854e8070c6c1e48792b8603d3", "fusion_lat": 0.0, "fusion_lon": 0.0, "lon": -77.02478816666667, "is_disabled": 0, "bike_id": "db3d313854e8070c6c1e48792b8603d3", "is_reserved": 0, "rental_uris": {"android": "https://dc.lft.to/lastmile_qr_scan", "ios": "https://dc.lft.to/lastmile_qr_scan"}, "lat": 38.93848333333333}, {"type": "electric_bike", "name": "ddc8b1edc91e8e05e87af966a205834d", "fusion_lat": 0.0, "fusion_lon": 0.0, "lon": -76.90738, "is_disabled": 0, "bike_id": "ddc8b1edc91e8e05e87af966a205834d", "is_reserved": 0, "rental_uris": {"android": "https://dc.lft.to/lastmile_qr_scan", "ios": "https://dc.lft.to/lastmile_qr_scan"},