{"data": {"bikes": [{"lat": 38.933753833333334, "fusion_lat": 0.0, "type": "electric_scooter", "name": "46c73528b9c6e373ce8b5ca753714387", "is_disabled": 0, "bike_id": "46c73528b9c6e373ce8b5ca753714387", "lon": -77.05720333333333, "rental_uris": {"android": "https://dc.lft.to/lastmile_qr_scan", "ios": "https://dc.lft.to/lastmile_qr_scan"}, "fusion_lon": 0.0, "is_reserved": 0}, {"lat": 38.91444466666667, "fusion_lat": 0.0, "type": "electric_scooter", "name": "c7c067b1dd3c9e7cb2f219ecebbbee6c", "is_disabled": 0, "bike_id": "c7c067b1dd3c9e7cb2f219ecebbbee6c", "lon": -77.02289933333333, "rental_uris": {"android": "https://dc.lft.to/lastmile_qr_scan", "ios": "https://dc.lft.to/lastmile_qr_scan"}, "fusion_lon": 0.0, "is_reserved": 0}, {"lat": 39.056337166666665, "fusion_lat": 0.0, "type": "electric_bike", "name": "b5c807e1746697c98105ed7fbb508b6b", "is_disabled": 0, "bike_id": "b5c807e1746697c98105ed7fbb508b6b", "lon": -77.125233, "rental_uris": {"android": "https://dc.lft.to/lastmile_qr_scan", "ios": "https://dc.lft.to/lastmile_qr_scan"}, "fusion_lon": 0.0, "is_reserved": 0}, {"lat": 38.90399166666667, "fusion_lat": 0.0, "type": "electric_scooter", "name": "d90f5da72021fd10eb0357dc9bca3795", "is_disabled": 0, "bike_id": "d90f5da72021fd10eb0357dc9bca3795", "lon": -76.99011883333333, "rental_uris": {"android": "https://dc.lft.to/lastmile_qr_scan", "ios": "https://dc.lft.to/lastmile_qr_scan"}, "fusion_lon": 0.0, "is_reserved": 0}, {"lat": 38.921003166666665, "fusion_lat": 0.0, "type": "electric_scooter", "name": "a45746095c3ec79742b4c1c0f046d690", "is_disabled": 0, "bike_id": "a45746095c3ec79742b4c1c0f046d690", "lon": -77.0420015, "rental_uris": {"android": "https://dc.lft.to/lastmile_qr_scan", "ios": "https://dc.lft.to/lastmile_qr_scan"}, "fusion_lon": 0.0, "is_reserved": 0}, {"lat": 38.90962483333333, "fusion_lat": 0.0, "type": "electric_scooter", "name": "00fafb520a3e91f2f5f11ca836ba59d9", "is_disabled": 0, "bike_id": "00fafb520a3e91f2f5f11ca836ba59d9", "lon": -77.032891, "rental_uris": {"android": "https://dc.lft.to/lastmile_qr_scan", "ios": "https://dc.lft.to/lastmile_qr_scan"}, "fusion_lon": 0.0, "is_reserved": 0}, {"lat": 38.89871816666667, "fusion_lat": 0.0, "type": "electric_scooter", "name": "363d2ad48fb287e0d127c2bda36209c9", "is_disabled": 0, "bike_id": "363d2ad48fb287e0d127c2bda36209c9", "lon": -77.02770883333334, "rental_uris": {"android": "https://dc.lft.to/lastmile_qr_scan", "ios": "https://dc.lft.to/lastmile_qr_scan"}, "fusion_lon": 0.0, "is_reserved": 0}, {"lat": 38.91809133333334, "fusion_lat": 0.0, "type": "electric_scooter", "name": "db803371b196608a2e4e042dc7f5b510", "is_disabled": 0, "bike_id": "db803371b196608a2e4e042dc7f5b510", "lon": -77.01262566666666, "rental_uris": {"android": "https://dc.lft.to/lastmile_qr_scan", "ios": "https://dc.lft.to/lastmile_qr_scan"}, "fusion_lon": 0.0, "is_reserved": 0}, {"lat": 38.892210666666664, "fusion_lat": 0.0, "type": "electric_scooter", "name": "d7f13bac6a4b6c941a93d248457b2550", "is_disabled": 0, "bike_id": "d7f13bac6a4b6c941a93d248457b2550", "lon": -77.02230283333333, "rental_uris": {"android": "https://dc.lft.to/lastmile_qr_scan", "ios": "https://dc.lft.to/lastmile_qr_scan"}, "fusion_lon": 0.0, "is_reserved": 0}, {"lat": 38.939497833333334, "fusion_lat": 0.0, "type": "electric_scooter", "name": "aab545e24b7e68950b7f1c86822be837", "is_disabled": 0, "bike_id": "aab545e24b7e68950b7f1c86822be837", "lon": -77.07246433333333, "rental_uris": {"android": "https://dc.lft.to/lastmile_qr_scan", "ios": "https://dc.lft.to/lastmile_qr_scan"}, "fusion_lon": 0.0, "is_reserved": 0}, {"lat": 38.9250905, "fusion_lat": 0.0, "type": "electric_scooter", "name": "92aff00cb8939a07cc700a5ea96088f2", "is_disabled": 0, "bike_id": "92aff00cb8939a07cc700a5ea96088f2", "lon": -77.00226233333333, "rental_uris": {"android": "https://dc.lft.to/lastmile_qr_scan", "ios": "https://dc.lft.to/lastmile_qr_scan"}, "fusion_lon": 0.0, "is_reserved": 0}, {"lat": 38.918209833333336, "fusion_lat": 0.0, "type": "electric_scooter", "name": "f27642e9e12b5f5c37d1aad75d06ff06", "is_disabled": 0, "bike_id": "f27642e9e12b5f5c37d1aad75d06ff06", "lon": -77.04180416666667, "rental_uris": {"android": "https://dc.lft.to/lastmile_qr_scan", "ios": "https://dc.lft.to/lastmile_qr_scan"}, "fusion_lon": 0.0, "is_reserved": 0}, {"lat": 38.905227833333335, "fusion_lat": 0.0, "type": "electric_scooter", "name": "30f44d2455d30c400836aa6acf942837", "is_disabled": 0, "bike_id": "30f44d2455d30c400836aa6acf942837", "lon": -77.05300166666666, "rental_uris": {"android": "https://dc.lft.to/lastmile_qr_scan", "ios": "https://dc.lft.to/lastmile_qr_scan"}, "fusion_lon": 0.0, "is_reserved": 0}, {"lat": 38.86140916666667, "fusion_lat": 0.0, "type": "electric_scooter", "name": "85260637babc1fd7d157fb7f0738067e", "is_disabled": 0, "bike_id": "85260637babc1fd7d157fb7f0738067e", "lon": -76.9716775, "rental_uris": {"android": "https://dc.lft.to/lastmile_qr_scan", "ios": "https://dc.lft.to/lastmile_qr_scan"}, "fusion_lon": 0.0, "is_reserved": 0}, {"lat": 38.9111675, "fusion_lat": 0.0, "type": "electric_scooter", "name": "e6da70b17a38bcc9ab8c9bc81ae030e5", "is_disabled": 0, "bike_id": "e6da70b17a38bcc9ab8c9bc81ae030e5", "lon": -77.03921966666667, "rental_uris": {"android": "https://dc.lft.to/lastmile_qr_scan", "ios": "https://dc.lft.to/lastmile_qr_scan"}, "fusion_lon": 0.0, "is_reserved": 0}, {"lat": 38.94619, "fusion_lat": 0.0, "type": "electric_bike", "name": "aa6622faa358754b5fada3a3608f8874", "is_disabled": 0, "bike_id": "aa6622faa358754b5fada3a3608f8874", "lon": -77.09670683333333, "rental_uris": {"android": "https://dc.lft.to/lastmile_qr_scan", "ios": "https://dc.lft.to/lastmile_qr_scan"}, "fusion_lon": 0.0, "is_reserved": 0}, {"lat": 38.933641333333334, "fusion_lat": 0.0, "type": "electric_scooter", "name": "84b4381a36eb51731947c9434aa78e76", "is_disabled": 0, "bike_id": "84b4381a36eb51731947c9434aa78e76", "lon": -77.05723916666666, "rental_uris": {"android": "https://dc.lft.to/lastmile_qr_scan", "ios": "https://dc.lft.to/lastmile_qr_scan"}, "fusion_lon": 0.0, "is_reserved": 0}, {"lat": 38.887161, "fusion_lat": 0.0, "type": "electric_scooter", "name": "555dd35859d0655f183d462c35af7861", "is_disabled": 0, "bike_id": "555dd35859d0655f183d462c35af7861", "lon": -77.0177725, "rental_uris": {"android": "https://dc.lft.to/lastmile_qr_scan", "ios": "https://dc.lft.to/lastmile_qr_scan"}, "fusion_lon": 0.0, "is_reserved": 0}, {"lat": 38.900926, "fusion_lat": 0.0, "type": "electric_scooter", "name": "381bc95138ce113440e326762fa655b0", "is_disabled": 0, "bike_id": "381bc95138ce113440e326762fa655b0", "lon": -77.0395825, "rental_uris": {"android": "https://dc.lft.to/lastmile_qr_scan", "ios": "https://dc.lft.to/lastmile_qr_scan"}, "fusion_lon": 0.0, "is_reserved": 0}, {"lat": 38.89229783333333, "fusion_lat": 0.0, "type": "electric_scooter", "name": "8fa2871ef811a5f1a3cbc72e70b5a2ab", "is_disabled": 0, "bike_id": "8fa2871ef811a5f1a3cbc72e70b5a2ab", "lon": -77.02384, "rental_uris": {"android": "https://dc.lft.to/lastmile_qr_scan", "ios": "https://dc.lft.to/lastmile_qr_scan"}, "fusion_lon": 0.0, "is_reserved": 0}, {"lat": 38.9246535, "fusion_lat": 0.0, "type": "electric_scooter", "name": "79bbc470cbb748759c3e476226a4c29d", "is_disabled": 0, "bike_id": "79bbc470cbb748759c3e476226a4c29d", "lon": -77.05230483333334, "rental_uris": {"android": "https://dc.lft.to/lastmile_qr_scan", "ios": "https://dc.lft.to/lastmile_qr_scan"}, "fusion_lon": 0.0, "is_reserved": 0}, {"lat": 38.835504666666665, "fusion_lat": 0.0, "type": "electric_bike", "name": "4a57b4829b4d822fa0239efdc79868ab", "is_disabled": 0, "bike_id": "4a57b4829b4d822fa0239efdc79868ab", "lon": -76.98724133333333, "rental_uris": {"android": "https://dc.lft.to/lastmile_qr_scan", "ios": "https://dc.lft.to/lastmile_qr_scan"}, "fusion_lon": 0.0, "is_reserved": 0}, {"lat": 38.8972875, "fusion_lat": 0.0, "type": "electric_scooter", "name": "666fee7186f07e743fd0113b441d6636", "is_disabled": 0, "bike_id": "666fee7186f07e743fd0113b441d6636", "lon": -77.022747, "rental_uris": {"android": "https://dc.lft.to/lastmile_qr_scan", "ios": "https://dc.lft.to/lastmile_qr_scan"}, "fusion_lon": 0.0, "is_reserved": 0}, {"lat": 38.94982666666667, "fusion_lat": 0.0, "type": "electric_scooter", "name": "2c7b1a2430a1f844e5d5b2567fffe992", "is_disabled": 0, "bike_id": "2c7b1a2430a1f844e5d5b2567fffe992", "lon": -77.02698966666667, "rental_uris": {"android": "https://dc.lft.to/lastmile_qr_scan", "ios": "https://dc.lft.to/lastmile_qr_scan"}, "fusion_lon": 0.0, "is_reserved": 0}, {"lat": 38.89621283333334, "fusion_lat": 0.0, "type": "electric_scooter", "name": "a83ece9a9f58b4340c8f2401e326b09b", "is_disabled": 0, "bike_id": "a83ece9a9f58b4340c8f2401e326b09b", "lon": -77.03169266666667, "rental_uris": {"android": "https://dc.lft.to/lastmile_qr_scan", "ios": "https://dc.lft.to/lastmile_qr_scan"}, "fusion_lon": 0.0, "is_reserved": 0}, {"lat": 38.89468333333333, "fusion_lat": 0.0, "type": "electric_scooter", "name": "9a79e0ad14921c2983d7c815385b5dfc", "is_disabled": 0, "bike_id": "9a79e0ad14921c2983d7c815385b5dfc", "lon": -76.949621, "rental_uris": {"android": "https://dc.lft.to/lastmile_qr_scan", "ios": "https://dc.lft.to/lastmile_qr_scan"}, "fusion_lon": 0.0, "is_reserved": 0}, {"lat": 38.89238066666667, "fusion_lat": 0.0, "type": "electric_scooter", "name": "67f709673508ecde42de66a25a5056b4", "is_disabled": 0, "bike_id": "67f709673508ecde42de66a25a5056b4", "lon": -77.03209816666667, "rental_uris": {"android": "https://dc.lft.to/lastmile_qr_scan", "ios": "https://dc.lft.to/lastmile_qr_scan"}, "fusion_lon": 0.0, "is_reserved": 0}, {"lat": 38.91705266666666, "fusion_lat": 0.0, "type": "electric_scooter", "name": "b9fc3c1e6fc7704613707b9085dcc031", "is_disabled": 0, "bike_id": "b9fc3c1e6fc7704613707b9085dcc031", "lon": -77.02457616666666, "rental_uris": {"android": "https://dc.lft.to/lastmile_qr_scan", "ios": "https://dc.lft.to/lastmile_qr_scan"}, "fusion_lon": 0.0, "is_reserved": 0}, {"lat": 38.904776166666664, "fusion_lat": 0.0, "type": "electric_scooter", "name": "a3780cf3906b1ff6d5dc8050b207a42f", "is_disabled": 0, "bike_id": "a3780cf3906b1ff6d5dc8050b207a42f", "lon": -77.00210866666667, "rental_uris": {"android": "https://dc.lft.to/lastmile_qr_scan", "ios": "https://dc.lft.to/lastmile_qr_scan"}, "fusion_lon": 0.0, "is_reserved": 0}, {"lat": 38.819968833333334, "fusion_lat": 0.0, "type": "electric_bike", "name": "aab551c401099c5d04f8e46cf1548023", "is_disabled": 0, "bike_id": "aab551c401099c5d04f8e46cf1548023", "lon": -76.99811566666666, "rental_uris": {"android": "https://dc.lft.to/lastmile_qr_scan", "ios": "https://dc.lft.to/lastmile_qr_scan"}, "fusion_lon": 0.0, "is_reserved": 0}, {"lat": 38.866287666666665, "fusion_lat": 0.0, "type": "electric_scooter", "name": "d94df5935ae0c7df310e9092df4569ec", "is_disabled": 0, "bike_id": "d94df5935ae0c7df310e9092df4569ec", "lon": -76.98717433333333, "rental_uris": {"android": "https://dc.lft.to/lastmile_qr_scan", "ios": "https://dc.lft.to/lastmile_qr_scan"}, "fusion_lon": 0.0, "is_reserved": 0}, {"lat": 38.9285965, "fusion_lat": 0.0, "type": "electric_scooter", "name": "6a9c74636e4340cf2e4da50a52af73ec", "is_disabled": 0, "bike_id": "6a9c74636e4340cf2e4da50a52af73ec", "lon": -77.03738566666667, "rental_uris": {"android": "https://dc.lft.to/lastmile_qr_scan", "ios": "https://dc.lft.to/lastmile_qr_scan"}, "fusion_lon": 0.0, "is_reserved": 0}, {"lat": 38.93427833333333, "fusion_lat": 0.0, "type": "electric_scooter", "name": "27679a988688be9d8a44c7c6ca75ad70", "is_disabled": 0, "bike_id": "27679a988688be9d8a44c7c6ca75ad70", "lon": -77.040006, "rental_uris": {"android": "https://dc.lft.to/lastmile_qr_scan", "ios": "https://dc.lft.to/lastmile_qr_scan"}, "fusion_lon": 0.0, "is_reserved": 0}, {"lat": 38.8637885, "fusion_lat": 0.0, "type": "electric_scooter", "name": "20db4eff82f7783ca0001e32542afcfd", "is_disabled": 0, "bike_id": "20db4eff82f7783ca0001e32542afcfd", "lon": -76.990606, "rental_uris": {"android": "https://dc.lft.to/lastmile_qr_scan", "ios": "https://dc.lft.to/lastmile_qr_scan"}, "fusion_lon": 0.0, "is_reserved": 0}, {"lat": 38.924719333333336, "fusion_lat": 0.0, "type": "electric_scooter", "name": "4230083e19b7a0f8ee22638faa53f83c", "is_disabled": 0, "bike_id": "4230083e19b7a0f8ee22638faa53f83c", "lon": -77.02216166666666, "rental_uris": {"android": "https://dc.lft.to/lastmile_qr_scan", "ios": "https://dc.lft.to/lastmile_qr_scan"}, "fusion_lon": 0.0, "is_reserved": 0}, {"lat": 38.915768166666666, "fusion_lat": 0.0, "type": "electric_scooter", "name": "4dc8fe61dae50944b33d1d67336e3d89", "is_disabled": 0, "bike_id": "4dc8fe61dae50944b33d1d67336e3d89", "lon": -77.0199585, "rental_uris": {"android": "https://dc.lft.to/lastmile_qr_scan", "ios": "https://dc.lft.to/lastmile_qr_scan"}, "fusion_lon": 0.0, "is_reserved": 0}, {"lat": 38.91108116666667, "fusion_lat": 0.0, "type": "electric_scooter", "name": "f7748c372dcfd1aa77c10154e4b3a737", "is_disabled": 0, "bike_id": "f7748c372dcfd1aa77c10154e4b3a737", "lon": -77.038415, "rental_uris": {"android": "https://dc.lft.to/lastmile_qr_scan", "ios": "https://dc.lft.to/lastmile_qr_scan"}, "fusion_lon": 0.0, "is_reserved": 0}, {"lat": 38.92327133333333, "fusion_lat": 0.0, "type": "electric_scooter", "name": "4e750b0bef43c69b51476c125b585315", "is_disabled": 0, "bike_id": "4e750b0bef43c69b51476c125b585315", "lon": -77.02128716666667, "rental_uris": {"android": "https://dc.lft.to/lastmile_qr_scan", "ios": "https://dc.lft.to/lastmile_qr_scan"}, "fusion_lon": 0.0, "is_reserved": 0}, {"lat": 38.899033333333335, "fusion_lat": 0.0, "type": "electric_scooter", "name": "c0498cb00d8502bbed15a9954d1c0e49", "is_disabled": 0, "bike_id": "c0498cb00d8502bbed15a9954d1c0e49", "lon": -77.046723, "rental_uris": {"android": "https://dc.lft.to/lastmile_qr_scan", "ios": "https://dc.lft.to/lastmile_qr_scan"}, "fusion_lon": 0.0, "is_reserved": 0}, {"lat": 38.9213355, "fusion_lat": 0.0, "type": "electric_scooter", "name": "0efe0fec73626b0dde5802109288876e", "is_disabled": 0, "bike_id": "0efe0fec73626b0dde5802109288876e", "lon": -77.01868816666666, "rental_uris": {"android": "https://dc.lft.to/lastmile_qr_scan", "ios": "https://dc.lft.to/lastmile_qr_scan"}, "fusion_lon": 0.0, "is_reserved": 0}, {"lat": 38.957255, "fusion_lat": 0.0, "type": "electric_scooter", "name": "468e78391008a610252eb3b397ff986e", "is_disabled": 0, "bike_id": "468e78391008a610252eb3b397ff986e", "lon": -77.028776, "rental_uris": {"android": "https://dc.lft.to/lastmile_qr_scan", "ios": "https://dc.lft.to/lastmile_qr_scan"}, "fusion_lon": 0.0, "is_reserved": 0}, {"lat": 38.9218505, "fusion_lat": 0.0, "type": "electric_scooter", "name": "d022553cd7f6358eec95e3c62051089c", "is_disabled": 0, "bike_id": "d022553cd7f6358eec95e3c62051089c", "lon": -77.04226583333333, "rental_uris": {"android": "https://dc.lft.to/lastmile_qr_scan", "ios": "https://dc.lft.to/lastmile_qr_scan"}, "fusion_lon": 0.0, "is_reserved": 0}, {"lat": 38.876878, "fusion_lat": 0.0, "type": "electric_scooter", "name": "4c97d11b2ac4d31590b3438b74a7ead1", "is_disabled": 0, "bike_id": "4c97d11b2ac4d31590b3438b74a7ead1", "lon": -77.00063366666667, "rental_uris": {"android": "https://dc.lft.to/lastmile_qr_scan", "ios": "https://dc.lft.to/lastmile_qr_scan"}, "fusion_lon": 0.0, "is_reserved": 0}, {"lat": 38.897482, "fusion_lat": 0.0, "type": "electric_scooter", "name": "eea031452610fd38902aa9e4657aaff2", "is_disabled": 0, "bike_id": "eea031452610fd38902aa9e4657aaff2", "lon": -77.04712816666667, "rental_uris": {"android": "https://dc.lft.to/lastmile_qr_scan", "ios": "https://dc.lft.to/lastmile_qr_scan"}, "fusion_lon": 0.0, "is_reserved": 0}, {"lat": 38.90509316666667, "fusion_lat": 0.0, "type": "electric_scooter", "name": "07508b15558fa9dd12c8163f4eb4dfa2", "is_disabled": 0, "bike_id": "07508b15558fa9dd12c8163f4eb4dfa2", "lon": -77.04342333333334, "rental_uris": {"android": "https://dc.lft.to/lastmile_qr_scan", "ios": "https://dc.lft.to/lastmile_qr_scan"}, "fusion_lon": 0.0, "is_reserved": 0}, {"lat": 39.03424616666667, "fusion_lat": 0.0, "type": "electric_bike", "name": "cdf8932db96166541e6965a639dbcff4", "is_disabled": 0, "bike_id": "cdf8932db96166541e6965a639dbcff4", "lon": -77.0429795, "rental_uris": {"android": "https://dc.lft.to/lastmile_qr_scan", "ios": "https://dc.lft.to/lastmile_qr_scan"}, "fusion_lon": 0.0, "is_reserved": 0}, {"lat": 38.90567733333334, "fusion_lat": 0.0, "type": "electric_scooter", "name": "6e18f0e0b70f742272ca2da07bf7b421", "is_disabled": 0, "bike_id": "6e18f0e0b70f742272ca2da07bf7b421", "lon": -77.04285783333333, "rental_uris": {"android": "https://dc.lft.to/lastmile_qr_scan", "ios": "https://dc.lft.to/lastmile_qr_scan"}, "fusion_lon": 0.0, "is_reserved": 0}, {"lat": 38.902751, "fusion_lat": 0.0, "type": "electric_scooter", "name": "0cb56264694dcbbd7fe6478d719afba4", "is_disabled": 0, "bike_id": "0cb56264694dcbbd7fe6478d719afba4", "lon": -77.03843, "rental_uris": {"android": "https://dc.lft.to/lastmile_qr_scan", "ios": "https://dc.lft.to/lastmile_qr_scan"}, "fusion_lon": 0.0, "is_reserved": 0}, {"lat": 38.88470816666667, "fusion_lat": 0.0, "type": "electric_bike", "name": "428337b5b4f05da667b6a975595ed588", "is_disabled": 0, "bike_id": "428337b5b4f05da667b6a975595ed588", "lon": -76.9566525, "rental_uris": {"android": "https://dc.lft.to/lastmile_qr_scan", "ios": "https://dc.lft.to/lastmile_qr_scan"}, "fusion_lon": 0.0, "is_reserved": 0}, {"lat": 38.90571766666667, "fusion_lat": 0.0, "type": "electric_scooter", "name": "1dab2eaf578bdd64d28e416c502031d9", "is_disabled": 0, "bike_id": "1dab2eaf578bdd64d28e416c502031d9", "lon": -76.97781816666667, "rental_uris": {"android": "https://dc.lft.to/lastmile_qr_scan", "ios": "https://dc.lft.to/lastmile_qr_scan"}, "fusion_lon": 0.0, "is_reserved": 0}, {"lat": 38.90128033333333, "fusion_lat": 0.0, "type": "electric_scooter", "name": "602b3159e0708d590ecc21371423775f", "is_disabled": 0, "bike_id": "602b3159e0708d590ecc21371423775f", "lon": -77.0424085, "rental_uris": {"android": "https://dc.lft.to/lastmile_qr_scan", "ios": "https://dc.lft.to/lastmile_qr_scan"}, "fusion_lon": 0.0, "is_reserved": 0}, {"lat": 38.92264433333333, "fusion_lat": 0.0, "type": "electric_scooter", "name": "4c682936df88fef111d650098a22ba40", "is_disabled": 0, "bike_id": "4c682936df88fef111d650098a22ba40", "lon": -77.02967883333334, "rental_uris": {"android": "https://dc.lft.to/lastmile_qr_scan", "ios": "https://dc.lft.to/lastmile_qr_scan"}, "fusion_lon": 0.0, "is_reserved": 0}, {"lat": 38.905195166666665, "fusion_lat": 0.0, "type": "electric_scooter", "name": "6993db473f72a6de617869f6047e925b", "is_disabled": 0, "bike_id": "6993db473f72a6de617869f6047e925b", "lon": -77.01887966666666, "rental_uris": {"android": "https://dc.lft.to/lastmile_qr_scan", "ios": "https://dc.lft.to/lastmile_qr_scan"}, "fusion_lon": 0.0, "is_reserved": 0}, {"lat": 38.895249666666665, "fusion_lat": 0.0, "type": "electric_scooter", "name": "ca21d615cb004a23b57390b4d5c72596", "is_disabled": 0, "bike_id": "ca21d615cb004a23b57390b4d5c72596", "lon": -77.00210766666666, "rental_uris": {"android": "https://dc.lft.to/lastmile_qr_scan", "ios": "https://dc.lft.to/lastmile_qr_scan"}, "fusion_lon": 0.0, "is_reserved": 0}, {"lat": 38.904757000000004, "fusion_lat": 0.0, "type": "electric_scooter", "name": "a22b91e9ec18ac6297ca94d97a960105", "is_disabled": 0, "bike_id": "a22b91e9ec18ac6297ca94d97a960105", "lon": -77.04475666666667, "rental_uris": {"android": "https://dc.lft.to/lastmile_qr_scan", "ios": "https://dc.lft.to/lastmile_qr_scan"}, "fusion_lon": 0.0, "is_reserved": 0}, {"lat": 38.806576666666665, "fusion_lat": 0.0, "type": "electric_bike", "name": "3c6a1e361cbdd84de17e53ab5276023c", "is_disabled": 0, "bike_id": "3c6a1e361cbdd84de17e53ab5276023c", "lon": -77.08760766666667, "rental_uris": {"android": "https://dc.lft.to/lastmile_qr_scan", "ios": "https://dc.lft.to/lastmile_qr_scan"}, "fusion_lon": 0.0, "is_reserved": 0}, {"lat": 38.906887, "fusion_lat": 0.0, "type": "electric_scooter", "name": "b543f4782b80f739e6385f979891e6a9", "is_disabled": 0, "bike_id": "b543f4782b80f739e6385f979891e6a9", "lon": -77.03636616666667, "rental_uris": {"android": "https://dc.lft.to/lastmile_qr_scan", "ios": "https://dc.lft.to/lastmile_qr_scan"}, "fusion_lon": 0.0, "is_reserved": 0}, {"lat": 38.92812033333333, "fusion_lat": 0.0, "type": "electric_scooter", "name": "6959840ac032372656561bd7920d85a4", "is_disabled": 0, "bike_id": "6959840ac032372656561bd7920d85a4", "lon": -77.01410033333333, "rental_uris": {"android": "https://dc.lft.to/lastmile_qr_scan", "ios": "https://dc.lft.to/lastmile_qr_scan"}, "fusion_lon": 0.0, "is_reserved": 0}, {"lat": 38.941847, "fusion_lat": 0.0, "type": "electric_scooter", "name": "7c8ba7f8f9458eb75a5dca7415a02bc9", "is_disabled": 0, "bike_id": "7c8ba7f8f9458eb75a5dca7415a02bc9", "lon": -77.02489583333333, "rental_uris": {"android": "https://dc.lft.to/lastmile_qr_scan", "ios": "https://dc.lft.to/lastmile_qr_scan"}, "fusion_lon": 0.0, "is_reserved": 0}, {"lat": 38.903273, "fusion_lat": 0.0, "type": "electric_scooter", "name": "9600f690226cb52e751ac3e1a864f968", "is_disabled": 0, "bike_id": "9600f690226cb52e751ac3e1a864f968", "lon": -76.97536866666667, "rental_uris": {"android": "https://dc.lft.to/lastmile_qr_scan", "ios": "https://dc.lft.to/lastmile_qr_scan"}, "fusion_lon": 0.0, "is_reserved": 0}, {"lat": 38.942240166666664, "fusion_lat": 0.0, "type": "electric_bike", "name": "4c15e7bc593743c39cc07aa843d236a7", "is_disabled": 0, "bike_id": "4c15e7bc593743c39cc07aa843d236a7", "lon": -76.99074716666667, "rental_uris": {"android": "https://dc.lft.to/lastmile_qr_scan", "ios": "https://dc.lft.to/lastmile_qr_scan"}, "fusion_lon": 0.0, "is_reserved": 0}, {"lat": 38.8836515, "fusion_lat": 0.0, "type": "electric_scooter", "name": "d8840c75a8b17a91e67833dfaf6a3b35", "is_disabled": 0, "bike_id": "d8840c75a8b17a91e67833dfaf6a3b35", "lon": -76.94154, "rental_uris": {"android": "https://dc.lft.to/lastmile_qr_scan", "ios": "https://dc.lft.to/lastmile_qr_scan"}, "fusion_lon": 0.0, "is_reserved": 0}, {"lat": 38.896085, "fusion_lat": 0.0, "type": "electric_scooter", "name": "f7a40e12b0d1646fcbfaee6c40e59cfc", "is_disabled": 0, "bike_id": "f7a40e12b0d1646fcbfaee6c40e59cfc", "lon": -77.009251, "rental_uris": {"android": "https://dc.lft.to/lastmile_qr_scan", "ios": "https://dc.lft.to/lastmile_qr_scan"}, "fusion_lon": 0.0, "is_reserved": 0}, {"lat": 38.86685633333333, "fusion_lat": 0.0, "type": "electric_scooter", "name": "6bce4c99c303cb05e74589ac033fc721", "is_disabled": 0, "bike_id": "6bce4c99c303cb05e74589ac033fc721", "lon": -76.98571616666666, "rental_uris": {"android": "https://dc.lft.to/lastmile_qr_scan", "ios": "https://dc.lft.to/lastmile_qr_scan"}, "fusion_lon": 0.0, "is_reserved": 0}, {"lat": 38.91876633333333, "fusion_lat": 0.0, "type": "electric_scooter", "name": "377d47366e3ce57a94425c3e486b7f52", "is_disabled": 0, "bike_id": "377d47366e3ce57a94425c3e486b7f52", "lon": -76.96332416666667, "rental_uris": {"android": "https://dc.lft.to/lastmile_qr_scan", "ios": "https://dc.lft.to/lastmile_qr_scan"}, "fusion_lon": 0.0, "is_reserved": 0}, {"lat": 38.906806833333334, "fusion_lat": 0.0, "type": "electric_scooter", "name": "0d665cc568ea0df51e0dad0c8e4541b6", "is_disabled": 0, "bike_id": "0d665cc568ea0df51e0dad0c8e4541b6", "lon": -77.02370216666667, "rental_uris": {"android": "https://dc.lft.to/lastmile_qr_scan", "ios": "https://dc.lft.to/lastmile_qr_scan"}, "fusion_lon": 0.0, "is_reserved": 0}, {"lat": 38.89738233333333, "fusion_lat": 0.0, "type": "electric_bike", "name": "61780caf7ec9490f3418f5e9d4141057", "is_disabled": 0, "bike_id": "61780caf7ec9490f3418f5e9d4141057", "lon": -76.94249716666667, "rental_uris": {"android": "https://dc.lft.to/lastmile_qr_scan", "ios": "https://dc.lft.to/lastmile_qr_scan"}, "fusion_lon": 0.0, "is_reserved": 0}, {"lat": 38.9025495, "fusion_lat": 0.0, "type": "electric_scooter", "name": "d5497efe6e9f1c61405c73f9d78c3c1a", "is_disabled": 0, "bike_id": "d5497efe6e9f1c61405c73f9d78c3c1a", "lon": -77.03867366666667, "rental_uris": {"android": "https://dc.lft.to/lastmile_qr_scan", "ios": "https://dc.lft.to/lastmile_qr_scan"}, "fusion_lon": 0.0, "is_reserved": 0}, {"lat": 38.908672, "fusion_lat": 0.0, "type": "electric_scooter", "name": "b0a0fc202e520b27025ad936e715c88e", "is_disabled": 0, "bike_id": "b0a0fc202e520b27025ad936e715c88e", "lon": -77.0235935, "rental_uris": {"android": "https://dc.lft.to/lastmile_qr_scan", "ios": "https://dc.lft.to/lastmile_qr_scan"}, "fusion_lon": 0.0, "is_reserved": 0}, {"lat": 38.926851166666665, "fusion_lat": 0.0, "type": "electric_scooter", "name": "d4edd9dfa1db61197c06cee13611da67", "is_disabled": 0, "bike_id": "d4edd9dfa1db61197c06cee13611da67", "lon": -77.01569333333333, "rental_uris": {"android": "https://dc.lft.to/lastmile_qr_scan", "ios": "https://dc.lft.to/lastmile_qr_scan"}, "fusion_lon": 0.0, "is_reserved": 0}, {"lat": 38.86628116666667, "fusion_lat": 0.0, "type": "electric_scooter", "name": "f9b3088c663aa52b484c8576308f4c9b", "is_disabled": 0, "bike_id": "f9b3088c663aa52b484c8576308f4c9b", "lon": -76.98716383333333, "rental_uris": {"android": "https://dc.lft.to/lastmile_qr_scan", "ios": "https://dc.lft.to/lastmile_qr_scan"}, "fusion_lon": 0.0, "is_reserved": 0}, {"lat": 38.85808633333333, "fusion_lat": 0.0, "type": "electric_scooter", "name": "3e916cbf6bbfff4186183f688b564472", "is_disabled": 0, "bike_id": "3e916cbf6bbfff4186183f688b564472", "lon": -76.98654716666667, "rental_uris": {"android": "https://dc.lft.to/lastmile_qr_scan", "ios": "https://dc.lft.to/lastmile_qr_scan"}, "fusion_lon": 0.0, "is_reserved": 0}, {"lat": 38.938956833333336, "fusion_lat": 0.0, "type": "electric_scooter", "name": "8f3811e955b37d6dc5b41823625bc9c9", "is_disabled": 0, "bike_id": "8f3811e955b37d6dc5b41823625bc9c9", "lon": -77.02485966666667, "rental_uris": {"android": "https://dc.lft.to/lastmile_qr_scan", "ios": "https://dc.lft.to/lastmile_qr_scan"}, "fusion_lon": 0.0, "is_reserved": 0}, {"lat": 38.886093, "fusion_lat": 0.0, "type": "electric_scooter", "name": "81b418bbdf55fe5fb5fa72bfccc463cf", "is_disabled": 0, "bike_id": "81b418bbdf55fe5fb5fa72bfccc463cf", "lon": -77.01248566666666, "rental_uris": {"android": "https://dc.lft.to/lastmile_qr_scan", "ios": "https://dc.lft.to/lastmile_qr_scan"}, "fusion_lon": 0.0, "is_reserved": 0}, {"lat": 38.908288666666664, "fusion_lat": 0.0, "type": "electric_scooter", "name": "3ced71db505f7a794f7fa2fbed482537", "is_disabled": 0, "bike_id": "3ced71db505f7a794f7fa2fbed482537", "lon": -77.035717, "rental_uris": {"android": "https://dc.lft.to/lastmile_qr_scan", "ios": "https://dc.lft.to/lastmile_qr_scan"}, "fusion_lon": 0.0, "is_reserved": 0}, {"lat": 38.866315166666666, "fusion_lat": 0.0, "type": "electric_scooter", "name": "c2112a97ab460304b0b7249dd0ac91fb", "is_disabled": 0, "bike_id": "c2112a97ab460304b0b7249dd0ac91fb", "lon": -76.98716433333334, "rental_uris": {"android": "https://dc.lft.to/lastmile_qr_scan", "ios": "https://dc.lft.to/lastmile_qr_scan"}, "fusion_lon": 0.0, "is_reserved": 0}, {"lat": 38.92338083333333, "fusion_lat": 0.0, "type": "electric_scooter", "name": "5b55d72154530ee2c6b6825832a747c8", "is_disabled": 0, "bike_id": "5b55d72154530ee2c6b6825832a747c8", "lon": -77.02146866666666, "rental_uris": {"android": "https://dc.lft.to/lastmile_qr_scan", "ios": "https://dc.lft.to/lastmile_qr_scan"}, "fusion_lon": 0.0, "is_reserved": 0}, {"lat": 38.90832916666667, "fusion_lat": 0.0, "type": "electric_scooter", "name": "f68545a36c88ecfdd79e633b6a1416a5", "is_disabled": 0, "bike_id": "f68545a36c88ecfdd79e633b6a1416a5", "lon": -77.039628, "rental_uris": {"android": "https://dc.lft.to/lastmile_qr_scan", "ios": "https://dc.lft.to/lastmile_qr_scan"}, "fusion_lon": 0.0, "is_reserved": 0}, {"lat": 38.887689333333334, "fusion_lat": 0.0, "type": "electric_scooter", "name": "9622b8e052c3a03681ad46aef620aff5", "is_disabled": 0, "bike_id": "9622b8e052c3a03681ad46aef620aff5", "lon": -77.02630533333334, "rental_uris": {"android": "https://dc.lft.to/lastmile_qr_scan", "ios": "https://dc.lft.to/lastmile_qr_scan"}, "fusion_lon": 0.0, "is_reserved": 0}, {"lat": 38.92361983333333, "fusion_lat": 0.0, "type": "electric_scooter", "name": "7c222b5f8afb4ca0d27cf1529ddfb6bb", "is_disabled": 0, "bike_id": "7c222b5f8afb4ca0d27cf1529ddfb6bb", "lon": -77.050432, "rental_uris": {"android": "https://dc.lft.to/lastmile_qr_scan", "ios": "https://dc.lft.to/lastmile_qr_scan"}, "fusion_lon": 0.0, "is_reserved": 0}, {"lat": 38.927276166666665, "fusion_lat": 0.0, "type": "electric_scooter", "name": "31b8ba4d2f4d0fd78e6ea42b2797b425", "is_disabled": 0, "bike_id": "31b8ba4d2f4d0fd78e6ea42b2797b425", "lon": -77.032409, "rental_uris": {"android": "https://dc.lft.to/lastmile_qr_scan", "ios": "https://dc.lft.to/lastmile_qr_scan"}, "fusion_lon": 0.0, "is_reserved": 0}, {"lat": 38.88512033333333, "fusion_lat": 0.0, "type": "electric_scooter", "name": "0443f6909cb12f9a892a49caf6f09d9a", "is_disabled": 0, "bike_id": "0443f6909cb12f9a892a49caf6f09d9a", "lon": -77.0045005, "rental_uris": {"android": "https://dc.lft.to/lastmile_qr_scan", "ios": "https://dc.lft.to/lastmile_qr_scan"}, "fusion_lon": 0.0, "is_reserved": 0}, {"lat": 38.90216, "fusion_lat": 0.0, "type": "electric_scooter", "name": "23e04df47464b80f1cbc94e271140112", "is_disabled": 0, "bike_id": "23e04df47464b80f1cbc94e271140112", "lon": -77.0337765, "rental_uris": {"android": "https://dc.lft.to/lastmile_qr_scan", "ios": "https://dc.lft.to/lastmile_qr_scan"}, "fusion_lon": 0.0, "is_reserved": 0}, {"lat": 38.975123333333336, "fusion_lat": 0.0, "type": "electric_scooter", "name": "a40ec12f65762eac75262dc159721300", "is_disabled": 0, "bike_id": "a40ec12f65762eac75262dc159721300", "lon": -77.01647916666667, "rental_uris": {"android": "https://dc.lft.to/lastmile_qr_scan", "ios": "https://dc.lft.to/lastmile_qr_scan"}, "fusion_lon": 0.0, "is_reserved": 0}, {"lat": 38.878992, "fusion_lat": 0.0, "type": "electric_scooter", "name": "78e0cdb24a1a0d1b46151619775c9972", "is_disabled": 0, "bike_id": "78e0cdb24a1a0d1b46151619775c9972", "lon": -77.02330616666667, "rental_uris": {"android": "https://dc.lft.to/lastmile_qr_scan", "ios": "https://dc.lft.to/lastmile_qr_scan"}, "fusion_lon": 0.0, "is_reserved": 0}, {"lat": 38.89716283333333, "fusion_lat": 0.0, "type": "electric_scooter", "name": "7412f3358a26f6af9250b4eca1b51168", "is_disabled": 0, "bike_id": "7412f3358a26f6af9250b4eca1b51168", "lon": -77.00795933333333, "rental_uris": {"android": "https://dc.lft.to/lastmile_qr_scan", "ios": "https://dc.lft.to/lastmile_qr_scan"}, "fusion_lon": 0.0, "is_reserved": 0}, {"lat": 38.91839733333333, "fusion_lat": 0.0, "type": "electric_scooter", "name": "16aa27d78a3409a76effe2654709fa2d", "is_disabled": 0, "bike_id": "16aa27d78a3409a76effe2654709fa2d", "lon": -77.03183633333333, "rental_uris": {"android": "https://dc.lft.to/lastmile_qr_scan", "ios": "https://dc.lft.to/lastmile_qr_scan"}, "fusion_lon": 0.0, "is_reserved": 0}, {"lat": 38.92063533333334, "fusion_lat": 0.0, "type": "electric_scooter", "name": "86094ec9d8a0c46a7eaef1f74dd183f0", "is_disabled": 0, "bike_id": "86094ec9d8a0c46a7eaef1f74dd183f0", "lon": -76.98192866666666, "rental_uris": {"android": "https://dc.lft.to/lastmile_qr_scan", "ios": "https://dc.lft.to/lastmile_qr_scan"}, "fusion_lon": 0.0, "is_reserved": 0}, {"lat": 38.89437616666667, "fusion_lat": 0.0, "type": "electric_scooter", "name": "21f762adad4e9d447dda1ae3995f85c7", "is_disabled": 0, "bike_id": "21f762adad4e9d447dda1ae3995f85c7", "lon": -77.000497, "rental_uris": {"android": "https://dc.lft.to/lastmile_qr_scan", "ios": "https://dc.lft.to/lastmile_qr_scan"}, "fusion_lon": 0.0, "is_reserved": 0}, {"lat": 38.930819666666665, "fusion_lat": 0.0, "type": "electric_scooter", "name": "52d601fcaf9a214e10af5f835da788c9", "is_disabled": 0, "bike_id": "52d601fcaf9a214e10af5f835da788c9", "lon": -77.02809216666667, "rental_uris": {"android": "https://dc.lft.to/lastmile_qr_scan", "ios": "https://dc.lft.to/lastmile_qr_scan"}, "fusion_lon": 0.0, "is_reserved": 0}, {"lat": 38.89833633333333, "fusion_lat": 0.0, "type": "electric_scooter", "name": "5b68b5e92e8bd69134b8c2009c76ee57", "is_disabled": 0, "bike_id": "5b68b5e92e8bd69134b8c2009c76ee57", "lon": -77.03348033333333, "rental_uris": {"android": "https://dc.lft.to/lastmile_qr_scan", "ios": "https://dc.lft.to/lastmile_qr_scan"}, "fusion_lon": 0.0, "is_reserved": 0}, {"lat": 38.866868333333336, "fusion_lat": 0.0, "type": "electric_scooter", "name": "5086303baed6f4ad314dcae29e44f507", "is_disabled": 0, "bike_id": "5086303baed6f4ad314dcae29e44f507", "lon": -76.9856605, "rental_uris": {"android": "https://dc.lft.to/lastmile_qr_scan", "ios": "https://dc.lft.to/lastmile_qr_scan"}, "fusion_lon": 0.0, "is_reserved": 0}, {"lat": 38.990978166666665, "fusion_lat": 0.0, "type": "electric_bike", "name": "3f85638008bf5d34364e75eeac65dab9", "is_disabled": 0, "bike_id": "3f85638008bf5d34364e75eeac65dab9", "lon": -76.99362416666666, "rental_uris": {"android": "https://dc.lft.to/lastmile_qr_scan", "ios": "https://dc.lft.to/lastmile_qr_scan"}, "fusion_lon": 0.0, "is_reserved": 0}, {"lat": 38.870905, "fusion_lat": 0.0, "type": "electric_bike", "name": "1adaac0bac958701f18112f518633cff", "is_disabled": 0, "bike_id": "1adaac0bac958701f18112f518633cff", "lon": -77.01201366666666, "rental_uris": {"android": "https://dc.lft.to/lastmile_qr_scan", "ios": "https://dc.lft.to/lastmile_qr_scan"}, "fusion_lon": 0.0, "is_reserved": 0}, {"lat": 38.89015766666667, "fusion_lat": 0.0, "type": "electric_scooter", "name": "f7cdd5638e096b0d06cd8067ecdc1946", "is_disabled": 0, "bike_id": "f7cdd5638e096b0d06cd8067ecdc1946", "lon": -76.93731183333334, "rental_uris": {"android": "https://dc.lft.to/lastmile_qr_scan", "ios": "https://dc.lft.to/lastmile_qr_scan"}, "fusion_lon": 0.0, "is_reserved": 0}, {"lat": 38.90682783333333, "fusion_lat": 0.0, "type": "electric_scooter", "name": "d4d8c11c93c3aeea57d05b633a761e1b", "is_disabled": 0, "bike_id": "d4d8c11c93c3aeea57d05b633a761e1b", "lon": -77.02370033333334, "rental_uris": {"android": "https://dc.lft.to/lastmile_qr_scan", "ios": "https://dc.lft.to/lastmile_qr_scan"}, "fusion_lon": 0.0, "is_reserved": 0}, {"lat": 38.901814, "fusion_lat": 0.0, "type": "electric_scooter", "name": "02b2aa7e68ff2862d2bec85f00017667", "is_disabled": 0, "bike_id": "02b2aa7e68ff2862d2bec85f00017667", "lon": -76.92904233333333, "rental_uris": {"android": "https://dc.lft.to/lastmile_qr_scan", "ios": "https://dc.lft.to/lastmile_qr_scan"}, "fusion_lon": 0.0, "is_reserved": 0}, {"lat": 38.884078833333334, "fusion_lat": 0.0, "type": "electric_scooter", "name": "76234ff2e3c278302b38a9c35e7fa13b", "is_disabled": 0, "bike_id": "76234ff2e3c278302b38a9c35e7fa13b", "lon": -76.94822466666666, "rental_uris": {"android": "https://dc.lft.to/lastmile_qr_scan", "ios": "https://dc.lft.to/lastmile_qr_scan"}, "fusion_lon": 0.0, "is_reserved": 0}, {"lat": 38.93502616666667, "fusion_lat": 0.0, "type": "electric_scooter", "name": "b3c28dd489ac9924f11e4daab08e4523", "is_disabled": 0, "bike_id": "b3c28dd489ac9924f11e4daab08e4523", "lon": -77.0272305, "rental_uris": {"android": "https://dc.lft.to/lastmile_qr_scan", "ios": "https://dc.lft.to/lastmile_qr_scan"}, "fusion_lon": 0.0, "is_reserved": 0}, {"lat": 38.831, "fusion_lat": 0.0, "type": "electric_bike", "name": "ac5b6d27197e6b538d79cba7f318d3bb", "is_disabled": 0, "bike_id": "ac5b6d27197e6b538d79cba7f318d3bb", "lon": -77.04290783333333, "rental_uris": {"android": "https://dc.lft.to/lastmile_qr_scan", "ios": "https://dc.lft.to/lastmile_qr_scan"}, "fusion_lon": 0.0, "is_reserved": 0}, {"lat": 38.89760366666667, "fusion_lat": 0.0, "type": "electric_scooter", "name": "77263c14c1cef2df8004c465c1b5ed95", "is_disabled": 0, "bike_id": "77263c14c1cef2df8004c465c1b5ed95", "lon": -77.03000233333333, "rental_uris": {"android": "https://dc.lft.to/lastmile_qr_scan", "ios": "https://dc.lft.to/lastmile_qr_scan"}, "fusion_lon": 0.0, "is_reserved": 0}, {"lat": 38.90170166666667, "fusion_lat": 0.0, "type": "electric_scooter", "name": "fbeb9af32df82f9d499890e16a73c415", "is_disabled": 0, "bike_id": "fbeb9af32df82f9d499890e16a73c415", "lon": -77.0203985, "rental_uris": {"android": "https://dc.lft.to/lastmile_qr_scan", "ios": "https://dc.lft.to/lastmile_qr_scan"}, "fusion_lon": 0.0, "is_reserved": 0}, {"lat": 38.89228766666667, "fusion_lat": 0.0, "type": "electric_scooter", "name": "9515a155828f52e807e8f45887050bd9", "is_disabled": 0, "bike_id": "9515a155828f52e807e8f45887050bd9", "lon": -77.02382416666667, "rental_uris": {"android": "https://dc.lft.to/lastmile_qr_scan", "ios": "https://dc.lft.to/lastmile_qr_scan"}, "fusion_lon": 0.0, "is_reserved": 0}, {"lat": 38.892019, "fusion_lat": 0.0, "type": "electric_scooter", "name": "8e9208c3bfb74785ced13da13e9cc9bf", "is_disabled": 0, "bike_id": "8e9208c3bfb74785ced13da13e9cc9bf", "lon": -77.02379283333333, "rental_uris": {"android": "https://dc.lft.to/lastmile_qr_scan", "ios": "https://dc.lft.to/lastmile_qr_scan"}, "fusion_lon": 0.0, "is_reserved": 0}, {"lat": 38.8977205, "fusion_lat": 0.0, "type": "electric_scooter", "name": "be60a0826745ec7a296e8b8e21c2f537", "is_disabled": 0, "bike_id": "be60a0826745ec7a296e8b8e21c2f537", "lon": -77.0316925, "rental_uris": {"android": "https://dc.lft.to/lastmile_qr_scan", "ios": "https://dc.lft.to/lastmile_qr_scan"}, "fusion_lon": 0.0, "is_reserved": 0}, {"lat": 38.927532166666666, "fusion_lat": 0.0, "type": "electric_scooter", "name": "6517f413f4d78ce0fe851bd5a486d5d0", "is_disabled": 0, "bike_id": "6517f413f4d78ce0fe851bd5a486d5d0", "lon": -77.02110616666667, "rental_uris": {"android": "https://dc.lft.to/lastmile_qr_scan", "ios": "https://dc.lft.to/lastmile_qr_scan"}, "fusion_lon": 0.0, "is_reserved": 0}, {"lat": 38.937037833333335, "fusion_lat": 0.0, "type": "electric_bike", "name": "b3c6981cfdea671b4f46e99a3372d6a3", "is_disabled": 0, "bike_id": "b3c6981cfdea671b4f46e99a3372d6a3", "lon": -77.02117833333334, "rental_uris": {"android": "https://dc.lft.to/lastmile_qr_scan", "ios": "https://dc.lft.to/lastmile_qr_scan"}, "fusion_lon": 0.0, "is_reserved": 0}, {"lat": 38.921260333333336, "fusion_lat": 0.0, "type": "electric_scooter", "name": "647a6d21800eca6fab1a4c74386cf678", "is_disabled": 0, "bike_id": "647a6d21800eca6fab1a4c74386cf678", "lon": -77.04569016666666, "rental_uris": {"android": "https://dc.lft.to/lastmile_qr_scan", "ios": "https://dc.lft.to/lastmile_qr_scan"}, "fusion_lon": 0.0, "is_reserved": 0}, {"lat": 38.90730333333333, "fusion_lat": 0.0, "type": "electric_scooter", "name": "aedb3fc8caef0ea0acebc52c3537a5cc", "is_disabled": 0, "bike_id": "aedb3fc8caef0ea0acebc52c3537a5cc", "lon": -77.02374633333334, "rental_uris": {"android": "https://dc.lft.to/lastmile_qr_scan", "ios": "https://dc.lft.to/lastmile_qr_scan"}, "fusion_lon": 0.0, "is_reserved": 0}, {"lat": 38.930798, "fusion_lat": 0.0, "type": "electric_scooter", "name": "d0a388e6853aaad2f7912398c67367e7", "is_disabled": 0, "bike_id": "d0a388e6853aaad2f7912398c67367e7", "lon": -77.02740016666667, "rental_uris": {"android": "https://dc.lft.to/lastmile_qr_scan", "ios": "https://dc.lft.to/lastmile_qr_scan"}, "fusion_lon": 0.0, "is_reserved": 0}, {"lat": 38.8548135, "fusion_lat": 0.0, "type": "electric_bike", "name": "9b7dbd02c29fe1fdaab59c35c28b4855", "is_disabled": 0, "bike_id": "9b7dbd02c29fe1fdaab59c35c28b4855", "lon": -77.0494785, "rental_uris": {"android": "https://dc.lft.to/lastmile_qr_scan", "ios": "https://dc.lft.to/lastmile_qr_scan"}, "fusion_lon": 0.0, "is_reserved": 0}, {"lat": 38.904753166666666, "fusion_lat": 0.0, "type": "electric_scooter", "name": "e249b4f6c183a57f7395dcba378bb8d6", "is_disabled": 0, "bike_id": "e249b4f6c183a57f7395dcba378bb8d6", "lon": -77.03917566666667, "rental_uris": {"android": "https://dc.lft.to/lastmile_qr_scan", "ios": "https://dc.lft.to/lastmile_qr_scan"}, "fusion_lon": 0.0, "is_reserved": 0}, {"lat": 38.9083775, "fusion_lat": 0.0, "type": "electric_scooter", "name": "16ce3f14d8d97f77e9db37f8a6f237dd", "is_disabled": 0, "bike_id": "16ce3f14d8d97f77e9db37f8a6f237dd", "lon": -77.04357833333333, "rental_uris": {"android": "https://dc.lft.to/lastmile_qr_scan", "ios": "https://dc.lft.to/lastmile_qr_scan"}, "fusion_lon": 0.0, "is_reserved": 0}, {"lat": 38.93740183333333, "fusion_lat": 0.0, "type": "electric_scooter", "name": "a113ead55593b59d97cf3f155db567cc", "is_disabled": 0, "bike_id": "a113ead55593b59d97cf3f155db567cc", "lon": -77.02357866666667, "rental_uris": {"android": "https://dc.lft.to/lastmile_qr_scan", "ios": "https://dc.lft.to/lastmile_qr_scan"}, "fusion_lon": 0.0, "is_reserved": 0}, {"lat": 38.89644366666667, "fusion_lat": 0.0, "type": "electric_scooter", "name": "7a06b61fe1bc425edd94b19f98285c21", "is_disabled": 0, "bike_id": "7a06b61fe1bc425edd94b19f98285c21", "lon": -77.040044, "rental_uris": {"android": "https://dc.lft.to/lastmile_qr_scan", "ios": "https://dc.lft.to/lastmile_qr_scan"}, "fusion_lon": 0.0, "is_reserved": 0}, {"lat": 38.92245616666666, "fusion_lat": 0.0, "type": "electric_scooter", "name": "445c655b8500077f29d8a6d354127dbe", "is_disabled": 0, "bike_id": "445c655b8500077f29d8a6d354127dbe", "lon": -77.0425325, "rental_uris": {"android": "https://dc.lft.to/lastmile_qr_scan", "ios": "https://dc.lft.to/lastmile_qr_scan"}, "fusion_lon": 0.0, "is_reserved": 0}, {"lat": 38.9278995, "fusion_lat": 0.0, "type": "electric_scooter", "name": "b556c3d26ddfbdd88408ed65bddfebc7", "is_disabled": 0, "bike_id": "b556c3d26ddfbdd88408ed65bddfebc7", "lon": -77.03205683333333, "rental_uris": {"android": "https://dc.lft.to/lastmile_qr_scan", "ios": "https://dc.lft.to/lastmile_qr_scan"}, "fusion_lon": 0.0, "is_reserved": 0}, {"lat": 38.90042483333333, "fusion_lat": 0.0, "type": "electric_scooter", "name": "ff56eebe5864a14f1433f099b7517ffc", "is_disabled": 0, "bike_id": "ff56eebe5864a14f1433f099b7517ffc", "lon": -76.98824966666666, "rental_uris": {"android": "https://dc.lft.to/lastmile_qr_scan", "ios": "https://dc.lft.to/lastmile_qr_scan"}, "fusion_lon": 0.0, "is_reserved": 0}, {"lat": 38.91707, "fusion_lat": 0.0, "type": "electric_scooter", "name": "59a7d08439f0bdf7a013cbd4da70dc98", "is_disabled": 0, "bike_id": "59a7d08439f0bdf7a013cbd4da70dc98", "lon": -77.0246205, "rental_uris": {"android": "https://dc.lft.to/lastmile_qr_scan", "ios": "https://dc.lft.to/lastmile_qr_scan"}, "fusion_lon": 0.0, "is_reserved": 0}, {"lat": 38.90569933333333, "fusion_lat": 0.0, "type": "electric_scooter", "name": "54457c4bbf220d684ce43b657b24e8cf", "is_disabled": 0, "bike_id": "54457c4bbf220d684ce43b657b24e8cf", "lon": -77.04337616666666, "rental_uris": {"android": "https://dc.lft.to/lastmile_qr_scan", "ios": "https://dc.lft.to/lastmile_qr_scan"}, "fusion_lon": 0.0, "is_reserved": 0}, {"lat": 38.92441516666667, "fusion_lat": 0.0, "type": "electric_scooter", "name": "5729f836c194c40cee5cb633245b943c", "is_disabled": 0, "bike_id": "5729f836c194c40cee5cb633245b943c", "lon": -77.03990466666667, "rental_uris": {"android": "https://dc.lft.to/lastmile_qr_scan", "ios": "https://dc.lft.to/lastmile_qr_scan"}, "fusion_lon": 0.0, "is_reserved": 0}, {"lat": 38.98768283333333, "fusion_lat": 0.0, "type": "electric_bike", "name": "aa9cd3849cf242e0a9a069209a6e44ea", "is_disabled": 0, "bike_id": "aa9cd3849cf242e0a9a069209a6e44ea", "lon": -77.1405385, "rental_uris": {"android": "https://dc.lft.to/lastmile_qr_scan", "ios": "https://dc.lft.to/lastmile_qr_scan"}, "fusion_lon": 0.0, "is_reserved": 0}, {"lat": 38.867239833333336, "fusion_lat": 0.0, "type": "electric_scooter", "name": "0e68320785f2f181e8656b8553501968", "is_disabled": 0, "bike_id": "0e68320785f2f181e8656b8553501968", "lon": -76.98697816666666, "rental_uris": {"android": "https://dc.lft.to/lastmile_qr_scan", "ios": "https://dc.lft.to/lastmile_qr_scan"}, "fusion_lon": 0.0, "is_reserved": 0}, {"lat": 38.8992935, "fusion_lat": 0.0, "type": "electric_scooter", "name": "bf6537140ecc6de72061d8b37e3f0cec", "is_disabled": 0, "bike_id": "bf6537140ecc6de72061d8b37e3f0cec", "lon": -77.0310205, "rental_uris": {"android": "https://dc.lft.to/lastmile_qr_scan", "ios": "https://dc.lft.to/lastmile_qr_scan"}, "fusion_lon": 0.0, "is_reserved": 0}, {"lat": 38.930019, "fusion_lat": 0.0, "type": "electric_scooter", "name": "d020d77ed93a7b51ef82d6601232e328", "is_disabled": 0, "bike_id": "d020d77ed93a7b51ef82d6601232e328", "lon": -77.01300883333333, "rental_uris": {"android": "https://dc.lft.to/lastmile_qr_scan", "ios": "https://dc.lft.to/lastmile_qr_scan"}, "fusion_lon": 0.0, "is_reserved": 0}, {"lat": 38.921674, "fusion_lat": 0.0, "type": "electric_scooter", "name": "52a918075555950903b26cb836fc2b34", "is_disabled": 0, "bike_id": "52a918075555950903b26cb836fc2b34", "lon": -77.04688633333333, "rental_uris": {"android": "https://dc.lft.to/lastmile_qr_scan", "ios": "https://dc.lft.to/lastmile_qr_scan"}, "fusion_lon": 0.0, "is_reserved": 0}, {"lat": 38.92039183333333, "fusion_lat": 0.0, "type": "electric_scooter", "name": "ef549f9feeb7a2a3be6077c7d572e90b", "is_disabled": 0, "bike_id": "ef549f9feeb7a2a3be6077c7d572e90b", "lon": -77.00308533333333, "rental_uris": {"android": "https://dc.lft.to/lastmile_qr_scan", "ios": "https://dc.lft.to/lastmile_qr_scan"}, "fusion_lon": 0.0, "is_reserved": 0}, {"lat": 38.924883333333334, "fusion_lat": 0.0, "type": "electric_scooter", "name": "0ed93d3f32f1d3a3787252fa51760c98", "is_disabled": 0, "bike_id": "0ed93d3f32f1d3a3787252fa51760c98", "lon": -77.031809, "rental_uris": {"android": "https://dc.lft.to/lastmile_qr_scan", "ios": "https://dc.lft.to/lastmile_qr_scan"}, "fusion_lon": 0.0, "is_reserved": 0}, {"lat": 38.884896, "fusion_lat": 0.0, "type": "electric_scooter", "name": "6e1378e3c6ed7b86ca8c118f6e4ffa1e", "is_disabled": 0, "bike_id": "6e1378e3c6ed7b86ca8c118f6e4ffa1e", "lon": -77.00710533333333, "rental_uris": {"android": "https://dc.lft.to/lastmile_qr_scan", "ios": "https://dc.lft.to/lastmile_qr_scan"}, "fusion_lon": 0.0, "is_reserved": 0}, {"lat": 38.901259, "fusion_lat": 0.0, "type": "electric_scooter", "name": "d523819072e50256d0bfea8b4a114c6e", "is_disabled": 0, "bike_id": "d523819072e50256d0bfea8b4a114c6e", "lon": -77.0497625, "rental_uris": {"android": "https://dc.lft.to/lastmile_qr_scan", "ios": "https://dc.lft.to/lastmile_qr_scan"}, "fusion_lon": 0.0, "is_reserved": 0}, {"lat": 38.917063, "fusion_lat": 0.0, "type": "electric_scooter", "name": "60ecc61e672592b7a0a1c9f23d3de0cd", "is_disabled": 0, "bike_id": "60ecc61e672592b7a0a1c9f23d3de0cd", "lon": -77.0233065, "rental_uris": {"android": "https://dc.lft.to/lastmile_qr_scan", "ios": "https://dc.lft.to/lastmile_qr_scan"}, "fusion_lon": 0.0, "is_reserved": 0}, {"lat": 38.92218616666667, "fusion_lat": 0.0, "type": "electric_bike", "name": "49e17625e27777ec1ea7729b00e5972a", "is_disabled": 0, "bike_id": "49e17625e27777ec1ea7729b00e5972a", "lon": -77.20138383333334, "rental_uris": {"android": "https://dc.lft.to/lastmile_qr_scan", "ios": "https://dc.lft.to/lastmile_qr_scan"}, "fusion_lon": 0.0, "is_reserved": 0}, {"lat": 38.90960233333333, "fusion_lat": 0.0, "type": "electric_bike", "name": "4f8a3f0f77322c5b8a77106f2f6a3987", "is_disabled": 0, "bike_id": "4f8a3f0f77322c5b8a77106f2f6a3987", "lon": -77.04863883333333, "rental_uris": {"android": "https://dc.lft.to/lastmile_qr_scan", "ios": "https://dc.lft.to/lastmile_qr_scan"}, "fusion_lon": 0.0, "is_reserved": 0}, {"lat": 38.9244435, "fusion_lat": 0.0, "type": "electric_scooter", "name": "57c7f7a6067f523678ab728a14509489", "is_disabled": 0, "bike_id": "57c7f7a6067f523678ab728a14509489", "lon": -77.0398905, "rental_uris": {"android": "https://dc.lft.to/lastmile_qr_scan", "ios": "https://dc.lft.to/lastmile_qr_scan"}, "fusion_lon": 0.0, "is_reserved": 0}, {"lat": 38.8987865, "fusion_lat": 0.0, "type": "electric_scooter", "name": "11876bf3c4d5466bb192ab99fcea041a", "is_disabled": 0, "bike_id": "11876bf3c4d5466bb192ab99fcea041a", "lon": -76.9318925, "rental_uris": {"android": "https://dc.lft.to/lastmile_qr_scan", "ios": "https://dc.lft.to/lastmile_qr_scan"}, "fusion_lon": 0.0, "is_reserved": 0}, {"lat": 38.9226875, "fusion_lat": 0.0, "type": "electric_scooter", "name": "d1d03c051059ded66139b65f0b218f96", "is_disabled": 0, "bike_id": "d1d03c051059ded66139b65f0b218f96", "lon": -77.03288016666667, "rental_uris": {"android": "https://dc.lft.to/lastmile_qr_scan", "ios": "https://dc.lft.to/lastmile_qr_scan"}, "fusion_lon": 0.0, "is_reserved": 0}, {"lat": 38.89744983333333, "fusion_lat": 0.0, "type": "electric_scooter", "name": "a13b669e2b052d0de004eff574b04655", "is_disabled": 0, "bike_id": "a13b669e2b052d0de004eff574b04655", "lon": -77.01223166666666, "rental_uris": {"android": "https://dc.lft.to/lastmile_qr_scan", "ios": "https://dc.lft.to/lastmile_qr_scan"}, "fusion_lon": 0.0, "is_reserved": 0}, {"lat": 38.943873833333335, "fusion_lat": 0.0, "type": "electric_scooter", "name": "aaf95009faf5406cdb6e33b07381db03", "is_disabled": 0, "bike_id": "aaf95009faf5406cdb6e33b07381db03", "lon": -77.07700616666666, "rental_uris": {"android": "https://dc.lft.to/lastmile_qr_scan", "ios": "https://dc.lft.to/lastmile_qr_scan"}, "fusion_lon": 0.0, "is_reserved": 0}, {"lat": 38.906947, "fusion_lat": 0.0, "type": "electric_bike", "name": "2adb4a3bd9c51d49ebbdb01b077888f8", "is_disabled": 0, "bike_id": "2adb4a3bd9c51d49ebbdb01b077888f8", "lon": -76.9525185, "rental_uris": {"android": "https://dc.lft.to/lastmile_qr_scan", "ios": "https://dc.lft.to/lastmile_qr_scan"}, "fusion_lon": 0.0, "is_reserved": 0}, {"lat": 38.92421216666666, "fusion_lat": 0.0, "type": "electric_scooter", "name": "1a1238d5060caa1a790ccf47cd48787f", "is_disabled": 0, "bike_id": "1a1238d5060caa1a790ccf47cd48787f", "lon": -77.01945116666667, "rental_uris": {"android": "https://dc.lft.to/lastmile_qr_scan", "ios": "https://dc.lft.to/lastmile_qr_scan"}, "fusion_lon": 0.0, "is_reserved": 0}, {"lat": 38.899183666666666, "fusion_lat": 0.0, "type": "electric_scooter", "name": "35159b90dfb5e52511284b464b2197ea", "is_disabled": 0, "bike_id": "35159b90dfb5e52511284b464b2197ea", "lon": -77.02810183333334, "rental_uris": {"android": "https://dc.lft.to/lastmile_qr_scan", "ios": "https://dc.lft.to/lastmile_qr_scan"}, "fusion_lon": 0.0, "is_reserved": 0}, {"lat": 38.924844, "fusion_lat": 0.0, "type": "electric_scooter", "name": "b301d970311c2c84a982e13e588ad7d2", "is_disabled": 0, "bike_id": "b301d970311c2c84a982e13e588ad7d2", "lon": -77.02205633333334, "rental_uris": {"android": "https://dc.lft.to/lastmile_qr_scan", "ios": "https://dc.lft.to/lastmile_qr_scan"}, "fusion_lon": 0.0, "is_reserved": 0}, {"lat": 38.944677166666665, "fusion_lat": 0.0, "type": "electric_scooter", "name": "378977f90a05ea2fb4e678db18d72318", "is_disabled": 0, "bike_id": "378977f90a05ea2fb4e678db18d72318", "lon": -77.06417183333333, "rental_uris": {"android": "https://dc.lft.to/lastmile_qr_scan", "ios": "https://dc.lft.to/lastmile_qr_scan"}, "fusion_lon": 0.0, "is_reserved": 0}, {"lat": 38.93190216666667, "fusion_lat": 0.0, "type": "electric_scooter", "name": "479f6285a0deb44031e0ed8da8e7c178", "is_disabled": 0, "bike_id": "479f6285a0deb44031e0ed8da8e7c178", "lon": -77.02828666666667, "rental_uris": {"android": "https://dc.lft.to/lastmile_qr_scan", "ios": "https://dc.lft.to/lastmile_qr_scan"}, "fusion_lon": 0.0, "is_reserved": 0}, {"lat": 38.928737166666664, "fusion_lat": 0.0, "type": "electric_scooter", "name": "a158f98d0f91fcefae2e100aced9bb2d", "is_disabled": 0, "bike_id": "a158f98d0f91fcefae2e100aced9bb2d", "lon": -77.02330866666667, "rental_uris": {"android": "https://dc.lft.to/lastmile_qr_scan", "ios": "https://dc.lft.to/lastmile_qr_scan"}, "fusion_lon": 0.0, "is_reserved": 0}, {"lat": 38.88465933333333, "fusion_lat": 0.0, "type": "electric_scooter", "name": "bf6845d8ba27379f98bde5d010645fbf", "is_disabled": 0, "bike_id": "bf6845d8ba27379f98bde5d010645fbf", "lon": -76.9497465, "rental_uris": {"android": "https://dc.lft.to/lastmile_qr_scan", "ios": "https://dc.lft.to/lastmile_qr_scan"}, "fusion_lon": 0.0, "is_reserved": 0}, {"lat": 38.917537333333335, "fusion_lat": 0.0, "type": "electric_scooter", "name": "d705a032e00b8c663a1b01c47c38b55a", "is_disabled": 0, "bike_id": "d705a032e00b8c663a1b01c47c38b55a", "lon": -77.02818766666667, "rental_uris": {"android": "https://dc.lft.to/lastmile_qr_scan", "ios": "https://dc.lft.to/lastmile_qr_scan"}, "fusion_lon": 0.0, "is_reserved": 0}, {"lat": 38.92370016666667, "fusion_lat": 0.0, "type": "electric_scooter", "name": "eef5c41e4e4156554ec6a32f4b2c1e63", "is_disabled": 0, "bike_id": "eef5c41e4e4156554ec6a32f4b2c1e63", "lon": -77.01916516666667, "rental_uris": {"android": "https://dc.lft.to/lastmile_qr_scan", "ios": "https://dc.lft.to/lastmile_qr_scan"}, "fusion_lon": 0.0, "is_reserved": 0}, {"lat": 38.917160833333334, "fusion_lat": 0.0, "type": "electric_scooter", "name": "d7d81abcfa4fb9a8eba6b5c814b482a7", "is_disabled": 0, "bike_id": "d7d81abcfa4fb9a8eba6b5c814b482a7", "lon": -77.030378, "rental_uris": {"android": "https://dc.lft.to/lastmile_qr_scan", "ios": "https://dc.lft.to/lastmile_qr_scan"}, "fusion_lon": 0.0, "is_reserved": 0}, {"lat": 38.913635666666664, "fusion_lat": 0.0, "type": "electric_scooter", "name": "d827d828006caa7571fca4b2b26891f0", "is_disabled": 0, "bike_id": "d827d828006caa7571fca4b2b26891f0", "lon": -77.07227883333333, "rental_uris": {"android": "https://dc.lft.to/lastmile_qr_scan", "ios": "https://dc.lft.to/lastmile_qr_scan"}, "fusion_lon": 0.0, "is_reserved": 0}, {"lat": 38.89228033333333, "fusion_lat": 0.0, "type": "electric_scooter", "name": "609856aed671e9cdf56baef946724d87", "is_disabled": 0, "bike_id": "609856aed671e9cdf56baef946724d87", "lon": -77.04988733333333, "rental_uris": {"android": "https://dc.lft.to/lastmile_qr_scan", "ios": "https://dc.lft.to/lastmile_qr_scan"}, "fusion_lon": 0.0, "is_reserved": 0}, {"lat": 38.9141315, "fusion_lat": 0.0, "type": "electric_scooter", "name": "78b58cf4fbdcd699b50609ce09d40399", "is_disabled": 0, "bike_id": "78b58cf4fbdcd699b50609ce09d40399", "lon": -77.0258405, "rental_uris": {"android": "https://dc.lft.to/lastmile_qr_scan", "ios": "https://dc.lft.to/lastmile_qr_scan"}, "fusion_lon": 0.0, "is_reserved": 0}, {"lat": 38.90552366666667, "fusion_lat": 0.0, "type": "electric_scooter", "name": "108d0c97ff5b7a68251ad255f2c7dd44", "is_disabled": 0, "bike_id": "108d0c97ff5b7a68251ad255f2c7dd44", "lon": -77.03463483333333, "rental_uris": {"android": "https://dc.lft.to/lastmile_qr_scan", "ios": "https://dc.lft.to/lastmile_qr_scan"}, "fusion_lon": 0.0, "is_reserved": 0}, {"lat": 38.9382345, "fusion_lat": 0.0, "type": "electric_scooter", "name": "e74a501d69a61cb8e4c875aa41c6e11b", "is_disabled": 0, "bike_id": "e74a501d69a61cb8e4c875aa41c6e11b", "lon": -77.05989316666667, "rental_uris": {"android": "https://dc.lft.to/lastmile_qr_scan", "ios": "https://dc.lft.to/lastmile_qr_scan"}, "fusion_lon": 0.0, "is_reserved": 0}, {"lat": 38.91382083333333, "fusion_lat": 0.0, "type": "electric_scooter", "name": "5983775cdba12ec6dcacafbceb854a89", "is_disabled": 0, "bike_id": "5983775cdba12ec6dcacafbceb854a89", "lon": -77.04138033333334, "rental_uris": {"android": "https://dc.lft.to/lastmile_qr_scan", "ios": "https://dc.lft.to/lastmile_qr_scan"}, "fusion_lon": 0.0, "is_reserved": 0}, {"lat": 38.902036333333335, "fusion_lat": 0.0, "type": "electric_scooter", "name": "05d4b8cc1e9677ec70d8a695f57a1562", "is_disabled": 0, "bike_id": "05d4b8cc1e9677ec70d8a695f57a1562", "lon": -77.06115366666667, "rental_uris": {"android": "https://dc.lft.to/lastmile_qr_scan", "ios": "https://dc.lft.to/lastmile_qr_scan"}, "fusion_lon": 0.0, "is_reserved": 0}, {"lat": 38.93893383333333, "fusion_lat": 0.0, "type": "electric_scooter", "name": "b8c54e4b120848e8639565d58af0fd71", "is_disabled": 0, "bike_id": "b8c54e4b120848e8639565d58af0fd71", "lon": -77.02488416666667, "rental_uris": {"android": "https://dc.lft.to/lastmile_qr_scan", "ios": "https://dc.lft.to/lastmile_qr_scan"}, "fusion_lon": 0.0, "is_reserved": 0}, {"lat": 38.932364, "fusion_lat": 0.0, "type": "electric_bike", "name": "5eeca31ef7429ecc3075d9cadbc3ef9c", "is_disabled": 0, "bike_id": "5eeca31ef7429ecc3075d9cadbc3ef9c", "lon": -76.97423666666667, "rental_uris": {"android": "https://dc.lft.to/lastmile_qr_scan", "ios": "https://dc.lft.to/lastmile_qr_scan"}, "fusion_lon": 0.0, "is_reserved": 0}, {"lat": 38.90390166666667, "fusion_lat": 0.0, "type": "electric_scooter", "name": "629dfaa29545fa2449ff2122467b1d59", "is_disabled": 0, "bike_id": "629dfaa29545fa2449ff2122467b1d59", "lon": -77.04220866666667, "rental_uris": {"android": "https://dc.lft.to/lastmile_qr_scan", "ios": "https://dc.lft.to/lastmile_qr_scan"}, "fusion_lon": 0.0, "is_reserved": 0}, {"lat": 38.8749335, "fusion_lat": 0.0, "type": "electric_bike", "name": "73381d2e6c1cec8b0f5a75ccf70cc323", "is_disabled": 0, "bike_id": "73381d2e6c1cec8b0f5a75ccf70cc323", "lon": -77.21126683333334, "rental_uris": {"android": "https://dc.lft.to/lastmile_qr_scan", "ios": "https://dc.lft.to/lastmile_qr_scan"}, "fusion_lon": 0.0, "is_reserved": 0}, {"lat": 38.95054666666667, "fusion_lat": 0.0, "type": "electric_bike", "name": "0ee945c6c6aee25e091b907ada8db978", "is_disabled": 0, "bike_id": "0ee945c6c6aee25e091b907ada8db978", "lon": -77.013882, "rental_uris": {"android": "https://dc.lft.to/lastmile_qr_scan", "ios": "https://dc.lft.to/lastmile_qr_scan"}, "fusion_lon": 0.0, "is_reserved": 0}, {"lat": 38.885017166666664, "fusion_lat": 0.0, "type": "electric_bike", "name": "62e6644787ead1161d9ce2993480adaf", "is_disabled": 0, "bike_id": "62e6644787ead1161d9ce2993480adaf", "lon": -76.99712183333334, "rental_uris": {"android": "https://dc.lft.to/lastmile_qr_scan", "ios": "https://dc.lft.to/lastmile_qr_scan"}, "fusion_lon": 0.0, "is_reserved": 0}, {"lat": 38.900276166666664, "fusion_lat": 0.0, "type": "electric_scooter", "name": "3aaa52c8cc2e2d214fbbf5c88f5892f5", "is_disabled": 0, "bike_id": "3aaa52c8cc2e2d214fbbf5c88f5892f5", "lon": -77.03169583333333, "rental_uris": {"android": "https://dc.lft.to/lastmile_qr_scan", "ios": "https://dc.lft.to/lastmile_qr_scan"}, "fusion_lon": 0.0, "is_reserved": 0}, {"lat": 38.896156833333336, "fusion_lat": 0.0, "type": "electric_bike", "name": "aacc134560fc61371ddbc8bd40cfe071", "is_disabled": 0, "bike_id": "aacc134560fc61371ddbc8bd40cfe071", "lon": -76.90734683333334, "rental_uris": {"android": "https://dc.lft.to/lastmile_qr_scan", "ios": "https://dc.lft.to/lastmile_qr_scan"}, "fusion_lon": 0.0, "is_reserved": 0}, {"lat": 38.93432466666667, "fusion_lat": 0.0, "type": "electric_scooter", "name": "1e092f24c2689d8e51870e5b0d733c6a", "is_disabled": 0, "bike_id": "1e092f24c2689d8e51870e5b0d733c6a", "lon": -77.05585683333334, "rental_uris": {"android": "https://dc.lft.to/lastmile_qr_scan", "ios": "https://dc.lft.to/lastmile_qr_scan"}, "fusion_lon": 0.0, "is_reserved": 0}, {"lat": 38.933694833333334, "fusion_lat": 0.0, "type": "electric_scooter", "name": "662c1ad5ee9fc2bc55cc0c47bc6a5a02", "is_disabled": 0, "bike_id": "662c1ad5ee9fc2bc55cc0c47bc6a5a02", "lon": -77.05714416666666, "rental_uris": {"android": "https://dc.lft.to/lastmile_qr_scan", "ios": "https://dc.lft.to/lastmile_qr_scan"}, "fusion_lon": 0.0, "is_reserved": 0}, {"lat": 38.910690833333334, "fusion_lat": 0.0, "type": "electric_scooter", "name": "7f995dfa0b5e3ebf525ccbdd6f68619b", "is_disabled": 0, "bike_id": "7f995dfa0b5e3ebf525ccbdd6f68619b", "lon": -76.9866085, "rental_uris": {"android": "https://dc.lft.to/lastmile_qr_scan", "ios": "https://dc.lft.to/lastmile_qr_scan"}, "fusion_lon": 0.0, "is_reserved": 0}, {"lat": 38.931518, "fusion_lat": 0.0, "type": "electric_scooter", "name": "01011e54197ac769eba7cbca4f0f14ef", "is_disabled": 0, "bike_id": "01011e54197ac769eba7cbca4f0f14ef", "lon": -77.056784, "rental_uris": {"android": "https://dc.lft.to/lastmile_qr_scan", "ios": "https://dc.lft.to/lastmile_qr_scan"}, "fusion_lon": 0.0, "is_reserved": 0}, {"lat": 38.8985085, "fusion_lat": 0.0, "type": "electric_scooter", "name": "339c63df8b38035361eabd13ab90b97f", "is_disabled": 0, "bike_id": "339c63df8b38035361eabd13ab90b97f", "lon": -77.02632166666666, "rental_uris": {"android": "https://dc.lft.to/lastmile_qr_scan", "ios": "https://dc.lft.to/lastmile_qr_scan"}, "fusion_lon": 0.0, "is_reserved": 0}, {"lat": 38.88502483333333, "fusion_lat": 0.0, "type": "electric_scooter", "name": "a22c1c7c8fdc8a7f4a6c0c093b1eeede", "is_disabled": 0, "bike_id": "a22c1c7c8fdc8a7f4a6c0c093b1eeede", "lon": -77.00892016666667, "rental_uris": {"android": "https://dc.lft.to/lastmile_qr_scan", "ios": "https://dc.lft.to/lastmile_qr_scan"}, "fusion_lon": 0.0, "is_reserved": 0}, {"lat": 38.926293666666666, "fusion_lat": 0.0, "type": "electric_scooter", "name": "cacacf59266fb911c999cbdf1d578196", "is_disabled": 0, "bike_id": "cacacf59266fb911c999cbdf1d578196", "lon": -77.04225283333334, "rental_uris": {"android": "https://dc.lft.to/lastmile_qr_scan", "ios": "https://dc.lft.to/lastmile_qr_scan"}, "fusion_lon": 0.0, "is_reserved": 0}, {"lat": 38.864507, "fusion_lat": 0.0, "type": "electric_bike", "name": "2011bc6597df0fbed5deca6ee3128637", "is_disabled": 0, "bike_id": "2011bc6597df0fbed5deca6ee3128637", "lon": -77.10686716666666, "rental_uris": {"android": "https://dc.lft.to/lastmile_qr_scan", "ios": "https://dc.lft.to/lastmile_qr_scan"}, "fusion_lon": 0.0, "is_reserved": 0}, {"lat": 38.915290166666665, "fusion_lat": 0.0, "type": "electric_scooter", "name": "fcf3f73fec6e05bb95b5184f3bb3b7e2", "is_disabled": 0, "bike_id": "fcf3f73fec6e05bb95b5184f3bb3b7e2", "lon": -77.0384275, "rental_uris": {"android": "https://dc.lft.to/lastmile_qr_scan", "ios": "https://dc.lft.to/lastmile_qr_scan"}, "fusion_lon": 0.0, "is_reserved": 0}, {"lat": 38.91841733333333, "fusion_lat": 0.0, "type": "electric_scooter", "name": "e0bb4ff0a57d430426a0adb6b2232bb1", "is_disabled": 0, "bike_id": "e0bb4ff0a57d430426a0adb6b2232bb1", "lon": -77.03211766666666, "rental_uris": {"android": "https://dc.lft.to/lastmile_qr_scan", "ios": "https://dc.lft.to/lastmile_qr_scan"}, "fusion_lon": 0.0, "is_reserved": 0}, {"lat": 38.9112165, "fusion_lat": 0.0, "type": "electric_scooter", "name": "8a50059cbbff8c2d4b03a873ed05d79a", "is_disabled": 0, "bike_id": "8a50059cbbff8c2d4b03a873ed05d79a", "lon": -77.03305683333333, "rental_uris": {"android": "https://dc.lft.to/lastmile_qr_scan", "ios": "https://dc.lft.to/lastmile_qr_scan"}, "fusion_lon": 0.0, "is_reserved": 0}, {"lat": 38.90764, "fusion_lat": 0.0, "type": "electric_scooter", "name": "7a8bcf42bd8cb37537f3701b0ba2a707", "is_disabled": 0, "bike_id": "7a8bcf42bd8cb37537f3701b0ba2a707", "lon": -77.04326566666667, "rental_uris": {"android": "https://dc.lft.to/lastmile_qr_scan", "ios": "https://dc.lft.to/lastmile_qr_scan"}, "fusion_lon": 0.0, "is_reserved": 0}, {"lat": 38.92365266666667, "fusion_lat": 0.0, "type": "electric_scooter", "name": "6964ab98e3de2f027ee44592ba0f2847", "is_disabled": 0, "bike_id": "6964ab98e3de2f027ee44592ba0f2847", "lon": -77.051306, "rental_uris": {"android": "https://dc.lft.to/lastmile_qr_scan", "ios": "https://dc.lft.to/lastmile_qr_scan"}, "fusion_lon": 0.0, "is_reserved": 0}, {"lat": 38.91710966666667, "fusion_lat": 0.0, "type": "electric_scooter", "name": "35e902c2264a0fc5629781cda39d567c", "is_disabled": 0, "bike_id": "35e902c2264a0fc5629781cda39d567c", "lon": -77.0278575, "rental_uris": {"android": "https://dc.lft.to/lastmile_qr_scan", "ios": "https://dc.lft.to/lastmile_qr_scan"}, "fusion_lon": 0.0, "is_reserved": 0}, {"lat": 38.933586, "fusion_lat": 0.0, "type": "electric_scooter", "name": "01332fb7f4710adfeac4803134b9e877", "is_disabled": 0, "bike_id": "01332fb7f4710adfeac4803134b9e877", "lon": -77.0412265, "rental_uris": {"android": "https://dc.lft.to/lastmile_qr_scan", "ios": "https://dc.lft.to/lastmile_qr_scan"}, "fusion_lon": 0.0, "is_reserved": 0}, {"lat": 38.79987883333333, "fusion_lat": 0.0, "type": "electric_bike", "name": "04473715e90636dd747e83aa4803395f", "is_disabled": 0, "bike_id": "04473715e90636dd747e83aa4803395f", "lon": -77.129738, "rental_uris": {"android": "https://dc.lft.to/lastmile_qr_scan", "ios": "https://dc.lft.to/lastmile_qr_scan"}, "fusion_lon": 0.0, "is_reserved": 0}, {"lat": 38.9064595, "fusion_lat": 0.0, "type": "electric_scooter", "name": "1a049b0842cb2de02fcd0ae9312284ee", "is_disabled": 0, "bike_id": "1a049b0842cb2de02fcd0ae9312284ee", "lon": -77.03890916666667, "rental_uris": {"android": "https://dc.lft.to/lastmile_qr_scan", "ios": "https://dc.lft.to/lastmile_qr_scan"}, "fusion_lon": 0.0, "is_reserved": 0}, {"lat": 38.865647, "fusion_lat": 0.0, "type": "electric_scooter", "name": "6c4ecaac9599f60eecd4ad2bc54b8d7e", "is_disabled": 0, "bike_id": "6c4ecaac9599f60eecd4ad2bc54b8d7e", "lon": -76.9833605, "rental_uris": {"android": "https://dc.lft.to/lastmile_qr_scan", "ios": "https://dc.lft.to/lastmile_qr_scan"}, "fusion_lon": 0.0, "is_reserved": 0}, {"lat": 38.942918166666665, "fusion_lat": 0.0, "type": "electric_scooter", "name": "844db6c173b7a4d48b441306ecd7ba06", "is_disabled": 0, "bike_id": "844db6c173b7a4d48b441306ecd7ba06", "lon": -77.02170083333333, "rental_uris": {"android": "https://dc.lft.to/lastmile_qr_scan", "ios": "https://dc.lft.to/lastmile_qr_scan"}, "fusion_lon": 0.0, "is_reserved": 0}, {"lat": 38.903779, "fusion_lat": 0.0, "type": "electric_scooter", "name": "90c726522607fdbd804eca11772d5d30", "is_disabled": 0, "bike_id": "90c726522607fdbd804eca11772d5d30", "lon": -77.04764266666666, "rental_uris": {"android": "https://dc.lft.to/lastmile_qr_scan", "ios": "https://dc.lft.to/lastmile_qr_scan"}, "fusion_lon": 0.0, "is_reserved": 0}, {"lat": 38.924650666666665, "fusion_lat": 0.0, "type": "electric_scooter", "name": "95e87cb57432ad62c4888eb57b1e5511", "is_disabled": 0, "bike_id": "95e87cb57432ad62c4888eb57b1e5511", "lon": -77.02238866666667, "rental_uris": {"android": "https://dc.lft.to/lastmile_qr_scan", "ios": "https://dc.lft.to/lastmile_qr_scan"}, "fusion_lon": 0.0, "is_reserved": 0}, {"lat": 38.92109083333333, "fusion_lat": 0.0, "type": "electric_scooter", "name": "74e688f7f55d6c067764e4c041cc462b", "is_disabled": 0, "bike_id": "74e688f7f55d6c067764e4c041cc462b", "lon": -77.0177275, "rental_uris": {"android": "https://dc.lft.to/lastmile_qr_scan", "ios": "https://dc.lft.to/lastmile_qr_scan"}, "fusion_lon": 0.0, "is_reserved": 0}, {"lat": 38.892241, "fusion_lat": 0.0, "type": "electric_scooter", "name": "32dc0aacf8652560543ae3a153bdbb0b", "is_disabled": 0, "bike_id": "32dc0aacf8652560543ae3a153bdbb0b", "lon": -77.02624033333333, "rental_uris": {"android": "https://dc.lft.to/lastmile_qr_scan", "ios": "https://dc.lft.to/lastmile_qr_scan"}, "fusion_lon": 0.0, "is_reserved": 0}, {"lat": 38.917345166666664, "fusion_lat": 0.0, "type": "electric_scooter", "name": "cb1dd9a7e0d344855d7fb096c4e0b724", "is_disabled": 0, "bike_id": "cb1dd9a7e0d344855d7fb096c4e0b724", "lon": -77.03641466666667, "rental_uris": {"android": "https://dc.lft.to/lastmile_qr_scan", "ios": "https://dc.lft.to/lastmile_qr_scan"}, "fusion_lon": 0.0, "is_reserved": 0}, {"lat": 38.90279966666667, "fusion_lat": 0.0, "type": "electric_scooter", "name": "953beacbfd1934ad1bca4c84875b2cc8", "is_disabled": 0, "bike_id": "953beacbfd1934ad1bca4c84875b2cc8", "lon": -77.03836566666666, "rental_uris": {"android": "https://dc.lft.to/lastmile_qr_scan", "ios": "https://dc.lft.to/lastmile_qr_scan"}, "fusion_lon": 0.0, "is_reserved": 0}, {"lat": 38.9441335, "fusion_lat": 0.0, "type": "electric_scooter", "name": "ba8e4331a383966ebb44a95cf5e39c35", "is_disabled": 0, "bike_id": "ba8e4331a383966ebb44a95cf5e39c35", "lon": -77.05517983333333, "rental_uris": {"android": "https://dc.lft.to/lastmile_qr_scan", "ios": "https://dc.lft.to/lastmile_qr_scan"}, "fusion_lon": 0.0, "is_reserved": 0}, {"lat": 38.902216, "fusion_lat": 0.0, "type": "electric_scooter", "name": "4bf095452c7679f1e92b50192e2d955f", "is_disabled": 0, "bike_id": "4bf095452c7679f1e92b50192e2d955f", "lon": -77.03179533333333, "rental_uris": {"android": "https://dc.lft.to/lastmile_qr_scan", "ios": "https://dc.lft.to/lastmile_qr_scan"}, "fusion_lon": 0.0, "is_reserved": 0}, {"lat": 38.9013015, "fusion_lat": 0.0, "type": "electric_scooter", "name": "4ef3ecc8e634765fd1eedb03d316f50e", "is_disabled": 0, "bike_id": "4ef3ecc8e634765fd1eedb03d316f50e", "lon": -77.04160733333333, "rental_uris": {"android": "https://dc.lft.to/lastmile_qr_scan", "ios": "https://dc.lft.to/lastmile_qr_scan"}, "fusion_lon": 0.0, "is_reserved": 0}, {"lat": 38.925217333333336, "fusion_lat": 0.0, "type": "electric_scooter", "name": "ecee4682ecab3d143d95abb914bc01a6", "is_disabled": 0, "bike_id": "ecee4682ecab3d143d95abb914bc01a6", "lon": -77.022791, "rental_uris": {"android": "https://dc.lft.to/lastmile_qr_scan", "ios": "https://dc.lft.to/lastmile_qr_scan"}, "fusion_lon": 0.0, "is_reserved": 0}, {"lat": 38.9171735, "fusion_lat": 0.0, "type": "electric_scooter", "name": "ea3ea621eedaad76f2d763c57c327622", "is_disabled": 0, "bike_id": "ea3ea621eedaad76f2d763c57c327622", "lon": -77.03855883333334, "rental_uris": {"android": "https://dc.lft.to/lastmile_qr_scan", "ios": "https://dc.lft.to/lastmile_qr_scan"}, "fusion_lon": 0.0, "is_reserved": 0}, {"lat": 38.996788, "fusion_lat": 0.0, "type": "electric_bike", "name": "e446e3bc0008eb7ea6b5d51267101d71", "is_disabled": 0, "bike_id": "e446e3bc0008eb7ea6b5d51267101d71", "lon": -77.03763516666666, "rental_uris": {"android": "https://dc.lft.to/lastmile_qr_scan", "ios": "https://dc.lft.to/lastmile_qr_scan"}, "fusion_lon": 0.0, "is_reserved": 0}, {"lat": 38.926827333333335, "fusion_lat": 0.0, "type": "electric_scooter", "name": "e1f6fee604c15b0e88347d339d8dd4b9", "is_disabled": 0, "bike_id": "e1f6fee604c15b0e88347d339d8dd4b9", "lon": -77.00698033333333, "rental_uris": {"android": "https://dc.lft.to/lastmile_qr_scan", "ios": "https://dc.lft.to/lastmile_qr_scan"}, "fusion_lon": 0.0, "is_reserved": 0}, {"lat": 38.930514, "fusion_lat": 0.0, "type": "electric_scooter", "name": "dc525e86c8a68f3bb3e3f9a4593e2cde", "is_disabled": 0, "bike_id": "dc525e86c8a68f3bb3e3f9a4593e2cde", "lon": -77.02356016666667, "rental_uris": {"android": "https://dc.lft.to/lastmile_qr_scan", "ios": "https://dc.lft.to/lastmile_qr_scan"}, "fusion_lon": 0.0, "is_reserved": 0}, {"lat": 38.896591, "fusion_lat": 0.0, "type": "electric_scooter", "name": "29a70a262cd48e6d73c64446e39642cb", "is_disabled": 0, "bike_id": "29a70a262cd48e6d73c64446e39642cb", "lon": -77.0502375, "rental_uris": {"android": "https://dc.lft.to/lastmile_qr_scan", "ios": "https://dc.lft.to/lastmile_qr_scan"}, "fusion_lon": 0.0, "is_reserved": 0}, {"lat": 38.923119166666666, "fusion_lat": 0.0, "type": "electric_scooter", "name": "d2cbceff7c323c9cde2154423b0045d5", "is_disabled": 0, "bike_id": "d2cbceff7c323c9cde2154423b0045d5", "lon": -77.04207916666667, "rental_uris": {"android": "https://dc.lft.to/lastmile_qr_scan", "ios": "https://dc.lft.to/lastmile_qr_scan"}, "fusion_lon": 0.0, "is_reserved": 0}, {"lat": 38.908848, "fusion_lat": 0.0, "type": "electric_scooter", "name": "80c0d36f3cca9730d8fb7e715f6a009e", "is_disabled": 0, "bike_id": "80c0d36f3cca9730d8fb7e715f6a009e", "lon": -77.04464883333333, "rental_uris": {"android": "https://dc.lft.to/lastmile_qr_scan", "ios": "https://dc.lft.to/lastmile_qr_scan"}, "fusion_lon": 0.0, "is_reserved": 0}, {"lat": 38.91844283333333, "fusion_lat": 0.0, "type": "electric_scooter", "name": "f33e0c42f8ae9c705e36d416a6a290fe", "is_disabled": 0, "bike_id": "f33e0c42f8ae9c705e36d416a6a290fe", "lon": -77.04829816666667, "rental_uris": {"android": "https://dc.lft.to/lastmile_qr_scan", "ios": "https://dc.lft.to/lastmile_qr_scan"}, "fusion_lon": 0.0, "is_reserved": 0}, {"lat": 38.889944166666666, "fusion_lat": 0.0, "type": "electric_scooter", "name": "bca5c2d0cfe7f94fe37e124617437cfc", "is_disabled": 0, "bike_id": "bca5c2d0cfe7f94fe37e124617437cfc", "lon": -76.95423633333333, "rental_uris": {"android": "https://dc.lft.to/lastmile_qr_scan", "ios": "https://dc.lft.to/lastmile_qr_scan"}, "fusion_lon": 0.0, "is_reserved": 0}, {"lat": 38.8956565, "fusion_lat": 0.0, "type": "electric_scooter", "name": "fe447a5864ef1c0001e5cc4b3cad7729", "is_disabled": 0, "bike_id": "fe447a5864ef1c0001e5cc4b3cad7729", "lon": -77.0467555, "rental_uris": {"android": "https://dc.lft.to/lastmile_qr_scan", "ios": "https://dc.lft.to/lastmile_qr_scan"}, "fusion_lon": 0.0, "is_reserved": 0}, {"lat": 38.908987, "fusion_lat": 0.0, "type": "electric_scooter", "name": "aab5efc80a2aa1b658d3fb6296e4709c", "is_disabled": 0, "bike_id": "aab5efc80a2aa1b658d3fb6296e4709c", "lon": -77.04284216666667, "rental_uris": {"android": "https://dc.lft.to/lastmile_qr_scan", "ios": "https://dc.lft.to/lastmile_qr_scan"}, "fusion_lon": 0.0, "is_reserved": 0}, {"lat": 38.913279, "fusion_lat": 0.0, "type": "electric_scooter", "name": "e5cf2f75560a8ea16b0765d94053ab9d", "is_disabled": 0, "bike_id": "e5cf2f75560a8ea16b0765d94053ab9d", "lon": -77.03181716666667, "rental_uris": {"android": "https://dc.lft.to/lastmile_qr_scan", "ios": "https://dc.lft.to/lastmile_qr_scan"}, "fusion_lon": 0.0, "is_reserved": 0}, {"lat": 38.92076566666667, "fusion_lat": 0.0, "type": "electric_scooter", "name": "f3f4ac95d312835dfb561a44463a298b", "is_disabled": 0, "bike_id": "f3f4ac95d312835dfb561a44463a298b", "lon": -77.02438083333334, "rental_uris": {"android": "https://dc.lft.to/lastmile_qr_scan", "ios": "https://dc.lft.to/lastmile_qr_scan"}, "fusion_lon": 0.0, "is_reserved": 0}, {"lat": 38.948952166666665, "fusion_lat": 0.0, "type": "electric_bike", "name": "07eef20388ef447f531cd87523095ac1", "is_disabled": 0, "bike_id": "07eef20388ef447f531cd87523095ac1", "lon": -76.96372866666667, "rental_uris": {"android": "https://dc.lft.to/lastmile_qr_scan", "ios": "https://dc.lft.to/lastmile_qr_scan"}, "fusion_lon": 0.0, "is_reserved": 0}, {"lat": 38.92458933333333, "fusion_lat": 0.0, "type": "electric_scooter", "name": "e5c4dcc9e538bcf77e027182f1d18afc", "is_disabled": 0, "bike_id": "e5c4dcc9e538bcf77e027182f1d18afc", "lon": -77.03300766666666, "rental_uris": {"android": "https://dc.lft.to/lastmile_qr_scan", "ios": "https://dc.lft.to/lastmile_qr_scan"}, "fusion_lon": 0.0, "is_reserved": 0}, {"lat": 38.942304, "fusion_lat": 0.0, "type": "electric_scooter", "name": "7126fac47262e4e1f22d19f336fc59a4", "is_disabled": 0, "bike_id": "7126fac47262e4e1f22d19f336fc59a4", "lon": -77.0138925, "rental_uris": {"android": "https://dc.lft.to/lastmile_qr_scan", "ios": "https://dc.lft.to/lastmile_qr_scan"}, "fusion_lon": 0.0, "is_reserved": 0}, {"lat": 38.904811, "fusion_lat": 0.0, "type": "electric_scooter", "name": "555f31886356d459463163bb7481af54", "is_disabled": 0, "bike_id": "555f31886356d459463163bb7481af54", "lon": -77.04342266666667, "rental_uris": {"android": "https://dc.lft.to/lastmile_qr_scan", "ios": "https://dc.lft.to/lastmile_qr_scan"}, "fusion_lon": 0.0, "is_reserved": 0}, {"lat": 38.91842, "fusion_lat": 0.0, "type": "electric_scooter", "name": "125a061ff09e5886d902c28455dfdd62", "is_disabled": 0, "bike_id": "125a061ff09e5886d902c28455dfdd62", "lon": -77.03174316666667, "rental_uris": {"android": "https://dc.lft.to/lastmile_qr_scan", "ios": "https://dc.lft.to/lastmile_qr_scan"}, "fusion_lon": 0.0, "is_reserved": 0}, {"lat": 38.93867733333333, "fusion_lat": 0.0, "type": "electric_scooter", "name": "7a1508b534264267f77a69decdade103", "is_disabled": 0, "bike_id": "7a1508b534264267f77a69decdade103", "lon": -77.0249015, "rental_uris": {"android": "https://dc.lft.to/lastmile_qr_scan", "ios": "https://dc.lft.to/lastmile_qr_scan"}, "fusion_lon": 0.0, "is_reserved": 0}, {"lat": 38.906978333333335, "fusion_lat": 0.0, "type": "electric_scooter", "name": "0124a7c9cd026ca84f572f97d9b4db04", "is_disabled": 0, "bike_id": "0124a7c9cd026ca84f572f97d9b4db04", "lon": -77.03727933333333, "rental_uris": {"android": "https://dc.lft.to/lastmile_qr_scan", "ios": "https://dc.lft.to/lastmile_qr_scan"}, "fusion_lon": 0.0, "is_reserved": 0}, {"lat": 38.922623, "fusion_lat": 0.0, "type": "electric_scooter", "name": "80dac964bc3100acdd8d37006101e151", "is_disabled": 0, "bike_id": "80dac964bc3100acdd8d37006101e151", "lon": -77.0412425, "rental_uris": {"android": "https://dc.lft.to/lastmile_qr_scan", "ios": "https://dc.lft.to/lastmile_qr_scan"}, "fusion_lon": 0.0, "is_reserved": 0}, {"lat": 38.897903666666664, "fusion_lat": 0.0, "type": "electric_scooter", "name": "d44637cdeeb1e3fbfaa5573ab967bfa5", "is_disabled": 0, "bike_id": "d44637cdeeb1e3fbfaa5573ab967bfa5", "lon": -77.01997866666666, "rental_uris": {"android": "https://dc.lft.to/lastmile_qr_scan", "ios": "https://dc.lft.to/lastmile_qr_scan"}, "fusion_lon": 0.0, "is_reserved": 0}, {"lat": 38.8922955, "fusion_lat": 0.0, "type": "electric_scooter", "name": "b24bb6abb2441e93f69c9b4445b1fc61", "is_disabled": 0, "bike_id": "b24bb6abb2441e93f69c9b4445b1fc61", "lon": -77.04999366666667, "rental_uris": {"android": "https://dc.lft.to/lastmile_qr_scan", "ios": "https://dc.lft.to/lastmile_qr_scan"}, "fusion_lon": 0.0, "is_reserved": 0}, {"lat": 38.90495133333334, "fusion_lat": 0.0, "type": "electric_scooter", "name": "836e203013d95b1ecb64591549a31694", "is_disabled": 0, "bike_id": "836e203013d95b1ecb64591549a31694", "lon": -77.04351183333333, "rental_uris": {"android": "https://dc.lft.to/lastmile_qr_scan", "ios": "https://dc.lft.to/lastmile_qr_scan"}, "fusion_lon": 0.0, "is_reserved": 0}, {"lat": 38.877168833333336, "fusion_lat": 0.0, "type": "electric_scooter", "name": "c18d6bdc6cfbad44c9e587480fc99cf0", "is_disabled": 0, "bike_id": "c18d6bdc6cfbad44c9e587480fc99cf0", "lon": -77.00322116666666, "rental_uris": {"android": "https://dc.lft.to/lastmile_qr_scan", "ios": "https://dc.lft.to/lastmile_qr_scan"}, "fusion_lon": 0.0, "is_reserved": 0}, {"lat": 38.9038225, "fusion_lat": 0.0, "type": "electric_scooter", "name": "76fe1bf602764e74de0e8e87cd8eb506", "is_disabled": 0, "bike_id": "76fe1bf602764e74de0e8e87cd8eb506", "lon": -77.043539, "rental_uris": {"android": "https://dc.lft.to/lastmile_qr_scan", "ios": "https://dc.lft.to/lastmile_qr_scan"}, "fusion_lon": 0.0, "is_reserved": 0}, {"lat": 38.90781916666667, "fusion_lat": 0.0, "type": "electric_scooter", "name": "1ec7b87b89ec8f2b92a2bcf64d095498", "is_disabled": 0, "bike_id": "1ec7b87b89ec8f2b92a2bcf64d095498", "lon": -77.00360083333334, "rental_uris": {"android": "https://dc.lft.to/lastmile_qr_scan", "ios": "https://dc.lft.to/lastmile_qr_scan"}, "fusion_lon": 0.0, "is_reserved": 0}, {"lat": 38.9126785, "fusion_lat": 0.0, "type": "electric_scooter", "name": "58fa620028a4f9ed6f2f6c5bfe288cd5", "is_disabled": 0, "bike_id": "58fa620028a4f9ed6f2f6c5bfe288cd5", "lon": -77.02260383333333, "rental_uris": {"android": "https://dc.lft.to/lastmile_qr_scan", "ios": "https://dc.lft.to/lastmile_qr_scan"}, "fusion_lon": 0.0, "is_reserved": 0}, {"lat": 38.867231333333336, "fusion_lat": 0.0, "type": "electric_scooter", "name": "4ce92abd4f895051e1baf229350c8cba", "is_disabled": 0, "bike_id": "4ce92abd4f895051e1baf229350c8cba", "lon": -76.9869805, "rental_uris": {"android": "https://dc.lft.to/lastmile_qr_scan", "ios": "https://dc.lft.to/lastmile_qr_scan"}, "fusion_lon": 0.0, "is_reserved": 0}, {"lat": 38.916947, "fusion_lat": 0.0, "type": "electric_scooter", "name": "6dfcf4cb0a39f63373486c0237f4439c", "is_disabled": 0, "bike_id": "6dfcf4cb0a39f63373486c0237f4439c", "lon": -77.037344, "rental_uris": {"android": "https://dc.lft.to/lastmile_qr_scan", "ios": "https://dc.lft.to/lastmile_qr_scan"}, "fusion_lon": 0.0, "is_reserved": 0}, {"lat": 38.91718733333333, "fusion_lat": 0.0, "type": "electric_scooter", "name": "5d9c0881f608162818cc2b587179fa34", "is_disabled": 0, "bike_id": "5d9c0881f608162818cc2b587179fa34", "lon": -77.0385795, "rental_uris": {"android": "https://dc.lft.to/lastmile_qr_scan", "ios": "https://dc.lft.to/lastmile_qr_scan"}, "fusion_lon": 0.0, "is_reserved": 0}, {"lat": 38.89966366666667, "fusion_lat": 0.0, "type": "electric_scooter", "name": "98600beabbcf48c86482edff88caebee", "is_disabled": 0, "bike_id": "98600beabbcf48c86482edff88caebee", "lon": -77.0451085, "rental_uris": {"android": "https://dc.lft.to/lastmile_qr_scan", "ios": "https://dc.lft.to/lastmile_qr_scan"}, "fusion_lon": 0.0, "is_reserved": 0}, {"lat": 38.91707733333333, "fusion_lat": 0.0, "type": "electric_scooter", "name": "293366e84b66bbea7509ba4b3ba7c9f1", "is_disabled": 0, "bike_id": "293366e84b66bbea7509ba4b3ba7c9f1", "lon": -77.0290575, "rental_uris": {"android": "https://dc.lft.to/lastmile_qr_scan", "ios": "https://dc.lft.to/lastmile_qr_scan"}, "fusion_lon": 0.0, "is_reserved": 0}, {"lat": 38.88321933333334, "fusion_lat": 0.0, "type": "electric_scooter", "name": "c07c9f4b931fc345f390181b062c5b50", "is_disabled": 0, "bike_id": "c07c9f4b931fc345f390181b062c5b50", "lon": -77.03107516666667, "rental_uris": {"android": "https://dc.lft.to/lastmile_qr_scan", "ios": "https://dc.lft.to/lastmile_qr_scan"}, "fusion_lon": 0.0, "is_reserved": 0}, {"lat": 38.906471, "fusion_lat": 0.0, "type": "electric_scooter", "name": "f247e17054caacb5eac67c1afac68819", "is_disabled": 0, "bike_id": "f247e17054caacb5eac67c1afac68819", "lon": -77.04259566666667, "rental_uris": {"android": "https://dc.lft.to/lastmile_qr_scan", "ios": "https://dc.lft.to/lastmile_qr_scan"}, "fusion_lon": 0.0, "is_reserved": 0}, {"lat": 38.925323, "fusion_lat": 0.0, "type": "electric_scooter", "name": "d3959f7d1f71275ce5624eda4d4a29e2", "is_disabled": 0, "bike_id": "d3959f7d1f71275ce5624eda4d4a29e2", "lon": -77.03521066666667, "rental_uris": {"android": "https://dc.lft.to/lastmile_qr_scan", "ios": "https://dc.lft.to/lastmile_qr_scan"}, "fusion_lon": 0.0, "is_reserved": 0}, {"lat": 38.93878816666667, "fusion_lat": 0.0, "type": "electric_scooter", "name": "07daa6ea7b12dee5ac12c159acebc630", "is_disabled": 0, "bike_id": "07daa6ea7b12dee5ac12c159acebc630", "lon": -77.02918066666666, "rental_uris": {"android": "https://dc.lft.to/lastmile_qr_scan", "ios": "https://dc.lft.to/lastmile_qr_scan"}, "fusion_lon": 0.0, "is_reserved": 0}, {"lat": 38.925137666666664, "fusion_lat": 0.0, "type": "electric_scooter", "name": "f6e0b01b4af9bbf1cc105d8e12bf479c", "is_disabled": 0, "bike_id": "f6e0b01b4af9bbf1cc105d8e12bf479c", "lon": -77.0236035, "rental_uris": {"android": "https://dc.lft.to/lastmile_qr_scan", "ios": "https://dc.lft.to/lastmile_qr_scan"}, "fusion_lon": 0.0, "is_reserved": 0}, {"lat": 38.9013695, "fusion_lat": 0.0, "type": "electric_scooter", "name": "daa64fd26f741225a494ac73de60789f", "is_disabled": 0, "bike_id": "daa64fd26f741225a494ac73de60789f", "lon": -77.03207716666667, "rental_uris": {"android": "https://dc.lft.to/lastmile_qr_scan", "ios": "https://dc.lft.to/lastmile_qr_scan"}, "fusion_lon": 0.0, "is_reserved": 0}, {"lat": 38.878514833333334, "fusion_lat": 0.0, "type": "electric_scooter", "name": "1dbc13df90fcd62415457121648cc280", "is_disabled": 0, "bike_id": "1dbc13df90fcd62415457121648cc280", "lon": -77.0055185, "rental_uris": {"android": "https://dc.lft.to/lastmile_qr_scan", "ios": "https://dc.lft.to/lastmile_qr_scan"}, "fusion_lon": 0.0, "is_reserved": 0}, {"lat": 38.904201666666665, "fusion_lat": 0.0, "type": "electric_scooter", "name": "0e123c455b6fa00aa518f86f0a25d9a2", "is_disabled": 0, "bike_id": "0e123c455b6fa00aa518f86f0a25d9a2", "lon": -77.04354533333333, "rental_uris": {"android": "https://dc.lft.to/lastmile_qr_scan", "ios": "https://dc.lft.to/lastmile_qr_scan"}, "fusion_lon": 0.0, "is_reserved": 0}, {"lat": 38.910078, "fusion_lat": 0.0, "type": "electric_scooter", "name": "cf81b87aed3560817bd0129f08e187d2", "is_disabled": 0, "bike_id": "cf81b87aed3560817bd0129f08e187d2", "lon": -77.0366045, "rental_uris": {"android": "https://dc.lft.to/lastmile_qr_scan", "ios": "https://dc.lft.to/lastmile_qr_scan"}, "fusion_lon": 0.0, "is_reserved": 0}, {"lat": 38.922595, "fusion_lat": 0.0, "type": "electric_scooter", "name": "bace7756ed5004bc87362adb49361d9f", "is_disabled": 0, "bike_id": "bace7756ed5004bc87362adb49361d9f", "lon": -77.03883633333334, "rental_uris": {"android": "https://dc.lft.to/lastmile_qr_scan", "ios": "https://dc.lft.to/lastmile_qr_scan"}, "fusion_lon": 0.0, "is_reserved": 0}, {"lat": 38.903802166666665, "fusion_lat": 0.0, "type": "electric_scooter", "name": "a4603b66cbee6a5ee9c6ddb473746478", "is_disabled": 0, "bike_id": "a4603b66cbee6a5ee9c6ddb473746478", "lon": -77.043409, "rental_uris": {"android": "https://dc.lft.to/lastmile_qr_scan", "ios": "https://dc.lft.to/lastmile_qr_scan"}, "fusion_lon": 0.0, "is_reserved": 0}, {"lat": 38.924429, "fusion_lat": 0.0, "type": "electric_scooter", "name": "1770d2071db26159b08463a6052201a6", "is_disabled": 0, "bike_id": "1770d2071db26159b08463a6052201a6", "lon": -77.03994733333333, "rental_uris": {"android": "https://dc.lft.to/lastmile_qr_scan", "ios": "https://dc.lft.to/lastmile_qr_scan"}, "fusion_lon": 0.0, "is_reserved": 0}, {"lat": 38.932897833333335, "fusion_lat": 0.0, "type": "electric_scooter", "name": "65e3a969ca380485bffd64ca15e25b7e", "is_disabled": 0, "bike_id": "65e3a969ca380485bffd64ca15e25b7e", "lon": -76.98623416666666, "rental_uris": {"android": "https://dc.lft.to/lastmile_qr_scan", "ios": "https://dc.lft.to/lastmile_qr_scan"}, "fusion_lon": 0.0, "is_reserved": 0}, {"lat": 38.984636333333334, "fusion_lat": 0.0, "type": "electric_bike", "name": "10257dcd613bbc7f4b55d8f2031bd193", "is_disabled": 0, "bike_id": "10257dcd613bbc7f4b55d8f2031bd193", "lon": -76.97054583333333, "rental_uris": {"android": "https://dc.lft.to/lastmile_qr_scan", "ios": "https://dc.lft.to/lastmile_qr_scan"}, "fusion_lon": 0.0, "is_reserved": 0}, {"lat": 38.872151, "fusion_lat": 0.0, "type": "electric_scooter", "name": "dc5b1c23435ec3d802559cf64d466611", "is_disabled": 0, "bike_id": "dc5b1c23435ec3d802559cf64d466611", "lon": -77.01238716666667, "rental_uris": {"android": "https://dc.lft.to/lastmile_qr_scan", "ios": "https://dc.lft.to/lastmile_qr_scan"}, "fusion_lon": 0.0, "is_reserved": 0}, {"lat": 38.928838666666664, "fusion_lat": 0.0, "type": "electric_scooter", "name": "9c2eceed241d843a80aefad7e7e2b34b", "is_disabled": 0, "bike_id": "9c2eceed241d843a80aefad7e7e2b34b", "lon": -77.033221, "rental_uris": {"android": "https://dc.lft.to/lastmile_qr_scan", "ios": "https://dc.lft.to/lastmile_qr_scan"}, "fusion_lon": 0.0, "is_reserved": 0}, {"lat": 38.9119055, "fusion_lat": 0.0, "type": "electric_scooter", "name": "eb27e0aef747837bfc5dda2e7191e7d4", "is_disabled": 0, "bike_id": "eb27e0aef747837bfc5dda2e7191e7d4", "lon": -77.00707116666666, "rental_uris": {"android": "https://dc.lft.to/lastmile_qr_scan", "ios": "https://dc.lft.to/lastmile_qr_scan"}, "fusion_lon": 0.0, "is_reserved": 0}, {"lat": 38.94411616666667, "fusion_lat": 0.0, "type": "electric_scooter", "name": "b1027c9f487a39a446ece71d12992cdb", "is_disabled": 0, "bike_id": "b1027c9f487a39a446ece71d12992cdb", "lon": -77.02600366666667, "rental_uris": {"android": "https://dc.lft.to/lastmile_qr_scan", "ios": "https://dc.lft.to/lastmile_qr_scan"}, "fusion_lon": 0.0, "is_reserved": 0}, {"lat": 38.85772983333333, "fusion_lat": 0.0, "type": "electric_bike", "name": "94f6a0aa6ceb2465ed172312a1f54de6", "is_disabled": 0, "bike_id": "94f6a0aa6ceb2465ed172312a1f54de6", "lon": -76.98752766666667, "rental_uris": {"android": "https://dc.lft.to/lastmile_qr_scan", "ios": "https://dc.lft.to/lastmile_qr_scan"}, "fusion_lon": 0.0, "is_reserved": 0}, {"lat": 38.866662166666664, "fusion_lat": 0.0, "type": "electric_scooter", "name": "baf82c3102ca11e47a86dc4d288c6255", "is_disabled": 0, "bike_id": "baf82c3102ca11e47a86dc4d288c6255", "lon": -76.9888555, "rental_uris": {"android": "https://dc.lft.to/lastmile_qr_scan", "ios": "https://dc.lft.to/lastmile_qr_scan"}, "fusion_lon": 0.0, "is_reserved": 0}, {"lat": 38.887322833333336, "fusion_lat": 0.0, "type": "electric_scooter", "name": "5cc0932ecff85ace4abcf94dd10c6c03", "is_disabled": 0, "bike_id": "5cc0932ecff85ace4abcf94dd10c6c03", "lon": -77.02831266666666, "rental_uris": {"android": "https://dc.lft.to/lastmile_qr_scan", "ios": "https://dc.lft.to/lastmile_qr_scan"}, "fusion_lon": 0.0, "is_reserved": 0}, {"lat": 38.844373166666664, "fusion_lat": 0.0, "type": "electric_scooter", "name": "ce6a6f1a5f1db4755fd75713d41b75b2", "is_disabled": 0, "bike_id": "ce6a6f1a5f1db4755fd75713d41b75b2", "lon": -76.99776683333333, "rental_uris": {"android": "https://dc.lft.to/lastmile_qr_scan", "ios": "https://dc.lft.to/lastmile_qr_scan"}, "fusion_lon": 0.0, "is_reserved": 0}, {"lat": 38.851780833333336, "fusion_lat": 0.0, "type": "electric_scooter", "name": "555e14ea21df870719abe900bc36c608", "is_disabled": 0, "bike_id": "555e14ea21df870719abe900bc36c608", "lon": -76.99578266666667, "rental_uris": {"android": "https://dc.lft.to/lastmile_qr_scan", "ios": "https://dc.lft.to/lastmile_qr_scan"}, "fusion_lon": 0.0, "is_reserved": 0}, {"lat": 38.91409066666667, "fusion_lat": 0.0, "type": "electric_scooter", "name": "34c7d6e7833bd4c695c6bc394874516d", "is_disabled": 0, "bike_id": "34c7d6e7833bd4c695c6bc394874516d", "lon": -77.03219766666666, "rental_uris": {"android": "https://dc.lft.to/lastmile_qr_scan", "ios": "https://dc.lft.to/lastmile_qr_scan"}, "fusion_lon": 0.0, "is_reserved": 0}, {"lat": 38.898900833333336, "fusion_lat": 0.0, "type": "electric_scooter", "name": "5aa2954d21acbdbc89450841b764a928", "is_disabled": 0, "bike_id": "5aa2954d21acbdbc89450841b764a928", "lon": -77.00236433333333, "rental_uris": {"android": "https://dc.lft.to/lastmile_qr_scan", "ios": "https://dc.lft.to/lastmile_qr_scan"}, "fusion_lon": 0.0, "is_reserved": 0}, {"lat": 38.79859066666667, "fusion_lat": 0.0, "type": "electric_bike", "name": "68a7cda41913a148b7c0d0e824ca62a3", "is_disabled": 0, "bike_id": "68a7cda41913a148b7c0d0e824ca62a3", "lon": -77.06302066666667, "rental_uris": {"android": "https://dc.lft.to/lastmile_qr_scan", "ios": "https://dc.lft.to/lastmile_qr_scan"}, "fusion_lon": 0.0, "is_reserved": 0}, {"lat": 38.9011905, "fusion_lat": 0.0, "type": "electric_scooter", "name": "a78327af7614c19b8df2c5bb57cb50c9", "is_disabled": 0, "bike_id": "a78327af7614c19b8df2c5bb57cb50c9", "lon": -77.04981116666667, "rental_uris": {"android": "https://dc.lft.to/lastmile_qr_scan", "ios": "https://dc.lft.to/lastmile_qr_scan"}, "fusion_lon": 0.0, "is_reserved": 0}, {"lat": 38.895187666666665, "fusion_lat": 0.0, "type": "electric_scooter", "name": "0c2cf0ba2934e1bc2c8fd5ddecca0155", "is_disabled": 0, "bike_id": "0c2cf0ba2934e1bc2c8fd5ddecca0155", "lon": -77.02272466666666, "rental_uris": {"android": "https://dc.lft.to/lastmile_qr_scan", "ios": "https://dc.lft.to/lastmile_qr_scan"}, "fusion_lon": 0.0, "is_reserved": 0}, {"lat": 38.8747775, "fusion_lat": 0.0, "type": "electric_bike", "name": "c75c78f3aa29317431e2874c18e50378", "is_disabled": 0, "bike_id": "c75c78f3aa29317431e2874c18e50378", "lon": -76.96528316666667, "rental_uris": {"android": "https://dc.lft.to/lastmile_qr_scan", "ios": "https://dc.lft.to/lastmile_qr_scan"}, "fusion_lon": 0.0, "is_reserved": 0}, {"lat": 38.93328983333333, "fusion_lat": 0.0, "type": "electric_scooter", "name": "dc4dd2afbfab37f665fd15b620728ea4", "is_disabled": 0, "bike_id": "dc4dd2afbfab37f665fd15b620728ea4", "lon": -77.03261183333333, "rental_uris": {"android": "https://dc.lft.to/lastmile_qr_scan", "ios": "https://dc.lft.to/lastmile_qr_scan"}, "fusion_lon": 0.0, "is_reserved": 0}, {"lat": 38.915413, "fusion_lat": 0.0, "type": "electric_scooter", "name": "f85cf17fbee85b8041815e6e3fcf98d0", "is_disabled": 0, "bike_id": "f85cf17fbee85b8041815e6e3fcf98d0", "lon": -77.038517, "rental_uris": {"android": "https://dc.lft.to/lastmile_qr_scan", "ios": "https://dc.lft.to/lastmile_qr_scan"}, "fusion_lon": 0.0, "is_reserved": 0}, {"lat": 38.913154666666664, "fusion_lat": 0.0, "type": "electric_scooter", "name": "fb564b5661a03e8cb7d31c2919768825", "is_disabled": 0, "bike_id": "fb564b5661a03e8cb7d31c2919768825", "lon": -77.01434516666667, "rental_uris": {"android": "https://dc.lft.to/lastmile_qr_scan", "ios": "https://dc.lft.to/lastmile_qr_scan"}, "fusion_lon": 0.0, "is_reserved": 0}, {"lat": 38.93153316666667, "fusion_lat": 0.0, "type": "electric_scooter", "name": "f77c4d4a2aed6d602d1fa828ba80bcb5", "is_disabled": 0, "bike_id": "f77c4d4a2aed6d602d1fa828ba80bcb5", "lon": -77.07854333333333, "rental_uris": {"android": "https://dc.lft.to/lastmile_qr_scan", "ios": "https://dc.lft.to/lastmile_qr_scan"}, "fusion_lon": 0.0, "is_reserved": 0}, {"lat": 38.90304783333333, "fusion_lat": 0.0, "type": "electric_scooter", "name": "496a08971673908a7d052a77040171c6", "is_disabled": 0, "bike_id": "496a08971673908a7d052a77040171c6", "lon": -77.0212675, "rental_uris": {"android": "https://dc.lft.to/lastmile_qr_scan", "ios": "https://dc.lft.to/lastmile_qr_scan"}, "fusion_lon": 0.0, "is_reserved": 0}, {"lat": 38.95247483333333, "fusion_lat": 0.0, "type": "electric_scooter", "name": "905b0f0ba114dad75f3a01ab556c1293", "is_disabled": 0, "bike_id": "905b0f0ba114dad75f3a01ab556c1293", "lon": -77.00696433333333, "rental_uris": {"android": "https://dc.lft.to/lastmile_qr_scan", "ios": "https://dc.lft.to/lastmile_qr_scan"}, "fusion_lon": 0.0, "is_reserved": 0}, {"lat": 38.896905333333336, "fusion_lat": 0.0, "type": "electric_scooter", "name": "03aac4f02bdbd7c35d82b4ab0d468721", "is_disabled": 0, "bike_id": "03aac4f02bdbd7c35d82b4ab0d468721", "lon": -77.00487066666666, "rental_uris": {"android": "https://dc.lft.to/lastmile_qr_scan", "ios": "https://dc.lft.to/lastmile_qr_scan"}, "fusion_lon": 0.0, "is_reserved": 0}, {"lat": 38.92677916666667, "fusion_lat": 0.0, "type": "electric_scooter", "name": "01052a73363bf18818c445db39447479", "is_disabled": 0, "bike_id": "01052a73363bf18818c445db39447479", "lon": -77.01557566666666, "rental_uris": {"android": "https://dc.lft.to/lastmile_qr_scan", "ios": "https://dc.lft.to/lastmile_qr_scan"}, "fusion_lon": 0.0, "is_reserved": 0}, {"lat": 39.01226116666667, "fusion_lat": 0.0, "type": "electric_bike", "name": "1fb15975e6039152f40641f3da2b7498", "is_disabled": 0, "bike_id": "1fb15975e6039152f40641f3da2b7498", "lon": -77.11072916666667, "rental_uris": {"android": "https://dc.lft.to/lastmile_qr_scan", "ios": "https://dc.lft.to/lastmile_qr_scan"}, "fusion_lon": 0.0, "is_reserved": 0}, {"lat": 38.93641083333333, "fusion_lat": 0.0, "type": "electric_scooter", "name": "7199e9ba03d9ecd471a9f388a236c900", "is_disabled": 0, "bike_id": "7199e9ba03d9ecd471a9f388a236c900", "lon": -77.06005433333333, "rental_uris": {"android": "https://dc.lft.to/lastmile_qr_scan", "ios": "https://dc.lft.to/lastmile_qr_scan"}, "fusion_lon": 0.0, "is_reserved": 0}, {"lat": 38.92178533333333, "fusion_lat": 0.0, "type": "electric_scooter", "name": "80246912597594e383f897faf7c889e5", "is_disabled": 0, "bike_id": "80246912597594e383f897faf7c889e5", "lon": -77.0210475, "rental_uris": {"android": "https://dc.lft.to/lastmile_qr_scan", "ios": "https://dc.lft.to/lastmile_qr_scan"}, "fusion_lon": 0.0, "is_reserved": 0}, {"lat": 38.9370725, "fusion_lat": 0.0, "type": "electric_scooter", "name": "18481a2adea08f790db49d7837313d7b", "is_disabled": 0, "bike_id": "18481a2adea08f790db49d7837313d7b", "lon": -77.02419416666666, "rental_uris": {"android": "https://dc.lft.to/lastmile_qr_scan", "ios": "https://dc.lft.to/lastmile_qr_scan"}, "fusion_lon": 0.0, "is_reserved": 0}, {"lat": 38.92256883333334, "fusion_lat": 0.0, "type": "electric_scooter", "name": "6a59ba312dda030e4c1834f9a8350d15", "is_disabled": 0, "bike_id": "6a59ba312dda030e4c1834f9a8350d15", "lon": -77.02107683333334, "rental_uris": {"android": "https://dc.lft.to/lastmile_qr_scan", "ios": "https://dc.lft.to/lastmile_qr_scan"}, "fusion_lon": 0.0, "is_reserved": 0}, {"lat": 38.912569166666664, "fusion_lat": 0.0, "type": "electric_scooter", "name": "6cba203a292c8d956a96c07b42746996", "is_disabled": 0, "bike_id": "6cba203a292c8d956a96c07b42746996", "lon": -77.03827583333333, "rental_uris": {"android": "https://dc.lft.to/lastmile_qr_scan", "ios": "https://dc.lft.to/lastmile_qr_scan"}, "fusion_lon": 0.0, "is_reserved": 0}, {"lat": 38.8748565, "fusion_lat": 0.0, "type": "electric_scooter", "name": "a5d34dd16799d19c70a113cc484008ad", "is_disabled": 0, "bike_id": "a5d34dd16799d19c70a113cc484008ad", "lon": -77.00100366666666, "rental_uris": {"android": "https://dc.lft.to/lastmile_qr_scan", "ios": "https://dc.lft.to/lastmile_qr_scan"}, "fusion_lon": 0.0, "is_reserved": 0}, {"lat": 38.89553083333333, "fusion_lat": 0.0, "type": "electric_scooter", "name": "3bb6fd2d9d6c822b424c37e9e41773d6", "is_disabled": 0, "bike_id": "3bb6fd2d9d6c822b424c37e9e41773d6", "lon": -77.0199595, "rental_uris": {"android": "https://dc.lft.to/lastmile_qr_scan", "ios": "https://dc.lft.to/lastmile_qr_scan"}, "fusion_lon": 0.0, "is_reserved": 0}, {"lat": 38.90687166666667, "fusion_lat": 0.0, "type": "electric_scooter", "name": "8144505e7c0fe73437b689ea67c5aa07", "is_disabled": 0, "bike_id": "8144505e7c0fe73437b689ea67c5aa07", "lon": -77.026926, "rental_uris": {"android": "https://dc.lft.to/lastmile_qr_scan", "ios": "https://dc.lft.to/lastmile_qr_scan"}, "fusion_lon": 0.0, "is_reserved": 0}, {"lat": 38.8990585, "fusion_lat": 0.0, "type": "electric_scooter", "name": "13d341887cf3701aa26cb81d29d907b1", "is_disabled": 0, "bike_id": "13d341887cf3701aa26cb81d29d907b1", "lon": -77.0467035, "rental_uris": {"android": "https://dc.lft.to/lastmile_qr_scan", "ios": "https://dc.lft.to/lastmile_qr_scan"}, "fusion_lon": 0.0, "is_reserved": 0}, {"lat": 38.902658, "fusion_lat": 0.0, "type": "electric_scooter", "name": "604c359dbcefc0460c59b4eecb6fb8de", "is_disabled": 0, "bike_id": "604c359dbcefc0460c59b4eecb6fb8de", "lon": -77.0032765, "rental_uris": {"android": "https://dc.lft.to/lastmile_qr_scan", "ios": "https://dc.lft.to/lastmile_qr_scan"}, "fusion_lon": 0.0, "is_reserved": 0}, {"lat": 38.837746333333335, "fusion_lat": 0.0, "type": "electric_bike", "name": "2e9b200af934fed3564aca28812fa42f", "is_disabled": 0, "bike_id": "2e9b200af934fed3564aca28812fa42f", "lon": -77.04997266666666, "rental_uris": {"android": "https://dc.lft.to/lastmile_qr_scan", "ios": "https://dc.lft.to/lastmile_qr_scan"}, "fusion_lon": 0.0, "is_reserved": 0}, {"lat": 38.91707816666667, "fusion_lat": 0.0, "type": "electric_scooter", "name": "fafc54b6e93334e8ba7c0694bc29c615", "is_disabled": 0, "bike_id": "fafc54b6e93334e8ba7c0694bc29c615", "lon": -77.028403, "rental_uris": {"android": "https://dc.lft.to/lastmile_qr_scan", "ios": "https://dc.lft.to/lastmile_qr_scan"}, "fusion_lon": 0.0, "is_reserved": 0}, {"lat": 38.90510583333333, "fusion_lat": 0.0, "type": "electric_scooter", "name": "711f45c9582361dcac7abb2637da86a0", "is_disabled": 0, "bike_id": "711f45c9582361dcac7abb2637da86a0", "lon": -77.06495466666667, "rental_uris": {"android": "https://dc.lft.to/lastmile_qr_scan", "ios": "https://dc.lft.to/lastmile_qr_scan"}, "fusion_lon": 0.0, "is_reserved": 0}, {"lat": 38.901646666666664, "fusion_lat": 0.0, "type": "electric_scooter", "name": "21a8753e70334d5694120a98d8921c46", "is_disabled": 0, "bike_id": "21a8753e70334d5694120a98d8921c46", "lon": -76.93072283333333, "rental_uris": {"android": "https://dc.lft.to/lastmile_qr_scan", "ios": "https://dc.lft.to/lastmile_qr_scan"}, "fusion_lon": 0.0, "is_reserved": 0}, {"lat": 38.9498195, "fusion_lat": 0.0, "type": "electric_bike", "name": "5ef74a2fd2933accc74a044c00f524b5", "is_disabled": 0, "bike_id": "5ef74a2fd2933accc74a044c00f524b5", "lon": -77.080174, "rental_uris": {"android": "https://dc.lft.to/lastmile_qr_scan", "ios": "https://dc.lft.to/lastmile_qr_scan"}, "fusion_lon": 0.0, "is_reserved": 0}, {"lat": 38.90688166666666, "fusion_lat": 0.0, "type": "electric_scooter", "name": "45ae67283551c31c8d27b5040a720dc5", "is_disabled": 0, "bike_id": "45ae67283551c31c8d27b5040a720dc5", "lon": -77.05136333333333, "rental_uris": {"android": "https://dc.lft.to/lastmile_qr_scan", "ios": "https://dc.lft.to/lastmile_qr_scan"}, "fusion_lon": 0.0, "is_reserved": 0}, {"lat": 38.9456385, "fusion_lat": 0.0, "type": "electric_scooter", "name": "7515c1dfcbd684deb3cc91a65bc7586b", "is_disabled": 0, "bike_id": "7515c1dfcbd684deb3cc91a65bc7586b", "lon": -77.07956166666666, "rental_uris": {"android": "https://dc.lft.to/lastmile_qr_scan", "ios": "https://dc.lft.to/lastmile_qr_scan"}, "fusion_lon": 0.0, "is_reserved": 0}, {"lat": 38.919215333333334, "fusion_lat": 0.0, "type": "electric_scooter", "name": "ff2b340dc9c572b701c159553eeb145d", "is_disabled": 0, "bike_id": "ff2b340dc9c572b701c159553eeb145d", "lon": -77.01212166666667, "rental_uris": {"android": "https://dc.lft.to/lastmile_qr_scan", "ios": "https://dc.lft.to/lastmile_qr_scan"}, "fusion_lon": 0.0, "is_reserved": 0},