{"data": {"bikes": [{"is_disabled": 0, "fusion_lon": 0.0, "fusion_lat": 0.0, "lat": 38.93413316666667, "type": "electric_scooter", "lon": -77.019675, "bike_id": "9fd539c75510175c91752bbf0b82617a", "rental_uris": {"android": "https://dc.lft.to/lastmile_qr_scan", "ios": "https://dc.lft.to/lastmile_qr_scan"}, "name": "9fd539c75510175c91752bbf0b82617a", "is_reserved": 0}, {"is_disabled": 0, "fusion_lon": 0.0, "fusion_lat": 0.0, "lat": 38.92813266666667, "type": "electric_scooter", "lon": -77.0234715, "bike_id": "6fcff458da8e15e4b89a416b9a7d28db", "rental_uris": {"android": "https://dc.lft.to/lastmile_qr_scan", "ios": "https://dc.lft.to/lastmile_qr_scan"}, "name": "6fcff458da8e15e4b89a416b9a7d28db", "is_reserved": 0}, {"is_disabled": 0, "fusion_lon": 0.0, "fusion_lat": 0.0, "lat": 38.92490566666667, "type": "electric_scooter", "lon": -77.0393, "bike_id": "ec2094afc43b275fa6709b51ed48f30d", "rental_uris": {"android": "https://dc.lft.to/lastmile_qr_scan", "ios": "https://dc.lft.to/lastmile_qr_scan"}, "name": "ec2094afc43b275fa6709b51ed48f30d", "is_reserved": 0}, {"is_disabled": 0, "fusion_lon": 0.0, "fusion_lat": 0.0, "lat": 38.9077765, "type": "electric_scooter", "lon": -77.03177166666667, "bike_id": "e56934e751d791eaff04bd102f14e75b", "rental_uris": {"android": "https://dc.lft.to/lastmile_qr_scan", "ios": "https://dc.lft.to/lastmile_qr_scan"}, "name": "e56934e751d791eaff04bd102f14e75b", "is_reserved": 0}, {"is_disabled": 0, "fusion_lon": 0.0, "fusion_lat": 0.0, "lat": 38.899742333333336, "type": "electric_scooter", "lon": -77.0161875, "bike_id": "b18572a2f9c61039af8b4faa23b0434d", "rental_uris": {"android": "https://dc.lft.to/lastmile_qr_scan", "ios": "https://dc.lft.to/lastmile_qr_scan"}, "name": "b18572a2f9c61039af8b4faa23b0434d", "is_reserved": 0}, {"is_disabled": 0, "fusion_lon": 0.0, "fusion_lat": 0.0, "lat": 38.8787665, "type": "electric_scooter", "lon": -77.019561, "bike_id": "4be8e01dfe436c8085cac96f44f8bebd", "rental_uris": {"android": "https://dc.lft.to/lastmile_qr_scan", "ios": "https://dc.lft.to/lastmile_qr_scan"}, "name": "4be8e01dfe436c8085cac96f44f8bebd", "is_reserved": 0}, {"is_disabled": 0, "fusion_lon": 0.0, "fusion_lat": 0.0, "lat": 39.05266316666667, "type": "electric_bike", "lon": -77.0438515, "bike_id": "70bb0dd52b47e873b3a11083f716991f", "rental_uris": {"android": "https://dc.lft.to/lastmile_qr_scan", "ios": "https://dc.lft.to/lastmile_qr_scan"}, "name": "70bb0dd52b47e873b3a11083f716991f", "is_reserved": 0}, {"is_disabled": 0, "fusion_lon": 0.0, "fusion_lat": 0.0, "lat": 38.90964133333333, "type": "electric_scooter", "lon": -77.03953866666667, "bike_id": "08d71d5f5b969b91e4a4a384d56cedd8", "rental_uris": {"android": "https://dc.lft.to/lastmile_qr_scan", "ios": "https://dc.lft.to/lastmile_qr_scan"}, "name": "08d71d5f5b969b91e4a4a384d56cedd8", "is_reserved": 0}, {"is_disabled": 0, "fusion_lon": 0.0, "fusion_lat": 0.0, "lat": 38.917074166666666, "type": "electric_bike", "lon": -77.095646, "bike_id": "d6f412d5771c35829281570257cd8e31", "rental_uris": {"android": "https://dc.lft.to/lastmile_qr_scan", "ios": "https://dc.lft.to/lastmile_qr_scan"}, "name": "d6f412d5771c35829281570257cd8e31", "is_reserved": 0}, {"is_disabled": 0, "fusion_lon": 0.0, "fusion_lat": 0.0, "lat": 38.9336475, "type": "electric_scooter", "lon": -77.05751283333333, "bike_id": "3ac58d4f1b8dff2872c762db30c37ded", "rental_uris": {"android": "https://dc.lft.to/lastmile_qr_scan", "ios": "https://dc.lft.to/lastmile_qr_scan"}, "name": "3ac58d4f1b8dff2872c762db30c37ded", "is_reserved": 0}, {"is_disabled": 0, "fusion_lon": 0.0, "fusion_lat": 0.0, "lat": 38.948943166666666, "type": "electric_bike", "lon": -76.963796, "bike_id": "00fbb4747147a27c26d9785d30481c6d", "rental_uris": {"android": "https://dc.lft.to/lastmile_qr_scan", "ios": "https://dc.lft.to/lastmile_qr_scan"}, "name": "00fbb4747147a27c26d9785d30481c6d", "is_reserved": 0}, {"is_disabled": 0, "fusion_lon": 0.0, "fusion_lat": 0.0, "lat": 38.9813665, "type": "electric_bike", "lon": -77.00771333333333, "bike_id": "0dc2df517c55a68f138ff7a284aa0324", "rental_uris": {"android": "https://dc.lft.to/lastmile_qr_scan", "ios": "https://dc.lft.to/lastmile_qr_scan"}, "name": "0dc2df517c55a68f138ff7a284aa0324", "is_reserved": 0}, {"is_disabled": 0, "fusion_lon": 0.0, "fusion_lat": 0.0, "lat": 38.877760333333335, "type": "electric_scooter", "lon": -77.01433033333333, "bike_id": "0ad04d7d43d789320bd32b3a039a8545", "rental_uris": {"android": "https://dc.lft.to/lastmile_qr_scan", "ios": "https://dc.lft.to/lastmile_qr_scan"}, "name": "0ad04d7d43d789320bd32b3a039a8545", "is_reserved": 0}, {"is_disabled": 0, "fusion_lon": 0.0, "fusion_lat": 0.0, "lat": 38.900294833333334, "type": "electric_scooter", "lon": -77.00753233333333, "bike_id": "bfaf6b782795de3315dd7e34f4b70478", "rental_uris": {"android": "https://dc.lft.to/lastmile_qr_scan", "ios": "https://dc.lft.to/lastmile_qr_scan"}, "name": "bfaf6b782795de3315dd7e34f4b70478", "is_reserved": 0}, {"is_disabled": 0, "fusion_lon": 0.0, "fusion_lat": 0.0, "lat": 38.926036833333335, "type": "electric_scooter", "lon": -77.02154183333333, "bike_id": "75955da1442ff1d5598add136d62ee85", "rental_uris": {"android": "https://dc.lft.to/lastmile_qr_scan", "ios": "https://dc.lft.to/lastmile_qr_scan"}, "name": "75955da1442ff1d5598add136d62ee85", "is_reserved": 0}, {"is_disabled": 0, "fusion_lon": 0.0, "fusion_lat": 0.0, "lat": 38.91812866666667, "type": "electric_scooter", "lon": -77.04157766666667, "bike_id": "e5b4dffe07b24dec152fed68c7cd6d55", "rental_uris": {"android": "https://dc.lft.to/lastmile_qr_scan", "ios": "https://dc.lft.to/lastmile_qr_scan"}, "name": "e5b4dffe07b24dec152fed68c7cd6d55", "is_reserved": 0}, {"is_disabled": 0, "fusion_lon": 0.0, "fusion_lat": 0.0, "lat": 38.84885416666667, "type": "electric_scooter", "lon": -77.005187, "bike_id": "5839a9154e06e7cbfeb0735fc4c33327", "rental_uris": {"android": "https://dc.lft.to/lastmile_qr_scan", "ios": "https://dc.lft.to/lastmile_qr_scan"}, "name": "5839a9154e06e7cbfeb0735fc4c33327", "is_reserved": 0}, {"is_disabled": 0, "fusion_lon": 0.0, "fusion_lat": 0.0, "lat": 38.89652066666667, "type": "electric_scooter", "lon": -77.04334883333334, "bike_id": "586f25ade3413f1fe380da487108ee87", "rental_uris": {"android": "https://dc.lft.to/lastmile_qr_scan", "ios": "https://dc.lft.to/lastmile_qr_scan"}, "name": "586f25ade3413f1fe380da487108ee87", "is_reserved": 0}, {"is_disabled": 0, "fusion_lon": 0.0, "fusion_lat": 0.0, "lat": 38.90221666666667, "type": "electric_scooter", "lon": -77.02368183333333, "bike_id": "eec52589312ec6c67dacb4d7fd963783", "rental_uris": {"android": "https://dc.lft.to/lastmile_qr_scan", "ios": "https://dc.lft.to/lastmile_qr_scan"}, "name": "eec52589312ec6c67dacb4d7fd963783", "is_reserved": 0}, {"is_disabled": 0, "fusion_lon": 0.0, "fusion_lat": 0.0, "lat": 38.9205365, "type": "electric_scooter", "lon": -77.02615566666667, "bike_id": "3750a03e8df6ac32e44ae7ccace443bf", "rental_uris": {"android": "https://dc.lft.to/lastmile_qr_scan", "ios": "https://dc.lft.to/lastmile_qr_scan"}, "name": "3750a03e8df6ac32e44ae7ccace443bf", "is_reserved": 0}, {"is_disabled": 0, "fusion_lon": 0.0, "fusion_lat": 0.0, "lat": 38.903625166666664, "type": "electric_scooter", "lon": -77.06268966666667, "bike_id": "839fdc7db7aec9d09ee113803c144593", "rental_uris": {"android": "https://dc.lft.to/lastmile_qr_scan", "ios": "https://dc.lft.to/lastmile_qr_scan"}, "name": "839fdc7db7aec9d09ee113803c144593", "is_reserved": 0}, {"is_disabled": 0, "fusion_lon": 0.0, "fusion_lat": 0.0, "lat": 38.918595833333335, "type": "electric_scooter", "lon": -77.041791, "bike_id": "ade3db4ee3bc825eda1c00de7638cd4a", "rental_uris": {"android": "https://dc.lft.to/lastmile_qr_scan", "ios": "https://dc.lft.to/lastmile_qr_scan"}, "name": "ade3db4ee3bc825eda1c00de7638cd4a", "is_reserved": 0}, {"is_disabled": 0, "fusion_lon": 0.0, "fusion_lat": 0.0, "lat": 38.9073305, "type": "electric_scooter", "lon": -77.02365616666667, "bike_id": "5cca27969fbb2964181769d35c7b33f9", "rental_uris": {"android": "https://dc.lft.to/lastmile_qr_scan", "ios": "https://dc.lft.to/lastmile_qr_scan"}, "name": "5cca27969fbb2964181769d35c7b33f9", "is_reserved": 0}, {"is_disabled": 0, "fusion_lon": 0.0, "fusion_lat": 0.0, "lat": 38.9196825, "type": "electric_scooter", "lon": -77.0317955, "bike_id": "107a3bb7a9299329b4bfaf0eeeb8900d", "rental_uris": {"android": "https://dc.lft.to/lastmile_qr_scan", "ios": "https://dc.lft.to/lastmile_qr_scan"}, "name": "107a3bb7a9299329b4bfaf0eeeb8900d", "is_reserved": 0}, {"is_disabled": 0, "fusion_lon": 0.0, "fusion_lat": 0.0, "lat": 38.90148033333333, "type": "electric_scooter", "lon": -77.01779983333333, "bike_id": "adf88da949878342b31b1b04b9480633", "rental_uris": {"android": "https://dc.lft.to/lastmile_qr_scan", "ios": "https://dc.lft.to/lastmile_qr_scan"}, "name": "adf88da949878342b31b1b04b9480633", "is_reserved": 0}, {"is_disabled": 0, "fusion_lon": 0.0, "fusion_lat": 0.0, "lat": 38.918253666666665, "type": "electric_scooter", "lon": -77.012117, "bike_id": "25245819423ef4bc4d7ca08abc8746e3", "rental_uris": {"android": "https://dc.lft.to/lastmile_qr_scan", "ios": "https://dc.lft.to/lastmile_qr_scan"}, "name": "25245819423ef4bc4d7ca08abc8746e3", "is_reserved": 0}, {"is_disabled": 0, "fusion_lon": 0.0, "fusion_lat": 0.0, "lat": 38.924710166666664, "type": "electric_scooter", "lon": -77.02986316666667, "bike_id": "14df3ef1ebd900b8ffb12389a316a2b9", "rental_uris": {"android": "https://dc.lft.to/lastmile_qr_scan", "ios": "https://dc.lft.to/lastmile_qr_scan"}, "name": "14df3ef1ebd900b8ffb12389a316a2b9", "is_reserved": 0}, {"is_disabled": 0, "fusion_lon": 0.0, "fusion_lat": 0.0, "lat": 38.8451665, "type": "electric_bike", "lon": -77.07800166666667, "bike_id": "3e2e31c52529cfce0b559ce721e9461e", "rental_uris": {"android": "https://dc.lft.to/lastmile_qr_scan", "ios": "https://dc.lft.to/lastmile_qr_scan"}, "name": "3e2e31c52529cfce0b559ce721e9461e", "is_reserved": 0}, {"is_disabled": 0, "fusion_lon": 0.0, "fusion_lat": 0.0, "lat": 38.9083775, "type": "electric_scooter", "lon": -76.996979, "bike_id": "9332bce89f379ea23967e2b37fce8962", "rental_uris": {"android": "https://dc.lft.to/lastmile_qr_scan", "ios": "https://dc.lft.to/lastmile_qr_scan"}, "name": "9332bce89f379ea23967e2b37fce8962", "is_reserved": 0}, {"is_disabled": 0, "fusion_lon": 0.0, "fusion_lat": 0.0, "lat": 38.917449166666664, "type": "electric_scooter", "lon": -77.036602, "bike_id": "e5a75841f6380f5cea38108cd9b49924", "rental_uris": {"android": "https://dc.lft.to/lastmile_qr_scan", "ios": "https://dc.lft.to/lastmile_qr_scan"}, "name": "e5a75841f6380f5cea38108cd9b49924", "is_reserved": 0}, {"is_disabled": 0, "fusion_lon": 0.0, "fusion_lat": 0.0, "lat": 38.89265016666667, "type": "electric_scooter", "lon": -76.941577, "bike_id": "9708809ec85adf9e6cd7d55562cb5a0d", "rental_uris": {"android": "https://dc.lft.to/lastmile_qr_scan", "ios": "https://dc.lft.to/lastmile_qr_scan"}, "name": "9708809ec85adf9e6cd7d55562cb5a0d", "is_reserved": 0}, {"is_disabled": 0, "fusion_lon": 0.0, "fusion_lat": 0.0, "lat": 38.90973, "type": "electric_scooter", "lon": -77.03629, "bike_id": "50775ae14216e33f32d47b0e9d3d8e2f", "rental_uris": {"android": "https://dc.lft.to/lastmile_qr_scan", "ios": "https://dc.lft.to/lastmile_qr_scan"}, "name": "50775ae14216e33f32d47b0e9d3d8e2f", "is_reserved": 0}, {"is_disabled": 0, "fusion_lon": 0.0, "fusion_lat": 0.0, "lat": 38.89222916666667, "type": "electric_scooter", "lon": -77.01557866666667, "bike_id": "f806527fad21dfa172ec8ef3f0375c7f", "rental_uris": {"android": "https://dc.lft.to/lastmile_qr_scan", "ios": "https://dc.lft.to/lastmile_qr_scan"}, "name": "f806527fad21dfa172ec8ef3f0375c7f", "is_reserved": 0}, {"is_disabled": 0, "fusion_lon": 0.0, "fusion_lat": 0.0, "lat": 38.865059, "type": "electric_scooter", "lon": -76.990039, "bike_id": "a88b46f1d3b3cf6ad761b0582d342442", "rental_uris": {"android": "https://dc.lft.to/lastmile_qr_scan", "ios": "https://dc.lft.to/lastmile_qr_scan"}, "name": "a88b46f1d3b3cf6ad761b0582d342442", "is_reserved": 0}, {"is_disabled": 0, "fusion_lon": 0.0, "fusion_lat": 0.0, "lat": 38.918793, "type": "electric_scooter", "lon": -77.04184083333334, "bike_id": "0151617af41d6e785bafdae3af13250b", "rental_uris": {"android": "https://dc.lft.to/lastmile_qr_scan", "ios": "https://dc.lft.to/lastmile_qr_scan"}, "name": "0151617af41d6e785bafdae3af13250b", "is_reserved": 0}, {"is_disabled": 0, "fusion_lon": 0.0, "fusion_lat": 0.0, "lat": 38.90947233333333, "type": "electric_scooter", "lon": -77.0153295, "bike_id": "9e8b8b0dc46feb56386834c5ea14c9d5", "rental_uris": {"android": "https://dc.lft.to/lastmile_qr_scan", "ios": "https://dc.lft.to/lastmile_qr_scan"}, "name": "9e8b8b0dc46feb56386834c5ea14c9d5", "is_reserved": 0}, {"is_disabled": 0, "fusion_lon": 0.0, "fusion_lat": 0.0, "lat": 38.876304166666664, "type": "electric_scooter", "lon": -76.96527483333334, "bike_id": "232d2edc3c68d33803045bfc55794537", "rental_uris": {"android": "https://dc.lft.to/lastmile_qr_scan", "ios": "https://dc.lft.to/lastmile_qr_scan"}, "name": "232d2edc3c68d33803045bfc55794537", "is_reserved": 0}, {"is_disabled": 0, "fusion_lon": 0.0, "fusion_lat": 0.0, "lat": 38.937128, "type": "electric_scooter", "lon": -77.03262, "bike_id": "ada80dc90b958d155cb0d22721d0ecaa", "rental_uris": {"android": "https://dc.lft.to/lastmile_qr_scan", "ios": "https://dc.lft.to/lastmile_qr_scan"}, "name": "ada80dc90b958d155cb0d22721d0ecaa", "is_reserved": 0}, {"is_disabled": 0, "fusion_lon": 0.0, "fusion_lat": 0.0, "lat": 38.886232, "type": "electric_scooter", "lon": -77.02250983333333, "bike_id": "4649b8769186841ba41134b2e18ec1df", "rental_uris": {"android": "https://dc.lft.to/lastmile_qr_scan", "ios": "https://dc.lft.to/lastmile_qr_scan"}, "name": "4649b8769186841ba41134b2e18ec1df", "is_reserved": 0}, {"is_disabled": 0, "fusion_lon": 0.0, "fusion_lat": 0.0, "lat": 38.899221, "type": "electric_scooter", "lon": -76.93364433333333, "bike_id": "0712c52e455f3d5d8f296fa01cee56f0", "rental_uris": {"android": "https://dc.lft.to/lastmile_qr_scan", "ios": "https://dc.lft.to/lastmile_qr_scan"}, "name": "0712c52e455f3d5d8f296fa01cee56f0", "is_reserved": 0}, {"is_disabled": 0, "fusion_lon": 0.0, "fusion_lat": 0.0, "lat": 38.90500983333333, "type": "electric_scooter", "lon": -77.034404, "bike_id": "dfe8f9d350a4428d8a5ec005ac179e0a", "rental_uris": {"android": "https://dc.lft.to/lastmile_qr_scan", "ios": "https://dc.lft.to/lastmile_qr_scan"}, "name": "dfe8f9d350a4428d8a5ec005ac179e0a", "is_reserved": 0}, {"is_disabled": 0, "fusion_lon": 0.0, "fusion_lat": 0.0, "lat": 38.892230833333336, "type": "electric_scooter", "lon": -77.03182066666666, "bike_id": "baa1f163cf74e69dd8f0fcdf9b8f1ed4", "rental_uris": {"android": "https://dc.lft.to/lastmile_qr_scan", "ios": "https://dc.lft.to/lastmile_qr_scan"}, "name": "baa1f163cf74e69dd8f0fcdf9b8f1ed4", "is_reserved": 0}, {"is_disabled": 0, "fusion_lon": 0.0, "fusion_lat": 0.0, "lat": 38.920950166666664, "type": "electric_scooter", "lon": -77.031715, "bike_id": "1380681f4d70423c85e2aee4e1373870", "rental_uris": {"android": "https://dc.lft.to/lastmile_qr_scan", "ios": "https://dc.lft.to/lastmile_qr_scan"}, "name": "1380681f4d70423c85e2aee4e1373870", "is_reserved": 0}, {"is_disabled": 0, "fusion_lon": 0.0, "fusion_lat": 0.0, "lat": 38.901478833333336, "type": "electric_scooter", "lon": -77.04007866666667, "bike_id": "ea536d6fc0e5680013c53645fcb1324e", "rental_uris": {"android": "https://dc.lft.to/lastmile_qr_scan", "ios": "https://dc.lft.to/lastmile_qr_scan"}, "name": "ea536d6fc0e5680013c53645fcb1324e", "is_reserved": 0}, {"is_disabled": 0, "fusion_lon": 0.0, "fusion_lat": 0.0, "lat": 38.90015416666667, "type": "electric_scooter", "lon": -77.00217766666667, "bike_id": "58e75136e0551ed60ce1efa9c25c8cc7", "rental_uris": {"android": "https://dc.lft.to/lastmile_qr_scan", "ios": "https://dc.lft.to/lastmile_qr_scan"}, "name": "58e75136e0551ed60ce1efa9c25c8cc7", "is_reserved": 0}, {"is_disabled": 0, "fusion_lon": 0.0, "fusion_lat": 0.0, "lat": 38.8873885, "type": "electric_scooter", "lon": -77.01539333333334, "bike_id": "030a5d404017fa6df1e7bd6ecd57fd14", "rental_uris": {"android": "https://dc.lft.to/lastmile_qr_scan", "ios": "https://dc.lft.to/lastmile_qr_scan"}, "name": "030a5d404017fa6df1e7bd6ecd57fd14", "is_reserved": 0}, {"is_disabled": 0, "fusion_lon": 0.0, "fusion_lat": 0.0, "lat": 38.8935265, "type": "electric_scooter", "lon": -76.98465616666667, "bike_id": "9ad1eeb74da289d8195d309b0fc196d7", "rental_uris": {"android": "https://dc.lft.to/lastmile_qr_scan", "ios": "https://dc.lft.to/lastmile_qr_scan"}, "name": "9ad1eeb74da289d8195d309b0fc196d7", "is_reserved": 0}, {"is_disabled": 0, "fusion_lon": 0.0, "fusion_lat": 0.0, "lat": 38.915467666666665, "type": "electric_scooter", "lon": -77.03854966666667, "bike_id": "a53eb9acc2c8f0b38a9258c8dbd90f4d", "rental_uris": {"android": "https://dc.lft.to/lastmile_qr_scan", "ios": "https://dc.lft.to/lastmile_qr_scan"}, "name": "a53eb9acc2c8f0b38a9258c8dbd90f4d", "is_reserved": 0}, {"is_disabled": 0, "fusion_lon": 0.0, "fusion_lat": 0.0, "lat": 38.90179933333334, "type": "electric_scooter", "lon": -77.02589633333334, "bike_id": "9494dbcaa84381870b6c513414e1112f", "rental_uris": {"android": "https://dc.lft.to/lastmile_qr_scan", "ios": "https://dc.lft.to/lastmile_qr_scan"}, "name": "9494dbcaa84381870b6c513414e1112f", "is_reserved": 0}, {"is_disabled": 0, "fusion_lon": 0.0, "fusion_lat": 0.0, "lat": 38.914145, "type": "electric_scooter", "lon": -77.03994216666666, "bike_id": "be9c64a5d90b4bbd2cc3e35bb29ed435", "rental_uris": {"android": "https://dc.lft.to/lastmile_qr_scan", "ios": "https://dc.lft.to/lastmile_qr_scan"}, "name": "be9c64a5d90b4bbd2cc3e35bb29ed435", "is_reserved": 0}, {"is_disabled": 0, "fusion_lon": 0.0, "fusion_lat": 0.0, "lat": 38.907388166666664, "type": "electric_scooter", "lon": -77.0344135, "bike_id": "45ba9d16e2c1a6a4ee1e27376d4ef8e4", "rental_uris": {"android": "https://dc.lft.to/lastmile_qr_scan", "ios": "https://dc.lft.to/lastmile_qr_scan"}, "name": "45ba9d16e2c1a6a4ee1e27376d4ef8e4", "is_reserved": 0}, {"is_disabled": 0, "fusion_lon": 0.0, "fusion_lat": 0.0, "lat": 38.91817483333333, "type": "electric_scooter", "lon": -77.02478316666667, "bike_id": "19c953f34c29a5a6fbba5443f1c6a606", "rental_uris": {"android": "https://dc.lft.to/lastmile_qr_scan", "ios": "https://dc.lft.to/lastmile_qr_scan"}, "name": "19c953f34c29a5a6fbba5443f1c6a606", "is_reserved": 0}, {"is_disabled": 0, "fusion_lon": 0.0, "fusion_lat": 0.0, "lat": 38.924739, "type": "electric_scooter", "lon": -77.02807383333334, "bike_id": "35cbce88cca4dd8869c9ba6e36985d35", "rental_uris": {"android": "https://dc.lft.to/lastmile_qr_scan", "ios": "https://dc.lft.to/lastmile_qr_scan"}, "name": "35cbce88cca4dd8869c9ba6e36985d35", "is_reserved": 0}, {"is_disabled": 0, "fusion_lon": 0.0, "fusion_lat": 0.0, "lat": 38.883363, "type": "electric_scooter", "lon": -77.01631816666666, "bike_id": "4172f1bef2978271abfd8e24811f1084", "rental_uris": {"android": "https://dc.lft.to/lastmile_qr_scan", "ios": "https://dc.lft.to/lastmile_qr_scan"}, "name": "4172f1bef2978271abfd8e24811f1084", "is_reserved": 0}, {"is_disabled": 0, "fusion_lon": 0.0, "fusion_lat": 0.0, "lat": 38.9085745, "type": "electric_scooter", "lon": -76.99802483333333, "bike_id": "4a2cfa613f0f8db35f01f7cc5c149f7b", "rental_uris": {"android": "https://dc.lft.to/lastmile_qr_scan", "ios": "https://dc.lft.to/lastmile_qr_scan"}, "name": "4a2cfa613f0f8db35f01f7cc5c149f7b", "is_reserved": 0}, {"is_disabled": 0, "fusion_lon": 0.0, "fusion_lat": 0.0, "lat": 38.90728, "type": "electric_scooter", "lon": -77.02374666666667, "bike_id": "43a084ceb1e1cd0037f08b4bb0f20d64", "rental_uris": {"android": "https://dc.lft.to/lastmile_qr_scan", "ios": "https://dc.lft.to/lastmile_qr_scan"}, "name": "43a084ceb1e1cd0037f08b4bb0f20d64", "is_reserved": 0}, {"is_disabled": 0, "fusion_lon": 0.0, "fusion_lat": 0.0, "lat": 38.9016235, "type": "electric_scooter", "lon": -76.99375116666667, "bike_id": "16220dc5c14ed660addd64b3f8df6064", "rental_uris": {"android": "https://dc.lft.to/lastmile_qr_scan", "ios": "https://dc.lft.to/lastmile_qr_scan"}, "name": "16220dc5c14ed660addd64b3f8df6064", "is_reserved": 0}, {"is_disabled": 0, "fusion_lon": 0.0, "fusion_lat": 0.0, "lat": 38.917319, "type": "electric_scooter", "lon": -76.99178866666666, "bike_id": "432dbd6bace03e207256ef4a72dcd9ae", "rental_uris": {"android": "https://dc.lft.to/lastmile_qr_scan", "ios": "https://dc.lft.to/lastmile_qr_scan"}, "name": "432dbd6bace03e207256ef4a72dcd9ae", "is_reserved": 0}, {"is_disabled": 0, "fusion_lon": 0.0, "fusion_lat": 0.0, "lat": 38.88572333333333, "type": "electric_scooter", "lon": -77.00067033333333, "bike_id": "181d35fa129182d5cf811c4a6989821d", "rental_uris": {"android": "https://dc.lft.to/lastmile_qr_scan", "ios": "https://dc.lft.to/lastmile_qr_scan"}, "name": "181d35fa129182d5cf811c4a6989821d", "is_reserved": 0}, {"is_disabled": 0, "fusion_lon": 0.0, "fusion_lat": 0.0, "lat": 38.9483305, "type": "electric_scooter", "lon": -77.028243, "bike_id": "db111f5945abd25d0eb96546c1f63b94", "rental_uris": {"android": "https://dc.lft.to/lastmile_qr_scan", "ios": "https://dc.lft.to/lastmile_qr_scan"}, "name": "db111f5945abd25d0eb96546c1f63b94", "is_reserved": 0}, {"is_disabled": 0, "fusion_lon": 0.0, "fusion_lat": 0.0, "lat": 38.9705425, "type": "electric_bike", "lon": -76.96065966666667, "bike_id": "bf1b45316ab232cf327abfba3861f926", "rental_uris": {"android": "https://dc.lft.to/lastmile_qr_scan", "ios": "https://dc.lft.to/lastmile_qr_scan"}, "name": "bf1b45316ab232cf327abfba3861f926", "is_reserved": 0}, {"is_disabled": 0, "fusion_lon": 0.0, "fusion_lat": 0.0, "lat": 38.91584066666667, "type": "electric_scooter", "lon": -77.04682983333333, "bike_id": "4c7f2935629214b2bd3dc75ba6a78f90", "rental_uris": {"android": "https://dc.lft.to/lastmile_qr_scan", "ios": "https://dc.lft.to/lastmile_qr_scan"}, "name": "4c7f2935629214b2bd3dc75ba6a78f90", "is_reserved": 0}, {"is_disabled": 0, "fusion_lon": 0.0, "fusion_lat": 0.0, "lat": 38.91794066666667, "type": "electric_scooter", "lon": -77.03440183333333, "bike_id": "c54f0f406653b60397ed1dc02dd05877", "rental_uris": {"android": "https://dc.lft.to/lastmile_qr_scan", "ios": "https://dc.lft.to/lastmile_qr_scan"}, "name": "c54f0f406653b60397ed1dc02dd05877", "is_reserved": 0}, {"is_disabled": 0, "fusion_lon": 0.0, "fusion_lat": 0.0, "lat": 38.907742666666664, "type": "electric_scooter", "lon": -77.03177366666667, "bike_id": "6e627cca5ffd009b1b22248e9f775019", "rental_uris": {"android": "https://dc.lft.to/lastmile_qr_scan", "ios": "https://dc.lft.to/lastmile_qr_scan"}, "name": "6e627cca5ffd009b1b22248e9f775019", "is_reserved": 0}, {"is_disabled": 0, "fusion_lon": 0.0, "fusion_lat": 0.0, "lat": 38.948106, "type": "electric_bike", "lon": -76.97210916666667, "bike_id": "a13bc2705d72a6e723cada31a3d61675", "rental_uris": {"android": "https://dc.lft.to/lastmile_qr_scan", "ios": "https://dc.lft.to/lastmile_qr_scan"}, "name": "a13bc2705d72a6e723cada31a3d61675", "is_reserved": 0}, {"is_disabled": 0, "fusion_lon": 0.0, "fusion_lat": 0.0, "lat": 38.915826333333335, "type": "electric_scooter", "lon": -77.02001433333334, "bike_id": "d3891a494964519742c98eca7b6cdb4e", "rental_uris": {"android": "https://dc.lft.to/lastmile_qr_scan", "ios": "https://dc.lft.to/lastmile_qr_scan"}, "name": "d3891a494964519742c98eca7b6cdb4e", "is_reserved": 0}, {"is_disabled": 0, "fusion_lon": 0.0, "fusion_lat": 0.0, "lat": 38.9217405, "type": "electric_scooter", "lon": -77.043341, "bike_id": "b480b9f9a79846e79a4107441bce24c5", "rental_uris": {"android": "https://dc.lft.to/lastmile_qr_scan", "ios": "https://dc.lft.to/lastmile_qr_scan"}, "name": "b480b9f9a79846e79a4107441bce24c5", "is_reserved": 0}, {"is_disabled": 0, "fusion_lon": 0.0, "fusion_lat": 0.0, "lat": 38.9120455, "type": "electric_scooter", "lon": -76.98484883333333, "bike_id": "7bc5ab363e5e341659c5149d083a03a0", "rental_uris": {"android": "https://dc.lft.to/lastmile_qr_scan", "ios": "https://dc.lft.to/lastmile_qr_scan"}, "name": "7bc5ab363e5e341659c5149d083a03a0", "is_reserved": 0}, {"is_disabled": 0, "fusion_lon": 0.0, "fusion_lat": 0.0, "lat": 38.892230833333336, "type": "electric_scooter", "lon": -77.02223516666666, "bike_id": "2ea89cde304fd04b027d027b4e7dfa64", "rental_uris": {"android": "https://dc.lft.to/lastmile_qr_scan", "ios": "https://dc.lft.to/lastmile_qr_scan"}, "name": "2ea89cde304fd04b027d027b4e7dfa64", "is_reserved": 0}, {"is_disabled": 0, "fusion_lon": 0.0, "fusion_lat": 0.0, "lat": 38.949829666666666, "type": "electric_scooter", "lon": -77.02705133333333, "bike_id": "69173bda9eb2e8cf276c91424adc3c9f", "rental_uris": {"android": "https://dc.lft.to/lastmile_qr_scan", "ios": "https://dc.lft.to/lastmile_qr_scan"}, "name": "69173bda9eb2e8cf276c91424adc3c9f", "is_reserved": 0}, {"is_disabled": 0, "fusion_lon": 0.0, "fusion_lat": 0.0, "lat": 38.91935016666667, "type": "electric_scooter", "lon": -77.0301805, "bike_id": "f354b1bd5d7b4ed78ef88ec33280f52a", "rental_uris": {"android": "https://dc.lft.to/lastmile_qr_scan", "ios": "https://dc.lft.to/lastmile_qr_scan"}, "name": "f354b1bd5d7b4ed78ef88ec33280f52a", "is_reserved": 0}, {"is_disabled": 0, "fusion_lon": 0.0, "fusion_lat": 0.0, "lat": 38.89171833333333, "type": "electric_scooter", "lon": -77.015399, "bike_id": "9789facc6f1b4384cb9f4150aec88a10", "rental_uris": {"android": "https://dc.lft.to/lastmile_qr_scan", "ios": "https://dc.lft.to/lastmile_qr_scan"}, "name": "9789facc6f1b4384cb9f4150aec88a10", "is_reserved": 0}, {"is_disabled": 0, "fusion_lon": 0.0, "fusion_lat": 0.0, "lat": 38.910371833333336, "type": "electric_scooter", "lon": -77.0137275, "bike_id": "c9102d1c9081a5d25d956bcff0b6c79a", "rental_uris": {"android": "https://dc.lft.to/lastmile_qr_scan", "ios": "https://dc.lft.to/lastmile_qr_scan"}, "name": "c9102d1c9081a5d25d956bcff0b6c79a", "is_reserved": 0}, {"is_disabled": 0, "fusion_lon": 0.0, "fusion_lat": 0.0, "lat": 38.931142333333334, "type": "electric_scooter", "lon": -77.04120266666666, "bike_id": "7353ca377a699153d1fce1cfe85c08a3", "rental_uris": {"android": "https://dc.lft.to/lastmile_qr_scan", "ios": "https://dc.lft.to/lastmile_qr_scan"}, "name": "7353ca377a699153d1fce1cfe85c08a3", "is_reserved": 0}, {"is_disabled": 0, "fusion_lon": 0.0, "fusion_lat": 0.0, "lat": 38.892200333333335, "type": "electric_scooter", "lon": -77.02263183333334, "bike_id": "2f78da7314952486e60090f3f77e07d3", "rental_uris": {"android": "https://dc.lft.to/lastmile_qr_scan", "ios": "https://dc.lft.to/lastmile_qr_scan"}, "name": "2f78da7314952486e60090f3f77e07d3", "is_reserved": 0}, {"is_disabled": 0, "fusion_lon": 0.0, "fusion_lat": 0.0, "lat": 38.865054666666666, "type": "electric_scooter", "lon": -76.99003466666667, "bike_id": "c5972b59f921f8e6e68b6762f9bdc337", "rental_uris": {"android": "https://dc.lft.to/lastmile_qr_scan", "ios": "https://dc.lft.to/lastmile_qr_scan"}, "name": "c5972b59f921f8e6e68b6762f9bdc337", "is_reserved": 0}, {"is_disabled": 0, "fusion_lon": 0.0, "fusion_lat": 0.0, "lat": 38.88890133333334, "type": "electric_scooter", "lon": -77.01552816666667, "bike_id": "71fda9bd6485ab1ceb911a97d5039f2e", "rental_uris": {"android": "https://dc.lft.to/lastmile_qr_scan", "ios": "https://dc.lft.to/lastmile_qr_scan"}, "name": "71fda9bd6485ab1ceb911a97d5039f2e", "is_reserved": 0}, {"is_disabled": 0, "fusion_lon": 0.0, "fusion_lat": 0.0, "lat": 38.8922875, "type": "electric_scooter", "lon": -77.04663316666667, "bike_id": "e1cbbb42144428f845d4c6db03f6f4e4", "rental_uris": {"android": "https://dc.lft.to/lastmile_qr_scan", "ios": "https://dc.lft.to/lastmile_qr_scan"}, "name": "e1cbbb42144428f845d4c6db03f6f4e4", "is_reserved": 0}, {"is_disabled": 0, "fusion_lon": 0.0, "fusion_lat": 0.0, "lat": 38.858089666666665, "type": "electric_scooter", "lon": -76.98656516666667, "bike_id": "6b9533af386fedbd3153c7051d994a4f", "rental_uris": {"android": "https://dc.lft.to/lastmile_qr_scan", "ios": "https://dc.lft.to/lastmile_qr_scan"}, "name": "6b9533af386fedbd3153c7051d994a4f", "is_reserved": 0}, {"is_disabled": 0, "fusion_lon": 0.0, "fusion_lat": 0.0, "lat": 38.92483516666667, "type": "electric_scooter", "lon": -77.05203983333334, "bike_id": "f40eca51fb7d4dec01bda43f226e0d31", "rental_uris": {"android": "https://dc.lft.to/lastmile_qr_scan", "ios": "https://dc.lft.to/lastmile_qr_scan"}, "name": "f40eca51fb7d4dec01bda43f226e0d31", "is_reserved": 0}, {"is_disabled": 0, "fusion_lon": 0.0, "fusion_lat": 0.0, "lat": 38.91309783333333, "type": "electric_bike", "lon": -77.02173966666666, "bike_id": "0a6885a4d35b5227bb1745b4e642e4c7", "rental_uris": {"android": "https://dc.lft.to/lastmile_qr_scan", "ios": "https://dc.lft.to/lastmile_qr_scan"}, "name": "0a6885a4d35b5227bb1745b4e642e4c7", "is_reserved": 0}, {"is_disabled": 0, "fusion_lon": 0.0, "fusion_lat": 0.0, "lat": 38.96757683333333, "type": "electric_bike", "lon": -77.091671, "bike_id": "380494bd2b9a7a2ac45659f5dd8d17c6", "rental_uris": {"android": "https://dc.lft.to/lastmile_qr_scan", "ios": "https://dc.lft.to/lastmile_qr_scan"}, "name": "380494bd2b9a7a2ac45659f5dd8d17c6", "is_reserved": 0}, {"is_disabled": 0, "fusion_lon": 0.0, "fusion_lat": 0.0, "lat": 38.91272766666667, "type": "electric_scooter", "lon": -77.04768466666667, "bike_id": "bacc79a100935bf9ee4380c7166d023b", "rental_uris": {"android": "https://dc.lft.to/lastmile_qr_scan", "ios": "https://dc.lft.to/lastmile_qr_scan"}, "name": "bacc79a100935bf9ee4380c7166d023b", "is_reserved": 0}, {"is_disabled": 0, "fusion_lon": 0.0, "fusion_lat": 0.0, "lat": 38.928261666666664, "type": "electric_scooter", "lon": -77.02256933333334, "bike_id": "4d0c6e950b7c8a2d9e449ff5bb0cea96", "rental_uris": {"android": "https://dc.lft.to/lastmile_qr_scan", "ios": "https://dc.lft.to/lastmile_qr_scan"}, "name": "4d0c6e950b7c8a2d9e449ff5bb0cea96", "is_reserved": 0}, {"is_disabled": 0, "fusion_lon": 0.0, "fusion_lat": 0.0, "lat": 38.901402, "type": "electric_scooter", "lon": -77.01204233333333, "bike_id": "0b5926728470463c60fe3322d96749b1", "rental_uris": {"android": "https://dc.lft.to/lastmile_qr_scan", "ios": "https://dc.lft.to/lastmile_qr_scan"}, "name": "0b5926728470463c60fe3322d96749b1", "is_reserved": 0}, {"is_disabled": 0, "fusion_lon": 0.0, "fusion_lat": 0.0, "lat": 38.912656166666665, "type": "electric_scooter", "lon": -77.01696283333334, "bike_id": "5925fa82186133e97710d3866cd331f1", "rental_uris": {"android": "https://dc.lft.to/lastmile_qr_scan", "ios": "https://dc.lft.to/lastmile_qr_scan"}, "name": "5925fa82186133e97710d3866cd331f1", "is_reserved": 0}, {"is_disabled": 0, "fusion_lon": 0.0, "fusion_lat": 0.0, "lat": 38.89527916666667, "type": "electric_scooter", "lon": -77.02946666666666, "bike_id": "74be5dfa851754f231e6b81afa44fb16", "rental_uris": {"android": "https://dc.lft.to/lastmile_qr_scan", "ios": "https://dc.lft.to/lastmile_qr_scan"}, "name": "74be5dfa851754f231e6b81afa44fb16", "is_reserved": 0}, {"is_disabled": 0, "fusion_lon": 0.0, "fusion_lat": 0.0, "lat": 38.9991965, "type": "electric_bike", "lon": -77.0285325, "bike_id": "c98c58f99f6f045ee27e955ec9a834a2", "rental_uris": {"android": "https://dc.lft.to/lastmile_qr_scan", "ios": "https://dc.lft.to/lastmile_qr_scan"}, "name": "c98c58f99f6f045ee27e955ec9a834a2", "is_reserved": 0}, {"is_disabled": 0, "fusion_lon": 0.0, "fusion_lat": 0.0, "lat": 38.907241666666664, "type": "electric_scooter", "lon": -77.04673133333333, "bike_id": "b98d5e0b097aacbc6ad60b2c6990e579", "rental_uris": {"android": "https://dc.lft.to/lastmile_qr_scan", "ios": "https://dc.lft.to/lastmile_qr_scan"}, "name": "b98d5e0b097aacbc6ad60b2c6990e579", "is_reserved": 0}, {"is_disabled": 0, "fusion_lon": 0.0, "fusion_lat": 0.0, "lat": 39.10566633333333, "type": "electric_bike", "lon": -77.152672, "bike_id": "7313db43cc97d419218e6f57b2e96b02", "rental_uris": {"android": "https://dc.lft.to/lastmile_qr_scan", "ios": "https://dc.lft.to/lastmile_qr_scan"}, "name": "7313db43cc97d419218e6f57b2e96b02", "is_reserved": 0}, {"is_disabled": 0, "fusion_lon": 0.0, "fusion_lat": 0.0, "lat": 38.90419166666667, "type": "electric_scooter", "lon": -77.02566683333333, "bike_id": "9b7d9fc5f1915b24742606de0cebbfd5", "rental_uris": {"android": "https://dc.lft.to/lastmile_qr_scan", "ios": "https://dc.lft.to/lastmile_qr_scan"}, "name": "9b7d9fc5f1915b24742606de0cebbfd5", "is_reserved": 0}, {"is_disabled": 0, "fusion_lon": 0.0, "fusion_lat": 0.0, "lat": 38.9244825, "type": "electric_bike", "lon": -76.96836916666666, "bike_id": "d51a68c9277677a98b2ef790c9da1b0a", "rental_uris": {"android": "https://dc.lft.to/lastmile_qr_scan", "ios": "https://dc.lft.to/lastmile_qr_scan"}, "name": "d51a68c9277677a98b2ef790c9da1b0a", "is_reserved": 0}, {"is_disabled": 0, "fusion_lon": 0.0, "fusion_lat": 0.0, "lat": 38.90019383333333, "type": "electric_scooter", "lon": -77.00212766666667, "bike_id": "f25700756acdf4fd9f3fb6a2a6e17d85", "rental_uris": {"android": "https://dc.lft.to/lastmile_qr_scan", "ios": "https://dc.lft.to/lastmile_qr_scan"}, "name": "f25700756acdf4fd9f3fb6a2a6e17d85", "is_reserved": 0}, {"is_disabled": 0, "fusion_lon": 0.0, "fusion_lat": 0.0, "lat": 38.923807333333336, "type": "electric_scooter", "lon": -77.03133616666666, "bike_id": "b5f2ac7c4162a45a08bc5fdd6d801164", "rental_uris": {"android": "https://dc.lft.to/lastmile_qr_scan", "ios": "https://dc.lft.to/lastmile_qr_scan"}, "name": "b5f2ac7c4162a45a08bc5fdd6d801164", "is_reserved": 0}, {"is_disabled": 0, "fusion_lon": 0.0, "fusion_lat": 0.0, "lat": 38.909411166666665, "type": "electric_scooter", "lon": -77.0321295, "bike_id": "3db8788ba8b32ac66c6bffb40ad2a87b", "rental_uris": {"android": "https://dc.lft.to/lastmile_qr_scan", "ios": "https://dc.lft.to/lastmile_qr_scan"}, "name": "3db8788ba8b32ac66c6bffb40ad2a87b", "is_reserved": 0}, {"is_disabled": 0, "fusion_lon": 0.0, "fusion_lat": 0.0, "lat": 38.925510833333334, "type": "electric_scooter", "lon": -77.0330805, "bike_id": "368eb9de7725d0130e4e787e9e257543", "rental_uris": {"android": "https://dc.lft.to/lastmile_qr_scan", "ios": "https://dc.lft.to/lastmile_qr_scan"}, "name": "368eb9de7725d0130e4e787e9e257543", "is_reserved": 0}, {"is_disabled": 0, "fusion_lon": 0.0, "fusion_lat": 0.0, "lat": 38.8937295, "type": "electric_scooter", "lon": -76.9499395, "bike_id": "0928bcdc1fe8877f4fc4fb99c168e90b", "rental_uris": {"android": "https://dc.lft.to/lastmile_qr_scan", "ios": "https://dc.lft.to/lastmile_qr_scan"}, "name": "0928bcdc1fe8877f4fc4fb99c168e90b", "is_reserved": 0}, {"is_disabled": 0, "fusion_lon": 0.0, "fusion_lat": 0.0, "lat": 38.9363645, "type": "electric_scooter", "lon": -77.03265883333333, "bike_id": "59b9c47325580f86cf0d9a9fa28ed5ac", "rental_uris": {"android": "https://dc.lft.to/lastmile_qr_scan", "ios": "https://dc.lft.to/lastmile_qr_scan"}, "name": "59b9c47325580f86cf0d9a9fa28ed5ac", "is_reserved": 0}, {"is_disabled": 0, "fusion_lon": 0.0, "fusion_lat": 0.0, "lat": 38.92444883333334, "type": "electric_scooter", "lon": -77.04028866666667, "bike_id": "01c87d7f196035fd7543079a41bdd6c6", "rental_uris": {"android": "https://dc.lft.to/lastmile_qr_scan", "ios": "https://dc.lft.to/lastmile_qr_scan"}, "name": "01c87d7f196035fd7543079a41bdd6c6", "is_reserved": 0}, {"is_disabled": 0, "fusion_lon": 0.0, "fusion_lat": 0.0, "lat": 38.887588, "type": "electric_bike", "lon": -76.90084866666666, "bike_id": "8d2041249ebe0f13a3e6cefd49ea525d", "rental_uris": {"android": "https://dc.lft.to/lastmile_qr_scan", "ios": "https://dc.lft.to/lastmile_qr_scan"}, "name": "8d2041249ebe0f13a3e6cefd49ea525d", "is_reserved": 0}, {"is_disabled": 0, "fusion_lon": 0.0, "fusion_lat": 0.0, "lat": 38.89768633333333, "type": "electric_scooter", "lon": -77.02462916666667, "bike_id": "8669b9a52b9a666999d7e46d3514a3b7", "rental_uris": {"android": "https://dc.lft.to/lastmile_qr_scan", "ios": "https://dc.lft.to/lastmile_qr_scan"}, "name": "8669b9a52b9a666999d7e46d3514a3b7", "is_reserved": 0}, {"is_disabled": 0, "fusion_lon": 0.0, "fusion_lat": 0.0, "lat": 38.918105833333335, "type": "electric_scooter", "lon": -77.04004566666667, "bike_id": "2d935cb02a6450bd66ab76a816dc52a5", "rental_uris": {"android": "https://dc.lft.to/lastmile_qr_scan", "ios": "https://dc.lft.to/lastmile_qr_scan"}, "name": "2d935cb02a6450bd66ab76a816dc52a5", "is_reserved": 0}, {"is_disabled": 0, "fusion_lon": 0.0, "fusion_lat": 0.0, "lat": 38.941815166666665, "type": "electric_scooter", "lon": -77.03654, "bike_id": "b4635bb58985a41f863f7687becf4195", "rental_uris": {"android": "https://dc.lft.to/lastmile_qr_scan", "ios": "https://dc.lft.to/lastmile_qr_scan"}, "name": "b4635bb58985a41f863f7687becf4195", "is_reserved": 0}, {"is_disabled": 0, "fusion_lon": 0.0, "fusion_lat": 0.0, "lat": 38.898272666666664, "type": "electric_scooter", "lon": -77.00754933333333, "bike_id": "16355310a2b8ef3d4cacbc5f9522ce2a", "rental_uris": {"android": "https://dc.lft.to/lastmile_qr_scan", "ios": "https://dc.lft.to/lastmile_qr_scan"}, "name": "16355310a2b8ef3d4cacbc5f9522ce2a", "is_reserved": 0}, {"is_disabled": 0, "fusion_lon": 0.0, "fusion_lat": 0.0, "lat": 38.932868, "type": "electric_scooter", "lon": -77.03623783333333, "bike_id": "f04a0fb9e604935fba70351ef25febbd", "rental_uris": {"android": "https://dc.lft.to/lastmile_qr_scan", "ios": "https://dc.lft.to/lastmile_qr_scan"}, "name": "f04a0fb9e604935fba70351ef25febbd", "is_reserved": 0}, {"is_disabled": 0, "fusion_lon": 0.0, "fusion_lat": 0.0, "lat": 38.901963, "type": "electric_scooter", "lon": -77.04779716666667, "bike_id": "84a2909897566cd0343fc4e4c2eb1721", "rental_uris": {"android": "https://dc.lft.to/lastmile_qr_scan", "ios": "https://dc.lft.to/lastmile_qr_scan"}, "name": "84a2909897566cd0343fc4e4c2eb1721", "is_reserved": 0}, {"is_disabled": 0, "fusion_lon": 0.0, "fusion_lat": 0.0, "lat": 38.9564785, "type": "electric_scooter", "lon": -77.01496383333334, "bike_id": "125f7ecf1c067868b6270ab42d7a1152", "rental_uris": {"android": "https://dc.lft.to/lastmile_qr_scan", "ios": "https://dc.lft.to/lastmile_qr_scan"}, "name": "125f7ecf1c067868b6270ab42d7a1152", "is_reserved": 0}, {"is_disabled": 0, "fusion_lon": 0.0, "fusion_lat": 0.0, "lat": 38.918111833333334, "type": "electric_scooter", "lon": -77.026913, "bike_id": "fa193a977a097d662f35516c73180142", "rental_uris": {"android": "https://dc.lft.to/lastmile_qr_scan", "ios": "https://dc.lft.to/lastmile_qr_scan"}, "name": "fa193a977a097d662f35516c73180142", "is_reserved": 0}, {"is_disabled": 0, "fusion_lon": 0.0, "fusion_lat": 0.0, "lat": 38.894866, "type": "electric_scooter", "lon": -77.00213733333334, "bike_id": "2b5ab5bf979effce649be45cd55f1b49", "rental_uris": {"android": "https://dc.lft.to/lastmile_qr_scan", "ios": "https://dc.lft.to/lastmile_qr_scan"}, "name": "2b5ab5bf979effce649be45cd55f1b49", "is_reserved": 0}, {"is_disabled": 0, "fusion_lon": 0.0, "fusion_lat": 0.0, "lat": 38.91351733333333, "type": "electric_scooter", "lon": -77.03204016666666, "bike_id": "4706b72a11d19e3a1930726b6f2ba2e4", "rental_uris": {"android": "https://dc.lft.to/lastmile_qr_scan", "ios": "https://dc.lft.to/lastmile_qr_scan"}, "name": "4706b72a11d19e3a1930726b6f2ba2e4", "is_reserved": 0}, {"is_disabled": 0, "fusion_lon": 0.0, "fusion_lat": 0.0, "lat": 38.9216715, "type": "electric_scooter", "lon": -77.0338245, "bike_id": "04aa42755de17916dece8d2afc67d3b5", "rental_uris": {"android": "https://dc.lft.to/lastmile_qr_scan", "ios": "https://dc.lft.to/lastmile_qr_scan"}, "name": "04aa42755de17916dece8d2afc67d3b5", "is_reserved": 0}, {"is_disabled": 0, "fusion_lon": 0.0, "fusion_lat": 0.0, "lat": 38.918160666666665, "type": "electric_scooter", "lon": -77.02720466666666, "bike_id": "8c9013036bb82f125d8a5faaf0cbd848", "rental_uris": {"android": "https://dc.lft.to/lastmile_qr_scan", "ios": "https://dc.lft.to/lastmile_qr_scan"}, "name": "8c9013036bb82f125d8a5faaf0cbd848", "is_reserved": 0}, {"is_disabled": 0, "fusion_lon": 0.0, "fusion_lat": 0.0, "lat": 38.89496233333333, "type": "electric_scooter", "lon": -77.02211016666666, "bike_id": "999d211f3626355b634b26d678120ed4", "rental_uris": {"android": "https://dc.lft.to/lastmile_qr_scan", "ios": "https://dc.lft.to/lastmile_qr_scan"}, "name": "999d211f3626355b634b26d678120ed4", "is_reserved": 0}, {"is_disabled": 0, "fusion_lon": 0.0, "fusion_lat": 0.0, "lat": 38.875716, "type": "electric_scooter", "lon": -77.0058875, "bike_id": "586472e57e394750bf3e15deec98a21c", "rental_uris": {"android": "https://dc.lft.to/lastmile_qr_scan", "ios": "https://dc.lft.to/lastmile_qr_scan"}, "name": "586472e57e394750bf3e15deec98a21c", "is_reserved": 0}, {"is_disabled": 0, "fusion_lon": 0.0, "fusion_lat": 0.0, "lat": 38.90571083333333, "type": "electric_scooter", "lon": -77.03383266666667, "bike_id": "7ff2529c1182aeb42c85e7ef9c24654a", "rental_uris": {"android": "https://dc.lft.to/lastmile_qr_scan", "ios": "https://dc.lft.to/lastmile_qr_scan"}, "name": "7ff2529c1182aeb42c85e7ef9c24654a", "is_reserved": 0}, {"is_disabled": 0, "fusion_lon": 0.0, "fusion_lat": 0.0, "lat": 38.8930615, "type": "electric_scooter", "lon": -77.019581, "bike_id": "5208534c2a13f78a62d36b31e20783b3", "rental_uris": {"android": "https://dc.lft.to/lastmile_qr_scan", "ios": "https://dc.lft.to/lastmile_qr_scan"}, "name": "5208534c2a13f78a62d36b31e20783b3", "is_reserved": 0}, {"is_disabled": 0, "fusion_lon": 0.0, "fusion_lat": 0.0, "lat": 38.91537816666667, "type": "electric_scooter", "lon": -77.03212316666666, "bike_id": "cbf7e9175e2469feb8ad9fb7cd9e84a0", "rental_uris": {"android": "https://dc.lft.to/lastmile_qr_scan", "ios": "https://dc.lft.to/lastmile_qr_scan"}, "name": "cbf7e9175e2469feb8ad9fb7cd9e84a0", "is_reserved": 0}, {"is_disabled": 0, "fusion_lon": 0.0, "fusion_lat": 0.0, "lat": 38.850660500000004, "type": "electric_scooter", "lon": -76.96528083333334, "bike_id": "93e28b6e87fa7eb30364c565c12d0eba", "rental_uris": {"android": "https://dc.lft.to/lastmile_qr_scan", "ios": "https://dc.lft.to/lastmile_qr_scan"}, "name": "93e28b6e87fa7eb30364c565c12d0eba", "is_reserved": 0}, {"is_disabled": 0, "fusion_lon": 0.0, "fusion_lat": 0.0, "lat": 38.9013075, "type": "electric_scooter", "lon": -77.04156816666666, "bike_id": "e30d5254fc0a64a21e5fea6bd5771c05", "rental_uris": {"android": "https://dc.lft.to/lastmile_qr_scan", "ios": "https://dc.lft.to/lastmile_qr_scan"}, "name": "e30d5254fc0a64a21e5fea6bd5771c05", "is_reserved": 0}, {"is_disabled": 0, "fusion_lon": 0.0, "fusion_lat": 0.0, "lat": 38.89721266666667, "type": "electric_scooter", "lon": -77.02056516666667, "bike_id": "cbd8ea391987df06d8ffc4255334937e", "rental_uris": {"android": "https://dc.lft.to/lastmile_qr_scan", "ios": "https://dc.lft.to/lastmile_qr_scan"}, "name": "cbd8ea391987df06d8ffc4255334937e", "is_reserved": 0}, {"is_disabled": 0, "fusion_lon": 0.0, "fusion_lat": 0.0, "lat": 38.90133483333334, "type": "electric_scooter", "lon": -77.04156033333334, "bike_id": "41580f5175487792012042955699f1ae", "rental_uris": {"android": "https://dc.lft.to/lastmile_qr_scan", "ios": "https://dc.lft.to/lastmile_qr_scan"}, "name": "41580f5175487792012042955699f1ae", "is_reserved": 0}, {"is_disabled": 0, "fusion_lon": 0.0, "fusion_lat": 0.0, "lat": 38.915496, "type": "electric_scooter", "lon": -77.03853816666667, "bike_id": "529cfc6b493e1a5378ed29213ff8b822", "rental_uris": {"android": "https://dc.lft.to/lastmile_qr_scan", "ios": "https://dc.lft.to/lastmile_qr_scan"}, "name": "529cfc6b493e1a5378ed29213ff8b822", "is_reserved": 0}, {"is_disabled": 0, "fusion_lon": 0.0, "fusion_lat": 0.0, "lat": 38.90571533333333, "type": "electric_scooter", "lon": -77.021794, "bike_id": "2d397b53641a047d75f764a94716c1a4", "rental_uris": {"android": "https://dc.lft.to/lastmile_qr_scan", "ios": "https://dc.lft.to/lastmile_qr_scan"}, "name": "2d397b53641a047d75f764a94716c1a4", "is_reserved": 0}, {"is_disabled": 0, "fusion_lon": 0.0, "fusion_lat": 0.0, "lat": 38.90723216666667, "type": "electric_scooter", "lon": -77.0402015, "bike_id": "853333c582ebd80fc452780b59a7c1da", "rental_uris": {"android": "https://dc.lft.to/lastmile_qr_scan", "ios": "https://dc.lft.to/lastmile_qr_scan"}, "name": "853333c582ebd80fc452780b59a7c1da", "is_reserved": 0}, {"is_disabled": 0, "fusion_lon": 0.0, "fusion_lat": 0.0, "lat": 38.83122433333333, "type": "electric_bike", "lon": -77.043222, "bike_id": "cdc0d096db5fa428a3b752748cb6c368", "rental_uris": {"android": "https://dc.lft.to/lastmile_qr_scan", "ios": "https://dc.lft.to/lastmile_qr_scan"}, "name": "cdc0d096db5fa428a3b752748cb6c368", "is_reserved": 0}, {"is_disabled": 0, "fusion_lon": 0.0, "fusion_lat": 0.0, "lat": 38.90027833333333, "type": "electric_scooter", "lon": -76.98814883333333, "bike_id": "c05a3ac3f867e14063c8c2dd3ea901fc", "rental_uris": {"android": "https://dc.lft.to/lastmile_qr_scan", "ios": "https://dc.lft.to/lastmile_qr_scan"}, "name": "c05a3ac3f867e14063c8c2dd3ea901fc", "is_reserved": 0}, {"is_disabled": 0, "fusion_lon": 0.0, "fusion_lat": 0.0, "lat": 38.90739466666667, "type": "electric_scooter", "lon": -77.03440133333334, "bike_id": "6bfea28ada8cac92594ecc6855c1c8e0", "rental_uris": {"android": "https://dc.lft.to/lastmile_qr_scan", "ios": "https://dc.lft.to/lastmile_qr_scan"}, "name": "6bfea28ada8cac92594ecc6855c1c8e0", "is_reserved": 0}, {"is_disabled": 0, "fusion_lon": 0.0, "fusion_lat": 0.0, "lat": 38.82732983333333, "type": "electric_bike", "lon": -77.00861583333334, "bike_id": "57dc2a7a55b5b14fbfd1d4602777abcb", "rental_uris": {"android": "https://dc.lft.to/lastmile_qr_scan", "ios": "https://dc.lft.to/lastmile_qr_scan"}, "name": "57dc2a7a55b5b14fbfd1d4602777abcb", "is_reserved": 0}, {"is_disabled": 0, "fusion_lon": 0.0, "fusion_lat": 0.0, "lat": 38.888634333333336, "type": "electric_scooter", "lon": -76.97739616666667, "bike_id": "9168eb88ec9d037df24eef1aac6c517c", "rental_uris": {"android": "https://dc.lft.to/lastmile_qr_scan", "ios": "https://dc.lft.to/lastmile_qr_scan"}, "name": "9168eb88ec9d037df24eef1aac6c517c", "is_reserved": 0}, {"is_disabled": 0, "fusion_lon": 0.0, "fusion_lat": 0.0, "lat": 38.927545333333335, "type": "electric_scooter", "lon": -77.03281733333333, "bike_id": "d098d936a8ad1a6ec8f4532b4c4d7853", "rental_uris": {"android": "https://dc.lft.to/lastmile_qr_scan", "ios": "https://dc.lft.to/lastmile_qr_scan"}, "name": "d098d936a8ad1a6ec8f4532b4c4d7853", "is_reserved": 0}, {"is_disabled": 0, "fusion_lon": 0.0, "fusion_lat": 0.0, "lat": 38.9038825, "type": "electric_scooter", "lon": -77.04868983333333, "bike_id": "4bae1d176d8321c2083144dde8272666", "rental_uris": {"android": "https://dc.lft.to/lastmile_qr_scan", "ios": "https://dc.lft.to/lastmile_qr_scan"}, "name": "4bae1d176d8321c2083144dde8272666", "is_reserved": 0}, {"is_disabled": 0, "fusion_lon": 0.0, "fusion_lat": 0.0, "lat": 38.91427183333333, "type": "electric_scooter", "lon": -77.031794, "bike_id": "51a822dfca18a55172e1c2b6d0fd5b87", "rental_uris": {"android": "https://dc.lft.to/lastmile_qr_scan", "ios": "https://dc.lft.to/lastmile_qr_scan"}, "name": "51a822dfca18a55172e1c2b6d0fd5b87", "is_reserved": 0}, {"is_disabled": 0, "fusion_lon": 0.0, "fusion_lat": 0.0, "lat": 38.9253245, "type": "electric_scooter", "lon": -77.044191, "bike_id": "33abc6d4a1d30fd243460e771c61e6f5", "rental_uris": {"android": "https://dc.lft.to/lastmile_qr_scan", "ios": "https://dc.lft.to/lastmile_qr_scan"}, "name": "33abc6d4a1d30fd243460e771c61e6f5", "is_reserved": 0}, {"is_disabled": 0, "fusion_lon": 0.0, "fusion_lat": 0.0, "lat": 38.9053655, "type": "electric_scooter", "lon": -77.05087183333333, "bike_id": "7b03153645ab2dce9fd6995fceca107a", "rental_uris": {"android": "https://dc.lft.to/lastmile_qr_scan", "ios": "https://dc.lft.to/lastmile_qr_scan"}, "name": "7b03153645ab2dce9fd6995fceca107a", "is_reserved": 0}, {"is_disabled": 0, "fusion_lon": 0.0, "fusion_lat": 0.0, "lat": 38.90014133333333, "type": "electric_scooter", "lon": -76.99873933333333, "bike_id": "8cb1b6f4648a77d4c518bb053fb1d04f", "rental_uris": {"android": "https://dc.lft.to/lastmile_qr_scan", "ios": "https://dc.lft.to/lastmile_qr_scan"}, "name": "8cb1b6f4648a77d4c518bb053fb1d04f", "is_reserved": 0}, {"is_disabled": 0, "fusion_lon": 0.0, "fusion_lat": 0.0, "lat": 38.90493933333333, "type": "electric_scooter", "lon": -77.00126733333333, "bike_id": "19c0ad161f0b1d09a59cc56f93700aa8", "rental_uris": {"android": "https://dc.lft.to/lastmile_qr_scan", "ios": "https://dc.lft.to/lastmile_qr_scan"}, "name": "19c0ad161f0b1d09a59cc56f93700aa8", "is_reserved": 0}, {"is_disabled": 0, "fusion_lon": 0.0, "fusion_lat": 0.0, "lat": 38.895375333333334, "type": "electric_scooter", "lon": -77.04130183333334, "bike_id": "7911fc9a29017092e24a23fdc7e88c63", "rental_uris": {"android": "https://dc.lft.to/lastmile_qr_scan", "ios": "https://dc.lft.to/lastmile_qr_scan"}, "name": "7911fc9a29017092e24a23fdc7e88c63", "is_reserved": 0}, {"is_disabled": 0, "fusion_lon": 0.0, "fusion_lat": 0.0, "lat": 38.898370166666666, "type": "electric_scooter", "lon": -76.946347, "bike_id": "a34ffeb4fca8423044ccd794f7580fce", "rental_uris": {"android": "https://dc.lft.to/lastmile_qr_scan", "ios": "https://dc.lft.to/lastmile_qr_scan"}, "name": "a34ffeb4fca8423044ccd794f7580fce", "is_reserved": 0}, {"is_disabled": 0, "fusion_lon": 0.0, "fusion_lat": 0.0, "lat": 38.9162655, "type": "electric_scooter", "lon": -77.04018483333333, "bike_id": "72a8fa8d07e2ca04898a18d45639b0d1", "rental_uris": {"android": "https://dc.lft.to/lastmile_qr_scan", "ios": "https://dc.lft.to/lastmile_qr_scan"}, "name": "72a8fa8d07e2ca04898a18d45639b0d1", "is_reserved": 0}, {"is_disabled": 0, "fusion_lon": 0.0, "fusion_lat": 0.0, "lat": 38.905762833333334, "type": "electric_scooter", "lon": -77.02204766666667, "bike_id": "39841b4d8ddb5821d1d15dea8303bbbd", "rental_uris": {"android": "https://dc.lft.to/lastmile_qr_scan", "ios": "https://dc.lft.to/lastmile_qr_scan"}, "name": "39841b4d8ddb5821d1d15dea8303bbbd", "is_reserved": 0}, {"is_disabled": 0, "fusion_lon": 0.0, "fusion_lat": 0.0, "lat": 38.9113375, "type": "electric_scooter", "lon": -77.0593095, "bike_id": "c7992a0838c4c30c1f4ab92c5ef80d40", "rental_uris": {"android": "https://dc.lft.to/lastmile_qr_scan", "ios": "https://dc.lft.to/lastmile_qr_scan"}, "name": "c7992a0838c4c30c1f4ab92c5ef80d40", "is_reserved": 0}, {"is_disabled": 0, "fusion_lon": 0.0, "fusion_lat": 0.0, "lat": 38.95313066666667, "type": "electric_scooter", "lon": -77.03597583333334, "bike_id": "9d3b64c56822b76b39844e0d773cd9bf", "rental_uris": {"android": "https://dc.lft.to/lastmile_qr_scan", "ios": "https://dc.lft.to/lastmile_qr_scan"}, "name": "9d3b64c56822b76b39844e0d773cd9bf", "is_reserved": 0}, {"is_disabled": 0, "fusion_lon": 0.0, "fusion_lat": 0.0, "lat": 38.90394366666666, "type": "electric_scooter", "lon": -77.0280195, "bike_id": "43f2935dbb0d5ac77cfac95f15a0eea0", "rental_uris": {"android": "https://dc.lft.to/lastmile_qr_scan", "ios": "https://dc.lft.to/lastmile_qr_scan"}, "name": "43f2935dbb0d5ac77cfac95f15a0eea0", "is_reserved": 0}, {"is_disabled": 0, "fusion_lon": 0.0, "fusion_lat": 0.0, "lat": 38.916986666666666, "type": "electric_scooter", "lon": -77.03772283333333, "bike_id": "1ef8688594855496ba5610d3f5525a01", "rental_uris": {"android": "https://dc.lft.to/lastmile_qr_scan", "ios": "https://dc.lft.to/lastmile_qr_scan"}, "name": "1ef8688594855496ba5610d3f5525a01", "is_reserved": 0}, {"is_disabled": 0, "fusion_lon": 0.0, "fusion_lat": 0.0, "lat": 38.91908866666667, "type": "electric_scooter", "lon": -77.02134166666667, "bike_id": "565bb53101b0d7bfff0ad50d1012a4fd", "rental_uris": {"android": "https://dc.lft.to/lastmile_qr_scan", "ios": "https://dc.lft.to/lastmile_qr_scan"}, "name": "565bb53101b0d7bfff0ad50d1012a4fd", "is_reserved": 0}, {"is_disabled": 0, "fusion_lon": 0.0, "fusion_lat": 0.0, "lat": 38.89975033333333, "type": "electric_scooter", "lon": -77.04613766666667, "bike_id": "699b1f0bf1210398babf6ac981b3c23c", "rental_uris": {"android": "https://dc.lft.to/lastmile_qr_scan", "ios": "https://dc.lft.to/lastmile_qr_scan"}, "name": "699b1f0bf1210398babf6ac981b3c23c", "is_reserved": 0}, {"is_disabled": 0, "fusion_lon": 0.0, "fusion_lat": 0.0, "lat": 38.90048483333333, "type": "electric_scooter", "lon": -77.00070666666667, "bike_id": "03117cc2ae9f9c4ed0d73c0bc5d7c8c9", "rental_uris": {"android": "https://dc.lft.to/lastmile_qr_scan", "ios": "https://dc.lft.to/lastmile_qr_scan"}, "name": "03117cc2ae9f9c4ed0d73c0bc5d7c8c9", "is_reserved": 0}, {"is_disabled": 0, "fusion_lon": 0.0, "fusion_lat": 0.0, "lat": 38.89847066666667, "type": "electric_scooter", "lon": -76.9463285, "bike_id": "8e2ca2444698d11338f899a1f6718453", "rental_uris": {"android": "https://dc.lft.to/lastmile_qr_scan", "ios": "https://dc.lft.to/lastmile_qr_scan"}, "name": "8e2ca2444698d11338f899a1f6718453", "is_reserved": 0}, {"is_disabled": 0, "fusion_lon": 0.0, "fusion_lat": 0.0, "lat": 38.91223633333333, "type": "electric_scooter", "lon": -77.032081, "bike_id": "2d623a0270cd4a9b3d2f937bfb5cf274", "rental_uris": {"android": "https://dc.lft.to/lastmile_qr_scan", "ios": "https://dc.lft.to/lastmile_qr_scan"}, "name": "2d623a0270cd4a9b3d2f937bfb5cf274", "is_reserved": 0}, {"is_disabled": 0, "fusion_lon": 0.0, "fusion_lat": 0.0, "lat": 38.90170783333333, "type": "electric_scooter", "lon": -77.0221565, "bike_id": "b68ddd314adf7b7be19f22ab5920d06a", "rental_uris": {"android": "https://dc.lft.to/lastmile_qr_scan", "ios": "https://dc.lft.to/lastmile_qr_scan"}, "name": "b68ddd314adf7b7be19f22ab5920d06a", "is_reserved": 0}, {"is_disabled": 0, "fusion_lon": 0.0, "fusion_lat": 0.0, "lat": 38.92011333333333, "type": "electric_scooter", "lon": -77.02416716666667, "bike_id": "27f34202cc751505a2c2a2f925e2a2b0", "rental_uris": {"android": "https://dc.lft.to/lastmile_qr_scan", "ios": "https://dc.lft.to/lastmile_qr_scan"}, "name": "27f34202cc751505a2c2a2f925e2a2b0", "is_reserved": 0}, {"is_disabled": 0, "fusion_lon": 0.0, "fusion_lat": 0.0, "lat": 38.89301733333333, "type": "electric_scooter", "lon": -77.0122065, "bike_id": "eb255d19a3bf7e778676be5696ad8c07", "rental_uris": {"android": "https://dc.lft.to/lastmile_qr_scan", "ios": "https://dc.lft.to/lastmile_qr_scan"}, "name": "eb255d19a3bf7e778676be5696ad8c07", "is_reserved": 0}, {"is_disabled": 0, "fusion_lon": 0.0, "fusion_lat": 0.0, "lat": 38.921173333333336, "type": "electric_scooter", "lon": -77.03054066666667, "bike_id": "7eb8a6a31fa7d1d67351ea45dd739c72", "rental_uris": {"android": "https://dc.lft.to/lastmile_qr_scan", "ios": "https://dc.lft.to/lastmile_qr_scan"}, "name": "7eb8a6a31fa7d1d67351ea45dd739c72", "is_reserved": 0}, {"is_disabled": 0, "fusion_lon": 0.0, "fusion_lat": 0.0, "lat": 38.9024295, "type": "electric_scooter", "lon": -77.00208866666667, "bike_id": "e18058939e588d13db99325158c81c97", "rental_uris": {"android": "https://dc.lft.to/lastmile_qr_scan", "ios": "https://dc.lft.to/lastmile_qr_scan"}, "name": "e18058939e588d13db99325158c81c97", "is_reserved": 0}, {"is_disabled": 0, "fusion_lon": 0.0, "fusion_lat": 0.0, "lat": 38.911008, "type": "electric_scooter", "lon": -77.03862433333333, "bike_id": "aca86064d10614bc73e0c506e7470676", "rental_uris": {"android": "https://dc.lft.to/lastmile_qr_scan", "ios": "https://dc.lft.to/lastmile_qr_scan"}, "name": "aca86064d10614bc73e0c506e7470676", "is_reserved": 0}, {"is_disabled": 0, "fusion_lon": 0.0, "fusion_lat": 0.0, "lat": 38.87661683333333, "type": "electric_scooter", "lon": -77.01568466666667, "bike_id": "53fe1ed15957febc740e92121195631a", "rental_uris": {"android": "https://dc.lft.to/lastmile_qr_scan", "ios": "https://dc.lft.to/lastmile_qr_scan"}, "name": "53fe1ed15957febc740e92121195631a", "is_reserved": 0}, {"is_disabled": 0, "fusion_lon": 0.0, "fusion_lat": 0.0, "lat": 38.908178166666666, "type": "electric_scooter", "lon": -77.04163333333334, "bike_id": "010a556a0e5c77ded5cd2768c9eedf36", "rental_uris": {"android": "https://dc.lft.to/lastmile_qr_scan", "ios": "https://dc.lft.to/lastmile_qr_scan"}, "name": "010a556a0e5c77ded5cd2768c9eedf36", "is_reserved": 0}, {"is_disabled": 0, "fusion_lon": 0.0, "fusion_lat": 0.0, "lat": 38.93152283333333, "type": "electric_scooter", "lon": -77.03455016666666, "bike_id": "c26bf543f856b5ef1cd68353ca3e0916", "rental_uris": {"android": "https://dc.lft.to/lastmile_qr_scan", "ios": "https://dc.lft.to/lastmile_qr_scan"}, "name": "c26bf543f856b5ef1cd68353ca3e0916", "is_reserved": 0}, {"is_disabled": 0, "fusion_lon": 0.0, "fusion_lat": 0.0, "lat": 38.8974095, "type": "electric_scooter", "lon": -77.04719833333333, "bike_id": "801ddf0c60d6616757fa85f7d563904f", "rental_uris": {"android": "https://dc.lft.to/lastmile_qr_scan", "ios": "https://dc.lft.to/lastmile_qr_scan"}, "name": "801ddf0c60d6616757fa85f7d563904f", "is_reserved": 0}, {"is_disabled": 0, "fusion_lon": 0.0, "fusion_lat": 0.0, "lat": 38.9220545, "type": "electric_scooter", "lon": -77.01836983333334, "bike_id": "95e72cfb135eb6f0641af15c804d77b8", "rental_uris": {"android": "https://dc.lft.to/lastmile_qr_scan", "ios": "https://dc.lft.to/lastmile_qr_scan"}, "name": "95e72cfb135eb6f0641af15c804d77b8", "is_reserved": 0}, {"is_disabled": 0, "fusion_lon": 0.0, "fusion_lat": 0.0, "lat": 38.8901655, "type": "electric_scooter", "lon": -76.937452, "bike_id": "72d0b7771320775bab4a5cbd5a95e4fe", "rental_uris": {"android": "https://dc.lft.to/lastmile_qr_scan", "ios": "https://dc.lft.to/lastmile_qr_scan"}, "name": "72d0b7771320775bab4a5cbd5a95e4fe", "is_reserved": 0}, {"is_disabled": 0, "fusion_lon": 0.0, "fusion_lat": 0.0, "lat": 38.94498033333333, "type": "electric_bike", "lon": -77.00683233333334, "bike_id": "2b6fb21773f6aabc344b8661cb5d1c02", "rental_uris": {"android": "https://dc.lft.to/lastmile_qr_scan", "ios": "https://dc.lft.to/lastmile_qr_scan"}, "name": "2b6fb21773f6aabc344b8661cb5d1c02", "is_reserved": 0}, {"is_disabled": 0, "fusion_lon": 0.0, "fusion_lat": 0.0, "lat": 38.91998566666667, "type": "electric_scooter", "lon": -76.98395916666666, "bike_id": "afa534a47ef9ff3c6112c3e69be2f3af", "rental_uris": {"android": "https://dc.lft.to/lastmile_qr_scan", "ios": "https://dc.lft.to/lastmile_qr_scan"}, "name": "afa534a47ef9ff3c6112c3e69be2f3af", "is_reserved": 0}, {"is_disabled": 0, "fusion_lon": 0.0, "fusion_lat": 0.0, "lat": 38.90883483333333, "type": "electric_scooter", "lon": -77.04366016666667, "bike_id": "e1b25d0b48362ec8fc9b04c003ef7f48", "rental_uris": {"android": "https://dc.lft.to/lastmile_qr_scan", "ios": "https://dc.lft.to/lastmile_qr_scan"}, "name": "e1b25d0b48362ec8fc9b04c003ef7f48", "is_reserved": 0}, {"is_disabled": 0, "fusion_lon": 0.0, "fusion_lat": 0.0, "lat": 38.933124, "type": "electric_scooter", "lon": -77.03266116666667, "bike_id": "e9d000d65286652430fc013a54dfb97f", "rental_uris": {"android": "https://dc.lft.to/lastmile_qr_scan", "ios": "https://dc.lft.to/lastmile_qr_scan"}, "name": "e9d000d65286652430fc013a54dfb97f", "is_reserved": 0}, {"is_disabled": 0, "fusion_lon": 0.0, "fusion_lat": 0.0, "lat": 38.91766233333333, "type": "electric_scooter", "lon": -77.03189916666666, "bike_id": "2e532e15c2866234abbf2c46b2d6c598", "rental_uris": {"android": "https://dc.lft.to/lastmile_qr_scan", "ios": "https://dc.lft.to/lastmile_qr_scan"}, "name": "2e532e15c2866234abbf2c46b2d6c598", "is_reserved": 0}, {"is_disabled": 0, "fusion_lon": 0.0, "fusion_lat": 0.0, "lat": 38.922444, "type": "electric_scooter", "lon": -77.03665916666667, "bike_id": "f17e56afc2207a87424e27f96c9940ab", "rental_uris": {"android": "https://dc.lft.to/lastmile_qr_scan", "ios": "https://dc.lft.to/lastmile_qr_scan"}, "name": "f17e56afc2207a87424e27f96c9940ab", "is_reserved": 0}, {"is_disabled": 0, "fusion_lon": 0.0, "fusion_lat": 0.0, "lat": 38.915589833333335, "type": "electric_scooter", "lon": -77.03875166666667, "bike_id": "8b392c42d5b92fb0e22b8cd0e9d3bec8", "rental_uris": {"android": "https://dc.lft.to/lastmile_qr_scan", "ios": "https://dc.lft.to/lastmile_qr_scan"}, "name": "8b392c42d5b92fb0e22b8cd0e9d3bec8", "is_reserved": 0}, {"is_disabled": 0, "fusion_lon": 0.0, "fusion_lat": 0.0, "lat": 38.897530333333336, "type": "electric_scooter", "lon": -77.05091483333334, "bike_id": "3f726ea695ab8459b88754534e5cb532", "rental_uris": {"android": "https://dc.lft.to/lastmile_qr_scan", "ios": "https://dc.lft.to/lastmile_qr_scan"}, "name": "3f726ea695ab8459b88754534e5cb532", "is_reserved": 0}, {"is_disabled": 0, "fusion_lon": 0.0, "fusion_lat": 0.0, "lat": 38.91557483333333, "type": "electric_scooter", "lon": -77.03146133333334, "bike_id": "cb20255cdfce05b3e44f1f09d49ae92e", "rental_uris": {"android": "https://dc.lft.to/lastmile_qr_scan", "ios": "https://dc.lft.to/lastmile_qr_scan"}, "name": "cb20255cdfce05b3e44f1f09d49ae92e", "is_reserved": 0}, {"is_disabled": 0, "fusion_lon": 0.0, "fusion_lat": 0.0, "lat": 38.918045, "type": "electric_scooter", "lon": -77.03567033333333, "bike_id": "999e660f3cddabbc8d04166618b308a7", "rental_uris": {"android": "https://dc.lft.to/lastmile_qr_scan", "ios": "https://dc.lft.to/lastmile_qr_scan"}, "name": "999e660f3cddabbc8d04166618b308a7", "is_reserved": 0}, {"is_disabled": 0, "fusion_lon": 0.0, "fusion_lat": 0.0, "lat": 38.86599183333333, "type": "electric_bike", "lon": -76.932321, "bike_id": "50fd8efebc68fb49e84cf507fbacfa5a", "rental_uris": {"android": "https://dc.lft.to/lastmile_qr_scan", "ios": "https://dc.lft.to/lastmile_qr_scan"}, "name": "50fd8efebc68fb49e84cf507fbacfa5a", "is_reserved": 0}, {"is_disabled": 0, "fusion_lon": 0.0, "fusion_lat": 0.0, "lat": 38.89252916666667, "type": "electric_scooter", "lon": -76.99852183333333, "bike_id": "57a7d99775443c1e6e5f95af356425bc", "rental_uris": {"android": "https://dc.lft.to/lastmile_qr_scan", "ios": "https://dc.lft.to/lastmile_qr_scan"}, "name": "57a7d99775443c1e6e5f95af356425bc", "is_reserved": 0}, {"is_disabled": 0, "fusion_lon": 0.0, "fusion_lat": 0.0, "lat": 38.915479500000004, "type": "electric_scooter", "lon": -77.0236995, "bike_id": "93892d93c7a0cd63df4503956001ffb3", "rental_uris": {"android": "https://dc.lft.to/lastmile_qr_scan", "ios": "https://dc.lft.to/lastmile_qr_scan"}, "name": "93892d93c7a0cd63df4503956001ffb3", "is_reserved": 0}, {"is_disabled": 0, "fusion_lon": 0.0, "fusion_lat": 0.0, "lat": 38.8822245, "type": "electric_scooter", "lon": -76.9908535, "bike_id": "1c9f979e040a979bd8e1d127a49d588b", "rental_uris": {"android": "https://dc.lft.to/lastmile_qr_scan", "ios": "https://dc.lft.to/lastmile_qr_scan"}, "name": "1c9f979e040a979bd8e1d127a49d588b", "is_reserved": 0}, {"is_disabled": 0, "fusion_lon": 0.0, "fusion_lat": 0.0, "lat": 38.85214416666667, "type": "electric_bike", "lon": -77.1275605, "bike_id": "d78883fc38b0ea622b34f37727b352b9", "rental_uris": {"android": "https://dc.lft.to/lastmile_qr_scan", "ios": "https://dc.lft.to/lastmile_qr_scan"}, "name": "d78883fc38b0ea622b34f37727b352b9", "is_reserved": 0}, {"is_disabled": 0, "fusion_lon": 0.0, "fusion_lat": 0.0, "lat": 38.919342666666665, "type": "electric_scooter", "lon": -77.03426866666666, "bike_id": "fbee80bab6e4ae193c01c8d3eb4e08ff", "rental_uris": {"android": "https://dc.lft.to/lastmile_qr_scan", "ios": "https://dc.lft.to/lastmile_qr_scan"}, "name": "fbee80bab6e4ae193c01c8d3eb4e08ff", "is_reserved": 0}, {"is_disabled": 0, "fusion_lon": 0.0, "fusion_lat": 0.0, "lat": 38.903025, "type": "electric_scooter", "lon": -77.0236945, "bike_id": "dd9d87c8056b3360cdbcef4ec2b5dbb8", "rental_uris": {"android": "https://dc.lft.to/lastmile_qr_scan", "ios": "https://dc.lft.to/lastmile_qr_scan"}, "name": "dd9d87c8056b3360cdbcef4ec2b5dbb8", "is_reserved": 0}, {"is_disabled": 0, "fusion_lon": 0.0, "fusion_lat": 0.0, "lat": 38.917014, "type": "electric_scooter", "lon": -77.04001633333333, "bike_id": "d50e155877f620ecfd780f5980a4d010", "rental_uris": {"android": "https://dc.lft.to/lastmile_qr_scan", "ios": "https://dc.lft.to/lastmile_qr_scan"}, "name": "d50e155877f620ecfd780f5980a4d010", "is_reserved": 0}, {"is_disabled": 0, "fusion_lon": 0.0, "fusion_lat": 0.0, "lat": 38.9462435, "type": "electric_bike", "lon": -76.9341415, "bike_id": "c5cfa18e8ab8972c333890657fcad35a", "rental_uris": {"android": "https://dc.lft.to/lastmile_qr_scan", "ios": "https://dc.lft.to/lastmile_qr_scan"}, "name": "c5cfa18e8ab8972c333890657fcad35a", "is_reserved": 0}, {"is_disabled": 0, "fusion_lon": 0.0, "fusion_lat": 0.0, "lat": 38.92305983333333, "type": "electric_scooter", "lon": -77.04037733333334, "bike_id": "bcfa87ebea66696236fa351f46a678b7", "rental_uris": {"android": "https://dc.lft.to/lastmile_qr_scan", "ios": "https://dc.lft.to/lastmile_qr_scan"}, "name": "bcfa87ebea66696236fa351f46a678b7", "is_reserved": 0}, {"is_disabled": 0, "fusion_lon": 0.0, "fusion_lat": 0.0, "lat": 38.93098783333333, "type": "electric_scooter", "lon": -77.02477683333333, "bike_id": "507aaa2b99402e0294a8b31e34ed9e2c", "rental_uris": {"android": "https://dc.lft.to/lastmile_qr_scan", "ios": "https://dc.lft.to/lastmile_qr_scan"}, "name": "507aaa2b99402e0294a8b31e34ed9e2c", "is_reserved": 0}, {"is_disabled": 0, "fusion_lon": 0.0, "fusion_lat": 0.0, "lat": 38.87631783333333, "type": "electric_scooter", "lon": -77.01259666666667, "bike_id": "9938a9e2eaa01b02487a9ee9f745e06c", "rental_uris": {"android": "https://dc.lft.to/lastmile_qr_scan", "ios": "https://dc.lft.to/lastmile_qr_scan"}, "name": "9938a9e2eaa01b02487a9ee9f745e06c", "is_reserved": 0}, {"is_disabled": 0, "fusion_lon": 0.0, "fusion_lat": 0.0, "lat": 38.93243733333333, "type": "electric_scooter", "lon": -77.03409966666666, "bike_id": "81912eb124776a46dfad7f2487706c5f", "rental_uris": {"android": "https://dc.lft.to/lastmile_qr_scan", "ios": "https://dc.lft.to/lastmile_qr_scan"}, "name": "81912eb124776a46dfad7f2487706c5f", "is_reserved": 0}, {"is_disabled": 0, "fusion_lon": 0.0, "fusion_lat": 0.0, "lat": 38.93154833333333, "type": "electric_scooter", "lon": -77.04375, "bike_id": "8f5ef06dc83d432880ee57ee24f69859", "rental_uris": {"android": "https://dc.lft.to/lastmile_qr_scan", "ios": "https://dc.lft.to/lastmile_qr_scan"}, "name": "8f5ef06dc83d432880ee57ee24f69859", "is_reserved": 0}, {"is_disabled": 0, "fusion_lon": 0.0, "fusion_lat": 0.0, "lat": 38.91880483333333, "type": "electric_scooter", "lon": -77.04168216666666, "bike_id": "7f723cfaf24b1f8ee6921c960987e519", "rental_uris": {"android": "https://dc.lft.to/lastmile_qr_scan", "ios": "https://dc.lft.to/lastmile_qr_scan"}, "name": "7f723cfaf24b1f8ee6921c960987e519", "is_reserved": 0}, {"is_disabled": 0, "fusion_lon": 0.0, "fusion_lat": 0.0, "lat": 38.912719333333335, "type": "electric_scooter", "lon": -77.022296, "bike_id": "ebfea7a02ce21e33b5c62cdd31f7100d", "rental_uris": {"android": "https://dc.lft.to/lastmile_qr_scan", "ios": "https://dc.lft.to/lastmile_qr_scan"}, "name": "ebfea7a02ce21e33b5c62cdd31f7100d", "is_reserved": 0}, {"is_disabled": 0, "fusion_lon": 0.0, "fusion_lat": 0.0, "lat": 38.918173833333334, "type": "electric_scooter", "lon": -77.02480283333334, "bike_id": "b89be0566e534bedcffe967025482a30", "rental_uris": {"android": "https://dc.lft.to/lastmile_qr_scan", "ios": "https://dc.lft.to/lastmile_qr_scan"}, "name": "b89be0566e534bedcffe967025482a30", "is_reserved": 0}, {"is_disabled": 0, "fusion_lon": 0.0, "fusion_lat": 0.0, "lat": 38.899210833333335, "type": "electric_scooter", "lon": -76.93368416666667, "bike_id": "41bcce0ce3d0f9b9e01949e091a930f7", "rental_uris": {"android": "https://dc.lft.to/lastmile_qr_scan", "ios": "https://dc.lft.to/lastmile_qr_scan"}, "name": "41bcce0ce3d0f9b9e01949e091a930f7", "is_reserved": 0}, {"is_disabled": 0, "fusion_lon": 0.0, "fusion_lat": 0.0, "lat": 38.915662166666664, "type": "electric_scooter", "lon": -77.03152133333333, "bike_id": "e3aa96f6a204ccbe89d531d3ad8e0bf1", "rental_uris": {"android": "https://dc.lft.to/lastmile_qr_scan", "ios": "https://dc.lft.to/lastmile_qr_scan"}, "name": "e3aa96f6a204ccbe89d531d3ad8e0bf1", "is_reserved": 0}, {"is_disabled": 0, "fusion_lon": 0.0, "fusion_lat": 0.0, "lat": 38.90859583333334, "type": "electric_scooter", "lon": -76.9980445, "bike_id": "2bc1f6feeb91d20e3f07252d1c91d340", "rental_uris": {"android": "https://dc.lft.to/lastmile_qr_scan", "ios": "https://dc.lft.to/lastmile_qr_scan"}, "name": "2bc1f6feeb91d20e3f07252d1c91d340", "is_reserved": 0}, {"is_disabled": 0, "fusion_lon": 0.0, "fusion_lat": 0.0, "lat": 38.897146166666666, "type": "electric_scooter", "lon": -77.01995483333333, "bike_id": "e4051c398ced03117198f717538b19c6", "rental_uris": {"android": "https://dc.lft.to/lastmile_qr_scan", "ios": "https://dc.lft.to/lastmile_qr_scan"}, "name": "e4051c398ced03117198f717538b19c6", "is_reserved": 0}, {"is_disabled": 0, "fusion_lon": 0.0, "fusion_lat": 0.0, "lat": 38.887455833333334, "type": "electric_scooter", "lon": -77.0257455, "bike_id": "f155271967f6b1a93741b79f8cc8c1fd", "rental_uris": {"android": "https://dc.lft.to/lastmile_qr_scan", "ios": "https://dc.lft.to/lastmile_qr_scan"}, "name": "f155271967f6b1a93741b79f8cc8c1fd", "is_reserved": 0}, {"is_disabled": 0, "fusion_lon": 0.0, "fusion_lat": 0.0, "lat": 38.91883333333333, "type": "electric_scooter", "lon": -77.04167516666666, "bike_id": "eb7dd2c87ca72226b8f915a2c0332898", "rental_uris": {"android": "https://dc.lft.to/lastmile_qr_scan", "ios": "https://dc.lft.to/lastmile_qr_scan"}, "name": "eb7dd2c87ca72226b8f915a2c0332898", "is_reserved": 0}, {"is_disabled": 0, "fusion_lon": 0.0, "fusion_lat": 0.0, "lat": 38.89665266666667, "type": "electric_scooter", "lon": -77.05036416666667, "bike_id": "d08b392e4d13a93e8626fb2017c74432", "rental_uris": {"android": "https://dc.lft.to/lastmile_qr_scan", "ios": "https://dc.lft.to/lastmile_qr_scan"}, "name": "d08b392e4d13a93e8626fb2017c74432", "is_reserved": 0}, {"is_disabled": 0, "fusion_lon": 0.0, "fusion_lat": 0.0, "lat": 38.95614333333333, "type": "electric_scooter", "lon": -77.03278533333334, "bike_id": "39226a0c52dd8aabf8ed270027065e20", "rental_uris": {"android": "https://dc.lft.to/lastmile_qr_scan", "ios": "https://dc.lft.to/lastmile_qr_scan"}, "name": "39226a0c52dd8aabf8ed270027065e20", "is_reserved": 0}, {"is_disabled": 0, "fusion_lon": 0.0, "fusion_lat": 0.0, "lat": 38.917795, "type": "electric_scooter", "lon": -77.034229, "bike_id": "ca87041a0dd36c595f3c4040e721bab8", "rental_uris": {"android": "https://dc.lft.to/lastmile_qr_scan", "ios": "https://dc.lft.to/lastmile_qr_scan"}, "name": "ca87041a0dd36c595f3c4040e721bab8", "is_reserved": 0}, {"is_disabled": 0, "fusion_lon": 0.0, "fusion_lat": 0.0, "lat": 38.85785083333333, "type": "electric_bike", "lon": -76.98764816666667, "bike_id": "5d5b48864c554fc6c64b2d6377b8a116", "rental_uris": {"android": "https://dc.lft.to/lastmile_qr_scan", "ios": "https://dc.lft.to/lastmile_qr_scan"}, "name": "5d5b48864c554fc6c64b2d6377b8a116", "is_reserved": 0}, {"is_disabled": 0, "fusion_lon": 0.0, "fusion_lat": 0.0, "lat": 38.904165666666664, "type": "electric_scooter", "lon": -77.05151416666666, "bike_id": "5c984980c07aa38dc9dabbf0bdaf5dea", "rental_uris": {"android": "https://dc.lft.to/lastmile_qr_scan", "ios": "https://dc.lft.to/lastmile_qr_scan"}, "name": "5c984980c07aa38dc9dabbf0bdaf5dea", "is_reserved": 0}, {"is_disabled": 0, "fusion_lon": 0.0, "fusion_lat": 0.0, "lat": 38.917876666666665, "type": "electric_scooter", "lon": -77.023088, "bike_id": "ddf2bfc2afa0981ebd36e63b8f345629", "rental_uris": {"android": "https://dc.lft.to/lastmile_qr_scan", "ios": "https://dc.lft.to/lastmile_qr_scan"}, "name": "ddf2bfc2afa0981ebd36e63b8f345629", "is_reserved": 0}, {"is_disabled": 0, "fusion_lon": 0.0, "fusion_lat": 0.0, "lat": 38.90428566666667, "type": "electric_scooter", "lon": -77.026022, "bike_id": "78378937daa5c8cd5b2e2c8bac2ca9f4", "rental_uris": {"android": "https://dc.lft.to/lastmile_qr_scan", "ios": "https://dc.lft.to/lastmile_qr_scan"}, "name": "78378937daa5c8cd5b2e2c8bac2ca9f4", "is_reserved": 0}, {"is_disabled": 0, "fusion_lon": 0.0, "fusion_lat": 0.0, "lat": 38.9539845, "type": "electric_scooter", "lon": -77.02755133333334, "bike_id": "ec64ad080e2e39b43d01ef4502574ea3", "rental_uris": {"android": "https://dc.lft.to/lastmile_qr_scan", "ios": "https://dc.lft.to/lastmile_qr_scan"}, "name": "ec64ad080e2e39b43d01ef4502574ea3", "is_reserved": 0}, {"is_disabled": 0, "fusion_lon": 0.0, "fusion_lat": 0.0, "lat": 38.88002, "type": "electric_bike", "lon": -76.91597483333334, "bike_id": "54f88383b0c4523c2f8be018825edfe8", "rental_uris": {"android": "https://dc.lft.to/lastmile_qr_scan", "ios": "https://dc.lft.to/lastmile_qr_scan"}, "name": "54f88383b0c4523c2f8be018825edfe8", "is_reserved": 0}, {"is_disabled": 0, "fusion_lon": 0.0, "fusion_lat": 0.0, "lat": 38.927971666666664, "type": "electric_scooter", "lon": -77.0311185, "bike_id": "55eb938ff4a648926600c16961e70809", "rental_uris": {"android": "https://dc.lft.to/lastmile_qr_scan", "ios": "https://dc.lft.to/lastmile_qr_scan"}, "name": "55eb938ff4a648926600c16961e70809", "is_reserved": 0}, {"is_disabled": 0, "fusion_lon": 0.0, "fusion_lat": 0.0, "lat": 38.90274566666667, "type": "electric_scooter", "lon": -77.01805166666666, "bike_id": "fc10167673e23a70d44868a88af9b694", "rental_uris": {"android": "https://dc.lft.to/lastmile_qr_scan", "ios": "https://dc.lft.to/lastmile_qr_scan"}, "name": "fc10167673e23a70d44868a88af9b694", "is_reserved": 0}, {"is_disabled": 0, "fusion_lon": 0.0, "fusion_lat": 0.0, "lat": 38.908460833333336, "type": "electric_scooter", "lon": -77.04887166666667, "bike_id": "9f8114e67d5e1bb5d835a129f6fc89a7", "rental_uris": {"android": "https://dc.lft.to/lastmile_qr_scan", "ios": "https://dc.lft.to/lastmile_qr_scan"}, "name": "9f8114e67d5e1bb5d835a129f6fc89a7", "is_reserved": 0}, {"is_disabled": 0, "fusion_lon": 0.0, "fusion_lat": 0.0, "lat": 38.9353285, "type": "electric_scooter", "lon": -77.0340815, "bike_id": "30a3bc0116a5d325d3f01d1bf0d8acb7", "rental_uris": {"android": "https://dc.lft.to/lastmile_qr_scan", "ios": "https://dc.lft.to/lastmile_qr_scan"}, "name": "30a3bc0116a5d325d3f01d1bf0d8acb7", "is_reserved": 0}, {"is_disabled": 0, "fusion_lon": 0.0, "fusion_lat": 0.0, "lat": 38.96645633333333, "type": "electric_bike", "lon": -76.93022233333333, "bike_id": "475683c645216ba684011a7f291b6eb5", "rental_uris": {"android": "https://dc.lft.to/lastmile_qr_scan", "ios": "https://dc.lft.to/lastmile_qr_scan"}, "name": "475683c645216ba684011a7f291b6eb5", "is_reserved": 0}, {"is_disabled": 0, "fusion_lon": 0.0, "fusion_lat": 0.0, "lat": 38.94194566666667, "type": "electric_scooter", "lon": -77.03327983333334, "bike_id": "75a9746f879760a946953095435936c4", "rental_uris": {"android": "https://dc.lft.to/lastmile_qr_scan", "ios": "https://dc.lft.to/lastmile_qr_scan"}, "name": "75a9746f879760a946953095435936c4", "is_reserved": 0}, {"is_disabled": 0, "fusion_lon": 0.0, "fusion_lat": 0.0, "lat": 38.91219316666667, "type": "electric_scooter", "lon": -77.02717283333334, "bike_id": "551df750416a3c2ea259dc29b1e37842", "rental_uris": {"android": "https://dc.lft.to/lastmile_qr_scan", "ios": "https://dc.lft.to/lastmile_qr_scan"}, "name": "551df750416a3c2ea259dc29b1e37842", "is_reserved": 0}, {"is_disabled": 0, "fusion_lon": 0.0, "fusion_lat": 0.0, "lat": 38.927272, "type": "electric_scooter", "lon": -77.05342683333333, "bike_id": "856735f97e2c08a2c53eb7cf04413f52", "rental_uris": {"android": "https://dc.lft.to/lastmile_qr_scan", "ios": "https://dc.lft.to/lastmile_qr_scan"}, "name": "856735f97e2c08a2c53eb7cf04413f52", "is_reserved": 0}, {"is_disabled": 0, "fusion_lon": 0.0, "fusion_lat": 0.0, "lat": 38.907355, "type": "electric_scooter", "lon": -77.02954466666667, "bike_id": "66dfaedaaf80328a4622e1e61b04308d", "rental_uris": {"android": "https://dc.lft.to/lastmile_qr_scan", "ios": "https://dc.lft.to/lastmile_qr_scan"}, "name": "66dfaedaaf80328a4622e1e61b04308d", "is_reserved": 0}, {"is_disabled": 0, "fusion_lon": 0.0, "fusion_lat": 0.0, "lat": 38.976772, "type": "electric_bike", "lon": -76.97166783333333, "bike_id": "7bbe463409fe63610fa3af028d98d95b", "rental_uris": {"android": "https://dc.lft.to/lastmile_qr_scan", "ios": "https://dc.lft.to/lastmile_qr_scan"}, "name": "7bbe463409fe63610fa3af028d98d95b", "is_reserved": 0}, {"is_disabled": 0, "fusion_lon": 0.0, "fusion_lat": 0.0, "lat": 38.928473, "type": "electric_scooter", "lon": -77.01413516666666, "bike_id": "387c74d9f6ba53cb1553edf1e529995f", "rental_uris": {"android": "https://dc.lft.to/lastmile_qr_scan", "ios": "https://dc.lft.to/lastmile_qr_scan"}, "name": "387c74d9f6ba53cb1553edf1e529995f", "is_reserved": 0}, {"is_disabled": 0, "fusion_lon": 0.0, "fusion_lat": 0.0, "lat": 38.8924005, "type": "electric_bike", "lon": -76.952223, "bike_id": "ce804677507f79751adfbe914d2f906d", "rental_uris": {"android": "https://dc.lft.to/lastmile_qr_scan", "ios": "https://dc.lft.to/lastmile_qr_scan"}, "name": "ce804677507f79751adfbe914d2f906d", "is_reserved": 0}, {"is_disabled": 0, "fusion_lon": 0.0, "fusion_lat": 0.0, "lat": 38.917075, "type": "electric_scooter", "lon": -77.01071783333333, "bike_id": "bee9b40865bc02f42c4463738de953fc", "rental_uris": {"android": "https://dc.lft.to/lastmile_qr_scan", "ios": "https://dc.lft.to/lastmile_qr_scan"}, "name": "bee9b40865bc02f42c4463738de953fc", "is_reserved": 0}, {"is_disabled": 0, "fusion_lon": 0.0, "fusion_lat": 0.0, "lat": 38.911191333333335, "type": "electric_scooter", "lon": -77.043648, "bike_id": "59e355a94344a170182db65252501788", "rental_uris": {"android": "https://dc.lft.to/lastmile_qr_scan", "ios": "https://dc.lft.to/lastmile_qr_scan"}, "name": "59e355a94344a170182db65252501788", "is_reserved": 0}, {"is_disabled": 0, "fusion_lon": 0.0, "fusion_lat": 0.0, "lat": 38.896066166666664, "type": "electric_scooter", "lon": -77.00922533333333, "bike_id": "3cc850ad25370c5a3135f2e0f9a3eac2", "rental_uris": {"android": "https://dc.lft.to/lastmile_qr_scan", "ios": "https://dc.lft.to/lastmile_qr_scan"}, "name": "3cc850ad25370c5a3135f2e0f9a3eac2", "is_reserved": 0}, {"is_disabled": 0, "fusion_lon": 0.0, "fusion_lat": 0.0, "lat": 38.905522500000004, "type": "electric_scooter", "lon": -77.04653416666666, "bike_id": "cad23f2a79d3c237fe5006a5624661c0", "rental_uris": {"android": "https://dc.lft.to/lastmile_qr_scan", "ios": "https://dc.lft.to/lastmile_qr_scan"}, "name": "cad23f2a79d3c237fe5006a5624661c0", "is_reserved": 0}, {"is_disabled": 0, "fusion_lon": 0.0, "fusion_lat": 0.0, "lat": 38.925928666666664, "type": "electric_bike", "lon": -76.889077, "bike_id": "ab5c291fce4d000ec960e7ae2db371ef", "rental_uris": {"android": "https://dc.lft.to/lastmile_qr_scan", "ios": "https://dc.lft.to/lastmile_qr_scan"}, "name": "ab5c291fce4d000ec960e7ae2db371ef", "is_reserved": 0}, {"is_disabled": 0, "fusion_lon": 0.0, "fusion_lat": 0.0, "lat": 38.9541595, "type": "electric_scooter", "lon": -77.02846, "bike_id": "79634d75656e983ac015ad8098ef7fbc", "rental_uris": {"android": "https://dc.lft.to/lastmile_qr_scan", "ios": "https://dc.lft.to/lastmile_qr_scan"}, "name": "79634d75656e983ac015ad8098ef7fbc", "is_reserved": 0}, {"is_disabled": 0, "fusion_lon": 0.0, "fusion_lat": 0.0, "lat": 38.91685783333333, "type": "electric_scooter", "lon": -77.03187516666667, "bike_id": "d5218625010a7ff8de20d26b97b4d1e6", "rental_uris": {"android": "https://dc.lft.to/lastmile_qr_scan", "ios": "https://dc.lft.to/lastmile_qr_scan"}, "name": "d5218625010a7ff8de20d26b97b4d1e6", "is_reserved": 0}, {"is_disabled": 0, "fusion_lon": 0.0, "fusion_lat": 0.0, "lat": 38.897604666666666, "type": "electric_scooter", "lon": -77.021467, "bike_id": "00a3c1d03f3a23db8fcca20cd1037a25", "rental_uris": {"android": "https://dc.lft.to/lastmile_qr_scan", "ios": "https://dc.lft.to/lastmile_qr_scan"}, "name": "00a3c1d03f3a23db8fcca20cd1037a25", "is_reserved": 0}, {"is_disabled": 0, "fusion_lon": 0.0, "fusion_lat": 0.0, "lat": 38.914209, "type": "electric_scooter", "lon": -77.03914383333333, "bike_id": "f8ae17129b1558486546f5a1e65a8da5", "rental_uris": {"android": "https://dc.lft.to/lastmile_qr_scan", "ios": "https://dc.lft.to/lastmile_qr_scan"}, "name": "f8ae17129b1558486546f5a1e65a8da5", "is_reserved": 0}, {"is_disabled": 0, "fusion_lon": 0.0, "fusion_lat": 0.0, "lat": 38.877191, "type": "electric_scooter", "lon": -77.01748133333334, "bike_id": "805603128a950ac766a97712b3e16e06", "rental_uris": {"android": "https://dc.lft.to/lastmile_qr_scan", "ios": "https://dc.lft.to/lastmile_qr_scan"}, "name": "805603128a950ac766a97712b3e16e06", "is_reserved": 0}, {"is_disabled": 0, "fusion_lon": 0.0, "fusion_lat": 0.0, "lat": 38.93701133333333, "type": "electric_bike", "lon": -77.02980183333334, "bike_id": "61f8b033d29b687a1077b12f50325537", "rental_uris": {"android": "https://dc.lft.to/lastmile_qr_scan", "ios": "https://dc.lft.to/lastmile_qr_scan"}, "name": "61f8b033d29b687a1077b12f50325537", "is_reserved": 0}, {"is_disabled": 0, "fusion_lon": 0.0, "fusion_lat": 0.0, "lat": 38.89747633333333, "type": "electric_scooter", "lon": -77.03339233333334, "bike_id": "e731a62c2d120b6988c5cbb71894b8ed", "rental_uris": {"android": "https://dc.lft.to/lastmile_qr_scan", "ios": "https://dc.lft.to/lastmile_qr_scan"}, "name": "e731a62c2d120b6988c5cbb71894b8ed", "is_reserved": 0}, {"is_disabled": 0, "fusion_lon": 0.0, "fusion_lat": 0.0, "lat": 38.91204233333333, "type": "electric_scooter", "lon": -77.00088366666667, "bike_id": "1de0d77acf13f4fed631f47a07440b98", "rental_uris": {"android": "https://dc.lft.to/lastmile_qr_scan", "ios": "https://dc.lft.to/lastmile_qr_scan"}, "name": "1de0d77acf13f4fed631f47a07440b98", "is_reserved": 0}, {"is_disabled": 0, "fusion_lon": 0.0, "fusion_lat": 0.0, "lat": 38.91821266666667, "type": "electric_scooter", "lon": -77.03454166666667, "bike_id": "4c2583cc4be7a2e0ab08343b7b42f107", "rental_uris": {"android": "https://dc.lft.to/lastmile_qr_scan", "ios": "https://dc.lft.to/lastmile_qr_scan"}, "name": "4c2583cc4be7a2e0ab08343b7b42f107", "is_reserved": 0}, {"is_disabled": 0, "fusion_lon": 0.0, "fusion_lat": 0.0, "lat": 38.91042266666667, "type": "electric_scooter", "lon": -77.014954, "bike_id": "de337d6445beb6bccda9cb3e3a7f9264", "rental_uris": {"android": "https://dc.lft.to/lastmile_qr_scan", "ios": "https://dc.lft.to/lastmile_qr_scan"}, "name": "de337d6445beb6bccda9cb3e3a7f9264", "is_reserved": 0}, {"is_disabled": 0, "fusion_lon": 0.0, "fusion_lat": 0.0, "lat": 38.91347616666667, "type": "electric_scooter", "lon": -77.032025, "bike_id": "4ca32fcde2a9d65f7f3ebb243a7839fe", "rental_uris": {"android": "https://dc.lft.to/lastmile_qr_scan", "ios": "https://dc.lft.to/lastmile_qr_scan"}, "name": "4ca32fcde2a9d65f7f3ebb243a7839fe", "is_reserved": 0}, {"is_disabled": 0, "fusion_lon": 0.0, "fusion_lat": 0.0, "lat": 38.922301166666664, "type": "electric_scooter", "lon": -76.97532933333333, "bike_id": "56fdb428775c637331fe4fe338b50834", "rental_uris": {"android": "https://dc.lft.to/lastmile_qr_scan", "ios": "https://dc.lft.to/lastmile_qr_scan"}, "name": "56fdb428775c637331fe4fe338b50834", "is_reserved": 0}, {"is_disabled": 0, "fusion_lon": 0.0, "fusion_lat": 0.0, "lat": 38.909517666666666, "type": "electric_scooter", "lon": -77.02381833333334, "bike_id": "e2aa097d7cb57e56ca76e544baeef1d7", "rental_uris": {"android": "https://dc.lft.to/lastmile_qr_scan", "ios": "https://dc.lft.to/lastmile_qr_scan"}, "name": "e2aa097d7cb57e56ca76e544baeef1d7", "is_reserved": 0}, {"is_disabled": 0, "fusion_lon": 0.0, "fusion_lat": 0.0, "lat": 38.912029833333335, "type": "electric_scooter", "lon": -77.03982116666667, "bike_id": "6231d99a713fd13cc549d1c67e25ea44", "rental_uris": {"android": "https://dc.lft.to/lastmile_qr_scan", "ios": "https://dc.lft.to/lastmile_qr_scan"}, "name": "6231d99a713fd13cc549d1c67e25ea44", "is_reserved": 0}, {"is_disabled": 0, "fusion_lon": 0.0, "fusion_lat": 0.0, "lat": 38.91044816666667, "type": "electric_scooter", "lon": -77.03370016666666, "bike_id": "6fd66825c0791adae2918dcf512ebb45", "rental_uris": {"android": "https://dc.lft.to/lastmile_qr_scan", "ios": "https://dc.lft.to/lastmile_qr_scan"}, "name": "6fd66825c0791adae2918dcf512ebb45", "is_reserved": 0}, {"is_disabled": 0, "fusion_lon": 0.0, "fusion_lat": 0.0, "lat": 38.89489016666667, "type": "electric_scooter", "lon": -76.99421766666667, "bike_id": "99a8a7393cd0a18b753264fa529ddc37", "rental_uris": {"android": "https://dc.lft.to/lastmile_qr_scan", "ios": "https://dc.lft.to/lastmile_qr_scan"}, "name": "99a8a7393cd0a18b753264fa529ddc37", "is_reserved": 0}, {"is_disabled": 0, "fusion_lon": 0.0, "fusion_lat": 0.0, "lat": 38.899884166666666, "type": "electric_scooter", "lon": -77.02023233333334, "bike_id": "bc0e8b5758afcadd5b49b02d1290bbe2", "rental_uris": {"android": "https://dc.lft.to/lastmile_qr_scan", "ios": "https://dc.lft.to/lastmile_qr_scan"}, "name": "bc0e8b5758afcadd5b49b02d1290bbe2", "is_reserved": 0}, {"is_disabled": 0, "fusion_lon": 0.0, "fusion_lat": 0.0, "lat": 38.899558999999996, "type": "electric_scooter", "lon": -77.047902, "bike_id": "4c07a89abaf99230cc8eb6a6435a53b1", "rental_uris": {"android": "https://dc.lft.to/lastmile_qr_scan", "ios": "https://dc.lft.to/lastmile_qr_scan"}, "name": "4c07a89abaf99230cc8eb6a6435a53b1", "is_reserved": 0}, {"is_disabled": 0, "fusion_lon": 0.0, "fusion_lat": 0.0, "lat": 38.907050166666664, "type": "electric_scooter", "lon": -76.98699533333334, "bike_id": "8e25ee3878c87652d2efab367fc68616", "rental_uris": {"android": "https://dc.lft.to/lastmile_qr_scan", "ios": "https://dc.lft.to/lastmile_qr_scan"}, "name": "8e25ee3878c87652d2efab367fc68616", "is_reserved": 0}, {"is_disabled": 0, "fusion_lon": 0.0, "fusion_lat": 0.0, "lat": 38.863625166666665, "type": "electric_scooter", "lon": -76.99060116666666, "bike_id": "7335299da71778b8dbeb42ddb863ea07", "rental_uris": {"android": "https://dc.lft.to/lastmile_qr_scan", "ios": "https://dc.lft.to/lastmile_qr_scan"}, "name": "7335299da71778b8dbeb42ddb863ea07", "is_reserved": 0}, {"is_disabled": 0, "fusion_lon": 0.0, "fusion_lat": 0.0, "lat": 38.897351, "type": "electric_scooter", "lon": -77.00376233333333, "bike_id": "d6fe060c83858d72777590a1bf2ed11b", "rental_uris": {"android": "https://dc.lft.to/lastmile_qr_scan", "ios": "https://dc.lft.to/lastmile_qr_scan"}, "name": "d6fe060c83858d72777590a1bf2ed11b", "is_reserved": 0}, {"is_disabled": 0, "fusion_lon": 0.0, "fusion_lat": 0.0, "lat": 38.938643166666665, "type": "electric_scooter", "lon": -77.02654383333333, "bike_id": "5fafc4060b2be0c5eb6b54e06e679380", "rental_uris": {"android": "https://dc.lft.to/lastmile_qr_scan", "ios": "https://dc.lft.to/lastmile_qr_scan"}, "name": "5fafc4060b2be0c5eb6b54e06e679380", "is_reserved": 0}, {"is_disabled": 0, "fusion_lon": 0.0, "fusion_lat": 0.0, "lat": 38.907369333333335, "type": "electric_scooter", "lon": -77.0295505, "bike_id": "5e71137679714dc53c299a15396e13a3", "rental_uris": {"android": "https://dc.lft.to/lastmile_qr_scan", "ios": "https://dc.lft.to/lastmile_qr_scan"}, "name": "5e71137679714dc53c299a15396e13a3", "is_reserved": 0}, {"is_disabled": 0, "fusion_lon": 0.0, "fusion_lat": 0.0, "lat": 38.95606766666667, "type": "electric_scooter", "lon": -77.02794633333333, "bike_id": "5306d75e761e0e374b8671764a5db379", "rental_uris": {"android": "https://dc.lft.to/lastmile_qr_scan", "ios": "https://dc.lft.to/lastmile_qr_scan"}, "name": "5306d75e761e0e374b8671764a5db379", "is_reserved": 0}, {"is_disabled": 0, "fusion_lon": 0.0, "fusion_lat": 0.0, "lat": 38.87659716666667, "type": "electric_scooter", "lon": -77.0080895, "bike_id": "e67a6014ab150102d19d91a7b2aaf9b5", "rental_uris": {"android": "https://dc.lft.to/lastmile_qr_scan", "ios": "https://dc.lft.to/lastmile_qr_scan"}, "name": "e67a6014ab150102d19d91a7b2aaf9b5", "is_reserved": 0}, {"is_disabled": 0, "fusion_lon": 0.0, "fusion_lat": 0.0, "lat": 38.866611166666665, "type": "electric_scooter", "lon": -76.9888835, "bike_id": "0b447b6b6ab02d772c37515a5a0b41a1", "rental_uris": {"android": "https://dc.lft.to/lastmile_qr_scan", "ios": "https://dc.lft.to/lastmile_qr_scan"}, "name": "0b447b6b6ab02d772c37515a5a0b41a1", "is_reserved": 0}, {"is_disabled": 0, "fusion_lon": 0.0, "fusion_lat": 0.0, "lat": 38.8983035, "type": "electric_scooter", "lon": -77.02946066666667, "bike_id": "d0b8d001e5e06667576db0b23a4b78f8", "rental_uris": {"android": "https://dc.lft.to/lastmile_qr_scan", "ios": "https://dc.lft.to/lastmile_qr_scan"}, "name": "d0b8d001e5e06667576db0b23a4b78f8", "is_reserved": 0}, {"is_disabled": 0, "fusion_lon": 0.0, "fusion_lat": 0.0, "lat": 38.892148666666664, "type": "electric_bike", "lon": -76.98557583333333, "bike_id": "ff50338daf6394038d2507baf79de22d", "rental_uris": {"android": "https://dc.lft.to/lastmile_qr_scan", "ios": "https://dc.lft.to/lastmile_qr_scan"}, "name": "ff50338daf6394038d2507baf79de22d", "is_reserved": 0}, {"is_disabled": 0, "fusion_lon": 0.0, "fusion_lat": 0.0, "lat": 38.9171975, "type": "electric_bike", "lon": -77.22116833333334, "bike_id": "e9551e8453dabdb4f5bdc420eefbeb34", "rental_uris": {"android": "https://dc.lft.to/lastmile_qr_scan", "ios": "https://dc.lft.to/lastmile_qr_scan"}, "name": "e9551e8453dabdb4f5bdc420eefbeb34", "is_reserved": 0}, {"is_disabled": 0, "fusion_lon": 0.0, "fusion_lat": 0.0, "lat": 38.93670516666667, "type": "electric_bike", "lon": -76.95208566666666, "bike_id": "e26312b2e9f9c30fcd376de38f8b8eae", "rental_uris": {"android": "https://dc.lft.to/lastmile_qr_scan", "ios": "https://dc.lft.to/lastmile_qr_scan"}, "name": "e26312b2e9f9c30fcd376de38f8b8eae", "is_reserved": 0}, {"is_disabled": 0, "fusion_lon": 0.0, "fusion_lat": 0.0, "lat": 39.03885066666667, "type": "electric_bike", "lon": -77.109101, "bike_id": "d2ccdaddec056910154ec128da03a69d", "rental_uris": {"android": "https://dc.lft.to/lastmile_qr_scan", "ios": "https://dc.lft.to/lastmile_qr_scan"}, "name": "d2ccdaddec056910154ec128da03a69d", "is_reserved": 0}, {"is_disabled": 0, "fusion_lon": 0.0, "fusion_lat": 0.0, "lat": 38.931434, "type": "electric_scooter", "lon": -77.04056166666666, "bike_id": "ac8d5ece2d7b6b26d73aaabc150befe6", "rental_uris": {"android": "https://dc.lft.to/lastmile_qr_scan", "ios": "https://dc.lft.to/lastmile_qr_scan"}, "name": "ac8d5ece2d7b6b26d73aaabc150befe6", "is_reserved": 0}, {"is_disabled": 0, "fusion_lon": 0.0, "fusion_lat": 0.0, "lat": 38.8650475, "type": "electric_scooter", "lon": -76.990054, "bike_id": "9579efac2708b3192db09c88b23c8094", "rental_uris": {"android": "https://dc.lft.to/lastmile_qr_scan", "ios": "https://dc.lft.to/lastmile_qr_scan"}, "name": "9579efac2708b3192db09c88b23c8094", "is_reserved": 0}, {"is_disabled": 0, "fusion_lon": 0.0, "fusion_lat": 0.0, "lat": 38.92063183333333, "type": "electric_scooter", "lon": -77.046987, "bike_id": "37bc915bd7429d770a08fd1feb5dc759", "rental_uris": {"android": "https://dc.lft.to/lastmile_qr_scan", "ios": "https://dc.lft.to/lastmile_qr_scan"}, "name": "37bc915bd7429d770a08fd1feb5dc759", "is_reserved": 0}, {"is_disabled": 0, "fusion_lon": 0.0, "fusion_lat": 0.0, "lat": 38.89396516666667, "type": "electric_scooter", "lon": -76.9499305, "bike_id": "84a0d4e984cd136bc167ecb198f6a436", "rental_uris": {"android": "https://dc.lft.to/lastmile_qr_scan", "ios": "https://dc.lft.to/lastmile_qr_scan"}, "name": "84a0d4e984cd136bc167ecb198f6a436", "is_reserved": 0}, {"is_disabled": 0, "fusion_lon": 0.0, "fusion_lat": 0.0, "lat": 38.8654115, "type": "electric_scooter", "lon": -76.9870945, "bike_id": "838ba7e2b0f65960f16a12a2dff3829c", "rental_uris": {"android": "https://dc.lft.to/lastmile_qr_scan", "ios": "https://dc.lft.to/lastmile_qr_scan"}, "name": "838ba7e2b0f65960f16a12a2dff3829c", "is_reserved": 0}, {"is_disabled": 0, "fusion_lon": 0.0, "fusion_lat": 0.0, "lat": 38.9119505, "type": "electric_scooter", "lon": -77.03923183333333, "bike_id": "71d4b79c79568a5e0ab7b7c6315fb1c4", "rental_uris": {"android": "https://dc.lft.to/lastmile_qr_scan", "ios": "https://dc.lft.to/lastmile_qr_scan"}, "name": "71d4b79c79568a5e0ab7b7c6315fb1c4", "is_reserved": 0}, {"is_disabled": 0, "fusion_lon": 0.0, "fusion_lat": 0.0, "lat": 38.91066033333333, "type": "electric_scooter", "lon": -77.0416705, "bike_id": "16af82ac4af318c0933367ca7f34443d", "rental_uris": {"android": "https://dc.lft.to/lastmile_qr_scan", "ios": "https://dc.lft.to/lastmile_qr_scan"}, "name": "16af82ac4af318c0933367ca7f34443d", "is_reserved": 0}, {"is_disabled": 0, "fusion_lon": 0.0, "fusion_lat": 0.0, "lat": 38.8812605, "type": "electric_scooter", "lon": -76.995983, "bike_id": "92214767508b01aa93cef1b442c14896", "rental_uris": {"android": "https://dc.lft.to/lastmile_qr_scan", "ios": "https://dc.lft.to/lastmile_qr_scan"}, "name": "92214767508b01aa93cef1b442c14896", "is_reserved": 0}, {"is_disabled": 0, "fusion_lon": 0.0, "fusion_lat": 0.0, "lat": 38.905470666666666, "type": "electric_scooter", "lon": -77.05401233333333, "bike_id": "74ec64718f9c9ad759e6a79e89c18aa9", "rental_uris": {"android": "https://dc.lft.to/lastmile_qr_scan", "ios": "https://dc.lft.to/lastmile_qr_scan"}, "name": "74ec64718f9c9ad759e6a79e89c18aa9", "is_reserved": 0}, {"is_disabled": 0, "fusion_lon": 0.0, "fusion_lat": 0.0, "lat": 38.911955666666664, "type": "electric_scooter", "lon": -77.04174, "bike_id": "658bfbed204ab916a63674ddca453383", "rental_uris": {"android": "https://dc.lft.to/lastmile_qr_scan", "ios": "https://dc.lft.to/lastmile_qr_scan"}, "name": "658bfbed204ab916a63674ddca453383", "is_reserved": 0}, {"is_disabled": 0, "fusion_lon": 0.0, "fusion_lat": 0.0, "lat": 38.86507366666667, "type": "electric_scooter", "lon": -76.99006383333334, "bike_id": "b6154d557d4391922b8454248e7a7b0c", "rental_uris": {"android": "https://dc.lft.to/lastmile_qr_scan", "ios": "https://dc.lft.to/lastmile_qr_scan"}, "name": "b6154d557d4391922b8454248e7a7b0c", "is_reserved": 0}, {"is_disabled": 0, "fusion_lon": 0.0, "fusion_lat": 0.0, "lat": 38.89826083333333, "type": "electric_scooter", "lon": -77.03358533333333, "bike_id": "019b33ebd0985cd9f9b0e754d766495d", "rental_uris": {"android": "https://dc.lft.to/lastmile_qr_scan", "ios": "https://dc.lft.to/lastmile_qr_scan"}, "name": "019b33ebd0985cd9f9b0e754d766495d", "is_reserved": 0}, {"is_disabled": 0, "fusion_lon": 0.0, "fusion_lat": 0.0, "lat": 38.91419116666667, "type": "electric_scooter", "lon": -77.03905716666667, "bike_id": "05613ee9adb1ac064a4af0a9b05aba2f", "rental_uris": {"android": "https://dc.lft.to/lastmile_qr_scan", "ios": "https://dc.lft.to/lastmile_qr_scan"}, "name": "05613ee9adb1ac064a4af0a9b05aba2f", "is_reserved": 0}, {"is_disabled": 0, "fusion_lon": 0.0, "fusion_lat": 0.0, "lat": 38.905325, "type": "electric_scooter", "lon": -77.04880983333334, "bike_id": "0d744d016960cfb3ed1cd54f5a66ccb0", "rental_uris": {"android": "https://dc.lft.to/lastmile_qr_scan", "ios": "https://dc.lft.to/lastmile_qr_scan"}, "name": "0d744d016960cfb3ed1cd54f5a66ccb0", "is_reserved": 0}, {"is_disabled": 0, "fusion_lon": 0.0, "fusion_lat": 0.0, "lat": 38.91484766666667, "type": "electric_scooter", "lon": -77.03461683333333, "bike_id": "c3074f647665a728c63dd69119cfdfb0", "rental_uris": {"android": "https://dc.lft.to/lastmile_qr_scan", "ios": "https://dc.lft.to/lastmile_qr_scan"}, "name": "c3074f647665a728c63dd69119cfdfb0", "is_reserved": 0}, {"is_disabled": 0, "fusion_lon": 0.0, "fusion_lat": 0.0, "lat": 39.088434666666664, "type": "electric_bike", "lon": -77.17801666666666, "bike_id": "a891408c83e494b672df7ef786874776", "rental_uris": {"android": "https://dc.lft.to/lastmile_qr_scan", "ios": "https://dc.lft.to/lastmile_qr_scan"}, "name": "a891408c83e494b672df7ef786874776", "is_reserved": 0}, {"is_disabled": 0, "fusion_lon": 0.0, "fusion_lat": 0.0, "lat": 38.87912583333333, "type": "electric_scooter", "lon": -77.02202066666666, "bike_id": "c998dcf11eac607264750d265700605a", "rental_uris": {"android": "https://dc.lft.to/lastmile_qr_scan", "ios": "https://dc.lft.to/lastmile_qr_scan"}, "name": "c998dcf11eac607264750d265700605a", "is_reserved": 0}, {"is_disabled": 0, "fusion_lon": 0.0, "fusion_lat": 0.0, "lat": 38.88417116666667, "type": "electric_scooter", "lon": -76.9542385, "bike_id": "1bb2e752a1cc1e102196b7e27a39741e", "rental_uris": {"android": "https://dc.lft.to/lastmile_qr_scan", "ios": "https://dc.lft.to/lastmile_qr_scan"}, "name": "1bb2e752a1cc1e102196b7e27a39741e", "is_reserved": 0}, {"is_disabled": 0, "fusion_lon": 0.0, "fusion_lat": 0.0, "lat": 38.86673483333333, "type": "electric_scooter", "lon": -76.98882816666666, "bike_id": "5f6512c74c45256ebfdd7426f7c8e1f2", "rental_uris": {"android": "https://dc.lft.to/lastmile_qr_scan", "ios": "https://dc.lft.to/lastmile_qr_scan"}, "name": "5f6512c74c45256ebfdd7426f7c8e1f2", "is_reserved": 0}, {"is_disabled": 0, "fusion_lon": 0.0, "fusion_lat": 0.0, "lat": 38.91799316666667, "type": "electric_scooter", "lon": -77.03449733333333, "bike_id": "512ee30f6bbae175023f1d57d14a53f5", "rental_uris": {"android": "https://dc.lft.to/lastmile_qr_scan", "ios": "https://dc.lft.to/lastmile_qr_scan"}, "name": "512ee30f6bbae175023f1d57d14a53f5", "is_reserved": 0}, {"is_disabled": 0, "fusion_lon": 0.0, "fusion_lat": 0.0, "lat": 38.913318, "type": "electric_scooter", "lon": -77.0326465, "bike_id": "0cde471a2f3233c1ab1c02b2baee7f96", "rental_uris": {"android": "https://dc.lft.to/lastmile_qr_scan", "ios": "https://dc.lft.to/lastmile_qr_scan"}, "name": "0cde471a2f3233c1ab1c02b2baee7f96", "is_reserved": 0}, {"is_disabled": 0, "fusion_lon": 0.0, "fusion_lat": 0.0, "lat": 38.892089166666665, "type": "electric_scooter", "lon": -76.98805766666666, "bike_id": "62cf402d750371e9f8d2652b4a593d35", "rental_uris": {"android": "https://dc.lft.to/lastmile_qr_scan", "ios": "https://dc.lft.to/lastmile_qr_scan"}, "name": "62cf402d750371e9f8d2652b4a593d35", "is_reserved": 0}, {"is_disabled": 0, "fusion_lon": 0.0, "fusion_lat": 0.0, "lat": 38.93193083333333, "type": "electric_scooter", "lon": -77.02835966666666, "bike_id": "2dbe47bbb3eb8e3d59732dead871fb6a", "rental_uris": {"android": "https://dc.lft.to/lastmile_qr_scan", "ios": "https://dc.lft.to/lastmile_qr_scan"}, "name": "2dbe47bbb3eb8e3d59732dead871fb6a", "is_reserved": 0}, {"is_disabled": 0, "fusion_lon": 0.0, "fusion_lat": 0.0, "lat": 38.920061833333335, "type": "electric_scooter", "lon": -77.03193583333334, "bike_id": "92b5dc06acfb1db1d17680135f656e92", "rental_uris": {"android": "https://dc.lft.to/lastmile_qr_scan", "ios": "https://dc.lft.to/lastmile_qr_scan"}, "name": "92b5dc06acfb1db1d17680135f656e92", "is_reserved": 0}, {"is_disabled": 0, "fusion_lon": 0.0, "fusion_lat": 0.0, "lat": 38.91868516666667, "type": "electric_scooter", "lon": -77.04488383333333, "bike_id": "ade40b7e6f2cc643bc100f9496c88927", "rental_uris": {"android": "https://dc.lft.to/lastmile_qr_scan", "ios": "https://dc.lft.to/lastmile_qr_scan"}, "name": "ade40b7e6f2cc643bc100f9496c88927", "is_reserved": 0}, {"is_disabled": 0, "fusion_lon": 0.0, "fusion_lat": 0.0, "lat": 38.90983666666666, "type": "electric_scooter", "lon": -77.0454475, "bike_id": "b5dda43d7183b9c6eec992d317635cab", "rental_uris": {"android": "https://dc.lft.to/lastmile_qr_scan", "ios": "https://dc.lft.to/lastmile_qr_scan"}, "name": "b5dda43d7183b9c6eec992d317635cab", "is_reserved": 0}, {"is_disabled": 0, "fusion_lon": 0.0, "fusion_lat": 0.0, "lat": 38.902801, "type": "electric_scooter", "lon": -77.02422233333333, "bike_id": "9577799846743266e04f96428a5a7e2a", "rental_uris": {"android": "https://dc.lft.to/lastmile_qr_scan", "ios": "https://dc.lft.to/lastmile_qr_scan"}, "name": "9577799846743266e04f96428a5a7e2a", "is_reserved": 0}, {"is_disabled": 0, "fusion_lon": 0.0, "fusion_lat": 0.0, "lat": 38.91784716666667, "type": "electric_scooter", "lon": -77.02310916666667, "bike_id": "41e8127845774dcfad9a62b46d300394", "rental_uris": {"android": "https://dc.lft.to/lastmile_qr_scan", "ios": "https://dc.lft.to/lastmile_qr_scan"}, "name": "41e8127845774dcfad9a62b46d300394", "is_reserved": 0}, {"is_disabled": 0, "fusion_lon": 0.0, "fusion_lat": 0.0, "lat": 38.90544916666666, "type": "electric_scooter", "lon": -77.05088616666667, "bike_id": "5eefa832c03112581273820e60fc6ebe", "rental_uris": {"android": "https://dc.lft.to/lastmile_qr_scan", "ios": "https://dc.lft.to/lastmile_qr_scan"}, "name": "5eefa832c03112581273820e60fc6ebe", "is_reserved": 0}, {"is_disabled": 0, "fusion_lon": 0.0, "fusion_lat": 0.0, "lat": 38.98027666666667, "type": "electric_bike", "lon": -76.92912566666666, "bike_id": "284c4073de7d94672bb4e983b631fcf4", "rental_uris": {"android": "https://dc.lft.to/lastmile_qr_scan", "ios": "https://dc.lft.to/lastmile_qr_scan"}, "name": "284c4073de7d94672bb4e983b631fcf4", "is_reserved": 0}, {"is_disabled": 0, "fusion_lon": 0.0, "fusion_lat": 0.0, "lat": 38.895576, "type": "electric_scooter", "lon": -77.00408483333334, "bike_id": "36f2392bfd2d164b23d564fd276c712e", "rental_uris": {"android": "https://dc.lft.to/lastmile_qr_scan", "ios": "https://dc.lft.to/lastmile_qr_scan"}, "name": "36f2392bfd2d164b23d564fd276c712e", "is_reserved": 0},