{"data": {"bikes": [{"lat": 38.876521333333336, "lon": -77.00581466666667, "is_disabled": 0, "fusion_lon": 0.0, "is_reserved": 0, "name": "88239d555746919d28a56f31cfc9972c", "type": "electric_scooter", "bike_id": "88239d555746919d28a56f31cfc9972c", "rental_uris": {"ios": "https://dc.lft.to/lastmile_qr_scan", "android": "https://dc.lft.to/lastmile_qr_scan"}, "fusion_lat": 0.0}, {"lat": 38.9045885, "lon": -77.06272033333333, "is_disabled": 0, "fusion_lon": 0.0, "is_reserved": 0, "name": "c45ed374c4dbeca00c4edd064a1eed2f", "type": "electric_scooter", "bike_id": "c45ed374c4dbeca00c4edd064a1eed2f", "rental_uris": {"ios": "https://dc.lft.to/lastmile_qr_scan", "android": "https://dc.lft.to/lastmile_qr_scan"}, "fusion_lat": 0.0}, {"lat": 38.89072616666667, "lon": -76.98831933333334, "is_disabled": 0, "fusion_lon": 0.0, "is_reserved": 0, "name": "97f4ebbbb7beb62893d3e2a85ee8bbf4", "type": "electric_scooter", "bike_id": "97f4ebbbb7beb62893d3e2a85ee8bbf4", "rental_uris": {"ios": "https://dc.lft.to/lastmile_qr_scan", "android": "https://dc.lft.to/lastmile_qr_scan"}, "fusion_lat": 0.0}, {"lat": 38.90035116666667, "lon": -77.03714616666667, "is_disabled": 0, "fusion_lon": 0.0, "is_reserved": 0, "name": "036af9597fbd0d92b883de917e38d514", "type": "electric_scooter", "bike_id": "036af9597fbd0d92b883de917e38d514", "rental_uris": {"ios": "https://dc.lft.to/lastmile_qr_scan", "android": "https://dc.lft.to/lastmile_qr_scan"}, "fusion_lat": 0.0}, {"lat": 38.921427666666666, "lon": -77.04368916666667, "is_disabled": 0, "fusion_lon": 0.0, "is_reserved": 0, "name": "f094d6c9d2298abf0f7215c8ca01fd2a", "type": "electric_scooter", "bike_id": "f094d6c9d2298abf0f7215c8ca01fd2a", "rental_uris": {"ios": "https://dc.lft.to/lastmile_qr_scan", "android": "https://dc.lft.to/lastmile_qr_scan"}, "fusion_lat": 0.0}, {"lat": 38.9128035, "lon": -77.0451035, "is_disabled": 0, "fusion_lon": 0.0, "is_reserved": 0, "name": "98136dd9e8b0d87ce57fb957cd27c668", "type": "electric_scooter", "bike_id": "98136dd9e8b0d87ce57fb957cd27c668", "rental_uris": {"ios": "https://dc.lft.to/lastmile_qr_scan", "android": "https://dc.lft.to/lastmile_qr_scan"}, "fusion_lat": 0.0}, {"lat": 38.906572833333335, "lon": -77.009574, "is_disabled": 0, "fusion_lon": 0.0, "is_reserved": 0, "name": "385e5f558cff24a630616a7d6558f05f", "type": "electric_scooter", "bike_id": "385e5f558cff24a630616a7d6558f05f", "rental_uris": {"ios": "https://dc.lft.to/lastmile_qr_scan", "android": "https://dc.lft.to/lastmile_qr_scan"}, "fusion_lat": 0.0}, {"lat": 38.89298483333334, "lon": -77.0317975, "is_disabled": 0, "fusion_lon": 0.0, "is_reserved": 0, "name": "c1f069ba6f506477e0dc128408ca82ab", "type": "electric_scooter", "bike_id": "c1f069ba6f506477e0dc128408ca82ab", "rental_uris": {"ios": "https://dc.lft.to/lastmile_qr_scan", "android": "https://dc.lft.to/lastmile_qr_scan"}, "fusion_lat": 0.0}, {"lat": 38.836279, "lon": -77.06947883333333, "is_disabled": 0, "fusion_lon": 0.0, "is_reserved": 0, "name": "4e9490478ad3e495d2b24b155880c788", "type": "electric_bike", "bike_id": "4e9490478ad3e495d2b24b155880c788", "rental_uris": {"ios": "https://dc.lft.to/lastmile_qr_scan", "android": "https://dc.lft.to/lastmile_qr_scan"}, "fusion_lat": 0.0}, {"lat": 38.89928483333333, "lon": -77.01270883333333, "is_disabled": 0, "fusion_lon": 0.0, "is_reserved": 0, "name": "4062ed221b82018d8bf368fb22b2bc5f", "type": "electric_scooter", "bike_id": "4062ed221b82018d8bf368fb22b2bc5f", "rental_uris": {"ios": "https://dc.lft.to/lastmile_qr_scan", "android": "https://dc.lft.to/lastmile_qr_scan"}, "fusion_lat": 0.0}, {"lat": 38.918567333333336, "lon": -76.9608845, "is_disabled": 0, "fusion_lon": 0.0, "is_reserved": 0, "name": "ed4e27a623ef1fd7157f45258275e801", "type": "electric_bike", "bike_id": "ed4e27a623ef1fd7157f45258275e801", "rental_uris": {"ios": "https://dc.lft.to/lastmile_qr_scan", "android": "https://dc.lft.to/lastmile_qr_scan"}, "fusion_lat": 0.0}, {"lat": 38.9156755, "lon": -77.03194033333334, "is_disabled": 0, "fusion_lon": 0.0, "is_reserved": 0, "name": "51c11adae60f2b63105fad65b429cb41", "type": "electric_scooter", "bike_id": "51c11adae60f2b63105fad65b429cb41", "rental_uris": {"ios": "https://dc.lft.to/lastmile_qr_scan", "android": "https://dc.lft.to/lastmile_qr_scan"}, "fusion_lat": 0.0}, {"lat": 38.96152083333333, "lon": -77.02797983333333, "is_disabled": 0, "fusion_lon": 0.0, "is_reserved": 0, "name": "856bbd15628656566db45dd904363945", "type": "electric_scooter", "bike_id": "856bbd15628656566db45dd904363945", "rental_uris": {"ios": "https://dc.lft.to/lastmile_qr_scan", "android": "https://dc.lft.to/lastmile_qr_scan"}, "fusion_lat": 0.0}, {"lat": 38.90715383333333, "lon": -77.016633, "is_disabled": 0, "fusion_lon": 0.0, "is_reserved": 0, "name": "c0b443b81455a56816ac6878cd5771d9", "type": "electric_scooter", "bike_id": "c0b443b81455a56816ac6878cd5771d9", "rental_uris": {"ios": "https://dc.lft.to/lastmile_qr_scan", "android": "https://dc.lft.to/lastmile_qr_scan"}, "fusion_lat": 0.0}, {"lat": 38.88743766666666, "lon": -77.02568916666667, "is_disabled": 0, "fusion_lon": 0.0, "is_reserved": 0, "name": "1934cb22e8b0de1ae0d4db2021ecaf13", "type": "electric_scooter", "bike_id": "1934cb22e8b0de1ae0d4db2021ecaf13", "rental_uris": {"ios": "https://dc.lft.to/lastmile_qr_scan", "android": "https://dc.lft.to/lastmile_qr_scan"}, "fusion_lat": 0.0}, {"lat": 38.91714616666667, "lon": -77.02955633333333, "is_disabled": 0, "fusion_lon": 0.0, "is_reserved": 0, "name": "c0adbedfe44066c50f60ea826afce4a6", "type": "electric_scooter", "bike_id": "c0adbedfe44066c50f60ea826afce4a6", "rental_uris": {"ios": "https://dc.lft.to/lastmile_qr_scan", "android": "https://dc.lft.to/lastmile_qr_scan"}, "fusion_lat": 0.0}, {"lat": 38.9050035, "lon": -77.0433885, "is_disabled": 0, "fusion_lon": 0.0, "is_reserved": 0, "name": "ca2337425ee264950b363e10ae9079ef", "type": "electric_scooter", "bike_id": "ca2337425ee264950b363e10ae9079ef", "rental_uris": {"ios": "https://dc.lft.to/lastmile_qr_scan", "android": "https://dc.lft.to/lastmile_qr_scan"}, "fusion_lat": 0.0}, {"lat": 38.9205255, "lon": -77.046253, "is_disabled": 0, "fusion_lon": 0.0, "is_reserved": 0, "name": "50bc48fadddf8139d172a99322769dfa", "type": "electric_scooter", "bike_id": "50bc48fadddf8139d172a99322769dfa", "rental_uris": {"ios": "https://dc.lft.to/lastmile_qr_scan", "android": "https://dc.lft.to/lastmile_qr_scan"}, "fusion_lat": 0.0}, {"lat": 38.899498333333334, "lon": -77.04980483333334, "is_disabled": 0, "fusion_lon": 0.0, "is_reserved": 0, "name": "20158e50ed1ad6a3d948c8591e0b45fe", "type": "electric_scooter", "bike_id": "20158e50ed1ad6a3d948c8591e0b45fe", "rental_uris": {"ios": "https://dc.lft.to/lastmile_qr_scan", "android": "https://dc.lft.to/lastmile_qr_scan"}, "fusion_lat": 0.0}, {"lat": 38.89954016666667, "lon": -77.045189, "is_disabled": 0, "fusion_lon": 0.0, "is_reserved": 0, "name": "2f83b46e38a6c2a02c6a2b1780732933", "type": "electric_scooter", "bike_id": "2f83b46e38a6c2a02c6a2b1780732933", "rental_uris": {"ios": "https://dc.lft.to/lastmile_qr_scan", "android": "https://dc.lft.to/lastmile_qr_scan"}, "fusion_lat": 0.0}, {"lat": 38.89656, "lon": -77.02730933333333, "is_disabled": 0, "fusion_lon": 0.0, "is_reserved": 0, "name": "667525d60571b28783dfb4e1c0c6db38", "type": "electric_scooter", "bike_id": "667525d60571b28783dfb4e1c0c6db38", "rental_uris": {"ios": "https://dc.lft.to/lastmile_qr_scan", "android": "https://dc.lft.to/lastmile_qr_scan"}, "fusion_lat": 0.0}, {"lat": 38.89618183333333, "lon": -76.98568233333333, "is_disabled": 0, "fusion_lon": 0.0, "is_reserved": 0, "name": "99be7660606d31d2bcc86a79a956d9ef", "type": "electric_scooter", "bike_id": "99be7660606d31d2bcc86a79a956d9ef", "rental_uris": {"ios": "https://dc.lft.to/lastmile_qr_scan", "android": "https://dc.lft.to/lastmile_qr_scan"}, "fusion_lat": 0.0}, {"lat": 38.926098, "lon": -77.023904, "is_disabled": 0, "fusion_lon": 0.0, "is_reserved": 0, "name": "389f2aecf62a48f006077c6377aee5e2", "type": "electric_scooter", "bike_id": "389f2aecf62a48f006077c6377aee5e2", "rental_uris": {"ios": "https://dc.lft.to/lastmile_qr_scan", "android": "https://dc.lft.to/lastmile_qr_scan"}, "fusion_lat": 0.0}, {"lat": 38.894939, "lon": -77.02817683333333, "is_disabled": 0, "fusion_lon": 0.0, "is_reserved": 0, "name": "e62e38d7f435b5723fca1bb3373e226e", "type": "electric_scooter", "bike_id": "e62e38d7f435b5723fca1bb3373e226e", "rental_uris": {"ios": "https://dc.lft.to/lastmile_qr_scan", "android": "https://dc.lft.to/lastmile_qr_scan"}, "fusion_lat": 0.0}, {"lat": 38.95653166666666, "lon": -77.00988866666667, "is_disabled": 0, "fusion_lon": 0.0, "is_reserved": 0, "name": "a3bc8e75f1cacb7f492c3d9224e18f81", "type": "electric_scooter", "bike_id": "a3bc8e75f1cacb7f492c3d9224e18f81", "rental_uris": {"ios": "https://dc.lft.to/lastmile_qr_scan", "android": "https://dc.lft.to/lastmile_qr_scan"}, "fusion_lat": 0.0}, {"lat": 38.885402, "lon": -76.97890166666667, "is_disabled": 0, "fusion_lon": 0.0, "is_reserved": 0, "name": "68484c40a4b655e404a02cbfc1bd1e50", "type": "electric_scooter", "bike_id": "68484c40a4b655e404a02cbfc1bd1e50", "rental_uris": {"ios": "https://dc.lft.to/lastmile_qr_scan", "android": "https://dc.lft.to/lastmile_qr_scan"}, "fusion_lat": 0.0}, {"lat": 38.9026435, "lon": -77.03434083333333, "is_disabled": 0, "fusion_lon": 0.0, "is_reserved": 0, "name": "6380bffeb1663a45a6b16a208dcf7e4f", "type": "electric_scooter", "bike_id": "6380bffeb1663a45a6b16a208dcf7e4f", "rental_uris": {"ios": "https://dc.lft.to/lastmile_qr_scan", "android": "https://dc.lft.to/lastmile_qr_scan"}, "fusion_lat": 0.0}, {"lat": 38.90072, "lon": -77.039081, "is_disabled": 0, "fusion_lon": 0.0, "is_reserved": 0, "name": "d4450da37a340cbf70f2917cbdfb96a5", "type": "electric_bike", "bike_id": "d4450da37a340cbf70f2917cbdfb96a5", "rental_uris": {"ios": "https://dc.lft.to/lastmile_qr_scan", "android": "https://dc.lft.to/lastmile_qr_scan"}, "fusion_lat": 0.0}, {"lat": 38.909275666666666, "lon": -77.03973583333334, "is_disabled": 0, "fusion_lon": 0.0, "is_reserved": 0, "name": "7b7c097a96d2f9fb78c801420264cc39", "type": "electric_scooter", "bike_id": "7b7c097a96d2f9fb78c801420264cc39", "rental_uris": {"ios": "https://dc.lft.to/lastmile_qr_scan", "android": "https://dc.lft.to/lastmile_qr_scan"}, "fusion_lat": 0.0}, {"lat": 38.92166666666667, "lon": -77.018052, "is_disabled": 0, "fusion_lon": 0.0, "is_reserved": 0, "name": "bac29f76a1da3f47f92f0807467c1048", "type": "electric_scooter", "bike_id": "bac29f76a1da3f47f92f0807467c1048", "rental_uris": {"ios": "https://dc.lft.to/lastmile_qr_scan", "android": "https://dc.lft.to/lastmile_qr_scan"}, "fusion_lat": 0.0}, {"lat": 38.98462, "lon": -77.026902, "is_disabled": 0, "fusion_lon": 0.0, "is_reserved": 0, "name": "d640ad80cecf9ec0b3e9c3c699dc4325", "type": "electric_scooter", "bike_id": "d640ad80cecf9ec0b3e9c3c699dc4325", "rental_uris": {"ios": "https://dc.lft.to/lastmile_qr_scan", "android": "https://dc.lft.to/lastmile_qr_scan"}, "fusion_lat": 0.0}, {"lat": 38.8999665, "lon": -77.022778, "is_disabled": 0, "fusion_lon": 0.0, "is_reserved": 0, "name": "80f54e0eb87170030e8bb6842e308cf9", "type": "electric_scooter", "bike_id": "80f54e0eb87170030e8bb6842e308cf9", "rental_uris": {"ios": "https://dc.lft.to/lastmile_qr_scan", "android": "https://dc.lft.to/lastmile_qr_scan"}, "fusion_lat": 0.0}, {"lat": 38.890161666666664, "lon": -76.937403, "is_disabled": 0, "fusion_lon": 0.0, "is_reserved": 0, "name": "605e8170ba5b9a27bb47467b3925d5fe", "type": "electric_scooter", "bike_id": "605e8170ba5b9a27bb47467b3925d5fe", "rental_uris": {"ios": "https://dc.lft.to/lastmile_qr_scan", "android": "https://dc.lft.to/lastmile_qr_scan"}, "fusion_lat": 0.0}, {"lat": 38.89791533333333, "lon": -77.0091875, "is_disabled": 0, "fusion_lon": 0.0, "is_reserved": 0, "name": "6057181a6665935dbfc3359f001cdc06", "type": "electric_scooter", "bike_id": "6057181a6665935dbfc3359f001cdc06", "rental_uris": {"ios": "https://dc.lft.to/lastmile_qr_scan", "android": "https://dc.lft.to/lastmile_qr_scan"}, "fusion_lat": 0.0}, {"lat": 38.9096205, "lon": -77.0476675, "is_disabled": 0, "fusion_lon": 0.0, "is_reserved": 0, "name": "93be5a162d5a49eb2b2d8681b4a6ad1b", "type": "electric_bike", "bike_id": "93be5a162d5a49eb2b2d8681b4a6ad1b", "rental_uris": {"ios": "https://dc.lft.to/lastmile_qr_scan", "android": "https://dc.lft.to/lastmile_qr_scan"}, "fusion_lat": 0.0}, {"lat": 38.91545833333333, "lon": -77.03206216666666, "is_disabled": 0, "fusion_lon": 0.0, "is_reserved": 0, "name": "7c070033eef9f14a78d3a3ca7669ea14", "type": "electric_scooter", "bike_id": "7c070033eef9f14a78d3a3ca7669ea14", "rental_uris": {"ios": "https://dc.lft.to/lastmile_qr_scan", "android": "https://dc.lft.to/lastmile_qr_scan"}, "fusion_lat": 0.0}, {"lat": 38.90528833333333, "lon": -77.0485895, "is_disabled": 0, "fusion_lon": 0.0, "is_reserved": 0, "name": "280ec177f1c64b34f2065b4e8f862344", "type": "electric_scooter", "bike_id": "280ec177f1c64b34f2065b4e8f862344", "rental_uris": {"ios": "https://dc.lft.to/lastmile_qr_scan", "android": "https://dc.lft.to/lastmile_qr_scan"}, "fusion_lat": 0.0}, {"lat": 38.897628833333336, "lon": -77.02727216666666, "is_disabled": 0, "fusion_lon": 0.0, "is_reserved": 0, "name": "0ef8b8435e53429579c40ebe66e32b31", "type": "electric_scooter", "bike_id": "0ef8b8435e53429579c40ebe66e32b31", "rental_uris": {"ios": "https://dc.lft.to/lastmile_qr_scan", "android": "https://dc.lft.to/lastmile_qr_scan"}, "fusion_lat": 0.0}, {"lat": 38.8874525, "lon": -77.02568083333334, "is_disabled": 0, "fusion_lon": 0.0, "is_reserved": 0, "name": "bc9dd1572c626b76da594590ae7ebbd5", "type": "electric_scooter", "bike_id": "bc9dd1572c626b76da594590ae7ebbd5", "rental_uris": {"ios": "https://dc.lft.to/lastmile_qr_scan", "android": "https://dc.lft.to/lastmile_qr_scan"}, "fusion_lat": 0.0}, {"lat": 38.92582133333333, "lon": -77.03195133333334, "is_disabled": 0, "fusion_lon": 0.0, "is_reserved": 0, "name": "ffcc25c1649637aeb2d5e4fc385b23bb", "type": "electric_scooter", "bike_id": "ffcc25c1649637aeb2d5e4fc385b23bb", "rental_uris": {"ios": "https://dc.lft.to/lastmile_qr_scan", "android": "https://dc.lft.to/lastmile_qr_scan"}, "fusion_lat": 0.0}, {"lat": 38.9055455, "lon": -77.003053, "is_disabled": 0, "fusion_lon": 0.0, "is_reserved": 0, "name": "67713270862425a2247350c50f5e5174", "type": "electric_scooter", "bike_id": "67713270862425a2247350c50f5e5174", "rental_uris": {"ios": "https://dc.lft.to/lastmile_qr_scan", "android": "https://dc.lft.to/lastmile_qr_scan"}, "fusion_lat": 0.0}, {"lat": 38.906780499999996, "lon": -77.03844283333333, "is_disabled": 0, "fusion_lon": 0.0, "is_reserved": 0, "name": "cf4994c7e7a38ce25383dd5568653375", "type": "electric_scooter", "bike_id": "cf4994c7e7a38ce25383dd5568653375", "rental_uris": {"ios": "https://dc.lft.to/lastmile_qr_scan", "android": "https://dc.lft.to/lastmile_qr_scan"}, "fusion_lat": 0.0}, {"lat": 38.936281, "lon": -77.08641316666667, "is_disabled": 0, "fusion_lon": 0.0, "is_reserved": 0, "name": "1787b2c9eb1905a123f9bec45e65106c", "type": "electric_scooter", "bike_id": "1787b2c9eb1905a123f9bec45e65106c", "rental_uris": {"ios": "https://dc.lft.to/lastmile_qr_scan", "android": "https://dc.lft.to/lastmile_qr_scan"}, "fusion_lat": 0.0}, {"lat": 38.914041166666664, "lon": -77.02980416666666, "is_disabled": 0, "fusion_lon": 0.0, "is_reserved": 0, "name": "7a3996f95fd20c5d8408270a8c5336c7", "type": "electric_scooter", "bike_id": "7a3996f95fd20c5d8408270a8c5336c7", "rental_uris": {"ios": "https://dc.lft.to/lastmile_qr_scan", "android": "https://dc.lft.to/lastmile_qr_scan"}, "fusion_lat": 0.0}, {"lat": 38.94830366666667, "lon": -77.09999416666666, "is_disabled": 0, "fusion_lon": 0.0, "is_reserved": 0, "name": "aa06179c27b741df3ab1905637531ca6", "type": "electric_scooter", "bike_id": "aa06179c27b741df3ab1905637531ca6", "rental_uris": {"ios": "https://dc.lft.to/lastmile_qr_scan", "android": "https://dc.lft.to/lastmile_qr_scan"}, "fusion_lat": 0.0}, {"lat": 38.889968333333336, "lon": -76.977337, "is_disabled": 0, "fusion_lon": 0.0, "is_reserved": 0, "name": "e11fcca8216639765c3e6d2ddf14cdd1", "type": "electric_scooter", "bike_id": "e11fcca8216639765c3e6d2ddf14cdd1", "rental_uris": {"ios": "https://dc.lft.to/lastmile_qr_scan", "android": "https://dc.lft.to/lastmile_qr_scan"}, "fusion_lat": 0.0}, {"lat": 38.907057, "lon": -77.04354816666667, "is_disabled": 0, "fusion_lon": 0.0, "is_reserved": 0, "name": "e30ad763d6ae510ab4f146c1c2db8dd1", "type": "electric_scooter", "bike_id": "e30ad763d6ae510ab4f146c1c2db8dd1", "rental_uris": {"ios": "https://dc.lft.to/lastmile_qr_scan", "android": "https://dc.lft.to/lastmile_qr_scan"}, "fusion_lat": 0.0}, {"lat": 38.9169125, "lon": -77.03621616666666, "is_disabled": 0, "fusion_lon": 0.0, "is_reserved": 0, "name": "51dd1d33693f0b7d28c8c0a46552f32b", "type": "electric_scooter", "bike_id": "51dd1d33693f0b7d28c8c0a46552f32b", "rental_uris": {"ios": "https://dc.lft.to/lastmile_qr_scan", "android": "https://dc.lft.to/lastmile_qr_scan"}, "fusion_lat": 0.0}, {"lat": 38.98477666666667, "lon": -77.02631966666667, "is_disabled": 0, "fusion_lon": 0.0, "is_reserved": 0, "name": "4bb320a83f32ee731a8a4d140a887650", "type": "electric_scooter", "bike_id": "4bb320a83f32ee731a8a4d140a887650", "rental_uris": {"ios": "https://dc.lft.to/lastmile_qr_scan", "android": "https://dc.lft.to/lastmile_qr_scan"}, "fusion_lat": 0.0}, {"lat": 38.901335833333334, "lon": -77.016655, "is_disabled": 0, "fusion_lon": 0.0, "is_reserved": 0, "name": "332b01fa9d5144e8a8a981cf686bd068", "type": "electric_scooter", "bike_id": "332b01fa9d5144e8a8a981cf686bd068", "rental_uris": {"ios": "https://dc.lft.to/lastmile_qr_scan", "android": "https://dc.lft.to/lastmile_qr_scan"}, "fusion_lat": 0.0}, {"lat": 38.916985833333335, "lon": -77.04350616666666, "is_disabled": 0, "fusion_lon": 0.0, "is_reserved": 0, "name": "0aa2e68392beb1f26be880bc44cc1dc9", "type": "electric_scooter", "bike_id": "0aa2e68392beb1f26be880bc44cc1dc9", "rental_uris": {"ios": "https://dc.lft.to/lastmile_qr_scan", "android": "https://dc.lft.to/lastmile_qr_scan"}, "fusion_lat": 0.0}, {"lat": 38.903030666666666, "lon": -77.05814433333333, "is_disabled": 0, "fusion_lon": 0.0, "is_reserved": 0, "name": "11af4c6621071f156cfa463c87285ec0", "type": "electric_scooter", "bike_id": "11af4c6621071f156cfa463c87285ec0", "rental_uris": {"ios": "https://dc.lft.to/lastmile_qr_scan", "android": "https://dc.lft.to/lastmile_qr_scan"}, "fusion_lat": 0.0}, {"lat": 38.901425833333334, "lon": -77.01668516666666, "is_disabled": 0, "fusion_lon": 0.0, "is_reserved": 0, "name": "406acac9bc85e01473bc8d10dd52999c", "type": "electric_scooter", "bike_id": "406acac9bc85e01473bc8d10dd52999c", "rental_uris": {"ios": "https://dc.lft.to/lastmile_qr_scan", "android": "https://dc.lft.to/lastmile_qr_scan"}, "fusion_lat": 0.0}, {"lat": 38.90094366666667, "lon": -77.04372966666666, "is_disabled": 0, "fusion_lon": 0.0, "is_reserved": 0, "name": "020e7d7e7c3e13c03e833c97cfb667e1", "type": "electric_scooter", "bike_id": "020e7d7e7c3e13c03e833c97cfb667e1", "rental_uris": {"ios": "https://dc.lft.to/lastmile_qr_scan", "android": "https://dc.lft.to/lastmile_qr_scan"}, "fusion_lat": 0.0}, {"lat": 38.915995333333335, "lon": -77.02295016666666, "is_disabled": 0, "fusion_lon": 0.0, "is_reserved": 0, "name": "4da658e156fe08bc8f282da190d05c56", "type": "electric_scooter", "bike_id": "4da658e156fe08bc8f282da190d05c56", "rental_uris": {"ios": "https://dc.lft.to/lastmile_qr_scan", "android": "https://dc.lft.to/lastmile_qr_scan"}, "fusion_lat": 0.0}, {"lat": 38.92896233333333, "lon": -77.03264683333333, "is_disabled": 0, "fusion_lon": 0.0, "is_reserved": 0, "name": "aee6e4e3baa46b7013759f5a904a4f52", "type": "electric_scooter", "bike_id": "aee6e4e3baa46b7013759f5a904a4f52", "rental_uris": {"ios": "https://dc.lft.to/lastmile_qr_scan", "android": "https://dc.lft.to/lastmile_qr_scan"}, "fusion_lat": 0.0}, {"lat": 38.897308, "lon": -77.0552645, "is_disabled": 0, "fusion_lon": 0.0, "is_reserved": 0, "name": "a6f558235b1ebf5587ca30405ade0a0d", "type": "electric_scooter", "bike_id": "a6f558235b1ebf5587ca30405ade0a0d", "rental_uris": {"ios": "https://dc.lft.to/lastmile_qr_scan", "android": "https://dc.lft.to/lastmile_qr_scan"}, "fusion_lat": 0.0}, {"lat": 38.89477216666667, "lon": -77.0226455, "is_disabled": 0, "fusion_lon": 0.0, "is_reserved": 0, "name": "a48419c9520fa375f27839f8fe0ac7a4", "type": "electric_scooter", "bike_id": "a48419c9520fa375f27839f8fe0ac7a4", "rental_uris": {"ios": "https://dc.lft.to/lastmile_qr_scan", "android": "https://dc.lft.to/lastmile_qr_scan"}, "fusion_lat": 0.0}, {"lat": 38.907289666666664, "lon": -77.00352366666667, "is_disabled": 0, "fusion_lon": 0.0, "is_reserved": 0, "name": "8e55f188857e1fb0a3b57c1ff73ee119", "type": "electric_scooter", "bike_id": "8e55f188857e1fb0a3b57c1ff73ee119", "rental_uris": {"ios": "https://dc.lft.to/lastmile_qr_scan", "android": "https://dc.lft.to/lastmile_qr_scan"}, "fusion_lat": 0.0}, {"lat": 38.92343616666667, "lon": -77.05175166666666, "is_disabled": 0, "fusion_lon": 0.0, "is_reserved": 0, "name": "fc00a2cfcfa076ba4654b2345122d126", "type": "electric_scooter", "bike_id": "fc00a2cfcfa076ba4654b2345122d126", "rental_uris": {"ios": "https://dc.lft.to/lastmile_qr_scan", "android": "https://dc.lft.to/lastmile_qr_scan"}, "fusion_lat": 0.0}, {"lat": 38.892191, "lon": -77.02755083333334, "is_disabled": 0, "fusion_lon": 0.0, "is_reserved": 0, "name": "839cc9d78769c6e5079e4084fd8e0cf1", "type": "electric_scooter", "bike_id": "839cc9d78769c6e5079e4084fd8e0cf1", "rental_uris": {"ios": "https://dc.lft.to/lastmile_qr_scan", "android": "https://dc.lft.to/lastmile_qr_scan"}, "fusion_lat": 0.0}, {"lat": 38.901339, "lon": -77.0442655, "is_disabled": 0, "fusion_lon": 0.0, "is_reserved": 0, "name": "67374e010a6dc210af1dee46f44fa325", "type": "electric_scooter", "bike_id": "67374e010a6dc210af1dee46f44fa325", "rental_uris": {"ios": "https://dc.lft.to/lastmile_qr_scan", "android": "https://dc.lft.to/lastmile_qr_scan"}, "fusion_lat": 0.0}, {"lat": 38.907729333333336, "lon": -77.0716395, "is_disabled": 0, "fusion_lon": 0.0, "is_reserved": 0, "name": "469c96486d0a879716eb4612113d3803", "type": "electric_scooter", "bike_id": "469c96486d0a879716eb4612113d3803", "rental_uris": {"ios": "https://dc.lft.to/lastmile_qr_scan", "android": "https://dc.lft.to/lastmile_qr_scan"}, "fusion_lat": 0.0}, {"lat": 38.90997266666667, "lon": -77.04008333333333, "is_disabled": 0, "fusion_lon": 0.0, "is_reserved": 0, "name": "e7b3ac00cd8addf210c833e0bebb2578", "type": "electric_scooter", "bike_id": "e7b3ac00cd8addf210c833e0bebb2578", "rental_uris": {"ios": "https://dc.lft.to/lastmile_qr_scan", "android": "https://dc.lft.to/lastmile_qr_scan"}, "fusion_lat": 0.0}, {"lat": 38.914759, "lon": -77.04609433333333, "is_disabled": 0, "fusion_lon": 0.0, "is_reserved": 0, "name": "5ebaf86190ec6c532bace44e199be057", "type": "electric_scooter", "bike_id": "5ebaf86190ec6c532bace44e199be057", "rental_uris": {"ios": "https://dc.lft.to/lastmile_qr_scan", "android": "https://dc.lft.to/lastmile_qr_scan"}, "fusion_lat": 0.0}, {"lat": 38.939013, "lon": -77.02451516666666, "is_disabled": 0, "fusion_lon": 0.0, "is_reserved": 0, "name": "6d455709beaf984d26f515227db5143d", "type": "electric_scooter", "bike_id": "6d455709beaf984d26f515227db5143d", "rental_uris": {"ios": "https://dc.lft.to/lastmile_qr_scan", "android": "https://dc.lft.to/lastmile_qr_scan"}, "fusion_lat": 0.0}, {"lat": 38.8964035, "lon": -77.00907716666667, "is_disabled": 0, "fusion_lon": 0.0, "is_reserved": 0, "name": "e98148b218b1808df90725e8f26d3dc1", "type": "electric_scooter", "bike_id": "e98148b218b1808df90725e8f26d3dc1", "rental_uris": {"ios": "https://dc.lft.to/lastmile_qr_scan", "android": "https://dc.lft.to/lastmile_qr_scan"}, "fusion_lat": 0.0}, {"lat": 38.916774833333335, "lon": -77.02627866666667, "is_disabled": 0, "fusion_lon": 0.0, "is_reserved": 0, "name": "f1bf04d6ec2560ddd635ab714248cce2", "type": "electric_scooter", "bike_id": "f1bf04d6ec2560ddd635ab714248cce2", "rental_uris": {"ios": "https://dc.lft.to/lastmile_qr_scan", "android": "https://dc.lft.to/lastmile_qr_scan"}, "fusion_lat": 0.0}, {"lat": 38.919091, "lon": -77.02491166666667, "is_disabled": 0, "fusion_lon": 0.0, "is_reserved": 0, "name": "9aa2bdae4a6dec843efa8a46053f7510", "type": "electric_scooter", "bike_id": "9aa2bdae4a6dec843efa8a46053f7510", "rental_uris": {"ios": "https://dc.lft.to/lastmile_qr_scan", "android": "https://dc.lft.to/lastmile_qr_scan"}, "fusion_lat": 0.0}, {"lat": 38.919229, "lon": -77.03367333333334, "is_disabled": 0, "fusion_lon": 0.0, "is_reserved": 0, "name": "ca1abadbdf6d4147d538b7ac7d5bda20", "type": "electric_scooter", "bike_id": "ca1abadbdf6d4147d538b7ac7d5bda20", "rental_uris": {"ios": "https://dc.lft.to/lastmile_qr_scan", "android": "https://dc.lft.to/lastmile_qr_scan"}, "fusion_lat": 0.0}, {"lat": 38.884652333333335, "lon": -76.95237066666667, "is_disabled": 0, "fusion_lon": 0.0, "is_reserved": 0, "name": "904a76326cd1e63111a00a2014dc1e80", "type": "electric_bike", "bike_id": "904a76326cd1e63111a00a2014dc1e80", "rental_uris": {"ios": "https://dc.lft.to/lastmile_qr_scan", "android": "https://dc.lft.to/lastmile_qr_scan"}, "fusion_lat": 0.0}, {"lat": 38.918954666666664, "lon": -77.029501, "is_disabled": 0, "fusion_lon": 0.0, "is_reserved": 0, "name": "5e1e553d8458fb8000e7e6cfa2e024fd", "type": "electric_scooter", "bike_id": "5e1e553d8458fb8000e7e6cfa2e024fd", "rental_uris": {"ios": "https://dc.lft.to/lastmile_qr_scan", "android": "https://dc.lft.to/lastmile_qr_scan"}, "fusion_lat": 0.0}, {"lat": 38.92174, "lon": -77.038314, "is_disabled": 0, "fusion_lon": 0.0, "is_reserved": 0, "name": "e548cdbb15b389dd19b396d9770baa3c", "type": "electric_scooter", "bike_id": "e548cdbb15b389dd19b396d9770baa3c", "rental_uris": {"ios": "https://dc.lft.to/lastmile_qr_scan", "android": "https://dc.lft.to/lastmile_qr_scan"}, "fusion_lat": 0.0}, {"lat": 38.89618733333333, "lon": -77.021391, "is_disabled": 0, "fusion_lon": 0.0, "is_reserved": 0, "name": "3878ee53eab3da0b0c18142ce78cefb8", "type": "electric_scooter", "bike_id": "3878ee53eab3da0b0c18142ce78cefb8", "rental_uris": {"ios": "https://dc.lft.to/lastmile_qr_scan", "android": "https://dc.lft.to/lastmile_qr_scan"}, "fusion_lat": 0.0}, {"lat": 38.92395, "lon": -77.05189016666667, "is_disabled": 0, "fusion_lon": 0.0, "is_reserved": 0, "name": "ea87df72f9b5090cc3765760cb279dad", "type": "electric_scooter", "bike_id": "ea87df72f9b5090cc3765760cb279dad", "rental_uris": {"ios": "https://dc.lft.to/lastmile_qr_scan", "android": "https://dc.lft.to/lastmile_qr_scan"}, "fusion_lat": 0.0}, {"lat": 38.92671133333333, "lon": -77.01513866666667, "is_disabled": 0, "fusion_lon": 0.0, "is_reserved": 0, "name": "46ade8e1f481c098a62dd10c194929f3", "type": "electric_scooter", "bike_id": "46ade8e1f481c098a62dd10c194929f3", "rental_uris": {"ios": "https://dc.lft.to/lastmile_qr_scan", "android": "https://dc.lft.to/lastmile_qr_scan"}, "fusion_lat": 0.0}, {"lat": 38.99385016666667, "lon": -76.9288315, "is_disabled": 0, "fusion_lon": 0.0, "is_reserved": 0, "name": "e6ba4acefd4bf26375771db0fdf426a8", "type": "electric_bike", "bike_id": "e6ba4acefd4bf26375771db0fdf426a8", "rental_uris": {"ios": "https://dc.lft.to/lastmile_qr_scan", "android": "https://dc.lft.to/lastmile_qr_scan"}, "fusion_lat": 0.0}, {"lat": 38.91683033333333, "lon": -77.029525, "is_disabled": 0, "fusion_lon": 0.0, "is_reserved": 0, "name": "fd3da9792f0ac4aaa5793fdbbe7ed3fa", "type": "electric_scooter", "bike_id": "fd3da9792f0ac4aaa5793fdbbe7ed3fa", "rental_uris": {"ios": "https://dc.lft.to/lastmile_qr_scan", "android": "https://dc.lft.to/lastmile_qr_scan"}, "fusion_lat": 0.0}, {"lat": 38.91706583333333, "lon": -77.00116833333334, "is_disabled": 0, "fusion_lon": 0.0, "is_reserved": 0, "name": "04c7ef213512e56e2422ef4877609c6a", "type": "electric_scooter", "bike_id": "04c7ef213512e56e2422ef4877609c6a", "rental_uris": {"ios": "https://dc.lft.to/lastmile_qr_scan", "android": "https://dc.lft.to/lastmile_qr_scan"}, "fusion_lat": 0.0}, {"lat": 38.898124833333334, "lon": -76.99064016666667, "is_disabled": 0, "fusion_lon": 0.0, "is_reserved": 0, "name": "13fbf425d7afb90aba3a032be575f6a4", "type": "electric_bike", "bike_id": "13fbf425d7afb90aba3a032be575f6a4", "rental_uris": {"ios": "https://dc.lft.to/lastmile_qr_scan", "android": "https://dc.lft.to/lastmile_qr_scan"}, "fusion_lat": 0.0}, {"lat": 38.89915583333333, "lon": -76.93378566666667, "is_disabled": 0, "fusion_lon": 0.0, "is_reserved": 0, "name": "013accb30f4718658f1bc3f256433519", "type": "electric_scooter", "bike_id": "013accb30f4718658f1bc3f256433519", "rental_uris": {"ios": "https://dc.lft.to/lastmile_qr_scan", "android": "https://dc.lft.to/lastmile_qr_scan"}, "fusion_lat": 0.0}, {"lat": 38.895325666666665, "lon": -77.04647966666667, "is_disabled": 0, "fusion_lon": 0.0, "is_reserved": 0, "name": "1b72dd761655219a359c7445cae090b0", "type": "electric_scooter", "bike_id": "1b72dd761655219a359c7445cae090b0", "rental_uris": {"ios": "https://dc.lft.to/lastmile_qr_scan", "android": "https://dc.lft.to/lastmile_qr_scan"}, "fusion_lat": 0.0}, {"lat": 38.927385666666666, "lon": -76.9955775, "is_disabled": 0, "fusion_lon": 0.0, "is_reserved": 0, "name": "6477a9767dd5315bf32ada6a35ab46bf", "type": "electric_scooter", "bike_id": "6477a9767dd5315bf32ada6a35ab46bf", "rental_uris": {"ios": "https://dc.lft.to/lastmile_qr_scan", "android": "https://dc.lft.to/lastmile_qr_scan"}, "fusion_lat": 0.0}, {"lat": 38.910232666666666, "lon": -77.0293535, "is_disabled": 0, "fusion_lon": 0.0, "is_reserved": 0, "name": "383067f5bcae4cd0aa74a7eaa3823744", "type": "electric_scooter", "bike_id": "383067f5bcae4cd0aa74a7eaa3823744", "rental_uris": {"ios": "https://dc.lft.to/lastmile_qr_scan", "android": "https://dc.lft.to/lastmile_qr_scan"}, "fusion_lat": 0.0}, {"lat": 38.901826666666665, "lon": -77.01614183333334, "is_disabled": 0, "fusion_lon": 0.0, "is_reserved": 0, "name": "a24488a9527fc910ece30613fa290ae6", "type": "electric_scooter", "bike_id": "a24488a9527fc910ece30613fa290ae6", "rental_uris": {"ios": "https://dc.lft.to/lastmile_qr_scan", "android": "https://dc.lft.to/lastmile_qr_scan"}, "fusion_lat": 0.0}, {"lat": 38.91089933333333, "lon": -77.044783, "is_disabled": 0, "fusion_lon": 0.0, "is_reserved": 0, "name": "54f692c958e6c2a364b353d4f66bbd1f", "type": "electric_scooter", "bike_id": "54f692c958e6c2a364b353d4f66bbd1f", "rental_uris": {"ios": "https://dc.lft.to/lastmile_qr_scan", "android": "https://dc.lft.to/lastmile_qr_scan"}, "fusion_lat": 0.0}, {"lat": 38.905265, "lon": -77.048496, "is_disabled": 0, "fusion_lon": 0.0, "is_reserved": 0, "name": "2d9735fe9401ad945e88efe7746b75c6", "type": "electric_scooter", "bike_id": "2d9735fe9401ad945e88efe7746b75c6", "rental_uris": {"ios": "https://dc.lft.to/lastmile_qr_scan", "android": "https://dc.lft.to/lastmile_qr_scan"}, "fusion_lat": 0.0}, {"lat": 38.870974333333336, "lon": -76.942058, "is_disabled": 0, "fusion_lon": 0.0, "is_reserved": 0, "name": "7ba57684507940262052ee59c2a025bf", "type": "electric_scooter", "bike_id": "7ba57684507940262052ee59c2a025bf", "rental_uris": {"ios": "https://dc.lft.to/lastmile_qr_scan", "android": "https://dc.lft.to/lastmile_qr_scan"}, "fusion_lat": 0.0}, {"lat": 38.92337333333333, "lon": -77.01897466666667, "is_disabled": 0, "fusion_lon": 0.0, "is_reserved": 0, "name": "bfe516d7bf39bfb01add0a805509c4b5", "type": "electric_scooter", "bike_id": "bfe516d7bf39bfb01add0a805509c4b5", "rental_uris": {"ios": "https://dc.lft.to/lastmile_qr_scan", "android": "https://dc.lft.to/lastmile_qr_scan"}, "fusion_lat": 0.0}, {"lat": 38.906917666666665, "lon": -77.03809033333333, "is_disabled": 0, "fusion_lon": 0.0, "is_reserved": 0, "name": "a6f0ac11f721795e388382eaeba2d2d7", "type": "electric_scooter", "bike_id": "a6f0ac11f721795e388382eaeba2d2d7", "rental_uris": {"ios": "https://dc.lft.to/lastmile_qr_scan", "android": "https://dc.lft.to/lastmile_qr_scan"}, "fusion_lat": 0.0}, {"lat": 38.89248583333333, "lon": -76.9882895, "is_disabled": 0, "fusion_lon": 0.0, "is_reserved": 0, "name": "57a1480cccb68466324faee7b2dff186", "type": "electric_scooter", "bike_id": "57a1480cccb68466324faee7b2dff186", "rental_uris": {"ios": "https://dc.lft.to/lastmile_qr_scan", "android": "https://dc.lft.to/lastmile_qr_scan"}, "fusion_lat": 0.0}, {"lat": 38.839637, "lon": -76.9773505, "is_disabled": 0, "fusion_lon": 0.0, "is_reserved": 0, "name": "82e6378457f079c8243cd845c4597efe", "type": "electric_bike", "bike_id": "82e6378457f079c8243cd845c4597efe", "rental_uris": {"ios": "https://dc.lft.to/lastmile_qr_scan", "android": "https://dc.lft.to/lastmile_qr_scan"}, "fusion_lat": 0.0}, {"lat": 38.9037075, "lon": -77.03900966666667, "is_disabled": 0, "fusion_lon": 0.0, "is_reserved": 0, "name": "0f87761f7e9cfabb9e39b26f0550a9ae", "type": "electric_scooter", "bike_id": "0f87761f7e9cfabb9e39b26f0550a9ae", "rental_uris": {"ios": "https://dc.lft.to/lastmile_qr_scan", "android": "https://dc.lft.to/lastmile_qr_scan"}, "fusion_lat": 0.0}, {"lat": 39.0048205, "lon": -77.02187466666666, "is_disabled": 0, "fusion_lon": 0.0, "is_reserved": 0, "name": "a06b9570e5e2506ac8e1a5dd3cc6cdfa", "type": "electric_bike", "bike_id": "a06b9570e5e2506ac8e1a5dd3cc6cdfa", "rental_uris": {"ios": "https://dc.lft.to/lastmile_qr_scan", "android": "https://dc.lft.to/lastmile_qr_scan"}, "fusion_lat": 0.0}, {"lat": 38.917966166666666, "lon": -77.04011783333333, "is_disabled": 0, "fusion_lon": 0.0, "is_reserved": 0, "name": "acf546694ab145f2fc292532d2fec12a", "type": "electric_scooter", "bike_id": "acf546694ab145f2fc292532d2fec12a", "rental_uris": {"ios": "https://dc.lft.to/lastmile_qr_scan", "android": "https://dc.lft.to/lastmile_qr_scan"}, "fusion_lat": 0.0}, {"lat": 38.90938533333333, "lon": -77.0446775, "is_disabled": 0, "fusion_lon": 0.0, "is_reserved": 0, "name": "b66a4846fcdc29447961aadecdd88301", "type": "electric_scooter", "bike_id": "b66a4846fcdc29447961aadecdd88301", "rental_uris": {"ios": "https://dc.lft.to/lastmile_qr_scan", "android": "https://dc.lft.to/lastmile_qr_scan"}, "fusion_lat": 0.0}, {"lat": 38.918004833333335, "lon": -77.0270665, "is_disabled": 0, "fusion_lon": 0.0, "is_reserved": 0, "name": "cb9ef68eb3d0efe9f078dfb41decbc7c", "type": "electric_scooter", "bike_id": "cb9ef68eb3d0efe9f078dfb41decbc7c", "rental_uris": {"ios": "https://dc.lft.to/lastmile_qr_scan", "android": "https://dc.lft.to/lastmile_qr_scan"}, "fusion_lat": 0.0}, {"lat": 38.90046383333333, "lon": -77.02192083333334, "is_disabled": 0, "fusion_lon": 0.0, "is_reserved": 0, "name": "70560f95b4e07f287b36282a3b89fe9f", "type": "electric_scooter", "bike_id": "70560f95b4e07f287b36282a3b89fe9f", "rental_uris": {"ios": "https://dc.lft.to/lastmile_qr_scan", "android": "https://dc.lft.to/lastmile_qr_scan"}, "fusion_lat": 0.0}, {"lat": 38.8838875, "lon": -77.02571683333333, "is_disabled": 0, "fusion_lon": 0.0, "is_reserved": 0, "name": "b74df5a3178177840a471e3cbf1d80a6", "type": "electric_scooter", "bike_id": "b74df5a3178177840a471e3cbf1d80a6", "rental_uris": {"ios": "https://dc.lft.to/lastmile_qr_scan", "android": "https://dc.lft.to/lastmile_qr_scan"}, "fusion_lat": 0.0}, {"lat": 38.9276655, "lon": -77.03260483333334, "is_disabled": 0, "fusion_lon": 0.0, "is_reserved": 0, "name": "452b222095287ebc23d3c3498c5c3a02", "type": "electric_scooter", "bike_id": "452b222095287ebc23d3c3498c5c3a02", "rental_uris": {"ios": "https://dc.lft.to/lastmile_qr_scan", "android": "https://dc.lft.to/lastmile_qr_scan"}, "fusion_lat": 0.0}, {"lat": 38.887334, "lon": -77.02381183333334, "is_disabled": 0, "fusion_lon": 0.0, "is_reserved": 0, "name": "f0ad0b84a2f8dfb1721de599ab1ed48a", "type": "electric_scooter", "bike_id": "f0ad0b84a2f8dfb1721de599ab1ed48a", "rental_uris": {"ios": "https://dc.lft.to/lastmile_qr_scan", "android": "https://dc.lft.to/lastmile_qr_scan"}, "fusion_lat": 0.0}, {"lat": 38.95653633333333, "lon": -77.0196625, "is_disabled": 0, "fusion_lon": 0.0, "is_reserved": 0, "name": "7691b548eb90f91b5bc71235ee1da663", "type": "electric_scooter", "bike_id": "7691b548eb90f91b5bc71235ee1da663", "rental_uris": {"ios": "https://dc.lft.to/lastmile_qr_scan", "android": "https://dc.lft.to/lastmile_qr_scan"}, "fusion_lat": 0.0}, {"lat": 38.930584833333334, "lon": -77.03809916666667, "is_disabled": 0, "fusion_lon": 0.0, "is_reserved": 0, "name": "0b1c7d60ab5210a54ad21b7177deff42", "type": "electric_scooter", "bike_id": "0b1c7d60ab5210a54ad21b7177deff42", "rental_uris": {"ios": "https://dc.lft.to/lastmile_qr_scan", "android": "https://dc.lft.to/lastmile_qr_scan"}, "fusion_lat": 0.0}, {"lat": 38.897733, "lon": -77.054644, "is_disabled": 0, "fusion_lon": 0.0, "is_reserved": 0, "name": "de569f34ad225071a07d2ef3548b1989", "type": "electric_scooter", "bike_id": "de569f34ad225071a07d2ef3548b1989", "rental_uris": {"ios": "https://dc.lft.to/lastmile_qr_scan", "android": "https://dc.lft.to/lastmile_qr_scan"}, "fusion_lat": 0.0}, {"lat": 38.896076666666666, "lon": -77.00931216666666, "is_disabled": 0, "fusion_lon": 0.0, "is_reserved": 0, "name": "c47418db7fded52a77266e4f819f7cfa", "type": "electric_scooter", "bike_id": "c47418db7fded52a77266e4f819f7cfa", "rental_uris": {"ios": "https://dc.lft.to/lastmile_qr_scan", "android": "https://dc.lft.to/lastmile_qr_scan"}, "fusion_lat": 0.0}, {"lat": 38.918744333333336, "lon": -77.024822, "is_disabled": 0, "fusion_lon": 0.0, "is_reserved": 0, "name": "e11c3534824229f797b0724fb09cf889", "type": "electric_scooter", "bike_id": "e11c3534824229f797b0724fb09cf889", "rental_uris": {"ios": "https://dc.lft.to/lastmile_qr_scan", "android": "https://dc.lft.to/lastmile_qr_scan"}, "fusion_lat": 0.0}, {"lat": 38.918022, "lon": -77.0248945, "is_disabled": 0, "fusion_lon": 0.0, "is_reserved": 0, "name": "3a310c5801ffd50358ecf0fc57919615", "type": "electric_scooter", "bike_id": "3a310c5801ffd50358ecf0fc57919615", "rental_uris": {"ios": "https://dc.lft.to/lastmile_qr_scan", "android": "https://dc.lft.to/lastmile_qr_scan"}, "fusion_lat": 0.0}, {"lat": 38.922394833333335, "lon": -77.07312583333334, "is_disabled": 0, "fusion_lon": 0.0, "is_reserved": 0, "name": "7698e2d2d414e946a9b79edeb3e2c954", "type": "electric_scooter", "bike_id": "7698e2d2d414e946a9b79edeb3e2c954", "rental_uris": {"ios": "https://dc.lft.to/lastmile_qr_scan", "android": "https://dc.lft.to/lastmile_qr_scan"}, "fusion_lat": 0.0}, {"lat": 38.956728, "lon": -77.01362016666667, "is_disabled": 0, "fusion_lon": 0.0, "is_reserved": 0, "name": "e8c8a1d42e2ab40bfb3f0e4ec788d93b", "type": "electric_scooter", "bike_id": "e8c8a1d42e2ab40bfb3f0e4ec788d93b", "rental_uris": {"ios": "https://dc.lft.to/lastmile_qr_scan", "android": "https://dc.lft.to/lastmile_qr_scan"}, "fusion_lat": 0.0}, {"lat": 38.897515, "lon": -77.027777, "is_disabled": 0, "fusion_lon": 0.0, "is_reserved": 0, "name": "8647d0689b35637bf76268a73393d5fe", "type": "electric_scooter", "bike_id": "8647d0689b35637bf76268a73393d5fe", "rental_uris": {"ios": "https://dc.lft.to/lastmile_qr_scan", "android": "https://dc.lft.to/lastmile_qr_scan"}, "fusion_lat": 0.0}, {"lat": 38.9096305, "lon": -77.03946183333333, "is_disabled": 0, "fusion_lon": 0.0, "is_reserved": 0, "name": "b2403152a9729d421231fe1eb196e485", "type": "electric_scooter", "bike_id": "b2403152a9729d421231fe1eb196e485", "rental_uris": {"ios": "https://dc.lft.to/lastmile_qr_scan", "android": "https://dc.lft.to/lastmile_qr_scan"}, "fusion_lat": 0.0}, {"lat": 38.930465166666664, "lon": -77.03356483333333, "is_disabled": 0, "fusion_lon": 0.0, "is_reserved": 0, "name": "eebe21cee650cddf54ad86f18bdaa1b5", "type": "electric_scooter", "bike_id": "eebe21cee650cddf54ad86f18bdaa1b5", "rental_uris": {"ios": "https://dc.lft.to/lastmile_qr_scan", "android": "https://dc.lft.to/lastmile_qr_scan"}, "fusion_lat": 0.0}, {"lat": 38.948485166666664, "lon": -77.02361066666667, "is_disabled": 0, "fusion_lon": 0.0, "is_reserved": 0, "name": "4b327b1b4150f019c14dc815e760729b", "type": "electric_scooter", "bike_id": "4b327b1b4150f019c14dc815e760729b", "rental_uris": {"ios": "https://dc.lft.to/lastmile_qr_scan", "android": "https://dc.lft.to/lastmile_qr_scan"}, "fusion_lat": 0.0}, {"lat": 38.910190166666666, "lon": -77.02381316666667, "is_disabled": 0, "fusion_lon": 0.0, "is_reserved": 0, "name": "85493a3e5f1664a3a88684724914ff7a", "type": "electric_scooter", "bike_id": "85493a3e5f1664a3a88684724914ff7a", "rental_uris": {"ios": "https://dc.lft.to/lastmile_qr_scan", "android": "https://dc.lft.to/lastmile_qr_scan"}, "fusion_lat": 0.0}, {"lat": 38.885191166666665, "lon": -77.01127833333334, "is_disabled": 0, "fusion_lon": 0.0, "is_reserved": 0, "name": "e5f8e97782e366e984048502abbea58e", "type": "electric_scooter", "bike_id": "e5f8e97782e366e984048502abbea58e", "rental_uris": {"ios": "https://dc.lft.to/lastmile_qr_scan", "android": "https://dc.lft.to/lastmile_qr_scan"}, "fusion_lat": 0.0}, {"lat": 38.94405116666667, "lon": -77.03909833333333, "is_disabled": 0, "fusion_lon": 0.0, "is_reserved": 0, "name": "e387b35a097b7a0a594572704361f8c9", "type": "electric_scooter", "bike_id": "e387b35a097b7a0a594572704361f8c9", "rental_uris": {"ios": "https://dc.lft.to/lastmile_qr_scan", "android": "https://dc.lft.to/lastmile_qr_scan"}, "fusion_lat": 0.0}, {"lat": 38.83577966666667, "lon": -77.00123516666666, "is_disabled": 0, "fusion_lon": 0.0, "is_reserved": 0, "name": "4b439bab9f6e610bd38b7fcf70fbf220", "type": "electric_bike", "bike_id": "4b439bab9f6e610bd38b7fcf70fbf220", "rental_uris": {"ios": "https://dc.lft.to/lastmile_qr_scan", "android": "https://dc.lft.to/lastmile_qr_scan"}, "fusion_lat": 0.0}, {"lat": 38.91414233333333, "lon": -77.01075583333333, "is_disabled": 0, "fusion_lon": 0.0, "is_reserved": 0, "name": "835ebd7487e0583c4076773ae954ee13", "type": "electric_scooter", "bike_id": "835ebd7487e0583c4076773ae954ee13", "rental_uris": {"ios": "https://dc.lft.to/lastmile_qr_scan", "android": "https://dc.lft.to/lastmile_qr_scan"}, "fusion_lat": 0.0}, {"lat": 38.902665166666665, "lon": -77.03471916666666, "is_disabled": 0, "fusion_lon": 0.0, "is_reserved": 0, "name": "f4655a5346f96f60a004cea3fc24dee4", "type": "electric_scooter", "bike_id": "f4655a5346f96f60a004cea3fc24dee4", "rental_uris": {"ios": "https://dc.lft.to/lastmile_qr_scan", "android": "https://dc.lft.to/lastmile_qr_scan"}, "fusion_lat": 0.0}, {"lat": 38.90266033333333, "lon": -77.02010833333334, "is_disabled": 0, "fusion_lon": 0.0, "is_reserved": 0, "name": "9f69ed7dd8fdd5f12d009c523ed14b61", "type": "electric_scooter", "bike_id": "9f69ed7dd8fdd5f12d009c523ed14b61", "rental_uris": {"ios": "https://dc.lft.to/lastmile_qr_scan", "android": "https://dc.lft.to/lastmile_qr_scan"}, "fusion_lat": 0.0}, {"lat": 38.892383, "lon": -77.02794216666666, "is_disabled": 0, "fusion_lon": 0.0, "is_reserved": 0, "name": "ed5f8c36c6d89248925e4152da2243f1", "type": "electric_scooter", "bike_id": "ed5f8c36c6d89248925e4152da2243f1", "rental_uris": {"ios": "https://dc.lft.to/lastmile_qr_scan", "android": "https://dc.lft.to/lastmile_qr_scan"}, "fusion_lat": 0.0}, {"lat": 38.98040783333333, "lon": -76.95787933333334, "is_disabled": 0, "fusion_lon": 0.0, "is_reserved": 0, "name": "5bb1418bda1458438c8e481a17215efd", "type": "electric_bike", "bike_id": "5bb1418bda1458438c8e481a17215efd", "rental_uris": {"ios": "https://dc.lft.to/lastmile_qr_scan", "android": "https://dc.lft.to/lastmile_qr_scan"}, "fusion_lat": 0.0}, {"lat": 38.909961333333335, "lon": -77.0400925, "is_disabled": 0, "fusion_lon": 0.0, "is_reserved": 0, "name": "d3c228345861d54d2f19e421aecb806e", "type": "electric_scooter", "bike_id": "d3c228345861d54d2f19e421aecb806e", "rental_uris": {"ios": "https://dc.lft.to/lastmile_qr_scan", "android": "https://dc.lft.to/lastmile_qr_scan"}, "fusion_lat": 0.0}, {"lat": 38.938802333333335, "lon": -77.02484883333334, "is_disabled": 0, "fusion_lon": 0.0, "is_reserved": 0, "name": "15c8fb600f77167a433c2b03aa383cea", "type": "electric_scooter", "bike_id": "15c8fb600f77167a433c2b03aa383cea", "rental_uris": {"ios": "https://dc.lft.to/lastmile_qr_scan", "android": "https://dc.lft.to/lastmile_qr_scan"}, "fusion_lat": 0.0}, {"lat": 38.961307166666664, "lon": -77.02816016666667, "is_disabled": 0, "fusion_lon": 0.0, "is_reserved": 0, "name": "c863c18fcef2ae30100a196a385f8078", "type": "electric_scooter", "bike_id": "c863c18fcef2ae30100a196a385f8078", "rental_uris": {"ios": "https://dc.lft.to/lastmile_qr_scan", "android": "https://dc.lft.to/lastmile_qr_scan"}, "fusion_lat": 0.0}, {"lat": 38.876567666666666, "lon": -77.00069166666667, "is_disabled": 0, "fusion_lon": 0.0, "is_reserved": 0, "name": "c0bc9dd71e6cddaf2df3d0e0fc7f6d51", "type": "electric_scooter", "bike_id": "c0bc9dd71e6cddaf2df3d0e0fc7f6d51", "rental_uris": {"ios": "https://dc.lft.to/lastmile_qr_scan", "android": "https://dc.lft.to/lastmile_qr_scan"}, "fusion_lat": 0.0}, {"lat": 38.89624516666667, "lon": -77.029429, "is_disabled": 0, "fusion_lon": 0.0, "is_reserved": 0, "name": "f33b9591899d6f2518f530859db98887", "type": "electric_scooter", "bike_id": "f33b9591899d6f2518f530859db98887", "rental_uris": {"ios": "https://dc.lft.to/lastmile_qr_scan", "android": "https://dc.lft.to/lastmile_qr_scan"}, "fusion_lat": 0.0}, {"lat": 38.934512833333336, "lon": -77.02912316666666, "is_disabled": 0, "fusion_lon": 0.0, "is_reserved": 0, "name": "93e453a9d2be811e19212d706db20576", "type": "electric_scooter", "bike_id": "93e453a9d2be811e19212d706db20576", "rental_uris": {"ios": "https://dc.lft.to/lastmile_qr_scan", "android": "https://dc.lft.to/lastmile_qr_scan"}, "fusion_lat": 0.0}, {"lat": 38.90065416666667, "lon": -77.02611216666666, "is_disabled": 0, "fusion_lon": 0.0, "is_reserved": 0, "name": "ffe51dc0f9364956bc7f9b4ac5c3604b", "type": "electric_scooter", "bike_id": "ffe51dc0f9364956bc7f9b4ac5c3604b", "rental_uris": {"ios": "https://dc.lft.to/lastmile_qr_scan", "android": "https://dc.lft.to/lastmile_qr_scan"}, "fusion_lat": 0.0}, {"lat": 38.92497866666667, "lon": -77.02404333333334, "is_disabled": 0, "fusion_lon": 0.0, "is_reserved": 0, "name": "204bf7c57a736dd014bf1f299ae18842", "type": "electric_scooter", "bike_id": "204bf7c57a736dd014bf1f299ae18842", "rental_uris": {"ios": "https://dc.lft.to/lastmile_qr_scan", "android": "https://dc.lft.to/lastmile_qr_scan"}, "fusion_lat": 0.0}, {"lat": 38.897044666666666, "lon": -76.93576533333334, "is_disabled": 0, "fusion_lon": 0.0, "is_reserved": 0, "name": "78bb5f94903e46fb0fcf3abc2a85acfb", "type": "electric_scooter", "bike_id": "78bb5f94903e46fb0fcf3abc2a85acfb", "rental_uris": {"ios": "https://dc.lft.to/lastmile_qr_scan", "android": "https://dc.lft.to/lastmile_qr_scan"}, "fusion_lat": 0.0}, {"lat": 38.89927216666667, "lon": -77.0126705, "is_disabled": 0, "fusion_lon": 0.0, "is_reserved": 0, "name": "c9b459a4b8298f6d528af67df99e3f42", "type": "electric_scooter", "bike_id": "c9b459a4b8298f6d528af67df99e3f42", "rental_uris": {"ios": "https://dc.lft.to/lastmile_qr_scan", "android": "https://dc.lft.to/lastmile_qr_scan"}, "fusion_lat": 0.0}, {"lat": 38.916058166666666, "lon": -77.032, "is_disabled": 0, "fusion_lon": 0.0, "is_reserved": 0, "name": "d382db1c95fac2cd05671b5bbe1d4ef1", "type": "electric_scooter", "bike_id": "d382db1c95fac2cd05671b5bbe1d4ef1", "rental_uris": {"ios": "https://dc.lft.to/lastmile_qr_scan", "android": "https://dc.lft.to/lastmile_qr_scan"}, "fusion_lat": 0.0}, {"lat": 38.941905, "lon": -77.04114583333333, "is_disabled": 0, "fusion_lon": 0.0, "is_reserved": 0, "name": "158fddcc459684147556dbcec684c703", "type": "electric_scooter", "bike_id": "158fddcc459684147556dbcec684c703", "rental_uris": {"ios": "https://dc.lft.to/lastmile_qr_scan", "android": "https://dc.lft.to/lastmile_qr_scan"}, "fusion_lat": 0.0}, {"lat": 38.917384, "lon": -77.036415, "is_disabled": 0, "fusion_lon": 0.0, "is_reserved": 0, "name": "d953b92700c2992c7a026e147c77e4ac", "type": "electric_scooter", "bike_id": "d953b92700c2992c7a026e147c77e4ac", "rental_uris": {"ios": "https://dc.lft.to/lastmile_qr_scan", "android": "https://dc.lft.to/lastmile_qr_scan"}, "fusion_lat": 0.0}, {"lat": 38.900953, "lon": -77.02305966666667, "is_disabled": 0, "fusion_lon": 0.0, "is_reserved": 0, "name": "b873eddeda98d1f8d0da0121f9e1ec94", "type": "electric_scooter", "bike_id": "b873eddeda98d1f8d0da0121f9e1ec94", "rental_uris": {"ios": "https://dc.lft.to/lastmile_qr_scan", "android": "https://dc.lft.to/lastmile_qr_scan"}, "fusion_lat": 0.0}, {"lat": 38.90276716666666, "lon": -77.033518, "is_disabled": 0, "fusion_lon": 0.0, "is_reserved": 0, "name": "1bc79c05073743cde1983e05623a558a", "type": "electric_scooter", "bike_id": "1bc79c05073743cde1983e05623a558a", "rental_uris": {"ios": "https://dc.lft.to/lastmile_qr_scan", "android": "https://dc.lft.to/lastmile_qr_scan"}, "fusion_lat": 0.0}, {"lat": 38.893468166666665, "lon": -76.95226333333333, "is_disabled": 0, "fusion_lon": 0.0, "is_reserved": 0, "name": "63038e5678e6d26c2dd94d531a339ad0", "type": "electric_scooter", "bike_id": "63038e5678e6d26c2dd94d531a339ad0", "rental_uris": {"ios": "https://dc.lft.to/lastmile_qr_scan", "android": "https://dc.lft.to/lastmile_qr_scan"}, "fusion_lat": 0.0}, {"lat": 38.97212566666666, "lon": -77.03340666666666, "is_disabled": 0, "fusion_lon": 0.0, "is_reserved": 0, "name": "d528bc4580342c2ae77337b38f5952d8", "type": "electric_scooter", "bike_id": "d528bc4580342c2ae77337b38f5952d8", "rental_uris": {"ios": "https://dc.lft.to/lastmile_qr_scan", "android": "https://dc.lft.to/lastmile_qr_scan"}, "fusion_lat": 0.0}, {"lat": 38.90047033333333, "lon": -76.98839016666666, "is_disabled": 0, "fusion_lon": 0.0, "is_reserved": 0, "name": "ca03783cbece4c1e86b81bc81205cfb7", "type": "electric_scooter", "bike_id": "ca03783cbece4c1e86b81bc81205cfb7", "rental_uris": {"ios": "https://dc.lft.to/lastmile_qr_scan", "android": "https://dc.lft.to/lastmile_qr_scan"}, "fusion_lat": 0.0}, {"lat": 38.90062866666667, "lon": -77.04536183333333, "is_disabled": 0, "fusion_lon": 0.0, "is_reserved": 0, "name": "e474b34f257fe57bd6c80cf5dbef698e", "type": "electric_scooter", "bike_id": "e474b34f257fe57bd6c80cf5dbef698e", "rental_uris": {"ios": "https://dc.lft.to/lastmile_qr_scan", "android": "https://dc.lft.to/lastmile_qr_scan"}, "fusion_lat": 0.0}, {"lat": 38.911830333333334, "lon": -77.002792, "is_disabled": 0, "fusion_lon": 0.0, "is_reserved": 0, "name": "769473ef4bff093687571d4876e29134", "type": "electric_bike", "bike_id": "769473ef4bff093687571d4876e29134", "rental_uris": {"ios": "https://dc.lft.to/lastmile_qr_scan", "android": "https://dc.lft.to/lastmile_qr_scan"}, "fusion_lat": 0.0}, {"lat": 38.9254875, "lon": -77.00071266666667, "is_disabled": 0, "fusion_lon": 0.0, "is_reserved": 0, "name": "f773e4b3e9df722da8b6fc1d7b76a795", "type": "electric_scooter", "bike_id": "f773e4b3e9df722da8b6fc1d7b76a795", "rental_uris": {"ios": "https://dc.lft.to/lastmile_qr_scan", "android": "https://dc.lft.to/lastmile_qr_scan"}, "fusion_lat": 0.0}, {"lat": 38.90416916666667, "lon": -77.04471733333334, "is_disabled": 0, "fusion_lon": 0.0, "is_reserved": 0, "name": "0119ebdcadf0bf399202f7e32419c64a", "type": "electric_scooter", "bike_id": "0119ebdcadf0bf399202f7e32419c64a", "rental_uris": {"ios": "https://dc.lft.to/lastmile_qr_scan", "android": "https://dc.lft.to/lastmile_qr_scan"}, "fusion_lat": 0.0}, {"lat": 38.89354766666666, "lon": -77.00333716666667, "is_disabled": 0, "fusion_lon": 0.0, "is_reserved": 0, "name": "defc2c4898ad53daa176897758597b39", "type": "electric_scooter", "bike_id": "defc2c4898ad53daa176897758597b39", "rental_uris": {"ios": "https://dc.lft.to/lastmile_qr_scan", "android": "https://dc.lft.to/lastmile_qr_scan"}, "fusion_lat": 0.0}, {"lat": 38.921118666666665, "lon": -77.03241916666667, "is_disabled": 0, "fusion_lon": 0.0, "is_reserved": 0, "name": "72c5bb0c2fd8b58f5cd0a6ec1c74b075", "type": "electric_scooter", "bike_id": "72c5bb0c2fd8b58f5cd0a6ec1c74b075", "rental_uris": {"ios": "https://dc.lft.to/lastmile_qr_scan", "android": "https://dc.lft.to/lastmile_qr_scan"}, "fusion_lat": 0.0}, {"lat": 38.90922533333333, "lon": -76.999722, "is_disabled": 0, "fusion_lon": 0.0, "is_reserved": 0, "name": "d85ddb44b676af196cf82a76e4b42e4c", "type": "electric_scooter", "bike_id": "d85ddb44b676af196cf82a76e4b42e4c", "rental_uris": {"ios": "https://dc.lft.to/lastmile_qr_scan", "android": "https://dc.lft.to/lastmile_qr_scan"}, "fusion_lat": 0.0}, {"lat": 38.89973616666666, "lon": -77.03169866666667, "is_disabled": 0, "fusion_lon": 0.0, "is_reserved": 0, "name": "476e7210141372582ad52065f3c66c12", "type": "electric_scooter", "bike_id": "476e7210141372582ad52065f3c66c12", "rental_uris": {"ios": "https://dc.lft.to/lastmile_qr_scan", "android": "https://dc.lft.to/lastmile_qr_scan"}, "fusion_lat": 0.0}, {"lat": 38.91737616666666, "lon": -77.03641183333333, "is_disabled": 0, "fusion_lon": 0.0, "is_reserved": 0, "name": "aa7dafbda3c3513d7c26aa9e5cca1931", "type": "electric_scooter", "bike_id": "aa7dafbda3c3513d7c26aa9e5cca1931", "rental_uris": {"ios": "https://dc.lft.to/lastmile_qr_scan", "android": "https://dc.lft.to/lastmile_qr_scan"}, "fusion_lat": 0.0}, {"lat": 38.89606083333334, "lon": -77.01331433333333, "is_disabled": 0, "fusion_lon": 0.0, "is_reserved": 0, "name": "06089940031445066e83a0a52abc9a16", "type": "electric_scooter", "bike_id": "06089940031445066e83a0a52abc9a16", "rental_uris": {"ios": "https://dc.lft.to/lastmile_qr_scan", "android": "https://dc.lft.to/lastmile_qr_scan"}, "fusion_lat": 0.0}, {"lat": 38.87185016666667, "lon": -77.00640516666667, "is_disabled": 0, "fusion_lon": 0.0, "is_reserved": 0, "name": "ddc3342a1952663250126010604da444", "type": "electric_scooter", "bike_id": "ddc3342a1952663250126010604da444", "rental_uris": {"ios": "https://dc.lft.to/lastmile_qr_scan", "android": "https://dc.lft.to/lastmile_qr_scan"}, "fusion_lat": 0.0}, {"lat": 38.9170785, "lon": -77.02885516666667, "is_disabled": 0, "fusion_lon": 0.0, "is_reserved": 0, "name": "a2fbf2ae11148f2f1e7cfabde79d3fa4", "type": "electric_scooter", "bike_id": "a2fbf2ae11148f2f1e7cfabde79d3fa4", "rental_uris": {"ios": "https://dc.lft.to/lastmile_qr_scan", "android": "https://dc.lft.to/lastmile_qr_scan"}, "fusion_lat": 0.0}, {"lat": 38.89847283333334, "lon": -76.99032633333333, "is_disabled": 0, "fusion_lon": 0.0, "is_reserved": 0, "name": "eec88a2ca1f5bdd3b948b471b4efd86b", "type": "electric_scooter", "bike_id": "eec88a2ca1f5bdd3b948b471b4efd86b", "rental_uris": {"ios": "https://dc.lft.to/lastmile_qr_scan", "android": "https://dc.lft.to/lastmile_qr_scan"}, "fusion_lat": 0.0}, {"lat": 38.88728, "lon": -76.98353466666667, "is_disabled": 0, "fusion_lon": 0.0, "is_reserved": 0, "name": "c5a3ba0f96fc755db90cec35d66e3a72", "type": "electric_scooter", "bike_id": "c5a3ba0f96fc755db90cec35d66e3a72", "rental_uris": {"ios": "https://dc.lft.to/lastmile_qr_scan", "android": "https://dc.lft.to/lastmile_qr_scan"}, "fusion_lat": 0.0}, {"lat": 38.884127, "lon": -76.94205966666667, "is_disabled": 0, "fusion_lon": 0.0, "is_reserved": 0, "name": "1886c29539f38ad5b2e26c723edd7f97", "type": "electric_scooter", "bike_id": "1886c29539f38ad5b2e26c723edd7f97", "rental_uris": {"ios": "https://dc.lft.to/lastmile_qr_scan", "android": "https://dc.lft.to/lastmile_qr_scan"}, "fusion_lat": 0.0}, {"lat": 38.922371, "lon": -77.073079, "is_disabled": 0, "fusion_lon": 0.0, "is_reserved": 0, "name": "a5fa590bd0dd30c5397325b5940889df", "type": "electric_scooter", "bike_id": "a5fa590bd0dd30c5397325b5940889df", "rental_uris": {"ios": "https://dc.lft.to/lastmile_qr_scan", "android": "https://dc.lft.to/lastmile_qr_scan"}, "fusion_lat": 0.0}, {"lat": 38.9067865, "lon": -77.0021315, "is_disabled": 0, "fusion_lon": 0.0, "is_reserved": 0, "name": "c6df99e3fdb837e34294d7c817b34ed0", "type": "electric_scooter", "bike_id": "c6df99e3fdb837e34294d7c817b34ed0", "rental_uris": {"ios": "https://dc.lft.to/lastmile_qr_scan", "android": "https://dc.lft.to/lastmile_qr_scan"}, "fusion_lat": 0.0}, {"lat": 38.906398333333335, "lon": -77.03860733333333, "is_disabled": 0, "fusion_lon": 0.0, "is_reserved": 0, "name": "b547321b5f5e6545b318dda2677963d9", "type": "electric_scooter", "bike_id": "b547321b5f5e6545b318dda2677963d9", "rental_uris": {"ios": "https://dc.lft.to/lastmile_qr_scan", "android": "https://dc.lft.to/lastmile_qr_scan"}, "fusion_lat": 0.0}, {"lat": 38.896928333333335, "lon": -77.04354866666667, "is_disabled": 0, "fusion_lon": 0.0, "is_reserved": 0, "name": "24cf905243937f6ef8dcbf6848bdb276", "type": "electric_scooter", "bike_id": "24cf905243937f6ef8dcbf6848bdb276", "rental_uris": {"ios": "https://dc.lft.to/lastmile_qr_scan", "android": "https://dc.lft.to/lastmile_qr_scan"}, "fusion_lat": 0.0}, {"lat": 38.926002833333335, "lon": -77.021545, "is_disabled": 0, "fusion_lon": 0.0, "is_reserved": 0, "name": "2c7194bffe3c35e7ef26df5861b1615e", "type": "electric_scooter", "bike_id": "2c7194bffe3c35e7ef26df5861b1615e", "rental_uris": {"ios": "https://dc.lft.to/lastmile_qr_scan", "android": "https://dc.lft.to/lastmile_qr_scan"}, "fusion_lat": 0.0}, {"lat": 38.92343616666667, "lon": -77.05168716666667, "is_disabled": 0, "fusion_lon": 0.0, "is_reserved": 0, "name": "738ac6cacea621c0d74cca357588dbf3", "type": "electric_scooter", "bike_id": "738ac6cacea621c0d74cca357588dbf3", "rental_uris": {"ios": "https://dc.lft.to/lastmile_qr_scan", "android": "https://dc.lft.to/lastmile_qr_scan"}, "fusion_lat": 0.0}, {"lat": 38.87557266666666, "lon": -77.00595666666666, "is_disabled": 0, "fusion_lon": 0.0, "is_reserved": 0, "name": "35fc0286be6f2e3931a5b0922de0753f", "type": "electric_scooter", "bike_id": "35fc0286be6f2e3931a5b0922de0753f", "rental_uris": {"ios": "https://dc.lft.to/lastmile_qr_scan", "android": "https://dc.lft.to/lastmile_qr_scan"}, "fusion_lat": 0.0}, {"lat": 38.92729333333333, "lon": -77.02281466666666, "is_disabled": 0, "fusion_lon": 0.0, "is_reserved": 0, "name": "1e518bf487b5ec5c5c38c9cfbfbfe6bc", "type": "electric_scooter", "bike_id": "1e518bf487b5ec5c5c38c9cfbfbfe6bc", "rental_uris": {"ios": "https://dc.lft.to/lastmile_qr_scan", "android": "https://dc.lft.to/lastmile_qr_scan"}, "fusion_lat": 0.0}, {"lat": 38.9182185, "lon": -77.0241955, "is_disabled": 0, "fusion_lon": 0.0, "is_reserved": 0, "name": "0b03f4b8e4701613ee66311dabb17a40", "type": "electric_scooter", "bike_id": "0b03f4b8e4701613ee66311dabb17a40", "rental_uris": {"ios": "https://dc.lft.to/lastmile_qr_scan", "android": "https://dc.lft.to/lastmile_qr_scan"}, "fusion_lat": 0.0}, {"lat": 38.91123866666667, "lon": -77.03189116666667, "is_disabled": 0, "fusion_lon": 0.0, "is_reserved": 0, "name": "16b9bceb68326de1dbeea656d82ef54b", "type": "electric_scooter", "bike_id": "16b9bceb68326de1dbeea656d82ef54b", "rental_uris": {"ios": "https://dc.lft.to/lastmile_qr_scan", "android": "https://dc.lft.to/lastmile_qr_scan"}, "fusion_lat": 0.0}, {"lat": 38.91047616666667, "lon": -77.02186066666667, "is_disabled": 0, "fusion_lon": 0.0, "is_reserved": 0, "name": "3a829c15a35ace4ae62abca2577cf7f8", "type": "electric_scooter", "bike_id": "3a829c15a35ace4ae62abca2577cf7f8", "rental_uris": {"ios": "https://dc.lft.to/lastmile_qr_scan", "android": "https://dc.lft.to/lastmile_qr_scan"}, "fusion_lat": 0.0}, {"lat": 38.90581616666667, "lon": -77.0699485, "is_disabled": 0, "fusion_lon": 0.0, "is_reserved": 0, "name": "c8331b9370cedcb3f13347bcab4c5671", "type": "electric_scooter", "bike_id": "c8331b9370cedcb3f13347bcab4c5671", "rental_uris": {"ios": "https://dc.lft.to/lastmile_qr_scan", "android": "https://dc.lft.to/lastmile_qr_scan"}, "fusion_lat": 0.0}, {"lat": 38.9094095, "lon": -77.03055716666667, "is_disabled": 0, "fusion_lon": 0.0, "is_reserved": 0, "name": "db902116dde729d1886aa0eb6a361112", "type": "electric_scooter", "bike_id": "db902116dde729d1886aa0eb6a361112", "rental_uris": {"ios": "https://dc.lft.to/lastmile_qr_scan", "android": "https://dc.lft.to/lastmile_qr_scan"}, "fusion_lat": 0.0}, {"lat": 38.900547833333334, "lon": -77.01698933333333, "is_disabled": 0, "fusion_lon": 0.0, "is_reserved": 0, "name": "15e2b5410cd3da3576c73317f1cfba29", "type": "electric_scooter", "bike_id": "15e2b5410cd3da3576c73317f1cfba29", "rental_uris": {"ios": "https://dc.lft.to/lastmile_qr_scan", "android": "https://dc.lft.to/lastmile_qr_scan"}, "fusion_lat": 0.0}, {"lat": 38.903847999999996, "lon": -77.03835933333333, "is_disabled": 0, "fusion_lon": 0.0, "is_reserved": 0, "name": "adbb8cf958d4812e5f109c92819cebe6", "type": "electric_scooter", "bike_id": "adbb8cf958d4812e5f109c92819cebe6", "rental_uris": {"ios": "https://dc.lft.to/lastmile_qr_scan", "android": "https://dc.lft.to/lastmile_qr_scan"}, "fusion_lat": 0.0}, {"lat": 38.907758, "lon": -77.03766666666667, "is_disabled": 0, "fusion_lon": 0.0, "is_reserved": 0, "name": "14b3168db9d24f81e2fe876b816efd3a", "type": "electric_scooter", "bike_id": "14b3168db9d24f81e2fe876b816efd3a", "rental_uris": {"ios": "https://dc.lft.to/lastmile_qr_scan", "android": "https://dc.lft.to/lastmile_qr_scan"}, "fusion_lat": 0.0}, {"lat": 38.86013366666667, "lon": -76.9670325, "is_disabled": 0, "fusion_lon": 0.0, "is_reserved": 0, "name": "d81213f4b4958018d425c581218c25a8", "type": "electric_scooter", "bike_id": "d81213f4b4958018d425c581218c25a8", "rental_uris": {"ios": "https://dc.lft.to/lastmile_qr_scan", "android": "https://dc.lft.to/lastmile_qr_scan"}, "fusion_lat": 0.0}, {"lat": 38.920628, "lon": -77.04220666666667, "is_disabled": 0, "fusion_lon": 0.0, "is_reserved": 0, "name": "077f2c49aac064583d15e9cc42daeb8c", "type": "electric_scooter", "bike_id": "077f2c49aac064583d15e9cc42daeb8c", "rental_uris": {"ios": "https://dc.lft.to/lastmile_qr_scan", "android": "https://dc.lft.to/lastmile_qr_scan"}, "fusion_lat": 0.0}, {"lat": 38.936274, "lon": -77.05877266666667, "is_disabled": 0, "fusion_lon": 0.0, "is_reserved": 0, "name": "b5de29b41a810cee78f2da426967c748", "type": "electric_scooter", "bike_id": "b5de29b41a810cee78f2da426967c748", "rental_uris": {"ios": "https://dc.lft.to/lastmile_qr_scan", "android": "https://dc.lft.to/lastmile_qr_scan"}, "fusion_lat": 0.0}, {"lat": 38.9184705, "lon": -77.02344466666666, "is_disabled": 0, "fusion_lon": 0.0, "is_reserved": 0, "name": "db643a65b8b8d449e19e73bb6c07ab16", "type": "electric_scooter", "bike_id": "db643a65b8b8d449e19e73bb6c07ab16", "rental_uris": {"ios": "https://dc.lft.to/lastmile_qr_scan", "android": "https://dc.lft.to/lastmile_qr_scan"}, "fusion_lat": 0.0}, {"lat": 38.90101283333333, "lon": -76.9304595, "is_disabled": 0, "fusion_lon": 0.0, "is_reserved": 0, "name": "85dcccd07b572e266f0e9f60af550e2c", "type": "electric_scooter", "bike_id": "85dcccd07b572e266f0e9f60af550e2c", "rental_uris": {"ios": "https://dc.lft.to/lastmile_qr_scan", "android": "https://dc.lft.to/lastmile_qr_scan"}, "fusion_lat": 0.0}, {"lat": 38.9064715, "lon": -77.0388895, "is_disabled": 0, "fusion_lon": 0.0, "is_reserved": 0, "name": "94516e5ce3f843b1d3542b608fa470bf", "type": "electric_scooter", "bike_id": "94516e5ce3f843b1d3542b608fa470bf", "rental_uris": {"ios": "https://dc.lft.to/lastmile_qr_scan", "android": "https://dc.lft.to/lastmile_qr_scan"}, "fusion_lat": 0.0}, {"lat": 38.92150433333333, "lon": -77.02093966666666, "is_disabled": 0, "fusion_lon": 0.0, "is_reserved": 0, "name": "41115d27d7c5bc19da52009c5cec598a", "type": "electric_scooter", "bike_id": "41115d27d7c5bc19da52009c5cec598a", "rental_uris": {"ios": "https://dc.lft.to/lastmile_qr_scan", "android": "https://dc.lft.to/lastmile_qr_scan"}, "fusion_lat": 0.0}, {"lat": 38.8754465, "lon": -77.00537883333334, "is_disabled": 0, "fusion_lon": 0.0, "is_reserved": 0, "name": "f393f622861976ff9595e5eb7f5c94e2", "type": "electric_scooter", "bike_id": "f393f622861976ff9595e5eb7f5c94e2", "rental_uris": {"ios": "https://dc.lft.to/lastmile_qr_scan", "android": "https://dc.lft.to/lastmile_qr_scan"}, "fusion_lat": 0.0}, {"lat": 38.934287166666664, "lon": -77.04002033333333, "is_disabled": 0, "fusion_lon": 0.0, "is_reserved": 0, "name": "4c3b2ef8ddad8e90f149083239389e7f", "type": "electric_scooter", "bike_id": "4c3b2ef8ddad8e90f149083239389e7f", "rental_uris": {"ios": "https://dc.lft.to/lastmile_qr_scan", "android": "https://dc.lft.to/lastmile_qr_scan"}, "fusion_lat": 0.0}, {"lat": 38.909485833333335, "lon": -77.02283533333333, "is_disabled": 0, "fusion_lon": 0.0, "is_reserved": 0, "name": "752627faabfd16e7ea675d75f2b9de36", "type": "electric_scooter", "bike_id": "752627faabfd16e7ea675d75f2b9de36", "rental_uris": {"ios": "https://dc.lft.to/lastmile_qr_scan", "android": "https://dc.lft.to/lastmile_qr_scan"}, "fusion_lat": 0.0}, {"lat": 38.9899605, "lon": -77.09629516666666, "is_disabled": 0, "fusion_lon": 0.0, "is_reserved": 0, "name": "cca67508e3fcdccc559f900a07fafe59", "type": "electric_bike", "bike_id": "cca67508e3fcdccc559f900a07fafe59", "rental_uris": {"ios": "https://dc.lft.to/lastmile_qr_scan", "android": "https://dc.lft.to/lastmile_qr_scan"}, "fusion_lat": 0.0}, {"lat": 38.90069616666667, "lon": -77.02608633333334, "is_disabled": 0, "fusion_lon": 0.0, "is_reserved": 0, "name": "391b5afc345f11fad0e418a75872439d", "type": "electric_bike", "bike_id": "391b5afc345f11fad0e418a75872439d", "rental_uris": {"ios": "https://dc.lft.to/lastmile_qr_scan", "android": "https://dc.lft.to/lastmile_qr_scan"}, "fusion_lat": 0.0}, {"lat": 38.905071, "lon": -77.06017183333333, "is_disabled": 0, "fusion_lon": 0.0, "is_reserved": 0, "name": "d2e200793eaf8e117bcfcf8f43f0e263", "type": "electric_scooter", "bike_id": "d2e200793eaf8e117bcfcf8f43f0e263", "rental_uris": {"ios": "https://dc.lft.to/lastmile_qr_scan", "android": "https://dc.lft.to/lastmile_qr_scan"}, "fusion_lat": 0.0}, {"lat": 38.883327666666666, "lon": -77.01140966666667, "is_disabled": 0, "fusion_lon": 0.0, "is_reserved": 0, "name": "8541d7e9b847c0c6ab2e3af751c61fff", "type": "electric_scooter", "bike_id": "8541d7e9b847c0c6ab2e3af751c61fff", "rental_uris": {"ios": "https://dc.lft.to/lastmile_qr_scan", "android": "https://dc.lft.to/lastmile_qr_scan"}, "fusion_lat": 0.0}, {"lat": 39.01415633333333, "lon": -77.04496833333333, "is_disabled": 0, "fusion_lon": 0.0, "is_reserved": 0, "name": "431f59b2205825d79389cc188dce8879", "type": "electric_bike", "bike_id": "431f59b2205825d79389cc188dce8879", "rental_uris": {"ios": "https://dc.lft.to/lastmile_qr_scan", "android": "https://dc.lft.to/lastmile_qr_scan"}, "fusion_lat": 0.0}, {"lat": 38.895667833333334, "lon": -77.1273975, "is_disabled": 0, "fusion_lon": 0.0, "is_reserved": 0, "name": "74f5601a42ed218319c72a4390e680f2", "type": "electric_bike", "bike_id": "74f5601a42ed218319c72a4390e680f2", "rental_uris": {"ios": "https://dc.lft.to/lastmile_qr_scan", "android": "https://dc.lft.to/lastmile_qr_scan"}, "fusion_lat": 0.0}, {"lat": 38.89957916666667, "lon": -77.019965, "is_disabled": 0, "fusion_lon": 0.0, "is_reserved": 0, "name": "d307bcb1d6e7d37f2418fd33509245e5", "type": "electric_scooter", "bike_id": "d307bcb1d6e7d37f2418fd33509245e5", "rental_uris": {"ios": "https://dc.lft.to/lastmile_qr_scan", "android": "https://dc.lft.to/lastmile_qr_scan"}, "fusion_lat": 0.0}, {"lat": 38.9249775, "lon": -77.03913916666667, "is_disabled": 0, "fusion_lon": 0.0, "is_reserved": 0, "name": "20bb2583796626a73f9bd162f44459ea", "type": "electric_scooter", "bike_id": "20bb2583796626a73f9bd162f44459ea", "rental_uris": {"ios": "https://dc.lft.to/lastmile_qr_scan", "android": "https://dc.lft.to/lastmile_qr_scan"}, "fusion_lat": 0.0}, {"lat": 38.873702, "lon": -77.00160633333333, "is_disabled": 0, "fusion_lon": 0.0, "is_reserved": 0, "name": "ac2f17030442cfa033d8a5b61017e8f5", "type": "electric_scooter", "bike_id": "ac2f17030442cfa033d8a5b61017e8f5", "rental_uris": {"ios": "https://dc.lft.to/lastmile_qr_scan", "android": "https://dc.lft.to/lastmile_qr_scan"}, "fusion_lat": 0.0}, {"lat": 38.89815633333333, "lon": -77.0315635, "is_disabled": 0, "fusion_lon": 0.0, "is_reserved": 0, "name": "3117c6997b7a4baf044ecd73d7ac1d0b", "type": "electric_scooter", "bike_id": "3117c6997b7a4baf044ecd73d7ac1d0b", "rental_uris": {"ios": "https://dc.lft.to/lastmile_qr_scan", "android": "https://dc.lft.to/lastmile_qr_scan"}, "fusion_lat": 0.0}, {"lat": 38.92295683333333, "lon": -77.042955, "is_disabled": 0, "fusion_lon": 0.0, "is_reserved": 0, "name": "8df02be05f6598c0f22dacbd99222982", "type": "electric_scooter", "bike_id": "8df02be05f6598c0f22dacbd99222982", "rental_uris": {"ios": "https://dc.lft.to/lastmile_qr_scan", "android": "https://dc.lft.to/lastmile_qr_scan"}, "fusion_lat": 0.0}, {"lat": 38.902606666666664, "lon": -77.03434216666666, "is_disabled": 0, "fusion_lon": 0.0, "is_reserved": 0, "name": "1e7c653d6429b911bd97b8969252cb9c", "type": "electric_scooter", "bike_id": "1e7c653d6429b911bd97b8969252cb9c", "rental_uris": {"ios": "https://dc.lft.to/lastmile_qr_scan", "android": "https://dc.lft.to/lastmile_qr_scan"}, "fusion_lat": 0.0}, {"lat": 38.909493499999996, "lon": -77.0318075, "is_disabled": 0, "fusion_lon": 0.0, "is_reserved": 0, "name": "2af7ece0f2bee7d333336725430e6a0c", "type": "electric_scooter", "bike_id": "2af7ece0f2bee7d333336725430e6a0c", "rental_uris": {"ios": "https://dc.lft.to/lastmile_qr_scan", "android": "https://dc.lft.to/lastmile_qr_scan"}, "fusion_lat": 0.0}, {"lat": 38.92299033333333, "lon": -77.0232805, "is_disabled": 0, "fusion_lon": 0.0, "is_reserved": 0, "name": "f8771d5ddea2299831993f5eed4642a9", "type": "electric_scooter", "bike_id": "f8771d5ddea2299831993f5eed4642a9", "rental_uris": {"ios": "https://dc.lft.to/lastmile_qr_scan", "android": "https://dc.lft.to/lastmile_qr_scan"}, "fusion_lat": 0.0}, {"lat": 38.892208, "lon": -77.0235275, "is_disabled": 0, "fusion_lon": 0.0, "is_reserved": 0, "name": "ce9a69a958ac61a1be7d130731c9cb48", "type": "electric_scooter", "bike_id": "ce9a69a958ac61a1be7d130731c9cb48", "rental_uris": {"ios": "https://dc.lft.to/lastmile_qr_scan", "android": "https://dc.lft.to/lastmile_qr_scan"}, "fusion_lat": 0.0}, {"lat": 38.905049166666664, "lon": -77.05693416666666, "is_disabled": 0, "fusion_lon": 0.0, "is_reserved": 0, "name": "dc99dd11b878794f553d46075637b793", "type": "electric_scooter", "bike_id": "dc99dd11b878794f553d46075637b793", "rental_uris": {"ios": "https://dc.lft.to/lastmile_qr_scan", "android": "https://dc.lft.to/lastmile_qr_scan"}, "fusion_lat": 0.0}, {"lat": 38.8795645, "lon": -76.99500816666666, "is_disabled": 0, "fusion_lon": 0.0, "is_reserved": 0, "name": "49e6e3eed691e661a11e313d3d0e8b4a", "type": "electric_scooter", "bike_id": "49e6e3eed691e661a11e313d3d0e8b4a", "rental_uris": {"ios": "https://dc.lft.to/lastmile_qr_scan", "android": "https://dc.lft.to/lastmile_qr_scan"}, "fusion_lat": 0.0}, {"lat": 38.9025955, "lon": -77.0627845, "is_disabled": 0, "fusion_lon": 0.0, "is_reserved": 0, "name": "b5499107a3d37d093af617e76fed1def", "type": "electric_scooter", "bike_id": "b5499107a3d37d093af617e76fed1def", "rental_uris": {"ios": "https://dc.lft.to/lastmile_qr_scan", "android": "https://dc.lft.to/lastmile_qr_scan"}, "fusion_lat": 0.0}, {"lat": 38.903302333333336, "lon": -77.01893266666667, "is_disabled": 0, "fusion_lon": 0.0, "is_reserved": 0, "name": "1bfd2af0a07de45408707942d9c7aa70", "type": "electric_scooter", "bike_id": "1bfd2af0a07de45408707942d9c7aa70", "rental_uris": {"ios": "https://dc.lft.to/lastmile_qr_scan", "android": "https://dc.lft.to/lastmile_qr_scan"}, "fusion_lat": 0.0}, {"lat": 38.904638, "lon": -76.99505066666667, "is_disabled": 0, "fusion_lon": 0.0, "is_reserved": 0, "name": "961c04e7134305d6fae4ebdb7a6f3571", "type": "electric_scooter", "bike_id": "961c04e7134305d6fae4ebdb7a6f3571", "rental_uris": {"ios": "https://dc.lft.to/lastmile_qr_scan", "android": "https://dc.lft.to/lastmile_qr_scan"}, "fusion_lat": 0.0}, {"lat": 38.94290633333333, "lon": -77.02169833333333, "is_disabled": 0, "fusion_lon": 0.0, "is_reserved": 0, "name": "f325d48dd0e10afebe7d331fbe6f6636", "type": "electric_scooter", "bike_id": "f325d48dd0e10afebe7d331fbe6f6636", "rental_uris": {"ios": "https://dc.lft.to/lastmile_qr_scan", "android": "https://dc.lft.to/lastmile_qr_scan"}, "fusion_lat": 0.0}, {"lat": 38.9100985, "lon": -77.03445433333333, "is_disabled": 0, "fusion_lon": 0.0, "is_reserved": 0, "name": "35e0dff6924b909a2781f4ed445e95db", "type": "electric_scooter", "bike_id": "35e0dff6924b909a2781f4ed445e95db", "rental_uris": {"ios": "https://dc.lft.to/lastmile_qr_scan", "android": "https://dc.lft.to/lastmile_qr_scan"}, "fusion_lat": 0.0}, {"lat": 38.918599, "lon": -77.03209516666666, "is_disabled": 0, "fusion_lon": 0.0, "is_reserved": 0, "name": "435800346a47481911e248f0ed6e2014", "type": "electric_scooter", "bike_id": "435800346a47481911e248f0ed6e2014", "rental_uris": {"ios": "https://dc.lft.to/lastmile_qr_scan", "android": "https://dc.lft.to/lastmile_qr_scan"}, "fusion_lat": 0.0}, {"lat": 38.8811295, "lon": -77.01658333333333, "is_disabled": 0, "fusion_lon": 0.0, "is_reserved": 0, "name": "7694e03eface17e23eaaade5bbc86303", "type": "electric_scooter", "bike_id": "7694e03eface17e23eaaade5bbc86303", "rental_uris": {"ios": "https://dc.lft.to/lastmile_qr_scan", "android": "https://dc.lft.to/lastmile_qr_scan"}, "fusion_lat": 0.0}, {"lat": 38.892961, "lon": -77.01235116666666, "is_disabled": 0, "fusion_lon": 0.0, "is_reserved": 0, "name": "80adac391dbf28997c5673281fb5a873", "type": "electric_scooter", "bike_id": "80adac391dbf28997c5673281fb5a873", "rental_uris": {"ios": "https://dc.lft.to/lastmile_qr_scan", "android": "https://dc.lft.to/lastmile_qr_scan"}, "fusion_lat": 0.0}, {"lat": 38.9015, "lon": -77.029774, "is_disabled": 0, "fusion_lon": 0.0, "is_reserved": 0, "name": "3567cc994a9a759fe35206b45287d8f4", "type": "electric_bike", "bike_id": "3567cc994a9a759fe35206b45287d8f4", "rental_uris": {"ios": "https://dc.lft.to/lastmile_qr_scan", "android": "https://dc.lft.to/lastmile_qr_scan"}, "fusion_lat": 0.0}, {"lat": 38.85511666666667, "lon": -76.98936283333333, "is_disabled": 0, "fusion_lon": 0.0, "is_reserved": 0, "name": "60dcb0b5b25f29621074351cd02a9585", "type": "electric_scooter", "bike_id": "60dcb0b5b25f29621074351cd02a9585", "rental_uris": {"ios": "https://dc.lft.to/lastmile_qr_scan", "android": "https://dc.lft.to/lastmile_qr_scan"}, "fusion_lat": 0.0}, {"lat": 38.96610966666667, "lon": -77.02747233333334, "is_disabled": 0, "fusion_lon": 0.0, "is_reserved": 0, "name": "f41303f9a14f58e955512e226854cca2", "type": "electric_scooter", "bike_id": "f41303f9a14f58e955512e226854cca2", "rental_uris": {"ios": "https://dc.lft.to/lastmile_qr_scan", "android": "https://dc.lft.to/lastmile_qr_scan"}, "fusion_lat": 0.0}, {"lat": 38.973729, "lon": -77.01271516666667, "is_disabled": 0, "fusion_lon": 0.0, "is_reserved": 0, "name": "362fa87c5681497258fb433b7e4321e9", "type": "electric_scooter", "bike_id": "362fa87c5681497258fb433b7e4321e9", "rental_uris": {"ios": "https://dc.lft.to/lastmile_qr_scan", "android": "https://dc.lft.to/lastmile_qr_scan"}, "fusion_lat": 0.0}, {"lat": 38.9921145, "lon": -77.03211116666667, "is_disabled": 0, "fusion_lon": 0.0, "is_reserved": 0, "name": "ccec63f203f3ef22a3830ab2bf30b02a", "type": "electric_bike", "bike_id": "ccec63f203f3ef22a3830ab2bf30b02a", "rental_uris": {"ios": "https://dc.lft.to/lastmile_qr_scan", "android": "https://dc.lft.to/lastmile_qr_scan"}, "fusion_lat": 0.0}, {"lat": 38.90670033333333, "lon": -76.98943916666667, "is_disabled": 0, "fusion_lon": 0.0, "is_reserved": 0, "name": "a204fd1c7a795250690e4a338173871d", "type": "electric_scooter", "bike_id": "a204fd1c7a795250690e4a338173871d", "rental_uris": {"ios": "https://dc.lft.to/lastmile_qr_scan", "android": "https://dc.lft.to/lastmile_qr_scan"}, "fusion_lat": 0.0}, {"lat": 38.914239, "lon": -77.04485716666667, "is_disabled": 0, "fusion_lon": 0.0, "is_reserved": 0, "name": "c8b0c1bda858b2cb00160e7cf77ff404", "type": "electric_scooter", "bike_id": "c8b0c1bda858b2cb00160e7cf77ff404", "rental_uris": {"ios": "https://dc.lft.to/lastmile_qr_scan", "android": "https://dc.lft.to/lastmile_qr_scan"}, "fusion_lat": 0.0}, {"lat": 38.935395166666666, "lon": -77.05745983333334, "is_disabled": 0, "fusion_lon": 0.0, "is_reserved": 0, "name": "9b0114e57f2cf4ee366a2cc2acb96230", "type": "electric_scooter", "bike_id": "9b0114e57f2cf4ee366a2cc2acb96230", "rental_uris": {"ios": "https://dc.lft.to/lastmile_qr_scan", "android": "https://dc.lft.to/lastmile_qr_scan"}, "fusion_lat": 0.0}, {"lat": 38.9181345, "lon": -77.03560933333333, "is_disabled": 0, "fusion_lon": 0.0, "is_reserved": 0, "name": "618bd1b4bd25c40627af8a7adf679a6c", "type": "electric_scooter", "bike_id": "618bd1b4bd25c40627af8a7adf679a6c", "rental_uris": {"ios": "https://dc.lft.to/lastmile_qr_scan", "android": "https://dc.lft.to/lastmile_qr_scan"}, "fusion_lat": 0.0}, {"lat": 38.91989783333333, "lon": -77.02383833333333, "is_disabled": 0, "fusion_lon": 0.0, "is_reserved": 0, "name": "007f36a63d5348078e13f1f29773ff9c", "type": "electric_scooter", "bike_id": "007f36a63d5348078e13f1f29773ff9c", "rental_uris": {"ios": "https://dc.lft.to/lastmile_qr_scan", "android": "https://dc.lft.to/lastmile_qr_scan"}, "fusion_lat": 0.0}, {"lat": 38.93849733333333, "lon": -77.07230883333334, "is_disabled": 0, "fusion_lon": 0.0, "is_reserved": 0, "name": "eda0ffa10156cbeffa80b80a1dd4420d", "type": "electric_scooter", "bike_id": "eda0ffa10156cbeffa80b80a1dd4420d", "rental_uris": {"ios": "https://dc.lft.to/lastmile_qr_scan", "android": "https://dc.lft.to/lastmile_qr_scan"}, "fusion_lat": 0.0}, {"lat": 38.91028033333333, "lon": -77.04259533333334, "is_disabled": 0, "fusion_lon": 0.0, "is_reserved": 0, "name": "c2cfadc6448b4142431dd2cef9abf688", "type": "electric_scooter", "bike_id": "c2cfadc6448b4142431dd2cef9abf688", "rental_uris": {"ios": "https://dc.lft.to/lastmile_qr_scan", "android": "https://dc.lft.to/lastmile_qr_scan"}, "fusion_lat": 0.0}, {"lat": 38.878056666666666, "lon": -77.01723116666666, "is_disabled": 0, "fusion_lon": 0.0, "is_reserved": 0, "name": "bf9407cfe134946dd5bc83e225fcd129", "type": "electric_scooter", "bike_id": "bf9407cfe134946dd5bc83e225fcd129", "rental_uris": {"ios": "https://dc.lft.to/lastmile_qr_scan", "android": "https://dc.lft.to/lastmile_qr_scan"}, "fusion_lat": 0.0}, {"lat": 38.92721366666667, "lon": -77.0278215, "is_disabled": 0, "fusion_lon": 0.0, "is_reserved": 0, "name": "8f8d19e5d57943206fa3029c26026e5a", "type": "electric_scooter", "bike_id": "8f8d19e5d57943206fa3029c26026e5a", "rental_uris": {"ios": "https://dc.lft.to/lastmile_qr_scan", "android": "https://dc.lft.to/lastmile_qr_scan"}, "fusion_lat": 0.0}, {"lat": 38.902046666666664, "lon": -77.0237785, "is_disabled": 0, "fusion_lon": 0.0, "is_reserved": 0, "name": "73873cd532bc87e2f7c0338d127dd942", "type": "electric_scooter", "bike_id": "73873cd532bc87e2f7c0338d127dd942", "rental_uris": {"ios": "https://dc.lft.to/lastmile_qr_scan", "android": "https://dc.lft.to/lastmile_qr_scan"}, "fusion_lat": 0.0}, {"lat": 38.89013516666667, "lon": -76.93740783333334, "is_disabled": 0, "fusion_lon": 0.0, "is_reserved": 0, "name": "9847bbc0397b6ced38ea43f458eaf693", "type": "electric_scooter", "bike_id": "9847bbc0397b6ced38ea43f458eaf693", "rental_uris": {"ios": "https://dc.lft.to/lastmile_qr_scan", "android": "https://dc.lft.to/lastmile_qr_scan"}, "fusion_lat": 0.0}, {"lat": 38.872358166666665, "lon": -77.0089865, "is_disabled": 0, "fusion_lon": 0.0, "is_reserved": 0, "name": "bd8baabd98c882647f87e7a8b36589be", "type": "electric_bike", "bike_id": "bd8baabd98c882647f87e7a8b36589be", "rental_uris": {"ios": "https://dc.lft.to/lastmile_qr_scan", "android": "https://dc.lft.to/lastmile_qr_scan"}, "fusion_lat": 0.0}, {"lat": 38.89383766666667, "lon": -77.04667216666667, "is_disabled": 0, "fusion_lon": 0.0, "is_reserved": 0, "name": "8317da0a7913e092b6800d4a9afe9b07", "type": "electric_scooter", "bike_id": "8317da0a7913e092b6800d4a9afe9b07", "rental_uris": {"ios": "https://dc.lft.to/lastmile_qr_scan", "android": "https://dc.lft.to/lastmile_qr_scan"}, "fusion_lat": 0.0}, {"lat": 38.9443075, "lon": -77.06320733333334, "is_disabled": 0, "fusion_lon": 0.0, "is_reserved": 0, "name": "d97a2faf5629c85869c14be65e40de7b", "type": "electric_scooter", "bike_id": "d97a2faf5629c85869c14be65e40de7b", "rental_uris": {"ios": "https://dc.lft.to/lastmile_qr_scan", "android": "https://dc.lft.to/lastmile_qr_scan"}, "fusion_lat": 0.0}, {"lat": 38.9171225, "lon": -77.03677983333333, "is_disabled": 0, "fusion_lon": 0.0, "is_reserved": 0, "name": "20dd2dff7a174f7d3aa239d16215f947", "type": "electric_scooter", "bike_id": "20dd2dff7a174f7d3aa239d16215f947", "rental_uris": {"ios": "https://dc.lft.to/lastmile_qr_scan", "android": "https://dc.lft.to/lastmile_qr_scan"}, "fusion_lat": 0.0}, {"lat": 38.89039666666667, "lon": -76.9376255, "is_disabled": 0, "fusion_lon": 0.0, "is_reserved": 0, "name": "04b75d8f413b55ee65db5036da231e2e", "type": "electric_scooter", "bike_id": "04b75d8f413b55ee65db5036da231e2e", "rental_uris": {"ios": "https://dc.lft.to/lastmile_qr_scan", "android": "https://dc.lft.to/lastmile_qr_scan"}, "fusion_lat": 0.0}, {"lat": 38.936060833333336, "lon": -77.03180866666666, "is_disabled": 0, "fusion_lon": 0.0, "is_reserved": 0, "name": "9b18ef37d42762e4bb1f05d6122bfab5", "type": "electric_scooter", "bike_id": "9b18ef37d42762e4bb1f05d6122bfab5", "rental_uris": {"ios": "https://dc.lft.to/lastmile_qr_scan", "android": "https://dc.lft.to/lastmile_qr_scan"}, "fusion_lat": 0.0}, {"lat": 38.9276615, "lon": -76.97350433333334, "is_disabled": 0, "fusion_lon": 0.0, "is_reserved": 0, "name": "e67422300aaf850504c6a633aabf943c", "type": "electric_scooter", "bike_id": "e67422300aaf850504c6a633aabf943c", "rental_uris": {"ios": "https://dc.lft.to/lastmile_qr_scan", "android": "https://dc.lft.to/lastmile_qr_scan"}, "fusion_lat": 0.0}, {"lat": 38.9248795, "lon": -77.2334805, "is_disabled": 0, "fusion_lon": 0.0, "is_reserved": 0, "name": "dc55a5895f0625fc881572290df7945e", "type": "electric_bike", "bike_id": "dc55a5895f0625fc881572290df7945e", "rental_uris": {"ios": "https://dc.lft.to/lastmile_qr_scan", "android": "https://dc.lft.to/lastmile_qr_scan"}, "fusion_lat": 0.0}, {"lat": 38.898376166666665, "lon": -77.03908283333334, "is_disabled": 0, "fusion_lon": 0.0, "is_reserved": 0, "name": "b4cc810a8abde8823168e2f9ad695241", "type": "electric_scooter", "bike_id": "b4cc810a8abde8823168e2f9ad695241", "rental_uris": {"ios": "https://dc.lft.to/lastmile_qr_scan", "android": "https://dc.lft.to/lastmile_qr_scan"}, "fusion_lat": 0.0}, {"lat": 38.90662966666667, "lon": -77.02704666666666, "is_disabled": 0, "fusion_lon": 0.0, "is_reserved": 0, "name": "33ccfdeeac7f0f71d97bc004473a3363", "type": "electric_scooter", "bike_id": "33ccfdeeac7f0f71d97bc004473a3363", "rental_uris": {"ios": "https://dc.lft.to/lastmile_qr_scan", "android": "https://dc.lft.to/lastmile_qr_scan"}, "fusion_lat": 0.0}, {"lat": 38.94562766666667, "lon": -77.07958366666666, "is_disabled": 0, "fusion_lon": 0.0, "is_reserved": 0, "name": "2fc83a62af3562aae7b4e838391f0bfc", "type": "electric_scooter", "bike_id": "2fc83a62af3562aae7b4e838391f0bfc", "rental_uris": {"ios": "https://dc.lft.to/lastmile_qr_scan", "android": "https://dc.lft.to/lastmile_qr_scan"}, "fusion_lat": 0.0}, {"lat": 38.91224233333333, "lon": -77.02701983333333, "is_disabled": 0, "fusion_lon": 0.0, "is_reserved": 0, "name": "b7198522b868b455583bf811d27a7bc7", "type": "electric_scooter", "bike_id": "b7198522b868b455583bf811d27a7bc7", "rental_uris": {"ios": "https://dc.lft.to/lastmile_qr_scan", "android": "https://dc.lft.to/lastmile_qr_scan"}, "fusion_lat": 0.0}, {"lat": 38.9046595, "lon": -77.06602483333333, "is_disabled": 0, "fusion_lon": 0.0, "is_reserved": 0, "name": "ac6654f8cf3292c42dafe7559a5c814f", "type": "electric_scooter", "bike_id": "ac6654f8cf3292c42dafe7559a5c814f", "rental_uris": {"ios": "https://dc.lft.to/lastmile_qr_scan", "android": "https://dc.lft.to/lastmile_qr_scan"}, "fusion_lat": 0.0}, {"lat": 38.89876233333333, "lon": -77.0275765, "is_disabled": 0, "fusion_lon": 0.0, "is_reserved": 0, "name": "5e997758f9e30378b4f5b6f6d564cd74", "type": "electric_scooter", "bike_id": "5e997758f9e30378b4f5b6f6d564cd74", "rental_uris": {"ios": "https://dc.lft.to/lastmile_qr_scan", "android": "https://dc.lft.to/lastmile_qr_scan"}, "fusion_lat": 0.0}, {"lat": 38.90257716666667, "lon": -77.046136, "is_disabled": 0, "fusion_lon": 0.0, "is_reserved": 0, "name": "0722f86862a65c66e49e81ea28db05bb", "type": "electric_scooter", "bike_id": "0722f86862a65c66e49e81ea28db05bb", "rental_uris": {"ios": "https://dc.lft.to/lastmile_qr_scan", "android": "https://dc.lft.to/lastmile_qr_scan"}, "fusion_lat": 0.0}, {"lat": 38.838675, "lon": -76.996994, "is_disabled": 0, "fusion_lon": 0.0, "is_reserved": 0, "name": "8417729dca6e071bc2cd3031391907de", "type": "electric_bike", "bike_id": "8417729dca6e071bc2cd3031391907de", "rental_uris": {"ios": "https://dc.lft.to/lastmile_qr_scan", "android": "https://dc.lft.to/lastmile_qr_scan"}, "fusion_lat": 0.0}, {"lat": 38.9878655, "lon": -77.14101233333334, "is_disabled": 0, "fusion_lon": 0.0, "is_reserved": 0, "name": "74e1e5e4485dbb98d7791ed6ef1d5a3d", "type": "electric_bike", "bike_id": "74e1e5e4485dbb98d7791ed6ef1d5a3d", "rental_uris": {"ios": "https://dc.lft.to/lastmile_qr_scan", "android": "https://dc.lft.to/lastmile_qr_scan"}, "fusion_lat": 0.0}, {"lat": 38.898216833333336, "lon": -77.01535783333334, "is_disabled": 0, "fusion_lon": 0.0, "is_reserved": 0, "name": "ed31d289e3067aca9ccfa40b1d7fd13d", "type": "electric_scooter", "bike_id": "ed31d289e3067aca9ccfa40b1d7fd13d", "rental_uris": {"ios": "https://dc.lft.to/lastmile_qr_scan", "android": "https://dc.lft.to/lastmile_qr_scan"}, "fusion_lat": 0.0}, {"lat": 38.8850925, "lon": -77.01588683333334, "is_disabled": 0, "fusion_lon": 0.0, "is_reserved": 0, "name": "e620d76ce3605be9761070c57244db7a", "type": "electric_scooter", "bike_id": "e620d76ce3605be9761070c57244db7a", "rental_uris": {"ios": "https://dc.lft.to/lastmile_qr_scan", "android": "https://dc.lft.to/lastmile_qr_scan"}, "fusion_lat": 0.0}, {"lat": 38.873734166666665, "lon": -77.00120683333333, "is_disabled": 0, "fusion_lon": 0.0, "is_reserved": 0, "name": "11a32937e922a2566f7932f4e32ecb61", "type": "electric_scooter", "bike_id": "11a32937e922a2566f7932f4e32ecb61", "rental_uris": {"ios": "https://dc.lft.to/lastmile_qr_scan", "android": "https://dc.lft.to/lastmile_qr_scan"}, "fusion_lat": 0.0}, {"lat": 38.863266, "lon": -76.98722366666667, "is_disabled": 0, "fusion_lon": 0.0, "is_reserved": 0, "name": "d4cc69946858cc27f66990daff57f824", "type": "electric_bike", "bike_id": "d4cc69946858cc27f66990daff57f824", "rental_uris": {"ios": "https://dc.lft.to/lastmile_qr_scan", "android": "https://dc.lft.to/lastmile_qr_scan"}, "fusion_lat": 0.0}, {"lat": 38.91123866666667, "lon": -77.03186266666667, "is_disabled": 0, "fusion_lon": 0.0, "is_reserved": 0, "name": "78258434f9514ed1c50fbd458fa64551", "type": "electric_scooter", "bike_id": "78258434f9514ed1c50fbd458fa64551", "rental_uris": {"ios": "https://dc.lft.to/lastmile_qr_scan", "android": "https://dc.lft.to/lastmile_qr_scan"}, "fusion_lat": 0.0}, {"lat": 38.89545433333333, "lon": -76.98338266666667, "is_disabled": 0, "fusion_lon": 0.0, "is_reserved": 0, "name": "b67bbf251ab10968e021cbccc1d1d464", "type": "electric_scooter", "bike_id": "b67bbf251ab10968e021cbccc1d1d464", "rental_uris": {"ios": "https://dc.lft.to/lastmile_qr_scan", "android": "https://dc.lft.to/lastmile_qr_scan"}, "fusion_lat": 0.0}, {"lat": 38.92712866666667, "lon": -77.053472, "is_disabled": 0, "fusion_lon": 0.0, "is_reserved": 0, "name": "933ee11830deb3e528ba1d7614189e96", "type": "electric_scooter", "bike_id": "933ee11830deb3e528ba1d7614189e96", "rental_uris": {"ios": "https://dc.lft.to/lastmile_qr_scan", "android": "https://dc.lft.to/lastmile_qr_scan"}, "fusion_lat": 0.0}, {"lat": 38.806413666666664, "lon": -77.06247316666666, "is_disabled": 0, "fusion_lon": 0.0, "is_reserved": 0, "name": "374ad70beb86524d8ba569cc83ab7be8", "type": "electric_bike", "bike_id": "374ad70beb86524d8ba569cc83ab7be8", "rental_uris": {"ios": "https://dc.lft.to/lastmile_qr_scan", "android": "https://dc.lft.to/lastmile_qr_scan"}, "fusion_lat": 0.0}, {"lat": 38.83515083333333, "lon": -76.98670966666667, "is_disabled": 0, "fusion_lon": 0.0, "is_reserved": 0, "name": "93e61ca7d582706ff335400154b7499e", "type": "electric_bike", "bike_id": "93e61ca7d582706ff335400154b7499e", "rental_uris": {"ios": "https://dc.lft.to/lastmile_qr_scan", "android": "https://dc.lft.to/lastmile_qr_scan"}, "fusion_lat": 0.0}, {"lat": 38.887478, "lon": -77.0177555, "is_disabled": 0, "fusion_lon": 0.0, "is_reserved": 0, "name": "c5db298a45baa5ac447c32bb29a92320", "type": "electric_scooter", "bike_id": "c5db298a45baa5ac447c32bb29a92320", "rental_uris": {"ios": "https://dc.lft.to/lastmile_qr_scan", "android": "https://dc.lft.to/lastmile_qr_scan"}, "fusion_lat": 0.0}, {"lat": 38.900257, "lon": -77.02395016666667, "is_disabled": 0, "fusion_lon": 0.0, "is_reserved": 0, "name": "669713e57f9f77f2cbf4615443a2d371", "type": "electric_scooter", "bike_id": "669713e57f9f77f2cbf4615443a2d371", "rental_uris": {"ios": "https://dc.lft.to/lastmile_qr_scan", "android": "https://dc.lft.to/lastmile_qr_scan"}, "fusion_lat": 0.0}, {"lat": 38.900400166666664, "lon": -77.01770766666667, "is_disabled": 0, "fusion_lon": 0.0, "is_reserved": 0, "name": "33a27cd21be1bb42a91726dc440a920c", "type": "electric_scooter", "bike_id": "33a27cd21be1bb42a91726dc440a920c", "rental_uris": {"ios": "https://dc.lft.to/lastmile_qr_scan", "android": "https://dc.lft.to/lastmile_qr_scan"}, "fusion_lat": 0.0}, {"lat": 38.916795666666665, "lon": -77.02282033333333, "is_disabled": 0, "fusion_lon": 0.0, "is_reserved": 0, "name": "1ab9446ff8d8f9ff1d5909faa9d63ba3", "type": "electric_scooter", "bike_id": "1ab9446ff8d8f9ff1d5909faa9d63ba3", "rental_uris": {"ios": "https://dc.lft.to/lastmile_qr_scan", "android": "https://dc.lft.to/lastmile_qr_scan"}, "fusion_lat": 0.0}, {"lat": 38.924631, "lon": -77.02247833333334, "is_disabled": 0, "fusion_lon": 0.0, "is_reserved": 0, "name": "8d6949bde2342eb980a4285cc317c6f0", "type": "electric_scooter", "bike_id": "8d6949bde2342eb980a4285cc317c6f0", "rental_uris": {"ios": "https://dc.lft.to/lastmile_qr_scan", "android": "https://dc.lft.to/lastmile_qr_scan"}, "fusion_lat": 0.0}, {"lat": 38.905535666666665, "lon": -77.0428015, "is_disabled": 0, "fusion_lon": 0.0, "is_reserved": 0, "name": "9489fa47d6961dcbfe4bd35d51194389", "type": "electric_scooter", "bike_id": "9489fa47d6961dcbfe4bd35d51194389", "rental_uris": {"ios": "https://dc.lft.to/lastmile_qr_scan", "android": "https://dc.lft.to/lastmile_qr_scan"}, "fusion_lat": 0.0}, {"lat": 38.889994333333334, "lon": -76.95435666666667, "is_disabled": 0, "fusion_lon": 0.0, "is_reserved": 0, "name": "48db3a7f87dd57ecd7cc95ecc664472c", "type": "electric_scooter", "bike_id": "48db3a7f87dd57ecd7cc95ecc664472c", "rental_uris": {"ios": "https://dc.lft.to/lastmile_qr_scan", "android": "https://dc.lft.to/lastmile_qr_scan"}, "fusion_lat": 0.0}, {"lat": 38.900799166666665, "lon": -77.0478095, "is_disabled": 0, "fusion_lon": 0.0, "is_reserved": 0, "name": "414c2422a9bf08ec8af50f5c92cfe1c6", "type": "electric_scooter", "bike_id": "414c2422a9bf08ec8af50f5c92cfe1c6", "rental_uris": {"ios": "https://dc.lft.to/lastmile_qr_scan", "android": "https://dc.lft.to/lastmile_qr_scan"}, "fusion_lat": 0.0}, {"lat": 38.918023166666664, "lon": -77.03440483333334, "is_disabled": 0, "fusion_lon": 0.0, "is_reserved": 0, "name": "16ad6bb887ff7f4962ed5efa59c59c10", "type": "electric_scooter", "bike_id": "16ad6bb887ff7f4962ed5efa59c59c10", "rental_uris": {"ios": "https://dc.lft.to/lastmile_qr_scan", "android": "https://dc.lft.to/lastmile_qr_scan"}, "fusion_lat": 0.0}, {"lat": 38.937102833333334, "lon": -77.035176, "is_disabled": 0, "fusion_lon": 0.0, "is_reserved": 0, "name": "2e18f1642043113f65b0059aa81ded94", "type": "electric_scooter", "bike_id": "2e18f1642043113f65b0059aa81ded94", "rental_uris": {"ios": "https://dc.lft.to/lastmile_qr_scan", "android": "https://dc.lft.to/lastmile_qr_scan"}, "fusion_lat": 0.0}, {"lat": 38.96373083333334, "lon": -76.94519033333333, "is_disabled": 0, "fusion_lon": 0.0, "is_reserved": 0, "name": "d940034ce8b9c9c0a6cc23851416bcfd", "type": "electric_bike", "bike_id": "d940034ce8b9c9c0a6cc23851416bcfd", "rental_uris": {"ios": "https://dc.lft.to/lastmile_qr_scan", "android": "https://dc.lft.to/lastmile_qr_scan"}, "fusion_lat": 0.0}, {"lat": 38.90578516666667, "lon": -77.038459, "is_disabled": 0, "fusion_lon": 0.0, "is_reserved": 0, "name": "9ab8e32b628ef0b91fb64f5d9baa271f", "type": "electric_scooter", "bike_id": "9ab8e32b628ef0b91fb64f5d9baa271f", "rental_uris": {"ios": "https://dc.lft.to/lastmile_qr_scan", "android": "https://dc.lft.to/lastmile_qr_scan"}, "fusion_lat": 0.0}, {"lat": 38.92557516666667, "lon": -77.05259316666667, "is_disabled": 0, "fusion_lon": 0.0, "is_reserved": 0, "name": "b69e308853dd70f92520d70d1dc6b216", "type": "electric_scooter", "bike_id": "b69e308853dd70f92520d70d1dc6b216", "rental_uris": {"ios": "https://dc.lft.to/lastmile_qr_scan", "android": "https://dc.lft.to/lastmile_qr_scan"}, "fusion_lat": 0.0}, {"lat": 38.924579666666666, "lon": -77.02155, "is_disabled": 0, "fusion_lon": 0.0, "is_reserved": 0, "name": "90e5f11413b1b1baf577b6e7d3323622", "type": "electric_scooter", "bike_id": "90e5f11413b1b1baf577b6e7d3323622", "rental_uris": {"ios": "https://dc.lft.to/lastmile_qr_scan", "android": "https://dc.lft.to/lastmile_qr_scan"}, "fusion_lat": 0.0}, {"lat": 38.89571733333333, "lon": -76.983223, "is_disabled": 0, "fusion_lon": 0.0, "is_reserved": 0, "name": "00f4080b21279c7ea3d37b7ecd50d946", "type": "electric_scooter", "bike_id": "00f4080b21279c7ea3d37b7ecd50d946", "rental_uris": {"ios": "https://dc.lft.to/lastmile_qr_scan", "android": "https://dc.lft.to/lastmile_qr_scan"}, "fusion_lat": 0.0}, {"lat": 38.88388066666667, "lon": -76.9855295, "is_disabled": 0, "fusion_lon": 0.0, "is_reserved": 0, "name": "cab14f0584463d28298779bfab4a091d", "type": "electric_scooter", "bike_id": "cab14f0584463d28298779bfab4a091d", "rental_uris": {"ios": "https://dc.lft.to/lastmile_qr_scan", "android": "https://dc.lft.to/lastmile_qr_scan"}, "fusion_lat": 0.0}, {"lat": 38.914349666666666, "lon": -77.0170145, "is_disabled": 0, "fusion_lon": 0.0, "is_reserved": 0, "name": "b041f1f1d0a64d580be2b0b856b07b75", "type": "electric_scooter", "bike_id": "b041f1f1d0a64d580be2b0b856b07b75", "rental_uris": {"ios": "https://dc.lft.to/lastmile_qr_scan", "android": "https://dc.lft.to/lastmile_qr_scan"}, "fusion_lat": 0.0}, {"lat": 38.92284683333333, "lon": -77.03658083333333, "is_disabled": 0, "fusion_lon": 0.0, "is_reserved": 0, "name": "73c52849a1e7ffe9d44cc18bbb5fb24f", "type": "electric_scooter", "bike_id": "73c52849a1e7ffe9d44cc18bbb5fb24f", "rental_uris": {"ios": "https://dc.lft.to/lastmile_qr_scan", "android": "https://dc.lft.to/lastmile_qr_scan"}, "fusion_lat": 0.0}, {"lat": 38.907264, "lon": -77.04330766666666, "is_disabled": 0, "fusion_lon": 0.0, "is_reserved": 0, "name": "b27e3d888c321bf9ba2ae0555f16a725", "type": "electric_scooter", "bike_id": "b27e3d888c321bf9ba2ae0555f16a725", "rental_uris": {"ios": "https://dc.lft.to/lastmile_qr_scan", "android": "https://dc.lft.to/lastmile_qr_scan"}, "fusion_lat": 0.0}, {"lat": 38.901392666666666, "lon": -77.0468115, "is_disabled": 0, "fusion_lon": 0.0, "is_reserved": 0, "name": "5df256f5bf8d289111503344753e0785", "type": "electric_scooter", "bike_id": "5df256f5bf8d289111503344753e0785", "rental_uris": {"ios": "https://dc.lft.to/lastmile_qr_scan", "android": "https://dc.lft.to/lastmile_qr_scan"}, "fusion_lat": 0.0}, {"lat": 38.916390166666666, "lon": -77.04013316666666, "is_disabled": 0, "fusion_lon": 0.0, "is_reserved": 0, "name": "de2e36e2b9571b7e48a34df688b9cc49", "type": "electric_scooter", "bike_id": "de2e36e2b9571b7e48a34df688b9cc49", "rental_uris": {"ios": "https://dc.lft.to/lastmile_qr_scan", "android": "https://dc.lft.to/lastmile_qr_scan"}, "fusion_lat": 0.0}, {"lat": 38.90957933333333, "lon": -77.04438233333333, "is_disabled": 0, "fusion_lon": 0.0, "is_reserved": 0, "name": "93be4b16f9e6d83aaffad2d18bbb091e", "type": "electric_scooter", "bike_id": "93be4b16f9e6d83aaffad2d18bbb091e", "rental_uris": {"ios": "https://dc.lft.to/lastmile_qr_scan", "android": "https://dc.lft.to/lastmile_qr_scan"}, "fusion_lat": 0.0}, {"lat": 38.91696133333333, "lon": -77.03340333333334, "is_disabled": 0, "fusion_lon": 0.0, "is_reserved": 0, "name": "f7c8d7c31afe281096a083481f45dec7", "type": "electric_scooter", "bike_id": "f7c8d7c31afe281096a083481f45dec7", "rental_uris": {"ios": "https://dc.lft.to/lastmile_qr_scan", "android": "https://dc.lft.to/lastmile_qr_scan"}, "fusion_lat": 0.0}, {"lat": 38.922619166666664, "lon": -77.03684383333334, "is_disabled": 0, "fusion_lon": 0.0, "is_reserved": 0, "name": "64a3bd14a2b8f028d559db7050368fee", "type": "electric_scooter", "bike_id": "64a3bd14a2b8f028d559db7050368fee", "rental_uris": {"ios": "https://dc.lft.to/lastmile_qr_scan", "android": "https://dc.lft.to/lastmile_qr_scan"}, "fusion_lat": 0.0}, {"lat": 38.905536, "lon": -77.04844183333333, "is_disabled": 0, "fusion_lon": 0.0, "is_reserved": 0, "name": "e94619536b061977ec2773591f3eeab1", "type": "electric_scooter", "bike_id": "e94619536b061977ec2773591f3eeab1", "rental_uris": {"ios": "https://dc.lft.to/lastmile_qr_scan", "android": "https://dc.lft.to/lastmile_qr_scan"}, "fusion_lat": 0.0}, {"lat": 38.896270333333334, "lon": -77.02378383333334, "is_disabled": 0, "fusion_lon": 0.0, "is_reserved": 0, "name": "ec4443f8cea32b4a802e136c75a934f4", "type": "electric_scooter", "bike_id": "ec4443f8cea32b4a802e136c75a934f4", "rental_uris": {"ios": "https://dc.lft.to/lastmile_qr_scan", "android": "https://dc.lft.to/lastmile_qr_scan"}, "fusion_lat": 0.0}, {"lat": 38.89382783333333, "lon": -76.92303816666667, "is_disabled": 0, "fusion_lon": 0.0, "is_reserved": 0, "name": "766f8000b39fbb4c42d54bcbc739ed0c", "type": "electric_scooter", "bike_id": "766f8000b39fbb4c42d54bcbc739ed0c", "rental_uris": {"ios": "https://dc.lft.to/lastmile_qr_scan", "android": "https://dc.lft.to/lastmile_qr_scan"}, "fusion_lat": 0.0}, {"lat": 38.9052645, "lon": -77.048448, "is_disabled": 0, "fusion_lon": 0.0, "is_reserved": 0, "name": "fd78b6b4b4372253d6842b91c2a5977a", "type": "electric_scooter", "bike_id": "fd78b6b4b4372253d6842b91c2a5977a", "rental_uris": {"ios": "https://dc.lft.to/lastmile_qr_scan", "android": "https://dc.lft.to/lastmile_qr_scan"}, "fusion_lat": 0.0}, {"lat": 38.950047166666664, "lon": -77.08051283333333, "is_disabled": 0, "fusion_lon": 0.0, "is_reserved": 0, "name": "72200ea19417b8cc9a5b5f7c224dd293", "type": "electric_scooter", "bike_id": "72200ea19417b8cc9a5b5f7c224dd293", "rental_uris": {"ios": "https://dc.lft.to/lastmile_qr_scan", "android": "https://dc.lft.to/lastmile_qr_scan"}, "fusion_lat": 0.0}, {"lat": 38.877092833333336, "lon": -77.0171685, "is_disabled": 0, "fusion_lon": 0.0, "is_reserved": 0, "name": "62c15a2e5d10398b35b3e17cb3e16dbd", "type": "electric_scooter", "bike_id": "62c15a2e5d10398b35b3e17cb3e16dbd", "rental_uris": {"ios": "https://dc.lft.to/lastmile_qr_scan", "android": "https://dc.lft.to/lastmile_qr_scan"}, "fusion_lat": 0.0}, {"lat": 38.9077655, "lon": -77.07166633333334, "is_disabled": 0, "fusion_lon": 0.0, "is_reserved": 0, "name": "971fa419facbfa338324a5f53a5c108b", "type": "electric_scooter", "bike_id": "971fa419facbfa338324a5f53a5c108b", "rental_uris": {"ios": "https://dc.lft.to/lastmile_qr_scan", "android": "https://dc.lft.to/lastmile_qr_scan"}, "fusion_lat": 0.0}, {"lat": 38.8475685, "lon": -76.9949905, "is_disabled": 0, "fusion_lon": 0.0, "is_reserved": 0, "name": "d79f633fe9953c239cf106eb126214cd", "type": "electric_scooter", "bike_id": "d79f633fe9953c239cf106eb126214cd", "rental_uris": {"ios": "https://dc.lft.to/lastmile_qr_scan", "android": "https://dc.lft.to/lastmile_qr_scan"}, "fusion_lat": 0.0}, {"lat": 39.052539833333334, "lon": -77.0806405, "is_disabled": 0, "fusion_lon": 0.0, "is_reserved": 0, "name": "aa4b0c2d41875f77a9173f8d843cd04e", "type": "electric_bike", "bike_id": "aa4b0c2d41875f77a9173f8d843cd04e", "rental_uris": {"ios": "https://dc.lft.to/lastmile_qr_scan", "android": "https://dc.lft.to/lastmile_qr_scan"}, "fusion_lat": 0.0}, {"lat": 38.964405, "lon": -77.0315715, "is_disabled": 0, "fusion_lon": 0.0, "is_reserved": 0, "name": "afd56da9d2bf9265521d77bbdcd5ee86", "type": "electric_bike", "bike_id": "afd56da9d2bf9265521d77bbdcd5ee86", "rental_uris": {"ios": "https://dc.lft.to/lastmile_qr_scan", "android": "https://dc.lft.to/lastmile_qr_scan"}, "fusion_lat": 0.0},