{"data": {"bikes": [{"bike_id": "df3a62b9baed40b2698ab24832877af6", "type": "electric_scooter", "is_disabled": 0, "lat": 38.9148235, "rental_uris": {"ios": "https://dc.lft.to/lastmile_qr_scan", "android": "https://dc.lft.to/lastmile_qr_scan"}, "is_reserved": 0, "fusion_lon": 0.0, "fusion_lat": 0.0, "lon": -77.03214883333334, "name": "df3a62b9baed40b2698ab24832877af6"}, {"bike_id": "7a8388ffa9ca7b5a28e4bb10756b19dd", "type": "electric_scooter", "is_disabled": 0, "lat": 38.913279833333334, "rental_uris": {"ios": "https://dc.lft.to/lastmile_qr_scan", "android": "https://dc.lft.to/lastmile_qr_scan"}, "is_reserved": 0, "fusion_lon": 0.0, "fusion_lat": 0.0, "lon": -77.03186566666666, "name": "7a8388ffa9ca7b5a28e4bb10756b19dd"}, {"bike_id": "231204c4eb5a78a6aa6d202bda93e9fc", "type": "electric_scooter", "is_disabled": 0, "lat": 38.902893666666664, "rental_uris": {"ios": "https://dc.lft.to/lastmile_qr_scan", "android": "https://dc.lft.to/lastmile_qr_scan"}, "is_reserved": 0, "fusion_lon": 0.0, "fusion_lat": 0.0, "lon": -77.02144283333334, "name": "231204c4eb5a78a6aa6d202bda93e9fc"}, {"bike_id": "bb3d7efe37f2902b960a9bbf4badb015", "type": "electric_scooter", "is_disabled": 0, "lat": 38.917151, "rental_uris": {"ios": "https://dc.lft.to/lastmile_qr_scan", "android": "https://dc.lft.to/lastmile_qr_scan"}, "is_reserved": 0, "fusion_lon": 0.0, "fusion_lat": 0.0, "lon": -77.04605816666667, "name": "bb3d7efe37f2902b960a9bbf4badb015"}, {"bike_id": "877781a7c2cad65c733194b5ef27cec6", "type": "electric_scooter", "is_disabled": 0, "lat": 38.9142605, "rental_uris": {"ios": "https://dc.lft.to/lastmile_qr_scan", "android": "https://dc.lft.to/lastmile_qr_scan"}, "is_reserved": 0, "fusion_lon": 0.0, "fusion_lat": 0.0, "lon": -77.0692625, "name": "877781a7c2cad65c733194b5ef27cec6"}, {"bike_id": "c5b213b837c84f83314a1a2f2e93e554", "type": "electric_scooter", "is_disabled": 0, "lat": 38.966077166666665, "rental_uris": {"ios": "https://dc.lft.to/lastmile_qr_scan", "android": "https://dc.lft.to/lastmile_qr_scan"}, "is_reserved": 0, "fusion_lon": 0.0, "fusion_lat": 0.0, "lon": -77.01976333333333, "name": "c5b213b837c84f83314a1a2f2e93e554"}, {"bike_id": "404c4502dda604f60613f40e9b7ba972", "type": "electric_scooter", "is_disabled": 0, "lat": 38.9111805, "rental_uris": {"ios": "https://dc.lft.to/lastmile_qr_scan", "android": "https://dc.lft.to/lastmile_qr_scan"}, "is_reserved": 0, "fusion_lon": 0.0, "fusion_lat": 0.0, "lon": -77.04467016666666, "name": "404c4502dda604f60613f40e9b7ba972"}, {"bike_id": "33816c3aeb77eae32b4d4d885d9e1e3b", "type": "electric_scooter", "is_disabled": 0, "lat": 38.919216166666665, "rental_uris": {"ios": "https://dc.lft.to/lastmile_qr_scan", "android": "https://dc.lft.to/lastmile_qr_scan"}, "is_reserved": 0, "fusion_lon": 0.0, "fusion_lat": 0.0, "lon": -77.04468416666667, "name": "33816c3aeb77eae32b4d4d885d9e1e3b"}, {"bike_id": "c34612b66dc325c30c2f1d2021d386c7", "type": "electric_scooter", "is_disabled": 0, "lat": 38.9083335, "rental_uris": {"ios": "https://dc.lft.to/lastmile_qr_scan", "android": "https://dc.lft.to/lastmile_qr_scan"}, "is_reserved": 0, "fusion_lon": 0.0, "fusion_lat": 0.0, "lon": -77.03654933333334, "name": "c34612b66dc325c30c2f1d2021d386c7"}, {"bike_id": "b9534082cfe6ca3de14bfa846d142c7d", "type": "electric_scooter", "is_disabled": 0, "lat": 38.90202566666667, "rental_uris": {"ios": "https://dc.lft.to/lastmile_qr_scan", "android": "https://dc.lft.to/lastmile_qr_scan"}, "is_reserved": 0, "fusion_lon": 0.0, "fusion_lat": 0.0, "lon": -77.02170116666667, "name": "b9534082cfe6ca3de14bfa846d142c7d"}, {"bike_id": "6c40e53861be7692f95e4e728ac05b89", "type": "electric_scooter", "is_disabled": 0, "lat": 38.892053833333335, "rental_uris": {"ios": "https://dc.lft.to/lastmile_qr_scan", "android": "https://dc.lft.to/lastmile_qr_scan"}, "is_reserved": 0, "fusion_lon": 0.0, "fusion_lat": 0.0, "lon": -77.00235216666667, "name": "6c40e53861be7692f95e4e728ac05b89"}, {"bike_id": "1662083aea8baffe7447311c824735f3", "type": "electric_scooter", "is_disabled": 0, "lat": 38.8976685, "rental_uris": {"ios": "https://dc.lft.to/lastmile_qr_scan", "android": "https://dc.lft.to/lastmile_qr_scan"}, "is_reserved": 0, "fusion_lon": 0.0, "fusion_lat": 0.0, "lon": -77.02921066666667, "name": "1662083aea8baffe7447311c824735f3"}, {"bike_id": "e425caa9fedd9ac47abef1a54a1f4a73", "type": "electric_bike", "is_disabled": 0, "lat": 38.994793666666666, "rental_uris": {"ios": "https://dc.lft.to/lastmile_qr_scan", "android": "https://dc.lft.to/lastmile_qr_scan"}, "is_reserved": 0, "fusion_lon": 0.0, "fusion_lat": 0.0, "lon": -77.029075, "name": "e425caa9fedd9ac47abef1a54a1f4a73"}, {"bike_id": "bf8eec51e7fd8c4345add488fb121bea", "type": "electric_scooter", "is_disabled": 0, "lat": 38.965689, "rental_uris": {"ios": "https://dc.lft.to/lastmile_qr_scan", "android": "https://dc.lft.to/lastmile_qr_scan"}, "is_reserved": 0, "fusion_lon": 0.0, "fusion_lat": 0.0, "lon": -77.02777266666666, "name": "bf8eec51e7fd8c4345add488fb121bea"}, {"bike_id": "2a1ee81bce2fd1f845f602a937ed646e", "type": "electric_scooter", "is_disabled": 0, "lat": 38.876470166666664, "rental_uris": {"ios": "https://dc.lft.to/lastmile_qr_scan", "android": "https://dc.lft.to/lastmile_qr_scan"}, "is_reserved": 0, "fusion_lon": 0.0, "fusion_lat": 0.0, "lon": -76.965059, "name": "2a1ee81bce2fd1f845f602a937ed646e"}, {"bike_id": "e8c65467643bd7579fc389d7c726a917", "type": "electric_scooter", "is_disabled": 0, "lat": 38.91691933333333, "rental_uris": {"ios": "https://dc.lft.to/lastmile_qr_scan", "android": "https://dc.lft.to/lastmile_qr_scan"}, "is_reserved": 0, "fusion_lon": 0.0, "fusion_lat": 0.0, "lon": -77.03213416666667, "name": "e8c65467643bd7579fc389d7c726a917"}, {"bike_id": "f532216231a79e388230f28e18d3e65f", "type": "electric_scooter", "is_disabled": 0, "lat": 38.861917166666665, "rental_uris": {"ios": "https://dc.lft.to/lastmile_qr_scan", "android": "https://dc.lft.to/lastmile_qr_scan"}, "is_reserved": 0, "fusion_lon": 0.0, "fusion_lat": 0.0, "lon": -76.95950233333333, "name": "f532216231a79e388230f28e18d3e65f"}, {"bike_id": "444a2e138ce5b8e193eea6c43c5c2527", "type": "electric_scooter", "is_disabled": 0, "lat": 38.8624895, "rental_uris": {"ios": "https://dc.lft.to/lastmile_qr_scan", "android": "https://dc.lft.to/lastmile_qr_scan"}, "is_reserved": 0, "fusion_lon": 0.0, "fusion_lat": 0.0, "lon": -76.99502883333334, "name": "444a2e138ce5b8e193eea6c43c5c2527"}, {"bike_id": "f6d272d3ea5cc297be2e32e5f32c6f99", "type": "electric_scooter", "is_disabled": 0, "lat": 38.93729183333333, "rental_uris": {"ios": "https://dc.lft.to/lastmile_qr_scan", "android": "https://dc.lft.to/lastmile_qr_scan"}, "is_reserved": 0, "fusion_lon": 0.0, "fusion_lat": 0.0, "lon": -77.025232, "name": "f6d272d3ea5cc297be2e32e5f32c6f99"}, {"bike_id": "fa75a89564dea36813746236d67747ee", "type": "electric_bike", "is_disabled": 0, "lat": 38.99531783333333, "rental_uris": {"ios": "https://dc.lft.to/lastmile_qr_scan", "android": "https://dc.lft.to/lastmile_qr_scan"}, "is_reserved": 0, "fusion_lon": 0.0, "fusion_lat": 0.0, "lon": -77.069505, "name": "fa75a89564dea36813746236d67747ee"}, {"bike_id": "d2fab6edca74825233722856d10152ad", "type": "electric_scooter", "is_disabled": 0, "lat": 38.9401725, "rental_uris": {"ios": "https://dc.lft.to/lastmile_qr_scan", "android": "https://dc.lft.to/lastmile_qr_scan"}, "is_reserved": 0, "fusion_lon": 0.0, "fusion_lat": 0.0, "lon": -77.02639133333334, "name": "d2fab6edca74825233722856d10152ad"}, {"bike_id": "22a684334174a7c8b516e78a7c0dcfe2", "type": "electric_scooter", "is_disabled": 0, "lat": 38.9172655, "rental_uris": {"ios": "https://dc.lft.to/lastmile_qr_scan", "android": "https://dc.lft.to/lastmile_qr_scan"}, "is_reserved": 0, "fusion_lon": 0.0, "fusion_lat": 0.0, "lon": -77.01917133333333, "name": "22a684334174a7c8b516e78a7c0dcfe2"}, {"bike_id": "64e540216e19c3ce44e2f5c1d81fc17d", "type": "electric_scooter", "is_disabled": 0, "lat": 38.87668266666667, "rental_uris": {"ios": "https://dc.lft.to/lastmile_qr_scan", "android": "https://dc.lft.to/lastmile_qr_scan"}, "is_reserved": 0, "fusion_lon": 0.0, "fusion_lat": 0.0, "lon": -77.00819933333334, "name": "64e540216e19c3ce44e2f5c1d81fc17d"}, {"bike_id": "f834a3cf965df6c991d28fcd22d3b053", "type": "electric_scooter", "is_disabled": 0, "lat": 38.939577666666665, "rental_uris": {"ios": "https://dc.lft.to/lastmile_qr_scan", "android": "https://dc.lft.to/lastmile_qr_scan"}, "is_reserved": 0, "fusion_lon": 0.0, "fusion_lat": 0.0, "lon": -77.06068233333333, "name": "f834a3cf965df6c991d28fcd22d3b053"}, {"bike_id": "9e5f931b2b7b8c5e50f0804dc7dfa752", "type": "electric_scooter", "is_disabled": 0, "lat": 38.9039285, "rental_uris": {"ios": "https://dc.lft.to/lastmile_qr_scan", "android": "https://dc.lft.to/lastmile_qr_scan"}, "is_reserved": 0, "fusion_lon": 0.0, "fusion_lat": 0.0, "lon": -77.00887216666666, "name": "9e5f931b2b7b8c5e50f0804dc7dfa752"}, {"bike_id": "554ace97c9f569950e41b89ed9926f52", "type": "electric_scooter", "is_disabled": 0, "lat": 38.909642166666664, "rental_uris": {"ios": "https://dc.lft.to/lastmile_qr_scan", "android": "https://dc.lft.to/lastmile_qr_scan"}, "is_reserved": 0, "fusion_lon": 0.0, "fusion_lat": 0.0, "lon": -77.03299616666666, "name": "554ace97c9f569950e41b89ed9926f52"}, {"bike_id": "96f3a708a8b54724a1e1b621eee26e76", "type": "electric_scooter", "is_disabled": 0, "lat": 38.90236516666667, "rental_uris": {"ios": "https://dc.lft.to/lastmile_qr_scan", "android": "https://dc.lft.to/lastmile_qr_scan"}, "is_reserved": 0, "fusion_lon": 0.0, "fusion_lat": 0.0, "lon": -77.043304, "name": "96f3a708a8b54724a1e1b621eee26e76"}, {"bike_id": "7cad08fef0e05075ff52bd786d3b751c", "type": "electric_scooter", "is_disabled": 0, "lat": 38.89955416666667, "rental_uris": {"ios": "https://dc.lft.to/lastmile_qr_scan", "android": "https://dc.lft.to/lastmile_qr_scan"}, "is_reserved": 0, "fusion_lon": 0.0, "fusion_lat": 0.0, "lon": -77.02558916666666, "name": "7cad08fef0e05075ff52bd786d3b751c"}, {"bike_id": "e7e901e84c93176dd506ea52aa2012de", "type": "electric_scooter", "is_disabled": 0, "lat": 38.90321333333333, "rental_uris": {"ios": "https://dc.lft.to/lastmile_qr_scan", "android": "https://dc.lft.to/lastmile_qr_scan"}, "is_reserved": 0, "fusion_lon": 0.0, "fusion_lat": 0.0, "lon": -77.021984, "name": "e7e901e84c93176dd506ea52aa2012de"}, {"bike_id": "95208b50c85773c5acbe72057cc06417", "type": "electric_scooter", "is_disabled": 0, "lat": 38.93036333333333, "rental_uris": {"ios": "https://dc.lft.to/lastmile_qr_scan", "android": "https://dc.lft.to/lastmile_qr_scan"}, "is_reserved": 0, "fusion_lon": 0.0, "fusion_lat": 0.0, "lon": -77.02960583333333, "name": "95208b50c85773c5acbe72057cc06417"}, {"bike_id": "2e69f528296aabf0e6c8d5e8c22e9182", "type": "electric_scooter", "is_disabled": 0, "lat": 38.87630683333333, "rental_uris": {"ios": "https://dc.lft.to/lastmile_qr_scan", "android": "https://dc.lft.to/lastmile_qr_scan"}, "is_reserved": 0, "fusion_lon": 0.0, "fusion_lat": 0.0, "lon": -76.9652395, "name": "2e69f528296aabf0e6c8d5e8c22e9182"}, {"bike_id": "92955d71cbf7bd1f30a5926e9086e632", "type": "electric_scooter", "is_disabled": 0, "lat": 38.907122666666666, "rental_uris": {"ios": "https://dc.lft.to/lastmile_qr_scan", "android": "https://dc.lft.to/lastmile_qr_scan"}, "is_reserved": 0, "fusion_lon": 0.0, "fusion_lat": 0.0, "lon": -77.04479266666667, "name": "92955d71cbf7bd1f30a5926e9086e632"}, {"bike_id": "5e09430a3ce8ca660ee3e1ed62e901f5", "type": "electric_scooter", "is_disabled": 0, "lat": 38.92052483333333, "rental_uris": {"ios": "https://dc.lft.to/lastmile_qr_scan", "android": "https://dc.lft.to/lastmile_qr_scan"}, "is_reserved": 0, "fusion_lon": 0.0, "fusion_lat": 0.0, "lon": -76.99873566666666, "name": "5e09430a3ce8ca660ee3e1ed62e901f5"}, {"bike_id": "239134af85598f0dbdcd876a59b5dd7a", "type": "electric_scooter", "is_disabled": 0, "lat": 38.956147666666666, "rental_uris": {"ios": "https://dc.lft.to/lastmile_qr_scan", "android": "https://dc.lft.to/lastmile_qr_scan"}, "is_reserved": 0, "fusion_lon": 0.0, "fusion_lat": 0.0, "lon": -77.010169, "name": "239134af85598f0dbdcd876a59b5dd7a"}, {"bike_id": "e77939fb537f76255be98f059d08ddab", "type": "electric_scooter", "is_disabled": 0, "lat": 38.885338833333336, "rental_uris": {"ios": "https://dc.lft.to/lastmile_qr_scan", "android": "https://dc.lft.to/lastmile_qr_scan"}, "is_reserved": 0, "fusion_lon": 0.0, "fusion_lat": 0.0, "lon": -76.99826566666667, "name": "e77939fb537f76255be98f059d08ddab"}, {"bike_id": "3f761971af306e94288a01deeaa4b18a", "type": "electric_bike", "is_disabled": 0, "lat": 39.01371016666667, "rental_uris": {"ios": "https://dc.lft.to/lastmile_qr_scan", "android": "https://dc.lft.to/lastmile_qr_scan"}, "is_reserved": 0, "fusion_lon": 0.0, "fusion_lat": 0.0, "lon": -76.9213295, "name": "3f761971af306e94288a01deeaa4b18a"}, {"bike_id": "94162e72c2ce6143d7fe4072a80ffc2e", "type": "electric_scooter", "is_disabled": 0, "lat": 38.90061333333333, "rental_uris": {"ios": "https://dc.lft.to/lastmile_qr_scan", "android": "https://dc.lft.to/lastmile_qr_scan"}, "is_reserved": 0, "fusion_lon": 0.0, "fusion_lat": 0.0, "lon": -77.0122175, "name": "94162e72c2ce6143d7fe4072a80ffc2e"}, {"bike_id": "489c5318b7582eb07ee89d4697c4d5c9", "type": "electric_scooter", "is_disabled": 0, "lat": 38.92334616666667, "rental_uris": {"ios": "https://dc.lft.to/lastmile_qr_scan", "android": "https://dc.lft.to/lastmile_qr_scan"}, "is_reserved": 0, "fusion_lon": 0.0, "fusion_lat": 0.0, "lon": -77.022995, "name": "489c5318b7582eb07ee89d4697c4d5c9"}, {"bike_id": "dcb1d5736dc40a26da3358a56828e4fa", "type": "electric_scooter", "is_disabled": 0, "lat": 38.900099166666664, "rental_uris": {"ios": "https://dc.lft.to/lastmile_qr_scan", "android": "https://dc.lft.to/lastmile_qr_scan"}, "is_reserved": 0, "fusion_lon": 0.0, "fusion_lat": 0.0, "lon": -76.99444183333334, "name": "dcb1d5736dc40a26da3358a56828e4fa"}, {"bike_id": "50292496c6ecf8b8e52dbbae1c5299b1", "type": "electric_scooter", "is_disabled": 0, "lat": 38.923305, "rental_uris": {"ios": "https://dc.lft.to/lastmile_qr_scan", "android": "https://dc.lft.to/lastmile_qr_scan"}, "is_reserved": 0, "fusion_lon": 0.0, "fusion_lat": 0.0, "lon": -77.04609983333333, "name": "50292496c6ecf8b8e52dbbae1c5299b1"}, {"bike_id": "1b3d335348303acaec2a41a28ec2255e", "type": "electric_scooter", "is_disabled": 0, "lat": 38.872439, "rental_uris": {"ios": "https://dc.lft.to/lastmile_qr_scan", "android": "https://dc.lft.to/lastmile_qr_scan"}, "is_reserved": 0, "fusion_lon": 0.0, "fusion_lat": 0.0, "lon": -77.00887183333333, "name": "1b3d335348303acaec2a41a28ec2255e"}, {"bike_id": "75b2444167e5e9b32948fd6c1a203a0e", "type": "electric_scooter", "is_disabled": 0, "lat": 38.89843, "rental_uris": {"ios": "https://dc.lft.to/lastmile_qr_scan", "android": "https://dc.lft.to/lastmile_qr_scan"}, "is_reserved": 0, "fusion_lon": 0.0, "fusion_lat": 0.0, "lon": -77.02782633333334, "name": "75b2444167e5e9b32948fd6c1a203a0e"}, {"bike_id": "9a7f257442a27eabbf608a55f2c31009", "type": "electric_scooter", "is_disabled": 0, "lat": 38.90757, "rental_uris": {"ios": "https://dc.lft.to/lastmile_qr_scan", "android": "https://dc.lft.to/lastmile_qr_scan"}, "is_reserved": 0, "fusion_lon": 0.0, "fusion_lat": 0.0, "lon": -77.03071916666667, "name": "9a7f257442a27eabbf608a55f2c31009"}, {"bike_id": "8ff25c456f7a6ee08eee630a0976bb02", "type": "electric_scooter", "is_disabled": 0, "lat": 38.9097435, "rental_uris": {"ios": "https://dc.lft.to/lastmile_qr_scan", "android": "https://dc.lft.to/lastmile_qr_scan"}, "is_reserved": 0, "fusion_lon": 0.0, "fusion_lat": 0.0, "lon": -77.033424, "name": "8ff25c456f7a6ee08eee630a0976bb02"}, {"bike_id": "5e95ad9b4db82a98ebaa685df47b4002", "type": "electric_scooter", "is_disabled": 0, "lat": 38.938923, "rental_uris": {"ios": "https://dc.lft.to/lastmile_qr_scan", "android": "https://dc.lft.to/lastmile_qr_scan"}, "is_reserved": 0, "fusion_lon": 0.0, "fusion_lat": 0.0, "lon": -77.02819916666667, "name": "5e95ad9b4db82a98ebaa685df47b4002"}, {"bike_id": "0ffcfc854bc47bf38beb28d00f1ad8ff", "type": "electric_scooter", "is_disabled": 0, "lat": 38.915669666666666, "rental_uris": {"ios": "https://dc.lft.to/lastmile_qr_scan", "android": "https://dc.lft.to/lastmile_qr_scan"}, "is_reserved": 0, "fusion_lon": 0.0, "fusion_lat": 0.0, "lon": -77.02019183333333, "name": "0ffcfc854bc47bf38beb28d00f1ad8ff"}, {"bike_id": "924eb09b75c2f6326139581c350740d5", "type": "electric_scooter", "is_disabled": 0, "lat": 38.956297166666666, "rental_uris": {"ios": "https://dc.lft.to/lastmile_qr_scan", "android": "https://dc.lft.to/lastmile_qr_scan"}, "is_reserved": 0, "fusion_lon": 0.0, "fusion_lat": 0.0, "lon": -77.03615933333333, "name": "924eb09b75c2f6326139581c350740d5"}, {"bike_id": "961263757827beada59a2725bb0cf57e", "type": "electric_bike", "is_disabled": 0, "lat": 38.906422666666664, "rental_uris": {"ios": "https://dc.lft.to/lastmile_qr_scan", "android": "https://dc.lft.to/lastmile_qr_scan"}, "is_reserved": 0, "fusion_lon": 0.0, "fusion_lat": 0.0, "lon": -77.00870966666666, "name": "961263757827beada59a2725bb0cf57e"}, {"bike_id": "b7eb126865143bf3353ab44398fac595", "type": "electric_scooter", "is_disabled": 0, "lat": 38.907309, "rental_uris": {"ios": "https://dc.lft.to/lastmile_qr_scan", "android": "https://dc.lft.to/lastmile_qr_scan"}, "is_reserved": 0, "fusion_lon": 0.0, "fusion_lat": 0.0, "lon": -77.045029, "name": "b7eb126865143bf3353ab44398fac595"}, {"bike_id": "4f7239d57788086216cfa60b5cd7a19b", "type": "electric_scooter", "is_disabled": 0, "lat": 38.92325366666667, "rental_uris": {"ios": "https://dc.lft.to/lastmile_qr_scan", "android": "https://dc.lft.to/lastmile_qr_scan"}, "is_reserved": 0, "fusion_lon": 0.0, "fusion_lat": 0.0, "lon": -77.03781416666666, "name": "4f7239d57788086216cfa60b5cd7a19b"}, {"bike_id": "c7bae01b7249ecfa8a693fbc29bdf8c0", "type": "electric_scooter", "is_disabled": 0, "lat": 38.90825866666667, "rental_uris": {"ios": "https://dc.lft.to/lastmile_qr_scan", "android": "https://dc.lft.to/lastmile_qr_scan"}, "is_reserved": 0, "fusion_lon": 0.0, "fusion_lat": 0.0, "lon": -77.03198183333333, "name": "c7bae01b7249ecfa8a693fbc29bdf8c0"}, {"bike_id": "1fb28c96210ffeac5df9f134b1ba529a", "type": "electric_scooter", "is_disabled": 0, "lat": 38.92023316666667, "rental_uris": {"ios": "https://dc.lft.to/lastmile_qr_scan", "android": "https://dc.lft.to/lastmile_qr_scan"}, "is_reserved": 0, "fusion_lon": 0.0, "fusion_lat": 0.0, "lon": -77.04198166666667, "name": "1fb28c96210ffeac5df9f134b1ba529a"}, {"bike_id": "ab996c3b151b409a200a815b3b0315e6", "type": "electric_scooter", "is_disabled": 0, "lat": 38.9012125, "rental_uris": {"ios": "https://dc.lft.to/lastmile_qr_scan", "android": "https://dc.lft.to/lastmile_qr_scan"}, "is_reserved": 0, "fusion_lon": 0.0, "fusion_lat": 0.0, "lon": -76.92950933333333, "name": "ab996c3b151b409a200a815b3b0315e6"}, {"bike_id": "d6c29ce5baa852c2a632f5bbcb5d0f7b", "type": "electric_scooter", "is_disabled": 0, "lat": 38.88531616666667, "rental_uris": {"ios": "https://dc.lft.to/lastmile_qr_scan", "android": "https://dc.lft.to/lastmile_qr_scan"}, "is_reserved": 0, "fusion_lon": 0.0, "fusion_lat": 0.0, "lon": -76.99820116666666, "name": "d6c29ce5baa852c2a632f5bbcb5d0f7b"}, {"bike_id": "88b5c820f7529bcd969ad60b39f861ef", "type": "electric_bike", "is_disabled": 0, "lat": 38.97402733333333, "rental_uris": {"ios": "https://dc.lft.to/lastmile_qr_scan", "android": "https://dc.lft.to/lastmile_qr_scan"}, "is_reserved": 0, "fusion_lon": 0.0, "fusion_lat": 0.0, "lon": -77.06451683333333, "name": "88b5c820f7529bcd969ad60b39f861ef"}, {"bike_id": "b94871e1c49b01a76e3c1c34382a1a3d", "type": "electric_scooter", "is_disabled": 0, "lat": 38.9096765, "rental_uris": {"ios": "https://dc.lft.to/lastmile_qr_scan", "android": "https://dc.lft.to/lastmile_qr_scan"}, "is_reserved": 0, "fusion_lon": 0.0, "fusion_lat": 0.0, "lon": -77.03257866666667, "name": "b94871e1c49b01a76e3c1c34382a1a3d"}, {"bike_id": "c8b18b71d59552263af6272d6d613b37", "type": "electric_scooter", "is_disabled": 0, "lat": 38.86212066666667, "rental_uris": {"ios": "https://dc.lft.to/lastmile_qr_scan", "android": "https://dc.lft.to/lastmile_qr_scan"}, "is_reserved": 0, "fusion_lon": 0.0, "fusion_lat": 0.0, "lon": -76.994664, "name": "c8b18b71d59552263af6272d6d613b37"}, {"bike_id": "401fc6423f6fdc60106934de946e0380", "type": "electric_scooter", "is_disabled": 0, "lat": 38.90305133333333, "rental_uris": {"ios": "https://dc.lft.to/lastmile_qr_scan", "android": "https://dc.lft.to/lastmile_qr_scan"}, "is_reserved": 0, "fusion_lon": 0.0, "fusion_lat": 0.0, "lon": -77.06524116666667, "name": "401fc6423f6fdc60106934de946e0380"}, {"bike_id": "708471f40f6da97532af2f9f9bbd8993", "type": "electric_scooter", "is_disabled": 0, "lat": 38.923464, "rental_uris": {"ios": "https://dc.lft.to/lastmile_qr_scan", "android": "https://dc.lft.to/lastmile_qr_scan"}, "is_reserved": 0, "fusion_lon": 0.0, "fusion_lat": 0.0, "lon": -77.05116266666667, "name": "708471f40f6da97532af2f9f9bbd8993"}, {"bike_id": "241ad2dd447a7e8eddaba53bbc4ef6ea", "type": "electric_scooter", "is_disabled": 0, "lat": 38.91034633333334, "rental_uris": {"ios": "https://dc.lft.to/lastmile_qr_scan", "android": "https://dc.lft.to/lastmile_qr_scan"}, "is_reserved": 0, "fusion_lon": 0.0, "fusion_lat": 0.0, "lon": -77.03800116666666, "name": "241ad2dd447a7e8eddaba53bbc4ef6ea"}, {"bike_id": "23e23cfde5cbf36a7cb9206fd6afb186", "type": "electric_scooter", "is_disabled": 0, "lat": 38.916993, "rental_uris": {"ios": "https://dc.lft.to/lastmile_qr_scan", "android": "https://dc.lft.to/lastmile_qr_scan"}, "is_reserved": 0, "fusion_lon": 0.0, "fusion_lat": 0.0, "lon": -77.03131483333334, "name": "23e23cfde5cbf36a7cb9206fd6afb186"}, {"bike_id": "973b77b7a07c4e4ed636c076c3decc5d", "type": "electric_scooter", "is_disabled": 0, "lat": 38.88065016666667, "rental_uris": {"ios": "https://dc.lft.to/lastmile_qr_scan", "android": "https://dc.lft.to/lastmile_qr_scan"}, "is_reserved": 0, "fusion_lon": 0.0, "fusion_lat": 0.0, "lon": -77.02552616666667, "name": "973b77b7a07c4e4ed636c076c3decc5d"}, {"bike_id": "18aad992d8027bb279e09366fa41d7da", "type": "electric_scooter", "is_disabled": 0, "lat": 38.93464266666667, "rental_uris": {"ios": "https://dc.lft.to/lastmile_qr_scan", "android": "https://dc.lft.to/lastmile_qr_scan"}, "is_reserved": 0, "fusion_lon": 0.0, "fusion_lat": 0.0, "lon": -77.04530183333334, "name": "18aad992d8027bb279e09366fa41d7da"}, {"bike_id": "c58a529a532cb5ea322540ebb16ab986", "type": "electric_bike", "is_disabled": 0, "lat": 38.936894833333334, "rental_uris": {"ios": "https://dc.lft.to/lastmile_qr_scan", "android": "https://dc.lft.to/lastmile_qr_scan"}, "is_reserved": 0, "fusion_lon": 0.0, "fusion_lat": 0.0, "lon": -77.05641633333333, "name": "c58a529a532cb5ea322540ebb16ab986"}, {"bike_id": "d1d4fa383b5055f16699bc5e39147d67", "type": "electric_scooter", "is_disabled": 0, "lat": 38.913607666666664, "rental_uris": {"ios": "https://dc.lft.to/lastmile_qr_scan", "android": "https://dc.lft.to/lastmile_qr_scan"}, "is_reserved": 0, "fusion_lon": 0.0, "fusion_lat": 0.0, "lon": -77.01997383333334, "name": "d1d4fa383b5055f16699bc5e39147d67"}, {"bike_id": "fc69e14a2d3fc34da00906c8415c29fe", "type": "electric_scooter", "is_disabled": 0, "lat": 38.91327, "rental_uris": {"ios": "https://dc.lft.to/lastmile_qr_scan", "android": "https://dc.lft.to/lastmile_qr_scan"}, "is_reserved": 0, "fusion_lon": 0.0, "fusion_lat": 0.0, "lon": -77.0319345, "name": "fc69e14a2d3fc34da00906c8415c29fe"}, {"bike_id": "d33ee10a586e36692deb6e277cd1ff2d", "type": "electric_scooter", "is_disabled": 0, "lat": 38.90233633333333, "rental_uris": {"ios": "https://dc.lft.to/lastmile_qr_scan", "android": "https://dc.lft.to/lastmile_qr_scan"}, "is_reserved": 0, "fusion_lon": 0.0, "fusion_lat": 0.0, "lon": -77.0411905, "name": "d33ee10a586e36692deb6e277cd1ff2d"}, {"bike_id": "453fb52c781c82ac3b0ab746e1e13fc2", "type": "electric_scooter", "is_disabled": 0, "lat": 38.922526833333336, "rental_uris": {"ios": "https://dc.lft.to/lastmile_qr_scan", "android": "https://dc.lft.to/lastmile_qr_scan"}, "is_reserved": 0, "fusion_lon": 0.0, "fusion_lat": 0.0, "lon": -77.04197316666666, "name": "453fb52c781c82ac3b0ab746e1e13fc2"}, {"bike_id": "824831a8a003aedf77e6f7c2b26cbd90", "type": "electric_bike", "is_disabled": 0, "lat": 38.857205, "rental_uris": {"ios": "https://dc.lft.to/lastmile_qr_scan", "android": "https://dc.lft.to/lastmile_qr_scan"}, "is_reserved": 0, "fusion_lon": 0.0, "fusion_lat": 0.0, "lon": -77.07971066666667, "name": "824831a8a003aedf77e6f7c2b26cbd90"}, {"bike_id": "2a8b218fe59c18d2847917176fba3c91", "type": "electric_scooter", "is_disabled": 0, "lat": 38.8794085, "rental_uris": {"ios": "https://dc.lft.to/lastmile_qr_scan", "android": "https://dc.lft.to/lastmile_qr_scan"}, "is_reserved": 0, "fusion_lon": 0.0, "fusion_lat": 0.0, "lon": -77.01530166666667, "name": "2a8b218fe59c18d2847917176fba3c91"}, {"bike_id": "c524761bdb2db594aabcfca6397cabdf", "type": "electric_scooter", "is_disabled": 0, "lat": 38.899231666666665, "rental_uris": {"ios": "https://dc.lft.to/lastmile_qr_scan", "android": "https://dc.lft.to/lastmile_qr_scan"}, "is_reserved": 0, "fusion_lon": 0.0, "fusion_lat": 0.0, "lon": -76.93359633333333, "name": "c524761bdb2db594aabcfca6397cabdf"}, {"bike_id": "eacb4936bb1a916dec063a80c701c2cb", "type": "electric_scooter", "is_disabled": 0, "lat": 38.938470833333334, "rental_uris": {"ios": "https://dc.lft.to/lastmile_qr_scan", "android": "https://dc.lft.to/lastmile_qr_scan"}, "is_reserved": 0, "fusion_lon": 0.0, "fusion_lat": 0.0, "lon": -77.07232933333333, "name": "eacb4936bb1a916dec063a80c701c2cb"}, {"bike_id": "44ce54f7a24788d51d64d6ed029c27f3", "type": "electric_scooter", "is_disabled": 0, "lat": 38.90949233333333, "rental_uris": {"ios": "https://dc.lft.to/lastmile_qr_scan", "android": "https://dc.lft.to/lastmile_qr_scan"}, "is_reserved": 0, "fusion_lon": 0.0, "fusion_lat": 0.0, "lon": -77.055672, "name": "44ce54f7a24788d51d64d6ed029c27f3"}, {"bike_id": "4da6213ab2321c2e98bcfc80a626e74e", "type": "electric_scooter", "is_disabled": 0, "lat": 38.913277, "rental_uris": {"ios": "https://dc.lft.to/lastmile_qr_scan", "android": "https://dc.lft.to/lastmile_qr_scan"}, "is_reserved": 0, "fusion_lon": 0.0, "fusion_lat": 0.0, "lon": -77.0318195, "name": "4da6213ab2321c2e98bcfc80a626e74e"}, {"bike_id": "9f7e19e84e445ea8f6da5b1c33c09c50", "type": "electric_scooter", "is_disabled": 0, "lat": 38.919914166666665, "rental_uris": {"ios": "https://dc.lft.to/lastmile_qr_scan", "android": "https://dc.lft.to/lastmile_qr_scan"}, "is_reserved": 0, "fusion_lon": 0.0, "fusion_lat": 0.0, "lon": -77.04154666666666, "name": "9f7e19e84e445ea8f6da5b1c33c09c50"}, {"bike_id": "226ca6357bd18b162e3f9afc3823be1c", "type": "electric_scooter", "is_disabled": 0, "lat": 38.89958683333333, "rental_uris": {"ios": "https://dc.lft.to/lastmile_qr_scan", "android": "https://dc.lft.to/lastmile_qr_scan"}, "is_reserved": 0, "fusion_lon": 0.0, "fusion_lat": 0.0, "lon": -77.01615883333334, "name": "226ca6357bd18b162e3f9afc3823be1c"}, {"bike_id": "e64ea48e188e6411fa75857728449484", "type": "electric_scooter", "is_disabled": 0, "lat": 38.906974166666664, "rental_uris": {"ios": "https://dc.lft.to/lastmile_qr_scan", "android": "https://dc.lft.to/lastmile_qr_scan"}, "is_reserved": 0, "fusion_lon": 0.0, "fusion_lat": 0.0, "lon": -77.041917, "name": "e64ea48e188e6411fa75857728449484"}, {"bike_id": "bf814a626cb42fe6a4b4c88c5fe411fe", "type": "electric_scooter", "is_disabled": 0, "lat": 38.909816166666666, "rental_uris": {"ios": "https://dc.lft.to/lastmile_qr_scan", "android": "https://dc.lft.to/lastmile_qr_scan"}, "is_reserved": 0, "fusion_lon": 0.0, "fusion_lat": 0.0, "lon": -77.0151345, "name": "bf814a626cb42fe6a4b4c88c5fe411fe"}, {"bike_id": "a47819fcef017227f741daf48e326ac0", "type": "electric_scooter", "is_disabled": 0, "lat": 38.965027166666665, "rental_uris": {"ios": "https://dc.lft.to/lastmile_qr_scan", "android": "https://dc.lft.to/lastmile_qr_scan"}, "is_reserved": 0, "fusion_lon": 0.0, "fusion_lat": 0.0, "lon": -77.00206883333334, "name": "a47819fcef017227f741daf48e326ac0"}, {"bike_id": "79c14d419b9af6947fcfeecf00498493", "type": "electric_bike", "is_disabled": 0, "lat": 38.9390255, "rental_uris": {"ios": "https://dc.lft.to/lastmile_qr_scan", "android": "https://dc.lft.to/lastmile_qr_scan"}, "is_reserved": 0, "fusion_lon": 0.0, "fusion_lat": 0.0, "lon": -77.06354116666667, "name": "79c14d419b9af6947fcfeecf00498493"}, {"bike_id": "5206031ae10c75e93bf085e094e44b6a", "type": "electric_scooter", "is_disabled": 0, "lat": 38.93068533333334, "rental_uris": {"ios": "https://dc.lft.to/lastmile_qr_scan", "android": "https://dc.lft.to/lastmile_qr_scan"}, "is_reserved": 0, "fusion_lon": 0.0, "fusion_lat": 0.0, "lon": -77.03802333333333, "name": "5206031ae10c75e93bf085e094e44b6a"}, {"bike_id": "86369271e7f7be19b300ca36762ecaf1", "type": "electric_scooter", "is_disabled": 0, "lat": 38.84436433333333, "rental_uris": {"ios": "https://dc.lft.to/lastmile_qr_scan", "android": "https://dc.lft.to/lastmile_qr_scan"}, "is_reserved": 0, "fusion_lon": 0.0, "fusion_lat": 0.0, "lon": -76.99867583333334, "name": "86369271e7f7be19b300ca36762ecaf1"}, {"bike_id": "47e113376bcbc91690f986540dc4910c", "type": "electric_scooter", "is_disabled": 0, "lat": 38.9339885, "rental_uris": {"ios": "https://dc.lft.to/lastmile_qr_scan", "android": "https://dc.lft.to/lastmile_qr_scan"}, "is_reserved": 0, "fusion_lon": 0.0, "fusion_lat": 0.0, "lon": -77.0352005, "name": "47e113376bcbc91690f986540dc4910c"}, {"bike_id": "fb6dc5b8e3d67ef34dbaa8f0b0ab24ea", "type": "electric_scooter", "is_disabled": 0, "lat": 38.90790033333333, "rental_uris": {"ios": "https://dc.lft.to/lastmile_qr_scan", "android": "https://dc.lft.to/lastmile_qr_scan"}, "is_reserved": 0, "fusion_lon": 0.0, "fusion_lat": 0.0, "lon": -77.03197616666667, "name": "fb6dc5b8e3d67ef34dbaa8f0b0ab24ea"}, {"bike_id": "6fedf0a92cb1d0927d6b949cd3ee5be5", "type": "electric_scooter", "is_disabled": 0, "lat": 38.9169555, "rental_uris": {"ios": "https://dc.lft.to/lastmile_qr_scan", "android": "https://dc.lft.to/lastmile_qr_scan"}, "is_reserved": 0, "fusion_lon": 0.0, "fusion_lat": 0.0, "lon": -77.04107283333333, "name": "6fedf0a92cb1d0927d6b949cd3ee5be5"}, {"bike_id": "8c9bb2ea8a364c4bfcbf5214326fc614", "type": "electric_scooter", "is_disabled": 0, "lat": 38.920343333333335, "rental_uris": {"ios": "https://dc.lft.to/lastmile_qr_scan", "android": "https://dc.lft.to/lastmile_qr_scan"}, "is_reserved": 0, "fusion_lon": 0.0, "fusion_lat": 0.0, "lon": -77.01308916666666, "name": "8c9bb2ea8a364c4bfcbf5214326fc614"}, {"bike_id": "3599e06af16b3b33263c870f08014141", "type": "electric_scooter", "is_disabled": 0, "lat": 38.898462333333335, "rental_uris": {"ios": "https://dc.lft.to/lastmile_qr_scan", "android": "https://dc.lft.to/lastmile_qr_scan"}, "is_reserved": 0, "fusion_lon": 0.0, "fusion_lat": 0.0, "lon": -77.031056, "name": "3599e06af16b3b33263c870f08014141"}, {"bike_id": "63fa7a76a4cf35d4bda0a16a00651bc4", "type": "electric_scooter", "is_disabled": 0, "lat": 38.925383, "rental_uris": {"ios": "https://dc.lft.to/lastmile_qr_scan", "android": "https://dc.lft.to/lastmile_qr_scan"}, "is_reserved": 0, "fusion_lon": 0.0, "fusion_lat": 0.0, "lon": -77.03490333333333, "name": "63fa7a76a4cf35d4bda0a16a00651bc4"}, {"bike_id": "33b36b24a5479eedf02d04d0d5f6812f", "type": "electric_scooter", "is_disabled": 0, "lat": 38.92345433333333, "rental_uris": {"ios": "https://dc.lft.to/lastmile_qr_scan", "android": "https://dc.lft.to/lastmile_qr_scan"}, "is_reserved": 0, "fusion_lon": 0.0, "fusion_lat": 0.0, "lon": -77.051221, "name": "33b36b24a5479eedf02d04d0d5f6812f"}, {"bike_id": "7d5b6a63098a0b1f9bc323b77ca887ab", "type": "electric_scooter", "is_disabled": 0, "lat": 38.916948166666664, "rental_uris": {"ios": "https://dc.lft.to/lastmile_qr_scan", "android": "https://dc.lft.to/lastmile_qr_scan"}, "is_reserved": 0, "fusion_lon": 0.0, "fusion_lat": 0.0, "lon": -77.02875566666667, "name": "7d5b6a63098a0b1f9bc323b77ca887ab"}, {"bike_id": "cd3295856f666596c8a92de4f3bd07b9", "type": "electric_scooter", "is_disabled": 0, "lat": 38.915631833333336, "rental_uris": {"ios": "https://dc.lft.to/lastmile_qr_scan", "android": "https://dc.lft.to/lastmile_qr_scan"}, "is_reserved": 0, "fusion_lon": 0.0, "fusion_lat": 0.0, "lon": -77.067801, "name": "cd3295856f666596c8a92de4f3bd07b9"}, {"bike_id": "034b3ef7fe15aa663dd8809b943c682b", "type": "electric_bike", "is_disabled": 0, "lat": 38.87300466666667, "rental_uris": {"ios": "https://dc.lft.to/lastmile_qr_scan", "android": "https://dc.lft.to/lastmile_qr_scan"}, "is_reserved": 0, "fusion_lon": 0.0, "fusion_lat": 0.0, "lon": -77.13923316666667, "name": "034b3ef7fe15aa663dd8809b943c682b"}, {"bike_id": "f784dafbc140d94f27613b954a9bc550", "type": "electric_scooter", "is_disabled": 0, "lat": 38.918436, "rental_uris": {"ios": "https://dc.lft.to/lastmile_qr_scan", "android": "https://dc.lft.to/lastmile_qr_scan"}, "is_reserved": 0, "fusion_lon": 0.0, "fusion_lat": 0.0, "lon": -76.965583, "name": "f784dafbc140d94f27613b954a9bc550"}, {"bike_id": "8d142dd971ea63e596ea4ef5050fc7f9", "type": "electric_scooter", "is_disabled": 0, "lat": 38.9195085, "rental_uris": {"ios": "https://dc.lft.to/lastmile_qr_scan", "android": "https://dc.lft.to/lastmile_qr_scan"}, "is_reserved": 0, "fusion_lon": 0.0, "fusion_lat": 0.0, "lon": -77.02512466666667, "name": "8d142dd971ea63e596ea4ef5050fc7f9"}, {"bike_id": "0dd6fb7cf0f53f35380f84431d16da21", "type": "electric_scooter", "is_disabled": 0, "lat": 38.922526, "rental_uris": {"ios": "https://dc.lft.to/lastmile_qr_scan", "android": "https://dc.lft.to/lastmile_qr_scan"}, "is_reserved": 0, "fusion_lon": 0.0, "fusion_lat": 0.0, "lon": -77.03059483333334, "name": "0dd6fb7cf0f53f35380f84431d16da21"}, {"bike_id": "f5a6ef171f01de08f476261002ef3a24", "type": "electric_scooter", "is_disabled": 0, "lat": 38.933243166666664, "rental_uris": {"ios": "https://dc.lft.to/lastmile_qr_scan", "android": "https://dc.lft.to/lastmile_qr_scan"}, "is_reserved": 0, "fusion_lon": 0.0, "fusion_lat": 0.0, "lon": -77.02393333333333, "name": "f5a6ef171f01de08f476261002ef3a24"}, {"bike_id": "0269379b46ff19b3f5e343a044345668", "type": "electric_scooter", "is_disabled": 0, "lat": 38.905822, "rental_uris": {"ios": "https://dc.lft.to/lastmile_qr_scan", "android": "https://dc.lft.to/lastmile_qr_scan"}, "is_reserved": 0, "fusion_lon": 0.0, "fusion_lat": 0.0, "lon": -76.984286, "name": "0269379b46ff19b3f5e343a044345668"}, {"bike_id": "de91e7ac9de54847705c14da7f18aca3", "type": "electric_scooter", "is_disabled": 0, "lat": 38.920812166666664, "rental_uris": {"ios": "https://dc.lft.to/lastmile_qr_scan", "android": "https://dc.lft.to/lastmile_qr_scan"}, "is_reserved": 0, "fusion_lon": 0.0, "fusion_lat": 0.0, "lon": -77.02837183333334, "name": "de91e7ac9de54847705c14da7f18aca3"}, {"bike_id": "f2148d1ba1a831a628c2e3f5af79b575", "type": "electric_scooter", "is_disabled": 0, "lat": 38.916294666666666, "rental_uris": {"ios": "https://dc.lft.to/lastmile_qr_scan", "android": "https://dc.lft.to/lastmile_qr_scan"}, "is_reserved": 0, "fusion_lon": 0.0, "fusion_lat": 0.0, "lon": -77.040046, "name": "f2148d1ba1a831a628c2e3f5af79b575"}, {"bike_id": "578c4ded7bedbda0989866945c183753", "type": "electric_scooter", "is_disabled": 0, "lat": 38.907919166666666, "rental_uris": {"ios": "https://dc.lft.to/lastmile_qr_scan", "android": "https://dc.lft.to/lastmile_qr_scan"}, "is_reserved": 0, "fusion_lon": 0.0, "fusion_lat": 0.0, "lon": -77.06372866666666, "name": "578c4ded7bedbda0989866945c183753"}, {"bike_id": "1c2d1c75e0a244e806cf1f9640f612ee", "type": "electric_scooter", "is_disabled": 0, "lat": 38.9392205, "rental_uris": {"ios": "https://dc.lft.to/lastmile_qr_scan", "android": "https://dc.lft.to/lastmile_qr_scan"}, "is_reserved": 0, "fusion_lon": 0.0, "fusion_lat": 0.0, "lon": -77.06049133333333, "name": "1c2d1c75e0a244e806cf1f9640f612ee"}, {"bike_id": "0fdfb581b1191eb329847634338954e2", "type": "electric_scooter", "is_disabled": 0, "lat": 38.89236616666667, "rental_uris": {"ios": "https://dc.lft.to/lastmile_qr_scan", "android": "https://dc.lft.to/lastmile_qr_scan"}, "is_reserved": 0, "fusion_lon": 0.0, "fusion_lat": 0.0, "lon": -77.0467195, "name": "0fdfb581b1191eb329847634338954e2"}, {"bike_id": "1d052d5ecfb843c1a5f390932281a905", "type": "electric_scooter", "is_disabled": 0, "lat": 38.91174783333334, "rental_uris": {"ios": "https://dc.lft.to/lastmile_qr_scan", "android": "https://dc.lft.to/lastmile_qr_scan"}, "is_reserved": 0, "fusion_lon": 0.0, "fusion_lat": 0.0, "lon": -77.03858583333333, "name": "1d052d5ecfb843c1a5f390932281a905"}, {"bike_id": "97df397eaab7698152c344c2f8c080d2", "type": "electric_bike", "is_disabled": 0, "lat": 38.845249833333334, "rental_uris": {"ios": "https://dc.lft.to/lastmile_qr_scan", "android": "https://dc.lft.to/lastmile_qr_scan"}, "is_reserved": 0, "fusion_lon": 0.0, "fusion_lat": 0.0, "lon": -76.9739805, "name": "97df397eaab7698152c344c2f8c080d2"}, {"bike_id": "649cb142d57a72842ac92c68e6cc299e", "type": "electric_scooter", "is_disabled": 0, "lat": 38.892266, "rental_uris": {"ios": "https://dc.lft.to/lastmile_qr_scan", "android": "https://dc.lft.to/lastmile_qr_scan"}, "is_reserved": 0, "fusion_lon": 0.0, "fusion_lat": 0.0, "lon": -77.03335833333334, "name": "649cb142d57a72842ac92c68e6cc299e"}, {"bike_id": "25a8390a971ca33363752b4ce8e64d02", "type": "electric_scooter", "is_disabled": 0, "lat": 38.92320566666667, "rental_uris": {"ios": "https://dc.lft.to/lastmile_qr_scan", "android": "https://dc.lft.to/lastmile_qr_scan"}, "is_reserved": 0, "fusion_lon": 0.0, "fusion_lat": 0.0, "lon": -77.02137733333333, "name": "25a8390a971ca33363752b4ce8e64d02"}, {"bike_id": "f0aadab372dce2f751e80f8b2f9dd20e", "type": "electric_scooter", "is_disabled": 0, "lat": 38.920230833333335, "rental_uris": {"ios": "https://dc.lft.to/lastmile_qr_scan", "android": "https://dc.lft.to/lastmile_qr_scan"}, "is_reserved": 0, "fusion_lon": 0.0, "fusion_lat": 0.0, "lon": -77.04194666666666, "name": "f0aadab372dce2f751e80f8b2f9dd20e"}, {"bike_id": "ba1ba31a43f85eeaef224e383b107218", "type": "electric_scooter", "is_disabled": 0, "lat": 38.9122955, "rental_uris": {"ios": "https://dc.lft.to/lastmile_qr_scan", "android": "https://dc.lft.to/lastmile_qr_scan"}, "is_reserved": 0, "fusion_lon": 0.0, "fusion_lat": 0.0, "lon": -77.04512866666667, "name": "ba1ba31a43f85eeaef224e383b107218"}, {"bike_id": "643d68e1c9e88ead75813b4e468c86f0", "type": "electric_scooter", "is_disabled": 0, "lat": 38.902831, "rental_uris": {"ios": "https://dc.lft.to/lastmile_qr_scan", "android": "https://dc.lft.to/lastmile_qr_scan"}, "is_reserved": 0, "fusion_lon": 0.0, "fusion_lat": 0.0, "lon": -77.02271166666667, "name": "643d68e1c9e88ead75813b4e468c86f0"}, {"bike_id": "2e401f4fb9a97682e0c3da2817936198", "type": "electric_scooter", "is_disabled": 0, "lat": 38.9479045, "rental_uris": {"ios": "https://dc.lft.to/lastmile_qr_scan", "android": "https://dc.lft.to/lastmile_qr_scan"}, "is_reserved": 0, "fusion_lon": 0.0, "fusion_lat": 0.0, "lon": -77.02126916666667, "name": "2e401f4fb9a97682e0c3da2817936198"}, {"bike_id": "dfbcef79ab7b85aa32e1e893e9bc5fdf", "type": "electric_scooter", "is_disabled": 0, "lat": 38.92358933333333, "rental_uris": {"ios": "https://dc.lft.to/lastmile_qr_scan", "android": "https://dc.lft.to/lastmile_qr_scan"}, "is_reserved": 0, "fusion_lon": 0.0, "fusion_lat": 0.0, "lon": -77.052359, "name": "dfbcef79ab7b85aa32e1e893e9bc5fdf"}, {"bike_id": "05f4dab47f4bb2537766359767ed0e93", "type": "electric_scooter", "is_disabled": 0, "lat": 38.8922195, "rental_uris": {"ios": "https://dc.lft.to/lastmile_qr_scan", "android": "https://dc.lft.to/lastmile_qr_scan"}, "is_reserved": 0, "fusion_lon": 0.0, "fusion_lat": 0.0, "lon": -77.04651733333333, "name": "05f4dab47f4bb2537766359767ed0e93"}, {"bike_id": "582df6ba5610722e6133c4f2ef95f035", "type": "electric_scooter", "is_disabled": 0, "lat": 38.9106895, "rental_uris": {"ios": "https://dc.lft.to/lastmile_qr_scan", "android": "https://dc.lft.to/lastmile_qr_scan"}, "is_reserved": 0, "fusion_lon": 0.0, "fusion_lat": 0.0, "lon": -77.04496866666666, "name": "582df6ba5610722e6133c4f2ef95f035"}, {"bike_id": "efaef48867f994369e1f38f6481bb083", "type": "electric_scooter", "is_disabled": 0, "lat": 38.91713416666666, "rental_uris": {"ios": "https://dc.lft.to/lastmile_qr_scan", "android": "https://dc.lft.to/lastmile_qr_scan"}, "is_reserved": 0, "fusion_lon": 0.0, "fusion_lat": 0.0, "lon": -77.02892133333333, "name": "efaef48867f994369e1f38f6481bb083"}, {"bike_id": "57dcdd16e40232c855dbb0baaaa38221", "type": "electric_scooter", "is_disabled": 0, "lat": 38.915917, "rental_uris": {"ios": "https://dc.lft.to/lastmile_qr_scan", "android": "https://dc.lft.to/lastmile_qr_scan"}, "is_reserved": 0, "fusion_lon": 0.0, "fusion_lat": 0.0, "lon": -77.00198566666667, "name": "57dcdd16e40232c855dbb0baaaa38221"}, {"bike_id": "1abc41dfc5fd8980a7636f1ae04485f8", "type": "electric_scooter", "is_disabled": 0, "lat": 38.90948516666667, "rental_uris": {"ios": "https://dc.lft.to/lastmile_qr_scan", "android": "https://dc.lft.to/lastmile_qr_scan"}, "is_reserved": 0, "fusion_lon": 0.0, "fusion_lat": 0.0, "lon": -77.0344535, "name": "1abc41dfc5fd8980a7636f1ae04485f8"}, {"bike_id": "00831a2e6d770c229d90de1e0194f619", "type": "electric_scooter", "is_disabled": 0, "lat": 38.899744, "rental_uris": {"ios": "https://dc.lft.to/lastmile_qr_scan", "android": "https://dc.lft.to/lastmile_qr_scan"}, "is_reserved": 0, "fusion_lon": 0.0, "fusion_lat": 0.0, "lon": -76.98299466666667, "name": "00831a2e6d770c229d90de1e0194f619"}, {"bike_id": "ec1a850d814b9f85ac05f22d33b3db0b", "type": "electric_scooter", "is_disabled": 0, "lat": 38.89738783333333, "rental_uris": {"ios": "https://dc.lft.to/lastmile_qr_scan", "android": "https://dc.lft.to/lastmile_qr_scan"}, "is_reserved": 0, "fusion_lon": 0.0, "fusion_lat": 0.0, "lon": -76.94725066666666, "name": "ec1a850d814b9f85ac05f22d33b3db0b"}, {"bike_id": "66b1ec620eec10cbd9e9fc1fd456a2fe", "type": "electric_bike", "is_disabled": 0, "lat": 38.85894566666666, "rental_uris": {"ios": "https://dc.lft.to/lastmile_qr_scan", "android": "https://dc.lft.to/lastmile_qr_scan"}, "is_reserved": 0, "fusion_lon": 0.0, "fusion_lat": 0.0, "lon": -77.11858933333333, "name": "66b1ec620eec10cbd9e9fc1fd456a2fe"}, {"bike_id": "f2075312e82ca3cff18b22563e27b711", "type": "electric_scooter", "is_disabled": 0, "lat": 38.904716, "rental_uris": {"ios": "https://dc.lft.to/lastmile_qr_scan", "android": "https://dc.lft.to/lastmile_qr_scan"}, "is_reserved": 0, "fusion_lon": 0.0, "fusion_lat": 0.0, "lon": -77.00921233333334, "name": "f2075312e82ca3cff18b22563e27b711"}, {"bike_id": "057ea26466a60d34667ec0cb4065826e", "type": "electric_scooter", "is_disabled": 0, "lat": 38.945588666666666, "rental_uris": {"ios": "https://dc.lft.to/lastmile_qr_scan", "android": "https://dc.lft.to/lastmile_qr_scan"}, "is_reserved": 0, "fusion_lon": 0.0, "fusion_lat": 0.0, "lon": -77.07120783333333, "name": "057ea26466a60d34667ec0cb4065826e"}, {"bike_id": "ff71efcf2f5de3b5e2616b4d89e85194", "type": "electric_scooter", "is_disabled": 0, "lat": 38.89719933333333, "rental_uris": {"ios": "https://dc.lft.to/lastmile_qr_scan", "android": "https://dc.lft.to/lastmile_qr_scan"}, "is_reserved": 0, "fusion_lon": 0.0, "fusion_lat": 0.0, "lon": -77.02717416666667, "name": "ff71efcf2f5de3b5e2616b4d89e85194"}, {"bike_id": "90547b164ed2ce0a29ec791dd015108f", "type": "electric_scooter", "is_disabled": 0, "lat": 38.89981483333333, "rental_uris": {"ios": "https://dc.lft.to/lastmile_qr_scan", "android": "https://dc.lft.to/lastmile_qr_scan"}, "is_reserved": 0, "fusion_lon": 0.0, "fusion_lat": 0.0, "lon": -77.02708316666667, "name": "90547b164ed2ce0a29ec791dd015108f"}, {"bike_id": "92e53b3863c4432ba71ad1719acb4246", "type": "electric_scooter", "is_disabled": 0, "lat": 38.90410166666667, "rental_uris": {"ios": "https://dc.lft.to/lastmile_qr_scan", "android": "https://dc.lft.to/lastmile_qr_scan"}, "is_reserved": 0, "fusion_lon": 0.0, "fusion_lat": 0.0, "lon": -76.973296, "name": "92e53b3863c4432ba71ad1719acb4246"}, {"bike_id": "d5c2dc0c85de803eee132631b1fd1dce", "type": "electric_scooter", "is_disabled": 0, "lat": 38.90063083333333, "rental_uris": {"ios": "https://dc.lft.to/lastmile_qr_scan", "android": "https://dc.lft.to/lastmile_qr_scan"}, "is_reserved": 0, "fusion_lon": 0.0, "fusion_lat": 0.0, "lon": -76.92738983333334, "name": "d5c2dc0c85de803eee132631b1fd1dce"}, {"bike_id": "38665a10e851861ad76f7466799e88d9", "type": "electric_scooter", "is_disabled": 0, "lat": 38.94993216666667, "rental_uris": {"ios": "https://dc.lft.to/lastmile_qr_scan", "android": "https://dc.lft.to/lastmile_qr_scan"}, "is_reserved": 0, "fusion_lon": 0.0, "fusion_lat": 0.0, "lon": -77.01830383333333, "name": "38665a10e851861ad76f7466799e88d9"}, {"bike_id": "425ca1fe2540295db11afe3597777df1", "type": "electric_scooter", "is_disabled": 0, "lat": 38.90501533333333, "rental_uris": {"ios": "https://dc.lft.to/lastmile_qr_scan", "android": "https://dc.lft.to/lastmile_qr_scan"}, "is_reserved": 0, "fusion_lon": 0.0, "fusion_lat": 0.0, "lon": -77.06883133333334, "name": "425ca1fe2540295db11afe3597777df1"}, {"bike_id": "d25178f858cbe68782d088e2aedb7efe", "type": "electric_scooter", "is_disabled": 0, "lat": 38.91648566666667, "rental_uris": {"ios": "https://dc.lft.to/lastmile_qr_scan", "android": "https://dc.lft.to/lastmile_qr_scan"}, "is_reserved": 0, "fusion_lon": 0.0, "fusion_lat": 0.0, "lon": -77.03202016666667, "name": "d25178f858cbe68782d088e2aedb7efe"}, {"bike_id": "adf1584c3ea578d31becf86e1d38aa0a", "type": "electric_scooter", "is_disabled": 0, "lat": 38.876312, "rental_uris": {"ios": "https://dc.lft.to/lastmile_qr_scan", "android": "https://dc.lft.to/lastmile_qr_scan"}, "is_reserved": 0, "fusion_lon": 0.0, "fusion_lat": 0.0, "lon": -76.96524233333334, "name": "adf1584c3ea578d31becf86e1d38aa0a"}, {"bike_id": "9835e9c45af1bd8d2e41bd84dc1ec0f1", "type": "electric_scooter", "is_disabled": 0, "lat": 38.93933116666667, "rental_uris": {"ios": "https://dc.lft.to/lastmile_qr_scan", "android": "https://dc.lft.to/lastmile_qr_scan"}, "is_reserved": 0, "fusion_lon": 0.0, "fusion_lat": 0.0, "lon": -77.03682116666667, "name": "9835e9c45af1bd8d2e41bd84dc1ec0f1"}, {"bike_id": "f4f2fe15693f1e77767967cd1e66ed28", "type": "electric_scooter", "is_disabled": 0, "lat": 38.906137666666666, "rental_uris": {"ios": "https://dc.lft.to/lastmile_qr_scan", "android": "https://dc.lft.to/lastmile_qr_scan"}, "is_reserved": 0, "fusion_lon": 0.0, "fusion_lat": 0.0, "lon": -77.007595, "name": "f4f2fe15693f1e77767967cd1e66ed28"}, {"bike_id": "0a265840be5337c00f160eecbdb942c2", "type": "electric_scooter", "is_disabled": 0, "lat": 38.88488016666667, "rental_uris": {"ios": "https://dc.lft.to/lastmile_qr_scan", "android": "https://dc.lft.to/lastmile_qr_scan"}, "is_reserved": 0, "fusion_lon": 0.0, "fusion_lat": 0.0, "lon": -77.01528933333333, "name": "0a265840be5337c00f160eecbdb942c2"}, {"bike_id": "1b72ab93195cd9c30d0d3f5189f8db98", "type": "electric_scooter", "is_disabled": 0, "lat": 38.90043166666667, "rental_uris": {"ios": "https://dc.lft.to/lastmile_qr_scan", "android": "https://dc.lft.to/lastmile_qr_scan"}, "is_reserved": 0, "fusion_lon": 0.0, "fusion_lat": 0.0, "lon": -77.01316433333334, "name": "1b72ab93195cd9c30d0d3f5189f8db98"}, {"bike_id": "895ed2605a9389046c6c0f2cf895dd7c", "type": "electric_scooter", "is_disabled": 0, "lat": 38.892407166666665, "rental_uris": {"ios": "https://dc.lft.to/lastmile_qr_scan", "android": "https://dc.lft.to/lastmile_qr_scan"}, "is_reserved": 0, "fusion_lon": 0.0, "fusion_lat": 0.0, "lon": -77.02614916666667, "name": "895ed2605a9389046c6c0f2cf895dd7c"}, {"bike_id": "b32626976bf96ead264c6e96e795b3b9", "type": "electric_scooter", "is_disabled": 0, "lat": 38.91842716666667, "rental_uris": {"ios": "https://dc.lft.to/lastmile_qr_scan", "android": "https://dc.lft.to/lastmile_qr_scan"}, "is_reserved": 0, "fusion_lon": 0.0, "fusion_lat": 0.0, "lon": -76.96553216666666, "name": "b32626976bf96ead264c6e96e795b3b9"}, {"bike_id": "00450f025957d2c2878384a8144bee4c", "type": "electric_scooter", "is_disabled": 0, "lat": 38.91191666666667, "rental_uris": {"ios": "https://dc.lft.to/lastmile_qr_scan", "android": "https://dc.lft.to/lastmile_qr_scan"}, "is_reserved": 0, "fusion_lon": 0.0, "fusion_lat": 0.0, "lon": -77.03198066666667, "name": "00450f025957d2c2878384a8144bee4c"}, {"bike_id": "756fbe01db2a7c3052f8b7ba90218fbe", "type": "electric_scooter", "is_disabled": 0, "lat": 38.922316333333335, "rental_uris": {"ios": "https://dc.lft.to/lastmile_qr_scan", "android": "https://dc.lft.to/lastmile_qr_scan"}, "is_reserved": 0, "fusion_lon": 0.0, "fusion_lat": 0.0, "lon": -77.0426915, "name": "756fbe01db2a7c3052f8b7ba90218fbe"}, {"bike_id": "f0da443f4ad8501f62f4bec4597c38f7", "type": "electric_scooter", "is_disabled": 0, "lat": 38.89291216666667, "rental_uris": {"ios": "https://dc.lft.to/lastmile_qr_scan", "android": "https://dc.lft.to/lastmile_qr_scan"}, "is_reserved": 0, "fusion_lon": 0.0, "fusion_lat": 0.0, "lon": -77.04482983333334, "name": "f0da443f4ad8501f62f4bec4597c38f7"}, {"bike_id": "1cc55edd587afd78d92d899d4ebfabff", "type": "electric_scooter", "is_disabled": 0, "lat": 38.93341516666667, "rental_uris": {"ios": "https://dc.lft.to/lastmile_qr_scan", "android": "https://dc.lft.to/lastmile_qr_scan"}, "is_reserved": 0, "fusion_lon": 0.0, "fusion_lat": 0.0, "lon": -77.03987783333334, "name": "1cc55edd587afd78d92d899d4ebfabff"}, {"bike_id": "4815a0c176bbd1207579251cb89674e4", "type": "electric_scooter", "is_disabled": 0, "lat": 38.91917983333333, "rental_uris": {"ios": "https://dc.lft.to/lastmile_qr_scan", "android": "https://dc.lft.to/lastmile_qr_scan"}, "is_reserved": 0, "fusion_lon": 0.0, "fusion_lat": 0.0, "lon": -77.03212416666666, "name": "4815a0c176bbd1207579251cb89674e4"}, {"bike_id": "49cb3a35b4c4e45a672ac2e74ebe3b6c", "type": "electric_scooter", "is_disabled": 0, "lat": 38.94294133333333, "rental_uris": {"ios": "https://dc.lft.to/lastmile_qr_scan", "android": "https://dc.lft.to/lastmile_qr_scan"}, "is_reserved": 0, "fusion_lon": 0.0, "fusion_lat": 0.0, "lon": -77.02170216666667, "name": "49cb3a35b4c4e45a672ac2e74ebe3b6c"}, {"bike_id": "c3776ce18cdacb275a280fcaf0f21545", "type": "electric_scooter", "is_disabled": 0, "lat": 38.90027716666667, "rental_uris": {"ios": "https://dc.lft.to/lastmile_qr_scan", "android": "https://dc.lft.to/lastmile_qr_scan"}, "is_reserved": 0, "fusion_lon": 0.0, "fusion_lat": 0.0, "lon": -77.00186533333333, "name": "c3776ce18cdacb275a280fcaf0f21545"}, {"bike_id": "0efd0cc466e274a01b05c7a0761d84fb", "type": "electric_scooter", "is_disabled": 0, "lat": 38.92855316666667, "rental_uris": {"ios": "https://dc.lft.to/lastmile_qr_scan", "android": "https://dc.lft.to/lastmile_qr_scan"}, "is_reserved": 0, "fusion_lon": 0.0, "fusion_lat": 0.0, "lon": -77.03298416666667, "name": "0efd0cc466e274a01b05c7a0761d84fb"}, {"bike_id": "21166e12ef27513abbc4911bfdfc20fb", "type": "electric_scooter", "is_disabled": 0, "lat": 38.9285455, "rental_uris": {"ios": "https://dc.lft.to/lastmile_qr_scan", "android": "https://dc.lft.to/lastmile_qr_scan"}, "is_reserved": 0, "fusion_lon": 0.0, "fusion_lat": 0.0, "lon": -77.03254766666667, "name": "21166e12ef27513abbc4911bfdfc20fb"}, {"bike_id": "1d4a6503d01e0e0dc65e4e64076cd8d5", "type": "electric_scooter", "is_disabled": 0, "lat": 38.902681, "rental_uris": {"ios": "https://dc.lft.to/lastmile_qr_scan", "android": "https://dc.lft.to/lastmile_qr_scan"}, "is_reserved": 0, "fusion_lon": 0.0, "fusion_lat": 0.0, "lon": -77.017574, "name": "1d4a6503d01e0e0dc65e4e64076cd8d5"}, {"bike_id": "78093e1f59dac20464172b3f51835d7a", "type": "electric_scooter", "is_disabled": 0, "lat": 38.90252, "rental_uris": {"ios": "https://dc.lft.to/lastmile_qr_scan", "android": "https://dc.lft.to/lastmile_qr_scan"}, "is_reserved": 0, "fusion_lon": 0.0, "fusion_lat": 0.0, "lon": -77.0265175, "name": "78093e1f59dac20464172b3f51835d7a"}, {"bike_id": "9f16e0dcd590f7971b7254d7b40c35bc", "type": "electric_scooter", "is_disabled": 0, "lat": 38.90904916666667, "rental_uris": {"ios": "https://dc.lft.to/lastmile_qr_scan", "android": "https://dc.lft.to/lastmile_qr_scan"}, "is_reserved": 0, "fusion_lon": 0.0, "fusion_lat": 0.0, "lon": -77.04215416666666, "name": "9f16e0dcd590f7971b7254d7b40c35bc"}, {"bike_id": "491d237f39da5226be5140713c27d7de", "type": "electric_scooter", "is_disabled": 0, "lat": 38.886591333333335, "rental_uris": {"ios": "https://dc.lft.to/lastmile_qr_scan", "android": "https://dc.lft.to/lastmile_qr_scan"}, "is_reserved": 0, "fusion_lon": 0.0, "fusion_lat": 0.0, "lon": -77.02837633333333, "name": "491d237f39da5226be5140713c27d7de"}, {"bike_id": "fb49bcd1d10cf4447b896054486a11f9", "type": "electric_scooter", "is_disabled": 0, "lat": 38.90571966666667, "rental_uris": {"ios": "https://dc.lft.to/lastmile_qr_scan", "android": "https://dc.lft.to/lastmile_qr_scan"}, "is_reserved": 0, "fusion_lon": 0.0, "fusion_lat": 0.0, "lon": -77.04346116666666, "name": "fb49bcd1d10cf4447b896054486a11f9"}, {"bike_id": "3e911d30289fea50b553deaeee2a7abe", "type": "electric_scooter", "is_disabled": 0, "lat": 38.892205, "rental_uris": {"ios": "https://dc.lft.to/lastmile_qr_scan", "android": "https://dc.lft.to/lastmile_qr_scan"}, "is_reserved": 0, "fusion_lon": 0.0, "fusion_lat": 0.0, "lon": -77.03977566666667, "name": "3e911d30289fea50b553deaeee2a7abe"}, {"bike_id": "50b5056c2f1385f5c61928b56eeb2075", "type": "electric_scooter", "is_disabled": 0, "lat": 38.910242, "rental_uris": {"ios": "https://dc.lft.to/lastmile_qr_scan", "android": "https://dc.lft.to/lastmile_qr_scan"}, "is_reserved": 0, "fusion_lon": 0.0, "fusion_lat": 0.0, "lon": -77.02819933333333, "name": "50b5056c2f1385f5c61928b56eeb2075"}, {"bike_id": "b95a9e8f03dd15af7e8b69557577aa43", "type": "electric_scooter", "is_disabled": 0, "lat": 38.986959166666665, "rental_uris": {"ios": "https://dc.lft.to/lastmile_qr_scan", "android": "https://dc.lft.to/lastmile_qr_scan"}, "is_reserved": 0, "fusion_lon": 0.0, "fusion_lat": 0.0, "lon": -77.029753, "name": "b95a9e8f03dd15af7e8b69557577aa43"}, {"bike_id": "b91e5a4895217be03d4d7979b115b752", "type": "electric_scooter", "is_disabled": 0, "lat": 38.905429833333336, "rental_uris": {"ios": "https://dc.lft.to/lastmile_qr_scan", "android": "https://dc.lft.to/lastmile_qr_scan"}, "is_reserved": 0, "fusion_lon": 0.0, "fusion_lat": 0.0, "lon": -77.05004616666666, "name": "b91e5a4895217be03d4d7979b115b752"}, {"bike_id": "f2fe1d61de6f1b452d0e82983658c837", "type": "electric_scooter", "is_disabled": 0, "lat": 38.918432, "rental_uris": {"ios": "https://dc.lft.to/lastmile_qr_scan", "android": "https://dc.lft.to/lastmile_qr_scan"}, "is_reserved": 0, "fusion_lon": 0.0, "fusion_lat": 0.0, "lon": -76.96558533333334, "name": "f2fe1d61de6f1b452d0e82983658c837"}, {"bike_id": "db3f64c827f68037480a335483de17d4", "type": "electric_scooter", "is_disabled": 0, "lat": 38.917822, "rental_uris": {"ios": "https://dc.lft.to/lastmile_qr_scan", "android": "https://dc.lft.to/lastmile_qr_scan"}, "is_reserved": 0, "fusion_lon": 0.0, "fusion_lat": 0.0, "lon": -77.02387366666666, "name": "db3f64c827f68037480a335483de17d4"}, {"bike_id": "45d72ffaebe432952738ef5f26cbac13", "type": "electric_scooter", "is_disabled": 0, "lat": 38.887168833333334, "rental_uris": {"ios": "https://dc.lft.to/lastmile_qr_scan", "android": "https://dc.lft.to/lastmile_qr_scan"}, "is_reserved": 0, "fusion_lon": 0.0, "fusion_lat": 0.0, "lon": -77.02200383333333, "name": "45d72ffaebe432952738ef5f26cbac13"}, {"bike_id": "bab254e3fbfb8e99716a7e38a31c4da0", "type": "electric_scooter", "is_disabled": 0, "lat": 38.907307, "rental_uris": {"ios": "https://dc.lft.to/lastmile_qr_scan", "android": "https://dc.lft.to/lastmile_qr_scan"}, "is_reserved": 0, "fusion_lon": 0.0, "fusion_lat": 0.0, "lon": -77.03924783333333, "name": "bab254e3fbfb8e99716a7e38a31c4da0"}, {"bike_id": "4b26358d7e9402ee94406cc9e7ae36d5", "type": "electric_scooter", "is_disabled": 0, "lat": 38.91552383333333, "rental_uris": {"ios": "https://dc.lft.to/lastmile_qr_scan", "android": "https://dc.lft.to/lastmile_qr_scan"}, "is_reserved": 0, "fusion_lon": 0.0, "fusion_lat": 0.0, "lon": -77.0401405, "name": "4b26358d7e9402ee94406cc9e7ae36d5"}, {"bike_id": "3bda8cde5019ae0d3c514ed9ca715dc3", "type": "electric_scooter", "is_disabled": 0, "lat": 38.901704, "rental_uris": {"ios": "https://dc.lft.to/lastmile_qr_scan", "android": "https://dc.lft.to/lastmile_qr_scan"}, "is_reserved": 0, "fusion_lon": 0.0, "fusion_lat": 0.0, "lon": -76.93023066666666, "name": "3bda8cde5019ae0d3c514ed9ca715dc3"}, {"bike_id": "18e1d8350bac27009da2dac07f8f70f6", "type": "electric_scooter", "is_disabled": 0, "lat": 38.932432666666664, "rental_uris": {"ios": "https://dc.lft.to/lastmile_qr_scan", "android": "https://dc.lft.to/lastmile_qr_scan"}, "is_reserved": 0, "fusion_lon": 0.0, "fusion_lat": 0.0, "lon": -77.0389525, "name": "18e1d8350bac27009da2dac07f8f70f6"}, {"bike_id": "79178eb26f4f457f5dcccfbc35e07c87", "type": "electric_scooter", "is_disabled": 0, "lat": 38.956568, "rental_uris": {"ios": "https://dc.lft.to/lastmile_qr_scan", "android": "https://dc.lft.to/lastmile_qr_scan"}, "is_reserved": 0, "fusion_lon": 0.0, "fusion_lat": 0.0, "lon": -77.01000366666666, "name": "79178eb26f4f457f5dcccfbc35e07c87"}, {"bike_id": "8eceaeb9340123d19f914607b1f4324c", "type": "electric_scooter", "is_disabled": 0, "lat": 38.95633183333333, "rental_uris": {"ios": "https://dc.lft.to/lastmile_qr_scan", "android": "https://dc.lft.to/lastmile_qr_scan"}, "is_reserved": 0, "fusion_lon": 0.0, "fusion_lat": 0.0, "lon": -77.01158066666666, "name": "8eceaeb9340123d19f914607b1f4324c"}, {"bike_id": "54dd501a43f468544ce94ee3b9b52930", "type": "electric_bike", "is_disabled": 0, "lat": 38.87476916666667, "rental_uris": {"ios": "https://dc.lft.to/lastmile_qr_scan", "android": "https://dc.lft.to/lastmile_qr_scan"}, "is_reserved": 0, "fusion_lon": 0.0, "fusion_lat": 0.0, "lon": -76.96523916666666, "name": "54dd501a43f468544ce94ee3b9b52930"}, {"bike_id": "b03337034a49bcceba78a32b7e887524", "type": "electric_scooter", "is_disabled": 0, "lat": 38.905233333333335, "rental_uris": {"ios": "https://dc.lft.to/lastmile_qr_scan", "android": "https://dc.lft.to/lastmile_qr_scan"}, "is_reserved": 0, "fusion_lon": 0.0, "fusion_lat": 0.0, "lon": -77.063814, "name": "b03337034a49bcceba78a32b7e887524"}, {"bike_id": "60767476b8da44a06ec10a6b19799441", "type": "electric_scooter", "is_disabled": 0, "lat": 38.900597166666664, "rental_uris": {"ios": "https://dc.lft.to/lastmile_qr_scan", "android": "https://dc.lft.to/lastmile_qr_scan"}, "is_reserved": 0, "fusion_lon": 0.0, "fusion_lat": 0.0, "lon": -77.01222733333333, "name": "60767476b8da44a06ec10a6b19799441"}, {"bike_id": "c81aa669aee8170fae79c0388132803a", "type": "electric_scooter", "is_disabled": 0, "lat": 38.91508533333333, "rental_uris": {"ios": "https://dc.lft.to/lastmile_qr_scan", "android": "https://dc.lft.to/lastmile_qr_scan"}, "is_reserved": 0, "fusion_lon": 0.0, "fusion_lat": 0.0, "lon": -77.01768866666667, "name": "c81aa669aee8170fae79c0388132803a"}, {"bike_id": "ea61f3916e157d07b01328e8b13a28c9", "type": "electric_scooter", "is_disabled": 0, "lat": 38.88703, "rental_uris": {"ios": "https://dc.lft.to/lastmile_qr_scan", "android": "https://dc.lft.to/lastmile_qr_scan"}, "is_reserved": 0, "fusion_lon": 0.0, "fusion_lat": 0.0, "lon": -76.99609683333334, "name": "ea61f3916e157d07b01328e8b13a28c9"}, {"bike_id": "e3d30674fa578eae5c5ee079f3ca278e", "type": "electric_bike", "is_disabled": 0, "lat": 38.813311666666664, "rental_uris": {"ios": "https://dc.lft.to/lastmile_qr_scan", "android": "https://dc.lft.to/lastmile_qr_scan"}, "is_reserved": 0, "fusion_lon": 0.0, "fusion_lat": 0.0, "lon": -77.05092816666667, "name": "e3d30674fa578eae5c5ee079f3ca278e"}, {"bike_id": "ee78e6f7471d7204e2640e76aa67276a", "type": "electric_scooter", "is_disabled": 0, "lat": 38.92451583333333, "rental_uris": {"ios": "https://dc.lft.to/lastmile_qr_scan", "android": "https://dc.lft.to/lastmile_qr_scan"}, "is_reserved": 0, "fusion_lon": 0.0, "fusion_lat": 0.0, "lon": -77.0440335, "name": "ee78e6f7471d7204e2640e76aa67276a"}, {"bike_id": "9484c59f35e734fd4b5439b842a2352b", "type": "electric_scooter", "is_disabled": 0, "lat": 38.88657116666667, "rental_uris": {"ios": "https://dc.lft.to/lastmile_qr_scan", "android": "https://dc.lft.to/lastmile_qr_scan"}, "is_reserved": 0, "fusion_lon": 0.0, "fusion_lat": 0.0, "lon": -77.00113333333333, "name": "9484c59f35e734fd4b5439b842a2352b"}, {"bike_id": "91dd8a81b7de0f70c1ec618fd7df7352", "type": "electric_scooter", "is_disabled": 0, "lat": 38.91841316666667, "rental_uris": {"ios": "https://dc.lft.to/lastmile_qr_scan", "android": "https://dc.lft.to/lastmile_qr_scan"}, "is_reserved": 0, "fusion_lon": 0.0, "fusion_lat": 0.0, "lon": -76.96560233333334, "name": "91dd8a81b7de0f70c1ec618fd7df7352"}, {"bike_id": "036b02545887affaeba72a1ffbf2ac29", "type": "electric_bike", "is_disabled": 0, "lat": 38.943697666666665, "rental_uris": {"ios": "https://dc.lft.to/lastmile_qr_scan", "android": "https://dc.lft.to/lastmile_qr_scan"}, "is_reserved": 0, "fusion_lon": 0.0, "fusion_lat": 0.0, "lon": -77.00348166666667, "name": "036b02545887affaeba72a1ffbf2ac29"}, {"bike_id": "ff4f09d8a9c2af1c27a1465b0cc5ae2f", "type": "electric_bike", "is_disabled": 0, "lat": 38.8075445, "rental_uris": {"ios": "https://dc.lft.to/lastmile_qr_scan", "android": "https://dc.lft.to/lastmile_qr_scan"}, "is_reserved": 0, "fusion_lon": 0.0, "fusion_lat": 0.0, "lon": -77.09451683333333, "name": "ff4f09d8a9c2af1c27a1465b0cc5ae2f"}, {"bike_id": "ae3870444a994223349bdaddd870c9df", "type": "electric_scooter", "is_disabled": 0, "lat": 38.891941333333335, "rental_uris": {"ios": "https://dc.lft.to/lastmile_qr_scan", "android": "https://dc.lft.to/lastmile_qr_scan"}, "is_reserved": 0, "fusion_lon": 0.0, "fusion_lat": 0.0, "lon": -77.02503366666667, "name": "ae3870444a994223349bdaddd870c9df"}, {"bike_id": "3f405243075b440e8f49418876bde6c1", "type": "electric_scooter", "is_disabled": 0, "lat": 38.91701583333333, "rental_uris": {"ios": "https://dc.lft.to/lastmile_qr_scan", "android": "https://dc.lft.to/lastmile_qr_scan"}, "is_reserved": 0, "fusion_lon": 0.0, "fusion_lat": 0.0, "lon": -77.02890566666666, "name": "3f405243075b440e8f49418876bde6c1"}, {"bike_id": "9ae0cfd8eeabacc57c1a51c2be32d53f", "type": "electric_scooter", "is_disabled": 0, "lat": 38.93326583333333, "rental_uris": {"ios": "https://dc.lft.to/lastmile_qr_scan", "android": "https://dc.lft.to/lastmile_qr_scan"}, "is_reserved": 0, "fusion_lon": 0.0, "fusion_lat": 0.0, "lon": -77.02393766666667, "name": "9ae0cfd8eeabacc57c1a51c2be32d53f"}, {"bike_id": "33050356b664965e27d2d38268177c17", "type": "electric_scooter", "is_disabled": 0, "lat": 38.899653, "rental_uris": {"ios": "https://dc.lft.to/lastmile_qr_scan", "android": "https://dc.lft.to/lastmile_qr_scan"}, "is_reserved": 0, "fusion_lon": 0.0, "fusion_lat": 0.0, "lon": -76.98302483333333, "name": "33050356b664965e27d2d38268177c17"}, {"bike_id": "1edd7b08ec1e282af11dafc95666d899", "type": "electric_scooter", "is_disabled": 0, "lat": 38.916037833333334, "rental_uris": {"ios": "https://dc.lft.to/lastmile_qr_scan", "android": "https://dc.lft.to/lastmile_qr_scan"}, "is_reserved": 0, "fusion_lon": 0.0, "fusion_lat": 0.0, "lon": -77.0398965, "name": "1edd7b08ec1e282af11dafc95666d899"}, {"bike_id": "769128d73d94f227669949ccfd65ad35", "type": "electric_scooter", "is_disabled": 0, "lat": 38.94615183333333, "rental_uris": {"ios": "https://dc.lft.to/lastmile_qr_scan", "android": "https://dc.lft.to/lastmile_qr_scan"}, "is_reserved": 0, "fusion_lon": 0.0, "fusion_lat": 0.0, "lon": -77.02268633333334, "name": "769128d73d94f227669949ccfd65ad35"}, {"bike_id": "6b38276383d72a32ff2ea5511ee796f5", "type": "electric_scooter", "is_disabled": 0, "lat": 38.907901333333335, "rental_uris": {"ios": "https://dc.lft.to/lastmile_qr_scan", "android": "https://dc.lft.to/lastmile_qr_scan"}, "is_reserved": 0, "fusion_lon": 0.0, "fusion_lat": 0.0, "lon": -76.99407883333333, "name": "6b38276383d72a32ff2ea5511ee796f5"}, {"bike_id": "3e08c53bdd727d9048e0cc2e3b85c92b", "type": "electric_scooter", "is_disabled": 0, "lat": 38.939858, "rental_uris": {"ios": "https://dc.lft.to/lastmile_qr_scan", "android": "https://dc.lft.to/lastmile_qr_scan"}, "is_reserved": 0, "fusion_lon": 0.0, "fusion_lat": 0.0, "lon": -77.02873716666667, "name": "3e08c53bdd727d9048e0cc2e3b85c92b"}, {"bike_id": "885a25d7c5551e70e5b2d88c34492669", "type": "electric_scooter", "is_disabled": 0, "lat": 38.923288166666666, "rental_uris": {"ios": "https://dc.lft.to/lastmile_qr_scan", "android": "https://dc.lft.to/lastmile_qr_scan"}, "is_reserved": 0, "fusion_lon": 0.0, "fusion_lat": 0.0, "lon": -77.000532, "name": "885a25d7c5551e70e5b2d88c34492669"}, {"bike_id": "f141623c4c23d214213bc9abbe5acb3b", "type": "electric_scooter", "is_disabled": 0, "lat": 38.866272333333335, "rental_uris": {"ios": "https://dc.lft.to/lastmile_qr_scan", "android": "https://dc.lft.to/lastmile_qr_scan"}, "is_reserved": 0, "fusion_lon": 0.0, "fusion_lat": 0.0, "lon": -76.98713933333333, "name": "f141623c4c23d214213bc9abbe5acb3b"}, {"bike_id": "6fb9d6e0ed49b3ee2cfc34ebc8ece43c", "type": "electric_scooter", "is_disabled": 0, "lat": 38.926993, "rental_uris": {"ios": "https://dc.lft.to/lastmile_qr_scan", "android": "https://dc.lft.to/lastmile_qr_scan"}, "is_reserved": 0, "fusion_lon": 0.0, "fusion_lat": 0.0, "lon": -77.02066433333333, "name": "6fb9d6e0ed49b3ee2cfc34ebc8ece43c"}, {"bike_id": "01010e5a24a1920fbfcff3b391a93dca", "type": "electric_scooter", "is_disabled": 0, "lat": 38.89484516666667, "rental_uris": {"ios": "https://dc.lft.to/lastmile_qr_scan", "android": "https://dc.lft.to/lastmile_qr_scan"}, "is_reserved": 0, "fusion_lon": 0.0, "fusion_lat": 0.0, "lon": -76.98782083333333, "name": "01010e5a24a1920fbfcff3b391a93dca"}, {"bike_id": "0e1f6835500f837117d4e6d0ccf255de", "type": "electric_scooter", "is_disabled": 0, "lat": 38.89302716666667, "rental_uris": {"ios": "https://dc.lft.to/lastmile_qr_scan", "android": "https://dc.lft.to/lastmile_qr_scan"}, "is_reserved": 0, "fusion_lon": 0.0, "fusion_lat": 0.0, "lon": -77.02014866666667, "name": "0e1f6835500f837117d4e6d0ccf255de"}, {"bike_id": "2ab1b865d582326c43ec5549ae9e8bb5", "type": "electric_scooter", "is_disabled": 0, "lat": 38.90554866666667, "rental_uris": {"ios": "https://dc.lft.to/lastmile_qr_scan", "android": "https://dc.lft.to/lastmile_qr_scan"}, "is_reserved": 0, "fusion_lon": 0.0, "fusion_lat": 0.0, "lon": -77.02170833333334, "name": "2ab1b865d582326c43ec5549ae9e8bb5"}, {"bike_id": "4738f5bbe2c1166634fff915d8dab77c", "type": "electric_scooter", "is_disabled": 0, "lat": 38.895612666666665, "rental_uris": {"ios": "https://dc.lft.to/lastmile_qr_scan", "android": "https://dc.lft.to/lastmile_qr_scan"}, "is_reserved": 0, "fusion_lon": 0.0, "fusion_lat": 0.0, "lon": -77.008932, "name": "4738f5bbe2c1166634fff915d8dab77c"}, {"bike_id": "7abe83b15fc59fb6794e0b5a3ab8ee29", "type": "electric_scooter", "is_disabled": 0, "lat": 38.858063666666666, "rental_uris": {"ios": "https://dc.lft.to/lastmile_qr_scan", "android": "https://dc.lft.to/lastmile_qr_scan"}, "is_reserved": 0, "fusion_lon": 0.0, "fusion_lat": 0.0, "lon": -76.98923333333333, "name": "7abe83b15fc59fb6794e0b5a3ab8ee29"}, {"bike_id": "11390d0f032ebf59126891c67f0ccdb6", "type": "electric_scooter", "is_disabled": 0, "lat": 38.91701233333333, "rental_uris": {"ios": "https://dc.lft.to/lastmile_qr_scan", "android": "https://dc.lft.to/lastmile_qr_scan"}, "is_reserved": 0, "fusion_lon": 0.0, "fusion_lat": 0.0, "lon": -77.03178933333334, "name": "11390d0f032ebf59126891c67f0ccdb6"}, {"bike_id": "add1865787e8d70d3216f0d4343162ca", "type": "electric_scooter", "is_disabled": 0, "lat": 38.870725666666665, "rental_uris": {"ios": "https://dc.lft.to/lastmile_qr_scan", "android": "https://dc.lft.to/lastmile_qr_scan"}, "is_reserved": 0, "fusion_lon": 0.0, "fusion_lat": 0.0, "lon": -76.98130416666666, "name": "add1865787e8d70d3216f0d4343162ca"}, {"bike_id": "99a39fbb0263d6fde9734a023086929d", "type": "electric_scooter", "is_disabled": 0, "lat": 38.897225666666664, "rental_uris": {"ios": "https://dc.lft.to/lastmile_qr_scan", "android": "https://dc.lft.to/lastmile_qr_scan"}, "is_reserved": 0, "fusion_lon": 0.0, "fusion_lat": 0.0, "lon": -77.02700133333333, "name": "99a39fbb0263d6fde9734a023086929d"}, {"bike_id": "2c54a54ca6760ae0cd4bb2c4468b23e6", "type": "electric_scooter", "is_disabled": 0, "lat": 38.886381666666665, "rental_uris": {"ios": "https://dc.lft.to/lastmile_qr_scan", "android": "https://dc.lft.to/lastmile_qr_scan"}, "is_reserved": 0, "fusion_lon": 0.0, "fusion_lat": 0.0, "lon": -77.013668, "name": "2c54a54ca6760ae0cd4bb2c4468b23e6"}, {"bike_id": "6ead802a53ebbe2e6577f2394566c12c", "type": "electric_scooter", "is_disabled": 0, "lat": 38.858983333333335, "rental_uris": {"ios": "https://dc.lft.to/lastmile_qr_scan", "android": "https://dc.lft.to/lastmile_qr_scan"}, "is_reserved": 0, "fusion_lon": 0.0, "fusion_lat": 0.0, "lon": -76.99725233333334, "name": "6ead802a53ebbe2e6577f2394566c12c"}, {"bike_id": "663dcc8bcae3a151d46d1e14ee70efe0", "type": "electric_scooter", "is_disabled": 0, "lat": 38.87816333333333, "rental_uris": {"ios": "https://dc.lft.to/lastmile_qr_scan", "android": "https://dc.lft.to/lastmile_qr_scan"}, "is_reserved": 0, "fusion_lon": 0.0, "fusion_lat": 0.0, "lon": -76.97169033333333, "name": "663dcc8bcae3a151d46d1e14ee70efe0"}, {"bike_id": "15ed516ce051f9963e0f95e6d4b4ef5a", "type": "electric_scooter", "is_disabled": 0, "lat": 38.9376955, "rental_uris": {"ios": "https://dc.lft.to/lastmile_qr_scan", "android": "https://dc.lft.to/lastmile_qr_scan"}, "is_reserved": 0, "fusion_lon": 0.0, "fusion_lat": 0.0, "lon": -77.01970966666667, "name": "15ed516ce051f9963e0f95e6d4b4ef5a"}, {"bike_id": "b6f7a8ed4334154b52f879e15fc6f1b0", "type": "electric_scooter", "is_disabled": 0, "lat": 38.915002666666666, "rental_uris": {"ios": "https://dc.lft.to/lastmile_qr_scan", "android": "https://dc.lft.to/lastmile_qr_scan"}, "is_reserved": 0, "fusion_lon": 0.0, "fusion_lat": 0.0, "lon": -77.03184016666667, "name": "b6f7a8ed4334154b52f879e15fc6f1b0"}, {"bike_id": "1e41ae4b676276b6770593d05d3ab73d", "type": "electric_scooter", "is_disabled": 0, "lat": 38.91105533333333, "rental_uris": {"ios": "https://dc.lft.to/lastmile_qr_scan", "android": "https://dc.lft.to/lastmile_qr_scan"}, "is_reserved": 0, "fusion_lon": 0.0, "fusion_lat": 0.0, "lon": -77.00212533333334, "name": "1e41ae4b676276b6770593d05d3ab73d"}, {"bike_id": "ca7afab45d7630c2073a76a442e9751b", "type": "electric_scooter", "is_disabled": 0, "lat": 38.901983, "rental_uris": {"ios": "https://dc.lft.to/lastmile_qr_scan", "android": "https://dc.lft.to/lastmile_qr_scan"}, "is_reserved": 0, "fusion_lon": 0.0, "fusion_lat": 0.0, "lon": -77.02168166666667, "name": "ca7afab45d7630c2073a76a442e9751b"}, {"bike_id": "490d51081ebff5c0980a71cf1b26ea58", "type": "electric_bike", "is_disabled": 0, "lat": 38.85766516666666, "rental_uris": {"ios": "https://dc.lft.to/lastmile_qr_scan", "android": "https://dc.lft.to/lastmile_qr_scan"}, "is_reserved": 0, "fusion_lon": 0.0, "fusion_lat": 0.0, "lon": -76.98770066666667, "name": "490d51081ebff5c0980a71cf1b26ea58"}, {"bike_id": "1809aea53a739ba92451622f61794785", "type": "electric_scooter", "is_disabled": 0, "lat": 38.91715633333333, "rental_uris": {"ios": "https://dc.lft.to/lastmile_qr_scan", "android": "https://dc.lft.to/lastmile_qr_scan"}, "is_reserved": 0, "fusion_lon": 0.0, "fusion_lat": 0.0, "lon": -77.02799483333334, "name": "1809aea53a739ba92451622f61794785"}, {"bike_id": "c6f122e68ce66a26cf92c52eb1d1d706", "type": "electric_scooter", "is_disabled": 0, "lat": 38.89834333333334, "rental_uris": {"ios": "https://dc.lft.to/lastmile_qr_scan", "android": "https://dc.lft.to/lastmile_qr_scan"}, "is_reserved": 0, "fusion_lon": 0.0, "fusion_lat": 0.0, "lon": -77.027659, "name": "c6f122e68ce66a26cf92c52eb1d1d706"}, {"bike_id": "4a9519411a3081334bddc6004536111c", "type": "electric_scooter", "is_disabled": 0, "lat": 38.88149883333333, "rental_uris": {"ios": "https://dc.lft.to/lastmile_qr_scan", "android": "https://dc.lft.to/lastmile_qr_scan"}, "is_reserved": 0, "fusion_lon": 0.0, "fusion_lat": 0.0, "lon": -77.02745483333334, "name": "4a9519411a3081334bddc6004536111c"}, {"bike_id": "793c5c06d985a65036ba6eda8e4eee9a", "type": "electric_scooter", "is_disabled": 0, "lat": 38.913915833333334, "rental_uris": {"ios": "https://dc.lft.to/lastmile_qr_scan", "android": "https://dc.lft.to/lastmile_qr_scan"}, "is_reserved": 0, "fusion_lon": 0.0, "fusion_lat": 0.0, "lon": -77.03935466666667, "name": "793c5c06d985a65036ba6eda8e4eee9a"}, {"bike_id": "7385287b0cb9bbe48eafda051be78f4c", "type": "electric_scooter", "is_disabled": 0, "lat": 38.9213155, "rental_uris": {"ios": "https://dc.lft.to/lastmile_qr_scan", "android": "https://dc.lft.to/lastmile_qr_scan"}, "is_reserved": 0, "fusion_lon": 0.0, "fusion_lat": 0.0, "lon": -77.0181055, "name": "7385287b0cb9bbe48eafda051be78f4c"}, {"bike_id": "7024835598efdf8d8730674aa9073d02", "type": "electric_scooter", "is_disabled": 0, "lat": 38.899835833333334, "rental_uris": {"ios": "https://dc.lft.to/lastmile_qr_scan", "android": "https://dc.lft.to/lastmile_qr_scan"}, "is_reserved": 0, "fusion_lon": 0.0, "fusion_lat": 0.0, "lon": -76.949987, "name": "7024835598efdf8d8730674aa9073d02"}, {"bike_id": "683763b6eedf8c8a65d061e8b41f588b", "type": "electric_scooter", "is_disabled": 0, "lat": 38.914184166666665, "rental_uris": {"ios": "https://dc.lft.to/lastmile_qr_scan", "android": "https://dc.lft.to/lastmile_qr_scan"}, "is_reserved": 0, "fusion_lon": 0.0, "fusion_lat": 0.0, "lon": -77.01230216666667, "name": "683763b6eedf8c8a65d061e8b41f588b"}, {"bike_id": "1e4cbc31ba2c121dd14a674cc5611fcc", "type": "electric_scooter", "is_disabled": 0, "lat": 38.89885783333333, "rental_uris": {"ios": "https://dc.lft.to/lastmile_qr_scan", "android": "https://dc.lft.to/lastmile_qr_scan"}, "is_reserved": 0, "fusion_lon": 0.0, "fusion_lat": 0.0, "lon": -77.0219675, "name": "1e4cbc31ba2c121dd14a674cc5611fcc"}, {"bike_id": "7c04494a56493fa734b3b7d439cfc97f", "type": "electric_scooter", "is_disabled": 0, "lat": 38.92135833333333, "rental_uris": {"ios": "https://dc.lft.to/lastmile_qr_scan", "android": "https://dc.lft.to/lastmile_qr_scan"}, "is_reserved": 0, "fusion_lon": 0.0, "fusion_lat": 0.0, "lon": -77.01831933333334, "name": "7c04494a56493fa734b3b7d439cfc97f"}, {"bike_id": "c994410579ecbe1b0fd119ee6b8c2441", "type": "electric_scooter", "is_disabled": 0, "lat": 38.8382885, "rental_uris": {"ios": "https://dc.lft.to/lastmile_qr_scan", "android": "https://dc.lft.to/lastmile_qr_scan"}, "is_reserved": 0, "fusion_lon": 0.0, "fusion_lat": 0.0, "lon": -77.00267933333333, "name": "c994410579ecbe1b0fd119ee6b8c2441"}, {"bike_id": "155beec0bc47ab02bb1b9bffb41dff37", "type": "electric_scooter", "is_disabled": 0, "lat": 38.881108833333336, "rental_uris": {"ios": "https://dc.lft.to/lastmile_qr_scan", "android": "https://dc.lft.to/lastmile_qr_scan"}, "is_reserved": 0, "fusion_lon": 0.0, "fusion_lat": 0.0, "lon": -77.026543, "name": "155beec0bc47ab02bb1b9bffb41dff37"}, {"bike_id": "6fe2a0ef30e35090989a4d35d3bb6d28", "type": "electric_scooter", "is_disabled": 0, "lat": 38.91766716666667, "rental_uris": {"ios": "https://dc.lft.to/lastmile_qr_scan", "android": "https://dc.lft.to/lastmile_qr_scan"}, "is_reserved": 0, "fusion_lon": 0.0, "fusion_lat": 0.0, "lon": -77.02490133333333, "name": "6fe2a0ef30e35090989a4d35d3bb6d28"}, {"bike_id": "e6d565db116c19d0368d58e27a5b3cf4", "type": "electric_scooter", "is_disabled": 0, "lat": 38.911081833333334, "rental_uris": {"ios": "https://dc.lft.to/lastmile_qr_scan", "android": "https://dc.lft.to/lastmile_qr_scan"}, "is_reserved": 0, "fusion_lon": 0.0, "fusion_lat": 0.0, "lon": -77.03827516666666, "name": "e6d565db116c19d0368d58e27a5b3cf4"}, {"bike_id": "e7cddecd4dcfc008ba79098ac0c3a1c6", "type": "electric_scooter", "is_disabled": 0, "lat": 38.90480083333333, "rental_uris": {"ios": "https://dc.lft.to/lastmile_qr_scan", "android": "https://dc.lft.to/lastmile_qr_scan"}, "is_reserved": 0, "fusion_lon": 0.0, "fusion_lat": 0.0, "lon": -77.00729416666667, "name": "e7cddecd4dcfc008ba79098ac0c3a1c6"}, {"bike_id": "a6b5a6b7bb6bd12ede205d170c424bf7", "type": "electric_scooter", "is_disabled": 0, "lat": 38.89669466666667, "rental_uris": {"ios": "https://dc.lft.to/lastmile_qr_scan", "android": "https://dc.lft.to/lastmile_qr_scan"}, "is_reserved": 0, "fusion_lon": 0.0, "fusion_lat": 0.0, "lon": -77.0236775, "name": "a6b5a6b7bb6bd12ede205d170c424bf7"}, {"bike_id": "46517fb192cb121dd25be9ff2bbd44e6", "type": "electric_scooter", "is_disabled": 0, "lat": 38.9215525, "rental_uris": {"ios": "https://dc.lft.to/lastmile_qr_scan", "android": "https://dc.lft.to/lastmile_qr_scan"}, "is_reserved": 0, "fusion_lon": 0.0, "fusion_lat": 0.0, "lon": -77.0331615, "name": "46517fb192cb121dd25be9ff2bbd44e6"}, {"bike_id": "037f245a9c3969614cbdad98326737ff", "type": "electric_scooter", "is_disabled": 0, "lat": 38.91567766666667, "rental_uris": {"ios": "https://dc.lft.to/lastmile_qr_scan", "android": "https://dc.lft.to/lastmile_qr_scan"}, "is_reserved": 0, "fusion_lon": 0.0, "fusion_lat": 0.0, "lon": -77.020173, "name": "037f245a9c3969614cbdad98326737ff"}, {"bike_id": "1b97f7a2464e9f0e8c1b2080802571b6", "type": "electric_scooter", "is_disabled": 0, "lat": 38.928130333333335, "rental_uris": {"ios": "https://dc.lft.to/lastmile_qr_scan", "android": "https://dc.lft.to/lastmile_qr_scan"}, "is_reserved": 0, "fusion_lon": 0.0, "fusion_lat": 0.0, "lon": -77.02812116666666, "name": "1b97f7a2464e9f0e8c1b2080802571b6"}, {"bike_id": "362b079932acb67fb70da826dd79f8a5", "type": "electric_scooter", "is_disabled": 0, "lat": 38.89916816666667, "rental_uris": {"ios": "https://dc.lft.to/lastmile_qr_scan", "android": "https://dc.lft.to/lastmile_qr_scan"}, "is_reserved": 0, "fusion_lon": 0.0, "fusion_lat": 0.0, "lon": -76.93367366666666, "name": "362b079932acb67fb70da826dd79f8a5"}, {"bike_id": "4f06499ab4a0748176337bd7f5e599c8", "type": "electric_scooter", "is_disabled": 0, "lat": 38.915299, "rental_uris": {"ios": "https://dc.lft.to/lastmile_qr_scan", "android": "https://dc.lft.to/lastmile_qr_scan"}, "is_reserved": 0, "fusion_lon": 0.0, "fusion_lat": 0.0, "lon": -77.03193266666666, "name": "4f06499ab4a0748176337bd7f5e599c8"}, {"bike_id": "2a80095222d5e980bb04afd7399d9798", "type": "electric_scooter", "is_disabled": 0, "lat": 38.947942, "rental_uris": {"ios": "https://dc.lft.to/lastmile_qr_scan", "android": "https://dc.lft.to/lastmile_qr_scan"}, "is_reserved": 0, "fusion_lon": 0.0, "fusion_lat": 0.0, "lon": -77.021335, "name": "2a80095222d5e980bb04afd7399d9798"}, {"bike_id": "9e3c3ec48efd490e7576c30697798cdd", "type": "electric_scooter", "is_disabled": 0, "lat": 38.9168915, "rental_uris": {"ios": "https://dc.lft.to/lastmile_qr_scan", "android": "https://dc.lft.to/lastmile_qr_scan"}, "is_reserved": 0, "fusion_lon": 0.0, "fusion_lat": 0.0, "lon": -77.0295565, "name": "9e3c3ec48efd490e7576c30697798cdd"}, {"bike_id": "f877fd97d64718bf8c3c249688dd2b41", "type": "electric_scooter", "is_disabled": 0, "lat": 38.88131766666667, "rental_uris": {"ios": "https://dc.lft.to/lastmile_qr_scan", "android": "https://dc.lft.to/lastmile_qr_scan"}, "is_reserved": 0, "fusion_lon": 0.0, "fusion_lat": 0.0, "lon": -77.00211066666667, "name": "f877fd97d64718bf8c3c249688dd2b41"}, {"bike_id": "ef01f7faadd8377675898a5af4d644ab", "type": "electric_scooter", "is_disabled": 0, "lat": 38.9585695, "rental_uris": {"ios": "https://dc.lft.to/lastmile_qr_scan", "android": "https://dc.lft.to/lastmile_qr_scan"}, "is_reserved": 0, "fusion_lon": 0.0, "fusion_lat": 0.0, "lon": -77.0279695, "name": "ef01f7faadd8377675898a5af4d644ab"}, {"bike_id": "bbd405b9d3d4c5ac7e2e088ff37ee659", "type": "electric_scooter", "is_disabled": 0, "lat": 38.902798, "rental_uris": {"ios": "https://dc.lft.to/lastmile_qr_scan", "android": "https://dc.lft.to/lastmile_qr_scan"}, "is_reserved": 0, "fusion_lon": 0.0, "fusion_lat": 0.0, "lon": -77.02181483333334, "name": "bbd405b9d3d4c5ac7e2e088ff37ee659"}, {"bike_id": "4401a3e76bcd0144a6de565f4b4467de", "type": "electric_scooter", "is_disabled": 0, "lat": 38.9056095, "rental_uris": {"ios": "https://dc.lft.to/lastmile_qr_scan", "android": "https://dc.lft.to/lastmile_qr_scan"}, "is_reserved": 0, "fusion_lon": 0.0, "fusion_lat": 0.0, "lon": -77.02817816666666, "name": "4401a3e76bcd0144a6de565f4b4467de"}, {"bike_id": "936d0420a58e5ec6ff2dc69494ebd50d", "type": "electric_scooter", "is_disabled": 0, "lat": 38.90191733333333, "rental_uris": {"ios": "https://dc.lft.to/lastmile_qr_scan", "android": "https://dc.lft.to/lastmile_qr_scan"}, "is_reserved": 0, "fusion_lon": 0.0, "fusion_lat": 0.0, "lon": -77.0414805, "name": "936d0420a58e5ec6ff2dc69494ebd50d"}, {"bike_id": "a216462c912f50121d4ea00c341a9767", "type": "electric_scooter", "is_disabled": 0, "lat": 38.93086916666667, "rental_uris": {"ios": "https://dc.lft.to/lastmile_qr_scan", "android": "https://dc.lft.to/lastmile_qr_scan"}, "is_reserved": 0, "fusion_lon": 0.0, "fusion_lat": 0.0, "lon": -77.03738333333334, "name": "a216462c912f50121d4ea00c341a9767"}, {"bike_id": "43f6907a2ad8bb65cb0ff18e4fd9abeb", "type": "electric_scooter", "is_disabled": 0, "lat": 38.91763916666667, "rental_uris": {"ios": "https://dc.lft.to/lastmile_qr_scan", "android": "https://dc.lft.to/lastmile_qr_scan"}, "is_reserved": 0, "fusion_lon": 0.0, "fusion_lat": 0.0, "lon": -77.0476605, "name": "43f6907a2ad8bb65cb0ff18e4fd9abeb"}, {"bike_id": "dc726427c77ed3392f2472bae8fbea18", "type": "electric_bike", "is_disabled": 0, "lat": 38.949015, "rental_uris": {"ios": "https://dc.lft.to/lastmile_qr_scan", "android": "https://dc.lft.to/lastmile_qr_scan"}, "is_reserved": 0, "fusion_lon": 0.0, "fusion_lat": 0.0, "lon": -76.96377983333333, "name": "dc726427c77ed3392f2472bae8fbea18"}, {"bike_id": "17ce698ebd574a34d2e9ac47fb7cf6b8", "type": "electric_scooter", "is_disabled": 0, "lat": 38.922474, "rental_uris": {"ios": "https://dc.lft.to/lastmile_qr_scan", "android": "https://dc.lft.to/lastmile_qr_scan"}, "is_reserved": 0, "fusion_lon": 0.0, "fusion_lat": 0.0, "lon": -77.04272683333333, "name": "17ce698ebd574a34d2e9ac47fb7cf6b8"}, {"bike_id": "b375fdf4f64cff4a999ce39b2a8c583a", "type": "electric_scooter", "is_disabled": 0, "lat": 38.92868633333333, "rental_uris": {"ios": "https://dc.lft.to/lastmile_qr_scan", "android": "https://dc.lft.to/lastmile_qr_scan"}, "is_reserved": 0, "fusion_lon": 0.0, "fusion_lat": 0.0, "lon": -77.03712533333334, "name": "b375fdf4f64cff4a999ce39b2a8c583a"}, {"bike_id": "287a066a62376541dd55e029def21e4c", "type": "electric_scooter", "is_disabled": 0, "lat": 38.921882, "rental_uris": {"ios": "https://dc.lft.to/lastmile_qr_scan", "android": "https://dc.lft.to/lastmile_qr_scan"}, "is_reserved": 0, "fusion_lon": 0.0, "fusion_lat": 0.0, "lon": -77.03800566666666, "name": "287a066a62376541dd55e029def21e4c"}, {"bike_id": "0d1b8d8f1da72601b4e2aa2ed603faa8", "type": "electric_scooter", "is_disabled": 0, "lat": 38.912686, "rental_uris": {"ios": "https://dc.lft.to/lastmile_qr_scan", "android": "https://dc.lft.to/lastmile_qr_scan"}, "is_reserved": 0, "fusion_lon": 0.0, "fusion_lat": 0.0, "lon": -77.02209266666667, "name": "0d1b8d8f1da72601b4e2aa2ed603faa8"}, {"bike_id": "e4108cec6c2e01ba5cab08358395f72e", "type": "electric_scooter", "is_disabled": 0, "lat": 38.9097555, "rental_uris": {"ios": "https://dc.lft.to/lastmile_qr_scan", "android": "https://dc.lft.to/lastmile_qr_scan"}, "is_reserved": 0, "fusion_lon": 0.0, "fusion_lat": 0.0, "lon": -77.0317365, "name": "e4108cec6c2e01ba5cab08358395f72e"}, {"bike_id": "73fb279e82c172fc16b2ef3aedbdb828", "type": "electric_scooter", "is_disabled": 0, "lat": 38.918174, "rental_uris": {"ios": "https://dc.lft.to/lastmile_qr_scan", "android": "https://dc.lft.to/lastmile_qr_scan"}, "is_reserved": 0, "fusion_lon": 0.0, "fusion_lat": 0.0, "lon": -77.0025515, "name": "73fb279e82c172fc16b2ef3aedbdb828"}, {"bike_id": "08c0f4c3e9a9e291ddf1b09890267f58", "type": "electric_scooter", "is_disabled": 0, "lat": 38.91416533333334, "rental_uris": {"ios": "https://dc.lft.to/lastmile_qr_scan", "android": "https://dc.lft.to/lastmile_qr_scan"}, "is_reserved": 0, "fusion_lon": 0.0, "fusion_lat": 0.0, "lon": -77.03992266666667, "name": "08c0f4c3e9a9e291ddf1b09890267f58"}, {"bike_id": "a2e5ba51e272bfe4aaa8b201aa5a6849", "type": "electric_scooter", "is_disabled": 0, "lat": 38.919532, "rental_uris": {"ios": "https://dc.lft.to/lastmile_qr_scan", "android": "https://dc.lft.to/lastmile_qr_scan"}, "is_reserved": 0, "fusion_lon": 0.0, "fusion_lat": 0.0, "lon": -77.024844, "name": "a2e5ba51e272bfe4aaa8b201aa5a6849"}, {"bike_id": "d926c9a76b658d88a13c5f8a78dd9d0e", "type": "electric_scooter", "is_disabled": 0, "lat": 38.9126845, "rental_uris": {"ios": "https://dc.lft.to/lastmile_qr_scan", "android": "https://dc.lft.to/lastmile_qr_scan"}, "is_reserved": 0, "fusion_lon": 0.0, "fusion_lat": 0.0, "lon": -77.02208216666666, "name": "d926c9a76b658d88a13c5f8a78dd9d0e"}, {"bike_id": "fe2c51c990cdf03f4f04d6b978f09e58", "type": "electric_scooter", "is_disabled": 0, "lat": 38.9169895, "rental_uris": {"ios": "https://dc.lft.to/lastmile_qr_scan", "android": "https://dc.lft.to/lastmile_qr_scan"}, "is_reserved": 0, "fusion_lon": 0.0, "fusion_lat": 0.0, "lon": -77.02343966666666, "name": "fe2c51c990cdf03f4f04d6b978f09e58"}, {"bike_id": "3452a9677697b4b4bdf44d06091c5386", "type": "electric_scooter", "is_disabled": 0, "lat": 38.8922305, "rental_uris": {"ios": "https://dc.lft.to/lastmile_qr_scan", "android": "https://dc.lft.to/lastmile_qr_scan"}, "is_reserved": 0, "fusion_lon": 0.0, "fusion_lat": 0.0, "lon": -77.0431065, "name": "3452a9677697b4b4bdf44d06091c5386"}, {"bike_id": "18b4f786757ed40d83c16deecf40154a", "type": "electric_scooter", "is_disabled": 0, "lat": 38.90366516666667, "rental_uris": {"ios": "https://dc.lft.to/lastmile_qr_scan", "android": "https://dc.lft.to/lastmile_qr_scan"}, "is_reserved": 0, "fusion_lon": 0.0, "fusion_lat": 0.0, "lon": -77.00746466666666, "name": "18b4f786757ed40d83c16deecf40154a"}, {"bike_id": "3cfb2bfa1876bc5f6a2089da0c28b44e", "type": "electric_scooter", "is_disabled": 0, "lat": 38.929380333333334, "rental_uris": {"ios": "https://dc.lft.to/lastmile_qr_scan", "android": "https://dc.lft.to/lastmile_qr_scan"}, "is_reserved": 0, "fusion_lon": 0.0, "fusion_lat": 0.0, "lon": -77.03275683333334, "name": "3cfb2bfa1876bc5f6a2089da0c28b44e"}, {"bike_id": "2f9ca0331ba14384d25a99dfac8e025e", "type": "electric_scooter", "is_disabled": 0, "lat": 38.907196166666665, "rental_uris": {"ios": "https://dc.lft.to/lastmile_qr_scan", "android": "https://dc.lft.to/lastmile_qr_scan"}, "is_reserved": 0, "fusion_lon": 0.0, "fusion_lat": 0.0, "lon": -77.04345533333333, "name": "2f9ca0331ba14384d25a99dfac8e025e"}, {"bike_id": "c9cd57e0a740529258df0cff3b4520e5", "type": "electric_scooter", "is_disabled": 0, "lat": 38.90723166666667, "rental_uris": {"ios": "https://dc.lft.to/lastmile_qr_scan", "android": "https://dc.lft.to/lastmile_qr_scan"}, "is_reserved": 0, "fusion_lon": 0.0, "fusion_lat": 0.0, "lon": -77.0482135, "name": "c9cd57e0a740529258df0cff3b4520e5"}, {"bike_id": "66062fcc2c3a54ef8c3993aea10607a8", "type": "electric_scooter", "is_disabled": 0, "lat": 38.89225833333333, "rental_uris": {"ios": "https://dc.lft.to/lastmile_qr_scan", "android": "https://dc.lft.to/lastmile_qr_scan"}, "is_reserved": 0, "fusion_lon": 0.0, "fusion_lat": 0.0, "lon": -77.04647333333334, "name": "66062fcc2c3a54ef8c3993aea10607a8"}, {"bike_id": "3ef7d2a2b639f5cd4cbdc7e07f118b37", "type": "electric_scooter", "is_disabled": 0, "lat": 38.892323166666664, "rental_uris": {"ios": "https://dc.lft.to/lastmile_qr_scan", "android": "https://dc.lft.to/lastmile_qr_scan"}, "is_reserved": 0, "fusion_lon": 0.0, "fusion_lat": 0.0, "lon": -77.0467615, "name": "3ef7d2a2b639f5cd4cbdc7e07f118b37"}, {"bike_id": "8fd5eecf5da3eaad88ee436b948b7669", "type": "electric_scooter", "is_disabled": 0, "lat": 38.956895833333334, "rental_uris": {"ios": "https://dc.lft.to/lastmile_qr_scan", "android": "https://dc.lft.to/lastmile_qr_scan"}, "is_reserved": 0, "fusion_lon": 0.0, "fusion_lat": 0.0, "lon": -77.024025, "name": "8fd5eecf5da3eaad88ee436b948b7669"}, {"bike_id": "c753fd07678310c2a81b043afbb5347a", "type": "electric_scooter", "is_disabled": 0, "lat": 38.916183333333336, "rental_uris": {"ios": "https://dc.lft.to/lastmile_qr_scan", "android": "https://dc.lft.to/lastmile_qr_scan"}, "is_reserved": 0, "fusion_lon": 0.0, "fusion_lat": 0.0, "lon": -77.02308483333333, "name": "c753fd07678310c2a81b043afbb5347a"}, {"bike_id": "ba68aeb35221e5ebd422ac95d6857cc5", "type": "electric_scooter", "is_disabled": 0, "lat": 38.93009766666667, "rental_uris": {"ios": "https://dc.lft.to/lastmile_qr_scan", "android": "https://dc.lft.to/lastmile_qr_scan"}, "is_reserved": 0, "fusion_lon": 0.0, "fusion_lat": 0.0, "lon": -77.0323385, "name": "ba68aeb35221e5ebd422ac95d6857cc5"}, {"bike_id": "1364af423e34fe1ca5f6045c5fb0c927", "type": "electric_scooter", "is_disabled": 0, "lat": 38.91190683333333, "rental_uris": {"ios": "https://dc.lft.to/lastmile_qr_scan", "android": "https://dc.lft.to/lastmile_qr_scan"}, "is_reserved": 0, "fusion_lon": 0.0, "fusion_lat": 0.0, "lon": -77.038587, "name": "1364af423e34fe1ca5f6045c5fb0c927"}, {"bike_id": "9941e6f052db9ac5d6a5b4bd874f5364", "type": "electric_scooter", "is_disabled": 0, "lat": 38.9176925, "rental_uris": {"ios": "https://dc.lft.to/lastmile_qr_scan", "android": "https://dc.lft.to/lastmile_qr_scan"}, "is_reserved": 0, "fusion_lon": 0.0, "fusion_lat": 0.0, "lon": -77.040549, "name": "9941e6f052db9ac5d6a5b4bd874f5364"}, {"bike_id": "1535de7d3a97da887ae71940a9dfa039", "type": "electric_scooter", "is_disabled": 0, "lat": 38.89010916666667, "rental_uris": {"ios": "https://dc.lft.to/lastmile_qr_scan", "android": "https://dc.lft.to/lastmile_qr_scan"}, "is_reserved": 0, "fusion_lon": 0.0, "fusion_lat": 0.0, "lon": -76.937464, "name": "1535de7d3a97da887ae71940a9dfa039"}, {"bike_id": "bf4803ff9bfc1732ab54215ceae07517", "type": "electric_scooter", "is_disabled": 0, "lat": 38.90125, "rental_uris": {"ios": "https://dc.lft.to/lastmile_qr_scan", "android": "https://dc.lft.to/lastmile_qr_scan"}, "is_reserved": 0, "fusion_lon": 0.0, "fusion_lat": 0.0, "lon": -77.0365435, "name": "bf4803ff9bfc1732ab54215ceae07517"}, {"bike_id": "169394295582f2a30eabe7c4fd9c9037", "type": "electric_scooter", "is_disabled": 0, "lat": 38.91925416666667, "rental_uris": {"ios": "https://dc.lft.to/lastmile_qr_scan", "android": "https://dc.lft.to/lastmile_qr_scan"}, "is_reserved": 0, "fusion_lon": 0.0, "fusion_lat": 0.0, "lon": -77.0257855, "name": "169394295582f2a30eabe7c4fd9c9037"}, {"bike_id": "8a64842ea14cd1cb005c11702460f2f7", "type": "electric_scooter", "is_disabled": 0, "lat": 38.907266166666666, "rental_uris": {"ios": "https://dc.lft.to/lastmile_qr_scan", "android": "https://dc.lft.to/lastmile_qr_scan"}, "is_reserved": 0, "fusion_lon": 0.0, "fusion_lat": 0.0, "lon": -77.04653116666667, "name": "8a64842ea14cd1cb005c11702460f2f7"}, {"bike_id": "b8612a5a19f498382a5d86a683e15589", "type": "electric_scooter", "is_disabled": 0, "lat": 38.906858166666666, "rental_uris": {"ios": "https://dc.lft.to/lastmile_qr_scan", "android": "https://dc.lft.to/lastmile_qr_scan"}, "is_reserved": 0, "fusion_lon": 0.0, "fusion_lat": 0.0, "lon": -77.02692183333333, "name": "b8612a5a19f498382a5d86a683e15589"}, {"bike_id": "77940ac2e99c081b230a12f7311b9fb3", "type": "electric_scooter", "is_disabled": 0, "lat": 38.87291116666667, "rental_uris": {"ios": "https://dc.lft.to/lastmile_qr_scan", "android": "https://dc.lft.to/lastmile_qr_scan"}, "is_reserved": 0, "fusion_lon": 0.0, "fusion_lat": 0.0, "lon": -77.00989083333333, "name": "77940ac2e99c081b230a12f7311b9fb3"}, {"bike_id": "5ede919ac0cf649870797c19325a9958", "type": "electric_scooter", "is_disabled": 0, "lat": 38.926851, "rental_uris": {"ios": "https://dc.lft.to/lastmile_qr_scan", "android": "https://dc.lft.to/lastmile_qr_scan"}, "is_reserved": 0, "fusion_lon": 0.0, "fusion_lat": 0.0, "lon": -77.02158383333334, "name": "5ede919ac0cf649870797c19325a9958"}, {"bike_id": "10c30aac30b9b25046271b19e848fd19", "type": "electric_scooter", "is_disabled": 0, "lat": 38.90723783333333, "rental_uris": {"ios": "https://dc.lft.to/lastmile_qr_scan", "android": "https://dc.lft.to/lastmile_qr_scan"}, "is_reserved": 0, "fusion_lon": 0.0, "fusion_lat": 0.0, "lon": -77.05012483333333, "name": "10c30aac30b9b25046271b19e848fd19"}, {"bike_id": "593dce0e959317f097807fcbc328fa6c", "type": "electric_scooter", "is_disabled": 0, "lat": 38.936834, "rental_uris": {"ios": "https://dc.lft.to/lastmile_qr_scan", "android": "https://dc.lft.to/lastmile_qr_scan"}, "is_reserved": 0, "fusion_lon": 0.0, "fusion_lat": 0.0, "lon": -77.0662, "name": "593dce0e959317f097807fcbc328fa6c"}, {"bike_id": "a9d8652b798084016024ff0487e43ef9", "type": "electric_scooter", "is_disabled": 0, "lat": 38.922151666666664, "rental_uris": {"ios": "https://dc.lft.to/lastmile_qr_scan", "android": "https://dc.lft.to/lastmile_qr_scan"}, "is_reserved": 0, "fusion_lon": 0.0, "fusion_lat": 0.0, "lon": -77.04239133333333, "name": "a9d8652b798084016024ff0487e43ef9"}, {"bike_id": "03d94e668c61c15d3c19223a6195fd00", "type": "electric_scooter", "is_disabled": 0, "lat": 38.9177075, "rental_uris": {"ios": "https://dc.lft.to/lastmile_qr_scan", "android": "https://dc.lft.to/lastmile_qr_scan"}, "is_reserved": 0, "fusion_lon": 0.0, "fusion_lat": 0.0, "lon": -77.04057983333334, "name": "03d94e668c61c15d3c19223a6195fd00"}, {"bike_id": "61f571fcb7d41d06daaf47db6e211749", "type": "electric_scooter", "is_disabled": 0, "lat": 38.89241883333333, "rental_uris": {"ios": "https://dc.lft.to/lastmile_qr_scan", "android": "https://dc.lft.to/lastmile_qr_scan"}, "is_reserved": 0, "fusion_lon": 0.0, "fusion_lat": 0.0, "lon": -77.017229, "name": "61f571fcb7d41d06daaf47db6e211749"}, {"bike_id": "82cbd52bdd4a1d5eefdeee3350f53b7c", "type": "electric_scooter", "is_disabled": 0, "lat": 38.9089905, "rental_uris": {"ios": "https://dc.lft.to/lastmile_qr_scan", "android": "https://dc.lft.to/lastmile_qr_scan"}, "is_reserved": 0, "fusion_lon": 0.0, "fusion_lat": 0.0, "lon": -77.04494383333333, "name": "82cbd52bdd4a1d5eefdeee3350f53b7c"}, {"bike_id": "69af608d366df5c73edd599c25ef00db", "type": "electric_scooter", "is_disabled": 0, "lat": 38.90209333333333, "rental_uris": {"ios": "https://dc.lft.to/lastmile_qr_scan", "android": "https://dc.lft.to/lastmile_qr_scan"}, "is_reserved": 0, "fusion_lon": 0.0, "fusion_lat": 0.0, "lon": -77.01569866666667, "name": "69af608d366df5c73edd599c25ef00db"}, {"bike_id": "1b5ffbd6e0b138a5e8bf74a6690bd1dc", "type": "electric_scooter", "is_disabled": 0, "lat": 38.8871665, "rental_uris": {"ios": "https://dc.lft.to/lastmile_qr_scan", "android": "https://dc.lft.to/lastmile_qr_scan"}, "is_reserved": 0, "fusion_lon": 0.0, "fusion_lat": 0.0, "lon": -77.02204216666667, "name": "1b5ffbd6e0b138a5e8bf74a6690bd1dc"}, {"bike_id": "726af305787ef14154ce669c99fd23d2", "type": "electric_scooter", "is_disabled": 0, "lat": 38.9155985, "rental_uris": {"ios": "https://dc.lft.to/lastmile_qr_scan", "android": "https://dc.lft.to/lastmile_qr_scan"}, "is_reserved": 0, "fusion_lon": 0.0, "fusion_lat": 0.0, "lon": -77.03173233333334, "name": "726af305787ef14154ce669c99fd23d2"}, {"bike_id": "c3f83d32ccbfe75a7e44be2de466d9d6", "type": "electric_scooter", "is_disabled": 0, "lat": 38.917614, "rental_uris": {"ios": "https://dc.lft.to/lastmile_qr_scan", "android": "https://dc.lft.to/lastmile_qr_scan"}, "is_reserved": 0, "fusion_lon": 0.0, "fusion_lat": 0.0, "lon": -77.02403, "name": "c3f83d32ccbfe75a7e44be2de466d9d6"}, {"bike_id": "76c29772656b77d7c9366df9cb662459", "type": "electric_scooter", "is_disabled": 0, "lat": 38.92289066666667, "rental_uris": {"ios": "https://dc.lft.to/lastmile_qr_scan", "android": "https://dc.lft.to/lastmile_qr_scan"}, "is_reserved": 0, "fusion_lon": 0.0, "fusion_lat": 0.0, "lon": -77.07327616666667, "name": "76c29772656b77d7c9366df9cb662459"}, {"bike_id": "d6fc7811c268c0e18d61ff499cc43a3a", "type": "electric_scooter", "is_disabled": 0, "lat": 38.89292733333333, "rental_uris": {"ios": "https://dc.lft.to/lastmile_qr_scan", "android": "https://dc.lft.to/lastmile_qr_scan"}, "is_reserved": 0, "fusion_lon": 0.0, "fusion_lat": 0.0, "lon": -77.04876583333333, "name": "d6fc7811c268c0e18d61ff499cc43a3a"}, {"bike_id": "942f7fb1bd3dd3fb09cc38fc366afc63", "type": "electric_scooter", "is_disabled": 0, "lat": 38.8921975, "rental_uris": {"ios": "https://dc.lft.to/lastmile_qr_scan", "android": "https://dc.lft.to/lastmile_qr_scan"}, "is_reserved": 0, "fusion_lon": 0.0, "fusion_lat": 0.0, "lon": -77.02910066666666, "name": "942f7fb1bd3dd3fb09cc38fc366afc63"}, {"bike_id": "138547fb0fb1a0a8f5cb6b40ac6d4b7c", "type": "electric_scooter", "is_disabled": 0, "lat": 38.918329166666666, "rental_uris": {"ios": "https://dc.lft.to/lastmile_qr_scan", "android": "https://dc.lft.to/lastmile_qr_scan"}, "is_reserved": 0, "fusion_lon": 0.0, "fusion_lat": 0.0, "lon": -77.03942216666667, "name": "138547fb0fb1a0a8f5cb6b40ac6d4b7c"}, {"bike_id": "5a5fc494e1a5c3b70c7e0ddd7135fb7e", "type": "electric_scooter", "is_disabled": 0, "lat": 38.89224816666667, "rental_uris": {"ios": "https://dc.lft.to/lastmile_qr_scan", "android": "https://dc.lft.to/lastmile_qr_scan"}, "is_reserved": 0, "fusion_lon": 0.0, "fusion_lat": 0.0, "lon": -77.04192466666667, "name": "5a5fc494e1a5c3b70c7e0ddd7135fb7e"}, {"bike_id": "6338b5342874d3ec5deb09de96630800", "type": "electric_scooter", "is_disabled": 0, "lat": 38.92165583333333, "rental_uris": {"ios": "https://dc.lft.to/lastmile_qr_scan", "android": "https://dc.lft.to/lastmile_qr_scan"}, "is_reserved": 0, "fusion_lon": 0.0, "fusion_lat": 0.0, "lon": -77.03851283333333, "name": "6338b5342874d3ec5deb09de96630800"}, {"bike_id": "ea150d40b518a036171ad0f2a3e07282", "type": "electric_scooter", "is_disabled": 0, "lat": 38.92670616666667, "rental_uris": {"ios": "https://dc.lft.to/lastmile_qr_scan", "android": "https://dc.lft.to/lastmile_qr_scan"}, "is_reserved": 0, "fusion_lon": 0.0, "fusion_lat": 0.0, "lon": -77.0146645, "name": "ea150d40b518a036171ad0f2a3e07282"}, {"bike_id": "fa4fee292e4e072c47cf1ccb0013549f", "type": "electric_scooter", "is_disabled": 0, "lat": 38.89692316666667, "rental_uris": {"ios": "https://dc.lft.to/lastmile_qr_scan", "android": "https://dc.lft.to/lastmile_qr_scan"}, "is_reserved": 0, "fusion_lon": 0.0, "fusion_lat": 0.0, "lon": -76.99964133333333, "name": "fa4fee292e4e072c47cf1ccb0013549f"}, {"bike_id": "b3cbc359a1facb8839233e3a829dad69", "type": "electric_scooter", "is_disabled": 0, "lat": 38.90614633333333, "rental_uris": {"ios": "https://dc.lft.to/lastmile_qr_scan", "android": "https://dc.lft.to/lastmile_qr_scan"}, "is_reserved": 0, "fusion_lon": 0.0, "fusion_lat": 0.0, "lon": -77.062987, "name": "b3cbc359a1facb8839233e3a829dad69"}, {"bike_id": "871df664667063b1efd0d9572b5f4b96", "type": "electric_scooter", "is_disabled": 0, "lat": 38.8872465, "rental_uris": {"ios": "https://dc.lft.to/lastmile_qr_scan", "android": "https://dc.lft.to/lastmile_qr_scan"}, "is_reserved": 0, "fusion_lon": 0.0, "fusion_lat": 0.0, "lon": -76.983544, "name": "871df664667063b1efd0d9572b5f4b96"}, {"bike_id": "9f78597645b52f9d265df1e2ba9a5a15", "type": "electric_scooter", "is_disabled": 0, "lat": 38.887151, "rental_uris": {"ios": "https://dc.lft.to/lastmile_qr_scan", "android": "https://dc.lft.to/lastmile_qr_scan"}, "is_reserved": 0, "fusion_lon": 0.0, "fusion_lat": 0.0, "lon": -77.02205783333333, "name": "9f78597645b52f9d265df1e2ba9a5a15"}, {"bike_id": "2070e300159393496f504c58c8badcb4", "type": "electric_scooter", "is_disabled": 0, "lat": 38.918144166666664, "rental_uris": {"ios": "https://dc.lft.to/lastmile_qr_scan", "android": "https://dc.lft.to/lastmile_qr_scan"}, "is_reserved": 0, "fusion_lon": 0.0, "fusion_lat": 0.0, "lon": -77.02707433333333, "name": "2070e300159393496f504c58c8badcb4"}, {"bike_id": "142f2e499d3566bdf6ad9d23621bf02c", "type": "electric_scooter", "is_disabled": 0, "lat": 38.892251, "rental_uris": {"ios": "https://dc.lft.to/lastmile_qr_scan", "android": "https://dc.lft.to/lastmile_qr_scan"}, "is_reserved": 0, "fusion_lon": 0.0, "fusion_lat": 0.0, "lon": -77.04652133333333, "name": "142f2e499d3566bdf6ad9d23621bf02c"},