{"data": {"bikes": [{"is_disabled": 0, "is_reserved": 0, "fusion_lat": 0.0, "lat": 38.910447, "fusion_lon": 0.0, "rental_uris": {"ios": "https://dc.lft.to/lastmile_qr_scan", "android": "https://dc.lft.to/lastmile_qr_scan"}, "lon": -76.998015, "bike_id": "285f029f28818edddbe6c12ace4e05a0", "type": "electric_scooter", "name": "285f029f28818edddbe6c12ace4e05a0"}, {"is_disabled": 0, "is_reserved": 0, "fusion_lat": 0.0, "lat": 38.91547933333333, "fusion_lon": 0.0, "rental_uris": {"ios": "https://dc.lft.to/lastmile_qr_scan", "android": "https://dc.lft.to/lastmile_qr_scan"}, "lon": -77.0385345, "bike_id": "c46e27615c111adeff77823a6b214802", "type": "electric_scooter", "name": "c46e27615c111adeff77823a6b214802"}, {"is_disabled": 0, "is_reserved": 0, "fusion_lat": 0.0, "lat": 38.95220066666667, "fusion_lon": 0.0, "rental_uris": {"ios": "https://dc.lft.to/lastmile_qr_scan", "android": "https://dc.lft.to/lastmile_qr_scan"}, "lon": -77.08863433333333, "bike_id": "267872e1696606785f30ed1794f07141", "type": "electric_scooter", "name": "267872e1696606785f30ed1794f07141"}, {"is_disabled": 0, "is_reserved": 0, "fusion_lat": 0.0, "lat": 38.91409066666667, "fusion_lon": 0.0, "rental_uris": {"ios": "https://dc.lft.to/lastmile_qr_scan", "android": "https://dc.lft.to/lastmile_qr_scan"}, "lon": -77.024242, "bike_id": "389b9eb25519a3f7698bca12c3a03bb3", "type": "electric_scooter", "name": "389b9eb25519a3f7698bca12c3a03bb3"}, {"is_disabled": 0, "is_reserved": 0, "fusion_lat": 0.0, "lat": 38.92327483333333, "fusion_lon": 0.0, "rental_uris": {"ios": "https://dc.lft.to/lastmile_qr_scan", "android": "https://dc.lft.to/lastmile_qr_scan"}, "lon": -77.029124, "bike_id": "04138a9827d75feba8ee5e5a62331e13", "type": "electric_scooter", "name": "04138a9827d75feba8ee5e5a62331e13"}, {"is_disabled": 0, "is_reserved": 0, "fusion_lat": 0.0, "lat": 38.85245, "fusion_lon": 0.0, "rental_uris": {"ios": "https://dc.lft.to/lastmile_qr_scan", "android": "https://dc.lft.to/lastmile_qr_scan"}, "lon": -77.1141065, "bike_id": "7d9878be7d418058d62e0cf5727086f8", "type": "electric_bike", "name": "7d9878be7d418058d62e0cf5727086f8"}, {"is_disabled": 0, "is_reserved": 0, "fusion_lat": 0.0, "lat": 38.9257135, "fusion_lon": 0.0, "rental_uris": {"ios": "https://dc.lft.to/lastmile_qr_scan", "android": "https://dc.lft.to/lastmile_qr_scan"}, "lon": -77.03134716666666, "bike_id": "9da40e32df02f8856a7d9ef6808a85b8", "type": "electric_scooter", "name": "9da40e32df02f8856a7d9ef6808a85b8"}, {"is_disabled": 0, "is_reserved": 0, "fusion_lat": 0.0, "lat": 38.943309, "fusion_lon": 0.0, "rental_uris": {"ios": "https://dc.lft.to/lastmile_qr_scan", "android": "https://dc.lft.to/lastmile_qr_scan"}, "lon": -77.01551283333333, "bike_id": "e4789835ad804bd0c82bf40dc95779c6", "type": "electric_scooter", "name": "e4789835ad804bd0c82bf40dc95779c6"}, {"is_disabled": 0, "is_reserved": 0, "fusion_lat": 0.0, "lat": 38.882942, "fusion_lon": 0.0, "rental_uris": {"ios": "https://dc.lft.to/lastmile_qr_scan", "android": "https://dc.lft.to/lastmile_qr_scan"}, "lon": -76.93484366666667, "bike_id": "3bdba66d7d4eac4f3cf2b5e92a6e2f4b", "type": "electric_scooter", "name": "3bdba66d7d4eac4f3cf2b5e92a6e2f4b"}, {"is_disabled": 0, "is_reserved": 0, "fusion_lat": 0.0, "lat": 38.8427795, "fusion_lon": 0.0, "rental_uris": {"ios": "https://dc.lft.to/lastmile_qr_scan", "android": "https://dc.lft.to/lastmile_qr_scan"}, "lon": -76.98836483333334, "bike_id": "c66e4c1ea097915c88064dfa8fd3b120", "type": "electric_scooter", "name": "c66e4c1ea097915c88064dfa8fd3b120"}, {"is_disabled": 0, "is_reserved": 0, "fusion_lat": 0.0, "lat": 38.892218, "fusion_lon": 0.0, "rental_uris": {"ios": "https://dc.lft.to/lastmile_qr_scan", "android": "https://dc.lft.to/lastmile_qr_scan"}, "lon": -77.03240166666667, "bike_id": "d4eca1f64ac21a44a9aa8e933963cf78", "type": "electric_scooter", "name": "d4eca1f64ac21a44a9aa8e933963cf78"}, {"is_disabled": 0, "is_reserved": 0, "fusion_lat": 0.0, "lat": 38.91992583333333, "fusion_lon": 0.0, "rental_uris": {"ios": "https://dc.lft.to/lastmile_qr_scan", "android": "https://dc.lft.to/lastmile_qr_scan"}, "lon": -77.03218683333333, "bike_id": "38d3f5d84cef787bc35ad12a0b217934", "type": "electric_scooter", "name": "38d3f5d84cef787bc35ad12a0b217934"}, {"is_disabled": 0, "is_reserved": 0, "fusion_lat": 0.0, "lat": 38.906488833333334, "fusion_lon": 0.0, "rental_uris": {"ios": "https://dc.lft.to/lastmile_qr_scan", "android": "https://dc.lft.to/lastmile_qr_scan"}, "lon": -77.04548766666667, "bike_id": "f0f88b7308df915339e1c0431eb88555", "type": "electric_scooter", "name": "f0f88b7308df915339e1c0431eb88555"}, {"is_disabled": 0, "is_reserved": 0, "fusion_lat": 0.0, "lat": 38.906812, "fusion_lon": 0.0, "rental_uris": {"ios": "https://dc.lft.to/lastmile_qr_scan", "android": "https://dc.lft.to/lastmile_qr_scan"}, "lon": -77.062866, "bike_id": "9c3f0d4bb5dfca5808ed9e668a90902e", "type": "electric_scooter", "name": "9c3f0d4bb5dfca5808ed9e668a90902e"}, {"is_disabled": 0, "is_reserved": 0, "fusion_lat": 0.0, "lat": 38.89665933333333, "fusion_lon": 0.0, "rental_uris": {"ios": "https://dc.lft.to/lastmile_qr_scan", "android": "https://dc.lft.to/lastmile_qr_scan"}, "lon": -77.048748, "bike_id": "487fb8fa28086dcaad6218a8f41a4aa8", "type": "electric_scooter", "name": "487fb8fa28086dcaad6218a8f41a4aa8"}, {"is_disabled": 0, "is_reserved": 0, "fusion_lat": 0.0, "lat": 38.90144333333333, "fusion_lon": 0.0, "rental_uris": {"ios": "https://dc.lft.to/lastmile_qr_scan", "android": "https://dc.lft.to/lastmile_qr_scan"}, "lon": -76.92984783333333, "bike_id": "c018a0703d4424b3cb35a65c9f6d65d5", "type": "electric_scooter", "name": "c018a0703d4424b3cb35a65c9f6d65d5"}, {"is_disabled": 0, "is_reserved": 0, "fusion_lat": 0.0, "lat": 39.006455833333334, "fusion_lon": 0.0, "rental_uris": {"ios": "https://dc.lft.to/lastmile_qr_scan", "android": "https://dc.lft.to/lastmile_qr_scan"}, "lon": -76.90020833333334, "bike_id": "1a18c723c45d719f2d53f7370593a891", "type": "electric_bike", "name": "1a18c723c45d719f2d53f7370593a891"}, {"is_disabled": 0, "is_reserved": 0, "fusion_lat": 0.0, "lat": 38.89513783333334, "fusion_lon": 0.0, "rental_uris": {"ios": "https://dc.lft.to/lastmile_qr_scan", "android": "https://dc.lft.to/lastmile_qr_scan"}, "lon": -77.02282366666667, "bike_id": "ab6bb46b9615e87a7978d1239ea67f5f", "type": "electric_scooter", "name": "ab6bb46b9615e87a7978d1239ea67f5f"}, {"is_disabled": 0, "is_reserved": 0, "fusion_lat": 0.0, "lat": 38.946018333333335, "fusion_lon": 0.0, "rental_uris": {"ios": "https://dc.lft.to/lastmile_qr_scan", "android": "https://dc.lft.to/lastmile_qr_scan"}, "lon": -77.01737966666667, "bike_id": "fceaa88a6cf317c3130d803fa6d564ac", "type": "electric_bike", "name": "fceaa88a6cf317c3130d803fa6d564ac"}, {"is_disabled": 0, "is_reserved": 0, "fusion_lat": 0.0, "lat": 38.928871, "fusion_lon": 0.0, "rental_uris": {"ios": "https://dc.lft.to/lastmile_qr_scan", "android": "https://dc.lft.to/lastmile_qr_scan"}, "lon": -77.03355433333333, "bike_id": "52c67fd3fc143a702aa1fe30b2db2034", "type": "electric_scooter", "name": "52c67fd3fc143a702aa1fe30b2db2034"}, {"is_disabled": 0, "is_reserved": 0, "fusion_lat": 0.0, "lat": 38.90401, "fusion_lon": 0.0, "rental_uris": {"ios": "https://dc.lft.to/lastmile_qr_scan", "android": "https://dc.lft.to/lastmile_qr_scan"}, "lon": -77.018435, "bike_id": "7141836d4018b61ecbd24e85d05f1c74", "type": "electric_scooter", "name": "7141836d4018b61ecbd24e85d05f1c74"}, {"is_disabled": 0, "is_reserved": 0, "fusion_lat": 0.0, "lat": 38.95298733333333, "fusion_lon": 0.0, "rental_uris": {"ios": "https://dc.lft.to/lastmile_qr_scan", "android": "https://dc.lft.to/lastmile_qr_scan"}, "lon": -77.020164, "bike_id": "8c0c0b31ae472140a9dd35e5b22a1365", "type": "electric_scooter", "name": "8c0c0b31ae472140a9dd35e5b22a1365"}, {"is_disabled": 0, "is_reserved": 0, "fusion_lat": 0.0, "lat": 38.95374566666667, "fusion_lon": 0.0, "rental_uris": {"ios": "https://dc.lft.to/lastmile_qr_scan", "android": "https://dc.lft.to/lastmile_qr_scan"}, "lon": -76.99841033333334, "bike_id": "1cc39e5c783ad84134cff9ed13bdf01e", "type": "electric_scooter", "name": "1cc39e5c783ad84134cff9ed13bdf01e"}, {"is_disabled": 0, "is_reserved": 0, "fusion_lat": 0.0, "lat": 38.93456066666667, "fusion_lon": 0.0, "rental_uris": {"ios": "https://dc.lft.to/lastmile_qr_scan", "android": "https://dc.lft.to/lastmile_qr_scan"}, "lon": -77.02419666666667, "bike_id": "a62b239b5004a4ff52d11847e5fed6b1", "type": "electric_scooter", "name": "a62b239b5004a4ff52d11847e5fed6b1"}, {"is_disabled": 0, "is_reserved": 0, "fusion_lat": 0.0, "lat": 38.8858145, "fusion_lon": 0.0, "rental_uris": {"ios": "https://dc.lft.to/lastmile_qr_scan", "android": "https://dc.lft.to/lastmile_qr_scan"}, "lon": -77.01227016666667, "bike_id": "7a451fab57978ddae511daf2132c5580", "type": "electric_scooter", "name": "7a451fab57978ddae511daf2132c5580"}, {"is_disabled": 0, "is_reserved": 0, "fusion_lat": 0.0, "lat": 38.92079616666667, "fusion_lon": 0.0, "rental_uris": {"ios": "https://dc.lft.to/lastmile_qr_scan", "android": "https://dc.lft.to/lastmile_qr_scan"}, "lon": -77.00455916666667, "bike_id": "76c38ca1d119e4f9d018a23c0749568a", "type": "electric_scooter", "name": "76c38ca1d119e4f9d018a23c0749568a"}, {"is_disabled": 0, "is_reserved": 0, "fusion_lat": 0.0, "lat": 38.93193816666667, "fusion_lon": 0.0, "rental_uris": {"ios": "https://dc.lft.to/lastmile_qr_scan", "android": "https://dc.lft.to/lastmile_qr_scan"}, "lon": -77.02452883333333, "bike_id": "2109c475e0d2f1b31973984513b4cd92", "type": "electric_scooter", "name": "2109c475e0d2f1b31973984513b4cd92"}, {"is_disabled": 0, "is_reserved": 0, "fusion_lat": 0.0, "lat": 38.908471666666664, "fusion_lon": 0.0, "rental_uris": {"ios": "https://dc.lft.to/lastmile_qr_scan", "android": "https://dc.lft.to/lastmile_qr_scan"}, "lon": -77.02060883333333, "bike_id": "8db3521d6bd60354e5bd567e34c29974", "type": "electric_scooter", "name": "8db3521d6bd60354e5bd567e34c29974"}, {"is_disabled": 0, "is_reserved": 0, "fusion_lat": 0.0, "lat": 38.936966, "fusion_lon": 0.0, "rental_uris": {"ios": "https://dc.lft.to/lastmile_qr_scan", "android": "https://dc.lft.to/lastmile_qr_scan"}, "lon": -77.0559875, "bike_id": "fb1abcc47fbc0d46f0060776a7b4d012", "type": "electric_scooter", "name": "fb1abcc47fbc0d46f0060776a7b4d012"}, {"is_disabled": 0, "is_reserved": 0, "fusion_lat": 0.0, "lat": 38.917233, "fusion_lon": 0.0, "rental_uris": {"ios": "https://dc.lft.to/lastmile_qr_scan", "android": "https://dc.lft.to/lastmile_qr_scan"}, "lon": -77.02288466666667, "bike_id": "f0ccaafbc50107b4c2869334924782cd", "type": "electric_scooter", "name": "f0ccaafbc50107b4c2869334924782cd"}, {"is_disabled": 0, "is_reserved": 0, "fusion_lat": 0.0, "lat": 38.895305, "fusion_lon": 0.0, "rental_uris": {"ios": "https://dc.lft.to/lastmile_qr_scan", "android": "https://dc.lft.to/lastmile_qr_scan"}, "lon": -77.026828, "bike_id": "5c2c21cc9d998310033a6e7d0efe4e5e", "type": "electric_scooter", "name": "5c2c21cc9d998310033a6e7d0efe4e5e"}, {"is_disabled": 0, "is_reserved": 0, "fusion_lat": 0.0, "lat": 38.90242633333333, "fusion_lon": 0.0, "rental_uris": {"ios": "https://dc.lft.to/lastmile_qr_scan", "android": "https://dc.lft.to/lastmile_qr_scan"}, "lon": -77.05335266666667, "bike_id": "0b013c5368ad72052a15d4602800bb6b", "type": "electric_scooter", "name": "0b013c5368ad72052a15d4602800bb6b"}, {"is_disabled": 0, "is_reserved": 0, "fusion_lat": 0.0, "lat": 38.892287833333334, "fusion_lon": 0.0, "rental_uris": {"ios": "https://dc.lft.to/lastmile_qr_scan", "android": "https://dc.lft.to/lastmile_qr_scan"}, "lon": -77.02967266666667, "bike_id": "84d0a2abe66c5e46aa9e04d86ed716a1", "type": "electric_scooter", "name": "84d0a2abe66c5e46aa9e04d86ed716a1"}, {"is_disabled": 0, "is_reserved": 0, "fusion_lat": 0.0, "lat": 38.9361115, "fusion_lon": 0.0, "rental_uris": {"ios": "https://dc.lft.to/lastmile_qr_scan", "android": "https://dc.lft.to/lastmile_qr_scan"}, "lon": -77.03865566666667, "bike_id": "c93c6fbaa52d8cfcf4a72ccac3da0620", "type": "electric_scooter", "name": "c93c6fbaa52d8cfcf4a72ccac3da0620"}, {"is_disabled": 0, "is_reserved": 0, "fusion_lat": 0.0, "lat": 38.908996333333334, "fusion_lon": 0.0, "rental_uris": {"ios": "https://dc.lft.to/lastmile_qr_scan", "android": "https://dc.lft.to/lastmile_qr_scan"}, "lon": -76.99771916666667, "bike_id": "7c22b31057629bc2a6671d90f9dc0aaa", "type": "electric_scooter", "name": "7c22b31057629bc2a6671d90f9dc0aaa"}, {"is_disabled": 0, "is_reserved": 0, "fusion_lat": 0.0, "lat": 38.92855216666667, "fusion_lon": 0.0, "rental_uris": {"ios": "https://dc.lft.to/lastmile_qr_scan", "android": "https://dc.lft.to/lastmile_qr_scan"}, "lon": -77.0288245, "bike_id": "8e25841236a984f6ebbe70338be4fa07", "type": "electric_scooter", "name": "8e25841236a984f6ebbe70338be4fa07"}, {"is_disabled": 0, "is_reserved": 0, "fusion_lat": 0.0, "lat": 38.91789033333333, "fusion_lon": 0.0, "rental_uris": {"ios": "https://dc.lft.to/lastmile_qr_scan", "android": "https://dc.lft.to/lastmile_qr_scan"}, "lon": -77.02305566666666, "bike_id": "76c1753eb8099f98a69e54dbf31d8f85", "type": "electric_scooter", "name": "76c1753eb8099f98a69e54dbf31d8f85"}, {"is_disabled": 0, "is_reserved": 0, "fusion_lat": 0.0, "lat": 38.93411283333333, "fusion_lon": 0.0, "rental_uris": {"ios": "https://dc.lft.to/lastmile_qr_scan", "android": "https://dc.lft.to/lastmile_qr_scan"}, "lon": -77.04278016666666, "bike_id": "d69b1dde6d13ae5fe881abccdf686445", "type": "electric_scooter", "name": "d69b1dde6d13ae5fe881abccdf686445"}, {"is_disabled": 0, "is_reserved": 0, "fusion_lat": 0.0, "lat": 38.922391166666664, "fusion_lon": 0.0, "rental_uris": {"ios": "https://dc.lft.to/lastmile_qr_scan", "android": "https://dc.lft.to/lastmile_qr_scan"}, "lon": -77.02269566666666, "bike_id": "28895941a094aba6995c4cde1e68fa52", "type": "electric_scooter", "name": "28895941a094aba6995c4cde1e68fa52"}, {"is_disabled": 0, "is_reserved": 0, "fusion_lat": 0.0, "lat": 38.8875575, "fusion_lon": 0.0, "rental_uris": {"ios": "https://dc.lft.to/lastmile_qr_scan", "android": "https://dc.lft.to/lastmile_qr_scan"}, "lon": -77.15651816666667, "bike_id": "f0de319f35ba7ab0781d9210b4a74394", "type": "electric_bike", "name": "f0de319f35ba7ab0781d9210b4a74394"}, {"is_disabled": 0, "is_reserved": 0, "fusion_lat": 0.0, "lat": 38.84276166666667, "fusion_lon": 0.0, "rental_uris": {"ios": "https://dc.lft.to/lastmile_qr_scan", "android": "https://dc.lft.to/lastmile_qr_scan"}, "lon": -76.9884535, "bike_id": "c9ec8ff9c2523debd588b18a03b32fe2", "type": "electric_bike", "name": "c9ec8ff9c2523debd588b18a03b32fe2"}, {"is_disabled": 0, "is_reserved": 0, "fusion_lat": 0.0, "lat": 38.894803, "fusion_lon": 0.0, "rental_uris": {"ios": "https://dc.lft.to/lastmile_qr_scan", "android": "https://dc.lft.to/lastmile_qr_scan"}, "lon": -77.025889, "bike_id": "c23a1a61205589c6e3b510e487b2ade2", "type": "electric_scooter", "name": "c23a1a61205589c6e3b510e487b2ade2"}, {"is_disabled": 0, "is_reserved": 0, "fusion_lat": 0.0, "lat": 38.92986333333333, "fusion_lon": 0.0, "rental_uris": {"ios": "https://dc.lft.to/lastmile_qr_scan", "android": "https://dc.lft.to/lastmile_qr_scan"}, "lon": -77.03472383333333, "bike_id": "b2e6071a4d71d395e1685a2da2701267", "type": "electric_scooter", "name": "b2e6071a4d71d395e1685a2da2701267"}, {"is_disabled": 0, "is_reserved": 0, "fusion_lat": 0.0, "lat": 38.916904333333335, "fusion_lon": 0.0, "rental_uris": {"ios": "https://dc.lft.to/lastmile_qr_scan", "android": "https://dc.lft.to/lastmile_qr_scan"}, "lon": -77.0257425, "bike_id": "7fd2ddd4f332ffbe51240fac2c13fdf2", "type": "electric_scooter", "name": "7fd2ddd4f332ffbe51240fac2c13fdf2"}, {"is_disabled": 0, "is_reserved": 0, "fusion_lat": 0.0, "lat": 38.905656, "fusion_lon": 0.0, "rental_uris": {"ios": "https://dc.lft.to/lastmile_qr_scan", "android": "https://dc.lft.to/lastmile_qr_scan"}, "lon": -77.008714, "bike_id": "b2feea09fca4be3ca4052af82f1448ef", "type": "electric_scooter", "name": "b2feea09fca4be3ca4052af82f1448ef"}, {"is_disabled": 0, "is_reserved": 0, "fusion_lat": 0.0, "lat": 38.926497, "fusion_lon": 0.0, "rental_uris": {"ios": "https://dc.lft.to/lastmile_qr_scan", "android": "https://dc.lft.to/lastmile_qr_scan"}, "lon": -77.090176, "bike_id": "e3e45d0bd5d309690d10d73d59eeb78c", "type": "electric_bike", "name": "e3e45d0bd5d309690d10d73d59eeb78c"}, {"is_disabled": 0, "is_reserved": 0, "fusion_lat": 0.0, "lat": 38.894901833333336, "fusion_lon": 0.0, "rental_uris": {"ios": "https://dc.lft.to/lastmile_qr_scan", "android": "https://dc.lft.to/lastmile_qr_scan"}, "lon": -77.00987083333334, "bike_id": "df34cd0e5bafee87e76e07b96593fac9", "type": "electric_scooter", "name": "df34cd0e5bafee87e76e07b96593fac9"}, {"is_disabled": 0, "is_reserved": 0, "fusion_lat": 0.0, "lat": 38.97156966666667, "fusion_lon": 0.0, "rental_uris": {"ios": "https://dc.lft.to/lastmile_qr_scan", "android": "https://dc.lft.to/lastmile_qr_scan"}, "lon": -76.98362383333334, "bike_id": "88796bd3e9461f13f61cc053e72a894c", "type": "electric_bike", "name": "88796bd3e9461f13f61cc053e72a894c"}, {"is_disabled": 0, "is_reserved": 0, "fusion_lat": 0.0, "lat": 38.90345133333334, "fusion_lon": 0.0, "rental_uris": {"ios": "https://dc.lft.to/lastmile_qr_scan", "android": "https://dc.lft.to/lastmile_qr_scan"}, "lon": -76.97487633333333, "bike_id": "708d716af22a5c5dfc13db2d164297b1", "type": "electric_scooter", "name": "708d716af22a5c5dfc13db2d164297b1"}, {"is_disabled": 0, "is_reserved": 0, "fusion_lat": 0.0, "lat": 38.90298133333334, "fusion_lon": 0.0, "rental_uris": {"ios": "https://dc.lft.to/lastmile_qr_scan", "android": "https://dc.lft.to/lastmile_qr_scan"}, "lon": -77.02138433333333, "bike_id": "fa4f2f7c3fc6cbb9b1f4b17073c451a1", "type": "electric_scooter", "name": "fa4f2f7c3fc6cbb9b1f4b17073c451a1"}, {"is_disabled": 0, "is_reserved": 0, "fusion_lat": 0.0, "lat": 38.93929116666666, "fusion_lon": 0.0, "rental_uris": {"ios": "https://dc.lft.to/lastmile_qr_scan", "android": "https://dc.lft.to/lastmile_qr_scan"}, "lon": -77.025855, "bike_id": "f3673c6c46330609e4a29bc31ab4c729", "type": "electric_scooter", "name": "f3673c6c46330609e4a29bc31ab4c729"}, {"is_disabled": 0, "is_reserved": 0, "fusion_lat": 0.0, "lat": 38.8650785, "fusion_lon": 0.0, "rental_uris": {"ios": "https://dc.lft.to/lastmile_qr_scan", "android": "https://dc.lft.to/lastmile_qr_scan"}, "lon": -76.97324033333334, "bike_id": "2ecd53e1e9fd4e0731240557bbd98026", "type": "electric_bike", "name": "2ecd53e1e9fd4e0731240557bbd98026"}, {"is_disabled": 0, "is_reserved": 0, "fusion_lat": 0.0, "lat": 38.885133, "fusion_lon": 0.0, "rental_uris": {"ios": "https://dc.lft.to/lastmile_qr_scan", "android": "https://dc.lft.to/lastmile_qr_scan"}, "lon": -76.99619333333334, "bike_id": "7e361213ccae6d708373f2360149baf1", "type": "electric_scooter", "name": "7e361213ccae6d708373f2360149baf1"}, {"is_disabled": 0, "is_reserved": 0, "fusion_lat": 0.0, "lat": 39.005318333333335, "fusion_lon": 0.0, "rental_uris": {"ios": "https://dc.lft.to/lastmile_qr_scan", "android": "https://dc.lft.to/lastmile_qr_scan"}, "lon": -77.10402266666667, "bike_id": "377f4dcea1ade79636c0cd4c9fa2c0c8", "type": "electric_bike", "name": "377f4dcea1ade79636c0cd4c9fa2c0c8"}, {"is_disabled": 0, "is_reserved": 0, "fusion_lat": 0.0, "lat": 38.881008666666666, "fusion_lon": 0.0, "rental_uris": {"ios": "https://dc.lft.to/lastmile_qr_scan", "android": "https://dc.lft.to/lastmile_qr_scan"}, "lon": -77.012408, "bike_id": "2568393b121f371af84e4dd7da09df83", "type": "electric_scooter", "name": "2568393b121f371af84e4dd7da09df83"}, {"is_disabled": 0, "is_reserved": 0, "fusion_lat": 0.0, "lat": 38.9119795, "fusion_lon": 0.0, "rental_uris": {"ios": "https://dc.lft.to/lastmile_qr_scan", "android": "https://dc.lft.to/lastmile_qr_scan"}, "lon": -77.00082583333334, "bike_id": "a0a6e88af38756d1a296596afc816696", "type": "electric_scooter", "name": "a0a6e88af38756d1a296596afc816696"}, {"is_disabled": 0, "is_reserved": 0, "fusion_lat": 0.0, "lat": 38.877338333333334, "fusion_lon": 0.0, "rental_uris": {"ios": "https://dc.lft.to/lastmile_qr_scan", "android": "https://dc.lft.to/lastmile_qr_scan"}, "lon": -77.148704, "bike_id": "770b34104c9c64f3c62e4602bb7d3061", "type": "electric_bike", "name": "770b34104c9c64f3c62e4602bb7d3061"}, {"is_disabled": 0, "is_reserved": 0, "fusion_lat": 0.0, "lat": 38.9076255, "fusion_lon": 0.0, "rental_uris": {"ios": "https://dc.lft.to/lastmile_qr_scan", "android": "https://dc.lft.to/lastmile_qr_scan"}, "lon": -77.04524116666667, "bike_id": "741dc2e6acae8d54c84c819f273cefda", "type": "electric_scooter", "name": "741dc2e6acae8d54c84c819f273cefda"}, {"is_disabled": 0, "is_reserved": 0, "fusion_lat": 0.0, "lat": 38.998509, "fusion_lon": 0.0, "rental_uris": {"ios": "https://dc.lft.to/lastmile_qr_scan", "android": "https://dc.lft.to/lastmile_qr_scan"}, "lon": -77.0024915, "bike_id": "5f667fb200027a65d5bb5aecaa7f6bbd", "type": "electric_bike", "name": "5f667fb200027a65d5bb5aecaa7f6bbd"}, {"is_disabled": 0, "is_reserved": 0, "fusion_lat": 0.0, "lat": 38.91268383333333, "fusion_lon": 0.0, "rental_uris": {"ios": "https://dc.lft.to/lastmile_qr_scan", "android": "https://dc.lft.to/lastmile_qr_scan"}, "lon": -77.04662016666667, "bike_id": "1c839eb2de553157c3a223fa330a924b", "type": "electric_scooter", "name": "1c839eb2de553157c3a223fa330a924b"}, {"is_disabled": 0, "is_reserved": 0, "fusion_lat": 0.0, "lat": 39.04232283333333, "fusion_lon": 0.0, "rental_uris": {"ios": "https://dc.lft.to/lastmile_qr_scan", "android": "https://dc.lft.to/lastmile_qr_scan"}, "lon": -76.99739016666666, "bike_id": "cd12a19a950bbe2dff1154236a6636eb", "type": "electric_bike", "name": "cd12a19a950bbe2dff1154236a6636eb"}, {"is_disabled": 0, "is_reserved": 0, "fusion_lat": 0.0, "lat": 38.9507225, "fusion_lon": 0.0, "rental_uris": {"ios": "https://dc.lft.to/lastmile_qr_scan", "android": "https://dc.lft.to/lastmile_qr_scan"}, "lon": -76.99596516666666, "bike_id": "2b8330142a6df49fa178096f56f5d497", "type": "electric_bike", "name": "2b8330142a6df49fa178096f56f5d497"}, {"is_disabled": 0, "is_reserved": 0, "fusion_lat": 0.0, "lat": 38.8947455, "fusion_lon": 0.0, "rental_uris": {"ios": "https://dc.lft.to/lastmile_qr_scan", "android": "https://dc.lft.to/lastmile_qr_scan"}, "lon": -77.00270066666667, "bike_id": "0620e9dd082dd0e7df4d699fa0621f4b", "type": "electric_scooter", "name": "0620e9dd082dd0e7df4d699fa0621f4b"}, {"is_disabled": 0, "is_reserved": 0, "fusion_lat": 0.0, "lat": 38.875639, "fusion_lon": 0.0, "rental_uris": {"ios": "https://dc.lft.to/lastmile_qr_scan", "android": "https://dc.lft.to/lastmile_qr_scan"}, "lon": -77.04706083333333, "bike_id": "04c2cf585a62b560cd608337e14a2a81", "type": "electric_bike", "name": "04c2cf585a62b560cd608337e14a2a81"}, {"is_disabled": 0, "is_reserved": 0, "fusion_lat": 0.0, "lat": 38.907526, "fusion_lon": 0.0, "rental_uris": {"ios": "https://dc.lft.to/lastmile_qr_scan", "android": "https://dc.lft.to/lastmile_qr_scan"}, "lon": -77.00031883333334, "bike_id": "c9d18fbcb6c8885c0e6e8bd44247bebb", "type": "electric_scooter", "name": "c9d18fbcb6c8885c0e6e8bd44247bebb"}, {"is_disabled": 0, "is_reserved": 0, "fusion_lat": 0.0, "lat": 38.90881816666667, "fusion_lon": 0.0, "rental_uris": {"ios": "https://dc.lft.to/lastmile_qr_scan", "android": "https://dc.lft.to/lastmile_qr_scan"}, "lon": -77.04664566666666, "bike_id": "06a6b90af194d79fb5d35dba7d123aa1", "type": "electric_scooter", "name": "06a6b90af194d79fb5d35dba7d123aa1"}, {"is_disabled": 0, "is_reserved": 0, "fusion_lat": 0.0, "lat": 38.915372, "fusion_lon": 0.0, "rental_uris": {"ios": "https://dc.lft.to/lastmile_qr_scan", "android": "https://dc.lft.to/lastmile_qr_scan"}, "lon": -77.00916816666667, "bike_id": "23cf707ffa25d23dadecb6f3b328adaa", "type": "electric_scooter", "name": "23cf707ffa25d23dadecb6f3b328adaa"}, {"is_disabled": 0, "is_reserved": 0, "fusion_lat": 0.0, "lat": 38.928207, "fusion_lon": 0.0, "rental_uris": {"ios": "https://dc.lft.to/lastmile_qr_scan", "android": "https://dc.lft.to/lastmile_qr_scan"}, "lon": -77.01411233333333, "bike_id": "238f885f0ed59fd97a1660d91835266f", "type": "electric_scooter", "name": "238f885f0ed59fd97a1660d91835266f"}, {"is_disabled": 0, "is_reserved": 0, "fusion_lat": 0.0, "lat": 38.8960835, "fusion_lon": 0.0, "rental_uris": {"ios": "https://dc.lft.to/lastmile_qr_scan", "android": "https://dc.lft.to/lastmile_qr_scan"}, "lon": -76.99805283333333, "bike_id": "5d56575f9596d5026d5ed0048c5ccd89", "type": "electric_scooter", "name": "5d56575f9596d5026d5ed0048c5ccd89"}, {"is_disabled": 0, "is_reserved": 0, "fusion_lat": 0.0, "lat": 38.914689833333334, "fusion_lon": 0.0, "rental_uris": {"ios": "https://dc.lft.to/lastmile_qr_scan", "android": "https://dc.lft.to/lastmile_qr_scan"}, "lon": -77.00200516666666, "bike_id": "0575dd81fa3b0360ede3151760c178b2", "type": "electric_scooter", "name": "0575dd81fa3b0360ede3151760c178b2"}, {"is_disabled": 0, "is_reserved": 0, "fusion_lat": 0.0, "lat": 38.928923, "fusion_lon": 0.0, "rental_uris": {"ios": "https://dc.lft.to/lastmile_qr_scan", "android": "https://dc.lft.to/lastmile_qr_scan"}, "lon": -77.0229085, "bike_id": "4d8e16c8cf21db74032fdd2f6197288e", "type": "electric_scooter", "name": "4d8e16c8cf21db74032fdd2f6197288e"}, {"is_disabled": 0, "is_reserved": 0, "fusion_lat": 0.0, "lat": 38.911081333333335, "fusion_lon": 0.0, "rental_uris": {"ios": "https://dc.lft.to/lastmile_qr_scan", "android": "https://dc.lft.to/lastmile_qr_scan"}, "lon": -77.0116215, "bike_id": "804a2d4ebd1005d6daeff64b448b47f8", "type": "electric_scooter", "name": "804a2d4ebd1005d6daeff64b448b47f8"}, {"is_disabled": 0, "is_reserved": 0, "fusion_lat": 0.0, "lat": 38.892450833333335, "fusion_lon": 0.0, "rental_uris": {"ios": "https://dc.lft.to/lastmile_qr_scan", "android": "https://dc.lft.to/lastmile_qr_scan"}, "lon": -77.03957583333333, "bike_id": "2a240e4977c6072aa4f32e92f73a7ddf", "type": "electric_scooter", "name": "2a240e4977c6072aa4f32e92f73a7ddf"}, {"is_disabled": 0, "is_reserved": 0, "fusion_lat": 0.0, "lat": 38.89224933333333, "fusion_lon": 0.0, "rental_uris": {"ios": "https://dc.lft.to/lastmile_qr_scan", "android": "https://dc.lft.to/lastmile_qr_scan"}, "lon": -77.03325166666667, "bike_id": "a652b22e32262ceaa5fdd84d18e5342e", "type": "electric_bike", "name": "a652b22e32262ceaa5fdd84d18e5342e"}, {"is_disabled": 0, "is_reserved": 0, "fusion_lat": 0.0, "lat": 38.89869566666667, "fusion_lon": 0.0, "rental_uris": {"ios": "https://dc.lft.to/lastmile_qr_scan", "android": "https://dc.lft.to/lastmile_qr_scan"}, "lon": -76.93137566666667, "bike_id": "6d52aa3396778dad564a2302a64d5116", "type": "electric_scooter", "name": "6d52aa3396778dad564a2302a64d5116"}, {"is_disabled": 0, "is_reserved": 0, "fusion_lat": 0.0, "lat": 38.89602333333333, "fusion_lon": 0.0, "rental_uris": {"ios": "https://dc.lft.to/lastmile_qr_scan", "android": "https://dc.lft.to/lastmile_qr_scan"}, "lon": -77.00331933333334, "bike_id": "a42b7555f146fda7447e8e7a6313ca79", "type": "electric_scooter", "name": "a42b7555f146fda7447e8e7a6313ca79"}, {"is_disabled": 0, "is_reserved": 0, "fusion_lat": 0.0, "lat": 38.937439499999996, "fusion_lon": 0.0, "rental_uris": {"ios": "https://dc.lft.to/lastmile_qr_scan", "android": "https://dc.lft.to/lastmile_qr_scan"}, "lon": -77.0343345, "bike_id": "7e126d1373b247921ebdde07c06f10f1", "type": "electric_scooter", "name": "7e126d1373b247921ebdde07c06f10f1"}, {"is_disabled": 0, "is_reserved": 0, "fusion_lat": 0.0, "lat": 38.949183166666664, "fusion_lon": 0.0, "rental_uris": {"ios": "https://dc.lft.to/lastmile_qr_scan", "android": "https://dc.lft.to/lastmile_qr_scan"}, "lon": -77.02317516666666, "bike_id": "930395c36239d859499aad86681b0ea0", "type": "electric_scooter", "name": "930395c36239d859499aad86681b0ea0"}, {"is_disabled": 0, "is_reserved": 0, "fusion_lat": 0.0, "lat": 38.905173, "fusion_lon": 0.0, "rental_uris": {"ios": "https://dc.lft.to/lastmile_qr_scan", "android": "https://dc.lft.to/lastmile_qr_scan"}, "lon": -77.04996316666667, "bike_id": "93d22cb891b58ebc71765800b146452d", "type": "electric_scooter", "name": "93d22cb891b58ebc71765800b146452d"}, {"is_disabled": 0, "is_reserved": 0, "fusion_lat": 0.0, "lat": 38.902585333333334, "fusion_lon": 0.0, "rental_uris": {"ios": "https://dc.lft.to/lastmile_qr_scan", "android": "https://dc.lft.to/lastmile_qr_scan"}, "lon": -77.03948316666667, "bike_id": "a02d2602cd8992e4a410b85d6f3fe073", "type": "electric_scooter", "name": "a02d2602cd8992e4a410b85d6f3fe073"}, {"is_disabled": 0, "is_reserved": 0, "fusion_lat": 0.0, "lat": 38.9307705, "fusion_lon": 0.0, "rental_uris": {"ios": "https://dc.lft.to/lastmile_qr_scan", "android": "https://dc.lft.to/lastmile_qr_scan"}, "lon": -77.02348316666667, "bike_id": "b46b65a788852811aa3dfa72dc1e5432", "type": "electric_scooter", "name": "b46b65a788852811aa3dfa72dc1e5432"}, {"is_disabled": 0, "is_reserved": 0, "fusion_lat": 0.0, "lat": 38.88540866666666, "fusion_lon": 0.0, "rental_uris": {"ios": "https://dc.lft.to/lastmile_qr_scan", "android": "https://dc.lft.to/lastmile_qr_scan"}, "lon": -76.97888633333334, "bike_id": "d7b1deebcac48e4189ab66468fcdb07d", "type": "electric_scooter", "name": "d7b1deebcac48e4189ab66468fcdb07d"}, {"is_disabled": 0, "is_reserved": 0, "fusion_lat": 0.0, "lat": 38.8340745, "fusion_lon": 0.0, "rental_uris": {"ios": "https://dc.lft.to/lastmile_qr_scan", "android": "https://dc.lft.to/lastmile_qr_scan"}, "lon": -77.04987133333333, "bike_id": "82de24cead3faa2b8f0bf8e2dd25ccd4", "type": "electric_bike", "name": "82de24cead3faa2b8f0bf8e2dd25ccd4"}, {"is_disabled": 0, "is_reserved": 0, "fusion_lat": 0.0, "lat": 38.964269333333334, "fusion_lon": 0.0, "rental_uris": {"ios": "https://dc.lft.to/lastmile_qr_scan", "android": "https://dc.lft.to/lastmile_qr_scan"}, "lon": -77.07424566666667, "bike_id": "e4bc30fadeb59aa3b81ed3a5505808e8", "type": "electric_scooter", "name": "e4bc30fadeb59aa3b81ed3a5505808e8"}, {"is_disabled": 0, "is_reserved": 0, "fusion_lat": 0.0, "lat": 38.857177666666665, "fusion_lon": 0.0, "rental_uris": {"ios": "https://dc.lft.to/lastmile_qr_scan", "android": "https://dc.lft.to/lastmile_qr_scan"}, "lon": -76.980935, "bike_id": "c1a18aae8284420a6f8f2c4e14642ba8", "type": "electric_scooter", "name": "c1a18aae8284420a6f8f2c4e14642ba8"}, {"is_disabled": 0, "is_reserved": 0, "fusion_lat": 0.0, "lat": 38.901793166666664, "fusion_lon": 0.0, "rental_uris": {"ios": "https://dc.lft.to/lastmile_qr_scan", "android": "https://dc.lft.to/lastmile_qr_scan"}, "lon": -76.97668916666666, "bike_id": "c5cf8dc607a5cbb3151c0c9b0c9dccc9", "type": "electric_scooter", "name": "c5cf8dc607a5cbb3151c0c9b0c9dccc9"}, {"is_disabled": 0, "is_reserved": 0, "fusion_lat": 0.0, "lat": 38.930237166666664, "fusion_lon": 0.0, "rental_uris": {"ios": "https://dc.lft.to/lastmile_qr_scan", "android": "https://dc.lft.to/lastmile_qr_scan"}, "lon": -77.019966, "bike_id": "797a6895726a5e7f229e3e33d2d53810", "type": "electric_scooter", "name": "797a6895726a5e7f229e3e33d2d53810"}, {"is_disabled": 0, "is_reserved": 0, "fusion_lat": 0.0, "lat": 38.9559765, "fusion_lon": 0.0, "rental_uris": {"ios": "https://dc.lft.to/lastmile_qr_scan", "android": "https://dc.lft.to/lastmile_qr_scan"}, "lon": -77.010206, "bike_id": "e7aa123b4150b0da3807ed2490e63e35", "type": "electric_bike", "name": "e7aa123b4150b0da3807ed2490e63e35"}, {"is_disabled": 0, "is_reserved": 0, "fusion_lat": 0.0, "lat": 39.034723666666665, "fusion_lon": 0.0, "rental_uris": {"ios": "https://dc.lft.to/lastmile_qr_scan", "android": "https://dc.lft.to/lastmile_qr_scan"}, "lon": -77.0410795, "bike_id": "e482428003fdafa6ec01552cdcfecaba", "type": "electric_bike", "name": "e482428003fdafa6ec01552cdcfecaba"}, {"is_disabled": 0, "is_reserved": 0, "fusion_lat": 0.0, "lat": 38.88007616666667, "fusion_lon": 0.0, "rental_uris": {"ios": "https://dc.lft.to/lastmile_qr_scan", "android": "https://dc.lft.to/lastmile_qr_scan"}, "lon": -76.998355, "bike_id": "e6c7adfee764e1bbc8b02b8cbddadf24", "type": "electric_scooter", "name": "e6c7adfee764e1bbc8b02b8cbddadf24"}, {"is_disabled": 0, "is_reserved": 0, "fusion_lat": 0.0, "lat": 38.889985333333335, "fusion_lon": 0.0, "rental_uris": {"ios": "https://dc.lft.to/lastmile_qr_scan", "android": "https://dc.lft.to/lastmile_qr_scan"}, "lon": -77.04898816666666, "bike_id": "1e52f5b9261016329566c6418153b7de", "type": "electric_scooter", "name": "1e52f5b9261016329566c6418153b7de"}, {"is_disabled": 0, "is_reserved": 0, "fusion_lat": 0.0, "lat": 38.920889833333334, "fusion_lon": 0.0, "rental_uris": {"ios": "https://dc.lft.to/lastmile_qr_scan", "android": "https://dc.lft.to/lastmile_qr_scan"}, "lon": -77.02077016666667, "bike_id": "ca7bbf36b6fbcf0ca9913f87b79709dd", "type": "electric_scooter", "name": "ca7bbf36b6fbcf0ca9913f87b79709dd"}, {"is_disabled": 0, "is_reserved": 0, "fusion_lat": 0.0, "lat": 38.910372833333334, "fusion_lon": 0.0, "rental_uris": {"ios": "https://dc.lft.to/lastmile_qr_scan", "android": "https://dc.lft.to/lastmile_qr_scan"}, "lon": -76.93836616666667, "bike_id": "94e88ee0174dd0453f35239447bd01f3", "type": "electric_scooter", "name": "94e88ee0174dd0453f35239447bd01f3"}, {"is_disabled": 0, "is_reserved": 0, "fusion_lat": 0.0, "lat": 38.8994345, "fusion_lon": 0.0, "rental_uris": {"ios": "https://dc.lft.to/lastmile_qr_scan", "android": "https://dc.lft.to/lastmile_qr_scan"}, "lon": -76.9376765, "bike_id": "87c03a0d309a70dd33d9b3599eb2a353", "type": "electric_scooter", "name": "87c03a0d309a70dd33d9b3599eb2a353"}, {"is_disabled": 0, "is_reserved": 0, "fusion_lat": 0.0, "lat": 38.895442833333334, "fusion_lon": 0.0, "rental_uris": {"ios": "https://dc.lft.to/lastmile_qr_scan", "android": "https://dc.lft.to/lastmile_qr_scan"}, "lon": -77.009244, "bike_id": "73032d955843e8c96c7fce487853a859", "type": "electric_scooter", "name": "73032d955843e8c96c7fce487853a859"}, {"is_disabled": 0, "is_reserved": 0, "fusion_lat": 0.0, "lat": 38.89632483333333, "fusion_lon": 0.0, "rental_uris": {"ios": "https://dc.lft.to/lastmile_qr_scan", "android": "https://dc.lft.to/lastmile_qr_scan"}, "lon": -76.929616, "bike_id": "4f2b1de9f5740b523cbee9c194794f8a", "type": "electric_scooter", "name": "4f2b1de9f5740b523cbee9c194794f8a"}, {"is_disabled": 0, "is_reserved": 0, "fusion_lat": 0.0, "lat": 38.89125033333333, "fusion_lon": 0.0, "rental_uris": {"ios": "https://dc.lft.to/lastmile_qr_scan", "android": "https://dc.lft.to/lastmile_qr_scan"}, "lon": -76.99948133333334, "bike_id": "f118430f3a372dcd1f7f499be0b6679f", "type": "electric_scooter", "name": "f118430f3a372dcd1f7f499be0b6679f"}, {"is_disabled": 0, "is_reserved": 0, "fusion_lat": 0.0, "lat": 38.95266633333333, "fusion_lon": 0.0, "rental_uris": {"ios": "https://dc.lft.to/lastmile_qr_scan", "android": "https://dc.lft.to/lastmile_qr_scan"}, "lon": -76.9989515, "bike_id": "ccd1be6345baf174c70acd7aac5bd263", "type": "electric_scooter", "name": "ccd1be6345baf174c70acd7aac5bd263"}, {"is_disabled": 0, "is_reserved": 0, "fusion_lat": 0.0, "lat": 38.909085, "fusion_lon": 0.0, "rental_uris": {"ios": "https://dc.lft.to/lastmile_qr_scan", "android": "https://dc.lft.to/lastmile_qr_scan"}, "lon": -77.03507733333333, "bike_id": "7e703c27f04df3432cbec613cf48d20a", "type": "electric_scooter", "name": "7e703c27f04df3432cbec613cf48d20a"}, {"is_disabled": 0, "is_reserved": 0, "fusion_lat": 0.0, "lat": 38.931397, "fusion_lon": 0.0, "rental_uris": {"ios": "https://dc.lft.to/lastmile_qr_scan", "android": "https://dc.lft.to/lastmile_qr_scan"}, "lon": -77.05696266666666, "bike_id": "602ab5eb1363bc12c8ff8355f9a88d68", "type": "electric_scooter", "name": "602ab5eb1363bc12c8ff8355f9a88d68"}, {"is_disabled": 0, "is_reserved": 0, "fusion_lat": 0.0, "lat": 38.90534483333333, "fusion_lon": 0.0, "rental_uris": {"ios": "https://dc.lft.to/lastmile_qr_scan", "android": "https://dc.lft.to/lastmile_qr_scan"}, "lon": -77.03240966666667, "bike_id": "6b9a8961d4b7bd90c79e16a839200304", "type": "electric_scooter", "name": "6b9a8961d4b7bd90c79e16a839200304"}, {"is_disabled": 0, "is_reserved": 0, "fusion_lat": 0.0, "lat": 38.864681166666664, "fusion_lon": 0.0, "rental_uris": {"ios": "https://dc.lft.to/lastmile_qr_scan", "android": "https://dc.lft.to/lastmile_qr_scan"}, "lon": -76.977566, "bike_id": "f66e86564529d68dd93ebe47572d1447", "type": "electric_scooter", "name": "f66e86564529d68dd93ebe47572d1447"}, {"is_disabled": 0, "is_reserved": 0, "fusion_lat": 0.0, "lat": 38.90532866666667, "fusion_lon": 0.0, "rental_uris": {"ios": "https://dc.lft.to/lastmile_qr_scan", "android": "https://dc.lft.to/lastmile_qr_scan"}, "lon": -77.05911083333334, "bike_id": "586d601c3d8e5ccdc309ff9b1e66495d", "type": "electric_bike", "name": "586d601c3d8e5ccdc309ff9b1e66495d"}, {"is_disabled": 0, "is_reserved": 0, "fusion_lat": 0.0, "lat": 38.876399666666664, "fusion_lon": 0.0, "rental_uris": {"ios": "https://dc.lft.to/lastmile_qr_scan", "android": "https://dc.lft.to/lastmile_qr_scan"}, "lon": -76.99294883333333, "bike_id": "e311bdf6dd18b4346920537d47f2ddcc", "type": "electric_scooter", "name": "e311bdf6dd18b4346920537d47f2ddcc"}, {"is_disabled": 0, "is_reserved": 0, "fusion_lat": 0.0, "lat": 38.831560833333334, "fusion_lon": 0.0, "rental_uris": {"ios": "https://dc.lft.to/lastmile_qr_scan", "android": "https://dc.lft.to/lastmile_qr_scan"}, "lon": -76.99546466666666, "bike_id": "89eb79e5fd537538e48019fd41997b2b", "type": "electric_bike", "name": "89eb79e5fd537538e48019fd41997b2b"}, {"is_disabled": 0, "is_reserved": 0, "fusion_lat": 0.0, "lat": 38.90636083333333, "fusion_lon": 0.0, "rental_uris": {"ios": "https://dc.lft.to/lastmile_qr_scan", "android": "https://dc.lft.to/lastmile_qr_scan"}, "lon": -77.06911283333334, "bike_id": "5e774a8ff1498d75e1e902e5a0867e86", "type": "electric_scooter", "name": "5e774a8ff1498d75e1e902e5a0867e86"}, {"is_disabled": 0, "is_reserved": 0, "fusion_lat": 0.0, "lat": 38.90258983333333, "fusion_lon": 0.0, "rental_uris": {"ios": "https://dc.lft.to/lastmile_qr_scan", "android": "https://dc.lft.to/lastmile_qr_scan"}, "lon": -77.002167, "bike_id": "7511fa42008d4e1fe78b85abd6704a32", "type": "electric_scooter", "name": "7511fa42008d4e1fe78b85abd6704a32"}, {"is_disabled": 0, "is_reserved": 0, "fusion_lat": 0.0, "lat": 38.875965666666666, "fusion_lon": 0.0, "rental_uris": {"ios": "https://dc.lft.to/lastmile_qr_scan", "android": "https://dc.lft.to/lastmile_qr_scan"}, "lon": -77.008166, "bike_id": "04c1f1e9e5cbae39df491fa5390a8baf", "type": "electric_scooter", "name": "04c1f1e9e5cbae39df491fa5390a8baf"}, {"is_disabled": 0, "is_reserved": 0, "fusion_lat": 0.0, "lat": 38.92767633333333, "fusion_lon": 0.0, "rental_uris": {"ios": "https://dc.lft.to/lastmile_qr_scan", "android": "https://dc.lft.to/lastmile_qr_scan"}, "lon": -77.02786683333333, "bike_id": "1d01287b68329e63722f6e11872f718f", "type": "electric_scooter", "name": "1d01287b68329e63722f6e11872f718f"}, {"is_disabled": 0, "is_reserved": 0, "fusion_lat": 0.0, "lat": 38.918965166666666, "fusion_lon": 0.0, "rental_uris": {"ios": "https://dc.lft.to/lastmile_qr_scan", "android": "https://dc.lft.to/lastmile_qr_scan"}, "lon": -77.0353885, "bike_id": "b79c338ebbf0e7d1c1f42e68e9e23d1b", "type": "electric_scooter", "name": "b79c338ebbf0e7d1c1f42e68e9e23d1b"}, {"is_disabled": 0, "is_reserved": 0, "fusion_lat": 0.0, "lat": 38.92968833333333, "fusion_lon": 0.0, "rental_uris": {"ios": "https://dc.lft.to/lastmile_qr_scan", "android": "https://dc.lft.to/lastmile_qr_scan"}, "lon": -77.03082466666666, "bike_id": "992fc2ef3973e8c1dd78560a50fe4a62", "type": "electric_scooter", "name": "992fc2ef3973e8c1dd78560a50fe4a62"}, {"is_disabled": 0, "is_reserved": 0, "fusion_lat": 0.0, "lat": 38.899488833333336, "fusion_lon": 0.0, "rental_uris": {"ios": "https://dc.lft.to/lastmile_qr_scan", "android": "https://dc.lft.to/lastmile_qr_scan"}, "lon": -77.05056716666667, "bike_id": "abf9945d5112f354219fe09a4d5024ac", "type": "electric_scooter", "name": "abf9945d5112f354219fe09a4d5024ac"}, {"is_disabled": 0, "is_reserved": 0, "fusion_lat": 0.0, "lat": 38.9110715, "fusion_lon": 0.0, "rental_uris": {"ios": "https://dc.lft.to/lastmile_qr_scan", "android": "https://dc.lft.to/lastmile_qr_scan"}, "lon": -77.02171016666667, "bike_id": "17d8a0d3db452eba2eed5d2c2f66f3dd", "type": "electric_scooter", "name": "17d8a0d3db452eba2eed5d2c2f66f3dd"}, {"is_disabled": 0, "is_reserved": 0, "fusion_lat": 0.0, "lat": 38.904955, "fusion_lon": 0.0, "rental_uris": {"ios": "https://dc.lft.to/lastmile_qr_scan", "android": "https://dc.lft.to/lastmile_qr_scan"}, "lon": -77.02964616666667, "bike_id": "100bfa6bb42382ba2e426b0311b913b3", "type": "electric_scooter", "name": "100bfa6bb42382ba2e426b0311b913b3"}, {"is_disabled": 0, "is_reserved": 0, "fusion_lat": 0.0, "lat": 38.91549283333333, "fusion_lon": 0.0, "rental_uris": {"ios": "https://dc.lft.to/lastmile_qr_scan", "android": "https://dc.lft.to/lastmile_qr_scan"}, "lon": -77.05407366666667, "bike_id": "c45b697ba34bf3e782e1f26b104e0eac", "type": "electric_scooter", "name": "c45b697ba34bf3e782e1f26b104e0eac"}, {"is_disabled": 0, "is_reserved": 0, "fusion_lat": 0.0, "lat": 38.91206716666667, "fusion_lon": 0.0, "rental_uris": {"ios": "https://dc.lft.to/lastmile_qr_scan", "android": "https://dc.lft.to/lastmile_qr_scan"}, "lon": -77.02099566666666, "bike_id": "1c737b1a97338fdbc836de54f2c5f6d7", "type": "electric_scooter", "name": "1c737b1a97338fdbc836de54f2c5f6d7"}, {"is_disabled": 0, "is_reserved": 0, "fusion_lat": 0.0, "lat": 38.918161, "fusion_lon": 0.0, "rental_uris": {"ios": "https://dc.lft.to/lastmile_qr_scan", "android": "https://dc.lft.to/lastmile_qr_scan"}, "lon": -77.02524083333333, "bike_id": "578890471e84d8b481e3a20ff1ea1b28", "type": "electric_scooter", "name": "578890471e84d8b481e3a20ff1ea1b28"}, {"is_disabled": 0, "is_reserved": 0, "fusion_lat": 0.0, "lat": 38.93095016666667, "fusion_lon": 0.0, "rental_uris": {"ios": "https://dc.lft.to/lastmile_qr_scan", "android": "https://dc.lft.to/lastmile_qr_scan"}, "lon": -77.0317485, "bike_id": "e58abde2f45e15a3a53cf2eab8764151", "type": "electric_scooter", "name": "e58abde2f45e15a3a53cf2eab8764151"}, {"is_disabled": 0, "is_reserved": 0, "fusion_lat": 0.0, "lat": 38.91201133333333, "fusion_lon": 0.0, "rental_uris": {"ios": "https://dc.lft.to/lastmile_qr_scan", "android": "https://dc.lft.to/lastmile_qr_scan"}, "lon": -77.02692966666666, "bike_id": "7e483725b13a2b920346bc491cdf63fb", "type": "electric_scooter", "name": "7e483725b13a2b920346bc491cdf63fb"}, {"is_disabled": 0, "is_reserved": 0, "fusion_lat": 0.0, "lat": 38.9216035, "fusion_lon": 0.0, "rental_uris": {"ios": "https://dc.lft.to/lastmile_qr_scan", "android": "https://dc.lft.to/lastmile_qr_scan"}, "lon": -77.0366795, "bike_id": "e01f7cff590d3a3b4bab2d3a72e30e88", "type": "electric_scooter", "name": "e01f7cff590d3a3b4bab2d3a72e30e88"}, {"is_disabled": 0, "is_reserved": 0, "fusion_lat": 0.0, "lat": 38.917708166666664, "fusion_lon": 0.0, "rental_uris": {"ios": "https://dc.lft.to/lastmile_qr_scan", "android": "https://dc.lft.to/lastmile_qr_scan"}, "lon": -77.0229855, "bike_id": "c2115677db92eeb0fbbad95e8b8c4df0", "type": "electric_scooter", "name": "c2115677db92eeb0fbbad95e8b8c4df0"}, {"is_disabled": 0, "is_reserved": 0, "fusion_lat": 0.0, "lat": 38.89605666666667, "fusion_lon": 0.0, "rental_uris": {"ios": "https://dc.lft.to/lastmile_qr_scan", "android": "https://dc.lft.to/lastmile_qr_scan"}, "lon": -77.02145833333333, "bike_id": "003638c5e40297b2110766ca380dee0c", "type": "electric_scooter", "name": "003638c5e40297b2110766ca380dee0c"}, {"is_disabled": 0, "is_reserved": 0, "fusion_lat": 0.0, "lat": 38.92090016666667, "fusion_lon": 0.0, "rental_uris": {"ios": "https://dc.lft.to/lastmile_qr_scan", "android": "https://dc.lft.to/lastmile_qr_scan"}, "lon": -77.017397, "bike_id": "0051cad20e5dbc146bba8c6218d0863e", "type": "electric_scooter", "name": "0051cad20e5dbc146bba8c6218d0863e"}, {"is_disabled": 0, "is_reserved": 0, "fusion_lat": 0.0, "lat": 38.87099766666667, "fusion_lon": 0.0, "rental_uris": {"ios": "https://dc.lft.to/lastmile_qr_scan", "android": "https://dc.lft.to/lastmile_qr_scan"}, "lon": -77.01208466666667, "bike_id": "52a2f52faef4e9450d32cab00328351b", "type": "electric_scooter", "name": "52a2f52faef4e9450d32cab00328351b"}, {"is_disabled": 0, "is_reserved": 0, "fusion_lat": 0.0, "lat": 38.8847975, "fusion_lon": 0.0, "rental_uris": {"ios": "https://dc.lft.to/lastmile_qr_scan", "android": "https://dc.lft.to/lastmile_qr_scan"}, "lon": -77.02367383333333, "bike_id": "036890955615d95f8c91490b37786239", "type": "electric_scooter", "name": "036890955615d95f8c91490b37786239"}, {"is_disabled": 0, "is_reserved": 0, "fusion_lat": 0.0, "lat": 38.9484935, "fusion_lon": 0.0, "rental_uris": {"ios": "https://dc.lft.to/lastmile_qr_scan", "android": "https://dc.lft.to/lastmile_qr_scan"}, "lon": -77.02111566666666, "bike_id": "f4f8d0dbd252b9665000badd323ac1b0", "type": "electric_scooter", "name": "f4f8d0dbd252b9665000badd323ac1b0"}, {"is_disabled": 0, "is_reserved": 0, "fusion_lat": 0.0, "lat": 38.9234805, "fusion_lon": 0.0, "rental_uris": {"ios": "https://dc.lft.to/lastmile_qr_scan", "android": "https://dc.lft.to/lastmile_qr_scan"}, "lon": -77.033202, "bike_id": "3304249202cd566556fe500c2eda8468", "type": "electric_scooter", "name": "3304249202cd566556fe500c2eda8468"}, {"is_disabled": 0, "is_reserved": 0, "fusion_lat": 0.0, "lat": 38.926553, "fusion_lon": 0.0, "rental_uris": {"ios": "https://dc.lft.to/lastmile_qr_scan", "android": "https://dc.lft.to/lastmile_qr_scan"}, "lon": -77.02448933333334, "bike_id": "67c0f72c9f9734fdcdfc4aa012a5ad98", "type": "electric_scooter", "name": "67c0f72c9f9734fdcdfc4aa012a5ad98"}, {"is_disabled": 0, "is_reserved": 0, "fusion_lat": 0.0, "lat": 38.931205, "fusion_lon": 0.0, "rental_uris": {"ios": "https://dc.lft.to/lastmile_qr_scan", "android": "https://dc.lft.to/lastmile_qr_scan"}, "lon": -77.02065433333334, "bike_id": "eaca5289922178a53b03f516374a18a6", "type": "electric_scooter", "name": "eaca5289922178a53b03f516374a18a6"}, {"is_disabled": 0, "is_reserved": 0, "fusion_lat": 0.0, "lat": 38.92651883333333, "fusion_lon": 0.0, "rental_uris": {"ios": "https://dc.lft.to/lastmile_qr_scan", "android": "https://dc.lft.to/lastmile_qr_scan"}, "lon": -77.02422666666666, "bike_id": "82ef06e5a0c2aa5a73df3cf761905d06", "type": "electric_scooter", "name": "82ef06e5a0c2aa5a73df3cf761905d06"}, {"is_disabled": 0, "is_reserved": 0, "fusion_lat": 0.0, "lat": 38.923577333333334, "fusion_lon": 0.0, "rental_uris": {"ios": "https://dc.lft.to/lastmile_qr_scan", "android": "https://dc.lft.to/lastmile_qr_scan"}, "lon": -77.043804, "bike_id": "2ee34c427aeb875e62d09e0fa559644f", "type": "electric_scooter", "name": "2ee34c427aeb875e62d09e0fa559644f"}, {"is_disabled": 0, "is_reserved": 0, "fusion_lat": 0.0, "lat": 38.9110165, "fusion_lon": 0.0, "rental_uris": {"ios": "https://dc.lft.to/lastmile_qr_scan", "android": "https://dc.lft.to/lastmile_qr_scan"}, "lon": -77.00371633333333, "bike_id": "b7d2f51c7fabb5fbe6e10460cd1cba61", "type": "electric_scooter", "name": "b7d2f51c7fabb5fbe6e10460cd1cba61"}, {"is_disabled": 0, "is_reserved": 0, "fusion_lat": 0.0, "lat": 38.920744, "fusion_lon": 0.0, "rental_uris": {"ios": "https://dc.lft.to/lastmile_qr_scan", "android": "https://dc.lft.to/lastmile_qr_scan"}, "lon": -77.02361166666667, "bike_id": "2f7b145bd5cbb1a99b36372f9337e8ec", "type": "electric_scooter", "name": "2f7b145bd5cbb1a99b36372f9337e8ec"}, {"is_disabled": 0, "is_reserved": 0, "fusion_lat": 0.0, "lat": 38.923593833333335, "fusion_lon": 0.0, "rental_uris": {"ios": "https://dc.lft.to/lastmile_qr_scan", "android": "https://dc.lft.to/lastmile_qr_scan"}, "lon": -77.07305616666666, "bike_id": "a2134feebfdd042d1f1b34450c1cc64b", "type": "electric_scooter", "name": "a2134feebfdd042d1f1b34450c1cc64b"}, {"is_disabled": 0, "is_reserved": 0, "fusion_lat": 0.0, "lat": 38.93596333333333, "fusion_lon": 0.0, "rental_uris": {"ios": "https://dc.lft.to/lastmile_qr_scan", "android": "https://dc.lft.to/lastmile_qr_scan"}, "lon": -77.05593033333334, "bike_id": "2209d7a88c1b9d376cfc2af419ccd88c", "type": "electric_scooter", "name": "2209d7a88c1b9d376cfc2af419ccd88c"}, {"is_disabled": 0, "is_reserved": 0, "fusion_lat": 0.0, "lat": 38.9370335, "fusion_lon": 0.0, "rental_uris": {"ios": "https://dc.lft.to/lastmile_qr_scan", "android": "https://dc.lft.to/lastmile_qr_scan"}, "lon": -77.05597333333333, "bike_id": "6ff32fa41c9a9ca0094bc5c1feebc382", "type": "electric_scooter", "name": "6ff32fa41c9a9ca0094bc5c1feebc382"}, {"is_disabled": 0, "is_reserved": 0, "fusion_lat": 0.0, "lat": 38.914003, "fusion_lon": 0.0, "rental_uris": {"ios": "https://dc.lft.to/lastmile_qr_scan", "android": "https://dc.lft.to/lastmile_qr_scan"}, "lon": -77.04393016666667, "bike_id": "9fa9d138e3bf160a41a8eb5e0fa5d31b", "type": "electric_scooter", "name": "9fa9d138e3bf160a41a8eb5e0fa5d31b"}, {"is_disabled": 0, "is_reserved": 0, "fusion_lat": 0.0, "lat": 38.90451616666667, "fusion_lon": 0.0, "rental_uris": {"ios": "https://dc.lft.to/lastmile_qr_scan", "android": "https://dc.lft.to/lastmile_qr_scan"}, "lon": -76.932736, "bike_id": "343cf160899796cba51ef0beb5ffc857", "type": "electric_scooter", "name": "343cf160899796cba51ef0beb5ffc857"}, {"is_disabled": 0, "is_reserved": 0, "fusion_lat": 0.0, "lat": 38.921988, "fusion_lon": 0.0, "rental_uris": {"ios": "https://dc.lft.to/lastmile_qr_scan", "android": "https://dc.lft.to/lastmile_qr_scan"}, "lon": -77.0184195, "bike_id": "eb7688f15720b5668573fd4c99e0736b", "type": "electric_scooter", "name": "eb7688f15720b5668573fd4c99e0736b"}, {"is_disabled": 0, "is_reserved": 0, "fusion_lat": 0.0, "lat": 38.939795833333335, "fusion_lon": 0.0, "rental_uris": {"ios": "https://dc.lft.to/lastmile_qr_scan", "android": "https://dc.lft.to/lastmile_qr_scan"}, "lon": -77.02892783333333, "bike_id": "19d055fe56f50a8fff5bc1d3b0db74e8", "type": "electric_scooter", "name": "19d055fe56f50a8fff5bc1d3b0db74e8"}, {"is_disabled": 0, "is_reserved": 0, "fusion_lat": 0.0, "lat": 38.907212666666666, "fusion_lon": 0.0, "rental_uris": {"ios": "https://dc.lft.to/lastmile_qr_scan", "android": "https://dc.lft.to/lastmile_qr_scan"}, "lon": -77.0350625, "bike_id": "0d4157e806c486ca306a8b14352e853e", "type": "electric_scooter", "name": "0d4157e806c486ca306a8b14352e853e"}, {"is_disabled": 0, "is_reserved": 0, "fusion_lat": 0.0, "lat": 38.9147075, "fusion_lon": 0.0, "rental_uris": {"ios": "https://dc.lft.to/lastmile_qr_scan", "android": "https://dc.lft.to/lastmile_qr_scan"}, "lon": -77.00197316666667, "bike_id": "403bd50954b4145b64fa480bea472c41", "type": "electric_scooter", "name": "403bd50954b4145b64fa480bea472c41"}, {"is_disabled": 0, "is_reserved": 0, "fusion_lat": 0.0, "lat": 38.9280525, "fusion_lon": 0.0, "rental_uris": {"ios": "https://dc.lft.to/lastmile_qr_scan", "android": "https://dc.lft.to/lastmile_qr_scan"}, "lon": -76.97612316666667, "bike_id": "891f407b37ef5d5bf2815e9376860e99", "type": "electric_scooter", "name": "891f407b37ef5d5bf2815e9376860e99"}, {"is_disabled": 0, "is_reserved": 0, "fusion_lat": 0.0, "lat": 38.89257533333333, "fusion_lon": 0.0, "rental_uris": {"ios": "https://dc.lft.to/lastmile_qr_scan", "android": "https://dc.lft.to/lastmile_qr_scan"}, "lon": -77.04678116666666, "bike_id": "552e14cbb2478e74b448e5088df1d570", "type": "electric_scooter", "name": "552e14cbb2478e74b448e5088df1d570"}, {"is_disabled": 0, "is_reserved": 0, "fusion_lat": 0.0, "lat": 38.90500316666667, "fusion_lon": 0.0, "rental_uris": {"ios": "https://dc.lft.to/lastmile_qr_scan", "android": "https://dc.lft.to/lastmile_qr_scan"}, "lon": -77.04822916666667, "bike_id": "e44b6012327908aa147c9cf89c74c3d7", "type": "electric_scooter", "name": "e44b6012327908aa147c9cf89c74c3d7"}, {"is_disabled": 0, "is_reserved": 0, "fusion_lat": 0.0, "lat": 38.903595333333335, "fusion_lon": 0.0, "rental_uris": {"ios": "https://dc.lft.to/lastmile_qr_scan", "android": "https://dc.lft.to/lastmile_qr_scan"}, "lon": -77.01619133333334, "bike_id": "dc4e8fd13fbf75d342703878d31f2f29", "type": "electric_scooter", "name": "dc4e8fd13fbf75d342703878d31f2f29"}, {"is_disabled": 0, "is_reserved": 0, "fusion_lat": 0.0, "lat": 38.91402033333333, "fusion_lon": 0.0, "rental_uris": {"ios": "https://dc.lft.to/lastmile_qr_scan", "android": "https://dc.lft.to/lastmile_qr_scan"}, "lon": -77.01070266666666, "bike_id": "c6d702f0f8e27d3a0efbe392ab4ceb06", "type": "electric_scooter", "name": "c6d702f0f8e27d3a0efbe392ab4ceb06"}, {"is_disabled": 0, "is_reserved": 0, "fusion_lat": 0.0, "lat": 38.886277, "fusion_lon": 0.0, "rental_uris": {"ios": "https://dc.lft.to/lastmile_qr_scan", "android": "https://dc.lft.to/lastmile_qr_scan"}, "lon": -76.99010233333334, "bike_id": "4717ea0170472f2513e948ac8885dd0c", "type": "electric_bike", "name": "4717ea0170472f2513e948ac8885dd0c"}, {"is_disabled": 0, "is_reserved": 0, "fusion_lat": 0.0, "lat": 38.89228466666667, "fusion_lon": 0.0, "rental_uris": {"ios": "https://dc.lft.to/lastmile_qr_scan", "android": "https://dc.lft.to/lastmile_qr_scan"}, "lon": -77.05001733333333, "bike_id": "e6cc3f7f394f9077a3f75a4adc8b7fb5", "type": "electric_scooter", "name": "e6cc3f7f394f9077a3f75a4adc8b7fb5"}, {"is_disabled": 0, "is_reserved": 0, "fusion_lat": 0.0, "lat": 38.9069615, "fusion_lon": 0.0, "rental_uris": {"ios": "https://dc.lft.to/lastmile_qr_scan", "android": "https://dc.lft.to/lastmile_qr_scan"}, "lon": -76.95251516666667, "bike_id": "088b629753c45dc41e6b0ccfb4d8c012", "type": "electric_bike", "name": "088b629753c45dc41e6b0ccfb4d8c012"}, {"is_disabled": 0, "is_reserved": 0, "fusion_lat": 0.0, "lat": 38.94713733333333, "fusion_lon": 0.0, "rental_uris": {"ios": "https://dc.lft.to/lastmile_qr_scan", "android": "https://dc.lft.to/lastmile_qr_scan"}, "lon": -77.0680115, "bike_id": "de7e8d9db8248b6fe6371cf644cb28da", "type": "electric_scooter", "name": "de7e8d9db8248b6fe6371cf644cb28da"}, {"is_disabled": 0, "is_reserved": 0, "fusion_lat": 0.0, "lat": 38.88350916666667, "fusion_lon": 0.0, "rental_uris": {"ios": "https://dc.lft.to/lastmile_qr_scan", "android": "https://dc.lft.to/lastmile_qr_scan"}, "lon": -76.957692, "bike_id": "c6f68a828cb63b789fcbbf02f8dccb4e", "type": "electric_scooter", "name": "c6f68a828cb63b789fcbbf02f8dccb4e"}, {"is_disabled": 0, "is_reserved": 0, "fusion_lat": 0.0, "lat": 38.94266366666667, "fusion_lon": 0.0, "rental_uris": {"ios": "https://dc.lft.to/lastmile_qr_scan", "android": "https://dc.lft.to/lastmile_qr_scan"}, "lon": -76.98455366666667, "bike_id": "6fae151b2430855188d6e40ac423595e", "type": "electric_scooter", "name": "6fae151b2430855188d6e40ac423595e"}, {"is_disabled": 0, "is_reserved": 0, "fusion_lat": 0.0, "lat": 38.8969475, "fusion_lon": 0.0, "rental_uris": {"ios": "https://dc.lft.to/lastmile_qr_scan", "android": "https://dc.lft.to/lastmile_qr_scan"}, "lon": -77.05112266666667, "bike_id": "c962d539087a26cd7adca6ca697e3be5", "type": "electric_scooter", "name": "c962d539087a26cd7adca6ca697e3be5"}, {"is_disabled": 0, "is_reserved": 0, "fusion_lat": 0.0, "lat": 38.89849016666667, "fusion_lon": 0.0, "rental_uris": {"ios": "https://dc.lft.to/lastmile_qr_scan", "android": "https://dc.lft.to/lastmile_qr_scan"}, "lon": -76.94640433333333, "bike_id": "99d5acff34f2f74e9c795ce3e691f715", "type": "electric_scooter", "name": "99d5acff34f2f74e9c795ce3e691f715"}, {"is_disabled": 0, "is_reserved": 0, "fusion_lat": 0.0, "lat": 38.89674683333333, "fusion_lon": 0.0, "rental_uris": {"ios": "https://dc.lft.to/lastmile_qr_scan", "android": "https://dc.lft.to/lastmile_qr_scan"}, "lon": -77.05134866666667, "bike_id": "fa2a99ac541611f3747846869ce4c7e9", "type": "electric_scooter", "name": "fa2a99ac541611f3747846869ce4c7e9"}, {"is_disabled": 0, "is_reserved": 0, "fusion_lat": 0.0, "lat": 38.92479683333333, "fusion_lon": 0.0, "rental_uris": {"ios": "https://dc.lft.to/lastmile_qr_scan", "android": "https://dc.lft.to/lastmile_qr_scan"}, "lon": -77.05108683333333, "bike_id": "194af6281b480bc54ed97140f87e2032", "type": "electric_scooter", "name": "194af6281b480bc54ed97140f87e2032"}, {"is_disabled": 0, "is_reserved": 0, "fusion_lat": 0.0, "lat": 38.898089166666665, "fusion_lon": 0.0, "rental_uris": {"ios": "https://dc.lft.to/lastmile_qr_scan", "android": "https://dc.lft.to/lastmile_qr_scan"}, "lon": -77.00209733333334, "bike_id": "ba316d8c21df757771eaae639db3034f", "type": "electric_scooter", "name": "ba316d8c21df757771eaae639db3034f"}, {"is_disabled": 0, "is_reserved": 0, "fusion_lat": 0.0, "lat": 38.913975, "fusion_lon": 0.0, "rental_uris": {"ios": "https://dc.lft.to/lastmile_qr_scan", "android": "https://dc.lft.to/lastmile_qr_scan"}, "lon": -77.01224633333334, "bike_id": "228f4083ffab383c495f5e3b5ae57e06", "type": "electric_scooter", "name": "228f4083ffab383c495f5e3b5ae57e06"}, {"is_disabled": 0, "is_reserved": 0, "fusion_lat": 0.0, "lat": 38.898283166666666, "fusion_lon": 0.0, "rental_uris": {"ios": "https://dc.lft.to/lastmile_qr_scan", "android": "https://dc.lft.to/lastmile_qr_scan"}, "lon": -76.9463045, "bike_id": "5d9fd77df90ad04b3eb3903b92ad3f9d", "type": "electric_scooter", "name": "5d9fd77df90ad04b3eb3903b92ad3f9d"}, {"is_disabled": 0, "is_reserved": 0, "fusion_lat": 0.0, "lat": 38.8706235, "fusion_lon": 0.0, "rental_uris": {"ios": "https://dc.lft.to/lastmile_qr_scan", "android": "https://dc.lft.to/lastmile_qr_scan"}, "lon": -76.97940733333333, "bike_id": "faf2cebd1106adf605775e04518eeabc", "type": "electric_scooter", "name": "faf2cebd1106adf605775e04518eeabc"}, {"is_disabled": 0, "is_reserved": 0, "fusion_lat": 0.0, "lat": 38.9387215, "fusion_lon": 0.0, "rental_uris": {"ios": "https://dc.lft.to/lastmile_qr_scan", "android": "https://dc.lft.to/lastmile_qr_scan"}, "lon": -77.03042683333334, "bike_id": "450e55ca1256c19acb7ae8b57c992264", "type": "electric_scooter", "name": "450e55ca1256c19acb7ae8b57c992264"}, {"is_disabled": 0, "is_reserved": 0, "fusion_lat": 0.0, "lat": 38.951840833333335, "fusion_lon": 0.0, "rental_uris": {"ios": "https://dc.lft.to/lastmile_qr_scan", "android": "https://dc.lft.to/lastmile_qr_scan"}, "lon": -77.026139, "bike_id": "d1c23fd8a24dee7776a8ac9b66218ce9", "type": "electric_scooter", "name": "d1c23fd8a24dee7776a8ac9b66218ce9"}, {"is_disabled": 0, "is_reserved": 0, "fusion_lat": 0.0, "lat": 38.91502966666667, "fusion_lon": 0.0, "rental_uris": {"ios": "https://dc.lft.to/lastmile_qr_scan", "android": "https://dc.lft.to/lastmile_qr_scan"}, "lon": -76.98362066666667, "bike_id": "63aaf35a7580a716833541b52d8e1c42", "type": "electric_scooter", "name": "63aaf35a7580a716833541b52d8e1c42"}, {"is_disabled": 0, "is_reserved": 0, "fusion_lat": 0.0, "lat": 38.9180895, "fusion_lon": 0.0, "rental_uris": {"ios": "https://dc.lft.to/lastmile_qr_scan", "android": "https://dc.lft.to/lastmile_qr_scan"}, "lon": -77.0270815, "bike_id": "56c59152d6498984b4fd782b4b04ea87", "type": "electric_scooter", "name": "56c59152d6498984b4fd782b4b04ea87"}, {"is_disabled": 0, "is_reserved": 0, "fusion_lat": 0.0, "lat": 38.87653233333333, "fusion_lon": 0.0, "rental_uris": {"ios": "https://dc.lft.to/lastmile_qr_scan", "android": "https://dc.lft.to/lastmile_qr_scan"}, "lon": -77.00884583333334, "bike_id": "e84fbafee46063eb381eb706eb70716f", "type": "electric_scooter", "name": "e84fbafee46063eb381eb706eb70716f"}, {"is_disabled": 0, "is_reserved": 0, "fusion_lat": 0.0, "lat": 38.92307266666667, "fusion_lon": 0.0, "rental_uris": {"ios": "https://dc.lft.to/lastmile_qr_scan", "android": "https://dc.lft.to/lastmile_qr_scan"}, "lon": -77.03402633333333, "bike_id": "ce56ddbd41c04ada044a2bbbfa877ced", "type": "electric_scooter", "name": "ce56ddbd41c04ada044a2bbbfa877ced"}, {"is_disabled": 0, "is_reserved": 0, "fusion_lat": 0.0, "lat": 38.8984175, "fusion_lon": 0.0, "rental_uris": {"ios": "https://dc.lft.to/lastmile_qr_scan", "android": "https://dc.lft.to/lastmile_qr_scan"}, "lon": -77.00211183333333, "bike_id": "bd329ae1bce5f3df37ac1ae174edca96", "type": "electric_scooter", "name": "bd329ae1bce5f3df37ac1ae174edca96"}, {"is_disabled": 0, "is_reserved": 0, "fusion_lat": 0.0, "lat": 38.974382, "fusion_lon": 0.0, "rental_uris": {"ios": "https://dc.lft.to/lastmile_qr_scan", "android": "https://dc.lft.to/lastmile_qr_scan"}, "lon": -77.0961715, "bike_id": "7737b5497303c24d4902b31dce6c5b95", "type": "electric_bike", "name": "7737b5497303c24d4902b31dce6c5b95"}, {"is_disabled": 0, "is_reserved": 0, "fusion_lat": 0.0, "lat": 38.894547, "fusion_lon": 0.0, "rental_uris": {"ios": "https://dc.lft.to/lastmile_qr_scan", "android": "https://dc.lft.to/lastmile_qr_scan"}, "lon": -76.93679033333333, "bike_id": "8becb9d7fc5aa4ba1697f37448a1be07", "type": "electric_bike", "name": "8becb9d7fc5aa4ba1697f37448a1be07"}, {"is_disabled": 0, "is_reserved": 0, "fusion_lat": 0.0, "lat": 38.89501666666666, "fusion_lon": 0.0, "rental_uris": {"ios": "https://dc.lft.to/lastmile_qr_scan", "android": "https://dc.lft.to/lastmile_qr_scan"}, "lon": -77.03960583333334, "bike_id": "cc841ac5761623491d1cc01a274e9b35", "type": "electric_scooter", "name": "cc841ac5761623491d1cc01a274e9b35"}, {"is_disabled": 0, "is_reserved": 0, "fusion_lat": 0.0, "lat": 38.9351755, "fusion_lon": 0.0, "rental_uris": {"ios": "https://dc.lft.to/lastmile_qr_scan", "android": "https://dc.lft.to/lastmile_qr_scan"}, "lon": -77.03814933333334, "bike_id": "e57b3e2be57616764498138ed4e5a0fc", "type": "electric_scooter", "name": "e57b3e2be57616764498138ed4e5a0fc"}, {"is_disabled": 0, "is_reserved": 0, "fusion_lat": 0.0, "lat": 38.943647166666665, "fusion_lon": 0.0, "rental_uris": {"ios": "https://dc.lft.to/lastmile_qr_scan", "android": "https://dc.lft.to/lastmile_qr_scan"}, "lon": -77.06129566666667, "bike_id": "8d8d9066aa16a61af57e4a90c1ded3df", "type": "electric_scooter", "name": "8d8d9066aa16a61af57e4a90c1ded3df"}, {"is_disabled": 0, "is_reserved": 0, "fusion_lat": 0.0, "lat": 38.961699333333335, "fusion_lon": 0.0, "rental_uris": {"ios": "https://dc.lft.to/lastmile_qr_scan", "android": "https://dc.lft.to/lastmile_qr_scan"}, "lon": -77.0322575, "bike_id": "5e0bcd61d67fcaa19a745ad27d00bb84", "type": "electric_scooter", "name": "5e0bcd61d67fcaa19a745ad27d00bb84"}, {"is_disabled": 0, "is_reserved": 0, "fusion_lat": 0.0, "lat": 38.89404316666667, "fusion_lon": 0.0, "rental_uris": {"ios": "https://dc.lft.to/lastmile_qr_scan", "android": "https://dc.lft.to/lastmile_qr_scan"}, "lon": -77.021332, "bike_id": "40b6d95432fc9879cf0b052f6f624d8e", "type": "electric_scooter", "name": "40b6d95432fc9879cf0b052f6f624d8e"}, {"is_disabled": 0, "is_reserved": 0, "fusion_lat": 0.0, "lat": 38.93700783333333, "fusion_lon": 0.0, "rental_uris": {"ios": "https://dc.lft.to/lastmile_qr_scan", "android": "https://dc.lft.to/lastmile_qr_scan"}, "lon": -77.056871, "bike_id": "3c5a174fde9d10c388687f3514e7b1c7", "type": "electric_scooter", "name": "3c5a174fde9d10c388687f3514e7b1c7"}, {"is_disabled": 0, "is_reserved": 0, "fusion_lat": 0.0, "lat": 38.949756666666666, "fusion_lon": 0.0, "rental_uris": {"ios": "https://dc.lft.to/lastmile_qr_scan", "android": "https://dc.lft.to/lastmile_qr_scan"}, "lon": -77.02448316666667, "bike_id": "1b68aff555233640f0a488bd7eaa8e39", "type": "electric_scooter", "name": "1b68aff555233640f0a488bd7eaa8e39"}, {"is_disabled": 0, "is_reserved": 0, "fusion_lat": 0.0, "lat": 38.932106833333336, "fusion_lon": 0.0, "rental_uris": {"ios": "https://dc.lft.to/lastmile_qr_scan", "android": "https://dc.lft.to/lastmile_qr_scan"}, "lon": -77.03645366666667, "bike_id": "9c9efa6b91b5f2e13dc798af2c980ab0", "type": "electric_scooter", "name": "9c9efa6b91b5f2e13dc798af2c980ab0"}, {"is_disabled": 0, "is_reserved": 0, "fusion_lat": 0.0, "lat": 38.92440283333333, "fusion_lon": 0.0, "rental_uris": {"ios": "https://dc.lft.to/lastmile_qr_scan", "android": "https://dc.lft.to/lastmile_qr_scan"}, "lon": -77.03291033333333, "bike_id": "ff93aaba0182a236a230543f6d362271", "type": "electric_scooter", "name": "ff93aaba0182a236a230543f6d362271"}, {"is_disabled": 0, "is_reserved": 0, "fusion_lat": 0.0, "lat": 38.89531266666667, "fusion_lon": 0.0, "rental_uris": {"ios": "https://dc.lft.to/lastmile_qr_scan", "android": "https://dc.lft.to/lastmile_qr_scan"}, "lon": -76.94891633333333, "bike_id": "83952b4ecbcc132f52b85e5dc2d1bd37", "type": "electric_scooter", "name": "83952b4ecbcc132f52b85e5dc2d1bd37"}, {"is_disabled": 0, "is_reserved": 0, "fusion_lat": 0.0, "lat": 38.924484166666666, "fusion_lon": 0.0, "rental_uris": {"ios": "https://dc.lft.to/lastmile_qr_scan", "android": "https://dc.lft.to/lastmile_qr_scan"}, "lon": -77.0329995, "bike_id": "84617c0898ed039f4ca8398d12bb9605", "type": "electric_scooter", "name": "84617c0898ed039f4ca8398d12bb9605"}, {"is_disabled": 0, "is_reserved": 0, "fusion_lat": 0.0, "lat": 38.8922405, "fusion_lon": 0.0, "rental_uris": {"ios": "https://dc.lft.to/lastmile_qr_scan", "android": "https://dc.lft.to/lastmile_qr_scan"}, "lon": -77.03339916666667, "bike_id": "48aaf7af150203401b90b46269a9eff2", "type": "electric_scooter", "name": "48aaf7af150203401b90b46269a9eff2"}, {"is_disabled": 0, "is_reserved": 0, "fusion_lat": 0.0, "lat": 38.9024085, "fusion_lon": 0.0, "rental_uris": {"ios": "https://dc.lft.to/lastmile_qr_scan", "android": "https://dc.lft.to/lastmile_qr_scan"}, "lon": -77.01508033333333, "bike_id": "37eb2f5a28a6fa951e9490e4aa4634b0", "type": "electric_scooter", "name": "37eb2f5a28a6fa951e9490e4aa4634b0"}, {"is_disabled": 0, "is_reserved": 0, "fusion_lat": 0.0, "lat": 38.827592333333335, "fusion_lon": 0.0, "rental_uris": {"ios": "https://dc.lft.to/lastmile_qr_scan", "android": "https://dc.lft.to/lastmile_qr_scan"}, "lon": -77.05028316666667, "bike_id": "fc7e933641ef2fe4c6615a90a5044e5a", "type": "electric_bike", "name": "fc7e933641ef2fe4c6615a90a5044e5a"}, {"is_disabled": 0, "is_reserved": 0, "fusion_lat": 0.0, "lat": 38.91880366666667, "fusion_lon": 0.0, "rental_uris": {"ios": "https://dc.lft.to/lastmile_qr_scan", "android": "https://dc.lft.to/lastmile_qr_scan"}, "lon": -77.04173383333334, "bike_id": "2bf8515d498febb9a17f195c84835f1e", "type": "electric_scooter", "name": "2bf8515d498febb9a17f195c84835f1e"}, {"is_disabled": 0, "is_reserved": 0, "fusion_lat": 0.0, "lat": 38.91478166666667, "fusion_lon": 0.0, "rental_uris": {"ios": "https://dc.lft.to/lastmile_qr_scan", "android": "https://dc.lft.to/lastmile_qr_scan"}, "lon": -77.04283783333334, "bike_id": "418b037120d4ba89a731557188d639eb", "type": "electric_scooter", "name": "418b037120d4ba89a731557188d639eb"}, {"is_disabled": 0, "is_reserved": 0, "fusion_lat": 0.0, "lat": 38.91996283333334, "fusion_lon": 0.0, "rental_uris": {"ios": "https://dc.lft.to/lastmile_qr_scan", "android": "https://dc.lft.to/lastmile_qr_scan"}, "lon": -77.0321845, "bike_id": "76b4eb3afaad6a427030e6790329c2e7", "type": "electric_scooter", "name": "76b4eb3afaad6a427030e6790329c2e7"}, {"is_disabled": 0, "is_reserved": 0, "fusion_lat": 0.0, "lat": 38.907125666666666, "fusion_lon": 0.0, "rental_uris": {"ios": "https://dc.lft.to/lastmile_qr_scan", "android": "https://dc.lft.to/lastmile_qr_scan"}, "lon": -77.02562316666666, "bike_id": "0b34b11abd03c317cccdbd9a0bd8bb6f", "type": "electric_scooter", "name": "0b34b11abd03c317cccdbd9a0bd8bb6f"}, {"is_disabled": 0, "is_reserved": 0, "fusion_lat": 0.0, "lat": 38.91563983333333, "fusion_lon": 0.0, "rental_uris": {"ios": "https://dc.lft.to/lastmile_qr_scan", "android": "https://dc.lft.to/lastmile_qr_scan"}, "lon": -77.03632533333334, "bike_id": "bf73ccac290aad3aab7c96d3e13e6cbb", "type": "electric_scooter", "name": "bf73ccac290aad3aab7c96d3e13e6cbb"}, {"is_disabled": 0, "is_reserved": 0, "fusion_lat": 0.0, "lat": 38.91818516666667, "fusion_lon": 0.0, "rental_uris": {"ios": "https://dc.lft.to/lastmile_qr_scan", "android": "https://dc.lft.to/lastmile_qr_scan"}, "lon": -77.01214033333333, "bike_id": "554fda99df38db3e3e0e47f902381ba2", "type": "electric_scooter", "name": "554fda99df38db3e3e0e47f902381ba2"}, {"is_disabled": 0, "is_reserved": 0, "fusion_lat": 0.0, "lat": 38.92344666666666, "fusion_lon": 0.0, "rental_uris": {"ios": "https://dc.lft.to/lastmile_qr_scan", "android": "https://dc.lft.to/lastmile_qr_scan"}, "lon": -77.02433283333333, "bike_id": "7ee8687377898081de4ff9d01db2b53e", "type": "electric_scooter", "name": "7ee8687377898081de4ff9d01db2b53e"}, {"is_disabled": 0, "is_reserved": 0, "fusion_lat": 0.0, "lat": 38.883770166666665, "fusion_lon": 0.0, "rental_uris": {"ios": "https://dc.lft.to/lastmile_qr_scan", "android": "https://dc.lft.to/lastmile_qr_scan"}, "lon": -77.02995966666667, "bike_id": "9a3b73c2489841390eae4801bf7efae7", "type": "electric_scooter", "name": "9a3b73c2489841390eae4801bf7efae7"}, {"is_disabled": 0, "is_reserved": 0, "fusion_lat": 0.0, "lat": 38.929073833333334, "fusion_lon": 0.0, "rental_uris": {"ios": "https://dc.lft.to/lastmile_qr_scan", "android": "https://dc.lft.to/lastmile_qr_scan"}, "lon": -77.0598445, "bike_id": "e964c88b5baf6a8d140092b3e6e4d494", "type": "electric_scooter", "name": "e964c88b5baf6a8d140092b3e6e4d494"}, {"is_disabled": 0, "is_reserved": 0, "fusion_lat": 0.0, "lat": 38.897418333333334, "fusion_lon": 0.0, "rental_uris": {"ios": "https://dc.lft.to/lastmile_qr_scan", "android": "https://dc.lft.to/lastmile_qr_scan"}, "lon": -77.03344066666666, "bike_id": "4ae77759753294bca1608fd6b7807444", "type": "electric_scooter", "name": "4ae77759753294bca1608fd6b7807444"}, {"is_disabled": 0, "is_reserved": 0, "fusion_lat": 0.0, "lat": 38.964655666666665, "fusion_lon": 0.0, "rental_uris": {"ios": "https://dc.lft.to/lastmile_qr_scan", "android": "https://dc.lft.to/lastmile_qr_scan"}, "lon": -77.03166233333333, "bike_id": "9e4bafc159bea07b9bdab33d6f1d0d0f", "type": "electric_bike", "name": "9e4bafc159bea07b9bdab33d6f1d0d0f"}, {"is_disabled": 0, "is_reserved": 0, "fusion_lat": 0.0, "lat": 38.955851, "fusion_lon": 0.0, "rental_uris": {"ios": "https://dc.lft.to/lastmile_qr_scan", "android": "https://dc.lft.to/lastmile_qr_scan"}, "lon": -77.028118, "bike_id": "8ec663d0a2cb93615366ec926b362b6a", "type": "electric_scooter", "name": "8ec663d0a2cb93615366ec926b362b6a"}, {"is_disabled": 0, "is_reserved": 0, "fusion_lat": 0.0, "lat": 38.889555, "fusion_lon": 0.0, "rental_uris": {"ios": "https://dc.lft.to/lastmile_qr_scan", "android": "https://dc.lft.to/lastmile_qr_scan"}, "lon": -77.07590616666667, "bike_id": "cd4d8d7ba9da99361130807407bfd209", "type": "electric_bike", "name": "cd4d8d7ba9da99361130807407bfd209"}, {"is_disabled": 0, "is_reserved": 0, "fusion_lat": 0.0, "lat": 38.915536, "fusion_lon": 0.0, "rental_uris": {"ios": "https://dc.lft.to/lastmile_qr_scan", "android": "https://dc.lft.to/lastmile_qr_scan"}, "lon": -77.051029, "bike_id": "1c0d275a14359dd4e02db2352fa40909", "type": "electric_scooter", "name": "1c0d275a14359dd4e02db2352fa40909"}, {"is_disabled": 0, "is_reserved": 0, "fusion_lat": 0.0, "lat": 38.91597266666667, "fusion_lon": 0.0, "rental_uris": {"ios": "https://dc.lft.to/lastmile_qr_scan", "android": "https://dc.lft.to/lastmile_qr_scan"}, "lon": -77.043505, "bike_id": "5f221749c70cbd618af0e447c69d4a1f", "type": "electric_scooter", "name": "5f221749c70cbd618af0e447c69d4a1f"}, {"is_disabled": 0, "is_reserved": 0, "fusion_lat": 0.0, "lat": 38.846737, "fusion_lon": 0.0, "rental_uris": {"ios": "https://dc.lft.to/lastmile_qr_scan", "android": "https://dc.lft.to/lastmile_qr_scan"}, "lon": -77.13930183333333, "bike_id": "b8d5d719dcd5617e7e69e0c3be950cd4", "type": "electric_bike", "name": "b8d5d719dcd5617e7e69e0c3be950cd4"}, {"is_disabled": 0, "is_reserved": 0, "fusion_lat": 0.0, "lat": 38.8792495, "fusion_lon": 0.0, "rental_uris": {"ios": "https://dc.lft.to/lastmile_qr_scan", "android": "https://dc.lft.to/lastmile_qr_scan"}, "lon": -77.00535966666666, "bike_id": "9b67b0c0942da3c555dbf9d82ffb01e3", "type": "electric_scooter", "name": "9b67b0c0942da3c555dbf9d82ffb01e3"}, {"is_disabled": 0, "is_reserved": 0, "fusion_lat": 0.0, "lat": 38.925612666666666, "fusion_lon": 0.0, "rental_uris": {"ios": "https://dc.lft.to/lastmile_qr_scan", "android": "https://dc.lft.to/lastmile_qr_scan"}, "lon": -77.03767383333333, "bike_id": "102909539451cec5629a0b7b69953b30", "type": "electric_scooter", "name": "102909539451cec5629a0b7b69953b30"}, {"is_disabled": 0, "is_reserved": 0, "fusion_lat": 0.0, "lat": 38.941384666666664, "fusion_lon": 0.0, "rental_uris": {"ios": "https://dc.lft.to/lastmile_qr_scan", "android": "https://dc.lft.to/lastmile_qr_scan"}, "lon": -77.0232225, "bike_id": "ac166a973643c1ded3003b6e237fe55c", "type": "electric_scooter", "name": "ac166a973643c1ded3003b6e237fe55c"}, {"is_disabled": 0, "is_reserved": 0, "fusion_lat": 0.0, "lat": 38.804023666666666, "fusion_lon": 0.0, "rental_uris": {"ios": "https://dc.lft.to/lastmile_qr_scan", "android": "https://dc.lft.to/lastmile_qr_scan"}, "lon": -77.11326433333333, "bike_id": "1021169cdc3ff4a2a61394819034e148", "type": "electric_bike", "name": "1021169cdc3ff4a2a61394819034e148"}, {"is_disabled": 0, "is_reserved": 0, "fusion_lat": 0.0, "lat": 38.90808366666667, "fusion_lon": 0.0, "rental_uris": {"ios": "https://dc.lft.to/lastmile_qr_scan", "android": "https://dc.lft.to/lastmile_qr_scan"}, "lon": -77.03833116666667, "bike_id": "2304dcde7625516a47ef1f90b52e141f", "type": "electric_scooter", "name": "2304dcde7625516a47ef1f90b52e141f"}, {"is_disabled": 0, "is_reserved": 0, "fusion_lat": 0.0, "lat": 38.918122, "fusion_lon": 0.0, "rental_uris": {"ios": "https://dc.lft.to/lastmile_qr_scan", "android": "https://dc.lft.to/lastmile_qr_scan"}, "lon": -77.02524183333334, "bike_id": "3eda1ba63de505598250a77c774da9ba", "type": "electric_scooter", "name": "3eda1ba63de505598250a77c774da9ba"}, {"is_disabled": 0, "is_reserved": 0, "fusion_lat": 0.0, "lat": 38.93050866666667, "fusion_lon": 0.0, "rental_uris": {"ios": "https://dc.lft.to/lastmile_qr_scan", "android": "https://dc.lft.to/lastmile_qr_scan"}, "lon": -77.02661766666667, "bike_id": "31dafc1a72865a2bf5b50fd2cbff1e46", "type": "electric_scooter", "name": "31dafc1a72865a2bf5b50fd2cbff1e46"}, {"is_disabled": 0, "is_reserved": 0, "fusion_lat": 0.0, "lat": 38.85591633333333, "fusion_lon": 0.0, "rental_uris": {"ios": "https://dc.lft.to/lastmile_qr_scan", "android": "https://dc.lft.to/lastmile_qr_scan"}, "lon": -76.97275516666667, "bike_id": "d16b1fa5cf2213d6b5b6e986a62b2bb9", "type": "electric_bike", "name": "d16b1fa5cf2213d6b5b6e986a62b2bb9"}, {"is_disabled": 0, "is_reserved": 0, "fusion_lat": 0.0, "lat": 38.9065255, "fusion_lon": 0.0, "rental_uris": {"ios": "https://dc.lft.to/lastmile_qr_scan", "android": "https://dc.lft.to/lastmile_qr_scan"}, "lon": -77.011774, "bike_id": "5f24799fc12e810c26e0b30c236b5e96", "type": "electric_scooter", "name": "5f24799fc12e810c26e0b30c236b5e96"}, {"is_disabled": 0, "is_reserved": 0, "fusion_lat": 0.0, "lat": 38.91797233333333, "fusion_lon": 0.0, "rental_uris": {"ios": "https://dc.lft.to/lastmile_qr_scan", "android": "https://dc.lft.to/lastmile_qr_scan"}, "lon": -77.03436283333333, "bike_id": "db7a9e8469ba095c428e8cd01f8b3988", "type": "electric_scooter", "name": "db7a9e8469ba095c428e8cd01f8b3988"}, {"is_disabled": 0, "is_reserved": 0, "fusion_lat": 0.0, "lat": 38.92028166666667, "fusion_lon": 0.0, "rental_uris": {"ios": "https://dc.lft.to/lastmile_qr_scan", "android": "https://dc.lft.to/lastmile_qr_scan"}, "lon": -77.0111695, "bike_id": "803585dd61ef1b2405e67f9e92ba54fe", "type": "electric_scooter", "name": "803585dd61ef1b2405e67f9e92ba54fe"}, {"is_disabled": 0, "is_reserved": 0, "fusion_lat": 0.0, "lat": 38.961592, "fusion_lon": 0.0, "rental_uris": {"ios": "https://dc.lft.to/lastmile_qr_scan", "android": "https://dc.lft.to/lastmile_qr_scan"}, "lon": -77.02788016666666, "bike_id": "1da5cff69d5a127ee59704238a7a2bad", "type": "electric_scooter", "name": "1da5cff69d5a127ee59704238a7a2bad"}, {"is_disabled": 0, "is_reserved": 0, "fusion_lat": 0.0, "lat": 38.927036666666666, "fusion_lon": 0.0, "rental_uris": {"ios": "https://dc.lft.to/lastmile_qr_scan", "android": "https://dc.lft.to/lastmile_qr_scan"}, "lon": -76.96079483333334, "bike_id": "f110d8900e207afc813aaf66e7f2a7ff", "type": "electric_scooter", "name": "f110d8900e207afc813aaf66e7f2a7ff"}, {"is_disabled": 0, "is_reserved": 0, "fusion_lat": 0.0, "lat": 38.92573483333334, "fusion_lon": 0.0, "rental_uris": {"ios": "https://dc.lft.to/lastmile_qr_scan", "android": "https://dc.lft.to/lastmile_qr_scan"}, "lon": -76.995007, "bike_id": "36ec3afbaf5b044435bcfb2f0927a59c", "type": "electric_scooter", "name": "36ec3afbaf5b044435bcfb2f0927a59c"}, {"is_disabled": 0, "is_reserved": 0, "fusion_lat": 0.0, "lat": 39.00078383333334, "fusion_lon": 0.0, "rental_uris": {"ios": "https://dc.lft.to/lastmile_qr_scan", "android": "https://dc.lft.to/lastmile_qr_scan"}, "lon": -77.00635066666666, "bike_id": "d4b7aa1809c1279e2e5baa22cfa94bcc", "type": "electric_bike", "name": "d4b7aa1809c1279e2e5baa22cfa94bcc"}, {"is_disabled": 0, "is_reserved": 0, "fusion_lat": 0.0, "lat": 38.939459, "fusion_lon": 0.0, "rental_uris": {"ios": "https://dc.lft.to/lastmile_qr_scan", "android": "https://dc.lft.to/lastmile_qr_scan"}, "lon": -77.021843, "bike_id": "29544d965207ea4104b1764eecf1e064", "type": "electric_scooter", "name": "29544d965207ea4104b1764eecf1e064"}, {"is_disabled": 0, "is_reserved": 0, "fusion_lat": 0.0, "lat": 38.91902566666667, "fusion_lon": 0.0, "rental_uris": {"ios": "https://dc.lft.to/lastmile_qr_scan", "android": "https://dc.lft.to/lastmile_qr_scan"}, "lon": -77.00046616666667, "bike_id": "92cdeb593572d62413131746e8412300", "type": "electric_scooter", "name": "92cdeb593572d62413131746e8412300"}, {"is_disabled": 0, "is_reserved": 0, "fusion_lat": 0.0, "lat": 38.91175583333333, "fusion_lon": 0.0, "rental_uris": {"ios": "https://dc.lft.to/lastmile_qr_scan", "android": "https://dc.lft.to/lastmile_qr_scan"}, "lon": -77.04032116666667, "bike_id": "87b7aaea62e01649908e7a9547031110", "type": "electric_scooter", "name": "87b7aaea62e01649908e7a9547031110"}, {"is_disabled": 0, "is_reserved": 0, "fusion_lat": 0.0, "lat": 38.87520966666666, "fusion_lon": 0.0, "rental_uris": {"ios": "https://dc.lft.to/lastmile_qr_scan", "android": "https://dc.lft.to/lastmile_qr_scan"}, "lon": -77.01227316666666, "bike_id": "884da1229156908f27747ff39df1fc48", "type": "electric_scooter", "name": "884da1229156908f27747ff39df1fc48"}, {"is_disabled": 0, "is_reserved": 0, "fusion_lat": 0.0, "lat": 38.898938333333334, "fusion_lon": 0.0, "rental_uris": {"ios": "https://dc.lft.to/lastmile_qr_scan", "android": "https://dc.lft.to/lastmile_qr_scan"}, "lon": -77.0499745, "bike_id": "732c655b2c5b53649d7d5e0b8dec40ba", "type": "electric_scooter", "name": "732c655b2c5b53649d7d5e0b8dec40ba"}, {"is_disabled": 0, "is_reserved": 0, "fusion_lat": 0.0, "lat": 38.9307945, "fusion_lon": 0.0, "rental_uris": {"ios": "https://dc.lft.to/lastmile_qr_scan", "android": "https://dc.lft.to/lastmile_qr_scan"}, "lon": -77.0200385, "bike_id": "f6cb16f4dd74ee72b813d1b11533f1ea", "type": "electric_scooter", "name": "f6cb16f4dd74ee72b813d1b11533f1ea"}, {"is_disabled": 0, "is_reserved": 0, "fusion_lat": 0.0, "lat": 38.918163, "fusion_lon": 0.0, "rental_uris": {"ios": "https://dc.lft.to/lastmile_qr_scan", "android": "https://dc.lft.to/lastmile_qr_scan"}, "lon": -77.0121465, "bike_id": "ba544954429f1a1932e7ef2388acad0c", "type": "electric_scooter", "name": "ba544954429f1a1932e7ef2388acad0c"}, {"is_disabled": 0, "is_reserved": 0, "fusion_lat": 0.0, "lat": 38.82763583333333, "fusion_lon": 0.0, "rental_uris": {"ios": "https://dc.lft.to/lastmile_qr_scan", "android": "https://dc.lft.to/lastmile_qr_scan"}, "lon": -77.060133, "bike_id": "31d098f46ab0b532f6c64f615dce0722", "type": "electric_bike", "name": "31d098f46ab0b532f6c64f615dce0722"}, {"is_disabled": 0, "is_reserved": 0, "fusion_lat": 0.0, "lat": 38.93343016666667, "fusion_lon": 0.0, "rental_uris": {"ios": "https://dc.lft.to/lastmile_qr_scan", "android": "https://dc.lft.to/lastmile_qr_scan"}, "lon": -77.06040866666666, "bike_id": "a11e687e69c5095bd9821271b9c4363b", "type": "electric_scooter", "name": "a11e687e69c5095bd9821271b9c4363b"}, {"is_disabled": 0, "is_reserved": 0, "fusion_lat": 0.0, "lat": 38.956230166666664, "fusion_lon": 0.0, "rental_uris": {"ios": "https://dc.lft.to/lastmile_qr_scan", "android": "https://dc.lft.to/lastmile_qr_scan"}, "lon": -77.02207516666667, "bike_id": "da64c7426d4dc234c4bb26984fa35f83", "type": "electric_scooter", "name": "da64c7426d4dc234c4bb26984fa35f83"}, {"is_disabled": 0, "is_reserved": 0, "fusion_lat": 0.0, "lat": 38.92359066666667, "fusion_lon": 0.0, "rental_uris": {"ios": "https://dc.lft.to/lastmile_qr_scan", "android": "https://dc.lft.to/lastmile_qr_scan"}, "lon": -77.0524455, "bike_id": "94cbcbb67c0933630a3f10996f217e78", "type": "electric_scooter", "name": "94cbcbb67c0933630a3f10996f217e78"}, {"is_disabled": 0, "is_reserved": 0, "fusion_lat": 0.0, "lat": 38.92067983333333, "fusion_lon": 0.0, "rental_uris": {"ios": "https://dc.lft.to/lastmile_qr_scan", "android": "https://dc.lft.to/lastmile_qr_scan"}, "lon": -77.02431283333334, "bike_id": "0bbfef9394e177c2ac8bbc552bf6d8ac", "type": "electric_scooter", "name": "0bbfef9394e177c2ac8bbc552bf6d8ac"}, {"is_disabled": 0, "is_reserved": 0, "fusion_lat": 0.0, "lat": 38.95152233333334, "fusion_lon": 0.0, "rental_uris": {"ios": "https://dc.lft.to/lastmile_qr_scan", "android": "https://dc.lft.to/lastmile_qr_scan"}, "lon": -77.018655, "bike_id": "4465776900b024e02cfaf020538d2a9d", "type": "electric_scooter", "name": "4465776900b024e02cfaf020538d2a9d"}, {"is_disabled": 0, "is_reserved": 0, "fusion_lat": 0.0, "lat": 38.89200816666666, "fusion_lon": 0.0, "rental_uris": {"ios": "https://dc.lft.to/lastmile_qr_scan", "android": "https://dc.lft.to/lastmile_qr_scan"}, "lon": -76.9292265, "bike_id": "4760f6ddde0787a7bffeec8896e5a86c", "type": "electric_scooter", "name": "4760f6ddde0787a7bffeec8896e5a86c"}, {"is_disabled": 0, "is_reserved": 0, "fusion_lat": 0.0, "lat": 38.89400283333333, "fusion_lon": 0.0, "rental_uris": {"ios": "https://dc.lft.to/lastmile_qr_scan", "android": "https://dc.lft.to/lastmile_qr_scan"}, "lon": -77.02369283333333, "bike_id": "f15989cdc693e5757c7b21b6b576def2", "type": "electric_scooter", "name": "f15989cdc693e5757c7b21b6b576def2"}, {"is_disabled": 0, "is_reserved": 0, "fusion_lat": 0.0, "lat": 38.92711033333333, "fusion_lon": 0.0, "rental_uris": {"ios": "https://dc.lft.to/lastmile_qr_scan", "android": "https://dc.lft.to/lastmile_qr_scan"}, "lon": -77.02090833333334, "bike_id": "976e92240051919516828ab363beb24b", "type": "electric_scooter", "name": "976e92240051919516828ab363beb24b"}, {"is_disabled": 0, "is_reserved": 0, "fusion_lat": 0.0, "lat": 38.899306, "fusion_lon": 0.0, "rental_uris": {"ios": "https://dc.lft.to/lastmile_qr_scan", "android": "https://dc.lft.to/lastmile_qr_scan"}, "lon": -77.00163033333334, "bike_id": "7ce028b5c7131a45944b06c2d625cffe", "type": "electric_bike", "name": "7ce028b5c7131a45944b06c2d625cffe"}, {"is_disabled": 0, "is_reserved": 0, "fusion_lat": 0.0, "lat": 38.909196666666666, "fusion_lon": 0.0, "rental_uris": {"ios": "https://dc.lft.to/lastmile_qr_scan", "android": "https://dc.lft.to/lastmile_qr_scan"}, "lon": -77.04575483333333, "bike_id": "5df126ee23ae75e98fa0db32d2a528e1", "type": "electric_scooter", "name": "5df126ee23ae75e98fa0db32d2a528e1"}, {"is_disabled": 0, "is_reserved": 0, "fusion_lat": 0.0, "lat": 38.91663783333333, "fusion_lon": 0.0, "rental_uris": {"ios": "https://dc.lft.to/lastmile_qr_scan", "android": "https://dc.lft.to/lastmile_qr_scan"}, "lon": -77.00049483333333, "bike_id": "90a9cb6cadc10fc6a00b1eefb7e58800", "type": "electric_scooter", "name": "90a9cb6cadc10fc6a00b1eefb7e58800"}, {"is_disabled": 0, "is_reserved": 0, "fusion_lat": 0.0, "lat": 38.9249565, "fusion_lon": 0.0, "rental_uris": {"ios": "https://dc.lft.to/lastmile_qr_scan", "android": "https://dc.lft.to/lastmile_qr_scan"}, "lon": -77.04257933333334, "bike_id": "71c45df11be44031569376df60b543e0", "type": "electric_bike", "name": "71c45df11be44031569376df60b543e0"}, {"is_disabled": 0, "is_reserved": 0, "fusion_lat": 0.0, "lat": 38.83602166666667, "fusion_lon": 0.0, "rental_uris": {"ios": "https://dc.lft.to/lastmile_qr_scan", "android": "https://dc.lft.to/lastmile_qr_scan"}, "lon": -77.00374316666667, "bike_id": "e08f46bc1cb5a03af2b53da16640d3ba", "type": "electric_bike", "name": "e08f46bc1cb5a03af2b53da16640d3ba"}, {"is_disabled": 0, "is_reserved": 0, "fusion_lat": 0.0, "lat": 38.92321866666666, "fusion_lon": 0.0, "rental_uris": {"ios": "https://dc.lft.to/lastmile_qr_scan", "android": "https://dc.lft.to/lastmile_qr_scan"}, "lon": -77.02812233333333, "bike_id": "9f97141d9dd82b484a5bffa573448744", "type": "electric_scooter", "name": "9f97141d9dd82b484a5bffa573448744"}, {"is_disabled": 0, "is_reserved": 0, "fusion_lat": 0.0, "lat": 38.8584235, "fusion_lon": 0.0, "rental_uris": {"ios": "https://dc.lft.to/lastmile_qr_scan", "android": "https://dc.lft.to/lastmile_qr_scan"}, "lon": -76.98826133333333, "bike_id": "17cd0556a2892a84e7e53a8248262feb", "type": "electric_scooter", "name": "17cd0556a2892a84e7e53a8248262feb"}, {"is_disabled": 0, "is_reserved": 0, "fusion_lat": 0.0, "lat": 38.91834383333333, "fusion_lon": 0.0, "rental_uris": {"ios": "https://dc.lft.to/lastmile_qr_scan", "android": "https://dc.lft.to/lastmile_qr_scan"}, "lon": -77.04016316666667, "bike_id": "2500a51e25d4c18d7ef797a8d7952753", "type": "electric_scooter", "name": "2500a51e25d4c18d7ef797a8d7952753"}, {"is_disabled": 0, "is_reserved": 0, "fusion_lat": 0.0, "lat": 38.924151, "fusion_lon": 0.0, "rental_uris": {"ios": "https://dc.lft.to/lastmile_qr_scan", "android": "https://dc.lft.to/lastmile_qr_scan"}, "lon": -77.0200905, "bike_id": "50d539c73530b54358f6b3e648ec9b68", "type": "electric_scooter", "name": "50d539c73530b54358f6b3e648ec9b68"}, {"is_disabled": 0, "is_reserved": 0, "fusion_lat": 0.0, "lat": 38.857908, "fusion_lon": 0.0, "rental_uris": {"ios": "https://dc.lft.to/lastmile_qr_scan", "android": "https://dc.lft.to/lastmile_qr_scan"}, "lon": -76.9875485, "bike_id": "2c212526cddd3b7b8ddfaa2e9fb8bd23", "type": "electric_bike", "name": "2c212526cddd3b7b8ddfaa2e9fb8bd23"}, {"is_disabled": 0, "is_reserved": 0, "fusion_lat": 0.0, "lat": 38.923938166666666, "fusion_lon": 0.0, "rental_uris": {"ios": "https://dc.lft.to/lastmile_qr_scan", "android": "https://dc.lft.to/lastmile_qr_scan"}, "lon": -77.036558, "bike_id": "0e8c83fde1c40d4f0b040861617f2982", "type": "electric_scooter", "name": "0e8c83fde1c40d4f0b040861617f2982"}, {"is_disabled": 0, "is_reserved": 0, "fusion_lat": 0.0, "lat": 38.91817, "fusion_lon": 0.0, "rental_uris": {"ios": "https://dc.lft.to/lastmile_qr_scan", "android": "https://dc.lft.to/lastmile_qr_scan"}, "lon": -77.012101, "bike_id": "987938e113398dda1a330e11a8213707", "type": "electric_scooter", "name": "987938e113398dda1a330e11a8213707"}, {"is_disabled": 0, "is_reserved": 0, "fusion_lat": 0.0, "lat": 38.92700116666666, "fusion_lon": 0.0, "rental_uris": {"ios": "https://dc.lft.to/lastmile_qr_scan", "android": "https://dc.lft.to/lastmile_qr_scan"}, "lon": -77.03726833333333, "bike_id": "c105e6aad2016868196aa53eed21ea18", "type": "electric_scooter", "name": "c105e6aad2016868196aa53eed21ea18"}, {"is_disabled": 0, "is_reserved": 0, "fusion_lat": 0.0, "lat": 38.910509, "fusion_lon": 0.0, "rental_uris": {"ios": "https://dc.lft.to/lastmile_qr_scan", "android": "https://dc.lft.to/lastmile_qr_scan"}, "lon": -77.060948, "bike_id": "c0439db77dbaea83dfdc1b1fecaf0778", "type": "electric_scooter", "name": "c0439db77dbaea83dfdc1b1fecaf0778"}, {"is_disabled": 0, "is_reserved": 0, "fusion_lat": 0.0, "lat": 38.92715066666667, "fusion_lon": 0.0, "rental_uris": {"ios": "https://dc.lft.to/lastmile_qr_scan", "android": "https://dc.lft.to/lastmile_qr_scan"}, "lon": -77.05145566666667, "bike_id": "ce3e0105e3c5ae054de9039b07f643b0", "type": "electric_scooter", "name": "ce3e0105e3c5ae054de9039b07f643b0"}, {"is_disabled": 0, "is_reserved": 0, "fusion_lat": 0.0, "lat": 38.898763833333334, "fusion_lon": 0.0, "rental_uris": {"ios": "https://dc.lft.to/lastmile_qr_scan", "android": "https://dc.lft.to/lastmile_qr_scan"}, "lon": -76.93177333333334, "bike_id": "a50bc8a19b12287caccad4760a0542f9", "type": "electric_scooter", "name": "a50bc8a19b12287caccad4760a0542f9"}, {"is_disabled": 0, "is_reserved": 0, "fusion_lat": 0.0, "lat": 38.92245883333333, "fusion_lon": 0.0, "rental_uris": {"ios": "https://dc.lft.to/lastmile_qr_scan", "android": "https://dc.lft.to/lastmile_qr_scan"}, "lon": -77.031924, "bike_id": "b2d1a1982912cdb19b7afa274213f9b7", "type": "electric_scooter", "name": "b2d1a1982912cdb19b7afa274213f9b7"}, {"is_disabled": 0, "is_reserved": 0, "fusion_lat": 0.0, "lat": 38.959265, "fusion_lon": 0.0, "rental_uris": {"ios": "https://dc.lft.to/lastmile_qr_scan", "android": "https://dc.lft.to/lastmile_qr_scan"}, "lon": -76.92515566666667, "bike_id": "ccfe5dda7539e154ce118aef41bcf66a", "type": "electric_bike", "name": "ccfe5dda7539e154ce118aef41bcf66a"}, {"is_disabled": 0, "is_reserved": 0, "fusion_lat": 0.0, "lat": 38.904649, "fusion_lon": 0.0, "rental_uris": {"ios": "https://dc.lft.to/lastmile_qr_scan", "android": "https://dc.lft.to/lastmile_qr_scan"}, "lon": -77.03894166666667, "bike_id": "a79e79d9c51e6599172f37905cb7827f", "type": "electric_scooter", "name": "a79e79d9c51e6599172f37905cb7827f"}, {"is_disabled": 0, "is_reserved": 0, "fusion_lat": 0.0, "lat": 38.8995665, "fusion_lon": 0.0, "rental_uris": {"ios": "https://dc.lft.to/lastmile_qr_scan", "android": "https://dc.lft.to/lastmile_qr_scan"}, "lon": -77.0477005, "bike_id": "639b0e6335946c70f3e5f94a6522fb93", "type": "electric_scooter", "name": "639b0e6335946c70f3e5f94a6522fb93"}, {"is_disabled": 0, "is_reserved": 0, "fusion_lat": 0.0, "lat": 38.863710166666664, "fusion_lon": 0.0, "rental_uris": {"ios": "https://dc.lft.to/lastmile_qr_scan", "android": "https://dc.lft.to/lastmile_qr_scan"}, "lon": -77.01366, "bike_id": "05f0e00f4b87a3cf601ba72fddccdcff", "type": "electric_scooter", "name": "05f0e00f4b87a3cf601ba72fddccdcff"}, {"is_disabled": 0, "is_reserved": 0, "fusion_lat": 0.0, "lat": 38.880113, "fusion_lon": 0.0, "rental_uris": {"ios": "https://dc.lft.to/lastmile_qr_scan", "android": "https://dc.lft.to/lastmile_qr_scan"}, "lon": -76.9974155, "bike_id": "7a7cde54ab7573330397bb39833d80d3", "type": "electric_scooter", "name": "7a7cde54ab7573330397bb39833d80d3"}, {"is_disabled": 0, "is_reserved": 0, "fusion_lat": 0.0, "lat": 38.89244433333333, "fusion_lon": 0.0, "rental_uris": {"ios": "https://dc.lft.to/lastmile_qr_scan", "android": "https://dc.lft.to/lastmile_qr_scan"}, "lon": -77.039576, "bike_id": "9ff2e4f88e8a851897d76e3b9fd193a8", "type": "electric_scooter", "name": "9ff2e4f88e8a851897d76e3b9fd193a8"}, {"is_disabled": 0, "is_reserved": 0, "fusion_lat": 0.0, "lat": 38.9188425, "fusion_lon": 0.0, "rental_uris": {"ios": "https://dc.lft.to/lastmile_qr_scan", "android": "https://dc.lft.to/lastmile_qr_scan"}, "lon": -77.04176216666667, "bike_id": "ccf315e836da74313ce2186a1e77c68e", "type": "electric_scooter", "name": "ccf315e836da74313ce2186a1e77c68e"}, {"is_disabled": 0, "is_reserved": 0, "fusion_lat": 0.0, "lat": 38.8966775, "fusion_lon": 0.0, "rental_uris": {"ios": "https://dc.lft.to/lastmile_qr_scan", "android": "https://dc.lft.to/lastmile_qr_scan"}, "lon": -76.949135, "bike_id": "0cceaf278425815b90bd73d33eac8488", "type": "electric_scooter", "name": "0cceaf278425815b90bd73d33eac8488"}, {"is_disabled": 0, "is_reserved": 0, "fusion_lat": 0.0, "lat": 38.93397266666667, "fusion_lon": 0.0, "rental_uris": {"ios": "https://dc.lft.to/lastmile_qr_scan", "android": "https://dc.lft.to/lastmile_qr_scan"}, "lon": -77.02614083333333, "bike_id": "628f0b6c435e8e4f54ca8d52a9822845", "type": "electric_scooter", "name": "628f0b6c435e8e4f54ca8d52a9822845"}, {"is_disabled": 0, "is_reserved": 0, "fusion_lat": 0.0, "lat": 38.90371433333333, "fusion_lon": 0.0, "rental_uris": {"ios": "https://dc.lft.to/lastmile_qr_scan", "android": "https://dc.lft.to/lastmile_qr_scan"}, "lon": -77.01660366666667, "bike_id": "6f9d9a3a5469d01276339bc42e50758f", "type": "electric_scooter", "name": "6f9d9a3a5469d01276339bc42e50758f"}, {"is_disabled": 0, "is_reserved": 0, "fusion_lat": 0.0, "lat": 38.90363083333333, "fusion_lon": 0.0, "rental_uris": {"ios": "https://dc.lft.to/lastmile_qr_scan", "android": "https://dc.lft.to/lastmile_qr_scan"}, "lon": -77.00348983333333, "bike_id": "d4e1bab5af277c643b30c91e0857b634", "type": "electric_scooter", "name": "d4e1bab5af277c643b30c91e0857b634"}, {"is_disabled": 0, "is_reserved": 0, "fusion_lat": 0.0, "lat": 38.91174766666666, "fusion_lon": 0.0, "rental_uris": {"ios": "https://dc.lft.to/lastmile_qr_scan", "android": "https://dc.lft.to/lastmile_qr_scan"}, "lon": -77.00449183333333, "bike_id": "4e69478da5e406ab44464a493f96654f", "type": "electric_scooter", "name": "4e69478da5e406ab44464a493f96654f"}, {"is_disabled": 0, "is_reserved": 0, "fusion_lat": 0.0, "lat": 38.91793833333333, "fusion_lon": 0.0, "rental_uris": {"ios": "https://dc.lft.to/lastmile_qr_scan", "android": "https://dc.lft.to/lastmile_qr_scan"}, "lon": -77.03426416666667, "bike_id": "09012fe308ac50e21216d2039f21bbcf", "type": "electric_scooter", "name": "09012fe308ac50e21216d2039f21bbcf"}, {"is_disabled": 0, "is_reserved": 0, "fusion_lat": 0.0, "lat": 38.93398583333333, "fusion_lon": 0.0, "rental_uris": {"ios": "https://dc.lft.to/lastmile_qr_scan", "android": "https://dc.lft.to/lastmile_qr_scan"}, "lon": -77.03520383333333, "bike_id": "369208eb87cffd2aeac7b45f4d9f8ab9", "type": "electric_scooter", "name": "369208eb87cffd2aeac7b45f4d9f8ab9"}, {"is_disabled": 0, "is_reserved": 0, "fusion_lat": 0.0, "lat": 38.91829883333333, "fusion_lon": 0.0, "rental_uris": {"ios": "https://dc.lft.to/lastmile_qr_scan", "android": "https://dc.lft.to/lastmile_qr_scan"}, "lon": -77.02302416666667, "bike_id": "1225dc7eb0abfc15f9dc56dc289b0341", "type": "electric_scooter", "name": "1225dc7eb0abfc15f9dc56dc289b0341"}, {"is_disabled": 0, "is_reserved": 0, "fusion_lat": 0.0, "lat": 38.9156575, "fusion_lon": 0.0, "rental_uris": {"ios": "https://dc.lft.to/lastmile_qr_scan", "android": "https://dc.lft.to/lastmile_qr_scan"}, "lon": -77.03636416666667, "bike_id": "55a09c3940ee8e98924d997173f3a7c7", "type": "electric_scooter", "name": "55a09c3940ee8e98924d997173f3a7c7"}, {"is_disabled": 0, "is_reserved": 0, "fusion_lat": 0.0, "lat": 38.905550166666664, "fusion_lon": 0.0, "rental_uris": {"ios": "https://dc.lft.to/lastmile_qr_scan", "android": "https://dc.lft.to/lastmile_qr_scan"}, "lon": -77.0259135, "bike_id": "155d49f920abcf1a8bffc5be67c6a4f1", "type": "electric_scooter", "name": "155d49f920abcf1a8bffc5be67c6a4f1"}, {"is_disabled": 0, "is_reserved": 0, "fusion_lat": 0.0, "lat": 38.8924115, "fusion_lon": 0.0, "rental_uris": {"ios": "https://dc.lft.to/lastmile_qr_scan", "android": "https://dc.lft.to/lastmile_qr_scan"}, "lon": -77.03956333333333, "bike_id": "e1d96f782593f9ba06c2bf85bc63b43d", "type": "electric_scooter", "name": "e1d96f782593f9ba06c2bf85bc63b43d"}, {"is_disabled": 0, "is_reserved": 0, "fusion_lat": 0.0, "lat": 38.926153166666666, "fusion_lon": 0.0, "rental_uris": {"ios": "https://dc.lft.to/lastmile_qr_scan", "android": "https://dc.lft.to/lastmile_qr_scan"}, "lon": -76.990553, "bike_id": "8f3ca185b957c0836331d5932621c18d", "type": "electric_scooter", "name": "8f3ca185b957c0836331d5932621c18d"}, {"is_disabled": 0, "is_reserved": 0, "fusion_lat": 0.0, "lat": 38.858012, "fusion_lon": 0.0, "rental_uris": {"ios": "https://dc.lft.to/lastmile_qr_scan", "android": "https://dc.lft.to/lastmile_qr_scan"}, "lon": -76.98748566666667, "bike_id": "4a20ad9e4b8f23f0aac63f027e982269", "type": "electric_bike", "name": "4a20ad9e4b8f23f0aac63f027e982269"}, {"is_disabled": 0, "is_reserved": 0, "fusion_lat": 0.0, "lat": 39.026235, "fusion_lon": 0.0, "rental_uris": {"ios": "https://dc.lft.to/lastmile_qr_scan", "android": "https://dc.lft.to/lastmile_qr_scan"}, "lon": -77.03881316666667, "bike_id": "08a8a95bcdacc06d63388d9bb069ded9", "type": "electric_bike", "name": "08a8a95bcdacc06d63388d9bb069ded9"}, {"is_disabled": 0, "is_reserved": 0, "fusion_lat": 0.0, "lat": 38.92681833333333, "fusion_lon": 0.0, "rental_uris": {"ios": "https://dc.lft.to/lastmile_qr_scan", "android": "https://dc.lft.to/lastmile_qr_scan"}, "lon": -77.00858366666667, "bike_id": "914e4c2108d45d25c0c9d2947c8a9147", "type": "electric_scooter", "name": "914e4c2108d45d25c0c9d2947c8a9147"}, {"is_disabled": 0, "is_reserved": 0, "fusion_lat": 0.0, "lat": 38.906421, "fusion_lon": 0.0, "rental_uris": {"ios": "https://dc.lft.to/lastmile_qr_scan", "android": "https://dc.lft.to/lastmile_qr_scan"}, "lon": -77.07021116666667, "bike_id": "7fe20dc086c225c9eff069ed0f01b2ce", "type": "electric_scooter", "name": "7fe20dc086c225c9eff069ed0f01b2ce"}, {"is_disabled": 0, "is_reserved": 0, "fusion_lat": 0.0, "lat": 38.88711633333333, "fusion_lon": 0.0, "rental_uris": {"ios": "https://dc.lft.to/lastmile_qr_scan", "android": "https://dc.lft.to/lastmile_qr_scan"}, "lon": -76.98338966666667, "bike_id": "81257dc7ad5fb6b5210b074c6b22eafc", "type": "electric_scooter", "name": "81257dc7ad5fb6b5210b074c6b22eafc"}, {"is_disabled": 0, "is_reserved": 0, "fusion_lat": 0.0, "lat": 38.918230666666666, "fusion_lon": 0.0, "rental_uris": {"ios": "https://dc.lft.to/lastmile_qr_scan", "android": "https://dc.lft.to/lastmile_qr_scan"}, "lon": -77.023078, "bike_id": "b36aad58d33a6c2c1be5df8fa2937be3", "type": "electric_scooter", "name": "b36aad58d33a6c2c1be5df8fa2937be3"}, {"is_disabled": 0, "is_reserved": 0, "fusion_lat": 0.0, "lat": 38.899052, "fusion_lon": 0.0, "rental_uris": {"ios": "https://dc.lft.to/lastmile_qr_scan", "android": "https://dc.lft.to/lastmile_qr_scan"}, "lon": -77.01982783333334, "bike_id": "1dcccca1f5c1cfc38d7790580aa7755e", "type": "electric_scooter", "name": "1dcccca1f5c1cfc38d7790580aa7755e"}, {"is_disabled": 0, "is_reserved": 0, "fusion_lat": 0.0, "lat": 38.90955133333333, "fusion_lon": 0.0, "rental_uris": {"ios": "https://dc.lft.to/lastmile_qr_scan", "android": "https://dc.lft.to/lastmile_qr_scan"}, "lon": -77.02575466666667, "bike_id": "badd1b03d137ec30e0f7097264d66f53", "type": "electric_scooter", "name": "badd1b03d137ec30e0f7097264d66f53"}, {"is_disabled": 0, "is_reserved": 0, "fusion_lat": 0.0, "lat": 38.880226666666665, "fusion_lon": 0.0, "rental_uris": {"ios": "https://dc.lft.to/lastmile_qr_scan", "android": "https://dc.lft.to/lastmile_qr_scan"}, "lon": -76.943208, "bike_id": "b38bdf99aca859515e19adcae7e86847", "type": "electric_scooter", "name": "b38bdf99aca859515e19adcae7e86847"}, {"is_disabled": 0, "is_reserved": 0, "fusion_lat": 0.0, "lat": 38.846164333333334, "fusion_lon": 0.0, "rental_uris": {"ios": "https://dc.lft.to/lastmile_qr_scan", "android": "https://dc.lft.to/lastmile_qr_scan"}, "lon": -76.97836366666667, "bike_id": "0f6ce01f04d8ee392c45d5c839fb72b4", "type": "electric_bike", "name": "0f6ce01f04d8ee392c45d5c839fb72b4"}, {"is_disabled": 0, "is_reserved": 0, "fusion_lat": 0.0, "lat": 38.846418166666666, "fusion_lon": 0.0, "rental_uris": {"ios": "https://dc.lft.to/lastmile_qr_scan", "android": "https://dc.lft.to/lastmile_qr_scan"}, "lon": -77.00369983333333, "bike_id": "63be0847c3b5242a71585153f36b7af4", "type": "electric_scooter", "name": "63be0847c3b5242a71585153f36b7af4"}, {"is_disabled": 0, "is_reserved": 0, "fusion_lat": 0.0, "lat": 38.900244666666666, "fusion_lon": 0.0, "rental_uris": {"ios": "https://dc.lft.to/lastmile_qr_scan", "android": "https://dc.lft.to/lastmile_qr_scan"}, "lon": -77.01760833333333, "bike_id": "d77e625a00dc8fb80dd5c044493a8762", "type": "electric_scooter", "name": "d77e625a00dc8fb80dd5c044493a8762"}, {"is_disabled": 0, "is_reserved": 0, "fusion_lat": 0.0, "lat": 38.89814466666667, "fusion_lon": 0.0, "rental_uris": {"ios": "https://dc.lft.to/lastmile_qr_scan", "android": "https://dc.lft.to/lastmile_qr_scan"}, "lon": -77.00213633333334, "bike_id": "0fa888f7928371b44d97594ba7a6e805", "type": "electric_scooter", "name": "0fa888f7928371b44d97594ba7a6e805"}, {"is_disabled": 0, "is_reserved": 0, "fusion_lat": 0.0, "lat": 38.8924995, "fusion_lon": 0.0, "rental_uris": {"ios": "https://dc.lft.to/lastmile_qr_scan", "android": "https://dc.lft.to/lastmile_qr_scan"}, "lon": -77.0395975, "bike_id": "5e37f935da05c5aa76e14f54725921c4", "type": "electric_scooter", "name": "5e37f935da05c5aa76e14f54725921c4"}, {"is_disabled": 0, "is_reserved": 0, "fusion_lat": 0.0, "lat": 38.924371666666666, "fusion_lon": 0.0, "rental_uris": {"ios": "https://dc.lft.to/lastmile_qr_scan", "android": "https://dc.lft.to/lastmile_qr_scan"}, "lon": -77.03404816666666, "bike_id": "87a6705144b26a1ca2506e8be370b0b1", "type": "electric_scooter", "name": "87a6705144b26a1ca2506e8be370b0b1"}, {"is_disabled": 0, "is_reserved": 0, "fusion_lat": 0.0, "lat": 38.92063783333333, "fusion_lon": 0.0, "rental_uris": {"ios": "https://dc.lft.to/lastmile_qr_scan", "android": "https://dc.lft.to/lastmile_qr_scan"},