{"data": {"bikes": [{"name": "67efdc7e35d66a1ac68c450b504521c9", "fusion_lat": 0.0, "type": "electric_scooter", "lat": 38.866536333333336, "is_reserved": 0, "is_disabled": 0, "fusion_lon": 0.0, "bike_id": "67efdc7e35d66a1ac68c450b504521c9", "lon": -76.98895433333334, "rental_uris": {"ios": "https://dc.lft.to/lastmile_qr_scan", "android": "https://dc.lft.to/lastmile_qr_scan"}}, {"name": "bd63ca866f384a3674327e3e2d2be929", "fusion_lat": 0.0, "type": "electric_bike", "lat": 38.92806866666667, "is_reserved": 0, "is_disabled": 0, "fusion_lon": 0.0, "bike_id": "bd63ca866f384a3674327e3e2d2be929", "lon": -77.0436315, "rental_uris": {"ios": "https://dc.lft.to/lastmile_qr_scan", "android": "https://dc.lft.to/lastmile_qr_scan"}}, {"name": "c879208165824e3b1154775ae6a739f9", "fusion_lat": 0.0, "type": "electric_scooter", "lat": 38.923312333333335, "is_reserved": 0, "is_disabled": 0, "fusion_lon": 0.0, "bike_id": "c879208165824e3b1154775ae6a739f9", "lon": -77.03784866666666, "rental_uris": {"ios": "https://dc.lft.to/lastmile_qr_scan", "android": "https://dc.lft.to/lastmile_qr_scan"}}, {"name": "25e092342e2131bd41cd5a9572460546", "fusion_lat": 0.0, "type": "electric_scooter", "lat": 38.8810355, "is_reserved": 0, "is_disabled": 0, "fusion_lon": 0.0, "bike_id": "25e092342e2131bd41cd5a9572460546", "lon": -77.012066, "rental_uris": {"ios": "https://dc.lft.to/lastmile_qr_scan", "android": "https://dc.lft.to/lastmile_qr_scan"}}, {"name": "50f16233ef6a4537a781c53533c5d731", "fusion_lat": 0.0, "type": "electric_scooter", "lat": 38.90660916666667, "is_reserved": 0, "is_disabled": 0, "fusion_lon": 0.0, "bike_id": "50f16233ef6a4537a781c53533c5d731", "lon": -77.0268175, "rental_uris": {"ios": "https://dc.lft.to/lastmile_qr_scan", "android": "https://dc.lft.to/lastmile_qr_scan"}}, {"name": "07798d53edb8767c3717d7d1a72d2c56", "fusion_lat": 0.0, "type": "electric_scooter", "lat": 38.90508583333333, "is_reserved": 0, "is_disabled": 0, "fusion_lon": 0.0, "bike_id": "07798d53edb8767c3717d7d1a72d2c56", "lon": -76.99448516666666, "rental_uris": {"ios": "https://dc.lft.to/lastmile_qr_scan", "android": "https://dc.lft.to/lastmile_qr_scan"}}, {"name": "d603f5c4ed11459471511d8ccc519f82", "fusion_lat": 0.0, "type": "electric_bike", "lat": 38.9654855, "is_reserved": 0, "is_disabled": 0, "fusion_lon": 0.0, "bike_id": "d603f5c4ed11459471511d8ccc519f82", "lon": -77.0351415, "rental_uris": {"ios": "https://dc.lft.to/lastmile_qr_scan", "android": "https://dc.lft.to/lastmile_qr_scan"}}, {"name": "018e3c02450d08d1360663181b73ab77", "fusion_lat": 0.0, "type": "electric_scooter", "lat": 38.920622333333334, "is_reserved": 0, "is_disabled": 0, "fusion_lon": 0.0, "bike_id": "018e3c02450d08d1360663181b73ab77", "lon": -77.046905, "rental_uris": {"ios": "https://dc.lft.to/lastmile_qr_scan", "android": "https://dc.lft.to/lastmile_qr_scan"}}, {"name": "f0cde88bc0d8439e6e5ae12b8d027cb8", "fusion_lat": 0.0, "type": "electric_scooter", "lat": 38.89092616666667, "is_reserved": 0, "is_disabled": 0, "fusion_lon": 0.0, "bike_id": "f0cde88bc0d8439e6e5ae12b8d027cb8", "lon": -76.99785566666667, "rental_uris": {"ios": "https://dc.lft.to/lastmile_qr_scan", "android": "https://dc.lft.to/lastmile_qr_scan"}}, {"name": "57e1a7d080369769167dda79f9204897", "fusion_lat": 0.0, "type": "electric_scooter", "lat": 38.921097833333334, "is_reserved": 0, "is_disabled": 0, "fusion_lon": 0.0, "bike_id": "57e1a7d080369769167dda79f9204897", "lon": -77.03164533333333, "rental_uris": {"ios": "https://dc.lft.to/lastmile_qr_scan", "android": "https://dc.lft.to/lastmile_qr_scan"}}, {"name": "c3d1b5ab66397a21a6fe358b00c6774a", "fusion_lat": 0.0, "type": "electric_scooter", "lat": 38.919852, "is_reserved": 0, "is_disabled": 0, "fusion_lon": 0.0, "bike_id": "c3d1b5ab66397a21a6fe358b00c6774a", "lon": -77.033134, "rental_uris": {"ios": "https://dc.lft.to/lastmile_qr_scan", "android": "https://dc.lft.to/lastmile_qr_scan"}}, {"name": "c4a2bcebaa0c2e97f3ac0c7890e3f045", "fusion_lat": 0.0, "type": "electric_scooter", "lat": 38.891844166666665, "is_reserved": 0, "is_disabled": 0, "fusion_lon": 0.0, "bike_id": "c4a2bcebaa0c2e97f3ac0c7890e3f045", "lon": -77.00332383333334, "rental_uris": {"ios": "https://dc.lft.to/lastmile_qr_scan", "android": "https://dc.lft.to/lastmile_qr_scan"}}, {"name": "f397c8b7f5f88f0360fb5ebfcdc5fa15", "fusion_lat": 0.0, "type": "electric_scooter", "lat": 38.92439533333334, "is_reserved": 0, "is_disabled": 0, "fusion_lon": 0.0, "bike_id": "f397c8b7f5f88f0360fb5ebfcdc5fa15", "lon": -77.04138166666667, "rental_uris": {"ios": "https://dc.lft.to/lastmile_qr_scan", "android": "https://dc.lft.to/lastmile_qr_scan"}}, {"name": "b2b878017620866cbd46656ba8c8dacd", "fusion_lat": 0.0, "type": "electric_scooter", "lat": 38.909655, "is_reserved": 0, "is_disabled": 0, "fusion_lon": 0.0, "bike_id": "b2b878017620866cbd46656ba8c8dacd", "lon": -77.04315433333333, "rental_uris": {"ios": "https://dc.lft.to/lastmile_qr_scan", "android": "https://dc.lft.to/lastmile_qr_scan"}}, {"name": "33ec85afe01a2756a29384ae3765601b", "fusion_lat": 0.0, "type": "electric_scooter", "lat": 38.93179416666667, "is_reserved": 0, "is_disabled": 0, "fusion_lon": 0.0, "bike_id": "33ec85afe01a2756a29384ae3765601b", "lon": -77.05606166666666, "rental_uris": {"ios": "https://dc.lft.to/lastmile_qr_scan", "android": "https://dc.lft.to/lastmile_qr_scan"}}, {"name": "9944adc6ac7af59074a8932da3495116", "fusion_lat": 0.0, "type": "electric_bike", "lat": 38.85229133333333, "is_reserved": 0, "is_disabled": 0, "fusion_lon": 0.0, "bike_id": "9944adc6ac7af59074a8932da3495116", "lon": -77.10334433333334, "rental_uris": {"ios": "https://dc.lft.to/lastmile_qr_scan", "android": "https://dc.lft.to/lastmile_qr_scan"}}, {"name": "16d4908d1866126c71cdfec17772df65", "fusion_lat": 0.0, "type": "electric_scooter", "lat": 38.911377333333334, "is_reserved": 0, "is_disabled": 0, "fusion_lon": 0.0, "bike_id": "16d4908d1866126c71cdfec17772df65", "lon": -77.041964, "rental_uris": {"ios": "https://dc.lft.to/lastmile_qr_scan", "android": "https://dc.lft.to/lastmile_qr_scan"}}, {"name": "48d23b4855264f7bf787d52febf54b55", "fusion_lat": 0.0, "type": "electric_scooter", "lat": 38.93400416666667, "is_reserved": 0, "is_disabled": 0, "fusion_lon": 0.0, "bike_id": "48d23b4855264f7bf787d52febf54b55", "lon": -77.02731066666666, "rental_uris": {"ios": "https://dc.lft.to/lastmile_qr_scan", "android": "https://dc.lft.to/lastmile_qr_scan"}}, {"name": "788ea019a57de64462cc4311ddc95506", "fusion_lat": 0.0, "type": "electric_scooter", "lat": 38.90291783333333, "is_reserved": 0, "is_disabled": 0, "fusion_lon": 0.0, "bike_id": "788ea019a57de64462cc4311ddc95506", "lon": -77.04599866666666, "rental_uris": {"ios": "https://dc.lft.to/lastmile_qr_scan", "android": "https://dc.lft.to/lastmile_qr_scan"}}, {"name": "738bfe5cbdd774fed6b00a5384ce2392", "fusion_lat": 0.0, "type": "electric_scooter", "lat": 38.8803775, "is_reserved": 0, "is_disabled": 0, "fusion_lon": 0.0, "bike_id": "738bfe5cbdd774fed6b00a5384ce2392", "lon": -76.92721766666666, "rental_uris": {"ios": "https://dc.lft.to/lastmile_qr_scan", "android": "https://dc.lft.to/lastmile_qr_scan"}}, {"name": "4d058a8403a334675ab750aa66967d27", "fusion_lat": 0.0, "type": "electric_bike", "lat": 38.88041333333334, "is_reserved": 0, "is_disabled": 0, "fusion_lon": 0.0, "bike_id": "4d058a8403a334675ab750aa66967d27", "lon": -77.01318466666666, "rental_uris": {"ios": "https://dc.lft.to/lastmile_qr_scan", "android": "https://dc.lft.to/lastmile_qr_scan"}}, {"name": "23b9b3ee8712eb5da4b2b09204c80531", "fusion_lat": 0.0, "type": "electric_scooter", "lat": 38.9049555, "is_reserved": 0, "is_disabled": 0, "fusion_lon": 0.0, "bike_id": "23b9b3ee8712eb5da4b2b09204c80531", "lon": -77.04333916666667, "rental_uris": {"ios": "https://dc.lft.to/lastmile_qr_scan", "android": "https://dc.lft.to/lastmile_qr_scan"}}, {"name": "2a75b4d800f8c060f3ae64d4ff740e3c", "fusion_lat": 0.0, "type": "electric_scooter", "lat": 38.906266, "is_reserved": 0, "is_disabled": 0, "fusion_lon": 0.0, "bike_id": "2a75b4d800f8c060f3ae64d4ff740e3c", "lon": -77.03647466666666, "rental_uris": {"ios": "https://dc.lft.to/lastmile_qr_scan", "android": "https://dc.lft.to/lastmile_qr_scan"}}, {"name": "2b6fd22a6c6abd002d7313072a41376e", "fusion_lat": 0.0, "type": "electric_scooter", "lat": 38.914122666666664, "is_reserved": 0, "is_disabled": 0, "fusion_lon": 0.0, "bike_id": "2b6fd22a6c6abd002d7313072a41376e", "lon": -77.045727, "rental_uris": {"ios": "https://dc.lft.to/lastmile_qr_scan", "android": "https://dc.lft.to/lastmile_qr_scan"}}, {"name": "5bcb02a25f0034f42467c390caf4dac2", "fusion_lat": 0.0, "type": "electric_scooter", "lat": 38.91681966666667, "is_reserved": 0, "is_disabled": 0, "fusion_lon": 0.0, "bike_id": "5bcb02a25f0034f42467c390caf4dac2", "lon": -77.012202, "rental_uris": {"ios": "https://dc.lft.to/lastmile_qr_scan", "android": "https://dc.lft.to/lastmile_qr_scan"}}, {"name": "a51fbe06da15002842297b73c06fe8c5", "fusion_lat": 0.0, "type": "electric_scooter", "lat": 38.863685833333335, "is_reserved": 0, "is_disabled": 0, "fusion_lon": 0.0, "bike_id": "a51fbe06da15002842297b73c06fe8c5", "lon": -77.01361866666667, "rental_uris": {"ios": "https://dc.lft.to/lastmile_qr_scan", "android": "https://dc.lft.to/lastmile_qr_scan"}}, {"name": "6afd9a5c8ce01cfc439fd6a49da3a00f", "fusion_lat": 0.0, "type": "electric_scooter", "lat": 38.890161166666665, "is_reserved": 0, "is_disabled": 0, "fusion_lon": 0.0, "bike_id": "6afd9a5c8ce01cfc439fd6a49da3a00f", "lon": -76.93733616666667, "rental_uris": {"ios": "https://dc.lft.to/lastmile_qr_scan", "android": "https://dc.lft.to/lastmile_qr_scan"}}, {"name": "690d4a785590d1176c5fc73d76fd04d2", "fusion_lat": 0.0, "type": "electric_scooter", "lat": 38.90151816666667, "is_reserved": 0, "is_disabled": 0, "fusion_lon": 0.0, "bike_id": "690d4a785590d1176c5fc73d76fd04d2", "lon": -77.02551116666666, "rental_uris": {"ios": "https://dc.lft.to/lastmile_qr_scan", "android": "https://dc.lft.to/lastmile_qr_scan"}}, {"name": "ef0c79201888c27c37e901d611154811", "fusion_lat": 0.0, "type": "electric_scooter", "lat": 38.897369833333336, "is_reserved": 0, "is_disabled": 0, "fusion_lon": 0.0, "bike_id": "ef0c79201888c27c37e901d611154811", "lon": -77.04769316666666, "rental_uris": {"ios": "https://dc.lft.to/lastmile_qr_scan", "android": "https://dc.lft.to/lastmile_qr_scan"}}, {"name": "5267c54be8fd4a7ef96428d1dc4a1e45", "fusion_lat": 0.0, "type": "electric_bike", "lat": 38.9284975, "is_reserved": 0, "is_disabled": 0, "fusion_lon": 0.0, "bike_id": "5267c54be8fd4a7ef96428d1dc4a1e45", "lon": -77.10677083333333, "rental_uris": {"ios": "https://dc.lft.to/lastmile_qr_scan", "android": "https://dc.lft.to/lastmile_qr_scan"}}, {"name": "e1ae27d40d7ebed10b67883f1296a2e9", "fusion_lat": 0.0, "type": "electric_scooter", "lat": 38.897304166666665, "is_reserved": 0, "is_disabled": 0, "fusion_lon": 0.0, "bike_id": "e1ae27d40d7ebed10b67883f1296a2e9", "lon": -77.04339566666667, "rental_uris": {"ios": "https://dc.lft.to/lastmile_qr_scan", "android": "https://dc.lft.to/lastmile_qr_scan"}}, {"name": "84b5fc93cc91683544ec0c0e33677fb9", "fusion_lat": 0.0, "type": "electric_scooter", "lat": 38.912510166666664, "is_reserved": 0, "is_disabled": 0, "fusion_lon": 0.0, "bike_id": "84b5fc93cc91683544ec0c0e33677fb9", "lon": -77.00760283333334, "rental_uris": {"ios": "https://dc.lft.to/lastmile_qr_scan", "android": "https://dc.lft.to/lastmile_qr_scan"}}, {"name": "5f515cd0013649bef6ecfc14e6273a6b", "fusion_lat": 0.0, "type": "electric_scooter", "lat": 38.9028375, "is_reserved": 0, "is_disabled": 0, "fusion_lon": 0.0, "bike_id": "5f515cd0013649bef6ecfc14e6273a6b", "lon": -77.04275083333333, "rental_uris": {"ios": "https://dc.lft.to/lastmile_qr_scan", "android": "https://dc.lft.to/lastmile_qr_scan"}}, {"name": "71c285091c7246bd4ba61020e67d1eb6", "fusion_lat": 0.0, "type": "electric_scooter", "lat": 38.930589499999996, "is_reserved": 0, "is_disabled": 0, "fusion_lon": 0.0, "bike_id": "71c285091c7246bd4ba61020e67d1eb6", "lon": -77.02318466666667, "rental_uris": {"ios": "https://dc.lft.to/lastmile_qr_scan", "android": "https://dc.lft.to/lastmile_qr_scan"}}, {"name": "16ecec1e5d652027914b2cae4287be66", "fusion_lat": 0.0, "type": "electric_scooter", "lat": 38.92708, "is_reserved": 0, "is_disabled": 0, "fusion_lon": 0.0, "bike_id": "16ecec1e5d652027914b2cae4287be66", "lon": -77.03733916666667, "rental_uris": {"ios": "https://dc.lft.to/lastmile_qr_scan", "android": "https://dc.lft.to/lastmile_qr_scan"}}, {"name": "1386a729bf2c1a622d82129e90bac747", "fusion_lat": 0.0, "type": "electric_scooter", "lat": 38.93696216666667, "is_reserved": 0, "is_disabled": 0, "fusion_lon": 0.0, "bike_id": "1386a729bf2c1a622d82129e90bac747", "lon": -77.056026, "rental_uris": {"ios": "https://dc.lft.to/lastmile_qr_scan", "android": "https://dc.lft.to/lastmile_qr_scan"}}, {"name": "d1f746e206313be1466a4aa21ab84b8d", "fusion_lat": 0.0, "type": "electric_scooter", "lat": 38.923840166666665, "is_reserved": 0, "is_disabled": 0, "fusion_lon": 0.0, "bike_id": "d1f746e206313be1466a4aa21ab84b8d", "lon": -77.02969916666666, "rental_uris": {"ios": "https://dc.lft.to/lastmile_qr_scan", "android": "https://dc.lft.to/lastmile_qr_scan"}}, {"name": "f6fda11b56e7898631a83b29163516a1", "fusion_lat": 0.0, "type": "electric_scooter", "lat": 38.92086116666667, "is_reserved": 0, "is_disabled": 0, "fusion_lon": 0.0, "bike_id": "f6fda11b56e7898631a83b29163516a1", "lon": -77.03167516666667, "rental_uris": {"ios": "https://dc.lft.to/lastmile_qr_scan", "android": "https://dc.lft.to/lastmile_qr_scan"}}, {"name": "e8b3ad9ec8928e6c1ee512b07b763d58", "fusion_lat": 0.0, "type": "electric_scooter", "lat": 38.87673266666667, "is_reserved": 0, "is_disabled": 0, "fusion_lon": 0.0, "bike_id": "e8b3ad9ec8928e6c1ee512b07b763d58", "lon": -77.00359016666667, "rental_uris": {"ios": "https://dc.lft.to/lastmile_qr_scan", "android": "https://dc.lft.to/lastmile_qr_scan"}}, {"name": "8793541f7e832463ff810a5fe5588eb4", "fusion_lat": 0.0, "type": "electric_scooter", "lat": 38.91811633333333, "is_reserved": 0, "is_disabled": 0, "fusion_lon": 0.0, "bike_id": "8793541f7e832463ff810a5fe5588eb4", "lon": -77.04003166666666, "rental_uris": {"ios": "https://dc.lft.to/lastmile_qr_scan", "android": "https://dc.lft.to/lastmile_qr_scan"}}, {"name": "83025b7664db00963a1a6db29c463d0f", "fusion_lat": 0.0, "type": "electric_scooter", "lat": 38.931053166666665, "is_reserved": 0, "is_disabled": 0, "fusion_lon": 0.0, "bike_id": "83025b7664db00963a1a6db29c463d0f", "lon": -77.02400616666667, "rental_uris": {"ios": "https://dc.lft.to/lastmile_qr_scan", "android": "https://dc.lft.to/lastmile_qr_scan"}}, {"name": "c878b3d296238d5782eaa84445ccfcc3", "fusion_lat": 0.0, "type": "electric_scooter", "lat": 38.898763833333334, "is_reserved": 0, "is_disabled": 0, "fusion_lon": 0.0, "bike_id": "c878b3d296238d5782eaa84445ccfcc3", "lon": -76.93158733333334, "rental_uris": {"ios": "https://dc.lft.to/lastmile_qr_scan", "android": "https://dc.lft.to/lastmile_qr_scan"}}, {"name": "a5d18e4afd01bac51895a2fab6ba7519", "fusion_lat": 0.0, "type": "electric_scooter", "lat": 38.86140983333333, "is_reserved": 0, "is_disabled": 0, "fusion_lon": 0.0, "bike_id": "a5d18e4afd01bac51895a2fab6ba7519", "lon": -76.98916483333333, "rental_uris": {"ios": "https://dc.lft.to/lastmile_qr_scan", "android": "https://dc.lft.to/lastmile_qr_scan"}}, {"name": "4dc01095cd2e2f858bcda99e7c22314b", "fusion_lat": 0.0, "type": "electric_scooter", "lat": 38.920617, "is_reserved": 0, "is_disabled": 0, "fusion_lon": 0.0, "bike_id": "4dc01095cd2e2f858bcda99e7c22314b", "lon": -77.02713, "rental_uris": {"ios": "https://dc.lft.to/lastmile_qr_scan", "android": "https://dc.lft.to/lastmile_qr_scan"}}, {"name": "960fb74d500baa30fcf0e4618e6e379d", "fusion_lat": 0.0, "type": "electric_scooter", "lat": 38.933347499999996, "is_reserved": 0, "is_disabled": 0, "fusion_lon": 0.0, "bike_id": "960fb74d500baa30fcf0e4618e6e379d", "lon": -77.02742816666667, "rental_uris": {"ios": "https://dc.lft.to/lastmile_qr_scan", "android": "https://dc.lft.to/lastmile_qr_scan"}}, {"name": "d15d5948064f36e970c772f07abc0ba1", "fusion_lat": 0.0, "type": "electric_scooter", "lat": 38.9174905, "is_reserved": 0, "is_disabled": 0, "fusion_lon": 0.0, "bike_id": "d15d5948064f36e970c772f07abc0ba1", "lon": -77.01889, "rental_uris": {"ios": "https://dc.lft.to/lastmile_qr_scan", "android": "https://dc.lft.to/lastmile_qr_scan"}}, {"name": "8f91a1c894308de7c4de0aad31b0e69f", "fusion_lat": 0.0, "type": "electric_scooter", "lat": 38.90404383333333, "is_reserved": 0, "is_disabled": 0, "fusion_lon": 0.0, "bike_id": "8f91a1c894308de7c4de0aad31b0e69f", "lon": -77.06402683333333, "rental_uris": {"ios": "https://dc.lft.to/lastmile_qr_scan", "android": "https://dc.lft.to/lastmile_qr_scan"}}, {"name": "979b8837e0bd71e91cfe7c4077a14bf7", "fusion_lat": 0.0, "type": "electric_scooter", "lat": 38.908810333333335, "is_reserved": 0, "is_disabled": 0, "fusion_lon": 0.0, "bike_id": "979b8837e0bd71e91cfe7c4077a14bf7", "lon": -77.00578533333334, "rental_uris": {"ios": "https://dc.lft.to/lastmile_qr_scan", "android": "https://dc.lft.to/lastmile_qr_scan"}}, {"name": "bfacc812fca51f01a8b0d79eb29ba166", "fusion_lat": 0.0, "type": "electric_scooter", "lat": 38.88313633333333, "is_reserved": 0, "is_disabled": 0, "fusion_lon": 0.0, "bike_id": "bfacc812fca51f01a8b0d79eb29ba166", "lon": -77.023654, "rental_uris": {"ios": "https://dc.lft.to/lastmile_qr_scan", "android": "https://dc.lft.to/lastmile_qr_scan"}}, {"name": "1e28cc107226b4a57ef1c0a17fcc8b63", "fusion_lat": 0.0, "type": "electric_scooter", "lat": 38.905342833333336, "is_reserved": 0, "is_disabled": 0, "fusion_lon": 0.0, "bike_id": "1e28cc107226b4a57ef1c0a17fcc8b63", "lon": -77.04997433333334, "rental_uris": {"ios": "https://dc.lft.to/lastmile_qr_scan", "android": "https://dc.lft.to/lastmile_qr_scan"}}, {"name": "b5cc734cef622f15247c3ff593226208", "fusion_lat": 0.0, "type": "electric_bike", "lat": 38.994575, "is_reserved": 0, "is_disabled": 0, "fusion_lon": 0.0, "bike_id": "b5cc734cef622f15247c3ff593226208", "lon": -76.9081755, "rental_uris": {"ios": "https://dc.lft.to/lastmile_qr_scan", "android": "https://dc.lft.to/lastmile_qr_scan"}}, {"name": "e25c6f706c6e2185e5fd72001e34e12e", "fusion_lat": 0.0, "type": "electric_scooter", "lat": 38.921117333333335, "is_reserved": 0, "is_disabled": 0, "fusion_lon": 0.0, "bike_id": "e25c6f706c6e2185e5fd72001e34e12e", "lon": -77.042051, "rental_uris": {"ios": "https://dc.lft.to/lastmile_qr_scan", "android": "https://dc.lft.to/lastmile_qr_scan"}}, {"name": "5f4f327f5e34565834b42899d687fcf1", "fusion_lat": 0.0, "type": "electric_scooter", "lat": 38.90280633333333, "is_reserved": 0, "is_disabled": 0, "fusion_lon": 0.0, "bike_id": "5f4f327f5e34565834b42899d687fcf1", "lon": -77.0383125, "rental_uris": {"ios": "https://dc.lft.to/lastmile_qr_scan", "android": "https://dc.lft.to/lastmile_qr_scan"}}, {"name": "172b68ecf3d1b1d99df5af820498bcb0", "fusion_lat": 0.0, "type": "electric_scooter", "lat": 38.92238483333333, "is_reserved": 0, "is_disabled": 0, "fusion_lon": 0.0, "bike_id": "172b68ecf3d1b1d99df5af820498bcb0", "lon": -77.03087833333333, "rental_uris": {"ios": "https://dc.lft.to/lastmile_qr_scan", "android": "https://dc.lft.to/lastmile_qr_scan"}}, {"name": "5b3740dabde9f639fa7a125c9d0959e0", "fusion_lat": 0.0, "type": "electric_scooter", "lat": 38.91171283333333, "is_reserved": 0, "is_disabled": 0, "fusion_lon": 0.0, "bike_id": "5b3740dabde9f639fa7a125c9d0959e0", "lon": -77.03181483333333, "rental_uris": {"ios": "https://dc.lft.to/lastmile_qr_scan", "android": "https://dc.lft.to/lastmile_qr_scan"}}, {"name": "0d43e1ce77dd43281f5f79b807e4d668", "fusion_lat": 0.0, "type": "electric_scooter", "lat": 38.89879233333333, "is_reserved": 0, "is_disabled": 0, "fusion_lon": 0.0, "bike_id": "0d43e1ce77dd43281f5f79b807e4d668", "lon": -77.01954283333333, "rental_uris": {"ios": "https://dc.lft.to/lastmile_qr_scan", "android": "https://dc.lft.to/lastmile_qr_scan"}}, {"name": "5844da14c73b4bc4796d3fe85d19576a", "fusion_lat": 0.0, "type": "electric_bike", "lat": 38.984586666666665, "is_reserved": 0, "is_disabled": 0, "fusion_lon": 0.0, "bike_id": "5844da14c73b4bc4796d3fe85d19576a", "lon": -76.9552305, "rental_uris": {"ios": "https://dc.lft.to/lastmile_qr_scan", "android": "https://dc.lft.to/lastmile_qr_scan"}}, {"name": "b5c3ccec331379b88073ed0f4a5192ff", "fusion_lat": 0.0, "type": "electric_scooter", "lat": 38.895477166666666, "is_reserved": 0, "is_disabled": 0, "fusion_lon": 0.0, "bike_id": "b5c3ccec331379b88073ed0f4a5192ff", "lon": -76.98368983333333, "rental_uris": {"ios": "https://dc.lft.to/lastmile_qr_scan", "android": "https://dc.lft.to/lastmile_qr_scan"}}, {"name": "9b26aebea3f665bd9d395a451a5964bd", "fusion_lat": 0.0, "type": "electric_scooter", "lat": 38.87826066666667, "is_reserved": 0, "is_disabled": 0, "fusion_lon": 0.0, "bike_id": "9b26aebea3f665bd9d395a451a5964bd", "lon": -77.0174505, "rental_uris": {"ios": "https://dc.lft.to/lastmile_qr_scan", "android": "https://dc.lft.to/lastmile_qr_scan"}}, {"name": "dd73eae9ce7715ec3671c25ffd1041b4", "fusion_lat": 0.0, "type": "electric_scooter", "lat": 38.90055, "is_reserved": 0, "is_disabled": 0, "fusion_lon": 0.0, "bike_id": "dd73eae9ce7715ec3671c25ffd1041b4", "lon": -76.94753616666667, "rental_uris": {"ios": "https://dc.lft.to/lastmile_qr_scan", "android": "https://dc.lft.to/lastmile_qr_scan"}}, {"name": "953d67a4f67c17f90ae88424bccc468b", "fusion_lat": 0.0, "type": "electric_scooter", "lat": 38.88048233333333, "is_reserved": 0, "is_disabled": 0, "fusion_lon": 0.0, "bike_id": "953d67a4f67c17f90ae88424bccc468b", "lon": -76.95987316666667, "rental_uris": {"ios": "https://dc.lft.to/lastmile_qr_scan", "android": "https://dc.lft.to/lastmile_qr_scan"}}, {"name": "02f072d2a195aed589c5c96beb5e1eb7", "fusion_lat": 0.0, "type": "electric_scooter", "lat": 38.893915666666665, "is_reserved": 0, "is_disabled": 0, "fusion_lon": 0.0, "bike_id": "02f072d2a195aed589c5c96beb5e1eb7", "lon": -77.05475216666666, "rental_uris": {"ios": "https://dc.lft.to/lastmile_qr_scan", "android": "https://dc.lft.to/lastmile_qr_scan"}}, {"name": "b1a5a2dd1c899378bb3143550dd9da46", "fusion_lat": 0.0, "type": "electric_scooter", "lat": 38.901237, "is_reserved": 0, "is_disabled": 0, "fusion_lon": 0.0, "bike_id": "b1a5a2dd1c899378bb3143550dd9da46", "lon": -77.039546, "rental_uris": {"ios": "https://dc.lft.to/lastmile_qr_scan", "android": "https://dc.lft.to/lastmile_qr_scan"}}, {"name": "24ca7e09459852ebebf80460de0dd899", "fusion_lat": 0.0, "type": "electric_bike", "lat": 38.85220016666667, "is_reserved": 0, "is_disabled": 0, "fusion_lon": 0.0, "bike_id": "24ca7e09459852ebebf80460de0dd899", "lon": -77.12952816666666, "rental_uris": {"ios": "https://dc.lft.to/lastmile_qr_scan", "android": "https://dc.lft.to/lastmile_qr_scan"}}, {"name": "ca7cd058b9dd4a94bdee581fa6929470", "fusion_lat": 0.0, "type": "electric_scooter", "lat": 38.885164833333334, "is_reserved": 0, "is_disabled": 0, "fusion_lon": 0.0, "bike_id": "ca7cd058b9dd4a94bdee581fa6929470", "lon": -77.03361883333334, "rental_uris": {"ios": "https://dc.lft.to/lastmile_qr_scan", "android": "https://dc.lft.to/lastmile_qr_scan"}}, {"name": "68ef99ba00ae55c0cc196d44e7053196", "fusion_lat": 0.0, "type": "electric_scooter", "lat": 38.930597166666665, "is_reserved": 0, "is_disabled": 0, "fusion_lon": 0.0, "bike_id": "68ef99ba00ae55c0cc196d44e7053196", "lon": -77.02317883333333, "rental_uris": {"ios": "https://dc.lft.to/lastmile_qr_scan", "android": "https://dc.lft.to/lastmile_qr_scan"}}, {"name": "0d2646cbf356caf081ffcccd0107089e", "fusion_lat": 0.0, "type": "electric_scooter", "lat": 38.87654, "is_reserved": 0, "is_disabled": 0, "fusion_lon": 0.0, "bike_id": "0d2646cbf356caf081ffcccd0107089e", "lon": -77.00279766666667, "rental_uris": {"ios": "https://dc.lft.to/lastmile_qr_scan", "android": "https://dc.lft.to/lastmile_qr_scan"}}, {"name": "2b6d43385e68fb093a22e36b26024b9b", "fusion_lat": 0.0, "type": "electric_scooter", "lat": 38.93913116666667, "is_reserved": 0, "is_disabled": 0, "fusion_lon": 0.0, "bike_id": "2b6d43385e68fb093a22e36b26024b9b", "lon": -77.03654416666667, "rental_uris": {"ios": "https://dc.lft.to/lastmile_qr_scan", "android": "https://dc.lft.to/lastmile_qr_scan"}}, {"name": "967bda9ba347b373bf885a8d46cbaac9", "fusion_lat": 0.0, "type": "electric_scooter", "lat": 38.90371, "is_reserved": 0, "is_disabled": 0, "fusion_lon": 0.0, "bike_id": "967bda9ba347b373bf885a8d46cbaac9", "lon": -77.01098983333333, "rental_uris": {"ios": "https://dc.lft.to/lastmile_qr_scan", "android": "https://dc.lft.to/lastmile_qr_scan"}}, {"name": "1def45a770ef12885358fa071333ff3a", "fusion_lat": 0.0, "type": "electric_scooter", "lat": 38.898504333333335, "is_reserved": 0, "is_disabled": 0, "fusion_lon": 0.0, "bike_id": "1def45a770ef12885358fa071333ff3a", "lon": -76.99032216666667, "rental_uris": {"ios": "https://dc.lft.to/lastmile_qr_scan", "android": "https://dc.lft.to/lastmile_qr_scan"}}, {"name": "868d8701e273b002e700c7acf96af3bd", "fusion_lat": 0.0, "type": "electric_bike", "lat": 38.90685883333333, "is_reserved": 0, "is_disabled": 0, "fusion_lon": 0.0, "bike_id": "868d8701e273b002e700c7acf96af3bd", "lon": -76.95185466666666, "rental_uris": {"ios": "https://dc.lft.to/lastmile_qr_scan", "android": "https://dc.lft.to/lastmile_qr_scan"}}, {"name": "ee5cfda37ce662221bf974565cedf668", "fusion_lat": 0.0, "type": "electric_scooter", "lat": 38.91412233333333, "is_reserved": 0, "is_disabled": 0, "fusion_lon": 0.0, "bike_id": "ee5cfda37ce662221bf974565cedf668", "lon": -77.0241475, "rental_uris": {"ios": "https://dc.lft.to/lastmile_qr_scan", "android": "https://dc.lft.to/lastmile_qr_scan"}}, {"name": "cb11071c1599b3a341b201b490b18d7a", "fusion_lat": 0.0, "type": "electric_scooter", "lat": 38.898325, "is_reserved": 0, "is_disabled": 0, "fusion_lon": 0.0, "bike_id": "cb11071c1599b3a341b201b490b18d7a", "lon": -76.94567783333333, "rental_uris": {"ios": "https://dc.lft.to/lastmile_qr_scan", "android": "https://dc.lft.to/lastmile_qr_scan"}}, {"name": "ac81415f7f7c8011ddb03fdeaaa35ba7", "fusion_lat": 0.0, "type": "electric_scooter", "lat": 38.93191916666667, "is_reserved": 0, "is_disabled": 0, "fusion_lon": 0.0, "bike_id": "ac81415f7f7c8011ddb03fdeaaa35ba7", "lon": -77.02778666666667, "rental_uris": {"ios": "https://dc.lft.to/lastmile_qr_scan", "android": "https://dc.lft.to/lastmile_qr_scan"}}, {"name": "af476783089ad07e54e9ce3200552d9d", "fusion_lat": 0.0, "type": "electric_scooter", "lat": 38.8865385, "is_reserved": 0, "is_disabled": 0, "fusion_lon": 0.0, "bike_id": "af476783089ad07e54e9ce3200552d9d", "lon": -77.01370116666666, "rental_uris": {"ios": "https://dc.lft.to/lastmile_qr_scan", "android": "https://dc.lft.to/lastmile_qr_scan"}}, {"name": "b441d431e36665eb25b6e29c51d7a4de", "fusion_lat": 0.0, "type": "electric_scooter", "lat": 38.920345, "is_reserved": 0, "is_disabled": 0, "fusion_lon": 0.0, "bike_id": "b441d431e36665eb25b6e29c51d7a4de", "lon": -76.97801783333334, "rental_uris": {"ios": "https://dc.lft.to/lastmile_qr_scan", "android": "https://dc.lft.to/lastmile_qr_scan"}}, {"name": "90bf2d75c9fd55cd0629aa99b28f991c", "fusion_lat": 0.0, "type": "electric_bike", "lat": 38.8022375, "is_reserved": 0, "is_disabled": 0, "fusion_lon": 0.0, "bike_id": "90bf2d75c9fd55cd0629aa99b28f991c", "lon": -77.079121, "rental_uris": {"ios": "https://dc.lft.to/lastmile_qr_scan", "android": "https://dc.lft.to/lastmile_qr_scan"}}, {"name": "3bec999f330436ebd5047370708bad6a", "fusion_lat": 0.0, "type": "electric_scooter", "lat": 38.895264166666664, "is_reserved": 0, "is_disabled": 0, "fusion_lon": 0.0, "bike_id": "3bec999f330436ebd5047370708bad6a", "lon": -77.0428865, "rental_uris": {"ios": "https://dc.lft.to/lastmile_qr_scan", "android": "https://dc.lft.to/lastmile_qr_scan"}}, {"name": "a03e118dfae7881158eab92060224744", "fusion_lat": 0.0, "type": "electric_scooter", "lat": 38.912560666666664, "is_reserved": 0, "is_disabled": 0, "fusion_lon": 0.0, "bike_id": "a03e118dfae7881158eab92060224744", "lon": -77.0384155, "rental_uris": {"ios": "https://dc.lft.to/lastmile_qr_scan", "android": "https://dc.lft.to/lastmile_qr_scan"}}, {"name": "50479e451284fbf315414584f2b2d755", "fusion_lat": 0.0, "type": "electric_scooter", "lat": 38.9171075, "is_reserved": 0, "is_disabled": 0, "fusion_lon": 0.0, "bike_id": "50479e451284fbf315414584f2b2d755", "lon": -77.03727933333333, "rental_uris": {"ios": "https://dc.lft.to/lastmile_qr_scan", "android": "https://dc.lft.to/lastmile_qr_scan"}}, {"name": "b98d7ff31384877e43507f51cb8a7dbb", "fusion_lat": 0.0, "type": "electric_scooter", "lat": 38.90609666666667, "is_reserved": 0, "is_disabled": 0, "fusion_lon": 0.0, "bike_id": "b98d7ff31384877e43507f51cb8a7dbb", "lon": -77.02402633333334, "rental_uris": {"ios": "https://dc.lft.to/lastmile_qr_scan", "android": "https://dc.lft.to/lastmile_qr_scan"}}, {"name": "e57f2f31af3b97706131ab61a25892b4", "fusion_lat": 0.0, "type": "electric_scooter", "lat": 38.939385, "is_reserved": 0, "is_disabled": 0, "fusion_lon": 0.0, "bike_id": "e57f2f31af3b97706131ab61a25892b4", "lon": -77.03615883333333, "rental_uris": {"ios": "https://dc.lft.to/lastmile_qr_scan", "android": "https://dc.lft.to/lastmile_qr_scan"}}, {"name": "60bc55be8bf58ebf271100609ef6c02b", "fusion_lat": 0.0, "type": "electric_scooter", "lat": 38.91777316666666, "is_reserved": 0, "is_disabled": 0, "fusion_lon": 0.0, "bike_id": "60bc55be8bf58ebf271100609ef6c02b", "lon": -77.02346566666667, "rental_uris": {"ios": "https://dc.lft.to/lastmile_qr_scan", "android": "https://dc.lft.to/lastmile_qr_scan"}}, {"name": "601e9403d6acebc70cfbaff88d92b9d2", "fusion_lat": 0.0, "type": "electric_scooter", "lat": 38.902835, "is_reserved": 0, "is_disabled": 0, "fusion_lon": 0.0, "bike_id": "601e9403d6acebc70cfbaff88d92b9d2", "lon": -77.06259883333334, "rental_uris": {"ios": "https://dc.lft.to/lastmile_qr_scan", "android": "https://dc.lft.to/lastmile_qr_scan"}}, {"name": "eb5c09f1941009585d279be5245a64ab", "fusion_lat": 0.0, "type": "electric_scooter", "lat": 38.907376666666664, "is_reserved": 0, "is_disabled": 0, "fusion_lon": 0.0, "bike_id": "eb5c09f1941009585d279be5245a64ab", "lon": -77.04661966666667, "rental_uris": {"ios": "https://dc.lft.to/lastmile_qr_scan", "android": "https://dc.lft.to/lastmile_qr_scan"}}, {"name": "53e8c26bb4b58955144710d0470f755c", "fusion_lat": 0.0, "type": "electric_scooter", "lat": 38.90505916666667, "is_reserved": 0, "is_disabled": 0, "fusion_lon": 0.0, "bike_id": "53e8c26bb4b58955144710d0470f755c", "lon": -77.0694355, "rental_uris": {"ios": "https://dc.lft.to/lastmile_qr_scan", "android": "https://dc.lft.to/lastmile_qr_scan"}}, {"name": "ba4bd91aeb098c4e67b1fa17ad4e078f", "fusion_lat": 0.0, "type": "electric_scooter", "lat": 38.91107133333333, "is_reserved": 0, "is_disabled": 0, "fusion_lon": 0.0, "bike_id": "ba4bd91aeb098c4e67b1fa17ad4e078f", "lon": -77.010582, "rental_uris": {"ios": "https://dc.lft.to/lastmile_qr_scan", "android": "https://dc.lft.to/lastmile_qr_scan"}}, {"name": "55731ae5241329e236bd11678e175718", "fusion_lat": 0.0, "type": "electric_scooter", "lat": 38.9031725, "is_reserved": 0, "is_disabled": 0, "fusion_lon": 0.0, "bike_id": "55731ae5241329e236bd11678e175718", "lon": -76.98252666666667, "rental_uris": {"ios": "https://dc.lft.to/lastmile_qr_scan", "android": "https://dc.lft.to/lastmile_qr_scan"}}, {"name": "7097c1d7f78d86cc7d23d0e3bb7ce986", "fusion_lat": 0.0, "type": "electric_scooter", "lat": 38.8985855, "is_reserved": 0, "is_disabled": 0, "fusion_lon": 0.0, "bike_id": "7097c1d7f78d86cc7d23d0e3bb7ce986", "lon": -77.033136, "rental_uris": {"ios": "https://dc.lft.to/lastmile_qr_scan", "android": "https://dc.lft.to/lastmile_qr_scan"}}, {"name": "3218b0a839e794c5aa4fb2df00058e0d", "fusion_lat": 0.0, "type": "electric_scooter", "lat": 38.931088333333335, "is_reserved": 0, "is_disabled": 0, "fusion_lon": 0.0, "bike_id": "3218b0a839e794c5aa4fb2df00058e0d", "lon": -77.03841583333333, "rental_uris": {"ios": "https://dc.lft.to/lastmile_qr_scan", "android": "https://dc.lft.to/lastmile_qr_scan"}}, {"name": "3394a40c74472111435766e54b9409ed", "fusion_lat": 0.0, "type": "electric_scooter", "lat": 38.91189516666667, "is_reserved": 0, "is_disabled": 0, "fusion_lon": 0.0, "bike_id": "3394a40c74472111435766e54b9409ed", "lon": -77.00727966666666, "rental_uris": {"ios": "https://dc.lft.to/lastmile_qr_scan", "android": "https://dc.lft.to/lastmile_qr_scan"}}, {"name": "c247e05b70fa210e6d3d90c0f8259d52", "fusion_lat": 0.0, "type": "electric_scooter", "lat": 38.901261, "is_reserved": 0, "is_disabled": 0, "fusion_lon": 0.0, "bike_id": "c247e05b70fa210e6d3d90c0f8259d52", "lon": -77.02021016666667, "rental_uris": {"ios": "https://dc.lft.to/lastmile_qr_scan", "android": "https://dc.lft.to/lastmile_qr_scan"}}, {"name": "5f318da933e2f618924e34cd4aef9f9b", "fusion_lat": 0.0, "type": "electric_scooter", "lat": 38.90513116666666, "is_reserved": 0, "is_disabled": 0, "fusion_lon": 0.0, "bike_id": "5f318da933e2f618924e34cd4aef9f9b", "lon": -77.06888383333333, "rental_uris": {"ios": "https://dc.lft.to/lastmile_qr_scan", "android": "https://dc.lft.to/lastmile_qr_scan"}}, {"name": "e4075bc962b1ebbe0a19f9182b07b13e", "fusion_lat": 0.0, "type": "electric_scooter", "lat": 38.936096666666664, "is_reserved": 0, "is_disabled": 0, "fusion_lon": 0.0, "bike_id": "e4075bc962b1ebbe0a19f9182b07b13e", "lon": -77.05586116666667, "rental_uris": {"ios": "https://dc.lft.to/lastmile_qr_scan", "android": "https://dc.lft.to/lastmile_qr_scan"}}, {"name": "8f3e6429dffa08efbce7e0fda58b2702", "fusion_lat": 0.0, "type": "electric_scooter", "lat": 38.90646983333333, "is_reserved": 0, "is_disabled": 0, "fusion_lon": 0.0, "bike_id": "8f3e6429dffa08efbce7e0fda58b2702", "lon": -77.0139935, "rental_uris": {"ios": "https://dc.lft.to/lastmile_qr_scan", "android": "https://dc.lft.to/lastmile_qr_scan"}}, {"name": "0050c1e9b244b3611b4c4f66efbc2e57", "fusion_lat": 0.0, "type": "electric_scooter", "lat": 38.90107733333333, "is_reserved": 0, "is_disabled": 0, "fusion_lon": 0.0, "bike_id": "0050c1e9b244b3611b4c4f66efbc2e57", "lon": -77.03172466666666, "rental_uris": {"ios": "https://dc.lft.to/lastmile_qr_scan", "android": "https://dc.lft.to/lastmile_qr_scan"}}, {"name": "d4856a0328c1b0442aabd2e9236e9630", "fusion_lat": 0.0, "type": "electric_scooter", "lat": 38.91454383333333, "is_reserved": 0, "is_disabled": 0, "fusion_lon": 0.0, "bike_id": "d4856a0328c1b0442aabd2e9236e9630", "lon": -77.07165266666667, "rental_uris": {"ios": "https://dc.lft.to/lastmile_qr_scan", "android": "https://dc.lft.to/lastmile_qr_scan"}}, {"name": "a8ee71fae1c35c1d285065a3db533827", "fusion_lat": 0.0, "type": "electric_scooter", "lat": 38.92814333333333, "is_reserved": 0, "is_disabled": 0, "fusion_lon": 0.0, "bike_id": "a8ee71fae1c35c1d285065a3db533827", "lon": -77.02860783333334, "rental_uris": {"ios": "https://dc.lft.to/lastmile_qr_scan", "android": "https://dc.lft.to/lastmile_qr_scan"}}, {"name": "019b113e43d3de6309331f61e2815011", "fusion_lat": 0.0, "type": "electric_scooter", "lat": 38.874181166666666, "is_reserved": 0, "is_disabled": 0, "fusion_lon": 0.0, "bike_id": "019b113e43d3de6309331f61e2815011", "lon": -76.97176133333333, "rental_uris": {"ios": "https://dc.lft.to/lastmile_qr_scan", "android": "https://dc.lft.to/lastmile_qr_scan"}}, {"name": "5d1ccb17c239cbbd5f34b650fbb9e900", "fusion_lat": 0.0, "type": "electric_scooter", "lat": 38.911945833333334, "is_reserved": 0, "is_disabled": 0, "fusion_lon": 0.0, "bike_id": "5d1ccb17c239cbbd5f34b650fbb9e900", "lon": -77.03967616666667, "rental_uris": {"ios": "https://dc.lft.to/lastmile_qr_scan", "android": "https://dc.lft.to/lastmile_qr_scan"}}, {"name": "888cb806eee68d02b7c23b7621f07249", "fusion_lat": 0.0, "type": "electric_scooter", "lat": 38.9036175, "is_reserved": 0, "is_disabled": 0, "fusion_lon": 0.0, "bike_id": "888cb806eee68d02b7c23b7621f07249", "lon": -77.01106116666666, "rental_uris": {"ios": "https://dc.lft.to/lastmile_qr_scan", "android": "https://dc.lft.to/lastmile_qr_scan"}}, {"name": "bbc39478aa22b92f302062164df079f3", "fusion_lat": 0.0, "type": "electric_scooter", "lat": 38.91840283333333, "is_reserved": 0, "is_disabled": 0, "fusion_lon": 0.0, "bike_id": "bbc39478aa22b92f302062164df079f3", "lon": -77.025908, "rental_uris": {"ios": "https://dc.lft.to/lastmile_qr_scan", "android": "https://dc.lft.to/lastmile_qr_scan"}}, {"name": "bc0807a4f651c0ac7fbaba88f1d572a5", "fusion_lat": 0.0, "type": "electric_scooter", "lat": 38.900688, "is_reserved": 0, "is_disabled": 0, "fusion_lon": 0.0, "bike_id": "bc0807a4f651c0ac7fbaba88f1d572a5", "lon": -77.04532383333333, "rental_uris": {"ios": "https://dc.lft.to/lastmile_qr_scan", "android": "https://dc.lft.to/lastmile_qr_scan"}}, {"name": "453ce5bde6d6ef823cb88091e647714f", "fusion_lat": 0.0, "type": "electric_scooter", "lat": 38.9198345, "is_reserved": 0, "is_disabled": 0, "fusion_lon": 0.0, "bike_id": "453ce5bde6d6ef823cb88091e647714f", "lon": -77.03323933333333, "rental_uris": {"ios": "https://dc.lft.to/lastmile_qr_scan", "android": "https://dc.lft.to/lastmile_qr_scan"}}, {"name": "7a2303a136bd0335e35ee8d0e6057adc", "fusion_lat": 0.0, "type": "electric_bike", "lat": 38.994668833333336, "is_reserved": 0, "is_disabled": 0, "fusion_lon": 0.0, "bike_id": "7a2303a136bd0335e35ee8d0e6057adc", "lon": -77.02883866666667, "rental_uris": {"ios": "https://dc.lft.to/lastmile_qr_scan", "android": "https://dc.lft.to/lastmile_qr_scan"}}, {"name": "794ce22edf1ed006f6d6855bd690c9df", "fusion_lat": 0.0, "type": "electric_scooter", "lat": 38.914929, "is_reserved": 0, "is_disabled": 0, "fusion_lon": 0.0, "bike_id": "794ce22edf1ed006f6d6855bd690c9df", "lon": -77.03258433333333, "rental_uris": {"ios": "https://dc.lft.to/lastmile_qr_scan", "android": "https://dc.lft.to/lastmile_qr_scan"}}, {"name": "5ad5c1d005e315d00b201ecdb43280d1", "fusion_lat": 0.0, "type": "electric_scooter", "lat": 38.89224016666667, "is_reserved": 0, "is_disabled": 0, "fusion_lon": 0.0, "bike_id": "5ad5c1d005e315d00b201ecdb43280d1", "lon": -77.04646066666666, "rental_uris": {"ios": "https://dc.lft.to/lastmile_qr_scan", "android": "https://dc.lft.to/lastmile_qr_scan"}}, {"name": "c6bf527301eedaf2a1248cc32f3e54aa", "fusion_lat": 0.0, "type": "electric_bike", "lat": 38.94893883333334, "is_reserved": 0, "is_disabled": 0, "fusion_lon": 0.0, "bike_id": "c6bf527301eedaf2a1248cc32f3e54aa", "lon": -76.96375233333333, "rental_uris": {"ios": "https://dc.lft.to/lastmile_qr_scan", "android": "https://dc.lft.to/lastmile_qr_scan"}}, {"name": "b3bb023c4cc2e7f91f4cc25507ca9636", "fusion_lat": 0.0, "type": "electric_scooter", "lat": 38.908418833333336, "is_reserved": 0, "is_disabled": 0, "fusion_lon": 0.0, "bike_id": "b3bb023c4cc2e7f91f4cc25507ca9636", "lon": -77.04332283333333, "rental_uris": {"ios": "https://dc.lft.to/lastmile_qr_scan", "android": "https://dc.lft.to/lastmile_qr_scan"}}, {"name": "1ee4bf786c369f604f4d78b24234ba4e", "fusion_lat": 0.0, "type": "electric_scooter", "lat": 38.89876366666667, "is_reserved": 0, "is_disabled": 0, "fusion_lon": 0.0, "bike_id": "1ee4bf786c369f604f4d78b24234ba4e", "lon": -76.93157983333333, "rental_uris": {"ios": "https://dc.lft.to/lastmile_qr_scan", "android": "https://dc.lft.to/lastmile_qr_scan"}}, {"name": "d0fff8c444acdb8ca135d8fd17fce05f", "fusion_lat": 0.0, "type": "electric_scooter", "lat": 38.884649, "is_reserved": 0, "is_disabled": 0, "fusion_lon": 0.0, "bike_id": "d0fff8c444acdb8ca135d8fd17fce05f", "lon": -77.0152245, "rental_uris": {"ios": "https://dc.lft.to/lastmile_qr_scan", "android": "https://dc.lft.to/lastmile_qr_scan"}}, {"name": "08a4f99a98a7ce9237e099beeafe05e8", "fusion_lat": 0.0, "type": "electric_bike", "lat": 38.8638975, "is_reserved": 0, "is_disabled": 0, "fusion_lon": 0.0, "bike_id": "08a4f99a98a7ce9237e099beeafe05e8", "lon": -76.98992833333334, "rental_uris": {"ios": "https://dc.lft.to/lastmile_qr_scan", "android": "https://dc.lft.to/lastmile_qr_scan"}}, {"name": "d8ba6711906bed76ef63046ea408e749", "fusion_lat": 0.0, "type": "electric_scooter", "lat": 38.9417665, "is_reserved": 0, "is_disabled": 0, "fusion_lon": 0.0, "bike_id": "d8ba6711906bed76ef63046ea408e749", "lon": -77.04135183333334, "rental_uris": {"ios": "https://dc.lft.to/lastmile_qr_scan", "android": "https://dc.lft.to/lastmile_qr_scan"}}, {"name": "e5191336859d14b67992fc6ff91ecf9b", "fusion_lat": 0.0, "type": "electric_scooter", "lat": 38.91681916666667, "is_reserved": 0, "is_disabled": 0, "fusion_lon": 0.0, "bike_id": "e5191336859d14b67992fc6ff91ecf9b", "lon": -77.02352916666666, "rental_uris": {"ios": "https://dc.lft.to/lastmile_qr_scan", "android": "https://dc.lft.to/lastmile_qr_scan"}}, {"name": "346bb646058c9a1f3b7047c22a41a997", "fusion_lat": 0.0, "type": "electric_scooter", "lat": 38.920560333333334, "is_reserved": 0, "is_disabled": 0, "fusion_lon": 0.0, "bike_id": "346bb646058c9a1f3b7047c22a41a997", "lon": -76.9781675, "rental_uris": {"ios": "https://dc.lft.to/lastmile_qr_scan", "android": "https://dc.lft.to/lastmile_qr_scan"}}, {"name": "007b3dc93c99149ce8809e7f93066361", "fusion_lat": 0.0, "type": "electric_scooter", "lat": 38.90263316666667, "is_reserved": 0, "is_disabled": 0, "fusion_lon": 0.0, "bike_id": "007b3dc93c99149ce8809e7f93066361", "lon": -77.0300715, "rental_uris": {"ios": "https://dc.lft.to/lastmile_qr_scan", "android": "https://dc.lft.to/lastmile_qr_scan"}}, {"name": "673e1bc6ee4cb58f913029184c202afd", "fusion_lat": 0.0, "type": "electric_scooter", "lat": 38.91115716666667, "is_reserved": 0, "is_disabled": 0, "fusion_lon": 0.0, "bike_id": "673e1bc6ee4cb58f913029184c202afd", "lon": -77.00605316666666, "rental_uris": {"ios": "https://dc.lft.to/lastmile_qr_scan", "android": "https://dc.lft.to/lastmile_qr_scan"}}, {"name": "51fe7c92384949b4715b81318a4984ac", "fusion_lat": 0.0, "type": "electric_scooter", "lat": 38.90037866666667, "is_reserved": 0, "is_disabled": 0, "fusion_lon": 0.0, "bike_id": "51fe7c92384949b4715b81318a4984ac", "lon": -77.0118795, "rental_uris": {"ios": "https://dc.lft.to/lastmile_qr_scan", "android": "https://dc.lft.to/lastmile_qr_scan"}}, {"name": "539847f107a06c2772be233c434e64a9", "fusion_lat": 0.0, "type": "electric_scooter", "lat": 38.902751333333335, "is_reserved": 0, "is_disabled": 0, "fusion_lon": 0.0, "bike_id": "539847f107a06c2772be233c434e64a9", "lon": -77.046041, "rental_uris": {"ios": "https://dc.lft.to/lastmile_qr_scan", "android": "https://dc.lft.to/lastmile_qr_scan"}}, {"name": "a40e846ea051fc58ca4440431ddbf06e", "fusion_lat": 0.0, "type": "electric_scooter", "lat": 38.919205, "is_reserved": 0, "is_disabled": 0, "fusion_lon": 0.0, "bike_id": "a40e846ea051fc58ca4440431ddbf06e", "lon": -77.02404166666666, "rental_uris": {"ios": "https://dc.lft.to/lastmile_qr_scan", "android": "https://dc.lft.to/lastmile_qr_scan"}}, {"name": "ca328e4a26ddd1d0bf60c1753665779c", "fusion_lat": 0.0, "type": "electric_scooter", "lat": 38.915445, "is_reserved": 0, "is_disabled": 0, "fusion_lon": 0.0, "bike_id": "ca328e4a26ddd1d0bf60c1753665779c", "lon": -77.03852833333333, "rental_uris": {"ios": "https://dc.lft.to/lastmile_qr_scan", "android": "https://dc.lft.to/lastmile_qr_scan"}}, {"name": "8701e3fb7e9041d5a8f97091a1d3bd46", "fusion_lat": 0.0, "type": "electric_scooter", "lat": 38.917221833333336, "is_reserved": 0, "is_disabled": 0, "fusion_lon": 0.0, "bike_id": "8701e3fb7e9041d5a8f97091a1d3bd46", "lon": -77.00816816666666, "rental_uris": {"ios": "https://dc.lft.to/lastmile_qr_scan", "android": "https://dc.lft.to/lastmile_qr_scan"}}, {"name": "bfc13c2a3bdbcfc4742fe3f2095affdb", "fusion_lat": 0.0, "type": "electric_scooter", "lat": 38.897314, "is_reserved": 0, "is_disabled": 0, "fusion_lon": 0.0, "bike_id": "bfc13c2a3bdbcfc4742fe3f2095affdb", "lon": -77.0232465, "rental_uris": {"ios": "https://dc.lft.to/lastmile_qr_scan", "android": "https://dc.lft.to/lastmile_qr_scan"}}, {"name": "006015bbadd89f0aa134a6e1aa2258ba", "fusion_lat": 0.0, "type": "electric_scooter", "lat": 38.9119525, "is_reserved": 0, "is_disabled": 0, "fusion_lon": 0.0, "bike_id": "006015bbadd89f0aa134a6e1aa2258ba", "lon": -77.0344535, "rental_uris": {"ios": "https://dc.lft.to/lastmile_qr_scan", "android": "https://dc.lft.to/lastmile_qr_scan"}}, {"name": "9bd722024e6f2e567ec59515eb38fc3d", "fusion_lat": 0.0, "type": "electric_scooter", "lat": 38.865382, "is_reserved": 0, "is_disabled": 0, "fusion_lon": 0.0, "bike_id": "9bd722024e6f2e567ec59515eb38fc3d", "lon": -76.9870485, "rental_uris": {"ios": "https://dc.lft.to/lastmile_qr_scan", "android": "https://dc.lft.to/lastmile_qr_scan"}}, {"name": "7b16a9f24653412a367138910373aa56", "fusion_lat": 0.0, "type": "electric_scooter", "lat": 38.9265645, "is_reserved": 0, "is_disabled": 0, "fusion_lon": 0.0, "bike_id": "7b16a9f24653412a367138910373aa56", "lon": -77.024128, "rental_uris": {"ios": "https://dc.lft.to/lastmile_qr_scan", "android": "https://dc.lft.to/lastmile_qr_scan"}}, {"name": "0794616b520772ce95c7d927aea7b24b", "fusion_lat": 0.0, "type": "electric_scooter", "lat": 38.898320166666664, "is_reserved": 0, "is_disabled": 0, "fusion_lon": 0.0, "bike_id": "0794616b520772ce95c7d927aea7b24b", "lon": -77.00734033333333, "rental_uris": {"ios": "https://dc.lft.to/lastmile_qr_scan", "android": "https://dc.lft.to/lastmile_qr_scan"}}, {"name": "2d5890f33dc3518eead89bc23f68d1ae", "fusion_lat": 0.0, "type": "electric_scooter", "lat": 38.899377666666666, "is_reserved": 0, "is_disabled": 0, "fusion_lon": 0.0, "bike_id": "2d5890f33dc3518eead89bc23f68d1ae", "lon": -76.994874, "rental_uris": {"ios": "https://dc.lft.to/lastmile_qr_scan", "android": "https://dc.lft.to/lastmile_qr_scan"}}, {"name": "378a06de93c4926dcd53c4f53932e1f7", "fusion_lat": 0.0, "type": "electric_scooter", "lat": 38.91780116666666, "is_reserved": 0, "is_disabled": 0, "fusion_lon": 0.0, "bike_id": "378a06de93c4926dcd53c4f53932e1f7", "lon": -77.0344935, "rental_uris": {"ios": "https://dc.lft.to/lastmile_qr_scan", "android": "https://dc.lft.to/lastmile_qr_scan"}}, {"name": "4c54636218cc862227a3414eb46088e5", "fusion_lat": 0.0, "type": "electric_scooter", "lat": 38.927253, "is_reserved": 0, "is_disabled": 0, "fusion_lon": 0.0, "bike_id": "4c54636218cc862227a3414eb46088e5", "lon": -77.02584833333333, "rental_uris": {"ios": "https://dc.lft.to/lastmile_qr_scan", "android": "https://dc.lft.to/lastmile_qr_scan"}}, {"name": "4381fb406cb9aeb5014a4f94676df7d6", "fusion_lat": 0.0, "type": "electric_bike", "lat": 38.85491283333333, "is_reserved": 0, "is_disabled": 0, "fusion_lon": 0.0, "bike_id": "4381fb406cb9aeb5014a4f94676df7d6", "lon": -77.115251, "rental_uris": {"ios": "https://dc.lft.to/lastmile_qr_scan", "android": "https://dc.lft.to/lastmile_qr_scan"}}, {"name": "f66d716525a9b94cea338e91404ca3d6", "fusion_lat": 0.0, "type": "electric_scooter", "lat": 38.899670666666665, "is_reserved": 0, "is_disabled": 0, "fusion_lon": 0.0, "bike_id": "f66d716525a9b94cea338e91404ca3d6", "lon": -77.03171233333333, "rental_uris": {"ios": "https://dc.lft.to/lastmile_qr_scan", "android": "https://dc.lft.to/lastmile_qr_scan"}}, {"name": "71b3013faffdb7b7aaf4319fe458723c", "fusion_lat": 0.0, "type": "electric_scooter", "lat": 38.898324, "is_reserved": 0, "is_disabled": 0, "fusion_lon": 0.0, "bike_id": "71b3013faffdb7b7aaf4319fe458723c", "lon": -76.94642333333333, "rental_uris": {"ios": "https://dc.lft.to/lastmile_qr_scan", "android": "https://dc.lft.to/lastmile_qr_scan"}}, {"name": "2a7231ee8af72b8f17dc7c2d5d13394c", "fusion_lat": 0.0, "type": "electric_scooter", "lat": 38.91680066666667, "is_reserved": 0, "is_disabled": 0, "fusion_lon": 0.0, "bike_id": "2a7231ee8af72b8f17dc7c2d5d13394c", "lon": -77.01580383333334, "rental_uris": {"ios": "https://dc.lft.to/lastmile_qr_scan", "android": "https://dc.lft.to/lastmile_qr_scan"}}, {"name": "640b8a5c5a9b5e95242d8ae3bdf34518", "fusion_lat": 0.0, "type": "electric_scooter", "lat": 38.90138833333334, "is_reserved": 0, "is_disabled": 0, "fusion_lon": 0.0, "bike_id": "640b8a5c5a9b5e95242d8ae3bdf34518", "lon": -77.000676, "rental_uris": {"ios": "https://dc.lft.to/lastmile_qr_scan", "android": "https://dc.lft.to/lastmile_qr_scan"}}, {"name": "9cc599d290e0c53b219d8059507c2aa1", "fusion_lat": 0.0, "type": "electric_scooter", "lat": 38.903841166666666, "is_reserved": 0, "is_disabled": 0, "fusion_lon": 0.0, "bike_id": "9cc599d290e0c53b219d8059507c2aa1", "lon": -77.04817166666666, "rental_uris": {"ios": "https://dc.lft.to/lastmile_qr_scan", "android": "https://dc.lft.to/lastmile_qr_scan"}}, {"name": "9390a4ad9f7f516911e98af0b29b1eae", "fusion_lat": 0.0, "type": "electric_scooter", "lat": 38.909602, "is_reserved": 0, "is_disabled": 0, "fusion_lon": 0.0, "bike_id": "9390a4ad9f7f516911e98af0b29b1eae", "lon": -77.0486945, "rental_uris": {"ios": "https://dc.lft.to/lastmile_qr_scan", "android": "https://dc.lft.to/lastmile_qr_scan"}}, {"name": "b60c119e1c6b73cab37b3f6391da6767", "fusion_lat": 0.0, "type": "electric_scooter", "lat": 38.87323833333333, "is_reserved": 0, "is_disabled": 0, "fusion_lon": 0.0, "bike_id": "b60c119e1c6b73cab37b3f6391da6767", "lon": -77.00114766666667, "rental_uris": {"ios": "https://dc.lft.to/lastmile_qr_scan", "android": "https://dc.lft.to/lastmile_qr_scan"}}, {"name": "c10dc1c7f6290164f850eac2795f5c63", "fusion_lat": 0.0, "type": "electric_scooter", "lat": 38.8991185, "is_reserved": 0, "is_disabled": 0, "fusion_lon": 0.0, "bike_id": "c10dc1c7f6290164f850eac2795f5c63", "lon": -77.02156966666666, "rental_uris": {"ios": "https://dc.lft.to/lastmile_qr_scan", "android": "https://dc.lft.to/lastmile_qr_scan"}}, {"name": "230c7c9421dd8b946a42f56347db428e", "fusion_lat": 0.0, "type": "electric_scooter", "lat": 38.8985045, "is_reserved": 0, "is_disabled": 0, "fusion_lon": 0.0, "bike_id": "230c7c9421dd8b946a42f56347db428e", "lon": -77.04076916666666, "rental_uris": {"ios": "https://dc.lft.to/lastmile_qr_scan", "android": "https://dc.lft.to/lastmile_qr_scan"}}, {"name": "bacfe0122bef288f45f031446fd1e782", "fusion_lat": 0.0, "type": "electric_scooter", "lat": 38.904787666666664, "is_reserved": 0, "is_disabled": 0, "fusion_lon": 0.0, "bike_id": "bacfe0122bef288f45f031446fd1e782", "lon": -76.97325033333334, "rental_uris": {"ios": "https://dc.lft.to/lastmile_qr_scan", "android": "https://dc.lft.to/lastmile_qr_scan"}}, {"name": "521005edafe260ac6ebf95e1cf7d9f71", "fusion_lat": 0.0, "type": "electric_bike", "lat": 38.9518415, "is_reserved": 0, "is_disabled": 0, "fusion_lon": 0.0, "bike_id": "521005edafe260ac6ebf95e1cf7d9f71", "lon": -76.9354615, "rental_uris": {"ios": "https://dc.lft.to/lastmile_qr_scan", "android": "https://dc.lft.to/lastmile_qr_scan"}}, {"name": "9d258df251fa487ea3deb056412739f1", "fusion_lat": 0.0, "type": "electric_bike", "lat": 38.886602833333335, "is_reserved": 0, "is_disabled": 0, "fusion_lon": 0.0, "bike_id": "9d258df251fa487ea3deb056412739f1", "lon": -77.16231633333334, "rental_uris": {"ios": "https://dc.lft.to/lastmile_qr_scan", "android": "https://dc.lft.to/lastmile_qr_scan"}}, {"name": "c41c01fdcc4b2ba9db81d84021bfa88e", "fusion_lat": 0.0, "type": "electric_scooter", "lat": 38.895322, "is_reserved": 0, "is_disabled": 0, "fusion_lon": 0.0, "bike_id": "c41c01fdcc4b2ba9db81d84021bfa88e", "lon": -76.94926216666667, "rental_uris": {"ios": "https://dc.lft.to/lastmile_qr_scan", "android": "https://dc.lft.to/lastmile_qr_scan"}}, {"name": "e4186ee743d44d69e4e69d321a4d0637", "fusion_lat": 0.0, "type": "electric_scooter", "lat": 38.89631133333334, "is_reserved": 0, "is_disabled": 0, "fusion_lon": 0.0, "bike_id": "e4186ee743d44d69e4e69d321a4d0637", "lon": -77.02382416666667, "rental_uris": {"ios": "https://dc.lft.to/lastmile_qr_scan", "android": "https://dc.lft.to/lastmile_qr_scan"}}, {"name": "f427242bb14c10b9eeed8d1d3b226938", "fusion_lat": 0.0, "type": "electric_scooter", "lat": 38.89742, "is_reserved": 0, "is_disabled": 0, "fusion_lon": 0.0, "bike_id": "f427242bb14c10b9eeed8d1d3b226938", "lon": -77.046455, "rental_uris": {"ios": "https://dc.lft.to/lastmile_qr_scan", "android": "https://dc.lft.to/lastmile_qr_scan"}}, {"name": "14de64dc96193c9daa83f7f42d297ca9", "fusion_lat": 0.0, "type": "electric_scooter", "lat": 38.90573066666666, "is_reserved": 0, "is_disabled": 0, "fusion_lon": 0.0, "bike_id": "14de64dc96193c9daa83f7f42d297ca9", "lon": -77.01418266666667, "rental_uris": {"ios": "https://dc.lft.to/lastmile_qr_scan", "android": "https://dc.lft.to/lastmile_qr_scan"}}, {"name": "9cc8e8b179663242d06081f70b14e097", "fusion_lat": 0.0, "type": "electric_scooter", "lat": 38.91183016666667, "is_reserved": 0, "is_disabled": 0, "fusion_lon": 0.0, "bike_id": "9cc8e8b179663242d06081f70b14e097", "lon": -77.04494616666666, "rental_uris": {"ios": "https://dc.lft.to/lastmile_qr_scan", "android": "https://dc.lft.to/lastmile_qr_scan"}}, {"name": "a88e81f7b8e2b15f7ba93fd45e5911c9", "fusion_lat": 0.0, "type": "electric_bike", "lat": 39.105659, "is_reserved": 0, "is_disabled": 0, "fusion_lon": 0.0, "bike_id": "a88e81f7b8e2b15f7ba93fd45e5911c9", "lon": -77.15268783333333, "rental_uris": {"ios": "https://dc.lft.to/lastmile_qr_scan", "android": "https://dc.lft.to/lastmile_qr_scan"}}, {"name": "ba9821546ca5283fe3e473a7d75e16ac", "fusion_lat": 0.0, "type": "electric_scooter", "lat": 38.8959835, "is_reserved": 0, "is_disabled": 0, "fusion_lon": 0.0, "bike_id": "ba9821546ca5283fe3e473a7d75e16ac", "lon": -77.04114583333333, "rental_uris": {"ios": "https://dc.lft.to/lastmile_qr_scan", "android": "https://dc.lft.to/lastmile_qr_scan"}}, {"name": "1ce09e61a9fee5d9128d1a63e764e951", "fusion_lat": 0.0, "type": "electric_bike", "lat": 38.95549233333333, "is_reserved": 0, "is_disabled": 0, "fusion_lon": 0.0, "bike_id": "1ce09e61a9fee5d9128d1a63e764e951", "lon": -77.01617583333334, "rental_uris": {"ios": "https://dc.lft.to/lastmile_qr_scan", "android": "https://dc.lft.to/lastmile_qr_scan"}}, {"name": "e0ba986fc098a34fe8d9dbdd40716154", "fusion_lat": 0.0, "type": "electric_scooter", "lat": 38.876497666666666, "is_reserved": 0, "is_disabled": 0, "fusion_lon": 0.0, "bike_id": "e0ba986fc098a34fe8d9dbdd40716154", "lon": -76.96505933333333, "rental_uris": {"ios": "https://dc.lft.to/lastmile_qr_scan", "android": "https://dc.lft.to/lastmile_qr_scan"}}, {"name": "23e301c366fc9b7928cbd80d51088608", "fusion_lat": 0.0, "type": "electric_scooter", "lat": 38.919291666666666, "is_reserved": 0, "is_disabled": 0, "fusion_lon": 0.0, "bike_id": "23e301c366fc9b7928cbd80d51088608", "lon": -77.04485216666667, "rental_uris": {"ios": "https://dc.lft.to/lastmile_qr_scan", "android": "https://dc.lft.to/lastmile_qr_scan"}}, {"name": "c92baa35e90ebff75947b9e344c5d8b9", "fusion_lat": 0.0, "type": "electric_scooter", "lat": 38.91229083333333, "is_reserved": 0, "is_disabled": 0, "fusion_lon": 0.0, "bike_id": "c92baa35e90ebff75947b9e344c5d8b9", "lon": -77.03840783333334, "rental_uris": {"ios": "https://dc.lft.to/lastmile_qr_scan", "android": "https://dc.lft.to/lastmile_qr_scan"}}, {"name": "c11bd1241776abfe19672d06c93d4822", "fusion_lat": 0.0, "type": "electric_scooter", "lat": 38.93356983333334, "is_reserved": 0, "is_disabled": 0, "fusion_lon": 0.0, "bike_id": "c11bd1241776abfe19672d06c93d4822", "lon": -77.03730133333333, "rental_uris": {"ios": "https://dc.lft.to/lastmile_qr_scan", "android": "https://dc.lft.to/lastmile_qr_scan"}}, {"name": "39cdf669ad5351f352f9f02989c0edf4", "fusion_lat": 0.0, "type": "electric_bike", "lat": 38.955467, "is_reserved": 0, "is_disabled": 0, "fusion_lon": 0.0, "bike_id": "39cdf669ad5351f352f9f02989c0edf4", "lon": -76.93527216666666, "rental_uris": {"ios": "https://dc.lft.to/lastmile_qr_scan", "android": "https://dc.lft.to/lastmile_qr_scan"}}, {"name": "f08f5d16cba8bd1cedaba03cfcfd2b1d", "fusion_lat": 0.0, "type": "electric_scooter", "lat": 38.900126, "is_reserved": 0, "is_disabled": 0, "fusion_lon": 0.0, "bike_id": "f08f5d16cba8bd1cedaba03cfcfd2b1d", "lon": -77.04489366666667, "rental_uris": {"ios": "https://dc.lft.to/lastmile_qr_scan", "android": "https://dc.lft.to/lastmile_qr_scan"}}, {"name": "1b38542f696c624083176aa9bfe4a0bd", "fusion_lat": 0.0, "type": "electric_scooter", "lat": 38.90461533333333, "is_reserved": 0, "is_disabled": 0, "fusion_lon": 0.0, "bike_id": "1b38542f696c624083176aa9bfe4a0bd", "lon": -77.038722, "rental_uris": {"ios": "https://dc.lft.to/lastmile_qr_scan", "android": "https://dc.lft.to/lastmile_qr_scan"}}, {"name": "05e8aa7a6c6a264a8b921f430b521ada", "fusion_lat": 0.0, "type": "electric_scooter", "lat": 38.8923235, "is_reserved": 0, "is_disabled": 0, "fusion_lon": 0.0, "bike_id": "05e8aa7a6c6a264a8b921f430b521ada", "lon": -77.05003966666666, "rental_uris": {"ios": "https://dc.lft.to/lastmile_qr_scan", "android": "https://dc.lft.to/lastmile_qr_scan"}}, {"name": "5ca45fce572886e7777e878b43f7610d", "fusion_lat": 0.0, "type": "electric_bike", "lat": 38.813046, "is_reserved": 0, "is_disabled": 0, "fusion_lon": 0.0, "bike_id": "5ca45fce572886e7777e878b43f7610d", "lon": -77.11201416666667, "rental_uris": {"ios": "https://dc.lft.to/lastmile_qr_scan", "android": "https://dc.lft.to/lastmile_qr_scan"}}, {"name": "88490305b152367abf1ea26f9d9afa21", "fusion_lat": 0.0, "type": "electric_scooter", "lat": 38.906725333333334, "is_reserved": 0, "is_disabled": 0, "fusion_lon": 0.0, "bike_id": "88490305b152367abf1ea26f9d9afa21", "lon": -76.978112, "rental_uris": {"ios": "https://dc.lft.to/lastmile_qr_scan", "android": "https://dc.lft.to/lastmile_qr_scan"}}, {"name": "b1e6a74cc1ed275d3f5f0fd5e567f460", "fusion_lat": 0.0, "type": "electric_bike", "lat": 38.89188433333333, "is_reserved": 0, "is_disabled": 0, "fusion_lon": 0.0, "bike_id": "b1e6a74cc1ed275d3f5f0fd5e567f460", "lon": -77.12258383333334, "rental_uris": {"ios": "https://dc.lft.to/lastmile_qr_scan", "android": "https://dc.lft.to/lastmile_qr_scan"}}, {"name": "28c24f2c42e48e3b83fe22ed549953df", "fusion_lat": 0.0, "type": "electric_scooter", "lat": 38.91065366666667, "is_reserved": 0, "is_disabled": 0, "fusion_lon": 0.0, "bike_id": "28c24f2c42e48e3b83fe22ed549953df", "lon": -77.053207, "rental_uris": {"ios": "https://dc.lft.to/lastmile_qr_scan", "android": "https://dc.lft.to/lastmile_qr_scan"}}, {"name": "8108592ba1ee7303f089018adb79e412", "fusion_lat": 0.0, "type": "electric_scooter", "lat": 38.8960875, "is_reserved": 0, "is_disabled": 0, "fusion_lon": 0.0, "bike_id": "8108592ba1ee7303f089018adb79e412", "lon": -77.046901, "rental_uris": {"ios": "https://dc.lft.to/lastmile_qr_scan", "android": "https://dc.lft.to/lastmile_qr_scan"}}, {"name": "7f64d772eb72d59b340af00332311e18", "fusion_lat": 0.0, "type": "electric_scooter", "lat": 38.917136, "is_reserved": 0, "is_disabled": 0, "fusion_lon": 0.0, "bike_id": "7f64d772eb72d59b340af00332311e18", "lon": -77.02896516666667, "rental_uris": {"ios": "https://dc.lft.to/lastmile_qr_scan", "android": "https://dc.lft.to/lastmile_qr_scan"}}, {"name": "23835897261718fdc6a1b3ce0f4a925d", "fusion_lat": 0.0, "type": "electric_bike", "lat": 38.9296215, "is_reserved": 0, "is_disabled": 0, "fusion_lon": 0.0, "bike_id": "23835897261718fdc6a1b3ce0f4a925d", "lon": -77.22548, "rental_uris": {"ios": "https://dc.lft.to/lastmile_qr_scan", "android": "https://dc.lft.to/lastmile_qr_scan"}}, {"name": "eb03dd96231431c5008cbd27162445cb", "fusion_lat": 0.0, "type": "electric_bike", "lat": 38.93841966666667, "is_reserved": 0, "is_disabled": 0, "fusion_lon": 0.0, "bike_id": "eb03dd96231431c5008cbd27162445cb", "lon": -77.06033433333333, "rental_uris": {"ios": "https://dc.lft.to/lastmile_qr_scan", "android": "https://dc.lft.to/lastmile_qr_scan"}}, {"name": "f792cef9d56a0f1366c27000c97870f6", "fusion_lat": 0.0, "type": "electric_bike", "lat": 38.831941, "is_reserved": 0, "is_disabled": 0, "fusion_lon": 0.0, "bike_id": "f792cef9d56a0f1366c27000c97870f6", "lon": -77.07680916666666, "rental_uris": {"ios": "https://dc.lft.to/lastmile_qr_scan", "android": "https://dc.lft.to/lastmile_qr_scan"}}, {"name": "a2bd8e6f14c58a6b30d9680c8eed9a6c", "fusion_lat": 0.0, "type": "electric_scooter", "lat": 38.921752833333336, "is_reserved": 0, "is_disabled": 0, "fusion_lon": 0.0, "bike_id": "a2bd8e6f14c58a6b30d9680c8eed9a6c", "lon": -77.04242266666667, "rental_uris": {"ios": "https://dc.lft.to/lastmile_qr_scan", "android": "https://dc.lft.to/lastmile_qr_scan"}}, {"name": "acb6bae2a45e5143356fd719b3c112dd", "fusion_lat": 0.0, "type": "electric_scooter", "lat": 38.922668, "is_reserved": 0, "is_disabled": 0, "fusion_lon": 0.0, "bike_id": "acb6bae2a45e5143356fd719b3c112dd", "lon": -77.01953416666667, "rental_uris": {"ios": "https://dc.lft.to/lastmile_qr_scan", "android": "https://dc.lft.to/lastmile_qr_scan"}}, {"name": "66344efe5bf5857d547ca6cf7b94521d", "fusion_lat": 0.0, "type": "electric_scooter", "lat": 38.901458166666664, "is_reserved": 0, "is_disabled": 0, "fusion_lon": 0.0, "bike_id": "66344efe5bf5857d547ca6cf7b94521d", "lon": -77.0590435, "rental_uris": {"ios": "https://dc.lft.to/lastmile_qr_scan", "android": "https://dc.lft.to/lastmile_qr_scan"}}, {"name": "d3a9983e4c9dc077885377d302a53b58", "fusion_lat": 0.0, "type": "electric_scooter", "lat": 38.922244, "is_reserved": 0, "is_disabled": 0, "fusion_lon": 0.0, "bike_id": "d3a9983e4c9dc077885377d302a53b58", "lon": -77.02110116666667, "rental_uris": {"ios": "https://dc.lft.to/lastmile_qr_scan", "android": "https://dc.lft.to/lastmile_qr_scan"}}, {"name": "4802ab530d6640d9b0206524a075de28", "fusion_lat": 0.0, "type": "electric_scooter", "lat": 38.90728283333333, "is_reserved": 0, "is_disabled": 0, "fusion_lon": 0.0, "bike_id": "4802ab530d6640d9b0206524a075de28", "lon": -77.04500016666667, "rental_uris": {"ios": "https://dc.lft.to/lastmile_qr_scan", "android": "https://dc.lft.to/lastmile_qr_scan"}}, {"name": "8e0ddec21f55578333ce80adfb0294e7", "fusion_lat": 0.0, "type": "electric_scooter", "lat": 38.884901, "is_reserved": 0, "is_disabled": 0, "fusion_lon": 0.0, "bike_id": "8e0ddec21f55578333ce80adfb0294e7", "lon": -77.00715416666667, "rental_uris": {"ios": "https://dc.lft.to/lastmile_qr_scan", "android": "https://dc.lft.to/lastmile_qr_scan"}}, {"name": "6e70266ddcf240cd15cd5f0c0d2bcb30", "fusion_lat": 0.0, "type": "electric_scooter", "lat": 38.91267333333333, "is_reserved": 0, "is_disabled": 0, "fusion_lon": 0.0, "bike_id": "6e70266ddcf240cd15cd5f0c0d2bcb30", "lon": -77.03865966666666, "rental_uris": {"ios": "https://dc.lft.to/lastmile_qr_scan", "android": "https://dc.lft.to/lastmile_qr_scan"}}, {"name": "27e7bdefe1186479103079451e811104", "fusion_lat": 0.0, "type": "electric_scooter", "lat": 38.905634666666664, "is_reserved": 0, "is_disabled": 0, "fusion_lon": 0.0, "bike_id": "27e7bdefe1186479103079451e811104", "lon": -77.005939, "rental_uris": {"ios": "https://dc.lft.to/lastmile_qr_scan", "android": "https://dc.lft.to/lastmile_qr_scan"}}, {"name": "9277b8ef8b84e69bc1e871f92f78d69f", "fusion_lat": 0.0, "type": "electric_scooter", "lat": 38.93471433333333, "is_reserved": 0, "is_disabled": 0, "fusion_lon": 0.0, "bike_id": "9277b8ef8b84e69bc1e871f92f78d69f", "lon": -77.0284095, "rental_uris": {"ios": "https://dc.lft.to/lastmile_qr_scan", "android": "https://dc.lft.to/lastmile_qr_scan"}}, {"name": "317b9dcf391c326194f3cfe4f9b5ddd0", "fusion_lat": 0.0, "type": "electric_scooter", "lat": 38.917958666666664, "is_reserved": 0, "is_disabled": 0, "fusion_lon": 0.0, "bike_id": "317b9dcf391c326194f3cfe4f9b5ddd0", "lon": -77.04007383333334, "rental_uris": {"ios": "https://dc.lft.to/lastmile_qr_scan", "android": "https://dc.lft.to/lastmile_qr_scan"}}, {"name": "609e45fa95883e4c8381b5d33b48394d", "fusion_lat": 0.0, "type": "electric_scooter", "lat": 38.91831883333333, "is_reserved": 0, "is_disabled": 0, "fusion_lon": 0.0, "bike_id": "609e45fa95883e4c8381b5d33b48394d", "lon": -77.02695966666667, "rental_uris": {"ios": "https://dc.lft.to/lastmile_qr_scan", "android": "https://dc.lft.to/lastmile_qr_scan"}}, {"name": "5a1d82bc30781056b5ff78df6cd11f83", "fusion_lat": 0.0, "type": "electric_scooter", "lat": 38.91707233333333, "is_reserved": 0, "is_disabled": 0, "fusion_lon": 0.0, "bike_id": "5a1d82bc30781056b5ff78df6cd11f83", "lon": -77.03141166666667, "rental_uris": {"ios": "https://dc.lft.to/lastmile_qr_scan", "android": "https://dc.lft.to/lastmile_qr_scan"}}, {"name": "72736d8442fa3879d20739bb77c94dc4", "fusion_lat": 0.0, "type": "electric_scooter", "lat": 38.9750455, "is_reserved": 0, "is_disabled": 0, "fusion_lon": 0.0, "bike_id": "72736d8442fa3879d20739bb77c94dc4", "lon": -77.01721533333334, "rental_uris": {"ios": "https://dc.lft.to/lastmile_qr_scan", "android": "https://dc.lft.to/lastmile_qr_scan"}}, {"name": "339bb651b3962d1499d6af7e353c98dc", "fusion_lat": 0.0, "type": "electric_scooter", "lat": 38.91818333333333, "is_reserved": 0, "is_disabled": 0, "fusion_lon": 0.0, "bike_id": "339bb651b3962d1499d6af7e353c98dc", "lon": -77.03218216666667, "rental_uris": {"ios": "https://dc.lft.to/lastmile_qr_scan", "android": "https://dc.lft.to/lastmile_qr_scan"}}, {"name": "d398fe20ebe3323e3304dd075928ff59", "fusion_lat": 0.0, "type": "electric_bike", "lat": 38.85243583333333, "is_reserved": 0, "is_disabled": 0, "fusion_lon": 0.0, "bike_id": "d398fe20ebe3323e3304dd075928ff59", "lon": -77.11430383333334, "rental_uris": {"ios": "https://dc.lft.to/lastmile_qr_scan", "android": "https://dc.lft.to/lastmile_qr_scan"}}, {"name": "2e3f36c70391269afed249c3998ad2fb", "fusion_lat": 0.0, "type": "electric_scooter", "lat": 38.923612166666665, "is_reserved": 0, "is_disabled": 0, "fusion_lon": 0.0, "bike_id": "2e3f36c70391269afed249c3998ad2fb", "lon": -77.050612, "rental_uris": {"ios": "https://dc.lft.to/lastmile_qr_scan", "android": "https://dc.lft.to/lastmile_qr_scan"}}, {"name": "9291a59d416efd4d37827e7592c7d19c", "fusion_lat": 0.0, "type": "electric_scooter", "lat": 38.914140333333336, "is_reserved": 0, "is_disabled": 0, "fusion_lon": 0.0, "bike_id": "9291a59d416efd4d37827e7592c7d19c", "lon": -77.00973566666667, "rental_uris": {"ios": "https://dc.lft.to/lastmile_qr_scan", "android": "https://dc.lft.to/lastmile_qr_scan"}}, {"name": "b4efe0179140dbeb11f0f4b993b11894", "fusion_lat": 0.0, "type": "electric_bike", "lat": 38.868706, "is_reserved": 0, "is_disabled": 0, "fusion_lon": 0.0, "bike_id": "b4efe0179140dbeb11f0f4b993b11894", "lon": -76.916637, "rental_uris": {"ios": "https://dc.lft.to/lastmile_qr_scan", "android": "https://dc.lft.to/lastmile_qr_scan"}}, {"name": "8d7a7572ff11932e785a74be621d4e8c", "fusion_lat": 0.0, "type": "electric_scooter", "lat": 38.896694833333335, "is_reserved": 0, "is_disabled": 0, "fusion_lon": 0.0, "bike_id": "8d7a7572ff11932e785a74be621d4e8c", "lon": -76.9472375, "rental_uris": {"ios": "https://dc.lft.to/lastmile_qr_scan", "android": "https://dc.lft.to/lastmile_qr_scan"}}, {"name": "832806c624706c7c2038d42280484555", "fusion_lat": 0.0, "type": "electric_scooter", "lat": 38.87476683333333, "is_reserved": 0, "is_disabled": 0, "fusion_lon": 0.0, "bike_id": "832806c624706c7c2038d42280484555", "lon": -77.01068816666667, "rental_uris": {"ios": "https://dc.lft.to/lastmile_qr_scan", "android": "https://dc.lft.to/lastmile_qr_scan"}}, {"name": "53d7cb55f1b5d2772ac10ce06bd0dbf0", "fusion_lat": 0.0, "type": "electric_bike", "lat": 38.896467333333334, "is_reserved": 0, "is_disabled": 0, "fusion_lon": 0.0, "bike_id": "53d7cb55f1b5d2772ac10ce06bd0dbf0", "lon": -77.1045295, "rental_uris": {"ios": "https://dc.lft.to/lastmile_qr_scan", "android": "https://dc.lft.to/lastmile_qr_scan"}}, {"name": "83118fa121facd5419f80705700cdcc7", "fusion_lat": 0.0, "type": "electric_scooter", "lat": 38.90395816666667, "is_reserved": 0, "is_disabled": 0, "fusion_lon": 0.0, "bike_id": "83118fa121facd5419f80705700cdcc7", "lon": -76.98941516666666, "rental_uris": {"ios": "https://dc.lft.to/lastmile_qr_scan", "android": "https://dc.lft.to/lastmile_qr_scan"}}, {"name": "db6ba056cd6c72a20f9dfbb22283decf", "fusion_lat": 0.0, "type": "electric_scooter", "lat": 38.911117, "is_reserved": 0, "is_disabled": 0, "fusion_lon": 0.0, "bike_id": "db6ba056cd6c72a20f9dfbb22283decf", "lon": -77.04502733333334, "rental_uris": {"ios": "https://dc.lft.to/lastmile_qr_scan", "android": "https://dc.lft.to/lastmile_qr_scan"}}, {"name": "75b84a190864cbfa3593ee1fc5de2fb7", "fusion_lat": 0.0, "type": "electric_scooter", "lat": 38.92094683333333, "is_reserved": 0, "is_disabled": 0, "fusion_lon": 0.0, "bike_id": "75b84a190864cbfa3593ee1fc5de2fb7", "lon": -77.02694416666667, "rental_uris": {"ios": "https://dc.lft.to/lastmile_qr_scan", "android": "https://dc.lft.to/lastmile_qr_scan"}}, {"name": "f8dc88e8fa9d5630130da53aaa24b57a", "fusion_lat": 0.0, "type": "electric_scooter", "lat": 38.913523833333336, "is_reserved": 0, "is_disabled": 0, "fusion_lon": 0.0, "bike_id": "f8dc88e8fa9d5630130da53aaa24b57a", "lon": -77.03954416666667, "rental_uris": {"ios": "https://dc.lft.to/lastmile_qr_scan", "android": "https://dc.lft.to/lastmile_qr_scan"}}, {"name": "8b24f1ff4c79b9aacc5204380eeda23d", "fusion_lat": 0.0, "type": "electric_scooter", "lat": 38.9066285, "is_reserved": 0, "is_disabled": 0, "fusion_lon": 0.0, "bike_id": "8b24f1ff4c79b9aacc5204380eeda23d", "lon": -77.03827466666667, "rental_uris": {"ios": "https://dc.lft.to/lastmile_qr_scan", "android": "https://dc.lft.to/lastmile_qr_scan"}}, {"name": "1ba8db13584925cd97c5efe75a61f9e0", "fusion_lat": 0.0, "type": "electric_scooter", "lat": 38.894792333333335, "is_reserved": 0, "is_disabled": 0, "fusion_lon": 0.0, "bike_id": "1ba8db13584925cd97c5efe75a61f9e0", "lon": -77.025706, "rental_uris": {"ios": "https://dc.lft.to/lastmile_qr_scan", "android": "https://dc.lft.to/lastmile_qr_scan"}}, {"name": "6cc1287ae56b38afb2aa9da17f66a853", "fusion_lat": 0.0, "type": "electric_scooter", "lat": 38.84684516666667, "is_reserved": 0, "is_disabled": 0, "fusion_lon": 0.0, "bike_id": "6cc1287ae56b38afb2aa9da17f66a853", "lon": -76.99202266666667, "rental_uris": {"ios": "https://dc.lft.to/lastmile_qr_scan", "android": "https://dc.lft.to/lastmile_qr_scan"}}, {"name": "ddf0b5057c04e9e2d09f2cbd7a3fa9f8", "fusion_lat": 0.0, "type": "electric_scooter", "lat": 38.90590533333334, "is_reserved": 0, "is_disabled": 0, "fusion_lon": 0.0, "bike_id": "ddf0b5057c04e9e2d09f2cbd7a3fa9f8", "lon": -77.01611866666667, "rental_uris": {"ios": "https://dc.lft.to/lastmile_qr_scan", "android": "https://dc.lft.to/lastmile_qr_scan"}}, {"name": "0711a56dd7aff3ca749c6736df0a42b4", "fusion_lat": 0.0, "type": "electric_scooter", "lat": 38.857180666666665, "is_reserved": 0, "is_disabled": 0, "fusion_lon": 0.0, "bike_id": "0711a56dd7aff3ca749c6736df0a42b4", "lon": -76.98085433333334, "rental_uris": {"ios": "https://dc.lft.to/lastmile_qr_scan", "android": "https://dc.lft.to/lastmile_qr_scan"}}, {"name": "82f6101b1c51baab20994aacf1c05056", "fusion_lat": 0.0, "type": "electric_scooter", "lat": 38.975056, "is_reserved": 0, "is_disabled": 0, "fusion_lon": 0.0, "bike_id": "82f6101b1c51baab20994aacf1c05056", "lon": -77.01719116666666, "rental_uris": {"ios": "https://dc.lft.to/lastmile_qr_scan", "android": "https://dc.lft.to/lastmile_qr_scan"}}, {"name": "ca7f883300f445ac6b6fd76c33c5aab6", "fusion_lat": 0.0, "type": "electric_scooter", "lat": 38.902652, "is_reserved": 0, "is_disabled": 0, "fusion_lon": 0.0, "bike_id": "ca7f883300f445ac6b6fd76c33c5aab6", "lon": -77.04374266666666, "rental_uris": {"ios": "https://dc.lft.to/lastmile_qr_scan", "android": "https://dc.lft.to/lastmile_qr_scan"}}, {"name": "0e5fc910908120c099250377974b5abf", "fusion_lat": 0.0, "type": "electric_bike", "lat": 38.990626, "is_reserved": 0, "is_disabled": 0, "fusion_lon": 0.0, "bike_id": "0e5fc910908120c099250377974b5abf", "lon": -77.10025416666667, "rental_uris": {"ios": "https://dc.lft.to/lastmile_qr_scan", "android": "https://dc.lft.to/lastmile_qr_scan"}}, {"name": "59ee48da538a87c5104ed0c9e5e53ca4", "fusion_lat": 0.0, "type": "electric_scooter", "lat": 38.93262466666667, "is_reserved": 0, "is_disabled": 0, "fusion_lon": 0.0, "bike_id": "59ee48da538a87c5104ed0c9e5e53ca4", "lon": -77.038842, "rental_uris": {"ios": "https://dc.lft.to/lastmile_qr_scan", "android": "https://dc.lft.to/lastmile_qr_scan"}}, {"name": "a175a783c9481cbbf355ea6ef8193d1c", "fusion_lat": 0.0, "type": "electric_scooter", "lat": 38.88501866666667, "is_reserved": 0, "is_disabled": 0, "fusion_lon": 0.0, "bike_id": "a175a783c9481cbbf355ea6ef8193d1c", "lon": -77.01581033333333, "rental_uris": {"ios": "https://dc.lft.to/lastmile_qr_scan", "android": "https://dc.lft.to/lastmile_qr_scan"}}, {"name": "8c1d913b678b33d9e552bd562cc3285b", "fusion_lat": 0.0, "type": "electric_scooter", "lat": 38.85801166666667, "is_reserved": 0, "is_disabled": 0, "fusion_lon": 0.0, "bike_id": "8c1d913b678b33d9e552bd562cc3285b", "lon": -76.98642516666666, "rental_uris": {"ios": "https://dc.lft.to/lastmile_qr_scan", "android": "https://dc.lft.to/lastmile_qr_scan"}}, {"name": "278d0131b614850659e719d407a87098", "fusion_lat": 0.0, "type": "electric_scooter", "lat": 38.9220805, "is_reserved": 0, "is_disabled": 0, "fusion_lon": 0.0, "bike_id": "278d0131b614850659e719d407a87098", "lon": -77.04235983333334, "rental_uris": {"ios": "https://dc.lft.to/lastmile_qr_scan", "android": "https://dc.lft.to/lastmile_qr_scan"}}, {"name": "8c31c6b72ee9e3d1c6fb10d5e4e584ba", "fusion_lat": 0.0, "type": "electric_scooter", "lat": 38.9381645, "is_reserved": 0, "is_disabled": 0, "fusion_lon": 0.0, "bike_id": "8c31c6b72ee9e3d1c6fb10d5e4e584ba", "lon": -77.02473716666667, "rental_uris": {"ios": "https://dc.lft.to/lastmile_qr_scan", "android": "https://dc.lft.to/lastmile_qr_scan"}}, {"name": "841a89a3172b809ef28608caffca633b", "fusion_lat": 0.0, "type": "electric_scooter", "lat": 38.846303, "is_reserved": 0, "is_disabled": 0, "fusion_lon": 0.0, "bike_id": "841a89a3172b809ef28608caffca633b", "lon": -76.98442833333333, "rental_uris": {"ios": "https://dc.lft.to/lastmile_qr_scan", "android": "https://dc.lft.to/lastmile_qr_scan"}}, {"name": "188da7878beb8d7f20f8fd19008d5a2b", "fusion_lat": 0.0, "type": "electric_scooter", "lat": 38.88315266666667, "is_reserved": 0, "is_disabled": 0, "fusion_lon": 0.0, "bike_id": "188da7878beb8d7f20f8fd19008d5a2b", "lon": -77.0166535, "rental_uris": {"ios": "https://dc.lft.to/lastmile_qr_scan", "android": "https://dc.lft.to/lastmile_qr_scan"}}, {"name": "2f65c4dfe42c517e43199d5041493af0", "fusion_lat": 0.0, "type": "electric_bike", "lat": 39.05200516666667, "is_reserved": 0, "is_disabled": 0, "fusion_lon": 0.0, "bike_id": "2f65c4dfe42c517e43199d5041493af0", "lon": -77.10909333333333, "rental_uris": {"ios": "https://dc.lft.to/lastmile_qr_scan", "android": "https://dc.lft.to/lastmile_qr_scan"}}, {"name": "7bb0932ddbb9a0ffba3658e57d75958f", "fusion_lat": 0.0, "type": "electric_scooter", "lat": 38.858085833333334, "is_reserved": 0, "is_disabled": 0, "fusion_lon": 0.0, "bike_id": "7bb0932ddbb9a0ffba3658e57d75958f", "lon": -76.98652916666667, "rental_uris": {"ios": "https://dc.lft.to/lastmile_qr_scan", "android": "https://dc.lft.to/lastmile_qr_scan"}}, {"name": "bd9d1e77fcbd4a6b656faac093a6b46a", "fusion_lat": 0.0, "type": "electric_bike", "lat": 38.841592, "is_reserved": 0, "is_disabled": 0, "fusion_lon": 0.0, "bike_id": "bd9d1e77fcbd4a6b656faac093a6b46a", "lon": -77.0889045, "rental_uris": {"ios": "https://dc.lft.to/lastmile_qr_scan", "android": "https://dc.lft.to/lastmile_qr_scan"}}, {"name": "d11376db202a309077b64f03b6deff79", "fusion_lat": 0.0, "type": "electric_scooter", "lat": 38.87946916666667, "is_reserved": 0, "is_disabled": 0, "fusion_lon": 0.0, "bike_id": "d11376db202a309077b64f03b6deff79", "lon": -77.00832833333334, "rental_uris": {"ios": "https://dc.lft.to/lastmile_qr_scan", "android": "https://dc.lft.to/lastmile_qr_scan"}}, {"name": "cbe297bd3546ca479e9c56acd4e7a919", "fusion_lat": 0.0, "type": "electric_scooter", "lat": 38.89726433333333, "is_reserved": 0, "is_disabled": 0, "fusion_lon": 0.0, "bike_id": "cbe297bd3546ca479e9c56acd4e7a919", "lon": -77.02039683333334, "rental_uris": {"ios": "https://dc.lft.to/lastmile_qr_scan", "android": "https://dc.lft.to/lastmile_qr_scan"}}, {"name": "89da8297746c3af30cced92fe0d076ab", "fusion_lat": 0.0, "type": "electric_scooter", "lat": 38.901363, "is_reserved": 0, "is_disabled": 0, "fusion_lon": 0.0, "bike_id": "89da8297746c3af30cced92fe0d076ab", "lon": -76.991197, "rental_uris": {"ios": "https://dc.lft.to/lastmile_qr_scan", "android": "https://dc.lft.to/lastmile_qr_scan"}}, {"name": "e9f3eafbea6d4ea777eb08c41a5f0fa5", "fusion_lat": 0.0, "type": "electric_scooter", "lat": 38.900277833333334, "is_reserved": 0, "is_disabled": 0, "fusion_lon": 0.0, "bike_id": "e9f3eafbea6d4ea777eb08c41a5f0fa5", "lon": -76.99960333333334, "rental_uris": {"ios": "https://dc.lft.to/lastmile_qr_scan", "android": "https://dc.lft.to/lastmile_qr_scan"}}, {"name": "8e684c252f6131d9843711abec49d26a", "fusion_lat": 0.0, "type": "electric_scooter", "lat": 38.923698333333334, "is_reserved": 0, "is_disabled": 0, "fusion_lon": 0.0, "bike_id": "8e684c252f6131d9843711abec49d26a", "lon": -77.01918366666666, "rental_uris": {"ios": "https://dc.lft.to/lastmile_qr_scan", "android": "https://dc.lft.to/lastmile_qr_scan"}}, {"name": "adc87fbf1ae6d30cdbcba393f7ee90c9", "fusion_lat": 0.0, "type": "electric_scooter", "lat": 38.89727, "is_reserved": 0, "is_disabled": 0, "fusion_lon": 0.0, "bike_id": "adc87fbf1ae6d30cdbcba393f7ee90c9", "lon": -77.04334333333334, "rental_uris": {"ios": "https://dc.lft.to/lastmile_qr_scan", "android": "https://dc.lft.to/lastmile_qr_scan"}}, {"name": "c787f13709225ba8328ac7e62d2ea600", "fusion_lat": 0.0, "type": "electric_scooter", "lat": 38.905457166666665, "is_reserved": 0, "is_disabled": 0, "fusion_lon": 0.0, "bike_id": "c787f13709225ba8328ac7e62d2ea600", "lon": -77.04745366666667, "rental_uris": {"ios": "https://dc.lft.to/lastmile_qr_scan", "android": "https://dc.lft.to/lastmile_qr_scan"}}, {"name": "f3865ab5a1c5cc97f1b8c4f4b0f7b8ec", "fusion_lat": 0.0, "type": "electric_scooter", "lat": 38.90292183333333, "is_reserved": 0, "is_disabled": 0, "fusion_lon": 0.0, "bike_id": "f3865ab5a1c5cc97f1b8c4f4b0f7b8ec", "lon": -77.0446935, "rental_uris": {"ios": "https://dc.lft.to/lastmile_qr_scan", "android": "https://dc.lft.to/lastmile_qr_scan"}}, {"name": "cb7628c09bb93331b9979760dc21f193", "fusion_lat": 0.0, "type": "electric_bike", "lat": 38.843469, "is_reserved": 0, "is_disabled": 0, "fusion_lon": 0.0, "bike_id": "cb7628c09bb93331b9979760dc21f193", "lon": -77.064026, "rental_uris": {"ios": "https://dc.lft.to/lastmile_qr_scan", "android": "https://dc.lft.to/lastmile_qr_scan"}}, {"name": "c792745ab78c98556fd2e3162076235c", "fusion_lat": 0.0, "type": "electric_scooter", "lat": 38.92754816666667, "is_reserved": 0, "is_disabled": 0, "fusion_lon": 0.0, "bike_id": "c792745ab78c98556fd2e3162076235c", "lon": -77.02422933333334, "rental_uris": {"ios": "https://dc.lft.to/lastmile_qr_scan", "android": "https://dc.lft.to/lastmile_qr_scan"}}, {"name": "de57b2c2560712b2412e06499e12246b", "fusion_lat": 0.0, "type": "electric_scooter", "lat": 38.900623833333334, "is_reserved": 0, "is_disabled": 0, "fusion_lon": 0.0, "bike_id": "de57b2c2560712b2412e06499e12246b", "lon": -77.04573283333333, "rental_uris": {"ios": "https://dc.lft.to/lastmile_qr_scan", "android": "https://dc.lft.to/lastmile_qr_scan"}}, {"name": "14cd12f16678b792b07b1d399b84d243", "fusion_lat": 0.0, "type": "electric_bike", "lat": 38.8398625, "is_reserved": 0, "is_disabled": 0, "fusion_lon": 0.0, "bike_id": "14cd12f16678b792b07b1d399b84d243", "lon": -77.00564616666666, "rental_uris": {"ios": "https://dc.lft.to/lastmile_qr_scan", "android": "https://dc.lft.to/lastmile_qr_scan"}}, {"name": "19b29843f0352b0c2c54d051fcd00668", "fusion_lat": 0.0, "type": "electric_scooter", "lat": 38.9124825, "is_reserved": 0, "is_disabled": 0, "fusion_lon": 0.0, "bike_id": "19b29843f0352b0c2c54d051fcd00668", "lon": -77.03829183333333, "rental_uris": {"ios": "https://dc.lft.to/lastmile_qr_scan", "android": "https://dc.lft.to/lastmile_qr_scan"}}, {"name": "855a929af90dd1098eb686f53fae86de", "fusion_lat": 0.0, "type": "electric_bike", "lat": 38.887561833333336, "is_reserved": 0, "is_disabled": 0, "fusion_lon": 0.0, "bike_id": "855a929af90dd1098eb686f53fae86de", "lon": -76.90083816666667, "rental_uris": {"ios": "https://dc.lft.to/lastmile_qr_scan", "android": "https://dc.lft.to/lastmile_qr_scan"}}, {"name": "640b9210dc0604774123760758d2a7e1", "fusion_lat": 0.0, "type": "electric_scooter", "lat": 38.862477166666665, "is_reserved": 0, "is_disabled": 0, "fusion_lon": 0.0, "bike_id": "640b9210dc0604774123760758d2a7e1", "lon": -76.99531133333333, "rental_uris": {"ios": "https://dc.lft.to/lastmile_qr_scan", "android": "https://dc.lft.to/lastmile_qr_scan"}}, {"name": "50040af26966803bcae3154ed7b8f807", "fusion_lat": 0.0, "type": "electric_scooter", "lat": 38.8860245, "is_reserved": 0, "is_disabled": 0, "fusion_lon": 0.0, "bike_id": "50040af26966803bcae3154ed7b8f807", "lon": -77.02201283333333, "rental_uris": {"ios": "https://dc.lft.to/lastmile_qr_scan", "android": "https://dc.lft.to/lastmile_qr_scan"}}, {"name": "3456fab7781216171ca4644cb75e1f10", "fusion_lat": 0.0, "type": "electric_scooter", "lat": 38.876703666666664, "is_reserved": 0, "is_disabled": 0, "fusion_lon": 0.0, "bike_id": "3456fab7781216171ca4644cb75e1f10", "lon": -77.007439, "rental_uris": {"ios": "https://dc.lft.to/lastmile_qr_scan", "android": "https://dc.lft.to/lastmile_qr_scan"}}, {"name": "0572bd764cf98b6fb6450b4f3ddd0cdf", "fusion_lat": 0.0, "type": "electric_bike", "lat": 38.999902, "is_reserved": 0, "is_disabled": 0, "fusion_lon": 0.0, "bike_id": "0572bd764cf98b6fb6450b4f3ddd0cdf", "lon": -77.08006083333333, "rental_uris": {"ios": "https://dc.lft.to/lastmile_qr_scan", "android": "https://dc.lft.to/lastmile_qr_scan"}}, {"name": "f73b96d00b2e94093f50b541a707a085", "fusion_lat": 0.0, "type": "electric_scooter", "lat": 38.88503083333333, "is_reserved": 0, "is_disabled": 0, "fusion_lon": 0.0, "bike_id": "f73b96d00b2e94093f50b541a707a085", "lon": -77.00564583333333, "rental_uris": {"ios": "https://dc.lft.to/lastmile_qr_scan", "android": "https://dc.lft.to/lastmile_qr_scan"}}, {"name": "d4060b0a0ff77977cb9f2426c5a17192", "fusion_lat": 0.0, "type": "electric_scooter", "lat": 38.9007155, "is_reserved": 0, "is_disabled": 0, "fusion_lon": 0.0, "bike_id": "d4060b0a0ff77977cb9f2426c5a17192", "lon": -77.04973133333333, "rental_uris": {"ios": "https://dc.lft.to/lastmile_qr_scan", "android": "https://dc.lft.to/lastmile_qr_scan"}}, {"name": "05119533bbbda306b53f4320fd4db1a1", "fusion_lat": 0.0, "type": "electric_bike", "lat": 38.862632833333336, "is_reserved": 0, "is_disabled": 0, "fusion_lon": 0.0, "bike_id": "05119533bbbda306b53f4320fd4db1a1", "lon": -77.05942433333334, "rental_uris": {"ios": "https://dc.lft.to/lastmile_qr_scan", "android": "https://dc.lft.to/lastmile_qr_scan"}}, {"name": "8688471cc3f3a6d43939d47f75ed4f7d", "fusion_lat": 0.0, "type": "electric_scooter", "lat": 38.91263816666667, "is_reserved": 0, "is_disabled": 0, "fusion_lon": 0.0, "bike_id": "8688471cc3f3a6d43939d47f75ed4f7d", "lon": -77.03869066666667, "rental_uris": {"ios": "https://dc.lft.to/lastmile_qr_scan", "android": "https://dc.lft.to/lastmile_qr_scan"}}, {"name": "c9b2565b896c628ab8c738858d334836", "fusion_lat": 0.0, "type": "electric_scooter", "lat": 38.943151666666665, "is_reserved": 0, "is_disabled": 0, "fusion_lon": 0.0, "bike_id": "c9b2565b896c628ab8c738858d334836", "lon": -77.02476816666666, "rental_uris": {"ios": "https://dc.lft.to/lastmile_qr_scan", "android": "https://dc.lft.to/lastmile_qr_scan"}}, {"name": "91c5f36c90c4003bef160d3af8d72c48", "fusion_lat": 0.0, "type": "electric_scooter", "lat": 38.862448, "is_reserved": 0, "is_disabled": 0, "fusion_lon": 0.0, "bike_id": "91c5f36c90c4003bef160d3af8d72c48", "lon": -76.99497566666666, "rental_uris": {"ios": "https://dc.lft.to/lastmile_qr_scan", "android": "https://dc.lft.to/lastmile_qr_scan"}}, {"name": "33f4671bcba9e45c4b4b084e29926fd5", "fusion_lat": 0.0, "type": "electric_scooter", "lat": 38.929782, "is_reserved": 0, "is_disabled": 0, "fusion_lon": 0.0, "bike_id": "33f4671bcba9e45c4b4b084e29926fd5", "lon": -77.01446433333334, "rental_uris": {"ios": "https://dc.lft.to/lastmile_qr_scan", "android": "https://dc.lft.to/lastmile_qr_scan"}}, {"name": "fec2ca425cdbe91de8cbb4c4421d4f44", "fusion_lat": 0.0, "type": "electric_scooter", "lat": 38.89173066666667, "is_reserved": 0, "is_disabled": 0, "fusion_lon": 0.0, "bike_id": "fec2ca425cdbe91de8cbb4c4421d4f44", "lon": -77.0155455, "rental_uris": {"ios": "https://dc.lft.to/lastmile_qr_scan", "android": "https://dc.lft.to/lastmile_qr_scan"}}, {"name": "89eaa06adfe779090414fe7e22ccb502", "fusion_lat": 0.0, "type": "electric_scooter", "lat": 38.912191, "is_reserved": 0, "is_disabled": 0, "fusion_lon": 0.0, "bike_id": "89eaa06adfe779090414fe7e22ccb502", "lon": -77.031987, "rental_uris": {"ios": "https://dc.lft.to/lastmile_qr_scan", "android": "https://dc.lft.to/lastmile_qr_scan"}}, {"name": "a951edd4dc147220ddb6e7cae5cb990a", "fusion_lat": 0.0, "type": "electric_scooter", "lat": 38.935895, "is_reserved": 0, "is_disabled": 0, "fusion_lon": 0.0, "bike_id": "a951edd4dc147220ddb6e7cae5cb990a", "lon": -76.99112016666666, "rental_uris": {"ios": "https://dc.lft.to/lastmile_qr_scan", "android": "https://dc.lft.to/lastmile_qr_scan"}}, {"name": "e9804424e2956ffbc218fedd6ae1883b", "fusion_lat": 0.0, "type": "electric_scooter", "lat": 38.932537833333335, "is_reserved": 0, "is_disabled": 0, "fusion_lon": 0.0, "bike_id": "e9804424e2956ffbc218fedd6ae1883b", "lon": -77.04012216666666, "rental_uris": {"ios": "https://dc.lft.to/lastmile_qr_scan", "android": "https://dc.lft.to/lastmile_qr_scan"}}, {"name": "7c45ac5c9b3b9eb26d4c7ff15ff21629", "fusion_lat": 0.0, "type": "electric_scooter", "lat": 38.9126835, "is_reserved": 0, "is_disabled": 0, "fusion_lon": 0.0, "bike_id": "7c45ac5c9b3b9eb26d4c7ff15ff21629", "lon": -77.0386565, "rental_uris": {"ios": "https://dc.lft.to/lastmile_qr_scan", "android": "https://dc.lft.to/lastmile_qr_scan"}}, {"name": "3324c3fde848d56d50f44e61438ffce0", "fusion_lat": 0.0, "type": "electric_scooter", "lat": 38.916585, "is_reserved": 0, "is_disabled": 0, "fusion_lon": 0.0, "bike_id": "3324c3fde848d56d50f44e61438ffce0", "lon": -77.037032, "rental_uris": {"ios": "https://dc.lft.to/lastmile_qr_scan", "android": "https://dc.lft.to/lastmile_qr_scan"}}, {"name": "4fa8a179dfe25359e4f6753aca6fca77", "fusion_lat": 0.0, "type": "electric_scooter", "lat": 38.90699033333333, "is_reserved": 0, "is_disabled": 0, "fusion_lon": 0.0, "bike_id": "4fa8a179dfe25359e4f6753aca6fca77", "lon": -77.02397416666666, "rental_uris": {"ios": "https://dc.lft.to/lastmile_qr_scan", "android": "https://dc.lft.to/lastmile_qr_scan"}}, {"name": "a1a9e012511e97f45a2e410a711e3c39", "fusion_lat": 0.0, "type": "electric_scooter", "lat": 38.91778383333333, "is_reserved": 0, "is_disabled": 0, "fusion_lon": 0.0, "bike_id": "a1a9e012511e97f45a2e410a711e3c39", "lon": -77.03442733333333, "rental_uris": {"ios": "https://dc.lft.to/lastmile_qr_scan", "android": "https://dc.lft.to/lastmile_qr_scan"}}, {"name": "52c9225ae0e4683f69fc72987dd544df", "fusion_lat": 0.0, "type": "electric_scooter", "lat": 38.887664666666666, "is_reserved": 0, "is_disabled": 0, "fusion_lon": 0.0, "bike_id": "52c9225ae0e4683f69fc72987dd544df", "lon": -76.955971, "rental_uris": {"ios": "https://dc.lft.to/lastmile_qr_scan", "android": "https://dc.lft.to/lastmile_qr_scan"}}, {"name": "58e780f7a64f7426419b69deb07080ca", "fusion_lat": 0.0, "type": "electric_scooter", "lat": 38.9049975, "is_reserved": 0, "is_disabled": 0, "fusion_lon": 0.0, "bike_id": "58e780f7a64f7426419b69deb07080ca", "lon": -77.04477666666666, "rental_uris": {"ios": "https://dc.lft.to/lastmile_qr_scan", "android": "https://dc.lft.to/lastmile_qr_scan"}}, {"name": "8dbe2f51fb77e996df31e890418bae46", "fusion_lat": 0.0, "type": "electric_scooter", "lat": 38.9361485, "is_reserved": 0, "is_disabled": 0, "fusion_lon": 0.0, "bike_id": "8dbe2f51fb77e996df31e890418bae46", "lon": -77.03210616666667, "rental_uris": {"ios": "https://dc.lft.to/lastmile_qr_scan", "android": "https://dc.lft.to/lastmile_qr_scan"}}, {"name": "c00d438e5f1136c63f1ba74f9481d093", "fusion_lat": 0.0, "type": "electric_scooter", "lat": 38.890906666666666, "is_reserved": 0, "is_disabled": 0, "fusion_lon": 0.0, "bike_id": "c00d438e5f1136c63f1ba74f9481d093", "lon": -76.98728516666667, "rental_uris": {"ios": "https://dc.lft.to/lastmile_qr_scan", "android": "https://dc.lft.to/lastmile_qr_scan"}}, {"name": "cdab05cb674ee71bd0fa3f7071dec777", "fusion_lat": 0.0, "type": "electric_scooter", "lat": 38.911698666666666, "is_reserved": 0, "is_disabled": 0, "fusion_lon": 0.0, "bike_id": "cdab05cb674ee71bd0fa3f7071dec777", "lon": -77.0112935, "rental_uris": {"ios": "https://dc.lft.to/lastmile_qr_scan", "android": "https://dc.lft.to/lastmile_qr_scan"}}, {"name": "2b2b6b47a67f893bc955d08e007776c1", "fusion_lat": 0.0, "type": "electric_scooter", "lat": 38.88505633333333, "is_reserved": 0, "is_disabled": 0, "fusion_lon": 0.0, "bike_id": "2b2b6b47a67f893bc955d08e007776c1", "lon": -77.005696, "rental_uris": {"ios": "https://dc.lft.to/lastmile_qr_scan", "android": "https://dc.lft.to/lastmile_qr_scan"}}, {"name": "d9169e20bb3aef8e2ac01cf7cd135d14", "fusion_lat": 0.0, "type": "electric_scooter", "lat": 38.912584333333335, "is_reserved": 0, "is_disabled": 0, "fusion_lon": 0.0, "bike_id": "d9169e20bb3aef8e2ac01cf7cd135d14", "lon": -77.038603, "rental_uris": {"ios": "https://dc.lft.to/lastmile_qr_scan", "android": "https://dc.lft.to/lastmile_qr_scan"}}, {"name": "8db530778de81b0c8549890b2cc58a9f", "fusion_lat": 0.0, "type": "electric_scooter", "lat": 38.931079833333335, "is_reserved": 0, "is_disabled": 0, "fusion_lon": 0.0, "bike_id": "8db530778de81b0c8549890b2cc58a9f", "lon": -77.0351055, "rental_uris": {"ios": "https://dc.lft.to/lastmile_qr_scan", "android": "https://dc.lft.to/lastmile_qr_scan"}}, {"name": "2ac3e8b76013ba39f65806b8add37e3c", "fusion_lat": 0.0, "type": "electric_scooter", "lat": 38.9134825, "is_reserved": 0, "is_disabled": 0, "fusion_lon": 0.0, "bike_id": "2ac3e8b76013ba39f65806b8add37e3c", "lon": -77.04227983333334, "rental_uris": {"ios": "https://dc.lft.to/lastmile_qr_scan", "android": "https://dc.lft.to/lastmile_qr_scan"}}, {"name": "defb105662d4405338ab292ee22b215b", "fusion_lat": 0.0, "type": "electric_scooter", "lat": 38.92704, "is_reserved": 0, "is_disabled": 0, "fusion_lon": 0.0, "bike_id": "defb105662d4405338ab292ee22b215b", "lon": -77.03724716666666, "rental_uris": {"ios": "https://dc.lft.to/lastmile_qr_scan", "android": "https://dc.lft.to/lastmile_qr_scan"}}, {"name": "198a0b0bc3594325869f41ae656fc346", "fusion_lat": 0.0, "type": "electric_scooter", "lat": 38.90854933333333, "is_reserved": 0, "is_disabled": 0, "fusion_lon": 0.0, "bike_id": "198a0b0bc3594325869f41ae656fc346", "lon": -76.99795533333334, "rental_uris": {"ios": "https://dc.lft.to/lastmile_qr_scan", "android": "https://dc.lft.to/lastmile_qr_scan"}}, {"name": "d33ffb69e2a6868fba582364b6e77e6e", "fusion_lat": 0.0, "type": "electric_scooter", "lat": 38.911237166666666, "is_reserved": 0, "is_disabled": 0, "fusion_lon": 0.0, "bike_id": "d33ffb69e2a6868fba582364b6e77e6e", "lon": -77.04772533333333, "rental_uris": {"ios": "https://dc.lft.to/lastmile_qr_scan", "android": "https://dc.lft.to/lastmile_qr_scan"}}, {"name": "b653d4eca82c22d72536e01b493bfeb5", "fusion_lat": 0.0, "type": "electric_scooter", "lat": 38.895485666666666, "is_reserved": 0, "is_disabled": 0, "fusion_lon": 0.0, "bike_id": "b653d4eca82c22d72536e01b493bfeb5", "lon": -76.94873133333333, "rental_uris": {"ios": "https://dc.lft.to/lastmile_qr_scan", "android": "https://dc.lft.to/lastmile_qr_scan"}}, {"name": "778250529972e1b7a010d174521c4e46", "fusion_lat": 0.0, "type": "electric_scooter", "lat": 38.8977485, "is_reserved": 0, "is_disabled": 0, "fusion_lon": 0.0, "bike_id": "778250529972e1b7a010d174521c4e46", "lon": -77.02595783333334, "rental_uris": {"ios": "https://dc.lft.to/lastmile_qr_scan", "android": "https://dc.lft.to/lastmile_qr_scan"}}, {"name": "be22a590fe6e10858645d4747d40c22c", "fusion_lat": 0.0, "type": "electric_scooter", "lat": 38.9119845, "is_reserved": 0, "is_disabled": 0, "fusion_lon": 0.0, "bike_id": "be22a590fe6e10858645d4747d40c22c", "lon": -77.0325605, "rental_uris": {"ios": "https://dc.lft.to/lastmile_qr_scan", "android": "https://dc.lft.to/lastmile_qr_scan"}}, {"name": "ccdd4752a6f17fdddcd0548310ea2c54", "fusion_lat": 0.0, "type": "electric_scooter", "lat": 38.893685166666664, "is_reserved": 0, "is_disabled": 0, "fusion_lon": 0.0, "bike_id": "ccdd4752a6f17fdddcd0548310ea2c54", "lon": -76.94984133333334, "rental_uris": {"ios": "https://dc.lft.to/lastmile_qr_scan", "android": "https://dc.lft.to/lastmile_qr_scan"}}, {"name": "d113962e96b848d6fbb6dee470e4767b", "fusion_lat": 0.0, "type": "electric_scooter", "lat": 38.89220433333333, "is_reserved": 0, "is_disabled": 0, "fusion_lon": 0.0, "bike_id": "d113962e96b848d6fbb6dee470e4767b", "lon": -77.013713, "rental_uris": {"ios": "https://dc.lft.to/lastmile_qr_scan", "android": "https://dc.lft.to/lastmile_qr_scan"}}, {"name": "365f0db9ee1ee73fd7217834a7d2ecd1", "fusion_lat": 0.0, "type": "electric_scooter", "lat": 38.9104155, "is_reserved": 0, "is_disabled": 0, "fusion_lon": 0.0, "bike_id": "365f0db9ee1ee73fd7217834a7d2ecd1", "lon": -77.042405, "rental_uris": {"ios": "https://dc.lft.to/lastmile_qr_scan", "android": "https://dc.lft.to/lastmile_qr_scan"}}, {"name": "c1a24148fc0d070d3efdefc1692c2f43", "fusion_lat": 0.0, "type": "electric_scooter", "lat": 38.91113, "is_reserved": 0, "is_disabled": 0, "fusion_lon": 0.0, "bike_id": "c1a24148fc0d070d3efdefc1692c2f43", "lon": -77.039199, "rental_uris": {"ios": "https://dc.lft.to/lastmile_qr_scan", "android": "https://dc.lft.to/lastmile_qr_scan"}}, {"name": "2e3b634ac4d86caae33005b1a155715d", "fusion_lat": 0.0, "type": "electric_scooter", "lat": 38.900429, "is_reserved": 0, "is_disabled": 0, "fusion_lon": 0.0, "bike_id": "2e3b634ac4d86caae33005b1a155715d", "lon": -76.98829233333333, "rental_uris": {"ios": "https://dc.lft.to/lastmile_qr_scan", "android": "https://dc.lft.to/lastmile_qr_scan"}}, {"name": "941f1e9a8dbbe1fb7ed287c5c0bc7a76", "fusion_lat": 0.0, "type": "electric_scooter", "lat": 38.906975, "is_reserved": 0, "is_disabled": 0, "fusion_lon": 0.0, "bike_id": "941f1e9a8dbbe1fb7ed287c5c0bc7a76", "lon": -77.023887, "rental_uris": {"ios": "https://dc.lft.to/lastmile_qr_scan", "android": "https://dc.lft.to/lastmile_qr_scan"}}, {"name": "0f9c204f25a989297c220295fb235bdf", "fusion_lat": 0.0, "type": "electric_bike", "lat": 38.869111, "is_reserved": 0, "is_disabled": 0, "fusion_lon": 0.0, "bike_id": "0f9c204f25a989297c220295fb235bdf", "lon": -77.13170766666667, "rental_uris": {"ios": "https://dc.lft.to/lastmile_qr_scan", "android": "https://dc.lft.to/lastmile_qr_scan"}}, {"name": "34304eed9d26a20c5e1c62358eeeb7ae", "fusion_lat": 0.0, "type": "electric_scooter", "lat": 38.9102665, "is_reserved": 0, "is_disabled": 0, "fusion_lon": 0.0, "bike_id": "34304eed9d26a20c5e1c62358eeeb7ae", "lon": -77.00759766666667, "rental_uris": {"ios": "https://dc.lft.to/lastmile_qr_scan", "android": "https://dc.lft.to/lastmile_qr_scan"}}, {"name": "38bb04617f1cb192e18b058bd99872aa", "fusion_lat": 0.0, "type": "electric_bike", "lat": 38.89486483333334, "is_reserved": 0, "is_disabled": 0, "fusion_lon": 0.0, "bike_id": "38bb04617f1cb192e18b058bd99872aa", "lon": -77.023172, "rental_uris": {"ios": "https://dc.lft.to/lastmile_qr_scan", "android": "https://dc.lft.to/lastmile_qr_scan"}}, {"name": "655185cd096c106d48c0076cac0da325", "fusion_lat": 0.0, "type": "electric_scooter", "lat": 38.90971166666667, "is_reserved": 0, "is_disabled": 0, "fusion_lon": 0.0, "bike_id": "655185cd096c106d48c0076cac0da325", "lon": -77.02175866666667, "rental_uris": {"ios": "https://dc.lft.to/lastmile_qr_scan", "android": "https://dc.lft.to/lastmile_qr_scan"}}, {"name": "b80b6dbc0a34acb71003c415ebc63aef", "fusion_lat": 0.0, "type": "electric_scooter", "lat": 38.90368183333333, "is_reserved": 0, "is_disabled": 0, "fusion_lon": 0.0, "bike_id": "b80b6dbc0a34acb71003c415ebc63aef", "lon": -77.032266, "rental_uris": {"ios": "https://dc.lft.to/lastmile_qr_scan", "android": "https://dc.lft.to/lastmile_qr_scan"}}, {"name": "fdba616bb116566df321c01469c67b88", "fusion_lat": 0.0, "type": "electric_scooter", "lat": 38.905681, "is_reserved": 0, "is_disabled": 0, "fusion_lon": 0.0, "bike_id": "fdba616bb116566df321c01469c67b88", "lon": -77.02208516666667, "rental_uris": {"ios": "https://dc.lft.to/lastmile_qr_scan", "android": "https://dc.lft.to/lastmile_qr_scan"}}, {"name": "1e94b3d4f937f8827647d851f6c52926", "fusion_lat": 0.0, "type": "electric_scooter", "lat": 38.844261333333336, "is_reserved": 0, "is_disabled": 0, "fusion_lon": 0.0, "bike_id": "1e94b3d4f937f8827647d851f6c52926", "lon": -76.99777266666666, "rental_uris": {"ios": "https://dc.lft.to/lastmile_qr_scan", "android": "https://dc.lft.to/lastmile_qr_scan"}}, {"name": "885241ceb8d4f64c764c179ed61f46f4", "fusion_lat": 0.0, "type": "electric_scooter", "lat": 38.9037135, "is_reserved": 0, "is_disabled": 0, "fusion_lon": 0.0, "bike_id": "885241ceb8d4f64c764c179ed61f46f4", "lon": -77.04652733333333, "rental_uris": {"ios": "https://dc.lft.to/lastmile_qr_scan", "android": "https://dc.lft.to/lastmile_qr_scan"}}, {"name": "2df9fc71be2233cf25c5da04acd7f34d", "fusion_lat": 0.0, "type": "electric_bike", "lat": 38.834361666666666, "is_reserved": 0, "is_disabled": 0, "fusion_lon": 0.0, "bike_id": "2df9fc71be2233cf25c5da04acd7f34d", "lon": -77.008246, "rental_uris": {"ios": "https://dc.lft.to/lastmile_qr_scan", "android": "https://dc.lft.to/lastmile_qr_scan"}}, {"name": "d33ecbf192c8128eaf963e13e13438b4", "fusion_lat": 0.0, "type": "electric_scooter", "lat": 38.93146983333333, "is_reserved": 0, "is_disabled": 0, "fusion_lon": 0.0, "bike_id": "d33ecbf192c8128eaf963e13e13438b4", "lon": -77.02960833333333, "rental_uris": {"ios": "https://dc.lft.to/lastmile_qr_scan", "android": "https://dc.lft.to/lastmile_qr_scan"}}, {"name": "8effb9d1042b8fa675a8e0d0067a4fca", "fusion_lat": 0.0, "type": "electric_scooter", "lat": 38.90035833333334, "is_reserved": 0, "is_disabled": 0, "fusion_lon": 0.0, "bike_id": "8effb9d1042b8fa675a8e0d0067a4fca", "lon": -77.00196216666667, "rental_uris": {"ios": "https://dc.lft.to/lastmile_qr_scan", "android": "https://dc.lft.to/lastmile_qr_scan"}}, {"name": "0ee18407f7cfc4dbe7f5ab0d30f3397e", "fusion_lat": 0.0, "type": "electric_scooter", "lat": 38.89401766666667, "is_reserved": 0, "is_disabled": 0, "fusion_lon": 0.0, "bike_id": "0ee18407f7cfc4dbe7f5ab0d30f3397e", "lon": -76.94805583333333, "rental_uris": {"ios": "https://dc.lft.to/lastmile_qr_scan", "android": "https://dc.lft.to/lastmile_qr_scan"}}, {"name": "a0342ebd68ea1ecea46240f59b686ae4", "fusion_lat": 0.0, "type": "electric_scooter", "lat": 38.86815566666667, "is_reserved": 0, "is_disabled": 0, "fusion_lon": 0.0, "bike_id": "a0342ebd68ea1ecea46240f59b686ae4", "lon": -76.98612833333334, "rental_uris": {"ios": "https://dc.lft.to/lastmile_qr_scan", "android": "https://dc.lft.to/lastmile_qr_scan"}}, {"name": "ad51a88cc2ea135b9e4ae462eca1c7e2", "fusion_lat": 0.0, "type": "electric_scooter", "lat": 38.90257883333334, "is_reserved": 0, "is_disabled": 0, "fusion_lon": 0.0, "bike_id": "ad51a88cc2ea135b9e4ae462eca1c7e2", "lon": -77.03457916666666, "rental_uris": {"ios": "https://dc.lft.to/lastmile_qr_scan", "android": "https://dc.lft.to/lastmile_qr_scan"}}, {"name": "a66fb752ed73d5c58240a70a82102199", "fusion_lat": 0.0, "type": "electric_scooter", "lat": 38.923530666666665, "is_reserved": 0, "is_disabled": 0, "fusion_lon": 0.0, "bike_id": "a66fb752ed73d5c58240a70a82102199", "lon": -77.03371416666667, "rental_uris": {"ios": "https://dc.lft.to/lastmile_qr_scan", "android": "https://dc.lft.to/lastmile_qr_scan"}}, {"name": "a4a0cf32b4d9cf6d909dbc7fe829eca6", "fusion_lat": 0.0, "type": "electric_bike", "lat": 38.89638716666666, "is_reserved": 0, "is_disabled": 0, "fusion_lon": 0.0, "bike_id": "a4a0cf32b4d9cf6d909dbc7fe829eca6", "lon": -77.104547, "rental_uris": {"ios": "https://dc.lft.to/lastmile_qr_scan", "android": "https://dc.lft.to/lastmile_qr_scan"}}, {"name": "045c7a682d1523d16f52b3592f34afa7", "fusion_lat": 0.0, "type": "electric_bike", "lat": 38.885861166666665, "is_reserved": 0, "is_disabled": 0, "fusion_lon": 0.0, "bike_id": "045c7a682d1523d16f52b3592f34afa7", "lon": -77.10334783333333, "rental_uris": {"ios": "https://dc.lft.to/lastmile_qr_scan", "android": "https://dc.lft.to/lastmile_qr_scan"}},