{"data": {"bikes": [{"is_disabled": 0, "fusion_lat": 0.0, "lat": 38.90488966666667, "type": "electric_scooter", "lon": -77.0296585, "is_reserved": 0, "fusion_lon": 0.0, "bike_id": "5a107d6550e2e865dcaaa721cca1de98", "name": "5a107d6550e2e865dcaaa721cca1de98", "rental_uris": {"ios": "https://dc.lft.to/lastmile_qr_scan", "android": "https://dc.lft.to/lastmile_qr_scan"}}, {"is_disabled": 0, "fusion_lat": 0.0, "lat": 38.914640166666665, "type": "electric_scooter", "lon": -77.03833883333333, "is_reserved": 0, "fusion_lon": 0.0, "bike_id": "a851e7bff886bcb73be5c88991c26f44", "name": "a851e7bff886bcb73be5c88991c26f44", "rental_uris": {"ios": "https://dc.lft.to/lastmile_qr_scan", "android": "https://dc.lft.to/lastmile_qr_scan"}}, {"is_disabled": 0, "fusion_lat": 0.0, "lat": 38.9736505, "type": "electric_scooter", "lon": -77.01869566666667, "is_reserved": 0, "fusion_lon": 0.0, "bike_id": "192df68d1510565d9a3ba73cde61cafe", "name": "192df68d1510565d9a3ba73cde61cafe", "rental_uris": {"ios": "https://dc.lft.to/lastmile_qr_scan", "android": "https://dc.lft.to/lastmile_qr_scan"}}, {"is_disabled": 0, "fusion_lat": 0.0, "lat": 38.842883666666665, "type": "electric_scooter", "lon": -76.99949366666667, "is_reserved": 0, "fusion_lon": 0.0, "bike_id": "e415dff74480493852be467b20e61e33", "name": "e415dff74480493852be467b20e61e33", "rental_uris": {"ios": "https://dc.lft.to/lastmile_qr_scan", "android": "https://dc.lft.to/lastmile_qr_scan"}}, {"is_disabled": 0, "fusion_lat": 0.0, "lat": 38.86729483333333, "type": "electric_scooter", "lon": -76.98782583333333, "is_reserved": 0, "fusion_lon": 0.0, "bike_id": "ae1bf6cea033424900cd1d66523e2321", "name": "ae1bf6cea033424900cd1d66523e2321", "rental_uris": {"ios": "https://dc.lft.to/lastmile_qr_scan", "android": "https://dc.lft.to/lastmile_qr_scan"}}, {"is_disabled": 0, "fusion_lat": 0.0, "lat": 38.926457166666665, "type": "electric_scooter", "lon": -77.037155, "is_reserved": 0, "fusion_lon": 0.0, "bike_id": "cf2c19326ecf299d7a5c0bec2122036b", "name": "cf2c19326ecf299d7a5c0bec2122036b", "rental_uris": {"ios": "https://dc.lft.to/lastmile_qr_scan", "android": "https://dc.lft.to/lastmile_qr_scan"}}, {"is_disabled": 0, "fusion_lat": 0.0, "lat": 38.916658166666664, "type": "electric_scooter", "lon": -77.00664883333333, "is_reserved": 0, "fusion_lon": 0.0, "bike_id": "d0f0125e01d3c9efa453f7ab481a4419", "name": "d0f0125e01d3c9efa453f7ab481a4419", "rental_uris": {"ios": "https://dc.lft.to/lastmile_qr_scan", "android": "https://dc.lft.to/lastmile_qr_scan"}}, {"is_disabled": 0, "fusion_lat": 0.0, "lat": 38.90283983333333, "type": "electric_scooter", "lon": -77.017584, "is_reserved": 0, "fusion_lon": 0.0, "bike_id": "4ab5d3d863c0a19c4222834d11de6d54", "name": "4ab5d3d863c0a19c4222834d11de6d54", "rental_uris": {"ios": "https://dc.lft.to/lastmile_qr_scan", "android": "https://dc.lft.to/lastmile_qr_scan"}}, {"is_disabled": 0, "fusion_lat": 0.0, "lat": 38.89717483333333, "type": "electric_scooter", "lon": -77.02702716666667, "is_reserved": 0, "fusion_lon": 0.0, "bike_id": "a4ef054846ba25489aaa1b9c125b2f23", "name": "a4ef054846ba25489aaa1b9c125b2f23", "rental_uris": {"ios": "https://dc.lft.to/lastmile_qr_scan", "android": "https://dc.lft.to/lastmile_qr_scan"}}, {"is_disabled": 0, "fusion_lat": 0.0, "lat": 38.940487, "type": "electric_scooter", "lon": -77.09269266666666, "is_reserved": 0, "fusion_lon": 0.0, "bike_id": "7782ca0bf4eff56f76b89066cfdc6e1c", "name": "7782ca0bf4eff56f76b89066cfdc6e1c", "rental_uris": {"ios": "https://dc.lft.to/lastmile_qr_scan", "android": "https://dc.lft.to/lastmile_qr_scan"}}, {"is_disabled": 0, "fusion_lat": 0.0, "lat": 38.876348166666666, "type": "electric_scooter", "lon": -77.01644733333333, "is_reserved": 0, "fusion_lon": 0.0, "bike_id": "9edeb6cd7437680bacb564d91644c905", "name": "9edeb6cd7437680bacb564d91644c905", "rental_uris": {"ios": "https://dc.lft.to/lastmile_qr_scan", "android": "https://dc.lft.to/lastmile_qr_scan"}}, {"is_disabled": 0, "fusion_lat": 0.0, "lat": 38.91981716666667, "type": "electric_scooter", "lon": -77.041635, "is_reserved": 0, "fusion_lon": 0.0, "bike_id": "078ba55191ee667137900b3f989a28e5", "name": "078ba55191ee667137900b3f989a28e5", "rental_uris": {"ios": "https://dc.lft.to/lastmile_qr_scan", "android": "https://dc.lft.to/lastmile_qr_scan"}}, {"is_disabled": 0, "fusion_lat": 0.0, "lat": 38.901418, "type": "electric_scooter", "lon": -77.03862233333334, "is_reserved": 0, "fusion_lon": 0.0, "bike_id": "2edc0f910f4fc6ec85eb982b61a54046", "name": "2edc0f910f4fc6ec85eb982b61a54046", "rental_uris": {"ios": "https://dc.lft.to/lastmile_qr_scan", "android": "https://dc.lft.to/lastmile_qr_scan"}}, {"is_disabled": 0, "fusion_lat": 0.0, "lat": 38.90127666666667, "type": "electric_scooter", "lon": -77.01819133333333, "is_reserved": 0, "fusion_lon": 0.0, "bike_id": "36ee6c40ec7d7b762f6a9fcbbb5c9ed8", "name": "36ee6c40ec7d7b762f6a9fcbbb5c9ed8", "rental_uris": {"ios": "https://dc.lft.to/lastmile_qr_scan", "android": "https://dc.lft.to/lastmile_qr_scan"}}, {"is_disabled": 0, "fusion_lat": 0.0, "lat": 38.935957, "type": "electric_scooter", "lon": -77.02327833333334, "is_reserved": 0, "fusion_lon": 0.0, "bike_id": "c39240d71d5b8a12ea8f765bcf7e1a27", "name": "c39240d71d5b8a12ea8f765bcf7e1a27", "rental_uris": {"ios": "https://dc.lft.to/lastmile_qr_scan", "android": "https://dc.lft.to/lastmile_qr_scan"}}, {"is_disabled": 0, "fusion_lat": 0.0, "lat": 38.924309666666666, "type": "electric_scooter", "lon": -77.04241766666667, "is_reserved": 0, "fusion_lon": 0.0, "bike_id": "5b5fa84520c507660561235ac2e4e64f", "name": "5b5fa84520c507660561235ac2e4e64f", "rental_uris": {"ios": "https://dc.lft.to/lastmile_qr_scan", "android": "https://dc.lft.to/lastmile_qr_scan"}}, {"is_disabled": 0, "fusion_lat": 0.0, "lat": 38.88296116666667, "type": "electric_scooter", "lon": -76.99139066666666, "is_reserved": 0, "fusion_lon": 0.0, "bike_id": "5779cb8a8c32d19a4e904651b4f7c1b9", "name": "5779cb8a8c32d19a4e904651b4f7c1b9", "rental_uris": {"ios": "https://dc.lft.to/lastmile_qr_scan", "android": "https://dc.lft.to/lastmile_qr_scan"}}, {"is_disabled": 0, "fusion_lat": 0.0, "lat": 38.910158, "type": "electric_scooter", "lon": -77.05468033333334, "is_reserved": 0, "fusion_lon": 0.0, "bike_id": "6e681138665d2d71461dc1a59ad4a701", "name": "6e681138665d2d71461dc1a59ad4a701", "rental_uris": {"ios": "https://dc.lft.to/lastmile_qr_scan", "android": "https://dc.lft.to/lastmile_qr_scan"}}, {"is_disabled": 0, "fusion_lat": 0.0, "lat": 38.866183666666664, "type": "electric_bike", "lon": -76.94571916666666, "is_reserved": 0, "fusion_lon": 0.0, "bike_id": "03eeb4f27efc2245803053f463fee297", "name": "03eeb4f27efc2245803053f463fee297", "rental_uris": {"ios": "https://dc.lft.to/lastmile_qr_scan", "android": "https://dc.lft.to/lastmile_qr_scan"}}, {"is_disabled": 0, "fusion_lat": 0.0, "lat": 38.9246345, "type": "electric_bike", "lon": -77.20841316666667, "is_reserved": 0, "fusion_lon": 0.0, "bike_id": "c0013b433f595e1eb9166852bbfa9a3a", "name": "c0013b433f595e1eb9166852bbfa9a3a", "rental_uris": {"ios": "https://dc.lft.to/lastmile_qr_scan", "android": "https://dc.lft.to/lastmile_qr_scan"}}, {"is_disabled": 0, "fusion_lat": 0.0, "lat": 38.890594, "type": "electric_scooter", "lon": -76.943351, "is_reserved": 0, "fusion_lon": 0.0, "bike_id": "c556e1b0d47234f544d7bdffc6bb6217", "name": "c556e1b0d47234f544d7bdffc6bb6217", "rental_uris": {"ios": "https://dc.lft.to/lastmile_qr_scan", "android": "https://dc.lft.to/lastmile_qr_scan"}}, {"is_disabled": 0, "fusion_lat": 0.0, "lat": 38.91300733333333, "type": "electric_scooter", "lon": -77.04351316666667, "is_reserved": 0, "fusion_lon": 0.0, "bike_id": "5dcb29e28a6b85dde5e91bde9c923a1f", "name": "5dcb29e28a6b85dde5e91bde9c923a1f", "rental_uris": {"ios": "https://dc.lft.to/lastmile_qr_scan", "android": "https://dc.lft.to/lastmile_qr_scan"}}, {"is_disabled": 0, "fusion_lat": 0.0, "lat": 38.907812, "type": "electric_scooter", "lon": -77.03830216666667, "is_reserved": 0, "fusion_lon": 0.0, "bike_id": "32290b104a3978ef2460705d2970c998", "name": "32290b104a3978ef2460705d2970c998", "rental_uris": {"ios": "https://dc.lft.to/lastmile_qr_scan", "android": "https://dc.lft.to/lastmile_qr_scan"}}, {"is_disabled": 0, "fusion_lat": 0.0, "lat": 38.858099333333335, "type": "electric_scooter", "lon": -76.98659116666667, "is_reserved": 0, "fusion_lon": 0.0, "bike_id": "e65c4450178f7f2384ccc20751d3e09a", "name": "e65c4450178f7f2384ccc20751d3e09a", "rental_uris": {"ios": "https://dc.lft.to/lastmile_qr_scan", "android": "https://dc.lft.to/lastmile_qr_scan"}}, {"is_disabled": 0, "fusion_lat": 0.0, "lat": 38.89187066666667, "type": "electric_bike", "lon": -77.1226275, "is_reserved": 0, "fusion_lon": 0.0, "bike_id": "aa66c305e77e670fbe768b5918d0edd7", "name": "aa66c305e77e670fbe768b5918d0edd7", "rental_uris": {"ios": "https://dc.lft.to/lastmile_qr_scan", "android": "https://dc.lft.to/lastmile_qr_scan"}}, {"is_disabled": 0, "fusion_lat": 0.0, "lat": 38.9207375, "type": "electric_scooter", "lon": -77.023934, "is_reserved": 0, "fusion_lon": 0.0, "bike_id": "844efb41d0f4bfd0e888917e081af5af", "name": "844efb41d0f4bfd0e888917e081af5af", "rental_uris": {"ios": "https://dc.lft.to/lastmile_qr_scan", "android": "https://dc.lft.to/lastmile_qr_scan"}}, {"is_disabled": 0, "fusion_lat": 0.0, "lat": 38.92103516666667, "type": "electric_scooter", "lon": -77.03171066666667, "is_reserved": 0, "fusion_lon": 0.0, "bike_id": "4ce1914ab85c65cbc5bc29b995971000", "name": "4ce1914ab85c65cbc5bc29b995971000", "rental_uris": {"ios": "https://dc.lft.to/lastmile_qr_scan", "android": "https://dc.lft.to/lastmile_qr_scan"}}, {"is_disabled": 0, "fusion_lat": 0.0, "lat": 38.918490166666665, "type": "electric_scooter", "lon": -77.0320625, "is_reserved": 0, "fusion_lon": 0.0, "bike_id": "3144d04f29caca59c0511463c1f427f8", "name": "3144d04f29caca59c0511463c1f427f8", "rental_uris": {"ios": "https://dc.lft.to/lastmile_qr_scan", "android": "https://dc.lft.to/lastmile_qr_scan"}}, {"is_disabled": 0, "fusion_lat": 0.0, "lat": 38.94164933333333, "type": "electric_scooter", "lon": -77.02533166666667, "is_reserved": 0, "fusion_lon": 0.0, "bike_id": "f472ac7baf5a343cbfc5c2c15397c2cf", "name": "f472ac7baf5a343cbfc5c2c15397c2cf", "rental_uris": {"ios": "https://dc.lft.to/lastmile_qr_scan", "android": "https://dc.lft.to/lastmile_qr_scan"}}, {"is_disabled": 0, "fusion_lat": 0.0, "lat": 38.90505316666667, "type": "electric_scooter", "lon": -77.025356, "is_reserved": 0, "fusion_lon": 0.0, "bike_id": "35fc9ce085ca526952a591e0065c9f02", "name": "35fc9ce085ca526952a591e0065c9f02", "rental_uris": {"ios": "https://dc.lft.to/lastmile_qr_scan", "android": "https://dc.lft.to/lastmile_qr_scan"}}, {"is_disabled": 0, "fusion_lat": 0.0, "lat": 38.90717766666667, "type": "electric_scooter", "lon": -76.99793666666666, "is_reserved": 0, "fusion_lon": 0.0, "bike_id": "9ffd3aa0882925e8809c7d72b51d93c6", "name": "9ffd3aa0882925e8809c7d72b51d93c6", "rental_uris": {"ios": "https://dc.lft.to/lastmile_qr_scan", "android": "https://dc.lft.to/lastmile_qr_scan"}}, {"is_disabled": 0, "fusion_lat": 0.0, "lat": 38.902764166666664, "type": "electric_scooter", "lon": -77.04142416666667, "is_reserved": 0, "fusion_lon": 0.0, "bike_id": "4ed10fb1a354387287d60c724b80de10", "name": "4ed10fb1a354387287d60c724b80de10", "rental_uris": {"ios": "https://dc.lft.to/lastmile_qr_scan", "android": "https://dc.lft.to/lastmile_qr_scan"}}, {"is_disabled": 0, "fusion_lat": 0.0, "lat": 38.916154, "type": "electric_scooter", "lon": -77.0229405, "is_reserved": 0, "fusion_lon": 0.0, "bike_id": "733c1b4ed5f0060e04d31b0f09cda7f2", "name": "733c1b4ed5f0060e04d31b0f09cda7f2", "rental_uris": {"ios": "https://dc.lft.to/lastmile_qr_scan", "android": "https://dc.lft.to/lastmile_qr_scan"}}, {"is_disabled": 0, "fusion_lat": 0.0, "lat": 38.903732, "type": "electric_scooter", "lon": -77.03892616666667, "is_reserved": 0, "fusion_lon": 0.0, "bike_id": "c22e50784bd49b9abff95d2be273a88a", "name": "c22e50784bd49b9abff95d2be273a88a", "rental_uris": {"ios": "https://dc.lft.to/lastmile_qr_scan", "android": "https://dc.lft.to/lastmile_qr_scan"}}, {"is_disabled": 0, "fusion_lat": 0.0, "lat": 38.93825866666667, "type": "electric_bike", "lon": -77.032921, "is_reserved": 0, "fusion_lon": 0.0, "bike_id": "4d63209836c36ac4505a794a483ec335", "name": "4d63209836c36ac4505a794a483ec335", "rental_uris": {"ios": "https://dc.lft.to/lastmile_qr_scan", "android": "https://dc.lft.to/lastmile_qr_scan"}}, {"is_disabled": 0, "fusion_lat": 0.0, "lat": 38.921507, "type": "electric_scooter", "lon": -77.03874066666667, "is_reserved": 0, "fusion_lon": 0.0, "bike_id": "e13a6428d6051d15b28848ae4e627851", "name": "e13a6428d6051d15b28848ae4e627851", "rental_uris": {"ios": "https://dc.lft.to/lastmile_qr_scan", "android": "https://dc.lft.to/lastmile_qr_scan"}}, {"is_disabled": 0, "fusion_lat": 0.0, "lat": 38.90138866666667, "type": "electric_scooter", "lon": -76.9980045, "is_reserved": 0, "fusion_lon": 0.0, "bike_id": "401953f8ebda8a9a0d65c6d7b64969a7", "name": "401953f8ebda8a9a0d65c6d7b64969a7", "rental_uris": {"ios": "https://dc.lft.to/lastmile_qr_scan", "android": "https://dc.lft.to/lastmile_qr_scan"}}, {"is_disabled": 0, "fusion_lat": 0.0, "lat": 38.89250583333333, "type": "electric_scooter", "lon": -76.94341766666666, "is_reserved": 0, "fusion_lon": 0.0, "bike_id": "65119c2c2db6e3cd01fd1fcb99105ca6", "name": "65119c2c2db6e3cd01fd1fcb99105ca6", "rental_uris": {"ios": "https://dc.lft.to/lastmile_qr_scan", "android": "https://dc.lft.to/lastmile_qr_scan"}}, {"is_disabled": 0, "fusion_lat": 0.0, "lat": 38.91617216666667, "type": "electric_scooter", "lon": -77.02707916666667, "is_reserved": 0, "fusion_lon": 0.0, "bike_id": "ee146f72e27bce0d74196ed014cd4855", "name": "ee146f72e27bce0d74196ed014cd4855", "rental_uris": {"ios": "https://dc.lft.to/lastmile_qr_scan", "android": "https://dc.lft.to/lastmile_qr_scan"}}, {"is_disabled": 0, "fusion_lat": 0.0, "lat": 38.947992666666664, "type": "electric_bike", "lon": -77.00815516666667, "is_reserved": 0, "fusion_lon": 0.0, "bike_id": "995a7631c9235e60afdf056c8bb79055", "name": "995a7631c9235e60afdf056c8bb79055", "rental_uris": {"ios": "https://dc.lft.to/lastmile_qr_scan", "android": "https://dc.lft.to/lastmile_qr_scan"}}, {"is_disabled": 0, "fusion_lat": 0.0, "lat": 38.91271733333333, "type": "electric_scooter", "lon": -77.04169283333333, "is_reserved": 0, "fusion_lon": 0.0, "bike_id": "dfdc8f2e094f913d90db1daf3a3791f9", "name": "dfdc8f2e094f913d90db1daf3a3791f9", "rental_uris": {"ios": "https://dc.lft.to/lastmile_qr_scan", "android": "https://dc.lft.to/lastmile_qr_scan"}}, {"is_disabled": 0, "fusion_lat": 0.0, "lat": 38.90847133333333, "type": "electric_scooter", "lon": -77.02459983333334, "is_reserved": 0, "fusion_lon": 0.0, "bike_id": "665d0c8f233451222f408224b33dcaeb", "name": "665d0c8f233451222f408224b33dcaeb", "rental_uris": {"ios": "https://dc.lft.to/lastmile_qr_scan", "android": "https://dc.lft.to/lastmile_qr_scan"}}, {"is_disabled": 0, "fusion_lat": 0.0, "lat": 38.896144666666665, "type": "electric_scooter", "lon": -76.994109, "is_reserved": 0, "fusion_lon": 0.0, "bike_id": "33b189c0040bb0418dcb7e3a00c2bd4e", "name": "33b189c0040bb0418dcb7e3a00c2bd4e", "rental_uris": {"ios": "https://dc.lft.to/lastmile_qr_scan", "android": "https://dc.lft.to/lastmile_qr_scan"}}, {"is_disabled": 0, "fusion_lat": 0.0, "lat": 38.87147516666667, "type": "electric_bike", "lon": -76.93667516666666, "is_reserved": 0, "fusion_lon": 0.0, "bike_id": "cc7e4a7e7c4593fbc2916d0d3b8a26d0", "name": "cc7e4a7e7c4593fbc2916d0d3b8a26d0", "rental_uris": {"ios": "https://dc.lft.to/lastmile_qr_scan", "android": "https://dc.lft.to/lastmile_qr_scan"}}, {"is_disabled": 0, "fusion_lat": 0.0, "lat": 38.953516666666665, "type": "electric_bike", "lon": -76.98091833333334, "is_reserved": 0, "fusion_lon": 0.0, "bike_id": "1882fba3514c069482eb7d314f157898", "name": "1882fba3514c069482eb7d314f157898", "rental_uris": {"ios": "https://dc.lft.to/lastmile_qr_scan", "android": "https://dc.lft.to/lastmile_qr_scan"}}, {"is_disabled": 0, "fusion_lat": 0.0, "lat": 38.92497766666666, "type": "electric_scooter", "lon": -77.02152633333333, "is_reserved": 0, "fusion_lon": 0.0, "bike_id": "cf55c65d3fdb89f23e9ce1f8ea1268cf", "name": "cf55c65d3fdb89f23e9ce1f8ea1268cf", "rental_uris": {"ios": "https://dc.lft.to/lastmile_qr_scan", "android": "https://dc.lft.to/lastmile_qr_scan"}}, {"is_disabled": 0, "fusion_lat": 0.0, "lat": 38.901817, "type": "electric_scooter", "lon": -77.02559333333333, "is_reserved": 0, "fusion_lon": 0.0, "bike_id": "b06e23e30686cd923b9910a555c10640", "name": "b06e23e30686cd923b9910a555c10640", "rental_uris": {"ios": "https://dc.lft.to/lastmile_qr_scan", "android": "https://dc.lft.to/lastmile_qr_scan"}}, {"is_disabled": 0, "fusion_lat": 0.0, "lat": 38.8999215, "type": "electric_scooter", "lon": -77.00639466666667, "is_reserved": 0, "fusion_lon": 0.0, "bike_id": "c0ffece06b6e9171daaec9b35c1d1d24", "name": "c0ffece06b6e9171daaec9b35c1d1d24", "rental_uris": {"ios": "https://dc.lft.to/lastmile_qr_scan", "android": "https://dc.lft.to/lastmile_qr_scan"}}, {"is_disabled": 0, "fusion_lat": 0.0, "lat": 38.88316066666667, "type": "electric_scooter", "lon": -77.00942916666666, "is_reserved": 0, "fusion_lon": 0.0, "bike_id": "ae328bdb293bd26ecbc8c5b5f296743c", "name": "ae328bdb293bd26ecbc8c5b5f296743c", "rental_uris": {"ios": "https://dc.lft.to/lastmile_qr_scan", "android": "https://dc.lft.to/lastmile_qr_scan"}}, {"is_disabled": 0, "fusion_lat": 0.0, "lat": 38.9097845, "type": "electric_scooter", "lon": -77.0487415, "is_reserved": 0, "fusion_lon": 0.0, "bike_id": "071026515819f5baaad31c4ac5713b92", "name": "071026515819f5baaad31c4ac5713b92", "rental_uris": {"ios": "https://dc.lft.to/lastmile_qr_scan", "android": "https://dc.lft.to/lastmile_qr_scan"}}, {"is_disabled": 0, "fusion_lat": 0.0, "lat": 38.922853333333336, "type": "electric_scooter", "lon": -77.031994, "is_reserved": 0, "fusion_lon": 0.0, "bike_id": "2a1c31ad9fd5faf2942729e6c39c5c71", "name": "2a1c31ad9fd5faf2942729e6c39c5c71", "rental_uris": {"ios": "https://dc.lft.to/lastmile_qr_scan", "android": "https://dc.lft.to/lastmile_qr_scan"}}, {"is_disabled": 0, "fusion_lat": 0.0, "lat": 38.875424, "type": "electric_scooter", "lon": -77.0006505, "is_reserved": 0, "fusion_lon": 0.0, "bike_id": "192a341e63b026ffc7fb78a12a78d026", "name": "192a341e63b026ffc7fb78a12a78d026", "rental_uris": {"ios": "https://dc.lft.to/lastmile_qr_scan", "android": "https://dc.lft.to/lastmile_qr_scan"}}, {"is_disabled": 0, "fusion_lat": 0.0, "lat": 38.898839, "type": "electric_scooter", "lon": -77.0330095, "is_reserved": 0, "fusion_lon": 0.0, "bike_id": "9b215268f53fcfb36c934ed63f2f8936", "name": "9b215268f53fcfb36c934ed63f2f8936", "rental_uris": {"ios": "https://dc.lft.to/lastmile_qr_scan", "android": "https://dc.lft.to/lastmile_qr_scan"}}, {"is_disabled": 0, "fusion_lat": 0.0, "lat": 38.9418435, "type": "electric_scooter", "lon": -77.02488866666667, "is_reserved": 0, "fusion_lon": 0.0, "bike_id": "0ab3a759db294f5cfe7c67ac5c9b63a4", "name": "0ab3a759db294f5cfe7c67ac5c9b63a4", "rental_uris": {"ios": "https://dc.lft.to/lastmile_qr_scan", "android": "https://dc.lft.to/lastmile_qr_scan"}}, {"is_disabled": 0, "fusion_lat": 0.0, "lat": 38.9018265, "type": "electric_scooter", "lon": -76.93462483333333, "is_reserved": 0, "fusion_lon": 0.0, "bike_id": "908ef9b9b6012ef1bb03aae3e5bba855", "name": "908ef9b9b6012ef1bb03aae3e5bba855", "rental_uris": {"ios": "https://dc.lft.to/lastmile_qr_scan", "android": "https://dc.lft.to/lastmile_qr_scan"}}, {"is_disabled": 0, "fusion_lat": 0.0, "lat": 38.9198195, "type": "electric_scooter", "lon": -77.02394316666667, "is_reserved": 0, "fusion_lon": 0.0, "bike_id": "7203803386e225839df0053efe415413", "name": "7203803386e225839df0053efe415413", "rental_uris": {"ios": "https://dc.lft.to/lastmile_qr_scan", "android": "https://dc.lft.to/lastmile_qr_scan"}}, {"is_disabled": 0, "fusion_lat": 0.0, "lat": 38.901854166666666, "type": "electric_scooter", "lon": -77.02168233333333, "is_reserved": 0, "fusion_lon": 0.0, "bike_id": "6547dc782e42dc6f86968276e5357a1a", "name": "6547dc782e42dc6f86968276e5357a1a", "rental_uris": {"ios": "https://dc.lft.to/lastmile_qr_scan", "android": "https://dc.lft.to/lastmile_qr_scan"}}, {"is_disabled": 0, "fusion_lat": 0.0, "lat": 38.90342016666666, "type": "electric_scooter", "lon": -76.97244966666666, "is_reserved": 0, "fusion_lon": 0.0, "bike_id": "b062d0e5fcc8d9d1e8881f414c5be7ab", "name": "b062d0e5fcc8d9d1e8881f414c5be7ab", "rental_uris": {"ios": "https://dc.lft.to/lastmile_qr_scan", "android": "https://dc.lft.to/lastmile_qr_scan"}}, {"is_disabled": 0, "fusion_lat": 0.0, "lat": 38.926530166666666, "type": "electric_scooter", "lon": -77.03710733333334, "is_reserved": 0, "fusion_lon": 0.0, "bike_id": "b3b0c145b2006b1bda2dbabc27f6c10c", "name": "b3b0c145b2006b1bda2dbabc27f6c10c", "rental_uris": {"ios": "https://dc.lft.to/lastmile_qr_scan", "android": "https://dc.lft.to/lastmile_qr_scan"}}, {"is_disabled": 0, "fusion_lat": 0.0, "lat": 38.90450416666667, "type": "electric_scooter", "lon": -77.05916866666666, "is_reserved": 0, "fusion_lon": 0.0, "bike_id": "04e8425b833c461ad4233045ffd26051", "name": "04e8425b833c461ad4233045ffd26051", "rental_uris": {"ios": "https://dc.lft.to/lastmile_qr_scan", "android": "https://dc.lft.to/lastmile_qr_scan"}}, {"is_disabled": 0, "fusion_lat": 0.0, "lat": 38.90415483333334, "type": "electric_scooter", "lon": -77.04874316666667, "is_reserved": 0, "fusion_lon": 0.0, "bike_id": "11482ef55dc4f346270174ce53f2f46d", "name": "11482ef55dc4f346270174ce53f2f46d", "rental_uris": {"ios": "https://dc.lft.to/lastmile_qr_scan", "android": "https://dc.lft.to/lastmile_qr_scan"}}, {"is_disabled": 0, "fusion_lat": 0.0, "lat": 38.923571, "type": "electric_scooter", "lon": -77.0508805, "is_reserved": 0, "fusion_lon": 0.0, "bike_id": "a7f083c1022afb5bb5d52db1eb00bfd9", "name": "a7f083c1022afb5bb5d52db1eb00bfd9", "rental_uris": {"ios": "https://dc.lft.to/lastmile_qr_scan", "android": "https://dc.lft.to/lastmile_qr_scan"}}, {"is_disabled": 0, "fusion_lat": 0.0, "lat": 38.91333, "type": "electric_scooter", "lon": -77.04836583333334, "is_reserved": 0, "fusion_lon": 0.0, "bike_id": "44ca2f82aeebebe003c021c66b5df255", "name": "44ca2f82aeebebe003c021c66b5df255", "rental_uris": {"ios": "https://dc.lft.to/lastmile_qr_scan", "android": "https://dc.lft.to/lastmile_qr_scan"}}, {"is_disabled": 0, "fusion_lat": 0.0, "lat": 38.88120266666667, "type": "electric_bike", "lon": -77.01663866666667, "is_reserved": 0, "fusion_lon": 0.0, "bike_id": "e99a865f2fee113f47433d7ce9578ba0", "name": "e99a865f2fee113f47433d7ce9578ba0", "rental_uris": {"ios": "https://dc.lft.to/lastmile_qr_scan", "android": "https://dc.lft.to/lastmile_qr_scan"}}, {"is_disabled": 0, "fusion_lat": 0.0, "lat": 38.9539345, "type": "electric_bike", "lon": -77.0275655, "is_reserved": 0, "fusion_lon": 0.0, "bike_id": "99355115fb809deed4d02266c4fcbe96", "name": "99355115fb809deed4d02266c4fcbe96", "rental_uris": {"ios": "https://dc.lft.to/lastmile_qr_scan", "android": "https://dc.lft.to/lastmile_qr_scan"}}, {"is_disabled": 0, "fusion_lat": 0.0, "lat": 38.91254166666667, "type": "electric_scooter", "lon": -77.03498966666666, "is_reserved": 0, "fusion_lon": 0.0, "bike_id": "425feefac8f171840fa59792bbea7d4f", "name": "425feefac8f171840fa59792bbea7d4f", "rental_uris": {"ios": "https://dc.lft.to/lastmile_qr_scan", "android": "https://dc.lft.to/lastmile_qr_scan"}}, {"is_disabled": 0, "fusion_lat": 0.0, "lat": 38.885892, "type": "electric_scooter", "lon": -77.00063133333333, "is_reserved": 0, "fusion_lon": 0.0, "bike_id": "70e0b09bb10aa9646c667d616890a84b", "name": "70e0b09bb10aa9646c667d616890a84b", "rental_uris": {"ios": "https://dc.lft.to/lastmile_qr_scan", "android": "https://dc.lft.to/lastmile_qr_scan"}}, {"is_disabled": 0, "fusion_lat": 0.0, "lat": 38.916706833333336, "type": "electric_scooter", "lon": -77.01580166666666, "is_reserved": 0, "fusion_lon": 0.0, "bike_id": "10e8ad8d36d6289b139276a918be8602", "name": "10e8ad8d36d6289b139276a918be8602", "rental_uris": {"ios": "https://dc.lft.to/lastmile_qr_scan", "android": "https://dc.lft.to/lastmile_qr_scan"}}, {"is_disabled": 0, "fusion_lat": 0.0, "lat": 38.902695666666666, "type": "electric_scooter", "lon": -77.05315366666666, "is_reserved": 0, "fusion_lon": 0.0, "bike_id": "01fb781b248098dc3bed0fff7ee149fa", "name": "01fb781b248098dc3bed0fff7ee149fa", "rental_uris": {"ios": "https://dc.lft.to/lastmile_qr_scan", "android": "https://dc.lft.to/lastmile_qr_scan"}}, {"is_disabled": 0, "fusion_lat": 0.0, "lat": 38.920179166666664, "type": "electric_scooter", "lon": -77.00212183333333, "is_reserved": 0, "fusion_lon": 0.0, "bike_id": "8508a9736799dd6b32243f2ead4e20c3", "name": "8508a9736799dd6b32243f2ead4e20c3", "rental_uris": {"ios": "https://dc.lft.to/lastmile_qr_scan", "android": "https://dc.lft.to/lastmile_qr_scan"}}, {"is_disabled": 0, "fusion_lat": 0.0, "lat": 38.909641666666666, "type": "electric_scooter", "lon": -77.03903016666666, "is_reserved": 0, "fusion_lon": 0.0, "bike_id": "93c692ac3a4e307a579ca1f99875539a", "name": "93c692ac3a4e307a579ca1f99875539a", "rental_uris": {"ios": "https://dc.lft.to/lastmile_qr_scan", "android": "https://dc.lft.to/lastmile_qr_scan"}}, {"is_disabled": 0, "fusion_lat": 0.0, "lat": 38.89680033333333, "type": "electric_scooter", "lon": -76.93527083333333, "is_reserved": 0, "fusion_lon": 0.0, "bike_id": "a2bc32ca8de1ee08b5df8ca8ef9c545a", "name": "a2bc32ca8de1ee08b5df8ca8ef9c545a", "rental_uris": {"ios": "https://dc.lft.to/lastmile_qr_scan", "android": "https://dc.lft.to/lastmile_qr_scan"}}, {"is_disabled": 0, "fusion_lat": 0.0, "lat": 38.86614316666667, "type": "electric_scooter", "lon": -76.986775, "is_reserved": 0, "fusion_lon": 0.0, "bike_id": "ab148dc4e2bc1f76824ebf6d94877437", "name": "ab148dc4e2bc1f76824ebf6d94877437", "rental_uris": {"ios": "https://dc.lft.to/lastmile_qr_scan", "android": "https://dc.lft.to/lastmile_qr_scan"}}, {"is_disabled": 0, "fusion_lat": 0.0, "lat": 38.894745, "type": "electric_scooter", "lon": -76.9840455, "is_reserved": 0, "fusion_lon": 0.0, "bike_id": "a1b35b2dfcf1ac1d1c9797a621aea8a3", "name": "a1b35b2dfcf1ac1d1c9797a621aea8a3", "rental_uris": {"ios": "https://dc.lft.to/lastmile_qr_scan", "android": "https://dc.lft.to/lastmile_qr_scan"}}, {"is_disabled": 0, "fusion_lat": 0.0, "lat": 38.910099333333335, "type": "electric_scooter", "lon": -77.08894783333334, "is_reserved": 0, "fusion_lon": 0.0, "bike_id": "e92881e89f96ba9d8b9d9006d6bf1d85", "name": "e92881e89f96ba9d8b9d9006d6bf1d85", "rental_uris": {"ios": "https://dc.lft.to/lastmile_qr_scan", "android": "https://dc.lft.to/lastmile_qr_scan"}}, {"is_disabled": 0, "fusion_lat": 0.0, "lat": 38.861663, "type": "electric_bike", "lon": -77.13148666666666, "is_reserved": 0, "fusion_lon": 0.0, "bike_id": "6e74109b5a6f22f1c88a0732278c74bd", "name": "6e74109b5a6f22f1c88a0732278c74bd", "rental_uris": {"ios": "https://dc.lft.to/lastmile_qr_scan", "android": "https://dc.lft.to/lastmile_qr_scan"}}, {"is_disabled": 0, "fusion_lat": 0.0, "lat": 38.9369855, "type": "electric_bike", "lon": -77.02979783333333, "is_reserved": 0, "fusion_lon": 0.0, "bike_id": "4b647a44c073d2b02ab1cfc7ebd6d884", "name": "4b647a44c073d2b02ab1cfc7ebd6d884", "rental_uris": {"ios": "https://dc.lft.to/lastmile_qr_scan", "android": "https://dc.lft.to/lastmile_qr_scan"}}, {"is_disabled": 0, "fusion_lat": 0.0, "lat": 38.91368133333334, "type": "electric_scooter", "lon": -77.00457083333333, "is_reserved": 0, "fusion_lon": 0.0, "bike_id": "02c0797788bd0734c509873ac613617d", "name": "02c0797788bd0734c509873ac613617d", "rental_uris": {"ios": "https://dc.lft.to/lastmile_qr_scan", "android": "https://dc.lft.to/lastmile_qr_scan"}}, {"is_disabled": 0, "fusion_lat": 0.0, "lat": 38.921496833333336, "type": "electric_scooter", "lon": -77.03887233333333, "is_reserved": 0, "fusion_lon": 0.0, "bike_id": "8f936385422ba4e2958a24661e698cf6", "name": "8f936385422ba4e2958a24661e698cf6", "rental_uris": {"ios": "https://dc.lft.to/lastmile_qr_scan", "android": "https://dc.lft.to/lastmile_qr_scan"}}, {"is_disabled": 0, "fusion_lat": 0.0, "lat": 38.9000175, "type": "electric_scooter", "lon": -76.99014366666667, "is_reserved": 0, "fusion_lon": 0.0, "bike_id": "415f4b131ec2e0933a4bae65ed881b23", "name": "415f4b131ec2e0933a4bae65ed881b23", "rental_uris": {"ios": "https://dc.lft.to/lastmile_qr_scan", "android": "https://dc.lft.to/lastmile_qr_scan"}}, {"is_disabled": 0, "fusion_lat": 0.0, "lat": 38.872143, "type": "electric_bike", "lon": -77.0120125, "is_reserved": 0, "fusion_lon": 0.0, "bike_id": "b9b9242e34891ea5b90df3c9ae963f85", "name": "b9b9242e34891ea5b90df3c9ae963f85", "rental_uris": {"ios": "https://dc.lft.to/lastmile_qr_scan", "android": "https://dc.lft.to/lastmile_qr_scan"}}, {"is_disabled": 0, "fusion_lat": 0.0, "lat": 38.9509885, "type": "electric_scooter", "lon": -77.02337683333333, "is_reserved": 0, "fusion_lon": 0.0, "bike_id": "2c6e78f06a30f8d509b01e40b2fe17e1", "name": "2c6e78f06a30f8d509b01e40b2fe17e1", "rental_uris": {"ios": "https://dc.lft.to/lastmile_qr_scan", "android": "https://dc.lft.to/lastmile_qr_scan"}}, {"is_disabled": 0, "fusion_lat": 0.0, "lat": 38.89617916666667, "type": "electric_scooter", "lon": -76.98119033333333, "is_reserved": 0, "fusion_lon": 0.0, "bike_id": "a2118f16126d758dd10a0cd043d12c8a", "name": "a2118f16126d758dd10a0cd043d12c8a", "rental_uris": {"ios": "https://dc.lft.to/lastmile_qr_scan", "android": "https://dc.lft.to/lastmile_qr_scan"}}, {"is_disabled": 0, "fusion_lat": 0.0, "lat": 38.86570716666667, "type": "electric_scooter", "lon": -76.98951633333333, "is_reserved": 0, "fusion_lon": 0.0, "bike_id": "6d8165ffc2deca552350958afdb315a4", "name": "6d8165ffc2deca552350958afdb315a4", "rental_uris": {"ios": "https://dc.lft.to/lastmile_qr_scan", "android": "https://dc.lft.to/lastmile_qr_scan"}}, {"is_disabled": 0, "fusion_lat": 0.0, "lat": 38.907061, "type": "electric_scooter", "lon": -77.0434395, "is_reserved": 0, "fusion_lon": 0.0, "bike_id": "f6943237f00ead890de593254070d3cf", "name": "f6943237f00ead890de593254070d3cf", "rental_uris": {"ios": "https://dc.lft.to/lastmile_qr_scan", "android": "https://dc.lft.to/lastmile_qr_scan"}}, {"is_disabled": 0, "fusion_lat": 0.0, "lat": 38.945555666666664, "type": "electric_bike", "lon": -76.8954395, "is_reserved": 0, "fusion_lon": 0.0, "bike_id": "60342432835a77a42a97455f09d5e368", "name": "60342432835a77a42a97455f09d5e368", "rental_uris": {"ios": "https://dc.lft.to/lastmile_qr_scan", "android": "https://dc.lft.to/lastmile_qr_scan"}}, {"is_disabled": 0, "fusion_lat": 0.0, "lat": 38.9166195, "type": "electric_scooter", "lon": -77.03859016666667, "is_reserved": 0, "fusion_lon": 0.0, "bike_id": "f5e75edce6db658b50d6682f2495c2ac", "name": "f5e75edce6db658b50d6682f2495c2ac", "rental_uris": {"ios": "https://dc.lft.to/lastmile_qr_scan", "android": "https://dc.lft.to/lastmile_qr_scan"}}, {"is_disabled": 0, "fusion_lat": 0.0, "lat": 38.864613, "type": "electric_scooter", "lon": -76.97741633333334, "is_reserved": 0, "fusion_lon": 0.0, "bike_id": "3e869683632cf24437e27a57c94a916e", "name": "3e869683632cf24437e27a57c94a916e", "rental_uris": {"ios": "https://dc.lft.to/lastmile_qr_scan", "android": "https://dc.lft.to/lastmile_qr_scan"}}, {"is_disabled": 0, "fusion_lat": 0.0, "lat": 38.952511, "type": "electric_scooter", "lon": -77.069774, "is_reserved": 0, "fusion_lon": 0.0, "bike_id": "29ba45cd588d8e1c475609cab6deacb1", "name": "29ba45cd588d8e1c475609cab6deacb1", "rental_uris": {"ios": "https://dc.lft.to/lastmile_qr_scan", "android": "https://dc.lft.to/lastmile_qr_scan"}}, {"is_disabled": 0, "fusion_lat": 0.0, "lat": 38.925701, "type": "electric_scooter", "lon": -77.02835316666666, "is_reserved": 0, "fusion_lon": 0.0, "bike_id": "81ab7a3a2f623713e7f93a581bb325b1", "name": "81ab7a3a2f623713e7f93a581bb325b1", "rental_uris": {"ios": "https://dc.lft.to/lastmile_qr_scan", "android": "https://dc.lft.to/lastmile_qr_scan"}}, {"is_disabled": 0, "fusion_lat": 0.0, "lat": 38.949412333333335, "type": "electric_bike", "lon": -77.0161, "is_reserved": 0, "fusion_lon": 0.0, "bike_id": "45f0668a926bfea0da2e245dd22f2445", "name": "45f0668a926bfea0da2e245dd22f2445", "rental_uris": {"ios": "https://dc.lft.to/lastmile_qr_scan", "android": "https://dc.lft.to/lastmile_qr_scan"}}, {"is_disabled": 0, "fusion_lat": 0.0, "lat": 38.898342166666666, "type": "electric_scooter", "lon": -76.946336, "is_reserved": 0, "fusion_lon": 0.0, "bike_id": "fbe2bf70f2561e88757b02bacb25d036", "name": "fbe2bf70f2561e88757b02bacb25d036", "rental_uris": {"ios": "https://dc.lft.to/lastmile_qr_scan", "android": "https://dc.lft.to/lastmile_qr_scan"}}, {"is_disabled": 0, "fusion_lat": 0.0, "lat": 38.916316, "type": "electric_scooter", "lon": -77.03134166666666, "is_reserved": 0, "fusion_lon": 0.0, "bike_id": "50240364a4fe6dff1e34755f8a9c19a2", "name": "50240364a4fe6dff1e34755f8a9c19a2", "rental_uris": {"ios": "https://dc.lft.to/lastmile_qr_scan", "android": "https://dc.lft.to/lastmile_qr_scan"}}, {"is_disabled": 0, "fusion_lat": 0.0, "lat": 38.90970633333333, "type": "electric_scooter", "lon": -77.034428, "is_reserved": 0, "fusion_lon": 0.0, "bike_id": "c2f593407de3fcdd503e64d60608a04f", "name": "c2f593407de3fcdd503e64d60608a04f", "rental_uris": {"ios": "https://dc.lft.to/lastmile_qr_scan", "android": "https://dc.lft.to/lastmile_qr_scan"}}, {"is_disabled": 0, "fusion_lat": 0.0, "lat": 38.9170345, "type": "electric_scooter", "lon": -77.03342216666667, "is_reserved": 0, "fusion_lon": 0.0, "bike_id": "b1e97f95370b3a704c6bd2937aea4e04", "name": "b1e97f95370b3a704c6bd2937aea4e04", "rental_uris": {"ios": "https://dc.lft.to/lastmile_qr_scan", "android": "https://dc.lft.to/lastmile_qr_scan"}}, {"is_disabled": 0, "fusion_lat": 0.0, "lat": 38.897634, "type": "electric_scooter", "lon": -77.032081, "is_reserved": 0, "fusion_lon": 0.0, "bike_id": "5d75c39dc1c2c08cee798770cf575a1e", "name": "5d75c39dc1c2c08cee798770cf575a1e", "rental_uris": {"ios": "https://dc.lft.to/lastmile_qr_scan", "android": "https://dc.lft.to/lastmile_qr_scan"}}, {"is_disabled": 0, "fusion_lat": 0.0, "lat": 38.973279, "type": "electric_bike", "lon": -77.0215045, "is_reserved": 0, "fusion_lon": 0.0, "bike_id": "a18cbb269ff8fe9d77603325ea1347a2", "name": "a18cbb269ff8fe9d77603325ea1347a2", "rental_uris": {"ios": "https://dc.lft.to/lastmile_qr_scan", "android": "https://dc.lft.to/lastmile_qr_scan"}}, {"is_disabled": 0, "fusion_lat": 0.0, "lat": 38.91164766666667, "type": "electric_scooter", "lon": -77.0685815, "is_reserved": 0, "fusion_lon": 0.0, "bike_id": "fec352485e4c1c108963994d10e14d38", "name": "fec352485e4c1c108963994d10e14d38", "rental_uris": {"ios": "https://dc.lft.to/lastmile_qr_scan", "android": "https://dc.lft.to/lastmile_qr_scan"}}, {"is_disabled": 0, "fusion_lat": 0.0, "lat": 38.932107333333335, "type": "electric_scooter", "lon": -77.02357916666666, "is_reserved": 0, "fusion_lon": 0.0, "bike_id": "bf5aa4de3c6b1f1f88fee829321be03f", "name": "bf5aa4de3c6b1f1f88fee829321be03f", "rental_uris": {"ios": "https://dc.lft.to/lastmile_qr_scan", "android": "https://dc.lft.to/lastmile_qr_scan"}}, {"is_disabled": 0, "fusion_lat": 0.0, "lat": 38.902958166666664, "type": "electric_scooter", "lon": -76.99253033333333, "is_reserved": 0, "fusion_lon": 0.0, "bike_id": "8746cb523ef68cd5f972f176f192e50a", "name": "8746cb523ef68cd5f972f176f192e50a", "rental_uris": {"ios": "https://dc.lft.to/lastmile_qr_scan", "android": "https://dc.lft.to/lastmile_qr_scan"}}, {"is_disabled": 0, "fusion_lat": 0.0, "lat": 38.862194333333335, "type": "electric_scooter", "lon": -76.99465733333334, "is_reserved": 0, "fusion_lon": 0.0, "bike_id": "6c0ca9efdae6a75d11b9a3d5a7755eef", "name": "6c0ca9efdae6a75d11b9a3d5a7755eef", "rental_uris": {"ios": "https://dc.lft.to/lastmile_qr_scan", "android": "https://dc.lft.to/lastmile_qr_scan"}}, {"is_disabled": 0, "fusion_lat": 0.0, "lat": 38.844279666666665, "type": "electric_scooter", "lon": -76.99777383333333, "is_reserved": 0, "fusion_lon": 0.0, "bike_id": "6234894ef2e64ccb80d9751ee01095c4", "name": "6234894ef2e64ccb80d9751ee01095c4", "rental_uris": {"ios": "https://dc.lft.to/lastmile_qr_scan", "android": "https://dc.lft.to/lastmile_qr_scan"}}, {"is_disabled": 0, "fusion_lat": 0.0, "lat": 38.95649066666667, "type": "electric_bike", "lon": -77.02255683333334, "is_reserved": 0, "fusion_lon": 0.0, "bike_id": "3e72f67a47918c54ca29e5613658bec2", "name": "3e72f67a47918c54ca29e5613658bec2", "rental_uris": {"ios": "https://dc.lft.to/lastmile_qr_scan", "android": "https://dc.lft.to/lastmile_qr_scan"}}, {"is_disabled": 0, "fusion_lat": 0.0, "lat": 38.861660666666666, "type": "electric_bike", "lon": -76.95068883333333, "is_reserved": 0, "fusion_lon": 0.0, "bike_id": "3dcd3a773f29e0acf56191f5ee37d01a", "name": "3dcd3a773f29e0acf56191f5ee37d01a", "rental_uris": {"ios": "https://dc.lft.to/lastmile_qr_scan", "android": "https://dc.lft.to/lastmile_qr_scan"}}, {"is_disabled": 0, "fusion_lat": 0.0, "lat": 38.92375066666666, "type": "electric_scooter", "lon": -77.03536716666666, "is_reserved": 0, "fusion_lon": 0.0, "bike_id": "54e101189c012657fb75bcae48dbfcc5", "name": "54e101189c012657fb75bcae48dbfcc5", "rental_uris": {"ios": "https://dc.lft.to/lastmile_qr_scan", "android": "https://dc.lft.to/lastmile_qr_scan"}}, {"is_disabled": 0, "fusion_lat": 0.0, "lat": 38.92843583333333, "type": "electric_scooter", "lon": -77.0544005, "is_reserved": 0, "fusion_lon": 0.0, "bike_id": "b536bbc0b854a338c431003d131364b9", "name": "b536bbc0b854a338c431003d131364b9", "rental_uris": {"ios": "https://dc.lft.to/lastmile_qr_scan", "android": "https://dc.lft.to/lastmile_qr_scan"}}, {"is_disabled": 0, "fusion_lat": 0.0, "lat": 38.896111, "type": "electric_scooter", "lon": -77.047917, "is_reserved": 0, "fusion_lon": 0.0, "bike_id": "366cf7a79e6a21be87a2bb0332b07c5e", "name": "366cf7a79e6a21be87a2bb0332b07c5e", "rental_uris": {"ios": "https://dc.lft.to/lastmile_qr_scan", "android": "https://dc.lft.to/lastmile_qr_scan"}}, {"is_disabled": 0, "fusion_lat": 0.0, "lat": 38.92319366666667, "type": "electric_scooter", "lon": -77.04761083333334, "is_reserved": 0, "fusion_lon": 0.0, "bike_id": "f43bb0632fd64898732317ebd41f5e01", "name": "f43bb0632fd64898732317ebd41f5e01", "rental_uris": {"ios": "https://dc.lft.to/lastmile_qr_scan", "android": "https://dc.lft.to/lastmile_qr_scan"}}, {"is_disabled": 0, "fusion_lat": 0.0, "lat": 38.923311166666664, "type": "electric_scooter", "lon": -77.05681733333333, "is_reserved": 0, "fusion_lon": 0.0, "bike_id": "b16534b40e260d9320f0e73e26bc789c", "name": "b16534b40e260d9320f0e73e26bc789c", "rental_uris": {"ios": "https://dc.lft.to/lastmile_qr_scan", "android": "https://dc.lft.to/lastmile_qr_scan"}}, {"is_disabled": 0, "fusion_lat": 0.0, "lat": 38.909739, "type": "electric_scooter", "lon": -77.0487135, "is_reserved": 0, "fusion_lon": 0.0, "bike_id": "f1b313d0c491754b9820a0e2773ea5b4", "name": "f1b313d0c491754b9820a0e2773ea5b4", "rental_uris": {"ios": "https://dc.lft.to/lastmile_qr_scan", "android": "https://dc.lft.to/lastmile_qr_scan"}}, {"is_disabled": 0, "fusion_lat": 0.0, "lat": 38.92443216666667, "type": "electric_scooter", "lon": -77.0411625, "is_reserved": 0, "fusion_lon": 0.0, "bike_id": "f5c32d8a2054a419a18874bc34d94c50", "name": "f5c32d8a2054a419a18874bc34d94c50", "rental_uris": {"ios": "https://dc.lft.to/lastmile_qr_scan", "android": "https://dc.lft.to/lastmile_qr_scan"}}, {"is_disabled": 0, "fusion_lat": 0.0, "lat": 38.91706966666667, "type": "electric_scooter", "lon": -77.03122966666666, "is_reserved": 0, "fusion_lon": 0.0, "bike_id": "9735ceb9ef176c00ceaef871935f1f31", "name": "9735ceb9ef176c00ceaef871935f1f31", "rental_uris": {"ios": "https://dc.lft.to/lastmile_qr_scan", "android": "https://dc.lft.to/lastmile_qr_scan"}}, {"is_disabled": 0, "fusion_lat": 0.0, "lat": 38.95401283333333, "type": "electric_scooter", "lon": -77.02749583333333, "is_reserved": 0, "fusion_lon": 0.0, "bike_id": "b39d0c6fd167a5ef795e8f221a0fc9b1", "name": "b39d0c6fd167a5ef795e8f221a0fc9b1", "rental_uris": {"ios": "https://dc.lft.to/lastmile_qr_scan", "android": "https://dc.lft.to/lastmile_qr_scan"}}, {"is_disabled": 0, "fusion_lat": 0.0, "lat": 38.895332833333335, "type": "electric_scooter", "lon": -76.9489075, "is_reserved": 0, "fusion_lon": 0.0, "bike_id": "b12d0b7022e948104fe15203b75dbe05", "name": "b12d0b7022e948104fe15203b75dbe05", "rental_uris": {"ios": "https://dc.lft.to/lastmile_qr_scan", "android": "https://dc.lft.to/lastmile_qr_scan"}}, {"is_disabled": 0, "fusion_lat": 0.0, "lat": 38.892485, "type": "electric_scooter", "lon": -77.03958183333333, "is_reserved": 0, "fusion_lon": 0.0, "bike_id": "cf069ee2ad198e0e92f207bd2a3073a2", "name": "cf069ee2ad198e0e92f207bd2a3073a2", "rental_uris": {"ios": "https://dc.lft.to/lastmile_qr_scan", "android": "https://dc.lft.to/lastmile_qr_scan"}}, {"is_disabled": 0, "fusion_lat": 0.0, "lat": 38.911052166666664, "type": "electric_scooter", "lon": -77.0483895, "is_reserved": 0, "fusion_lon": 0.0, "bike_id": "df2c7fe261c44f9055d848f09d8293f0", "name": "df2c7fe261c44f9055d848f09d8293f0", "rental_uris": {"ios": "https://dc.lft.to/lastmile_qr_scan", "android": "https://dc.lft.to/lastmile_qr_scan"}}, {"is_disabled": 0, "fusion_lat": 0.0, "lat": 38.90092116666667, "type": "electric_scooter", "lon": -77.04807533333333, "is_reserved": 0, "fusion_lon": 0.0, "bike_id": "9b92fd53023fc8084c6129abe1c93af9", "name": "9b92fd53023fc8084c6129abe1c93af9", "rental_uris": {"ios": "https://dc.lft.to/lastmile_qr_scan", "android": "https://dc.lft.to/lastmile_qr_scan"}}, {"is_disabled": 0, "fusion_lat": 0.0, "lat": 38.90016033333333, "type": "electric_scooter", "lon": -77.00739416666667, "is_reserved": 0, "fusion_lon": 0.0, "bike_id": "9165cc592aa4abaf3eb75c5e3a1a4674", "name": "9165cc592aa4abaf3eb75c5e3a1a4674", "rental_uris": {"ios": "https://dc.lft.to/lastmile_qr_scan", "android": "https://dc.lft.to/lastmile_qr_scan"}}, {"is_disabled": 0, "fusion_lat": 0.0, "lat": 38.82786083333333, "type": "electric_bike", "lon": -77.00916633333334, "is_reserved": 0, "fusion_lon": 0.0, "bike_id": "79bf29c0d1258b5a90ed70392c6a5929", "name": "79bf29c0d1258b5a90ed70392c6a5929", "rental_uris": {"ios": "https://dc.lft.to/lastmile_qr_scan", "android": "https://dc.lft.to/lastmile_qr_scan"}}, {"is_disabled": 0, "fusion_lat": 0.0, "lat": 38.804412666666664, "type": "electric_bike", "lon": -77.042309, "is_reserved": 0, "fusion_lon": 0.0, "bike_id": "fe538485284cb282883b1f0c6a361748", "name": "fe538485284cb282883b1f0c6a361748", "rental_uris": {"ios": "https://dc.lft.to/lastmile_qr_scan", "android": "https://dc.lft.to/lastmile_qr_scan"}}, {"is_disabled": 0, "fusion_lat": 0.0, "lat": 38.9211055, "type": "electric_scooter", "lon": -77.04197383333333, "is_reserved": 0, "fusion_lon": 0.0, "bike_id": "033c199c0711c67fe2331b0401ee9f61", "name": "033c199c0711c67fe2331b0401ee9f61", "rental_uris": {"ios": "https://dc.lft.to/lastmile_qr_scan", "android": "https://dc.lft.to/lastmile_qr_scan"}}, {"is_disabled": 0, "fusion_lat": 0.0, "lat": 38.88266683333333, "type": "electric_scooter", "lon": -76.9958415, "is_reserved": 0, "fusion_lon": 0.0, "bike_id": "afbe5504c556ae18d4e30915a77e23d0", "name": "afbe5504c556ae18d4e30915a77e23d0", "rental_uris": {"ios": "https://dc.lft.to/lastmile_qr_scan", "android": "https://dc.lft.to/lastmile_qr_scan"}}, {"is_disabled": 0, "fusion_lat": 0.0, "lat": 38.93238066666667, "type": "electric_scooter", "lon": -77.03869133333333, "is_reserved": 0, "fusion_lon": 0.0, "bike_id": "f65a6f22d0d2d15def3d54412d229e2a", "name": "f65a6f22d0d2d15def3d54412d229e2a", "rental_uris": {"ios": "https://dc.lft.to/lastmile_qr_scan", "android": "https://dc.lft.to/lastmile_qr_scan"}}, {"is_disabled": 0, "fusion_lat": 0.0, "lat": 38.98431516666667, "type": "electric_scooter", "lon": -77.02672466666667, "is_reserved": 0, "fusion_lon": 0.0, "bike_id": "f89496af16f260898080f0310d62a538", "name": "f89496af16f260898080f0310d62a538", "rental_uris": {"ios": "https://dc.lft.to/lastmile_qr_scan", "android": "https://dc.lft.to/lastmile_qr_scan"}}, {"is_disabled": 0, "fusion_lat": 0.0, "lat": 38.964876833333335, "type": "electric_bike", "lon": -77.087682, "is_reserved": 0, "fusion_lon": 0.0, "bike_id": "19e31128f9e6fd8430ec2cf98d62acd0", "name": "19e31128f9e6fd8430ec2cf98d62acd0", "rental_uris": {"ios": "https://dc.lft.to/lastmile_qr_scan", "android": "https://dc.lft.to/lastmile_qr_scan"}}, {"is_disabled": 0, "fusion_lat": 0.0, "lat": 38.966000333333334, "type": "electric_scooter", "lon": -77.02322333333333, "is_reserved": 0, "fusion_lon": 0.0, "bike_id": "e91c044867d6517dc09654769f2a4e98", "name": "e91c044867d6517dc09654769f2a4e98", "rental_uris": {"ios": "https://dc.lft.to/lastmile_qr_scan", "android": "https://dc.lft.to/lastmile_qr_scan"}}, {"is_disabled": 0, "fusion_lat": 0.0, "lat": 38.8879645, "type": "electric_scooter", "lon": -76.93361316666666, "is_reserved": 0, "fusion_lon": 0.0, "bike_id": "114cba9cd4d58e431bdf5073d45b22ac", "name": "114cba9cd4d58e431bdf5073d45b22ac", "rental_uris": {"ios": "https://dc.lft.to/lastmile_qr_scan", "android": "https://dc.lft.to/lastmile_qr_scan"}}, {"is_disabled": 0, "fusion_lat": 0.0, "lat": 38.94436833333334, "type": "electric_scooter", "lon": -77.0635655, "is_reserved": 0, "fusion_lon": 0.0, "bike_id": "f69decac93785b0040dee270a0c11013", "name": "f69decac93785b0040dee270a0c11013", "rental_uris": {"ios": "https://dc.lft.to/lastmile_qr_scan", "android": "https://dc.lft.to/lastmile_qr_scan"}}, {"is_disabled": 0, "fusion_lat": 0.0, "lat": 38.89535983333333, "type": "electric_scooter", "lon": -77.032145, "is_reserved": 0, "fusion_lon": 0.0, "bike_id": "79a5bb4d8b8fa7f5a178ef36d812b7a2", "name": "79a5bb4d8b8fa7f5a178ef36d812b7a2", "rental_uris": {"ios": "https://dc.lft.to/lastmile_qr_scan", "android": "https://dc.lft.to/lastmile_qr_scan"}}, {"is_disabled": 0, "fusion_lat": 0.0, "lat": 38.904925666666664, "type": "electric_scooter", "lon": -77.06008916666667, "is_reserved": 0, "fusion_lon": 0.0, "bike_id": "7617e10f095231d0bbd179058b85af2e", "name": "7617e10f095231d0bbd179058b85af2e", "rental_uris": {"ios": "https://dc.lft.to/lastmile_qr_scan", "android": "https://dc.lft.to/lastmile_qr_scan"}}, {"is_disabled": 0, "fusion_lat": 0.0, "lat": 39.03883116666667, "type": "electric_bike", "lon": -76.99040416666666, "is_reserved": 0, "fusion_lon": 0.0, "bike_id": "b00a646d5699a7e16a4e93e8a5ae0ac2", "name": "b00a646d5699a7e16a4e93e8a5ae0ac2", "rental_uris": {"ios": "https://dc.lft.to/lastmile_qr_scan", "android": "https://dc.lft.to/lastmile_qr_scan"}}, {"is_disabled": 0, "fusion_lat": 0.0, "lat": 38.897639166666664, "type": "electric_scooter", "lon": -76.9855295, "is_reserved": 0, "fusion_lon": 0.0, "bike_id": "7993bd55a9ec797e31821e88fabbf075", "name": "7993bd55a9ec797e31821e88fabbf075", "rental_uris": {"ios": "https://dc.lft.to/lastmile_qr_scan", "android": "https://dc.lft.to/lastmile_qr_scan"}}, {"is_disabled": 0, "fusion_lat": 0.0, "lat": 38.90501483333333, "type": "electric_scooter", "lon": -77.05129416666666, "is_reserved": 0, "fusion_lon": 0.0, "bike_id": "2d4bad8f5c620d5146a1d355c61df031", "name": "2d4bad8f5c620d5146a1d355c61df031", "rental_uris": {"ios": "https://dc.lft.to/lastmile_qr_scan", "android": "https://dc.lft.to/lastmile_qr_scan"}}, {"is_disabled": 0, "fusion_lat": 0.0, "lat": 38.8580705, "type": "electric_scooter", "lon": -76.98655566666666, "is_reserved": 0, "fusion_lon": 0.0, "bike_id": "833d7f37fd6447ebbfb83fbde0aea0ee", "name": "833d7f37fd6447ebbfb83fbde0aea0ee", "rental_uris": {"ios": "https://dc.lft.to/lastmile_qr_scan", "android": "https://dc.lft.to/lastmile_qr_scan"}}, {"is_disabled": 0, "fusion_lat": 0.0, "lat": 38.9497825, "type": "electric_scooter", "lon": -77.02698216666667, "is_reserved": 0, "fusion_lon": 0.0, "bike_id": "280cf62f57125f6cd8fce8f2583b10b8", "name": "280cf62f57125f6cd8fce8f2583b10b8", "rental_uris": {"ios": "https://dc.lft.to/lastmile_qr_scan", "android": "https://dc.lft.to/lastmile_qr_scan"}}, {"is_disabled": 0, "fusion_lat": 0.0, "lat": 38.942038833333335, "type": "electric_bike", "lon": -77.01822483333333, "is_reserved": 0, "fusion_lon": 0.0, "bike_id": "bc4e5db304bfe2b63c2bacd239b2d3c5", "name": "bc4e5db304bfe2b63c2bacd239b2d3c5", "rental_uris": {"ios": "https://dc.lft.to/lastmile_qr_scan", "android": "https://dc.lft.to/lastmile_qr_scan"}}, {"is_disabled": 0, "fusion_lat": 0.0, "lat": 38.89223666666667, "type": "electric_scooter", "lon": -77.0244435, "is_reserved": 0, "fusion_lon": 0.0, "bike_id": "a5e97e0aa424a0f6283920b7d5db4fa4", "name": "a5e97e0aa424a0f6283920b7d5db4fa4", "rental_uris": {"ios": "https://dc.lft.to/lastmile_qr_scan", "android": "https://dc.lft.to/lastmile_qr_scan"}}, {"is_disabled": 0, "fusion_lat": 0.0, "lat": 38.9422755, "type": "electric_scooter", "lon": -77.01535116666666, "is_reserved": 0, "fusion_lon": 0.0, "bike_id": "86284cf97dc4c5eb514c2c85cd29d8dd", "name": "86284cf97dc4c5eb514c2c85cd29d8dd", "rental_uris": {"ios": "https://dc.lft.to/lastmile_qr_scan", "android": "https://dc.lft.to/lastmile_qr_scan"}}, {"is_disabled": 0, "fusion_lat": 0.0, "lat": 38.908002, "type": "electric_scooter", "lon": -77.03420466666667, "is_reserved": 0, "fusion_lon": 0.0, "bike_id": "4d04281977eff506105a334115c88cde", "name": "4d04281977eff506105a334115c88cde", "rental_uris": {"ios": "https://dc.lft.to/lastmile_qr_scan", "android": "https://dc.lft.to/lastmile_qr_scan"}}, {"is_disabled": 0, "fusion_lat": 0.0, "lat": 38.87888933333333, "type": "electric_scooter", "lon": -77.0056485, "is_reserved": 0, "fusion_lon": 0.0, "bike_id": "0162138c116e3014d69c13e89cd41d16", "name": "0162138c116e3014d69c13e89cd41d16", "rental_uris": {"ios": "https://dc.lft.to/lastmile_qr_scan", "android": "https://dc.lft.to/lastmile_qr_scan"}}, {"is_disabled": 0, "fusion_lat": 0.0, "lat": 38.884935166666665, "type": "electric_scooter", "lon": -77.00716666666666, "is_reserved": 0, "fusion_lon": 0.0, "bike_id": "520e6dabb8feed8166ca54e231f83cb6", "name": "520e6dabb8feed8166ca54e231f83cb6", "rental_uris": {"ios": "https://dc.lft.to/lastmile_qr_scan", "android": "https://dc.lft.to/lastmile_qr_scan"}}, {"is_disabled": 0, "fusion_lat": 0.0, "lat": 38.869868333333336, "type": "electric_bike", "lon": -76.95992966666667, "is_reserved": 0, "fusion_lon": 0.0, "bike_id": "7354d52be501abc63b90c8a408329643", "name": "7354d52be501abc63b90c8a408329643", "rental_uris": {"ios": "https://dc.lft.to/lastmile_qr_scan", "android": "https://dc.lft.to/lastmile_qr_scan"}}, {"is_disabled": 0, "fusion_lat": 0.0, "lat": 38.881783666666664, "type": "electric_scooter", "lon": -77.02096016666667, "is_reserved": 0, "fusion_lon": 0.0, "bike_id": "4e5867a3ce50d1b98676efa2236c179b", "name": "4e5867a3ce50d1b98676efa2236c179b", "rental_uris": {"ios": "https://dc.lft.to/lastmile_qr_scan", "android": "https://dc.lft.to/lastmile_qr_scan"}}, {"is_disabled": 0, "fusion_lat": 0.0, "lat": 38.932419833333334, "type": "electric_scooter", "lon": -77.03277683333333, "is_reserved": 0, "fusion_lon": 0.0, "bike_id": "22e2b4170dd878279213f5864d166343", "name": "22e2b4170dd878279213f5864d166343", "rental_uris": {"ios": "https://dc.lft.to/lastmile_qr_scan", "android": "https://dc.lft.to/lastmile_qr_scan"}}, {"is_disabled": 0, "fusion_lat": 0.0, "lat": 38.9416615, "type": "electric_scooter", "lon": -77.02531233333333, "is_reserved": 0, "fusion_lon": 0.0, "bike_id": "872f901185e8f9ef7be0e3fe5377b493", "name": "872f901185e8f9ef7be0e3fe5377b493", "rental_uris": {"ios": "https://dc.lft.to/lastmile_qr_scan", "android": "https://dc.lft.to/lastmile_qr_scan"}}, {"is_disabled": 0, "fusion_lat": 0.0, "lat": 38.897379, "type": "electric_scooter", "lon": -77.04685116666667, "is_reserved": 0, "fusion_lon": 0.0, "bike_id": "90a0f4da4daa4d1c672b9b9330bef2a0", "name": "90a0f4da4daa4d1c672b9b9330bef2a0", "rental_uris": {"ios": "https://dc.lft.to/lastmile_qr_scan", "android": "https://dc.lft.to/lastmile_qr_scan"}}, {"is_disabled": 0, "fusion_lat": 0.0, "lat": 38.92096383333333, "type": "electric_scooter", "lon": -77.02506866666667, "is_reserved": 0, "fusion_lon": 0.0, "bike_id": "1a3309ce6bd79698a2aa1c037232f686", "name": "1a3309ce6bd79698a2aa1c037232f686", "rental_uris": {"ios": "https://dc.lft.to/lastmile_qr_scan", "android": "https://dc.lft.to/lastmile_qr_scan"}}, {"is_disabled": 0, "fusion_lat": 0.0, "lat": 38.907837666666666, "type": "electric_scooter", "lon": -77.0366855, "is_reserved": 0, "fusion_lon": 0.0, "bike_id": "95bc0ef0396ac9e2b96771650701e8d4", "name": "95bc0ef0396ac9e2b96771650701e8d4", "rental_uris": {"ios": "https://dc.lft.to/lastmile_qr_scan", "android": "https://dc.lft.to/lastmile_qr_scan"}}, {"is_disabled": 0, "fusion_lat": 0.0, "lat": 38.80619183333334, "type": "electric_bike", "lon": -77.0634825, "is_reserved": 0, "fusion_lon": 0.0, "bike_id": "bbf5a25e66736830d9865abd70eac098", "name": "bbf5a25e66736830d9865abd70eac098", "rental_uris": {"ios": "https://dc.lft.to/lastmile_qr_scan", "android": "https://dc.lft.to/lastmile_qr_scan"}}, {"is_disabled": 0, "fusion_lat": 0.0, "lat": 38.92490733333333, "type": "electric_scooter", "lon": -77.0262735, "is_reserved": 0, "fusion_lon": 0.0, "bike_id": "1da516b4870da4a249c488539d0a5abe", "name": "1da516b4870da4a249c488539d0a5abe", "rental_uris": {"ios": "https://dc.lft.to/lastmile_qr_scan", "android": "https://dc.lft.to/lastmile_qr_scan"}}, {"is_disabled": 0, "fusion_lat": 0.0, "lat": 38.9850325, "type": "electric_bike", "lon": -76.9821085, "is_reserved": 0, "fusion_lon": 0.0, "bike_id": "969280588d33972ed0ae72f877a57279", "name": "969280588d33972ed0ae72f877a57279", "rental_uris": {"ios": "https://dc.lft.to/lastmile_qr_scan", "android": "https://dc.lft.to/lastmile_qr_scan"}}, {"is_disabled": 0, "fusion_lat": 0.0, "lat": 38.930199, "type": "electric_scooter", "lon": -77.020945, "is_reserved": 0, "fusion_lon": 0.0, "bike_id": "34116556a09b04f7b1b81b3129882e51", "name": "34116556a09b04f7b1b81b3129882e51", "rental_uris": {"ios": "https://dc.lft.to/lastmile_qr_scan", "android": "https://dc.lft.to/lastmile_qr_scan"}}, {"is_disabled": 0, "fusion_lat": 0.0, "lat": 38.898249166666666, "type": "electric_scooter", "lon": -77.031572, "is_reserved": 0, "fusion_lon": 0.0, "bike_id": "3afcca4bda4532e121f7b837951a50b1", "name": "3afcca4bda4532e121f7b837951a50b1", "rental_uris": {"ios": "https://dc.lft.to/lastmile_qr_scan", "android": "https://dc.lft.to/lastmile_qr_scan"}}, {"is_disabled": 0, "fusion_lat": 0.0, "lat": 38.91045366666667, "type": "electric_scooter", "lon": -77.01002566666666, "is_reserved": 0, "fusion_lon": 0.0, "bike_id": "5233c9e08b91e2d380fd63c8526039dd", "name": "5233c9e08b91e2d380fd63c8526039dd", "rental_uris": {"ios": "https://dc.lft.to/lastmile_qr_scan", "android": "https://dc.lft.to/lastmile_qr_scan"}}, {"is_disabled": 0, "fusion_lat": 0.0, "lat": 38.900674, "type": "electric_scooter", "lon": -77.01725733333333, "is_reserved": 0, "fusion_lon": 0.0, "bike_id": "5fd27c08013f21bc91cb60f27603c613", "name": "5fd27c08013f21bc91cb60f27603c613", "rental_uris": {"ios": "https://dc.lft.to/lastmile_qr_scan", "android": "https://dc.lft.to/lastmile_qr_scan"}}, {"is_disabled": 0, "fusion_lat": 0.0, "lat": 38.89842733333333, "type": "electric_scooter", "lon": -77.03332, "is_reserved": 0, "fusion_lon": 0.0, "bike_id": "932c3464d49001480cd7b3f141a63547", "name": "932c3464d49001480cd7b3f141a63547", "rental_uris": {"ios": "https://dc.lft.to/lastmile_qr_scan", "android": "https://dc.lft.to/lastmile_qr_scan"}}, {"is_disabled": 0, "fusion_lat": 0.0, "lat": 38.8859035, "type": "electric_scooter", "lon": -77.0006385, "is_reserved": 0, "fusion_lon": 0.0, "bike_id": "c36d0bf76182bd48142c81174510220d", "name": "c36d0bf76182bd48142c81174510220d", "rental_uris": {"ios": "https://dc.lft.to/lastmile_qr_scan", "android": "https://dc.lft.to/lastmile_qr_scan"}}, {"is_disabled": 0, "fusion_lat": 0.0, "lat": 38.921617833333336, "type": "electric_scooter", "lon": -76.99461533333333, "is_reserved": 0, "fusion_lon": 0.0, "bike_id": "d54a0c089e88b8563991e768b190138c", "name": "d54a0c089e88b8563991e768b190138c", "rental_uris": {"ios": "https://dc.lft.to/lastmile_qr_scan", "android": "https://dc.lft.to/lastmile_qr_scan"}}, {"is_disabled": 0, "fusion_lat": 0.0, "lat": 38.912538166666664, "type": "electric_scooter", "lon": -77.04227966666667, "is_reserved": 0, "fusion_lon": 0.0, "bike_id": "da249d898a0fddde4ff6e3a58f5fb20b", "name": "da249d898a0fddde4ff6e3a58f5fb20b", "rental_uris": {"ios": "https://dc.lft.to/lastmile_qr_scan", "android": "https://dc.lft.to/lastmile_qr_scan"}}, {"is_disabled": 0, "fusion_lat": 0.0, "lat": 38.913818, "type": "electric_scooter", "lon": -77.01707983333333, "is_reserved": 0, "fusion_lon": 0.0, "bike_id": "f65124dc5078d85d5ffe0551daebb21e", "name": "f65124dc5078d85d5ffe0551daebb21e", "rental_uris": {"ios": "https://dc.lft.to/lastmile_qr_scan", "android": "https://dc.lft.to/lastmile_qr_scan"}}, {"is_disabled": 0, "fusion_lat": 0.0, "lat": 38.918051, "type": "electric_scooter", "lon": -77.037233, "is_reserved": 0, "fusion_lon": 0.0, "bike_id": "cbd9ba6dac1228364e42e5a8af381b03", "name": "cbd9ba6dac1228364e42e5a8af381b03", "rental_uris": {"ios": "https://dc.lft.to/lastmile_qr_scan", "android": "https://dc.lft.to/lastmile_qr_scan"}}, {"is_disabled": 0, "fusion_lat": 0.0, "lat": 38.900576, "type": "electric_bike", "lon": -77.04511166666667, "is_reserved": 0, "fusion_lon": 0.0, "bike_id": "20bf6774325f1539fd56f8a4b2dda872", "name": "20bf6774325f1539fd56f8a4b2dda872", "rental_uris": {"ios": "https://dc.lft.to/lastmile_qr_scan", "android": "https://dc.lft.to/lastmile_qr_scan"}}, {"is_disabled": 0, "fusion_lat": 0.0, "lat": 38.93514583333334, "type": "electric_scooter", "lon": -77.02396283333333, "is_reserved": 0, "fusion_lon": 0.0, "bike_id": "6a6e11731841bee67ed343b8a8666b09", "name": "6a6e11731841bee67ed343b8a8666b09", "rental_uris": {"ios": "https://dc.lft.to/lastmile_qr_scan", "android": "https://dc.lft.to/lastmile_qr_scan"}}, {"is_disabled": 0, "fusion_lat": 0.0, "lat": 38.9027815, "type": "electric_scooter", "lon": -77.034392, "is_reserved": 0, "fusion_lon": 0.0, "bike_id": "9706f83b36e9f9b816e0c18e21b3c97a", "name": "9706f83b36e9f9b816e0c18e21b3c97a", "rental_uris": {"ios": "https://dc.lft.to/lastmile_qr_scan", "android": "https://dc.lft.to/lastmile_qr_scan"}}, {"is_disabled": 0, "fusion_lat": 0.0, "lat": 38.95729583333333, "type": "electric_scooter", "lon": -77.023895, "is_reserved": 0, "fusion_lon": 0.0, "bike_id": "956bfc162f91768b8510631e7ab4b36d", "name": "956bfc162f91768b8510631e7ab4b36d", "rental_uris": {"ios": "https://dc.lft.to/lastmile_qr_scan", "android": "https://dc.lft.to/lastmile_qr_scan"}}, {"is_disabled": 0, "fusion_lat": 0.0, "lat": 38.8955385, "type": "electric_scooter", "lon": -76.9304555, "is_reserved": 0, "fusion_lon": 0.0, "bike_id": "1aa3a8344230b369da0ac2915c83cd06", "name": "1aa3a8344230b369da0ac2915c83cd06", "rental_uris": {"ios": "https://dc.lft.to/lastmile_qr_scan", "android": "https://dc.lft.to/lastmile_qr_scan"}}, {"is_disabled": 0, "fusion_lat": 0.0, "lat": 38.95354716666667, "type": "electric_bike", "lon": -76.98093916666667, "is_reserved": 0, "fusion_lon": 0.0, "bike_id": "3b75a015fcbf3288f6425ef732f14b35", "name": "3b75a015fcbf3288f6425ef732f14b35", "rental_uris": {"ios": "https://dc.lft.to/lastmile_qr_scan", "android": "https://dc.lft.to/lastmile_qr_scan"}}, {"is_disabled": 0, "fusion_lat": 0.0, "lat": 38.846089, "type": "electric_bike", "lon": -76.96905216666667, "is_reserved": 0, "fusion_lon": 0.0, "bike_id": "99193f54f20717eb6342e7d6708c3bcd", "name": "99193f54f20717eb6342e7d6708c3bcd", "rental_uris": {"ios": "https://dc.lft.to/lastmile_qr_scan", "android": "https://dc.lft.to/lastmile_qr_scan"}}, {"is_disabled": 0, "fusion_lat": 0.0, "lat": 38.8962715, "type": "electric_scooter", "lon": -77.04055183333334, "is_reserved": 0, "fusion_lon": 0.0, "bike_id": "2495f5f4b6fcec827d318d9e2acf1f53", "name": "2495f5f4b6fcec827d318d9e2acf1f53", "rental_uris": {"ios": "https://dc.lft.to/lastmile_qr_scan", "android": "https://dc.lft.to/lastmile_qr_scan"}}, {"is_disabled": 0, "fusion_lat": 0.0, "lat": 38.846109, "type": "electric_bike", "lon": -76.978118, "is_reserved": 0, "fusion_lon": 0.0, "bike_id": "840183195710d0ea82ea81e1e96d0f14", "name": "840183195710d0ea82ea81e1e96d0f14", "rental_uris": {"ios": "https://dc.lft.to/lastmile_qr_scan", "android": "https://dc.lft.to/lastmile_qr_scan"}}, {"is_disabled": 0, "fusion_lat": 0.0, "lat": 38.912729, "type": "electric_scooter", "lon": -77.02249933333333, "is_reserved": 0, "fusion_lon": 0.0, "bike_id": "dceba10585deb4bf42e9548554946c70", "name": "dceba10585deb4bf42e9548554946c70", "rental_uris": {"ios": "https://dc.lft.to/lastmile_qr_scan", "android": "https://dc.lft.to/lastmile_qr_scan"}}, {"is_disabled": 0, "fusion_lat": 0.0, "lat": 38.924948, "type": "electric_scooter", "lon": -77.02151366666666, "is_reserved": 0, "fusion_lon": 0.0, "bike_id": "2c7e75f7aab4ed10ec34a236bbe702e6", "name": "2c7e75f7aab4ed10ec34a236bbe702e6", "rental_uris": {"ios": "https://dc.lft.to/lastmile_qr_scan", "android": "https://dc.lft.to/lastmile_qr_scan"}}, {"is_disabled": 0, "fusion_lat": 0.0, "lat": 38.90384533333334, "type": "electric_scooter", "lon": -77.03896216666666, "is_reserved": 0, "fusion_lon": 0.0, "bike_id": "fcd9d1c46d6cd2ebed918e8271662a1e", "name": "fcd9d1c46d6cd2ebed918e8271662a1e", "rental_uris": {"ios": "https://dc.lft.to/lastmile_qr_scan", "android": "https://dc.lft.to/lastmile_qr_scan"}}, {"is_disabled": 0, "fusion_lat": 0.0, "lat": 38.909188, "type": "electric_scooter", "lon": -76.99966583333334, "is_reserved": 0, "fusion_lon": 0.0, "bike_id": "4732d3cc8455dc0dce1f5e9a844a4d5c", "name": "4732d3cc8455dc0dce1f5e9a844a4d5c", "rental_uris": {"ios": "https://dc.lft.to/lastmile_qr_scan", "android": "https://dc.lft.to/lastmile_qr_scan"}}, {"is_disabled": 0, "fusion_lat": 0.0, "lat": 38.90780983333333, "type": "electric_scooter", "lon": -77.034774, "is_reserved": 0, "fusion_lon": 0.0, "bike_id": "168bd2fd1823772059fe88b1b4caf594", "name": "168bd2fd1823772059fe88b1b4caf594", "rental_uris": {"ios": "https://dc.lft.to/lastmile_qr_scan", "android": "https://dc.lft.to/lastmile_qr_scan"}}, {"is_disabled": 0, "fusion_lat": 0.0, "lat": 39.05809966666666, "type": "electric_bike", "lon": -77.12624816666667, "is_reserved": 0, "fusion_lon": 0.0, "bike_id": "7b3db25234bf6c993f760504aa7d6ec1", "name": "7b3db25234bf6c993f760504aa7d6ec1", "rental_uris": {"ios": "https://dc.lft.to/lastmile_qr_scan", "android": "https://dc.lft.to/lastmile_qr_scan"}}, {"is_disabled": 0, "fusion_lat": 0.0, "lat": 38.9012605, "type": "electric_scooter", "lon": -76.99662633333334, "is_reserved": 0, "fusion_lon": 0.0, "bike_id": "f304ceb63922bd51d086e0f5419c00f4", "name": "f304ceb63922bd51d086e0f5419c00f4", "rental_uris": {"ios": "https://dc.lft.to/lastmile_qr_scan", "android": "https://dc.lft.to/lastmile_qr_scan"}}, {"is_disabled": 0, "fusion_lat": 0.0, "lat": 38.92362933333333, "type": "electric_scooter", "lon": -77.0513115, "is_reserved": 0, "fusion_lon": 0.0, "bike_id": "3564c807d03c8a7db08bcad0f7f1fe47", "name": "3564c807d03c8a7db08bcad0f7f1fe47", "rental_uris": {"ios": "https://dc.lft.to/lastmile_qr_scan", "android": "https://dc.lft.to/lastmile_qr_scan"}}, {"is_disabled": 0, "fusion_lat": 0.0, "lat": 38.91848133333333, "type": "electric_scooter", "lon": -77.03198683333333, "is_reserved": 0, "fusion_lon": 0.0, "bike_id": "bfc088ec8b79f860db47e909f2a382f4", "name": "bfc088ec8b79f860db47e909f2a382f4", "rental_uris": {"ios": "https://dc.lft.to/lastmile_qr_scan", "android": "https://dc.lft.to/lastmile_qr_scan"}}, {"is_disabled": 0, "fusion_lat": 0.0, "lat": 38.900388666666665, "type": "electric_scooter", "lon": -76.9977275, "is_reserved": 0, "fusion_lon": 0.0, "bike_id": "fe6e855daa633ab988e9cdc546b7ddfd", "name": "fe6e855daa633ab988e9cdc546b7ddfd", "rental_uris": {"ios": "https://dc.lft.to/lastmile_qr_scan", "android": "https://dc.lft.to/lastmile_qr_scan"}}, {"is_disabled": 0, "fusion_lat": 0.0, "lat": 38.902622666666666, "type": "electric_scooter", "lon": -77.017627, "is_reserved": 0, "fusion_lon": 0.0, "bike_id": "a6bfd7c290f20f2b8055ae72eff99441", "name": "a6bfd7c290f20f2b8055ae72eff99441", "rental_uris": {"ios": "https://dc.lft.to/lastmile_qr_scan", "android": "https://dc.lft.to/lastmile_qr_scan"}}, {"is_disabled": 0, "fusion_lat": 0.0, "lat": 38.927736833333334, "type": "electric_scooter", "lon": -77.02709966666667, "is_reserved": 0, "fusion_lon": 0.0, "bike_id": "12a7cb70b11b1db8ea817d638286178d", "name": "12a7cb70b11b1db8ea817d638286178d", "rental_uris": {"ios": "https://dc.lft.to/lastmile_qr_scan", "android": "https://dc.lft.to/lastmile_qr_scan"}}, {"is_disabled": 0, "fusion_lat": 0.0, "lat": 38.917589666666665, "type": "electric_scooter", "lon": -77.03187333333334, "is_reserved": 0, "fusion_lon": 0.0, "bike_id": "c4c6741faed6e75ffa3e90881d2c67fa", "name": "c4c6741faed6e75ffa3e90881d2c67fa", "rental_uris": {"ios": "https://dc.lft.to/lastmile_qr_scan", "android": "https://dc.lft.to/lastmile_qr_scan"}}, {"is_disabled": 0, "fusion_lat": 0.0, "lat": 38.923592666666664, "type": "electric_scooter", "lon": -77.05086183333333, "is_reserved": 0, "fusion_lon": 0.0, "bike_id": "cad63ae1979894bbeb98d25af512edda", "name": "cad63ae1979894bbeb98d25af512edda", "rental_uris": {"ios": "https://dc.lft.to/lastmile_qr_scan", "android": "https://dc.lft.to/lastmile_qr_scan"}}, {"is_disabled": 0, "fusion_lat": 0.0, "lat": 38.936150166666664, "type": "electric_scooter", "lon": -77.08169, "is_reserved": 0, "fusion_lon": 0.0, "bike_id": "e975eaabf368ffe1db030de006808d24", "name": "e975eaabf368ffe1db030de006808d24", "rental_uris": {"ios": "https://dc.lft.to/lastmile_qr_scan", "android": "https://dc.lft.to/lastmile_qr_scan"}}, {"is_disabled": 0, "fusion_lat": 0.0, "lat": 38.934987666666665, "type": "electric_scooter", "lon": -77.0580215, "is_reserved": 0, "fusion_lon": 0.0, "bike_id": "79816b584db28468d8b9eb66a61cde32", "name": "79816b584db28468d8b9eb66a61cde32", "rental_uris": {"ios": "https://dc.lft.to/lastmile_qr_scan", "android": "https://dc.lft.to/lastmile_qr_scan"}}, {"is_disabled": 0, "fusion_lat": 0.0, "lat": 38.90028816666667, "type": "electric_scooter", "lon": -77.002159, "is_reserved": 0, "fusion_lon": 0.0, "bike_id": "13a90f41e05a3f2217e9d99bb2deb77a", "name": "13a90f41e05a3f2217e9d99bb2deb77a", "rental_uris": {"ios": "https://dc.lft.to/lastmile_qr_scan", "android": "https://dc.lft.to/lastmile_qr_scan"}}, {"is_disabled": 0, "fusion_lat": 0.0, "lat": 38.904958, "type": "electric_scooter", "lon": -76.97928316666666, "is_reserved": 0, "fusion_lon": 0.0, "bike_id": "faf1ab5a73d0891fa4adf6018164be6c", "name": "faf1ab5a73d0891fa4adf6018164be6c", "rental_uris": {"ios": "https://dc.lft.to/lastmile_qr_scan", "android": "https://dc.lft.to/lastmile_qr_scan"}}, {"is_disabled": 0, "fusion_lat": 0.0, "lat": 38.880369333333334, "type": "electric_scooter", "lon": -77.01929783333334, "is_reserved": 0, "fusion_lon": 0.0, "bike_id": "4b6510bcd37628d88f3dc16fa4edff9a", "name": "4b6510bcd37628d88f3dc16fa4edff9a", "rental_uris": {"ios": "https://dc.lft.to/lastmile_qr_scan", "android": "https://dc.lft.to/lastmile_qr_scan"}}, {"is_disabled": 0, "fusion_lat": 0.0, "lat": 38.9367025, "type": "electric_bike", "lon": -76.95229216666667, "is_reserved": 0, "fusion_lon": 0.0, "bike_id": "e9edd90c93fd5cecf52d1d4d76911e50", "name": "e9edd90c93fd5cecf52d1d4d76911e50", "rental_uris": {"ios": "https://dc.lft.to/lastmile_qr_scan", "android": "https://dc.lft.to/lastmile_qr_scan"}}, {"is_disabled": 0, "fusion_lat": 0.0, "lat": 38.870133, "type": "electric_bike", "lon": -76.960218, "is_reserved": 0, "fusion_lon": 0.0, "bike_id": "7582df53ca76f221e84878927531733c", "name": "7582df53ca76f221e84878927531733c", "rental_uris": {"ios": "https://dc.lft.to/lastmile_qr_scan", "android": "https://dc.lft.to/lastmile_qr_scan"}}, {"is_disabled": 0, "fusion_lat": 0.0, "lat": 38.8368585, "type": "electric_scooter", "lon": -77.00582783333333, "is_reserved": 0, "fusion_lon": 0.0, "bike_id": "23a6dcf47ce63253fb874506d100df3c", "name": "23a6dcf47ce63253fb874506d100df3c", "rental_uris": {"ios": "https://dc.lft.to/lastmile_qr_scan", "android": "https://dc.lft.to/lastmile_qr_scan"}}, {"is_disabled": 0, "fusion_lat": 0.0, "lat": 38.91769583333333, "type": "electric_scooter", "lon": -77.04176083333333, "is_reserved": 0, "fusion_lon": 0.0, "bike_id": "6b1205a27f3768baf7ddbcb9e3170e21", "name": "6b1205a27f3768baf7ddbcb9e3170e21", "rental_uris": {"ios": "https://dc.lft.to/lastmile_qr_scan", "android": "https://dc.lft.to/lastmile_qr_scan"}}, {"is_disabled": 0, "fusion_lat": 0.0, "lat": 38.90902916666667, "type": "electric_scooter", "lon": -77.0863045, "is_reserved": 0, "fusion_lon": 0.0, "bike_id": "fbe0843fda15d6f774c7fafa3d810913", "name": "fbe0843fda15d6f774c7fafa3d810913", "rental_uris": {"ios": "https://dc.lft.to/lastmile_qr_scan", "android": "https://dc.lft.to/lastmile_qr_scan"}}, {"is_disabled": 0, "fusion_lat": 0.0, "lat": 38.880047166666664, "type": "electric_bike", "lon": -76.91594466666666, "is_reserved": 0, "fusion_lon": 0.0, "bike_id": "c270fd5cb6eee9629655320faeb841be", "name": "c270fd5cb6eee9629655320faeb841be", "rental_uris": {"ios": "https://dc.lft.to/lastmile_qr_scan", "android": "https://dc.lft.to/lastmile_qr_scan"}}, {"is_disabled": 0, "fusion_lat": 0.0, "lat": 38.89225666666667, "type": "electric_scooter", "lon": -77.03220166666667, "is_reserved": 0, "fusion_lon": 0.0, "bike_id": "3fc6d2e6793582f52e1fed5e7586298d", "name": "3fc6d2e6793582f52e1fed5e7586298d", "rental_uris": {"ios": "https://dc.lft.to/lastmile_qr_scan", "android": "https://dc.lft.to/lastmile_qr_scan"}}, {"is_disabled": 0, "fusion_lat": 0.0, "lat": 38.89733183333333, "type": "electric_scooter", "lon": -77.0075265, "is_reserved": 0, "fusion_lon": 0.0, "bike_id": "85eabaa9972615b2ee88399c3a650f7b", "name": "85eabaa9972615b2ee88399c3a650f7b", "rental_uris": {"ios": "https://dc.lft.to/lastmile_qr_scan", "android": "https://dc.lft.to/lastmile_qr_scan"}}, {"is_disabled": 0, "fusion_lat": 0.0, "lat": 38.91742216666667, "type": "electric_scooter", "lon": -77.01096233333334, "is_reserved": 0, "fusion_lon": 0.0, "bike_id": "f27694d588a65ecc7d75eff7d5c97ca4", "name": "f27694d588a65ecc7d75eff7d5c97ca4", "rental_uris": {"ios": "https://dc.lft.to/lastmile_qr_scan", "android": "https://dc.lft.to/lastmile_qr_scan"}}, {"is_disabled": 0, "fusion_lat": 0.0, "lat": 38.914382833333335, "type": "electric_scooter", "lon": -77.038482, "is_reserved": 0, "fusion_lon": 0.0, "bike_id": "e1aee3a281888194b252c6b4a6672e64", "name": "e1aee3a281888194b252c6b4a6672e64", "rental_uris": {"ios": "https://dc.lft.to/lastmile_qr_scan", "android": "https://dc.lft.to/lastmile_qr_scan"}}, {"is_disabled": 0, "fusion_lat": 0.0, "lat": 38.88426716666667, "type": "electric_bike", "lon": -76.98089116666667, "is_reserved": 0, "fusion_lon": 0.0, "bike_id": "5e407b7a82f7962ab67705b40d38f6e2", "name": "5e407b7a82f7962ab67705b40d38f6e2", "rental_uris": {"ios": "https://dc.lft.to/lastmile_qr_scan", "android": "https://dc.lft.to/lastmile_qr_scan"}}, {"is_disabled": 0, "fusion_lat": 0.0, "lat": 38.921135666666665, "type": "electric_scooter", "lon": -77.018098, "is_reserved": 0, "fusion_lon": 0.0, "bike_id": "71ad3768a0f42f544eefbfc879ce8611", "name": "71ad3768a0f42f544eefbfc879ce8611", "rental_uris": {"ios": "https://dc.lft.to/lastmile_qr_scan", "android": "https://dc.lft.to/lastmile_qr_scan"}}, {"is_disabled": 0, "fusion_lat": 0.0, "lat": 38.907319666666666, "type": "electric_scooter", "lon": -77.04292883333333, "is_reserved": 0, "fusion_lon": 0.0, "bike_id": "f5551fe1283cfef2e12f5766bcc171e5", "name": "f5551fe1283cfef2e12f5766bcc171e5", "rental_uris": {"ios": "https://dc.lft.to/lastmile_qr_scan", "android": "https://dc.lft.to/lastmile_qr_scan"}}, {"is_disabled": 0, "fusion_lat": 0.0, "lat": 38.95881166666667, "type": "electric_bike", "lon": -76.970561, "is_reserved": 0, "fusion_lon": 0.0, "bike_id": "28b9bbe776ff01f61c22746839a37298", "name": "28b9bbe776ff01f61c22746839a37298", "rental_uris": {"ios": "https://dc.lft.to/lastmile_qr_scan", "android": "https://dc.lft.to/lastmile_qr_scan"}}, {"is_disabled": 0, "fusion_lat": 0.0, "lat": 38.907032, "type": "electric_scooter", "lon": -77.04398966666666, "is_reserved": 0, "fusion_lon": 0.0, "bike_id": "ca80621525d87d10f63eb8d53205e2ad", "name": "ca80621525d87d10f63eb8d53205e2ad", "rental_uris": {"ios": "https://dc.lft.to/lastmile_qr_scan", "android": "https://dc.lft.to/lastmile_qr_scan"}}, {"is_disabled": 0, "fusion_lat": 0.0, "lat": 38.906085833333336, "type": "electric_scooter", "lon": -77.0585545, "is_reserved": 0, "fusion_lon": 0.0, "bike_id": "a40060dc89adf2a5344067bfc2a27af0", "name": "a40060dc89adf2a5344067bfc2a27af0", "rental_uris": {"ios": "https://dc.lft.to/lastmile_qr_scan", "android": "https://dc.lft.to/lastmile_qr_scan"}}, {"is_disabled": 0, "fusion_lat": 0.0, "lat": 38.8784385, "type": "electric_scooter", "lon": -77.019686, "is_reserved": 0, "fusion_lon": 0.0, "bike_id": "70515302e02661c65ba28fbd7a6857bd", "name": "70515302e02661c65ba28fbd7a6857bd", "rental_uris": {"ios": "https://dc.lft.to/lastmile_qr_scan", "android": "https://dc.lft.to/lastmile_qr_scan"}}, {"is_disabled": 0, "fusion_lat": 0.0, "lat": 38.91298416666667, "type": "electric_scooter", "lon": -77.01966516666667, "is_reserved": 0, "fusion_lon": 0.0, "bike_id": "5e2c18ac8ab1a926713cfb3535ba465f", "name": "5e2c18ac8ab1a926713cfb3535ba465f", "rental_uris": {"ios": "https://dc.lft.to/lastmile_qr_scan", "android": "https://dc.lft.to/lastmile_qr_scan"}}, {"is_disabled": 0, "fusion_lat": 0.0, "lat": 38.91690933333334, "type": "electric_scooter", "lon": -77.046122, "is_reserved": 0, "fusion_lon": 0.0, "bike_id": "36ecbdaf17142028844e615adcb2b0ef", "name": "36ecbdaf17142028844e615adcb2b0ef", "rental_uris": {"ios": "https://dc.lft.to/lastmile_qr_scan", "android": "https://dc.lft.to/lastmile_qr_scan"}}, {"is_disabled": 0, "fusion_lat": 0.0, "lat": 38.93630916666667, "type": "electric_scooter", "lon": -77.03651316666667, "is_reserved": 0, "fusion_lon": 0.0, "bike_id": "abff1aa3e38fbfd6117c5321b2d44ed6", "name": "abff1aa3e38fbfd6117c5321b2d44ed6", "rental_uris": {"ios": "https://dc.lft.to/lastmile_qr_scan", "android": "https://dc.lft.to/lastmile_qr_scan"}}, {"is_disabled": 0, "fusion_lat": 0.0, "lat": 38.85963983333333, "type": "electric_scooter", "lon": -76.99112066666666, "is_reserved": 0, "fusion_lon": 0.0, "bike_id": "1623da5228a4640ea76bdaf84eb88f30", "name": "1623da5228a4640ea76bdaf84eb88f30", "rental_uris": {"ios": "https://dc.lft.to/lastmile_qr_scan", "android": "https://dc.lft.to/lastmile_qr_scan"}}, {"is_disabled": 0, "fusion_lat": 0.0, "lat": 38.9398765, "type": "electric_scooter", "lon": -77.02888283333333, "is_reserved": 0, "fusion_lon": 0.0, "bike_id": "dfb2bc3b68d6d768bf00294c929c9f53", "name": "dfb2bc3b68d6d768bf00294c929c9f53", "rental_uris": {"ios": "https://dc.lft.to/lastmile_qr_scan", "android": "https://dc.lft.to/lastmile_qr_scan"}}, {"is_disabled": 0, "fusion_lat": 0.0, "lat": 38.9247735, "type": "electric_scooter", "lon": -77.02630566666667, "is_reserved": 0, "fusion_lon": 0.0, "bike_id": "fb2078873dd41c4d855a805c8cf43e56", "name": "fb2078873dd41c4d855a805c8cf43e56", "rental_uris": {"ios": "https://dc.lft.to/lastmile_qr_scan", "android": "https://dc.lft.to/lastmile_qr_scan"}}, {"is_disabled": 0, "fusion_lat": 0.0, "lat": 38.892214833333334, "type": "electric_scooter", "lon": -77.04654666666667, "is_reserved": 0, "fusion_lon": 0.0, "bike_id": "7e76841f91557f470d2e96fc01142614", "name": "7e76841f91557f470d2e96fc01142614", "rental_uris": {"ios": "https://dc.lft.to/lastmile_qr_scan", "android": "https://dc.lft.to/lastmile_qr_scan"}}, {"is_disabled": 0, "fusion_lat": 0.0, "lat": 38.91815966666667, "type": "electric_scooter", "lon": -77.033026, "is_reserved": 0, "fusion_lon": 0.0, "bike_id": "9143dad3292d8f16502969fc0bb9fe5d", "name": "9143dad3292d8f16502969fc0bb9fe5d", "rental_uris": {"ios": "https://dc.lft.to/lastmile_qr_scan", "android": "https://dc.lft.to/lastmile_qr_scan"}}, {"is_disabled": 0, "fusion_lat": 0.0, "lat": 38.881301, "type": "electric_scooter", "lon": -77.02686516666667, "is_reserved": 0, "fusion_lon": 0.0, "bike_id": "d695de75413e26a3f430524e01faca9e", "name": "d695de75413e26a3f430524e01faca9e", "rental_uris": {"ios": "https://dc.lft.to/lastmile_qr_scan", "android": "https://dc.lft.to/lastmile_qr_scan"}}, {"is_disabled": 0, "fusion_lat": 0.0, "lat": 38.89125333333333, "type": "electric_scooter", "lon": -76.9408955, "is_reserved": 0, "fusion_lon": 0.0, "bike_id": "54a8a705b9a69989bf78d321f683db7d", "name": "54a8a705b9a69989bf78d321f683db7d", "rental_uris": {"ios": "https://dc.lft.to/lastmile_qr_scan", "android": "https://dc.lft.to/lastmile_qr_scan"}}, {"is_disabled": 0, "fusion_lat": 0.0, "lat": 38.920481, "type": "electric_scooter", "lon": -77.034811, "is_reserved": 0, "fusion_lon": 0.0, "bike_id": "9bb1b4d3706f7de3815fbdec6685a6b5", "name": "9bb1b4d3706f7de3815fbdec6685a6b5", "rental_uris": {"ios": "https://dc.lft.to/lastmile_qr_scan", "android": "https://dc.lft.to/lastmile_qr_scan"}}, {"is_disabled": 0, "fusion_lat": 0.0, "lat": 39.015887166666666, "type": "electric_bike", "lon": -77.0443235, "is_reserved": 0, "fusion_lon": 0.0, "bike_id": "c29e4ede7720aabfcd61cdc5659820b9", "name": "c29e4ede7720aabfcd61cdc5659820b9", "rental_uris": {"ios": "https://dc.lft.to/lastmile_qr_scan", "android": "https://dc.lft.to/lastmile_qr_scan"}}, {"is_disabled": 0, "fusion_lat": 0.0, "lat": 38.908396833333335, "type": "electric_scooter", "lon": -77.085093, "is_reserved": 0, "fusion_lon": 0.0, "bike_id": "c3eee709ceab8deb038717f3eaf92d8a", "name": "c3eee709ceab8deb038717f3eaf92d8a", "rental_uris": {"ios": "https://dc.lft.to/lastmile_qr_scan", "android": "https://dc.lft.to/lastmile_qr_scan"}}, {"is_disabled": 0, "fusion_lat": 0.0, "lat": 38.910424666666664, "type": "electric_scooter", "lon": -77.02208266666666, "is_reserved": 0, "fusion_lon": 0.0, "bike_id": "68dfb4a41f04807486ab8fc37a9c0123", "name": "68dfb4a41f04807486ab8fc37a9c0123", "rental_uris": {"ios": "https://dc.lft.to/lastmile_qr_scan", "android": "https://dc.lft.to/lastmile_qr_scan"}}, {"is_disabled": 0, "fusion_lat": 0.0, "lat": 38.91120683333333, "type": "electric_scooter", "lon": -77.037477, "is_reserved": 0, "fusion_lon": 0.0, "bike_id": "30fbeb1fd951d8ccbcefa8a01030b4c7", "name": "30fbeb1fd951d8ccbcefa8a01030b4c7", "rental_uris": {"ios": "https://dc.lft.to/lastmile_qr_scan", "android": "https://dc.lft.to/lastmile_qr_scan"}}, {"is_disabled": 0, "fusion_lat": 0.0, "lat": 38.91964133333333, "type": "electric_scooter", "lon": -77.04316133333333, "is_reserved": 0, "fusion_lon": 0.0, "bike_id": "433daa42d874e56d095a2de0e18fc8b5", "name": "433daa42d874e56d095a2de0e18fc8b5", "rental_uris": {"ios": "https://dc.lft.to/lastmile_qr_scan", "android": "https://dc.lft.to/lastmile_qr_scan"}}, {"is_disabled": 0, "fusion_lat": 0.0, "lat": 38.874974333333334, "type": "electric_bike", "lon": -77.02597166666666, "is_reserved": 0, "fusion_lon": 0.0, "bike_id": "a243f1301f5dc1e90cd2f1d1dac4fffe", "name": "a243f1301f5dc1e90cd2f1d1dac4fffe", "rental_uris": {"ios": "https://dc.lft.to/lastmile_qr_scan", "android": "https://dc.lft.to/lastmile_qr_scan"}}, {"is_disabled": 0, "fusion_lat": 0.0, "lat": 38.90729816666666, "type": "electric_scooter", "lon": -77.010724, "is_reserved": 0, "fusion_lon": 0.0, "bike_id": "5dbabb6d8d27e5694f9a1c2d272f2bdc", "name": "5dbabb6d8d27e5694f9a1c2d272f2bdc", "rental_uris": {"ios": "https://dc.lft.to/lastmile_qr_scan", "android": "https://dc.lft.to/lastmile_qr_scan"}}, {"is_disabled": 0, "fusion_lat": 0.0, "lat": 38.905756333333336, "type": "electric_scooter", "lon": -77.04884766666666, "is_reserved": 0, "fusion_lon": 0.0, "bike_id": "a86da717e6bdacee96082c56d5c4ca97", "name": "a86da717e6bdacee96082c56d5c4ca97", "rental_uris": {"ios": "https://dc.lft.to/lastmile_qr_scan", "android": "https://dc.lft.to/lastmile_qr_scan"}}, {"is_disabled": 0, "fusion_lat": 0.0, "lat": 38.879245166666664, "type": "electric_scooter", "lon": -77.02153483333333, "is_reserved": 0, "fusion_lon": 0.0, "bike_id": "aa899deee6a0f0f53cede9619bff02b5", "name": "aa899deee6a0f0f53cede9619bff02b5", "rental_uris": {"ios": "https://dc.lft.to/lastmile_qr_scan", "android": "https://dc.lft.to/lastmile_qr_scan"}}, {"is_disabled": 0, "fusion_lat": 0.0, "lat": 38.857908333333334, "type": "electric_bike", "lon": -77.099535, "is_reserved": 0, "fusion_lon": 0.0, "bike_id": "122ebc1362353aedc79e80f083bebab1", "name": "122ebc1362353aedc79e80f083bebab1", "rental_uris": {"ios": "https://dc.lft.to/lastmile_qr_scan", "android": "https://dc.lft.to/lastmile_qr_scan"}}, {"is_disabled": 0, "fusion_lat": 0.0, "lat": 38.911609, "type": "electric_scooter", "lon": -77.0199855, "is_reserved": 0, "fusion_lon": 0.0, "bike_id": "4742565bb4bfb3a5715f8c7926fb8046", "name": "4742565bb4bfb3a5715f8c7926fb8046", "rental_uris": {"ios": "https://dc.lft.to/lastmile_qr_scan", "android": "https://dc.lft.to/lastmile_qr_scan"}}, {"is_disabled": 0, "fusion_lat": 0.0, "lat": 38.931192333333335, "type": "electric_scooter", "lon": -77.0208795, "is_reserved": 0, "fusion_lon": 0.0, "bike_id": "857bf792fa50f67c1fa7f6a93481be0d", "name": "857bf792fa50f67c1fa7f6a93481be0d", "rental_uris": {"ios": "https://dc.lft.to/lastmile_qr_scan", "android": "https://dc.lft.to/lastmile_qr_scan"}}, {"is_disabled": 0, "fusion_lat": 0.0, "lat": 38.897452666666666, "type": "electric_scooter", "lon": -77.02184783333334, "is_reserved": 0, "fusion_lon": 0.0, "bike_id": "5908a38c7de3c2885634f7300b26ff09", "name": "5908a38c7de3c2885634f7300b26ff09", "rental_uris": {"ios": "https://dc.lft.to/lastmile_qr_scan", "android": "https://dc.lft.to/lastmile_qr_scan"}}, {"is_disabled": 0, "fusion_lat": 0.0, "lat": 38.91660066666667, "type": "electric_scooter", "lon": -77.02705883333333, "is_reserved": 0, "fusion_lon": 0.0, "bike_id": "5b8ab5408115eb70352c537adf54bf0e", "name": "5b8ab5408115eb70352c537adf54bf0e", "rental_uris": {"ios": "https://dc.lft.to/lastmile_qr_scan", "android": "https://dc.lft.to/lastmile_qr_scan"}}, {"is_disabled": 0, "fusion_lat": 0.0, "lat": 38.90969783333333, "type": "electric_scooter", "lon": -77.03865216666667, "is_reserved": 0, "fusion_lon": 0.0, "bike_id": "f8d775d3a3255863dfbc8c9514ca1343", "name": "f8d775d3a3255863dfbc8c9514ca1343", "rental_uris": {"ios": "https://dc.lft.to/lastmile_qr_scan", "android": "https://dc.lft.to/lastmile_qr_scan"}}, {"is_disabled": 0, "fusion_lat": 0.0, "lat": 38.85504316666667, "type": "electric_bike", "lon": -76.98411583333333, "is_reserved": 0, "fusion_lon": 0.0, "bike_id": "d590f64c5ff95874dbad837eeab9c19a", "name": "d590f64c5ff95874dbad837eeab9c19a", "rental_uris": {"ios": "https://dc.lft.to/lastmile_qr_scan", "android": "https://dc.lft.to/lastmile_qr_scan"}}, {"is_disabled": 0, "fusion_lat": 0.0, "lat": 38.90006316666667, "type": "electric_scooter", "lon": -77.04038183333333, "is_reserved": 0, "fusion_lon": 0.0, "bike_id": "0df238c168360faf884419d3267c40db", "name": "0df238c168360faf884419d3267c40db", "rental_uris": {"ios": "https://dc.lft.to/lastmile_qr_scan", "android": "https://dc.lft.to/lastmile_qr_scan"}}, {"is_disabled": 0, "fusion_lat": 0.0, "lat": 38.9229725, "type": "electric_scooter", "lon": -77.0414975, "is_reserved": 0, "fusion_lon": 0.0, "bike_id": "93fdfb04ea107766030da11c535db477", "name": "93fdfb04ea107766030da11c535db477", "rental_uris": {"ios": "https://dc.lft.to/lastmile_qr_scan", "android": "https://dc.lft.to/lastmile_qr_scan"}}, {"is_disabled": 0, "fusion_lat": 0.0, "lat": 38.905591, "type": "electric_scooter", "lon": -77.0465815, "is_reserved": 0, "fusion_lon": 0.0, "bike_id": "e4d529fd32d873a330b8b6cd62d65a9a", "name": "e4d529fd32d873a330b8b6cd62d65a9a", "rental_uris": {"ios": "https://dc.lft.to/lastmile_qr_scan", "android": "https://dc.lft.to/lastmile_qr_scan"}}, {"is_disabled": 0, "fusion_lat": 0.0, "lat": 38.8975655, "type": "electric_scooter", "lon": -76.9418525, "is_reserved": 0, "fusion_lon": 0.0, "bike_id": "8042747bae6517fa0e4bc6d12696e72d", "name": "8042747bae6517fa0e4bc6d12696e72d", "rental_uris": {"ios": "https://dc.lft.to/lastmile_qr_scan", "android": "https://dc.lft.to/lastmile_qr_scan"}}, {"is_disabled": 0, "fusion_lat": 0.0, "lat": 38.900191166666666, "type": "electric_scooter", "lon": -77.0336455, "is_reserved": 0, "fusion_lon": 0.0, "bike_id": "f862c4058cbd67b6a62ffe459e805047", "name": "f862c4058cbd67b6a62ffe459e805047", "rental_uris": {"ios": "https://dc.lft.to/lastmile_qr_scan", "android": "https://dc.lft.to/lastmile_qr_scan"}}, {"is_disabled": 0, "fusion_lat": 0.0, "lat": 38.925866, "type": "electric_scooter", "lon": -77.05054366666667, "is_reserved": 0, "fusion_lon": 0.0, "bike_id": "94777f97d632dddb25188a680653b7fc", "name": "94777f97d632dddb25188a680653b7fc", "rental_uris": {"ios": "https://dc.lft.to/lastmile_qr_scan", "android": "https://dc.lft.to/lastmile_qr_scan"}}, {"is_disabled": 0, "fusion_lat": 0.0, "lat": 38.90043983333333, "type": "electric_scooter", "lon": -76.92476616666667, "is_reserved": 0, "fusion_lon": 0.0, "bike_id": "82cdee3960b9a675c6f7be328e22661f", "name": "82cdee3960b9a675c6f7be328e22661f", "rental_uris": {"ios": "https://dc.lft.to/lastmile_qr_scan", "android": "https://dc.lft.to/lastmile_qr_scan"}}, {"is_disabled": 0, "fusion_lat": 0.0, "lat": 38.88433083333334, "type": "electric_scooter", "lon": -76.95759133333334, "is_reserved": 0, "fusion_lon": 0.0, "bike_id": "cd1ab4e0c1fb762d9029ce23d707aae4", "name": "cd1ab4e0c1fb762d9029ce23d707aae4", "rental_uris": {"ios": "https://dc.lft.to/lastmile_qr_scan", "android": "https://dc.lft.to/lastmile_qr_scan"}}, {"is_disabled": 0, "fusion_lat": 0.0, "lat": 38.909158, "type": "electric_scooter", "lon": -76.992697, "is_reserved": 0, "fusion_lon": 0.0, "bike_id": "e2e1f07d62cfd8203f9b11d96e31cd09", "name": "e2e1f07d62cfd8203f9b11d96e31cd09", "rental_uris": {"ios": "https://dc.lft.to/lastmile_qr_scan", "android": "https://dc.lft.to/lastmile_qr_scan"}}, {"is_disabled": 0, "fusion_lat": 0.0, "lat": 38.9178905, "type": "electric_scooter", "lon": -77.034404, "is_reserved": 0, "fusion_lon": 0.0, "bike_id": "2c5c4293a10aface18475a5fffea92b5", "name": "2c5c4293a10aface18475a5fffea92b5", "rental_uris": {"ios": "https://dc.lft.to/lastmile_qr_scan", "android": "https://dc.lft.to/lastmile_qr_scan"}}, {"is_disabled": 0, "fusion_lat": 0.0, "lat": 38.917301333333334, "type": "electric_scooter", "lon": -77.03658966666667, "is_reserved": 0, "fusion_lon": 0.0, "bike_id": "bde8073af490d6223f063d8502c77a74", "name": "bde8073af490d6223f063d8502c77a74", "rental_uris": {"ios": "https://dc.lft.to/lastmile_qr_scan", "android": "https://dc.lft.to/lastmile_qr_scan"}}, {"is_disabled": 0, "fusion_lat": 0.0, "lat": 38.91729816666667, "type": "electric_scooter", "lon": -77.03663333333333, "is_reserved": 0, "fusion_lon": 0.0, "bike_id": "e1bb0f77bafe734c599fb23210d55fb1", "name": "e1bb0f77bafe734c599fb23210d55fb1", "rental_uris": {"ios": "https://dc.lft.to/lastmile_qr_scan", "android": "https://dc.lft.to/lastmile_qr_scan"}}, {"is_disabled": 0, "fusion_lat": 0.0, "lat": 38.908440666666664, "type": "electric_scooter", "lon": -77.03302483333333, "is_reserved": 0, "fusion_lon": 0.0, "bike_id": "b4cf3fd5dbec8f9dbd1cb25539d3cb5a", "name": "b4cf3fd5dbec8f9dbd1cb25539d3cb5a", "rental_uris": {"ios": "https://dc.lft.to/lastmile_qr_scan", "android": "https://dc.lft.to/lastmile_qr_scan"}}, {"is_disabled": 0, "fusion_lat": 0.0, "lat": 38.926343833333334, "type": "electric_scooter", "lon": -77.01454016666666, "is_reserved": 0, "fusion_lon": 0.0, "bike_id": "fb2bc76b1252245c25bb744123ac1bbe", "name": "fb2bc76b1252245c25bb744123ac1bbe", "rental_uris": {"ios": "https://dc.lft.to/lastmile_qr_scan", "android": "https://dc.lft.to/lastmile_qr_scan"}}, {"is_disabled": 0, "fusion_lat": 0.0, "lat": 38.845722333333335, "type": "electric_bike", "lon": -77.09625783333334, "is_reserved": 0, "fusion_lon": 0.0, "bike_id": "09e106f9e1733244e64f8b668bcb10e2", "name": "09e106f9e1733244e64f8b668bcb10e2", "rental_uris": {"ios": "https://dc.lft.to/lastmile_qr_scan", "android": "https://dc.lft.to/lastmile_qr_scan"}}, {"is_disabled": 0, "fusion_lat": 0.0, "lat": 38.90152233333333, "type": "electric_scooter", "lon": -77.042026, "is_reserved": 0, "fusion_lon": 0.0, "bike_id": "81014ecaeb6f32079daf38a8eb83883c", "name": "81014ecaeb6f32079daf38a8eb83883c", "rental_uris": {"ios": "https://dc.lft.to/lastmile_qr_scan", "android": "https://dc.lft.to/lastmile_qr_scan"}}, {"is_disabled": 0, "fusion_lat": 0.0, "lat": 38.87160216666667, "type": "electric_scooter", "lon": -77.01351066666666, "is_reserved": 0, "fusion_lon": 0.0, "bike_id": "0c6bf68e724bbfb9e4c4608f3ede6fe7", "name": "0c6bf68e724bbfb9e4c4608f3ede6fe7", "rental_uris": {"ios": "https://dc.lft.to/lastmile_qr_scan", "android": "https://dc.lft.to/lastmile_qr_scan"}}, {"is_disabled": 0, "fusion_lat": 0.0, "lat": 38.9037695, "type": "electric_scooter", "lon": -77.05326516666666, "is_reserved": 0, "fusion_lon": 0.0, "bike_id": "765611f5e2e5e813ecb99ba9d8872257", "name": "765611f5e2e5e813ecb99ba9d8872257", "rental_uris": {"ios": "https://dc.lft.to/lastmile_qr_scan", "android": "https://dc.lft.to/lastmile_qr_scan"}}, {"is_disabled": 0, "fusion_lat": 0.0, "lat": 38.892191, "type": "electric_scooter", "lon": -77.02224716666667, "is_reserved": 0, "fusion_lon": 0.0, "bike_id": "7d7f6612f4ebeb731e43e1c43be0241d", "name": "7d7f6612f4ebeb731e43e1c43be0241d", "rental_uris": {"ios": "https://dc.lft.to/lastmile_qr_scan", "android": "https://dc.lft.to/lastmile_qr_scan"}}, {"is_disabled": 0, "fusion_lat": 0.0, "lat": 38.900318, "type": "electric_scooter", "lon": -76.99865816666667, "is_reserved": 0, "fusion_lon": 0.0, "bike_id": "0c30ef4990f215d488d5b327b467f553", "name": "0c30ef4990f215d488d5b327b467f553", "rental_uris": {"ios": "https://dc.lft.to/lastmile_qr_scan", "android": "https://dc.lft.to/lastmile_qr_scan"}}, {"is_disabled": 0, "fusion_lat": 0.0, "lat": 38.924065666666664, "type": "electric_bike", "lon": -77.20818483333333, "is_reserved": 0, "fusion_lon": 0.0, "bike_id": "10c46037557ddeb6950e227caffd7f63", "name": "10c46037557ddeb6950e227caffd7f63", "rental_uris": {"ios": "https://dc.lft.to/lastmile_qr_scan", "android": "https://dc.lft.to/lastmile_qr_scan"}}, {"is_disabled": 0, "fusion_lat": 0.0, "lat": 38.903427, "type": "electric_scooter", "lon": -77.06583533333334, "is_reserved": 0, "fusion_lon": 0.0, "bike_id": "65cdf0477f1a4b7af0ba2b319e175364", "name": "65cdf0477f1a4b7af0ba2b319e175364", "rental_uris": {"ios": "https://dc.lft.to/lastmile_qr_scan", "android": "https://dc.lft.to/lastmile_qr_scan"}}, {"is_disabled": 0, "fusion_lat": 0.0, "lat": 38.918246, "type": "electric_scooter", "lon": -77.0352765, "is_reserved": 0, "fusion_lon": 0.0, "bike_id": "c01ba24dc850ee299fad89db4405b9b3", "name": "c01ba24dc850ee299fad89db4405b9b3", "rental_uris": {"ios": "https://dc.lft.to/lastmile_qr_scan", "android": "https://dc.lft.to/lastmile_qr_scan"}}, {"is_disabled": 0, "fusion_lat": 0.0, "lat": 38.900729, "type": "electric_scooter", "lon": -77.01283533333333, "is_reserved": 0, "fusion_lon": 0.0, "bike_id": "6ad45e5804ce9865378e1cf0db4683bf", "name": "6ad45e5804ce9865378e1cf0db4683bf", "rental_uris": {"ios": "https://dc.lft.to/lastmile_qr_scan", "android": "https://dc.lft.to/lastmile_qr_scan"}}, {"is_disabled": 0, "fusion_lat": 0.0, "lat": 38.9337455, "type": "electric_scooter", "lon": -77.03265133333333, "is_reserved": 0, "fusion_lon": 0.0, "bike_id": "907eaa6878ab8494319bfa03003cc2c3", "name": "907eaa6878ab8494319bfa03003cc2c3", "rental_uris": {"ios": "https://dc.lft.to/lastmile_qr_scan", "android": "https://dc.lft.to/lastmile_qr_scan"}}, {"is_disabled": 0, "fusion_lat": 0.0, "lat": 38.885985, "type": "electric_scooter", "lon": -77.045132, "is_reserved": 0, "fusion_lon": 0.0, "bike_id": "ee6f93dbf9ba55e0b8bda802cf5d289d", "name": "ee6f93dbf9ba55e0b8bda802cf5d289d", "rental_uris": {"ios": "https://dc.lft.to/lastmile_qr_scan", "android": "https://dc.lft.to/lastmile_qr_scan"}}, {"is_disabled": 0, "fusion_lat": 0.0, "lat": 38.901162166666666, "type": "electric_scooter", "lon": -77.02176, "is_reserved": 0, "fusion_lon": 0.0, "bike_id": "8721783e3da7f580f37737b297382026", "name": "8721783e3da7f580f37737b297382026", "rental_uris": {"ios": "https://dc.lft.to/lastmile_qr_scan", "android": "https://dc.lft.to/lastmile_qr_scan"}}, {"is_disabled": 0, "fusion_lat": 0.0, "lat": 38.935918666666666, "type": "electric_scooter", "lon": -77.0380445, "is_reserved": 0, "fusion_lon": 0.0, "bike_id": "33d7116372392c2a4adc6bb44cada99b", "name": "33d7116372392c2a4adc6bb44cada99b", "rental_uris": {"ios": "https://dc.lft.to/lastmile_qr_scan", "android": "https://dc.lft.to/lastmile_qr_scan"}}, {"is_disabled": 0, "fusion_lat": 0.0, "lat": 38.956349333333335, "type": "electric_scooter", "lon": -77.033055, "is_reserved": 0, "fusion_lon": 0.0, "bike_id": "955373d648be0c6e03103027be66db29", "name": "955373d648be0c6e03103027be66db29", "rental_uris": {"ios": "https://dc.lft.to/lastmile_qr_scan", "android": "https://dc.lft.to/lastmile_qr_scan"}}, {"is_disabled": 0, "fusion_lat": 0.0, "lat": 38.9267985, "type": "electric_scooter", "lon": -77.0305525, "is_reserved": 0, "fusion_lon": 0.0, "bike_id": "612502f15248905ddeab5db4c11105d3", "name": "612502f15248905ddeab5db4c11105d3", "rental_uris": {"ios": "https://dc.lft.to/lastmile_qr_scan", "android": "https://dc.lft.to/lastmile_qr_scan"}}, {"is_disabled": 0, "fusion_lat": 0.0, "lat": 38.927225, "type": "electric_scooter", "lon": -77.04121716666667, "is_reserved": 0, "fusion_lon": 0.0, "bike_id": "cf5309fd936ea45c3a9c144a31ae9613", "name": "cf5309fd936ea45c3a9c144a31ae9613", "rental_uris": {"ios": "https://dc.lft.to/lastmile_qr_scan", "android": "https://dc.lft.to/lastmile_qr_scan"}}, {"is_disabled": 0, "fusion_lat": 0.0, "lat": 38.924193333333335, "type": "electric_scooter", "lon": -77.05620383333333, "is_reserved": 0, "fusion_lon": 0.0, "bike_id": "d8a60048f4ee7d257e6c56e72fa9150a", "name": "d8a60048f4ee7d257e6c56e72fa9150a", "rental_uris": {"ios": "https://dc.lft.to/lastmile_qr_scan", "android": "https://dc.lft.to/lastmile_qr_scan"}}, {"is_disabled": 0, "fusion_lat": 0.0, "lat": 38.84587766666667, "type": "electric_scooter", "lon": -76.98162833333333, "is_reserved": 0, "fusion_lon": 0.0, "bike_id": "e15c1c70f8c172b410443d814e512df5", "name": "e15c1c70f8c172b410443d814e512df5", "rental_uris": {"ios": "https://dc.lft.to/lastmile_qr_scan", "android": "https://dc.lft.to/lastmile_qr_scan"}}, {"is_disabled": 0, "fusion_lat": 0.0, "lat": 38.92181933333333, "type": "electric_scooter", "lon": -77.047095, "is_reserved": 0, "fusion_lon": 0.0, "bike_id": "f4cdeb1cd8d908f9003c67f66c29dcfa", "name": "f4cdeb1cd8d908f9003c67f66c29dcfa", "rental_uris": {"ios": "https://dc.lft.to/lastmile_qr_scan", "android": "https://dc.lft.to/lastmile_qr_scan"}}, {"is_disabled": 0, "fusion_lat": 0.0, "lat": 38.9027445, "type": "electric_scooter", "lon": -77.03838183333333, "is_reserved": 0, "fusion_lon": 0.0, "bike_id": "0103d6fe855f6ee8c7ad2baabda548b2", "name": "0103d6fe855f6ee8c7ad2baabda548b2", "rental_uris": {"ios": "https://dc.lft.to/lastmile_qr_scan", "android": "https://dc.lft.to/lastmile_qr_scan"}}, {"is_disabled": 0, "fusion_lat": 0.0, "lat": 38.903487, "type": "electric_scooter", "lon": -77.03647766666667, "is_reserved": 0, "fusion_lon": 0.0, "bike_id": "f58f3505fb69ff15bcc6009f6e77552b", "name": "f58f3505fb69ff15bcc6009f6e77552b", "rental_uris": {"ios": "https://dc.lft.to/lastmile_qr_scan", "android": "https://dc.lft.to/lastmile_qr_scan"}}, {"is_disabled": 0, "fusion_lat": 0.0, "lat": 38.9332165, "type": "electric_scooter", "lon": -77.029299, "is_reserved": 0, "fusion_lon": 0.0, "bike_id": "9558a6d3300e51ce693d5fbd7bb9d7db", "name": "9558a6d3300e51ce693d5fbd7bb9d7db", "rental_uris": {"ios": "https://dc.lft.to/lastmile_qr_scan", "android": "https://dc.lft.to/lastmile_qr_scan"}}, {"is_disabled": 0, "fusion_lat": 0.0, "lat": 38.90726266666667, "type": "electric_scooter", "lon": -77.02319283333334, "is_reserved": 0, "fusion_lon": 0.0, "bike_id": "91a1e4ebce6836c3711bd94ed262ae96", "name": "91a1e4ebce6836c3711bd94ed262ae96", "rental_uris": {"ios": "https://dc.lft.to/lastmile_qr_scan", "android": "https://dc.lft.to/lastmile_qr_scan"}}, {"is_disabled": 0, "fusion_lat": 0.0, "lat": 38.90603566666667, "type": "electric_scooter", "lon": -77.0398565, "is_reserved": 0, "fusion_lon": 0.0, "bike_id": "25c6a5a7360b8871a31543919ef0f9c0", "name": "25c6a5a7360b8871a31543919ef0f9c0", "rental_uris": {"ios": "https://dc.lft.to/lastmile_qr_scan", "android": "https://dc.lft.to/lastmile_qr_scan"}}, {"is_disabled": 0, "fusion_lat": 0.0, "lat": 38.92480583333333, "type": "electric_scooter", "lon": -77.02719383333333, "is_reserved": 0, "fusion_lon": 0.0, "bike_id": "8ebd11d1c2a438e2b98d1a6221227bea", "name": "8ebd11d1c2a438e2b98d1a6221227bea", "rental_uris": {"ios": "https://dc.lft.to/lastmile_qr_scan", "android": "https://dc.lft.to/lastmile_qr_scan"}}, {"is_disabled": 0, "fusion_lat": 0.0, "lat": 38.91983716666667, "type": "electric_scooter", "lon": -77.04168283333334, "is_reserved": 0, "fusion_lon": 0.0, "bike_id": "fa8ab44ff5806087441998d6d51ee3d6", "name": "fa8ab44ff5806087441998d6d51ee3d6", "rental_uris": {"ios": "https://dc.lft.to/lastmile_qr_scan", "android": "https://dc.lft.to/lastmile_qr_scan"}}, {"is_disabled": 0, "fusion_lat": 0.0, "lat": 38.89707716666667, "type": "electric_scooter", "lon": -77.031205, "is_reserved": 0, "fusion_lon": 0.0, "bike_id": "901b4a12d23025a8206df4ac35db4951", "name": "901b4a12d23025a8206df4ac35db4951", "rental_uris": {"ios": "https://dc.lft.to/lastmile_qr_scan", "android": "https://dc.lft.to/lastmile_qr_scan"}}, {"is_disabled": 0, "fusion_lat": 0.0, "lat": 38.87496766666667, "type": "electric_bike", "lon": -76.998936, "is_reserved": 0, "fusion_lon": 0.0, "bike_id": "42d98dc5a00ef029e6216b6bed090824", "name": "42d98dc5a00ef029e6216b6bed090824", "rental_uris": {"ios": "https://dc.lft.to/lastmile_qr_scan", "android": "https://dc.lft.to/lastmile_qr_scan"}}, {"is_disabled": 0, "fusion_lat": 0.0, "lat": 38.924754, "type": "electric_scooter", "lon": -77.02555166666667, "is_reserved": 0, "fusion_lon": 0.0, "bike_id": "dfefba921ed4a471989623c8ba711b24", "name": "dfefba921ed4a471989623c8ba711b24", "rental_uris": {"ios": "https://dc.lft.to/lastmile_qr_scan", "android": "https://dc.lft.to/lastmile_qr_scan"}}, {"is_disabled": 0, "fusion_lat": 0.0, "lat": 38.878437, "type": "electric_scooter", "lon": -77.022687, "is_reserved": 0, "fusion_lon": 0.0, "bike_id": "041b752107e994916b8a089d79aca967", "name": "041b752107e994916b8a089d79aca967", "rental_uris": {"ios": "https://dc.lft.to/lastmile_qr_scan", "android": "https://dc.lft.to/lastmile_qr_scan"}}, {"is_disabled": 0, "fusion_lat": 0.0, "lat": 38.915491833333334, "type": "electric_scooter", "lon": -77.0417365, "is_reserved": 0, "fusion_lon": 0.0, "bike_id": "9dc483950285756bb4629d788250b1c4", "name": "9dc483950285756bb4629d788250b1c4", "rental_uris": {"ios": "https://dc.lft.to/lastmile_qr_scan", "android": "https://dc.lft.to/lastmile_qr_scan"}}, {"is_disabled": 0, "fusion_lat": 0.0, "lat": 38.89881316666666, "type": "electric_scooter", "lon": -76.9317865, "is_reserved": 0, "fusion_lon": 0.0, "bike_id": "85507cac5e2842433a6d414bc8ee7c4e", "name": "85507cac5e2842433a6d414bc8ee7c4e", "rental_uris": {"ios": "https://dc.lft.to/lastmile_qr_scan", "android": "https://dc.lft.to/lastmile_qr_scan"}}, {"is_disabled": 0, "fusion_lat": 0.0, "lat": 38.927566, "type": "electric_scooter", "lon": -77.00595016666666, "is_reserved": 0, "fusion_lon": 0.0, "bike_id": "4fa01cd6ecb7c6f433ccd3687d86200f", "name": "4fa01cd6ecb7c6f433ccd3687d86200f", "rental_uris": {"ios": "https://dc.lft.to/lastmile_qr_scan", "android": "https://dc.lft.to/lastmile_qr_scan"}}, {"is_disabled": 0, "fusion_lat": 0.0, "lat": 38.90352883333333, "type": "electric_scooter", "lon": -77.04480916666667, "is_reserved": 0, "fusion_lon": 0.0, "bike_id": "91b9cf284be4a180f7ff3c484e7956b1", "name": "91b9cf284be4a180f7ff3c484e7956b1", "rental_uris": {"ios": "https://dc.lft.to/lastmile_qr_scan", "android": "https://dc.lft.to/lastmile_qr_scan"}},