{"data": {"bikes": [{"bike_id": "ad0c8e8b165125094a7b86dd3e9dfc0f", "fusion_lon": 0.0, "type": "electric_scooter", "name": "ad0c8e8b165125094a7b86dd3e9dfc0f", "rental_uris": {"android": "https://dc.lft.to/lastmile_qr_scan", "ios": "https://dc.lft.to/lastmile_qr_scan"}, "fusion_lat": 0.0, "lat": 38.917181166666666, "is_disabled": 0, "lon": -77.03855883333334, "is_reserved": 0}, {"bike_id": "b5babf1a9d95e4ad780aba4fa4d5a447", "fusion_lon": 0.0, "type": "electric_scooter", "name": "b5babf1a9d95e4ad780aba4fa4d5a447", "rental_uris": {"android": "https://dc.lft.to/lastmile_qr_scan", "ios": "https://dc.lft.to/lastmile_qr_scan"}, "fusion_lat": 0.0, "lat": 38.926458, "is_disabled": 0, "lon": -77.0370035, "is_reserved": 0}, {"bike_id": "db7110b15dad5ec570a5f8dc37177656", "fusion_lon": 0.0, "type": "electric_scooter", "name": "db7110b15dad5ec570a5f8dc37177656", "rental_uris": {"android": "https://dc.lft.to/lastmile_qr_scan", "ios": "https://dc.lft.to/lastmile_qr_scan"}, "fusion_lat": 0.0, "lat": 38.917079, "is_disabled": 0, "lon": -77.00797133333333, "is_reserved": 0}, {"bike_id": "fa15b1d3cac748b0e5620b9d6db7e313", "fusion_lon": 0.0, "type": "electric_scooter", "name": "fa15b1d3cac748b0e5620b9d6db7e313", "rental_uris": {"android": "https://dc.lft.to/lastmile_qr_scan", "ios": "https://dc.lft.to/lastmile_qr_scan"}, "fusion_lat": 0.0, "lat": 38.92845466666667, "is_disabled": 0, "lon": -77.0158615, "is_reserved": 0}, {"bike_id": "d604282429db61d7c43dec32caed8a88", "fusion_lon": 0.0, "type": "electric_bike", "name": "d604282429db61d7c43dec32caed8a88", "rental_uris": {"android": "https://dc.lft.to/lastmile_qr_scan", "ios": "https://dc.lft.to/lastmile_qr_scan"}, "fusion_lat": 0.0, "lat": 38.89575383333333, "is_disabled": 0, "lon": -76.97623233333333, "is_reserved": 0}, {"bike_id": "256488da6dc0f200eee19445ffb0f971", "fusion_lon": 0.0, "type": "electric_scooter", "name": "256488da6dc0f200eee19445ffb0f971", "rental_uris": {"android": "https://dc.lft.to/lastmile_qr_scan", "ios": "https://dc.lft.to/lastmile_qr_scan"}, "fusion_lat": 0.0, "lat": 38.872484166666666, "is_disabled": 0, "lon": -77.01057733333333, "is_reserved": 0}, {"bike_id": "4c697d58d62ba2b04b47c866b0c7fbd4", "fusion_lon": 0.0, "type": "electric_scooter", "name": "4c697d58d62ba2b04b47c866b0c7fbd4", "rental_uris": {"android": "https://dc.lft.to/lastmile_qr_scan", "ios": "https://dc.lft.to/lastmile_qr_scan"}, "fusion_lat": 0.0, "lat": 38.93879716666667, "is_disabled": 0, "lon": -77.0248285, "is_reserved": 0}, {"bike_id": "71055ec4fe4deddae5c2216373e41fc9", "fusion_lon": 0.0, "type": "electric_scooter", "name": "71055ec4fe4deddae5c2216373e41fc9", "rental_uris": {"android": "https://dc.lft.to/lastmile_qr_scan", "ios": "https://dc.lft.to/lastmile_qr_scan"}, "fusion_lat": 0.0, "lat": 38.900336, "is_disabled": 0, "lon": -76.99624816666666, "is_reserved": 0}, {"bike_id": "e56d703c3112ed20b8b252ec1ffc6628", "fusion_lon": 0.0, "type": "electric_scooter", "name": "e56d703c3112ed20b8b252ec1ffc6628", "rental_uris": {"android": "https://dc.lft.to/lastmile_qr_scan", "ios": "https://dc.lft.to/lastmile_qr_scan"}, "fusion_lat": 0.0, "lat": 38.90272066666667, "is_disabled": 0, "lon": -77.03225416666666, "is_reserved": 0}, {"bike_id": "d41796f04366abc2d903eeb90786336e", "fusion_lon": 0.0, "type": "electric_scooter", "name": "d41796f04366abc2d903eeb90786336e", "rental_uris": {"android": "https://dc.lft.to/lastmile_qr_scan", "ios": "https://dc.lft.to/lastmile_qr_scan"}, "fusion_lat": 0.0, "lat": 38.914934333333335, "is_disabled": 0, "lon": -77.0120875, "is_reserved": 0}, {"bike_id": "8456e1dbf452ac9afda5965f01003e86", "fusion_lon": 0.0, "type": "electric_scooter", "name": "8456e1dbf452ac9afda5965f01003e86", "rental_uris": {"android": "https://dc.lft.to/lastmile_qr_scan", "ios": "https://dc.lft.to/lastmile_qr_scan"}, "fusion_lat": 0.0, "lat": 38.896205, "is_disabled": 0, "lon": -76.99933633333333, "is_reserved": 0}, {"bike_id": "48296b4b86d1746646a7834774ebb9a2", "fusion_lon": 0.0, "type": "electric_scooter", "name": "48296b4b86d1746646a7834774ebb9a2", "rental_uris": {"android": "https://dc.lft.to/lastmile_qr_scan", "ios": "https://dc.lft.to/lastmile_qr_scan"}, "fusion_lat": 0.0, "lat": 38.95845116666667, "is_disabled": 0, "lon": -77.02905216666667, "is_reserved": 0}, {"bike_id": "e3090c3260fcf889b85547d62bcd72d1", "fusion_lon": 0.0, "type": "electric_scooter", "name": "e3090c3260fcf889b85547d62bcd72d1", "rental_uris": {"android": "https://dc.lft.to/lastmile_qr_scan", "ios": "https://dc.lft.to/lastmile_qr_scan"}, "fusion_lat": 0.0, "lat": 38.884562, "is_disabled": 0, "lon": -77.023384, "is_reserved": 0}, {"bike_id": "bcd373cc58c554520c22578fd41bc7b8", "fusion_lon": 0.0, "type": "electric_scooter", "name": "bcd373cc58c554520c22578fd41bc7b8", "rental_uris": {"android": "https://dc.lft.to/lastmile_qr_scan", "ios": "https://dc.lft.to/lastmile_qr_scan"}, "fusion_lat": 0.0, "lat": 38.90949666666667, "is_disabled": 0, "lon": -77.03210716666666, "is_reserved": 0}, {"bike_id": "88bff95cbea2c1a065dff66df9cc6611", "fusion_lon": 0.0, "type": "electric_bike", "name": "88bff95cbea2c1a065dff66df9cc6611", "rental_uris": {"android": "https://dc.lft.to/lastmile_qr_scan", "ios": "https://dc.lft.to/lastmile_qr_scan"}, "fusion_lat": 0.0, "lat": 38.909711, "is_disabled": 0, "lon": -77.08826016666667, "is_reserved": 0}, {"bike_id": "adeaa87af89e70f9bb75f5537c2d0308", "fusion_lon": 0.0, "type": "electric_scooter", "name": "adeaa87af89e70f9bb75f5537c2d0308", "rental_uris": {"android": "https://dc.lft.to/lastmile_qr_scan", "ios": "https://dc.lft.to/lastmile_qr_scan"}, "fusion_lat": 0.0, "lat": 38.9371585, "is_disabled": 0, "lon": -77.02474916666667, "is_reserved": 0}, {"bike_id": "4980ff37e27bc9bc2d38bceb731f7b73", "fusion_lon": 0.0, "type": "electric_scooter", "name": "4980ff37e27bc9bc2d38bceb731f7b73", "rental_uris": {"android": "https://dc.lft.to/lastmile_qr_scan", "ios": "https://dc.lft.to/lastmile_qr_scan"}, "fusion_lat": 0.0, "lat": 38.8672045, "is_disabled": 0, "lon": -76.98730316666666, "is_reserved": 0}, {"bike_id": "8caedad6fbb69611c157fa2fc8156677", "fusion_lon": 0.0, "type": "electric_scooter", "name": "8caedad6fbb69611c157fa2fc8156677", "rental_uris": {"android": "https://dc.lft.to/lastmile_qr_scan", "ios": "https://dc.lft.to/lastmile_qr_scan"}, "fusion_lat": 0.0, "lat": 38.9239255, "is_disabled": 0, "lon": -77.04090483333333, "is_reserved": 0}, {"bike_id": "e38ab41b82df0f4446d32a7ecfaa1756", "fusion_lon": 0.0, "type": "electric_scooter", "name": "e38ab41b82df0f4446d32a7ecfaa1756", "rental_uris": {"android": "https://dc.lft.to/lastmile_qr_scan", "ios": "https://dc.lft.to/lastmile_qr_scan"}, "fusion_lat": 0.0, "lat": 38.8999385, "is_disabled": 0, "lon": -77.01987783333334, "is_reserved": 0}, {"bike_id": "5d3805980cf4bd54a0c0ddff3edbff02", "fusion_lon": 0.0, "type": "electric_scooter", "name": "5d3805980cf4bd54a0c0ddff3edbff02", "rental_uris": {"android": "https://dc.lft.to/lastmile_qr_scan", "ios": "https://dc.lft.to/lastmile_qr_scan"}, "fusion_lat": 0.0, "lat": 38.92979, "is_disabled": 0, "lon": -77.03186816666667, "is_reserved": 0}, {"bike_id": "b0357ae5277ed9eb0143d2eea6014528", "fusion_lon": 0.0, "type": "electric_scooter", "name": "b0357ae5277ed9eb0143d2eea6014528", "rental_uris": {"android": "https://dc.lft.to/lastmile_qr_scan", "ios": "https://dc.lft.to/lastmile_qr_scan"}, "fusion_lat": 0.0, "lat": 38.84291733333333, "is_disabled": 0, "lon": -76.99948616666667, "is_reserved": 0}, {"bike_id": "18456d81f0bb702df31424b76b6ef6c1", "fusion_lon": 0.0, "type": "electric_scooter", "name": "18456d81f0bb702df31424b76b6ef6c1", "rental_uris": {"android": "https://dc.lft.to/lastmile_qr_scan", "ios": "https://dc.lft.to/lastmile_qr_scan"}, "fusion_lat": 0.0, "lat": 38.898299333333334, "is_disabled": 0, "lon": -77.0332305, "is_reserved": 0}, {"bike_id": "42ebe1ac0002c5866f2c78ee9baf27dc", "fusion_lon": 0.0, "type": "electric_scooter", "name": "42ebe1ac0002c5866f2c78ee9baf27dc", "rental_uris": {"android": "https://dc.lft.to/lastmile_qr_scan", "ios": "https://dc.lft.to/lastmile_qr_scan"}, "fusion_lat": 0.0, "lat": 38.949279833333335, "is_disabled": 0, "lon": -77.01932683333334, "is_reserved": 0}, {"bike_id": "b9022a5cef8da52d91f5a16665908c4b", "fusion_lon": 0.0, "type": "electric_scooter", "name": "b9022a5cef8da52d91f5a16665908c4b", "rental_uris": {"android": "https://dc.lft.to/lastmile_qr_scan", "ios": "https://dc.lft.to/lastmile_qr_scan"}, "fusion_lat": 0.0, "lat": 38.900964, "is_disabled": 0, "lon": -77.04767416666667, "is_reserved": 0}, {"bike_id": "772076047ea49ad0cda936ebd9671061", "fusion_lon": 0.0, "type": "electric_scooter", "name": "772076047ea49ad0cda936ebd9671061", "rental_uris": {"android": "https://dc.lft.to/lastmile_qr_scan", "ios": "https://dc.lft.to/lastmile_qr_scan"}, "fusion_lat": 0.0, "lat": 38.92915, "is_disabled": 0, "lon": -77.02088983333333, "is_reserved": 0}, {"bike_id": "7080cd089ef9bcafe382485db2d9801b", "fusion_lon": 0.0, "type": "electric_scooter", "name": "7080cd089ef9bcafe382485db2d9801b", "rental_uris": {"android": "https://dc.lft.to/lastmile_qr_scan", "ios": "https://dc.lft.to/lastmile_qr_scan"}, "fusion_lat": 0.0, "lat": 38.876644666666664, "is_disabled": 0, "lon": -77.01289416666667, "is_reserved": 0}, {"bike_id": "1cb203f69f39537ae7021f446265caa2", "fusion_lon": 0.0, "type": "electric_scooter", "name": "1cb203f69f39537ae7021f446265caa2", "rental_uris": {"android": "https://dc.lft.to/lastmile_qr_scan", "ios": "https://dc.lft.to/lastmile_qr_scan"}, "fusion_lat": 0.0, "lat": 38.871986, "is_disabled": 0, "lon": -77.01249133333333, "is_reserved": 0}, {"bike_id": "f2e6c8fb5e41e9953ff9d6c6073f2b6a", "fusion_lon": 0.0, "type": "electric_scooter", "name": "f2e6c8fb5e41e9953ff9d6c6073f2b6a", "rental_uris": {"android": "https://dc.lft.to/lastmile_qr_scan", "ios": "https://dc.lft.to/lastmile_qr_scan"}, "fusion_lat": 0.0, "lat": 38.90843183333333, "is_disabled": 0, "lon": -77.02695283333334, "is_reserved": 0}, {"bike_id": "142e9a0570eef0997c96874caac1efdf", "fusion_lon": 0.0, "type": "electric_scooter", "name": "142e9a0570eef0997c96874caac1efdf", "rental_uris": {"android": "https://dc.lft.to/lastmile_qr_scan", "ios": "https://dc.lft.to/lastmile_qr_scan"}, "fusion_lat": 0.0, "lat": 38.92580933333333, "is_disabled": 0, "lon": -77.04370616666667, "is_reserved": 0}, {"bike_id": "83dea29923fcd4a80b2a061863711da1", "fusion_lon": 0.0, "type": "electric_scooter", "name": "83dea29923fcd4a80b2a061863711da1", "rental_uris": {"android": "https://dc.lft.to/lastmile_qr_scan", "ios": "https://dc.lft.to/lastmile_qr_scan"}, "fusion_lat": 0.0, "lat": 38.924658666666666, "is_disabled": 0, "lon": -77.021578, "is_reserved": 0}, {"bike_id": "f07f2e3f130a06bdd09f4a2e9736919d", "fusion_lon": 0.0, "type": "electric_scooter", "name": "f07f2e3f130a06bdd09f4a2e9736919d", "rental_uris": {"android": "https://dc.lft.to/lastmile_qr_scan", "ios": "https://dc.lft.to/lastmile_qr_scan"}, "fusion_lat": 0.0, "lat": 38.9077865, "is_disabled": 0, "lon": -77.04513783333333, "is_reserved": 0}, {"bike_id": "f07638a7690b847b15e0c96ec6b5cc41", "fusion_lon": 0.0, "type": "electric_scooter", "name": "f07638a7690b847b15e0c96ec6b5cc41", "rental_uris": {"android": "https://dc.lft.to/lastmile_qr_scan", "ios": "https://dc.lft.to/lastmile_qr_scan"}, "fusion_lat": 0.0, "lat": 38.912241333333334, "is_disabled": 0, "lon": -77.03799283333333, "is_reserved": 0}, {"bike_id": "484f275d6c15bdfd797c3f9c6067c785", "fusion_lon": 0.0, "type": "electric_scooter", "name": "484f275d6c15bdfd797c3f9c6067c785", "rental_uris": {"android": "https://dc.lft.to/lastmile_qr_scan", "ios": "https://dc.lft.to/lastmile_qr_scan"}, "fusion_lat": 0.0, "lat": 38.911873666666665, "is_disabled": 0, "lon": -77.005534, "is_reserved": 0}, {"bike_id": "c4c4d547aa6715439739b369598dd2b5", "fusion_lon": 0.0, "type": "electric_scooter", "name": "c4c4d547aa6715439739b369598dd2b5", "rental_uris": {"android": "https://dc.lft.to/lastmile_qr_scan", "ios": "https://dc.lft.to/lastmile_qr_scan"}, "fusion_lat": 0.0, "lat": 38.93564116666667, "is_disabled": 0, "lon": -77.02143616666666, "is_reserved": 0}, {"bike_id": "24070e0ac36971a2f2f27f2081949b15", "fusion_lon": 0.0, "type": "electric_bike", "name": "24070e0ac36971a2f2f27f2081949b15", "rental_uris": {"android": "https://dc.lft.to/lastmile_qr_scan", "ios": "https://dc.lft.to/lastmile_qr_scan"}, "fusion_lat": 0.0, "lat": 38.926607, "is_disabled": 0, "lon": -77.0237785, "is_reserved": 0}, {"bike_id": "96df57358daca744a5835aaaa039c93b", "fusion_lon": 0.0, "type": "electric_scooter", "name": "96df57358daca744a5835aaaa039c93b", "rental_uris": {"android": "https://dc.lft.to/lastmile_qr_scan", "ios": "https://dc.lft.to/lastmile_qr_scan"}, "fusion_lat": 0.0, "lat": 38.902739, "is_disabled": 0, "lon": -77.02170566666666, "is_reserved": 0}, {"bike_id": "4ddc97e09710ede03aa05f6479e02aaa", "fusion_lon": 0.0, "type": "electric_bike", "name": "4ddc97e09710ede03aa05f6479e02aaa", "rental_uris": {"android": "https://dc.lft.to/lastmile_qr_scan", "ios": "https://dc.lft.to/lastmile_qr_scan"}, "fusion_lat": 0.0, "lat": 38.880134, "is_disabled": 0, "lon": -76.9159525, "is_reserved": 0}, {"bike_id": "7e2fe4013ef45b0b63942065f33ccdee", "fusion_lon": 0.0, "type": "electric_bike", "name": "7e2fe4013ef45b0b63942065f33ccdee", "rental_uris": {"android": "https://dc.lft.to/lastmile_qr_scan", "ios": "https://dc.lft.to/lastmile_qr_scan"}, "fusion_lat": 0.0, "lat": 38.84535316666667, "is_disabled": 0, "lon": -76.98788316666666, "is_reserved": 0}, {"bike_id": "bfb7692135551f41eb0861a7176879a9", "fusion_lon": 0.0, "type": "electric_scooter", "name": "bfb7692135551f41eb0861a7176879a9", "rental_uris": {"android": "https://dc.lft.to/lastmile_qr_scan", "ios": "https://dc.lft.to/lastmile_qr_scan"}, "fusion_lat": 0.0, "lat": 38.9133305, "is_disabled": 0, "lon": -77.04820866666667, "is_reserved": 0}, {"bike_id": "4af75b916f2ab5eccb57814f555642f1", "fusion_lon": 0.0, "type": "electric_scooter", "name": "4af75b916f2ab5eccb57814f555642f1", "rental_uris": {"android": "https://dc.lft.to/lastmile_qr_scan", "ios": "https://dc.lft.to/lastmile_qr_scan"}, "fusion_lat": 0.0, "lat": 38.91806316666667, "is_disabled": 0, "lon": -77.03441966666666, "is_reserved": 0}, {"bike_id": "68ff383001b580040283c6e30b068d5f", "fusion_lon": 0.0, "type": "electric_scooter", "name": "68ff383001b580040283c6e30b068d5f", "rental_uris": {"android": "https://dc.lft.to/lastmile_qr_scan", "ios": "https://dc.lft.to/lastmile_qr_scan"}, "fusion_lat": 0.0, "lat": 38.906604, "is_disabled": 0, "lon": -77.00060016666667, "is_reserved": 0}, {"bike_id": "3ad06e2443d8f71a61ce192e494b76dd", "fusion_lon": 0.0, "type": "electric_scooter", "name": "3ad06e2443d8f71a61ce192e494b76dd", "rental_uris": {"android": "https://dc.lft.to/lastmile_qr_scan", "ios": "https://dc.lft.to/lastmile_qr_scan"}, "fusion_lat": 0.0, "lat": 38.934732, "is_disabled": 0, "lon": -77.06530666666667, "is_reserved": 0}, {"bike_id": "2c1df05c3d535a549b21064c749cea6f", "fusion_lon": 0.0, "type": "electric_scooter", "name": "2c1df05c3d535a549b21064c749cea6f", "rental_uris": {"android": "https://dc.lft.to/lastmile_qr_scan", "ios": "https://dc.lft.to/lastmile_qr_scan"}, "fusion_lat": 0.0, "lat": 38.86222466666667, "is_disabled": 0, "lon": -76.994583, "is_reserved": 0}, {"bike_id": "68cea5a460232647a091c7482ae359db", "fusion_lon": 0.0, "type": "electric_scooter", "name": "68cea5a460232647a091c7482ae359db", "rental_uris": {"android": "https://dc.lft.to/lastmile_qr_scan", "ios": "https://dc.lft.to/lastmile_qr_scan"}, "fusion_lat": 0.0, "lat": 38.933671, "is_disabled": 0, "lon": -77.05729433333333, "is_reserved": 0}, {"bike_id": "ca1357758e3f61073930fc12cec0f156", "fusion_lon": 0.0, "type": "electric_scooter", "name": "ca1357758e3f61073930fc12cec0f156", "rental_uris": {"android": "https://dc.lft.to/lastmile_qr_scan", "ios": "https://dc.lft.to/lastmile_qr_scan"}, "fusion_lat": 0.0, "lat": 38.90328183333333, "is_disabled": 0, "lon": -77.02134183333334, "is_reserved": 0}, {"bike_id": "4fe49617e703e31388e093969314c456", "fusion_lon": 0.0, "type": "electric_scooter", "name": "4fe49617e703e31388e093969314c456", "rental_uris": {"android": "https://dc.lft.to/lastmile_qr_scan", "ios": "https://dc.lft.to/lastmile_qr_scan"}, "fusion_lat": 0.0, "lat": 38.914093, "is_disabled": 0, "lon": -77.04180816666667, "is_reserved": 0}, {"bike_id": "da7181f0bc1d27442c2de8422f0b0224", "fusion_lon": 0.0, "type": "electric_bike", "name": "da7181f0bc1d27442c2de8422f0b0224", "rental_uris": {"android": "https://dc.lft.to/lastmile_qr_scan", "ios": "https://dc.lft.to/lastmile_qr_scan"}, "fusion_lat": 0.0, "lat": 38.994555166666665, "is_disabled": 0, "lon": -76.90816166666667, "is_reserved": 0}, {"bike_id": "2d9dcc619c7f8003f8df63278d19435f", "fusion_lon": 0.0, "type": "electric_scooter", "name": "2d9dcc619c7f8003f8df63278d19435f", "rental_uris": {"android": "https://dc.lft.to/lastmile_qr_scan", "ios": "https://dc.lft.to/lastmile_qr_scan"}, "fusion_lat": 0.0, "lat": 38.880282666666666, "is_disabled": 0, "lon": -76.99508783333333, "is_reserved": 0}, {"bike_id": "1202dfa2945f843ac129a6a609e34794", "fusion_lon": 0.0, "type": "electric_scooter", "name": "1202dfa2945f843ac129a6a609e34794", "rental_uris": {"android": "https://dc.lft.to/lastmile_qr_scan", "ios": "https://dc.lft.to/lastmile_qr_scan"}, "fusion_lat": 0.0, "lat": 38.929801, "is_disabled": 0, "lon": -77.03203583333334, "is_reserved": 0}, {"bike_id": "417a1ac166e1d0219b29788109a0e805", "fusion_lon": 0.0, "type": "electric_scooter", "name": "417a1ac166e1d0219b29788109a0e805", "rental_uris": {"android": "https://dc.lft.to/lastmile_qr_scan", "ios": "https://dc.lft.to/lastmile_qr_scan"}, "fusion_lat": 0.0, "lat": 38.862463, "is_disabled": 0, "lon": -76.995041, "is_reserved": 0}, {"bike_id": "5865a3828456a5e5f2307b2b287dadb1", "fusion_lon": 0.0, "type": "electric_scooter", "name": "5865a3828456a5e5f2307b2b287dadb1", "rental_uris": {"android": "https://dc.lft.to/lastmile_qr_scan", "ios": "https://dc.lft.to/lastmile_qr_scan"}, "fusion_lat": 0.0, "lat": 38.90575233333333, "is_disabled": 0, "lon": -77.01667533333334, "is_reserved": 0}, {"bike_id": "fc41a6e3ed5b6f2b4ba9ac6d9b8fbc0d", "fusion_lon": 0.0, "type": "electric_bike", "name": "fc41a6e3ed5b6f2b4ba9ac6d9b8fbc0d", "rental_uris": {"android": "https://dc.lft.to/lastmile_qr_scan", "ios": "https://dc.lft.to/lastmile_qr_scan"}, "fusion_lat": 0.0, "lat": 38.83920483333333, "is_disabled": 0, "lon": -76.99843033333333, "is_reserved": 0}, {"bike_id": "c14c68f95ec0d9941ccbc35a033de721", "fusion_lon": 0.0, "type": "electric_scooter", "name": "c14c68f95ec0d9941ccbc35a033de721", "rental_uris": {"android": "https://dc.lft.to/lastmile_qr_scan", "ios": "https://dc.lft.to/lastmile_qr_scan"}, "fusion_lat": 0.0, "lat": 38.88741666666667, "is_disabled": 0, "lon": -77.02828533333333, "is_reserved": 0}, {"bike_id": "1b45f5b6b0585be0d245efb57f791e9e", "fusion_lon": 0.0, "type": "electric_scooter", "name": "1b45f5b6b0585be0d245efb57f791e9e", "rental_uris": {"android": "https://dc.lft.to/lastmile_qr_scan", "ios": "https://dc.lft.to/lastmile_qr_scan"}, "fusion_lat": 0.0, "lat": 38.927955833333336, "is_disabled": 0, "lon": -77.03076766666666, "is_reserved": 0}, {"bike_id": "13f190be31c6a128441b0912a3a63853", "fusion_lon": 0.0, "type": "electric_bike", "name": "13f190be31c6a128441b0912a3a63853", "rental_uris": {"android": "https://dc.lft.to/lastmile_qr_scan", "ios": "https://dc.lft.to/lastmile_qr_scan"}, "fusion_lat": 0.0, "lat": 38.905738666666664, "is_disabled": 0, "lon": -77.0170055, "is_reserved": 0}, {"bike_id": "67f901022b18d873115ac5a4dcb74407", "fusion_lon": 0.0, "type": "electric_bike", "name": "67f901022b18d873115ac5a4dcb74407", "rental_uris": {"android": "https://dc.lft.to/lastmile_qr_scan", "ios": "https://dc.lft.to/lastmile_qr_scan"}, "fusion_lat": 0.0, "lat": 38.88536033333333, "is_disabled": 0, "lon": -76.9357275, "is_reserved": 0}, {"bike_id": "ab4c7137ceaedda0ce143a6e54bb90d5", "fusion_lon": 0.0, "type": "electric_scooter", "name": "ab4c7137ceaedda0ce143a6e54bb90d5", "rental_uris": {"android": "https://dc.lft.to/lastmile_qr_scan", "ios": "https://dc.lft.to/lastmile_qr_scan"}, "fusion_lat": 0.0, "lat": 38.9336195, "is_disabled": 0, "lon": -77.03723333333333, "is_reserved": 0}, {"bike_id": "181497a5be3e6d213d3ab6d593f189b1", "fusion_lon": 0.0, "type": "electric_scooter", "name": "181497a5be3e6d213d3ab6d593f189b1", "rental_uris": {"android": "https://dc.lft.to/lastmile_qr_scan", "ios": "https://dc.lft.to/lastmile_qr_scan"}, "fusion_lat": 0.0, "lat": 38.89277583333333, "is_disabled": 0, "lon": -77.02045833333334, "is_reserved": 0}, {"bike_id": "6e6fb3b6050280753783fdac401279df", "fusion_lon": 0.0, "type": "electric_scooter", "name": "6e6fb3b6050280753783fdac401279df", "rental_uris": {"android": "https://dc.lft.to/lastmile_qr_scan", "ios": "https://dc.lft.to/lastmile_qr_scan"}, "fusion_lat": 0.0, "lat": 38.902500333333336, "is_disabled": 0, "lon": -77.02938333333333, "is_reserved": 0}, {"bike_id": "ba2181ad3d485aca335b80322091813a", "fusion_lon": 0.0, "type": "electric_bike", "name": "ba2181ad3d485aca335b80322091813a", "rental_uris": {"android": "https://dc.lft.to/lastmile_qr_scan", "ios": "https://dc.lft.to/lastmile_qr_scan"}, "fusion_lat": 0.0, "lat": 38.96260783333334, "is_disabled": 0, "lon": -77.01079516666667, "is_reserved": 0}, {"bike_id": "f7617f7d44e7449dfee62d72e0f07bc4", "fusion_lon": 0.0, "type": "electric_scooter", "name": "f7617f7d44e7449dfee62d72e0f07bc4", "rental_uris": {"android": "https://dc.lft.to/lastmile_qr_scan", "ios": "https://dc.lft.to/lastmile_qr_scan"}, "fusion_lat": 0.0, "lat": 38.90377383333333, "is_disabled": 0, "lon": -76.98024266666667, "is_reserved": 0}, {"bike_id": "9df65eb3ce83c5dd8217e2e8f65d44bb", "fusion_lon": 0.0, "type": "electric_scooter", "name": "9df65eb3ce83c5dd8217e2e8f65d44bb", "rental_uris": {"android": "https://dc.lft.to/lastmile_qr_scan", "ios": "https://dc.lft.to/lastmile_qr_scan"}, "fusion_lat": 0.0, "lat": 38.91047233333333, "is_disabled": 0, "lon": -77.00918233333333, "is_reserved": 0}, {"bike_id": "1253e083d175471e621b04debb366936", "fusion_lon": 0.0, "type": "electric_scooter", "name": "1253e083d175471e621b04debb366936", "rental_uris": {"android": "https://dc.lft.to/lastmile_qr_scan", "ios": "https://dc.lft.to/lastmile_qr_scan"}, "fusion_lat": 0.0, "lat": 38.94975083333333, "is_disabled": 0, "lon": -77.0676005, "is_reserved": 0}, {"bike_id": "0ea9340067ea9553c16a2a72f8fa1268", "fusion_lon": 0.0, "type": "electric_scooter", "name": "0ea9340067ea9553c16a2a72f8fa1268", "rental_uris": {"android": "https://dc.lft.to/lastmile_qr_scan", "ios": "https://dc.lft.to/lastmile_qr_scan"}, "fusion_lat": 0.0, "lat": 38.908545333333336, "is_disabled": 0, "lon": -77.02378216666666, "is_reserved": 0}, {"bike_id": "fef556d86bf43d9e78adce22f3eda112", "fusion_lon": 0.0, "type": "electric_bike", "name": "fef556d86bf43d9e78adce22f3eda112", "rental_uris": {"android": "https://dc.lft.to/lastmile_qr_scan", "ios": "https://dc.lft.to/lastmile_qr_scan"}, "fusion_lat": 0.0, "lat": 38.84605116666667, "is_disabled": 0, "lon": -76.96880683333333, "is_reserved": 0}, {"bike_id": "9d9dc0ee04b42e9aa3f27e8aba419f88", "fusion_lon": 0.0, "type": "electric_scooter", "name": "9d9dc0ee04b42e9aa3f27e8aba419f88", "rental_uris": {"android": "https://dc.lft.to/lastmile_qr_scan", "ios": "https://dc.lft.to/lastmile_qr_scan"}, "fusion_lat": 0.0, "lat": 38.92427, "is_disabled": 0, "lon": -77.03633783333333, "is_reserved": 0}, {"bike_id": "6b86a6fc90d1cc098d710f55d0ba20c2", "fusion_lon": 0.0, "type": "electric_bike", "name": "6b86a6fc90d1cc098d710f55d0ba20c2", "rental_uris": {"android": "https://dc.lft.to/lastmile_qr_scan", "ios": "https://dc.lft.to/lastmile_qr_scan"}, "fusion_lat": 0.0, "lat": 38.84478033333333, "is_disabled": 0, "lon": -76.9722515, "is_reserved": 0}, {"bike_id": "d2afec8eb11e91036e7098c27550a65d", "fusion_lon": 0.0, "type": "electric_bike", "name": "d2afec8eb11e91036e7098c27550a65d", "rental_uris": {"android": "https://dc.lft.to/lastmile_qr_scan", "ios": "https://dc.lft.to/lastmile_qr_scan"}, "fusion_lat": 0.0, "lat": 38.922232, "is_disabled": 0, "lon": -77.02238583333333, "is_reserved": 0}, {"bike_id": "f665b0389047356c2cd934fd31fa0d99", "fusion_lon": 0.0, "type": "electric_scooter", "name": "f665b0389047356c2cd934fd31fa0d99", "rental_uris": {"android": "https://dc.lft.to/lastmile_qr_scan", "ios": "https://dc.lft.to/lastmile_qr_scan"}, "fusion_lat": 0.0, "lat": 38.924115, "is_disabled": 0, "lon": -77.0200605, "is_reserved": 0}, {"bike_id": "e6628544822cae9c127ef042b73ca5d4", "fusion_lon": 0.0, "type": "electric_scooter", "name": "e6628544822cae9c127ef042b73ca5d4", "rental_uris": {"android": "https://dc.lft.to/lastmile_qr_scan", "ios": "https://dc.lft.to/lastmile_qr_scan"}, "fusion_lat": 0.0, "lat": 38.9597015, "is_disabled": 0, "lon": -77.00730766666666, "is_reserved": 0}, {"bike_id": "e38e977dc29c4329c055a298547f328b", "fusion_lon": 0.0, "type": "electric_bike", "name": "e38e977dc29c4329c055a298547f328b", "rental_uris": {"android": "https://dc.lft.to/lastmile_qr_scan", "ios": "https://dc.lft.to/lastmile_qr_scan"}, "fusion_lat": 0.0, "lat": 38.86619616666667, "is_disabled": 0, "lon": -76.94574316666667, "is_reserved": 0}, {"bike_id": "72b4019c204f774a9f9db018cbea53d5", "fusion_lon": 0.0, "type": "electric_scooter", "name": "72b4019c204f774a9f9db018cbea53d5", "rental_uris": {"android": "https://dc.lft.to/lastmile_qr_scan", "ios": "https://dc.lft.to/lastmile_qr_scan"}, "fusion_lat": 0.0, "lat": 38.9044845, "is_disabled": 0, "lon": -77.06120416666667, "is_reserved": 0}, {"bike_id": "89e54f0e19621789dbda369ca0613733", "fusion_lon": 0.0, "type": "electric_scooter", "name": "89e54f0e19621789dbda369ca0613733", "rental_uris": {"android": "https://dc.lft.to/lastmile_qr_scan", "ios": "https://dc.lft.to/lastmile_qr_scan"}, "fusion_lat": 0.0, "lat": 38.919929, "is_disabled": 0, "lon": -76.97304166666666, "is_reserved": 0}, {"bike_id": "4ac94e025c8ce4a8fea916f55a75bc2f", "fusion_lon": 0.0, "type": "electric_scooter", "name": "4ac94e025c8ce4a8fea916f55a75bc2f", "rental_uris": {"android": "https://dc.lft.to/lastmile_qr_scan", "ios": "https://dc.lft.to/lastmile_qr_scan"}, "fusion_lat": 0.0, "lat": 38.93864683333334, "is_disabled": 0, "lon": -77.02487983333333, "is_reserved": 0}, {"bike_id": "dcd93b384b630fb54314ead917b5d26c", "fusion_lon": 0.0, "type": "electric_scooter", "name": "dcd93b384b630fb54314ead917b5d26c", "rental_uris": {"android": "https://dc.lft.to/lastmile_qr_scan", "ios": "https://dc.lft.to/lastmile_qr_scan"}, "fusion_lat": 0.0, "lat": 38.93288066666667, "is_disabled": 0, "lon": -77.03629016666666, "is_reserved": 0}, {"bike_id": "c8a054a61fffdf60dec28cc7c24f7ee9", "fusion_lon": 0.0, "type": "electric_scooter", "name": "c8a054a61fffdf60dec28cc7c24f7ee9", "rental_uris": {"android": "https://dc.lft.to/lastmile_qr_scan", "ios": "https://dc.lft.to/lastmile_qr_scan"}, "fusion_lat": 0.0, "lat": 38.94645083333333, "is_disabled": 0, "lon": -77.0303535, "is_reserved": 0}, {"bike_id": "b4b59ebf108cff7b3a682c4d6620c922", "fusion_lon": 0.0, "type": "electric_scooter", "name": "b4b59ebf108cff7b3a682c4d6620c922", "rental_uris": {"android": "https://dc.lft.to/lastmile_qr_scan", "ios": "https://dc.lft.to/lastmile_qr_scan"}, "fusion_lat": 0.0, "lat": 38.930759333333334, "is_disabled": 0, "lon": -77.03203166666667, "is_reserved": 0}, {"bike_id": "5bd767c4a0f523812c2428c48766fdf8", "fusion_lon": 0.0, "type": "electric_scooter", "name": "5bd767c4a0f523812c2428c48766fdf8", "rental_uris": {"android": "https://dc.lft.to/lastmile_qr_scan", "ios": "https://dc.lft.to/lastmile_qr_scan"}, "fusion_lat": 0.0, "lat": 38.925218, "is_disabled": 0, "lon": -77.052284, "is_reserved": 0}, {"bike_id": "d24b48675a5703a30ec7fe10073dbeee", "fusion_lon": 0.0, "type": "electric_scooter", "name": "d24b48675a5703a30ec7fe10073dbeee", "rental_uris": {"android": "https://dc.lft.to/lastmile_qr_scan", "ios": "https://dc.lft.to/lastmile_qr_scan"}, "fusion_lat": 0.0, "lat": 38.89198833333333, "is_disabled": 0, "lon": -77.01553266666667, "is_reserved": 0}, {"bike_id": "23b0387f376664aaeb463214840e757d", "fusion_lon": 0.0, "type": "electric_scooter", "name": "23b0387f376664aaeb463214840e757d", "rental_uris": {"android": "https://dc.lft.to/lastmile_qr_scan", "ios": "https://dc.lft.to/lastmile_qr_scan"}, "fusion_lat": 0.0, "lat": 38.89707033333333, "is_disabled": 0, "lon": -77.02308983333333, "is_reserved": 0}, {"bike_id": "7f5ae35ed4e0b510dc9dceaa828e1051", "fusion_lon": 0.0, "type": "electric_scooter", "name": "7f5ae35ed4e0b510dc9dceaa828e1051", "rental_uris": {"android": "https://dc.lft.to/lastmile_qr_scan", "ios": "https://dc.lft.to/lastmile_qr_scan"}, "fusion_lat": 0.0, "lat": 38.892209, "is_disabled": 0, "lon": -77.03229183333333, "is_reserved": 0}, {"bike_id": "517a17555ba9637073fb06e3961e531d", "fusion_lon": 0.0, "type": "electric_scooter", "name": "517a17555ba9637073fb06e3961e531d", "rental_uris": {"android": "https://dc.lft.to/lastmile_qr_scan", "ios": "https://dc.lft.to/lastmile_qr_scan"}, "fusion_lat": 0.0, "lat": 38.9058875, "is_disabled": 0, "lon": -77.062768, "is_reserved": 0}, {"bike_id": "953f7dbaeabfcf2e8c47770795a16bca", "fusion_lon": 0.0, "type": "electric_scooter", "name": "953f7dbaeabfcf2e8c47770795a16bca", "rental_uris": {"android": "https://dc.lft.to/lastmile_qr_scan", "ios": "https://dc.lft.to/lastmile_qr_scan"}, "fusion_lat": 0.0, "lat": 38.939214666666665, "is_disabled": 0, "lon": -77.0602295, "is_reserved": 0}, {"bike_id": "ca40a5ffafcfce708b0b98160eef9827", "fusion_lon": 0.0, "type": "electric_scooter", "name": "ca40a5ffafcfce708b0b98160eef9827", "rental_uris": {"android": "https://dc.lft.to/lastmile_qr_scan", "ios": "https://dc.lft.to/lastmile_qr_scan"}, "fusion_lat": 0.0, "lat": 38.917123, "is_disabled": 0, "lon": -77.0294005, "is_reserved": 0}, {"bike_id": "b8f7617a2747a1804cb32e41effb2832", "fusion_lon": 0.0, "type": "electric_scooter", "name": "b8f7617a2747a1804cb32e41effb2832", "rental_uris": {"android": "https://dc.lft.to/lastmile_qr_scan", "ios": "https://dc.lft.to/lastmile_qr_scan"}, "fusion_lat": 0.0, "lat": 38.9205305, "is_disabled": 0, "lon": -77.02420566666666, "is_reserved": 0}, {"bike_id": "f38c22f1f634d07137e93ea83eb3969e", "fusion_lon": 0.0, "type": "electric_scooter", "name": "f38c22f1f634d07137e93ea83eb3969e", "rental_uris": {"android": "https://dc.lft.to/lastmile_qr_scan", "ios": "https://dc.lft.to/lastmile_qr_scan"}, "fusion_lat": 0.0, "lat": 38.90792966666667, "is_disabled": 0, "lon": -76.94122583333333, "is_reserved": 0}, {"bike_id": "7c35a065f1f68d31ad414429bf6f8c1b", "fusion_lon": 0.0, "type": "electric_scooter", "name": "7c35a065f1f68d31ad414429bf6f8c1b", "rental_uris": {"android": "https://dc.lft.to/lastmile_qr_scan", "ios": "https://dc.lft.to/lastmile_qr_scan"}, "fusion_lat": 0.0, "lat": 38.90493433333333, "is_disabled": 0, "lon": -77.0070765, "is_reserved": 0}, {"bike_id": "41d848bd656822e661f98180386cc3c2", "fusion_lon": 0.0, "type": "electric_scooter", "name": "41d848bd656822e661f98180386cc3c2", "rental_uris": {"android": "https://dc.lft.to/lastmile_qr_scan", "ios": "https://dc.lft.to/lastmile_qr_scan"}, "fusion_lat": 0.0, "lat": 38.89220616666667, "is_disabled": 0, "lon": -77.028314, "is_reserved": 0}, {"bike_id": "f5420d0bc8063b9cfec110a2bb77fa98", "fusion_lon": 0.0, "type": "electric_scooter", "name": "f5420d0bc8063b9cfec110a2bb77fa98", "rental_uris": {"android": "https://dc.lft.to/lastmile_qr_scan", "ios": "https://dc.lft.to/lastmile_qr_scan"}, "fusion_lat": 0.0, "lat": 38.92906516666667, "is_disabled": 0, "lon": -77.06373633333334, "is_reserved": 0}, {"bike_id": "d821d7172754de2e5653ad77b71f80d7", "fusion_lon": 0.0, "type": "electric_scooter", "name": "d821d7172754de2e5653ad77b71f80d7", "rental_uris": {"android": "https://dc.lft.to/lastmile_qr_scan", "ios": "https://dc.lft.to/lastmile_qr_scan"}, "fusion_lat": 0.0, "lat": 38.90441933333334, "is_disabled": 0, "lon": -77.05145333333333, "is_reserved": 0}, {"bike_id": "27018e5e5c0e81b7ca01b9de92fb4e80", "fusion_lon": 0.0, "type": "electric_scooter", "name": "27018e5e5c0e81b7ca01b9de92fb4e80", "rental_uris": {"android": "https://dc.lft.to/lastmile_qr_scan", "ios": "https://dc.lft.to/lastmile_qr_scan"}, "fusion_lat": 0.0, "lat": 38.93909416666666, "is_disabled": 0, "lon": -77.06037283333333, "is_reserved": 0}, {"bike_id": "8037da7b94b6f93acf87ecaa6c1d4580", "fusion_lon": 0.0, "type": "electric_scooter", "name": "8037da7b94b6f93acf87ecaa6c1d4580", "rental_uris": {"android": "https://dc.lft.to/lastmile_qr_scan", "ios": "https://dc.lft.to/lastmile_qr_scan"}, "fusion_lat": 0.0, "lat": 38.897060333333336, "is_disabled": 0, "lon": -77.02182616666667, "is_reserved": 0}, {"bike_id": "46b1df17277bc05f67c73eafc12a93e4", "fusion_lon": 0.0, "type": "electric_scooter", "name": "46b1df17277bc05f67c73eafc12a93e4", "rental_uris": {"android": "https://dc.lft.to/lastmile_qr_scan", "ios": "https://dc.lft.to/lastmile_qr_scan"}, "fusion_lat": 0.0, "lat": 38.942816, "is_disabled": 0, "lon": -77.02922283333334, "is_reserved": 0}, {"bike_id": "5eaaa3f42747a01f7ed7894fe861718d", "fusion_lon": 0.0, "type": "electric_scooter", "name": "5eaaa3f42747a01f7ed7894fe861718d", "rental_uris": {"android": "https://dc.lft.to/lastmile_qr_scan", "ios": "https://dc.lft.to/lastmile_qr_scan"}, "fusion_lat": 0.0, "lat": 38.9310645, "is_disabled": 0, "lon": -77.02395116666666, "is_reserved": 0}, {"bike_id": "a8259e68aef274032477b735599b6a27", "fusion_lon": 0.0, "type": "electric_bike", "name": "a8259e68aef274032477b735599b6a27", "rental_uris": {"android": "https://dc.lft.to/lastmile_qr_scan", "ios": "https://dc.lft.to/lastmile_qr_scan"}, "fusion_lat": 0.0, "lat": 38.8637805, "is_disabled": 0, "lon": -77.1290095, "is_reserved": 0}, {"bike_id": "f0ac0b6e8a90a41cc6b86076be7347e2", "fusion_lon": 0.0, "type": "electric_scooter", "name": "f0ac0b6e8a90a41cc6b86076be7347e2", "rental_uris": {"android": "https://dc.lft.to/lastmile_qr_scan", "ios": "https://dc.lft.to/lastmile_qr_scan"}, "fusion_lat": 0.0, "lat": 38.900527, "is_disabled": 0, "lon": -77.04486983333334, "is_reserved": 0}, {"bike_id": "ca7b897a1fd399b61815646e77206b06", "fusion_lon": 0.0, "type": "electric_scooter", "name": "ca7b897a1fd399b61815646e77206b06", "rental_uris": {"android": "https://dc.lft.to/lastmile_qr_scan", "ios": "https://dc.lft.to/lastmile_qr_scan"}, "fusion_lat": 0.0, "lat": 38.88660516666667, "is_disabled": 0, "lon": -77.0339075, "is_reserved": 0}, {"bike_id": "66e3215c6fc9ad8a5c7b756617dca312", "fusion_lon": 0.0, "type": "electric_scooter", "name": "66e3215c6fc9ad8a5c7b756617dca312", "rental_uris": {"android": "https://dc.lft.to/lastmile_qr_scan", "ios": "https://dc.lft.to/lastmile_qr_scan"}, "fusion_lat": 0.0, "lat": 38.907833333333336, "is_disabled": 0, "lon": -77.06406233333334, "is_reserved": 0}, {"bike_id": "e70b27a4e0ee15be4aaa04ec76989150", "fusion_lon": 0.0, "type": "electric_scooter", "name": "e70b27a4e0ee15be4aaa04ec76989150", "rental_uris": {"android": "https://dc.lft.to/lastmile_qr_scan", "ios": "https://dc.lft.to/lastmile_qr_scan"}, "fusion_lat": 0.0, "lat": 38.91156816666667, "is_disabled": 0, "lon": -77.03217516666666, "is_reserved": 0}, {"bike_id": "c1a622f8b385fa07d1ecb05ce10451ee", "fusion_lon": 0.0, "type": "electric_scooter", "name": "c1a622f8b385fa07d1ecb05ce10451ee", "rental_uris": {"android": "https://dc.lft.to/lastmile_qr_scan", "ios": "https://dc.lft.to/lastmile_qr_scan"}, "fusion_lat": 0.0, "lat": 38.906497333333334, "is_disabled": 0, "lon": -77.02497666666666, "is_reserved": 0}, {"bike_id": "b817b4215ed490590c91cbdedfbb5c8f", "fusion_lon": 0.0, "type": "electric_scooter", "name": "b817b4215ed490590c91cbdedfbb5c8f", "rental_uris": {"android": "https://dc.lft.to/lastmile_qr_scan", "ios": "https://dc.lft.to/lastmile_qr_scan"}, "fusion_lat": 0.0, "lat": 38.898698, "is_disabled": 0, "lon": -76.946663, "is_reserved": 0}, {"bike_id": "690a5cacb9b2ccbd48828271018683f0", "fusion_lon": 0.0, "type": "electric_scooter", "name": "690a5cacb9b2ccbd48828271018683f0", "rental_uris": {"android": "https://dc.lft.to/lastmile_qr_scan", "ios": "https://dc.lft.to/lastmile_qr_scan"}, "fusion_lat": 0.0, "lat": 38.914288166666665, "is_disabled": 0, "lon": -77.002075, "is_reserved": 0}, {"bike_id": "8db1daa7e8ca40ad72a275c4317b8332", "fusion_lon": 0.0, "type": "electric_scooter", "name": "8db1daa7e8ca40ad72a275c4317b8332", "rental_uris": {"android": "https://dc.lft.to/lastmile_qr_scan", "ios": "https://dc.lft.to/lastmile_qr_scan"}, "fusion_lat": 0.0, "lat": 38.908525, "is_disabled": 0, "lon": -77.0393645, "is_reserved": 0}, {"bike_id": "d91a7b942b3d389b3cbfd08ad862a79b", "fusion_lon": 0.0, "type": "electric_scooter", "name": "d91a7b942b3d389b3cbfd08ad862a79b", "rental_uris": {"android": "https://dc.lft.to/lastmile_qr_scan", "ios": "https://dc.lft.to/lastmile_qr_scan"}, "fusion_lat": 0.0, "lat": 38.896180333333334, "is_disabled": 0, "lon": -77.01159366666667, "is_reserved": 0}, {"bike_id": "897d8be4edd4b3468774a7bf18a3f160", "fusion_lon": 0.0, "type": "electric_scooter", "name": "897d8be4edd4b3468774a7bf18a3f160", "rental_uris": {"android": "https://dc.lft.to/lastmile_qr_scan", "ios": "https://dc.lft.to/lastmile_qr_scan"}, "fusion_lat": 0.0, "lat": 38.92134683333333, "is_disabled": 0, "lon": -77.04685133333334, "is_reserved": 0}, {"bike_id": "85da3fa5d32a1dd175677b3118c539d3", "fusion_lon": 0.0, "type": "electric_scooter", "name": "85da3fa5d32a1dd175677b3118c539d3", "rental_uris": {"android": "https://dc.lft.to/lastmile_qr_scan", "ios": "https://dc.lft.to/lastmile_qr_scan"}, "fusion_lat": 0.0, "lat": 38.91260333333334, "is_disabled": 0, "lon": -77.04743266666667, "is_reserved": 0}, {"bike_id": "bdbcab2d2884eb68467055a9b77806d4", "fusion_lon": 0.0, "type": "electric_bike", "name": "bdbcab2d2884eb68467055a9b77806d4", "rental_uris": {"android": "https://dc.lft.to/lastmile_qr_scan", "ios": "https://dc.lft.to/lastmile_qr_scan"}, "fusion_lat": 0.0, "lat": 38.8980235, "is_disabled": 0, "lon": -77.00594466666666, "is_reserved": 0}, {"bike_id": "d6297e3a25e9573c7886546a6fa3b0a4", "fusion_lon": 0.0, "type": "electric_scooter", "name": "d6297e3a25e9573c7886546a6fa3b0a4", "rental_uris": {"android": "https://dc.lft.to/lastmile_qr_scan", "ios": "https://dc.lft.to/lastmile_qr_scan"}, "fusion_lat": 0.0, "lat": 38.90460733333333, "is_disabled": 0, "lon": -77.03474533333333, "is_reserved": 0}, {"bike_id": "8c9794bb7fc70125bbe0989fae076f65", "fusion_lon": 0.0, "type": "electric_bike", "name": "8c9794bb7fc70125bbe0989fae076f65", "rental_uris": {"android": "https://dc.lft.to/lastmile_qr_scan", "ios": "https://dc.lft.to/lastmile_qr_scan"}, "fusion_lat": 0.0, "lat": 38.9031695, "is_disabled": 0, "lon": -76.99127816666666, "is_reserved": 0}, {"bike_id": "732e62c5147377885cf552ce653e2606", "fusion_lon": 0.0, "type": "electric_scooter", "name": "732e62c5147377885cf552ce653e2606", "rental_uris": {"android": "https://dc.lft.to/lastmile_qr_scan", "ios": "https://dc.lft.to/lastmile_qr_scan"}, "fusion_lat": 0.0, "lat": 38.934197166666664, "is_disabled": 0, "lon": -77.04409716666666, "is_reserved": 0}, {"bike_id": "15fa5eafc74fe7c7ed3d6bd243503a2a", "fusion_lon": 0.0, "type": "electric_scooter", "name": "15fa5eafc74fe7c7ed3d6bd243503a2a", "rental_uris": {"android": "https://dc.lft.to/lastmile_qr_scan", "ios": "https://dc.lft.to/lastmile_qr_scan"}, "fusion_lat": 0.0, "lat": 38.884649, "is_disabled": 0, "lon": -76.99575666666667, "is_reserved": 0}, {"bike_id": "43b52562df6e478bd59d73fa10bf6988", "fusion_lon": 0.0, "type": "electric_scooter", "name": "43b52562df6e478bd59d73fa10bf6988", "rental_uris": {"android": "https://dc.lft.to/lastmile_qr_scan", "ios": "https://dc.lft.to/lastmile_qr_scan"}, "fusion_lat": 0.0, "lat": 38.89076, "is_disabled": 0, "lon": -76.91925016666667, "is_reserved": 0}, {"bike_id": "984bd0ca3a3a70dfc26b104ccf8f9215", "fusion_lon": 0.0, "type": "electric_scooter", "name": "984bd0ca3a3a70dfc26b104ccf8f9215", "rental_uris": {"android": "https://dc.lft.to/lastmile_qr_scan", "ios": "https://dc.lft.to/lastmile_qr_scan"}, "fusion_lat": 0.0, "lat": 38.90685233333333, "is_disabled": 0, "lon": -77.06339316666667, "is_reserved": 0}, {"bike_id": "0e6e3e77a7acdeffc2813d341501cd55", "fusion_lon": 0.0, "type": "electric_scooter", "name": "0e6e3e77a7acdeffc2813d341501cd55", "rental_uris": {"android": "https://dc.lft.to/lastmile_qr_scan", "ios": "https://dc.lft.to/lastmile_qr_scan"}, "fusion_lat": 0.0, "lat": 38.93061983333333, "is_disabled": 0, "lon": -77.02807866666667, "is_reserved": 0}, {"bike_id": "ef1fe9538ff2f12b89c666a06d1563eb", "fusion_lon": 0.0, "type": "electric_scooter", "name": "ef1fe9538ff2f12b89c666a06d1563eb", "rental_uris": {"android": "https://dc.lft.to/lastmile_qr_scan", "ios": "https://dc.lft.to/lastmile_qr_scan"}, "fusion_lat": 0.0, "lat": 38.90566366666667, "is_disabled": 0, "lon": -77.030665, "is_reserved": 0}, {"bike_id": "dbbf84b45eb574f65ee1e3fd930d82e1", "fusion_lon": 0.0, "type": "electric_scooter", "name": "dbbf84b45eb574f65ee1e3fd930d82e1", "rental_uris": {"android": "https://dc.lft.to/lastmile_qr_scan", "ios": "https://dc.lft.to/lastmile_qr_scan"}, "fusion_lat": 0.0, "lat": 38.92155966666667, "is_disabled": 0, "lon": -77.04700433333333, "is_reserved": 0}, {"bike_id": "25112a14ccf4a7d766a7f54c1071bf75", "fusion_lon": 0.0, "type": "electric_scooter", "name": "25112a14ccf4a7d766a7f54c1071bf75", "rental_uris": {"android": "https://dc.lft.to/lastmile_qr_scan", "ios": "https://dc.lft.to/lastmile_qr_scan"}, "fusion_lat": 0.0, "lat": 38.90068566666667, "is_disabled": 0, "lon": -77.04837033333334, "is_reserved": 0}, {"bike_id": "5545628645ab932478b891f4520cdd45", "fusion_lon": 0.0, "type": "electric_scooter", "name": "5545628645ab932478b891f4520cdd45", "rental_uris": {"android": "https://dc.lft.to/lastmile_qr_scan", "ios": "https://dc.lft.to/lastmile_qr_scan"}, "fusion_lat": 0.0, "lat": 38.92073533333333, "is_disabled": 0, "lon": -77.03820883333333, "is_reserved": 0}, {"bike_id": "7cfe2909e03d9838bdfe5224da738a66", "fusion_lon": 0.0, "type": "electric_scooter", "name": "7cfe2909e03d9838bdfe5224da738a66", "rental_uris": {"android": "https://dc.lft.to/lastmile_qr_scan", "ios": "https://dc.lft.to/lastmile_qr_scan"}, "fusion_lat": 0.0, "lat": 38.877058, "is_disabled": 0, "lon": -77.0164955, "is_reserved": 0}, {"bike_id": "ef5ed71dff07bdb674cba109a29073b8", "fusion_lon": 0.0, "type": "electric_scooter", "name": "ef5ed71dff07bdb674cba109a29073b8", "rental_uris": {"android": "https://dc.lft.to/lastmile_qr_scan", "ios": "https://dc.lft.to/lastmile_qr_scan"}, "fusion_lat": 0.0, "lat": 38.87646733333333, "is_disabled": 0, "lon": -77.01958216666667, "is_reserved": 0}, {"bike_id": "dfe63c984dc33a590d8ff0928db43497", "fusion_lon": 0.0, "type": "electric_scooter", "name": "dfe63c984dc33a590d8ff0928db43497", "rental_uris": {"android": "https://dc.lft.to/lastmile_qr_scan", "ios": "https://dc.lft.to/lastmile_qr_scan"}, "fusion_lat": 0.0, "lat": 38.91111633333333, "is_disabled": 0, "lon": -77.04502383333333, "is_reserved": 0}, {"bike_id": "f6d7695de46c0e867a3ffb66f8fd49dc", "fusion_lon": 0.0, "type": "electric_scooter", "name": "f6d7695de46c0e867a3ffb66f8fd49dc", "rental_uris": {"android": "https://dc.lft.to/lastmile_qr_scan", "ios": "https://dc.lft.to/lastmile_qr_scan"}, "fusion_lat": 0.0, "lat": 38.903869, "is_disabled": 0, "lon": -77.0336465, "is_reserved": 0}, {"bike_id": "e473de06cf4d1a91fcb0143c07e701bf", "fusion_lon": 0.0, "type": "electric_scooter", "name": "e473de06cf4d1a91fcb0143c07e701bf", "rental_uris": {"android": "https://dc.lft.to/lastmile_qr_scan", "ios": "https://dc.lft.to/lastmile_qr_scan"}, "fusion_lat": 0.0, "lat": 38.89998033333333, "is_disabled": 0, "lon": -76.98414466666667, "is_reserved": 0}, {"bike_id": "260181a3d98b2b091637db7af7496289", "fusion_lon": 0.0, "type": "electric_bike", "name": "260181a3d98b2b091637db7af7496289", "rental_uris": {"android": "https://dc.lft.to/lastmile_qr_scan", "ios": "https://dc.lft.to/lastmile_qr_scan"}, "fusion_lat": 0.0, "lat": 38.9447385, "is_disabled": 0, "lon": -77.02281366666666, "is_reserved": 0}, {"bike_id": "d9dfb81f0ffcb70fcc7d3fd0d3e18edc", "fusion_lon": 0.0, "type": "electric_scooter", "name": "d9dfb81f0ffcb70fcc7d3fd0d3e18edc", "rental_uris": {"android": "https://dc.lft.to/lastmile_qr_scan", "ios": "https://dc.lft.to/lastmile_qr_scan"}, "fusion_lat": 0.0, "lat": 38.91918533333333, "is_disabled": 0, "lon": -77.03124966666667, "is_reserved": 0}, {"bike_id": "abb37f3e6b826b51a5762543d886acda", "fusion_lon": 0.0, "type": "electric_scooter", "name": "abb37f3e6b826b51a5762543d886acda", "rental_uris": {"android": "https://dc.lft.to/lastmile_qr_scan", "ios": "https://dc.lft.to/lastmile_qr_scan"}, "fusion_lat": 0.0, "lat": 38.881459666666665, "is_disabled": 0, "lon": -76.9951165, "is_reserved": 0}, {"bike_id": "a245e00378a0f4383e8be42a079d1e13", "fusion_lon": 0.0, "type": "electric_scooter", "name": "a245e00378a0f4383e8be42a079d1e13", "rental_uris": {"android": "https://dc.lft.to/lastmile_qr_scan", "ios": "https://dc.lft.to/lastmile_qr_scan"}, "fusion_lat": 0.0, "lat": 38.951297333333336, "is_disabled": 0, "lon": -77.02727133333333, "is_reserved": 0}, {"bike_id": "2e753153519272dbb7c777c642adc734", "fusion_lon": 0.0, "type": "electric_bike", "name": "2e753153519272dbb7c777c642adc734", "rental_uris": {"android": "https://dc.lft.to/lastmile_qr_scan", "ios": "https://dc.lft.to/lastmile_qr_scan"}, "fusion_lat": 0.0, "lat": 38.96019716666667, "is_disabled": 0, "lon": -77.02006383333334, "is_reserved": 0}, {"bike_id": "6ab657b2e56891cef118de371e2a7496", "fusion_lon": 0.0, "type": "electric_scooter", "name": "6ab657b2e56891cef118de371e2a7496", "rental_uris": {"android": "https://dc.lft.to/lastmile_qr_scan", "ios": "https://dc.lft.to/lastmile_qr_scan"}, "fusion_lat": 0.0, "lat": 38.90271883333333, "is_disabled": 0, "lon": -77.034507, "is_reserved": 0}, {"bike_id": "f28c17e41fbe27315131af5ae27e97f7", "fusion_lon": 0.0, "type": "electric_scooter", "name": "f28c17e41fbe27315131af5ae27e97f7", "rental_uris": {"android": "https://dc.lft.to/lastmile_qr_scan", "ios": "https://dc.lft.to/lastmile_qr_scan"}, "fusion_lat": 0.0, "lat": 38.896104, "is_disabled": 0, "lon": -77.00928266666666, "is_reserved": 0}, {"bike_id": "c6097ff3709c5c2fad220fb2a88f024c", "fusion_lon": 0.0, "type": "electric_bike", "name": "c6097ff3709c5c2fad220fb2a88f024c", "rental_uris": {"android": "https://dc.lft.to/lastmile_qr_scan", "ios": "https://dc.lft.to/lastmile_qr_scan"}, "fusion_lat": 0.0, "lat": 38.95002916666667, "is_disabled": 0, "lon": -77.35306683333333, "is_reserved": 0}, {"bike_id": "d2691b986319662659113404c9c1122e", "fusion_lon": 0.0, "type": "electric_scooter", "name": "d2691b986319662659113404c9c1122e", "rental_uris": {"android": "https://dc.lft.to/lastmile_qr_scan", "ios": "https://dc.lft.to/lastmile_qr_scan"}, "fusion_lat": 0.0, "lat": 38.88743233333334, "is_disabled": 0, "lon": -77.02830866666666, "is_reserved": 0}, {"bike_id": "95f1111c51878d6c9c7914ae354f25b0", "fusion_lon": 0.0, "type": "electric_scooter", "name": "95f1111c51878d6c9c7914ae354f25b0", "rental_uris": {"android": "https://dc.lft.to/lastmile_qr_scan", "ios": "https://dc.lft.to/lastmile_qr_scan"}, "fusion_lat": 0.0, "lat": 38.89479733333334, "is_disabled": 0, "lon": -77.0454475, "is_reserved": 0}, {"bike_id": "65b4d3edf028d2dd3e5a4a491e185d0a", "fusion_lon": 0.0, "type": "electric_scooter", "name": "65b4d3edf028d2dd3e5a4a491e185d0a", "rental_uris": {"android": "https://dc.lft.to/lastmile_qr_scan", "ios": "https://dc.lft.to/lastmile_qr_scan"}, "fusion_lat": 0.0, "lat": 38.937333333333335, "is_disabled": 0, "lon": -77.03493833333333, "is_reserved": 0}, {"bike_id": "e2ca424cbed268e28c8168c01174471d", "fusion_lon": 0.0, "type": "electric_scooter", "name": "e2ca424cbed268e28c8168c01174471d", "rental_uris": {"android": "https://dc.lft.to/lastmile_qr_scan", "ios": "https://dc.lft.to/lastmile_qr_scan"}, "fusion_lat": 0.0, "lat": 38.93551983333333, "is_disabled": 0, "lon": -77.03464416666667, "is_reserved": 0}, {"bike_id": "cc03817a105b50510b55b0fc18d3ba72", "fusion_lon": 0.0, "type": "electric_scooter", "name": "cc03817a105b50510b55b0fc18d3ba72", "rental_uris": {"android": "https://dc.lft.to/lastmile_qr_scan", "ios": "https://dc.lft.to/lastmile_qr_scan"}, "fusion_lat": 0.0, "lat": 38.92032783333333, "is_disabled": 0, "lon": -76.97021433333333, "is_reserved": 0}, {"bike_id": "5d303ea0f8902b383ff95d2e4932f5b7", "fusion_lon": 0.0, "type": "electric_scooter", "name": "5d303ea0f8902b383ff95d2e4932f5b7", "rental_uris": {"android": "https://dc.lft.to/lastmile_qr_scan", "ios": "https://dc.lft.to/lastmile_qr_scan"}, "fusion_lat": 0.0, "lat": 38.900082, "is_disabled": 0, "lon": -77.045016, "is_reserved": 0}, {"bike_id": "481d49fc7f6e19a1065e77518ac70141", "fusion_lon": 0.0, "type": "electric_scooter", "name": "481d49fc7f6e19a1065e77518ac70141", "rental_uris": {"android": "https://dc.lft.to/lastmile_qr_scan", "ios": "https://dc.lft.to/lastmile_qr_scan"}, "fusion_lat": 0.0, "lat": 38.898317166666665, "is_disabled": 0, "lon": -77.03330316666667, "is_reserved": 0}, {"bike_id": "a5e88868c0b65d45f88a7bc30e53b3c9", "fusion_lon": 0.0, "type": "electric_scooter", "name": "a5e88868c0b65d45f88a7bc30e53b3c9", "rental_uris": {"android": "https://dc.lft.to/lastmile_qr_scan", "ios": "https://dc.lft.to/lastmile_qr_scan"}, "fusion_lat": 0.0, "lat": 38.922139666666666, "is_disabled": 0, "lon": -77.03747966666667, "is_reserved": 0}, {"bike_id": "b6d97ff47d2061efb2fe73a414a332c8", "fusion_lon": 0.0, "type": "electric_bike", "name": "b6d97ff47d2061efb2fe73a414a332c8", "rental_uris": {"android": "https://dc.lft.to/lastmile_qr_scan", "ios": "https://dc.lft.to/lastmile_qr_scan"}, "fusion_lat": 0.0, "lat": 38.8963355, "is_disabled": 0, "lon": -76.947713, "is_reserved": 0}, {"bike_id": "22438b01951acffc8ea54c5fff324808", "fusion_lon": 0.0, "type": "electric_scooter", "name": "22438b01951acffc8ea54c5fff324808", "rental_uris": {"android": "https://dc.lft.to/lastmile_qr_scan", "ios": "https://dc.lft.to/lastmile_qr_scan"}, "fusion_lat": 0.0, "lat": 38.842822, "is_disabled": 0, "lon": -76.99082016666667, "is_reserved": 0}, {"bike_id": "bc94cde437939d90b81fccd592b0a8e7", "fusion_lon": 0.0, "type": "electric_scooter", "name": "bc94cde437939d90b81fccd592b0a8e7", "rental_uris": {"android": "https://dc.lft.to/lastmile_qr_scan", "ios": "https://dc.lft.to/lastmile_qr_scan"}, "fusion_lat": 0.0, "lat": 38.936663333333335, "is_disabled": 0, "lon": -77.05933316666666, "is_reserved": 0}, {"bike_id": "bf57ba2e31d8b0f177335a1d9a5dafec", "fusion_lon": 0.0, "type": "electric_scooter", "name": "bf57ba2e31d8b0f177335a1d9a5dafec", "rental_uris": {"android": "https://dc.lft.to/lastmile_qr_scan", "ios": "https://dc.lft.to/lastmile_qr_scan"}, "fusion_lat": 0.0, "lat": 38.89248833333333, "is_disabled": 0, "lon": -77.03181033333334, "is_reserved": 0}, {"bike_id": "69c6444ca05e4fb3f7020bd056572435", "fusion_lon": 0.0, "type": "electric_scooter", "name": "69c6444ca05e4fb3f7020bd056572435", "rental_uris": {"android": "https://dc.lft.to/lastmile_qr_scan", "ios": "https://dc.lft.to/lastmile_qr_scan"}, "fusion_lat": 0.0, "lat": 38.90706516666667, "is_disabled": 0, "lon": -76.98700733333334, "is_reserved": 0}, {"bike_id": "46d82ff4e2ad390360c76a178738c9b1", "fusion_lon": 0.0, "type": "electric_scooter", "name": "46d82ff4e2ad390360c76a178738c9b1", "rental_uris": {"android": "https://dc.lft.to/lastmile_qr_scan", "ios": "https://dc.lft.to/lastmile_qr_scan"}, "fusion_lat": 0.0, "lat": 38.9065195, "is_disabled": 0, "lon": -77.05320816666666, "is_reserved": 0}, {"bike_id": "9f4a2c6fa240dbe47035b4dac7ca0965", "fusion_lon": 0.0, "type": "electric_bike", "name": "9f4a2c6fa240dbe47035b4dac7ca0965", "rental_uris": {"android": "https://dc.lft.to/lastmile_qr_scan", "ios": "https://dc.lft.to/lastmile_qr_scan"}, "fusion_lat": 0.0, "lat": 38.92208883333333, "is_disabled": 0, "lon": -76.987951, "is_reserved": 0}, {"bike_id": "44f64ec86037825e2e636d26d80cd72f", "fusion_lon": 0.0, "type": "electric_scooter", "name": "44f64ec86037825e2e636d26d80cd72f", "rental_uris": {"android": "https://dc.lft.to/lastmile_qr_scan", "ios": "https://dc.lft.to/lastmile_qr_scan"}, "fusion_lat": 0.0, "lat": 38.95588766666667, "is_disabled": 0, "lon": -77.03654866666666, "is_reserved": 0}, {"bike_id": "382d7583c909f4357965e6e8f8fdd3e8", "fusion_lon": 0.0, "type": "electric_scooter", "name": "382d7583c909f4357965e6e8f8fdd3e8", "rental_uris": {"android": "https://dc.lft.to/lastmile_qr_scan", "ios": "https://dc.lft.to/lastmile_qr_scan"}, "fusion_lat": 0.0, "lat": 38.90370766666667, "is_disabled": 0, "lon": -77.0403285, "is_reserved": 0}, {"bike_id": "a88fbdf2b815c225ed0586e1bd11d250", "fusion_lon": 0.0, "type": "electric_bike", "name": "a88fbdf2b815c225ed0586e1bd11d250", "rental_uris": {"android": "https://dc.lft.to/lastmile_qr_scan", "ios": "https://dc.lft.to/lastmile_qr_scan"}, "fusion_lat": 0.0, "lat": 38.951174333333334, "is_disabled": 0, "lon": -76.9655195, "is_reserved": 0}, {"bike_id": "8ee620149c5e78e0875edc5c98c6110b", "fusion_lon": 0.0, "type": "electric_scooter", "name": "8ee620149c5e78e0875edc5c98c6110b", "rental_uris": {"android": "https://dc.lft.to/lastmile_qr_scan", "ios": "https://dc.lft.to/lastmile_qr_scan"}, "fusion_lat": 0.0, "lat": 38.8921995, "is_disabled": 0, "lon": -77.02955883333334, "is_reserved": 0}, {"bike_id": "2660cbfa73d3e6050af31c6af3bcc52d", "fusion_lon": 0.0, "type": "electric_scooter", "name": "2660cbfa73d3e6050af31c6af3bcc52d", "rental_uris": {"android": "https://dc.lft.to/lastmile_qr_scan", "ios": "https://dc.lft.to/lastmile_qr_scan"}, "fusion_lat": 0.0, "lat": 38.910410166666665, "is_disabled": 0, "lon": -77.0314455, "is_reserved": 0}, {"bike_id": "02ea2429fbec960f6f6bcfa98cc7a853", "fusion_lon": 0.0, "type": "electric_scooter", "name": "02ea2429fbec960f6f6bcfa98cc7a853", "rental_uris": {"android": "https://dc.lft.to/lastmile_qr_scan", "ios": "https://dc.lft.to/lastmile_qr_scan"}, "fusion_lat": 0.0, "lat": 38.930762666666666, "is_disabled": 0, "lon": -77.03272933333334, "is_reserved": 0}, {"bike_id": "03ea98ead15f50e67bcbd71fa046006f", "fusion_lon": 0.0, "type": "electric_scooter", "name": "03ea98ead15f50e67bcbd71fa046006f", "rental_uris": {"android": "https://dc.lft.to/lastmile_qr_scan", "ios": "https://dc.lft.to/lastmile_qr_scan"}, "fusion_lat": 0.0, "lat": 38.844235166666664, "is_disabled": 0, "lon": -76.99833766666667, "is_reserved": 0}, {"bike_id": "5394fd43281898fd367ec42375e5a06b", "fusion_lon": 0.0, "type": "electric_bike", "name": "5394fd43281898fd367ec42375e5a06b", "rental_uris": {"android": "https://dc.lft.to/lastmile_qr_scan", "ios": "https://dc.lft.to/lastmile_qr_scan"}, "fusion_lat": 0.0, "lat": 38.857892666666665, "is_disabled": 0, "lon": -76.9874685, "is_reserved": 0}, {"bike_id": "b7f30c4a7efcf9fa5e2bfae22a78da6f", "fusion_lon": 0.0, "type": "electric_bike", "name": "b7f30c4a7efcf9fa5e2bfae22a78da6f", "rental_uris": {"android": "https://dc.lft.to/lastmile_qr_scan", "ios": "https://dc.lft.to/lastmile_qr_scan"}, "fusion_lat": 0.0, "lat": 39.058129, "is_disabled": 0, "lon": -77.12627016666667, "is_reserved": 0}, {"bike_id": "0171934313a5c91bfc310c5b57d3f5fb", "fusion_lon": 0.0, "type": "electric_scooter", "name": "0171934313a5c91bfc310c5b57d3f5fb", "rental_uris": {"android": "https://dc.lft.to/lastmile_qr_scan", "ios": "https://dc.lft.to/lastmile_qr_scan"}, "fusion_lat": 0.0, "lat": 38.91487933333333, "is_disabled": 0, "lon": -77.04819533333334, "is_reserved": 0}, {"bike_id": "ee5734d1d667e667a7900f8fa1f0ada7", "fusion_lon": 0.0, "type": "electric_scooter", "name": "ee5734d1d667e667a7900f8fa1f0ada7", "rental_uris": {"android": "https://dc.lft.to/lastmile_qr_scan", "ios": "https://dc.lft.to/lastmile_qr_scan"}, "fusion_lat": 0.0, "lat": 38.965015333333334, "is_disabled": 0, "lon": -77.02852166666666, "is_reserved": 0}, {"bike_id": "8e7efae6282e535cc75c885a78b8240c", "fusion_lon": 0.0, "type": "electric_scooter", "name": "8e7efae6282e535cc75c885a78b8240c", "rental_uris": {"android": "https://dc.lft.to/lastmile_qr_scan", "ios": "https://dc.lft.to/lastmile_qr_scan"}, "fusion_lat": 0.0, "lat": 38.882138833333336, "is_disabled": 0, "lon": -76.9867935, "is_reserved": 0}, {"bike_id": "8522f6753bdc881924c2646ea8c80a1e", "fusion_lon": 0.0, "type": "electric_scooter", "name": "8522f6753bdc881924c2646ea8c80a1e", "rental_uris": {"android": "https://dc.lft.to/lastmile_qr_scan", "ios": "https://dc.lft.to/lastmile_qr_scan"}, "fusion_lat": 0.0, "lat": 38.900831333333336, "is_disabled": 0, "lon": -76.98221816666667, "is_reserved": 0}, {"bike_id": "36ac23e5db0ee750649a5c12d4afd667", "fusion_lon": 0.0, "type": "electric_scooter", "name": "36ac23e5db0ee750649a5c12d4afd667", "rental_uris": {"android": "https://dc.lft.to/lastmile_qr_scan", "ios": "https://dc.lft.to/lastmile_qr_scan"}, "fusion_lat": 0.0, "lat": 38.91848733333333, "is_disabled": 0, "lon": -76.96556516666666, "is_reserved": 0}, {"bike_id": "04729ed71cd4b1a6510f22a643ddbdee", "fusion_lon": 0.0, "type": "electric_scooter", "name": "04729ed71cd4b1a6510f22a643ddbdee", "rental_uris": {"android": "https://dc.lft.to/lastmile_qr_scan", "ios": "https://dc.lft.to/lastmile_qr_scan"}, "fusion_lat": 0.0, "lat": 38.939829, "is_disabled": 0, "lon": -77.03282916666667, "is_reserved": 0}, {"bike_id": "753b971a8659aa0082fbfe0798469f47", "fusion_lon": 0.0, "type": "electric_bike", "name": "753b971a8659aa0082fbfe0798469f47", "rental_uris": {"android": "https://dc.lft.to/lastmile_qr_scan", "ios": "https://dc.lft.to/lastmile_qr_scan"}, "fusion_lat": 0.0, "lat": 38.85209966666667, "is_disabled": 0, "lon": -77.101288, "is_reserved": 0}, {"bike_id": "0df57bf2c3a796677f80100848d9aeb9", "fusion_lon": 0.0, "type": "electric_scooter", "name": "0df57bf2c3a796677f80100848d9aeb9", "rental_uris": {"android": "https://dc.lft.to/lastmile_qr_scan", "ios": "https://dc.lft.to/lastmile_qr_scan"}, "fusion_lat": 0.0, "lat": 38.9174765, "is_disabled": 0, "lon": -77.04171483333333, "is_reserved": 0}, {"bike_id": "60c514354908f9a64ea4f75a6fefe74d", "fusion_lon": 0.0, "type": "electric_scooter", "name": "60c514354908f9a64ea4f75a6fefe74d", "rental_uris": {"android": "https://dc.lft.to/lastmile_qr_scan", "ios": "https://dc.lft.to/lastmile_qr_scan"}, "fusion_lat": 0.0, "lat": 38.906807, "is_disabled": 0, "lon": -77.06126866666666, "is_reserved": 0}, {"bike_id": "2c3dd61a61e12b3496fa21eb6e0347f2", "fusion_lon": 0.0, "type": "electric_scooter", "name": "2c3dd61a61e12b3496fa21eb6e0347f2", "rental_uris": {"android": "https://dc.lft.to/lastmile_qr_scan", "ios": "https://dc.lft.to/lastmile_qr_scan"}, "fusion_lat": 0.0, "lat": 38.876387, "is_disabled": 0, "lon": -77.0056275, "is_reserved": 0}, {"bike_id": "22a58a8c65d519e673e804f232ef2c09", "fusion_lon": 0.0, "type": "electric_scooter", "name": "22a58a8c65d519e673e804f232ef2c09", "rental_uris": {"android": "https://dc.lft.to/lastmile_qr_scan", "ios": "https://dc.lft.to/lastmile_qr_scan"}, "fusion_lat": 0.0, "lat": 38.9041115, "is_disabled": 0, "lon": -77.00133433333333, "is_reserved": 0}, {"bike_id": "1f7be467ced05cfb6b6122747532839b", "fusion_lon": 0.0, "type": "electric_scooter", "name": "1f7be467ced05cfb6b6122747532839b", "rental_uris": {"android": "https://dc.lft.to/lastmile_qr_scan", "ios": "https://dc.lft.to/lastmile_qr_scan"}, "fusion_lat": 0.0, "lat": 38.903399, "is_disabled": 0, "lon": -77.0162805, "is_reserved": 0}, {"bike_id": "9ada990f63184ec5fe1fa4377bde4646", "fusion_lon": 0.0, "type": "electric_scooter", "name": "9ada990f63184ec5fe1fa4377bde4646", "rental_uris": {"android": "https://dc.lft.to/lastmile_qr_scan", "ios": "https://dc.lft.to/lastmile_qr_scan"}, "fusion_lat": 0.0, "lat": 38.886320166666664, "is_disabled": 0, "lon": -77.0216395, "is_reserved": 0}, {"bike_id": "6585b948e2ccfc8b4648b2fa4810638f", "fusion_lon": 0.0, "type": "electric_scooter", "name": "6585b948e2ccfc8b4648b2fa4810638f", "rental_uris": {"android": "https://dc.lft.to/lastmile_qr_scan", "ios": "https://dc.lft.to/lastmile_qr_scan"}, "fusion_lat": 0.0, "lat": 38.962255, "is_disabled": 0, "lon": -77.02974983333333, "is_reserved": 0}, {"bike_id": "5a4b6b1892645b75999319cfa13f8463", "fusion_lon": 0.0, "type": "electric_scooter", "name": "5a4b6b1892645b75999319cfa13f8463", "rental_uris": {"android": "https://dc.lft.to/lastmile_qr_scan", "ios": "https://dc.lft.to/lastmile_qr_scan"}, "fusion_lat": 0.0, "lat": 38.8622115, "is_disabled": 0, "lon": -76.99492633333334, "is_reserved": 0}, {"bike_id": "5c90afcc070c61d7784c2862e966fcad", "fusion_lon": 0.0, "type": "electric_bike", "name": "5c90afcc070c61d7784c2862e966fcad", "rental_uris": {"android": "https://dc.lft.to/lastmile_qr_scan", "ios": "https://dc.lft.to/lastmile_qr_scan"}, "fusion_lat": 0.0, "lat": 38.9064965, "is_disabled": 0, "lon": -77.01138016666667, "is_reserved": 0}, {"bike_id": "0f303860f2ffd15212a49b28c8608de8", "fusion_lon": 0.0, "type": "electric_scooter", "name": "0f303860f2ffd15212a49b28c8608de8", "rental_uris": {"android": "https://dc.lft.to/lastmile_qr_scan", "ios": "https://dc.lft.to/lastmile_qr_scan"}, "fusion_lat": 0.0, "lat": 38.9113745, "is_disabled": 0, "lon": -76.9901355, "is_reserved": 0}, {"bike_id": "ac1f34313afd2a0df63cad674e15f0a3", "fusion_lon": 0.0, "type": "electric_scooter", "name": "ac1f34313afd2a0df63cad674e15f0a3", "rental_uris": {"android": "https://dc.lft.to/lastmile_qr_scan", "ios": "https://dc.lft.to/lastmile_qr_scan"}, "fusion_lat": 0.0, "lat": 38.928824666666664, "is_disabled": 0, "lon": -77.02708916666667, "is_reserved": 0}, {"bike_id": "0ba999e98ad266e990437b8be6790002", "fusion_lon": 0.0, "type": "electric_scooter", "name": "0ba999e98ad266e990437b8be6790002", "rental_uris": {"android": "https://dc.lft.to/lastmile_qr_scan", "ios": "https://dc.lft.to/lastmile_qr_scan"}, "fusion_lat": 0.0, "lat": 38.91049433333333, "is_disabled": 0, "lon": -77.06460416666667, "is_reserved": 0}, {"bike_id": "14a15bfff3bdfc84da0c84baf8a95a56", "fusion_lon": 0.0, "type": "electric_scooter", "name": "14a15bfff3bdfc84da0c84baf8a95a56", "rental_uris": {"android": "https://dc.lft.to/lastmile_qr_scan", "ios": "https://dc.lft.to/lastmile_qr_scan"}, "fusion_lat": 0.0, "lat": 38.9072715, "is_disabled": 0, "lon": -77.0246195, "is_reserved": 0}, {"bike_id": "75e66d95392dc4197cd8a8b047dfb259", "fusion_lon": 0.0, "type": "electric_scooter", "name": "75e66d95392dc4197cd8a8b047dfb259", "rental_uris": {"android": "https://dc.lft.to/lastmile_qr_scan", "ios": "https://dc.lft.to/lastmile_qr_scan"}, "fusion_lat": 0.0, "lat": 38.903871, "is_disabled": 0, "lon": -76.97906233333333, "is_reserved": 0}, {"bike_id": "f75c979b5a2abbb22d2ee1429f370c9b", "fusion_lon": 0.0, "type": "electric_scooter", "name": "f75c979b5a2abbb22d2ee1429f370c9b", "rental_uris": {"android": "https://dc.lft.to/lastmile_qr_scan", "ios": "https://dc.lft.to/lastmile_qr_scan"}, "fusion_lat": 0.0, "lat": 38.89660716666667, "is_disabled": 0, "lon": -77.04338116666666, "is_reserved": 0}, {"bike_id": "729916895954761b0323122f9ca8c46e", "fusion_lon": 0.0, "type": "electric_scooter", "name": "729916895954761b0323122f9ca8c46e", "rental_uris": {"android": "https://dc.lft.to/lastmile_qr_scan", "ios": "https://dc.lft.to/lastmile_qr_scan"}, "fusion_lat": 0.0, "lat": 38.911962833333334, "is_disabled": 0, "lon": -77.03877283333334, "is_reserved": 0}, {"bike_id": "4a4daa4209ff004e0b094e5fbceb855d", "fusion_lon": 0.0, "type": "electric_scooter", "name": "4a4daa4209ff004e0b094e5fbceb855d", "rental_uris": {"android": "https://dc.lft.to/lastmile_qr_scan", "ios": "https://dc.lft.to/lastmile_qr_scan"}, "fusion_lat": 0.0, "lat": 38.87937433333333, "is_disabled": 0, "lon": -77.01720033333334, "is_reserved": 0}, {"bike_id": "867fdbbdea9bf090fd6c99ed457c045e", "fusion_lon": 0.0, "type": "electric_scooter", "name": "867fdbbdea9bf090fd6c99ed457c045e", "rental_uris": {"android": "https://dc.lft.to/lastmile_qr_scan", "ios": "https://dc.lft.to/lastmile_qr_scan"}, "fusion_lat": 0.0, "lat": 38.879366166666664, "is_disabled": 0, "lon": -77.00519683333333, "is_reserved": 0}, {"bike_id": "58c87d44f4bbad6fc2878237d73c85d1", "fusion_lon": 0.0, "type": "electric_scooter", "name": "58c87d44f4bbad6fc2878237d73c85d1", "rental_uris": {"android": "https://dc.lft.to/lastmile_qr_scan", "ios": "https://dc.lft.to/lastmile_qr_scan"}, "fusion_lat": 0.0, "lat": 38.8845125, "is_disabled": 0, "lon": -77.01044133333333, "is_reserved": 0}, {"bike_id": "26cfb80afcf4dee46726163138e36cc1", "fusion_lon": 0.0, "type": "electric_scooter", "name": "26cfb80afcf4dee46726163138e36cc1", "rental_uris": {"android": "https://dc.lft.to/lastmile_qr_scan", "ios": "https://dc.lft.to/lastmile_qr_scan"}, "fusion_lat": 0.0, "lat": 38.903419166666666, "is_disabled": 0, "lon": -77.03457616666667, "is_reserved": 0}, {"bike_id": "91a3c3a1e3c8a8e09a62b06d8541c0a4", "fusion_lon": 0.0, "type": "electric_scooter", "name": "91a3c3a1e3c8a8e09a62b06d8541c0a4", "rental_uris": {"android": "https://dc.lft.to/lastmile_qr_scan", "ios": "https://dc.lft.to/lastmile_qr_scan"}, "fusion_lat": 0.0, "lat": 38.870896333333334, "is_disabled": 0, "lon": -77.01211966666666, "is_reserved": 0}, {"bike_id": "951aec870cb777a0e8712c19828185f8", "fusion_lon": 0.0, "type": "electric_scooter", "name": "951aec870cb777a0e8712c19828185f8", "rental_uris": {"android": "https://dc.lft.to/lastmile_qr_scan", "ios": "https://dc.lft.to/lastmile_qr_scan"}, "fusion_lat": 0.0, "lat": 38.91266066666667, "is_disabled": 0, "lon": -77.03262383333333, "is_reserved": 0}, {"bike_id": "b634f2418c68245d3df19b51b9bf8fa5", "fusion_lon": 0.0, "type": "electric_scooter", "name": "b634f2418c68245d3df19b51b9bf8fa5", "rental_uris": {"android": "https://dc.lft.to/lastmile_qr_scan", "ios": "https://dc.lft.to/lastmile_qr_scan"}, "fusion_lat": 0.0, "lat": 38.921739, "is_disabled": 0, "lon": -77.04124766666666, "is_reserved": 0}, {"bike_id": "50fedaabecc45f55b2c057a1e5c033e2", "fusion_lon": 0.0, "type": "electric_scooter", "name": "50fedaabecc45f55b2c057a1e5c033e2", "rental_uris": {"android": "https://dc.lft.to/lastmile_qr_scan", "ios": "https://dc.lft.to/lastmile_qr_scan"}, "fusion_lat": 0.0, "lat": 38.91037166666667, "is_disabled": 0, "lon": -77.04256516666666, "is_reserved": 0}, {"bike_id": "9d83c3075cbcb738334caf6176c693bc", "fusion_lon": 0.0, "type": "electric_scooter", "name": "9d83c3075cbcb738334caf6176c693bc", "rental_uris": {"android": "https://dc.lft.to/lastmile_qr_scan", "ios": "https://dc.lft.to/lastmile_qr_scan"}, "fusion_lat": 0.0, "lat": 38.910528, "is_disabled": 0, "lon": -77.03372916666666, "is_reserved": 0}, {"bike_id": "8b9cd2dd1b0fa4be406302b29bc56b77", "fusion_lon": 0.0, "type": "electric_scooter", "name": "8b9cd2dd1b0fa4be406302b29bc56b77", "rental_uris": {"android": "https://dc.lft.to/lastmile_qr_scan", "ios": "https://dc.lft.to/lastmile_qr_scan"}, "fusion_lat": 0.0, "lat": 38.973797833333336, "is_disabled": 0, "lon": -77.03126333333333, "is_reserved": 0}, {"bike_id": "2bd7b54a6b4d15a9e5d7d474127dbb91", "fusion_lon": 0.0, "type": "electric_scooter", "name": "2bd7b54a6b4d15a9e5d7d474127dbb91", "rental_uris": {"android": "https://dc.lft.to/lastmile_qr_scan", "ios": "https://dc.lft.to/lastmile_qr_scan"}, "fusion_lat": 0.0, "lat": 38.937598333333334, "is_disabled": 0, "lon": -77.03281783333334, "is_reserved": 0}, {"bike_id": "307bfee8a0c5a01eb2f2fe6d0a6afc72", "fusion_lon": 0.0, "type": "electric_scooter", "name": "307bfee8a0c5a01eb2f2fe6d0a6afc72", "rental_uris": {"android": "https://dc.lft.to/lastmile_qr_scan", "ios": "https://dc.lft.to/lastmile_qr_scan"}, "fusion_lat": 0.0, "lat": 38.892999, "is_disabled": 0, "lon": -77.04654533333333, "is_reserved": 0}, {"bike_id": "6fe8a3e452b4451bae37d8766f7d6863", "fusion_lon": 0.0, "type": "electric_bike", "name": "6fe8a3e452b4451bae37d8766f7d6863", "rental_uris": {"android": "https://dc.lft.to/lastmile_qr_scan", "ios": "https://dc.lft.to/lastmile_qr_scan"}, "fusion_lat": 0.0, "lat": 38.967595333333335, "is_disabled": 0, "lon": -77.0916565, "is_reserved": 0}, {"bike_id": "eb56065cd2f83b69b32ba602211c8071", "fusion_lon": 0.0, "type": "electric_bike", "name": "eb56065cd2f83b69b32ba602211c8071", "rental_uris": {"android": "https://dc.lft.to/lastmile_qr_scan", "ios": "https://dc.lft.to/lastmile_qr_scan"}, "fusion_lat": 0.0, "lat": 38.956269166666665, "is_disabled": 0, "lon": -77.036175, "is_reserved": 0}, {"bike_id": "5458996654ba5742cb5f90b0b03eb371", "fusion_lon": 0.0, "type": "electric_scooter", "name": "5458996654ba5742cb5f90b0b03eb371", "rental_uris": {"android": "https://dc.lft.to/lastmile_qr_scan", "ios": "https://dc.lft.to/lastmile_qr_scan"}, "fusion_lat": 0.0, "lat": 38.8552405, "is_disabled": 0, "lon": -76.96920416666667, "is_reserved": 0}, {"bike_id": "d77c851fef5b57fa87dab73985eb06fd", "fusion_lon": 0.0, "type": "electric_scooter", "name": "d77c851fef5b57fa87dab73985eb06fd", "rental_uris": {"android": "https://dc.lft.to/lastmile_qr_scan", "ios": "https://dc.lft.to/lastmile_qr_scan"}, "fusion_lat": 0.0, "lat": 38.916312166666664, "is_disabled": 0, "lon": -77.0412635, "is_reserved": 0}, {"bike_id": "fdc3ced028986e82f887ee804036fb82", "fusion_lon": 0.0, "type": "electric_scooter", "name": "fdc3ced028986e82f887ee804036fb82", "rental_uris": {"android": "https://dc.lft.to/lastmile_qr_scan", "ios": "https://dc.lft.to/lastmile_qr_scan"}, "fusion_lat": 0.0, "lat": 38.908280833333336, "is_disabled": 0, "lon": -77.0367435, "is_reserved": 0}, {"bike_id": "ce5e765518635b3916435550d9d76480", "fusion_lon": 0.0, "type": "electric_scooter", "name": "ce5e765518635b3916435550d9d76480", "rental_uris": {"android": "https://dc.lft.to/lastmile_qr_scan", "ios": "https://dc.lft.to/lastmile_qr_scan"}, "fusion_lat": 0.0, "lat": 38.90045383333333, "is_disabled": 0, "lon": -77.04002266666667, "is_reserved": 0}, {"bike_id": "b9ef9ec1a9a589411e6d4fb9e40f60de", "fusion_lon": 0.0, "type": "electric_scooter", "name": "b9ef9ec1a9a589411e6d4fb9e40f60de", "rental_uris": {"android": "https://dc.lft.to/lastmile_qr_scan", "ios": "https://dc.lft.to/lastmile_qr_scan"}, "fusion_lat": 0.0, "lat": 38.92867583333334, "is_disabled": 0, "lon": -76.99031583333333, "is_reserved": 0}, {"bike_id": "0226831d662ad0a1dc7fe48c2dbee248", "fusion_lon": 0.0, "type": "electric_scooter", "name": "0226831d662ad0a1dc7fe48c2dbee248", "rental_uris": {"android": "https://dc.lft.to/lastmile_qr_scan", "ios": "https://dc.lft.to/lastmile_qr_scan"}, "fusion_lat": 0.0, "lat": 38.927526, "is_disabled": 0, "lon": -77.03296916666666, "is_reserved": 0}, {"bike_id": "f2b935ef27f124bf67fdd1382f94090a", "fusion_lon": 0.0, "type": "electric_scooter", "name": "f2b935ef27f124bf67fdd1382f94090a", "rental_uris": {"android": "https://dc.lft.to/lastmile_qr_scan", "ios": "https://dc.lft.to/lastmile_qr_scan"}, "fusion_lat": 0.0, "lat": 38.90362666666667, "is_disabled": 0, "lon": -77.01919516666666, "is_reserved": 0}, {"bike_id": "fca9a8f27b635826047eb6bdc15beda0", "fusion_lon": 0.0, "type": "electric_scooter", "name": "fca9a8f27b635826047eb6bdc15beda0", "rental_uris": {"android": "https://dc.lft.to/lastmile_qr_scan", "ios": "https://dc.lft.to/lastmile_qr_scan"}, "fusion_lat": 0.0, "lat": 38.90023166666667, "is_disabled": 0, "lon": -77.02612716666667, "is_reserved": 0}, {"bike_id": "6fa9a7312fd403f7b067d32744b6939d", "fusion_lon": 0.0, "type": "electric_scooter", "name": "6fa9a7312fd403f7b067d32744b6939d", "rental_uris": {"android": "https://dc.lft.to/lastmile_qr_scan", "ios": "https://dc.lft.to/lastmile_qr_scan"}, "fusion_lat": 0.0, "lat": 38.87551216666667, "is_disabled": 0, "lon": -76.96488116666667, "is_reserved": 0}, {"bike_id": "44cb24ab98dfcf31d8b62b8735f0e790", "fusion_lon": 0.0, "type": "electric_scooter", "name": "44cb24ab98dfcf31d8b62b8735f0e790", "rental_uris": {"android": "https://dc.lft.to/lastmile_qr_scan", "ios": "https://dc.lft.to/lastmile_qr_scan"}, "fusion_lat": 0.0, "lat": 38.85589816666667, "is_disabled": 0, "lon": -76.98571216666667, "is_reserved": 0}, {"bike_id": "3c24e667986589fc6597c295932099c4", "fusion_lon": 0.0, "type": "electric_scooter", "name": "3c24e667986589fc6597c295932099c4", "rental_uris": {"android": "https://dc.lft.to/lastmile_qr_scan", "ios": "https://dc.lft.to/lastmile_qr_scan"}, "fusion_lat": 0.0, "lat": 38.934738833333334, "is_disabled": 0, "lon": -77.0727605, "is_reserved": 0}, {"bike_id": "b676f86dd1c6e1956d40a93db919d8bc", "fusion_lon": 0.0, "type": "electric_scooter", "name": "b676f86dd1c6e1956d40a93db919d8bc", "rental_uris": {"android": "https://dc.lft.to/lastmile_qr_scan", "ios": "https://dc.lft.to/lastmile_qr_scan"}, "fusion_lat": 0.0, "lat": 38.89848166666667, "is_disabled": 0, "lon": -77.03303933333333, "is_reserved": 0}, {"bike_id": "5949f68daa52e9769bbf2661ef1e0c71", "fusion_lon": 0.0, "type": "electric_scooter", "name": "5949f68daa52e9769bbf2661ef1e0c71", "rental_uris": {"android": "https://dc.lft.to/lastmile_qr_scan", "ios": "https://dc.lft.to/lastmile_qr_scan"}, "fusion_lat": 0.0, "lat": 38.908763, "is_disabled": 0, "lon": -77.03460233333334, "is_reserved": 0}, {"bike_id": "a264ca4aa6db477019f3f84cad786b1f", "fusion_lon": 0.0, "type": "electric_bike", "name": "a264ca4aa6db477019f3f84cad786b1f", "rental_uris": {"android": "https://dc.lft.to/lastmile_qr_scan", "ios": "https://dc.lft.to/lastmile_qr_scan"}, "fusion_lat": 0.0, "lat": 38.827292, "is_disabled": 0, "lon": -77.00861716666667, "is_reserved": 0}, {"bike_id": "17ff3781b2102f6655485b50ba17b68c", "fusion_lon": 0.0, "type": "electric_scooter", "name": "17ff3781b2102f6655485b50ba17b68c", "rental_uris": {"android": "https://dc.lft.to/lastmile_qr_scan", "ios": "https://dc.lft.to/lastmile_qr_scan"}, "fusion_lat": 0.0, "lat": 38.927917, "is_disabled": 0, "lon": -77.033652, "is_reserved": 0}, {"bike_id": "7390eca9deabff9c67b1ceec6de50ed3", "fusion_lon": 0.0, "type": "electric_scooter", "name": "7390eca9deabff9c67b1ceec6de50ed3", "rental_uris": {"android": "https://dc.lft.to/lastmile_qr_scan", "ios": "https://dc.lft.to/lastmile_qr_scan"}, "fusion_lat": 0.0, "lat": 38.91741066666667, "is_disabled": 0, "lon": -77.02112666666666, "is_reserved": 0}, {"bike_id": "35f2be83d24d626e4190507aa255c026", "fusion_lon": 0.0, "type": "electric_scooter", "name": "35f2be83d24d626e4190507aa255c026", "rental_uris": {"android": "https://dc.lft.to/lastmile_qr_scan", "ios": "https://dc.lft.to/lastmile_qr_scan"}, "fusion_lat": 0.0, "lat": 38.93477333333333, "is_disabled": 0, "lon": -77.03577816666666, "is_reserved": 0}, {"bike_id": "0cd5ff7ae9b2a8366855b6279b3ff175", "fusion_lon": 0.0, "type": "electric_scooter", "name": "0cd5ff7ae9b2a8366855b6279b3ff175", "rental_uris": {"android": "https://dc.lft.to/lastmile_qr_scan", "ios": "https://dc.lft.to/lastmile_qr_scan"}, "fusion_lat": 0.0, "lat": 38.940952833333334, "is_disabled": 0, "lon": -77.02547833333334, "is_reserved": 0}, {"bike_id": "d1a8a177e07771643970c872720e8369", "fusion_lon": 0.0, "type": "electric_scooter", "name": "d1a8a177e07771643970c872720e8369", "rental_uris": {"android": "https://dc.lft.to/lastmile_qr_scan", "ios": "https://dc.lft.to/lastmile_qr_scan"}, "fusion_lat": 0.0, "lat": 38.92222566666667, "is_disabled": 0, "lon": -77.0329415, "is_reserved": 0}, {"bike_id": "b508cf0d477fcb57e3d9a6f86c3ab0a1", "fusion_lon": 0.0, "type": "electric_scooter", "name": "b508cf0d477fcb57e3d9a6f86c3ab0a1", "rental_uris": {"android": "https://dc.lft.to/lastmile_qr_scan", "ios": "https://dc.lft.to/lastmile_qr_scan"}, "fusion_lat": 0.0, "lat": 38.90970766666667, "is_disabled": 0, "lon": -77.02279333333334, "is_reserved": 0}, {"bike_id": "5545c10381a45cf37b043189c92f27ed", "fusion_lon": 0.0, "type": "electric_scooter", "name": "5545c10381a45cf37b043189c92f27ed", "rental_uris": {"android": "https://dc.lft.to/lastmile_qr_scan", "ios": "https://dc.lft.to/lastmile_qr_scan"}, "fusion_lat": 0.0, "lat": 38.905698, "is_disabled": 0, "lon": -77.03784233333333, "is_reserved": 0}, {"bike_id": "09a10039ba61f981ca0c6f046bec58c4", "fusion_lon": 0.0, "type": "electric_scooter", "name": "09a10039ba61f981ca0c6f046bec58c4", "rental_uris": {"android": "https://dc.lft.to/lastmile_qr_scan", "ios": "https://dc.lft.to/lastmile_qr_scan"}, "fusion_lat": 0.0, "lat": 38.90017366666667, "is_disabled": 0, "lon": -76.98457733333333, "is_reserved": 0}, {"bike_id": "83fab821e444d078d497b67d84a30614", "fusion_lon": 0.0, "type": "electric_bike", "name": "83fab821e444d078d497b67d84a30614", "rental_uris": {"android": "https://dc.lft.to/lastmile_qr_scan", "ios": "https://dc.lft.to/lastmile_qr_scan"}, "fusion_lat": 0.0, "lat": 38.877557833333334, "is_disabled": 0, "lon": -76.97987533333334, "is_reserved": 0}, {"bike_id": "263364a80f6397cdaee44b6e27580246", "fusion_lon": 0.0, "type": "electric_scooter", "name": "263364a80f6397cdaee44b6e27580246", "rental_uris": {"android": "https://dc.lft.to/lastmile_qr_scan", "ios": "https://dc.lft.to/lastmile_qr_scan"}, "fusion_lat": 0.0, "lat": 38.90738916666667, "is_disabled": 0, "lon": -77.00503, "is_reserved": 0}, {"bike_id": "12144139c80189573793abf4e2a50bc9", "fusion_lon": 0.0, "type": "electric_scooter", "name": "12144139c80189573793abf4e2a50bc9", "rental_uris": {"android": "https://dc.lft.to/lastmile_qr_scan", "ios": "https://dc.lft.to/lastmile_qr_scan"}, "fusion_lat": 0.0, "lat": 38.907946, "is_disabled": 0, "lon": -77.032074, "is_reserved": 0}, {"bike_id": "46b0b186a72ac234191e7b2aff4a2df9", "fusion_lon": 0.0, "type": "electric_scooter", "name": "46b0b186a72ac234191e7b2aff4a2df9", "rental_uris": {"android": "https://dc.lft.to/lastmile_qr_scan", "ios": "https://dc.lft.to/lastmile_qr_scan"}, "fusion_lat": 0.0, "lat": 38.934308333333334, "is_disabled": 0, "lon": -77.03451066666666, "is_reserved": 0}, {"bike_id": "99300496e5538a878fb92e48ad81f34b", "fusion_lon": 0.0, "type": "electric_bike", "name": "99300496e5538a878fb92e48ad81f34b", "rental_uris": {"android": "https://dc.lft.to/lastmile_qr_scan", "ios": "https://dc.lft.to/lastmile_qr_scan"}, "fusion_lat": 0.0, "lat": 38.92510733333334, "is_disabled": 0, "lon": -76.98230266666667, "is_reserved": 0}, {"bike_id": "82c2427172b4da64ea855c3830f4e6e4", "fusion_lon": 0.0, "type": "electric_scooter", "name": "82c2427172b4da64ea855c3830f4e6e4", "rental_uris": {"android": "https://dc.lft.to/lastmile_qr_scan", "ios": "https://dc.lft.to/lastmile_qr_scan"}, "fusion_lat": 0.0, "lat": 38.926288666666665, "is_disabled": 0, "lon": -77.03786683333334, "is_reserved": 0}, {"bike_id": "d6fefd3637e7c2d72a94d81449bedcc5", "fusion_lon": 0.0, "type": "electric_bike", "name": "d6fefd3637e7c2d72a94d81449bedcc5", "rental_uris": {"android": "https://dc.lft.to/lastmile_qr_scan", "ios": "https://dc.lft.to/lastmile_qr_scan"}, "fusion_lat": 0.0, "lat": 38.9758035, "is_disabled": 0, "lon": -76.96390883333333, "is_reserved": 0}, {"bike_id": "9f0e08616c66bed9cf75f042d209dfa0", "fusion_lon": 0.0, "type": "electric_scooter", "name": "9f0e08616c66bed9cf75f042d209dfa0", "rental_uris": {"android": "https://dc.lft.to/lastmile_qr_scan", "ios": "https://dc.lft.to/lastmile_qr_scan"}, "fusion_lat": 0.0, "lat": 38.907195, "is_disabled": 0, "lon": -77.0450745, "is_reserved": 0}, {"bike_id": "e1181ebc7a048e04b5f520b48f485f5a", "fusion_lon": 0.0, "type": "electric_bike", "name": "e1181ebc7a048e04b5f520b48f485f5a", "rental_uris": {"android": "https://dc.lft.to/lastmile_qr_scan", "ios": "https://dc.lft.to/lastmile_qr_scan"}, "fusion_lat": 0.0, "lat": 38.99229016666666, "is_disabled": 0, "lon": -76.8777025, "is_reserved": 0}, {"bike_id": "c3e789286d5cbc7bc715ea0e930867f2", "fusion_lon": 0.0, "type": "electric_bike", "name": "c3e789286d5cbc7bc715ea0e930867f2", "rental_uris": {"android": "https://dc.lft.to/lastmile_qr_scan", "ios": "https://dc.lft.to/lastmile_qr_scan"}, "fusion_lat": 0.0, "lat": 38.855361333333335, "is_disabled": 0, "lon": -77.10731833333334, "is_reserved": 0}, {"bike_id": "386fb7681e3253c27ca21cf5b24cbe53", "fusion_lon": 0.0, "type": "electric_scooter", "name": "386fb7681e3253c27ca21cf5b24cbe53", "rental_uris": {"android": "https://dc.lft.to/lastmile_qr_scan", "ios": "https://dc.lft.to/lastmile_qr_scan"}, "fusion_lat": 0.0, "lat": 38.899238833333335, "is_disabled": 0, "lon": -77.05511233333333, "is_reserved": 0}, {"bike_id": "50b63af24ecb93f664c88a9c0470be93", "fusion_lon": 0.0, "type": "electric_scooter", "name": "50b63af24ecb93f664c88a9c0470be93", "rental_uris": {"android": "https://dc.lft.to/lastmile_qr_scan", "ios": "https://dc.lft.to/lastmile_qr_scan"}, "fusion_lat": 0.0, "lat": 38.90023816666667, "is_disabled": 0, "lon": -76.98782133333333, "is_reserved": 0}, {"bike_id": "974315db1b98e3337b6501a3cc462977", "fusion_lon": 0.0, "type": "electric_scooter", "name": "974315db1b98e3337b6501a3cc462977", "rental_uris": {"android": "https://dc.lft.to/lastmile_qr_scan", "ios": "https://dc.lft.to/lastmile_qr_scan"}, "fusion_lat": 0.0, "lat": 38.90010733333333, "is_disabled": 0, "lon": -76.97747233333334, "is_reserved": 0}, {"bike_id": "8bfd7cc443d909b3c76cb82afd2d0870", "fusion_lon": 0.0, "type": "electric_bike", "name": "8bfd7cc443d909b3c76cb82afd2d0870", "rental_uris": {"android": "https://dc.lft.to/lastmile_qr_scan", "ios": "https://dc.lft.to/lastmile_qr_scan"}, "fusion_lat": 0.0, "lat": 38.889583333333334, "is_disabled": 0, "lon": -76.94879033333333, "is_reserved": 0}, {"bike_id": "0b8791156dc281a2df8c9fe6d445c066", "fusion_lon": 0.0, "type": "electric_scooter", "name": "0b8791156dc281a2df8c9fe6d445c066", "rental_uris": {"android": "https://dc.lft.to/lastmile_qr_scan", "ios": "https://dc.lft.to/lastmile_qr_scan"}, "fusion_lat": 0.0, "lat": 38.901786, "is_disabled": 0, "lon": -76.980342, "is_reserved": 0}, {"bike_id": "71f42d145e4cec30ea2fa11d6e937c96", "fusion_lon": 0.0, "type": "electric_scooter", "name": "71f42d145e4cec30ea2fa11d6e937c96", "rental_uris": {"android": "https://dc.lft.to/lastmile_qr_scan", "ios": "https://dc.lft.to/lastmile_qr_scan"}, "fusion_lat": 0.0, "lat": 38.892187, "is_disabled": 0, "lon": -77.0284605, "is_reserved": 0}, {"bike_id": "753ca9c64338ce7c9d977d84595582bb", "fusion_lon": 0.0, "type": "electric_scooter", "name": "753ca9c64338ce7c9d977d84595582bb", "rental_uris": {"android": "https://dc.lft.to/lastmile_qr_scan", "ios": "https://dc.lft.to/lastmile_qr_scan"}, "fusion_lat": 0.0, "lat": 38.916625333333336, "is_disabled": 0, "lon": -76.982326, "is_reserved": 0}, {"bike_id": "bc0aba585459194ff1375128ba356ee3", "fusion_lon": 0.0, "type": "electric_scooter", "name": "bc0aba585459194ff1375128ba356ee3", "rental_uris": {"android": "https://dc.lft.to/lastmile_qr_scan", "ios": "https://dc.lft.to/lastmile_qr_scan"}, "fusion_lat": 0.0, "lat": 38.93588733333333, "is_disabled": 0, "lon": -77.03805566666666, "is_reserved": 0}, {"bike_id": "8e1062387f5a714301e04cd84d7c2be2", "fusion_lon": 0.0, "type": "electric_scooter", "name": "8e1062387f5a714301e04cd84d7c2be2", "rental_uris": {"android": "https://dc.lft.to/lastmile_qr_scan", "ios": "https://dc.lft.to/lastmile_qr_scan"}, "fusion_lat": 0.0, "lat": 38.862429666666664, "is_disabled": 0, "lon": -76.99492133333334, "is_reserved": 0}, {"bike_id": "a3712e57642724eae102117a53d29c08", "fusion_lon": 0.0, "type": "electric_scooter", "name": "a3712e57642724eae102117a53d29c08", "rental_uris": {"android": "https://dc.lft.to/lastmile_qr_scan", "ios": "https://dc.lft.to/lastmile_qr_scan"}, "fusion_lat": 0.0, "lat": 38.922388, "is_disabled": 0, "lon": -77.03524833333333, "is_reserved": 0}, {"bike_id": "6edd075d415ee2c118661da60f3e241d", "fusion_lon": 0.0, "type": "electric_bike", "name": "6edd075d415ee2c118661da60f3e241d", "rental_uris": {"android": "https://dc.lft.to/lastmile_qr_scan", "ios": "https://dc.lft.to/lastmile_qr_scan"}, "fusion_lat": 0.0, "lat": 38.919353, "is_disabled": 0, "lon": -76.9750165, "is_reserved": 0}, {"bike_id": "07efaa02703f09184c5f12de4113fd59", "fusion_lon": 0.0, "type": "electric_scooter", "name": "07efaa02703f09184c5f12de4113fd59", "rental_uris": {"android": "https://dc.lft.to/lastmile_qr_scan", "ios": "https://dc.lft.to/lastmile_qr_scan"}, "fusion_lat": 0.0, "lat": 38.91924016666667, "is_disabled": 0, "lon": -77.04595916666666, "is_reserved": 0}, {"bike_id": "e70f3d1360060259e8e04803966b94b8", "fusion_lon": 0.0, "type": "electric_scooter", "name": "e70f3d1360060259e8e04803966b94b8", "rental_uris": {"android": "https://dc.lft.to/lastmile_qr_scan", "ios": "https://dc.lft.to/lastmile_qr_scan"}, "fusion_lat": 0.0, "lat": 38.915627666666666, "is_disabled": 0, "lon": -77.03842916666666, "is_reserved": 0}, {"bike_id": "0a439a632e9e56c50c92093377584de7", "fusion_lon": 0.0, "type": "electric_scooter", "name": "0a439a632e9e56c50c92093377584de7", "rental_uris": {"android": "https://dc.lft.to/lastmile_qr_scan", "ios": "https://dc.lft.to/lastmile_qr_scan"}, "fusion_lat": 0.0, "lat": 38.900291333333335, "is_disabled": 0, "lon": -76.987756, "is_reserved": 0}, {"bike_id": "065605425b72fd58632ed80540b08e90", "fusion_lon": 0.0, "type": "electric_scooter", "name": "065605425b72fd58632ed80540b08e90", "rental_uris": {"android": "https://dc.lft.to/lastmile_qr_scan", "ios": "https://dc.lft.to/lastmile_qr_scan"}, "fusion_lat": 0.0, "lat": 38.90445733333333, "is_disabled": 0, "lon": -76.97566266666666, "is_reserved": 0}, {"bike_id": "b7f461b413c34231f633658edf0d5b4b", "fusion_lon": 0.0, "type": "electric_scooter", "name": "b7f461b413c34231f633658edf0d5b4b", "rental_uris": {"android": "https://dc.lft.to/lastmile_qr_scan", "ios": "https://dc.lft.to/lastmile_qr_scan"}, "fusion_lat": 0.0, "lat": 38.86096233333333, "is_disabled": 0, "lon": -76.98606083333334, "is_reserved": 0}, {"bike_id": "2c77cd420b5dde8c5488c9cf1fa6a777", "fusion_lon": 0.0, "type": "electric_scooter", "name": "2c77cd420b5dde8c5488c9cf1fa6a777", "rental_uris": {"android": "https://dc.lft.to/lastmile_qr_scan", "ios": "https://dc.lft.to/lastmile_qr_scan"}, "fusion_lat": 0.0, "lat": 38.90014133333333, "is_disabled": 0, "lon": -77.00144716666667, "is_reserved": 0}, {"bike_id": "c7774c4e31631c5c0c35c5b950036dbc", "fusion_lon": 0.0, "type": "electric_scooter", "name": "c7774c4e31631c5c0c35c5b950036dbc", "rental_uris": {"android": "https://dc.lft.to/lastmile_qr_scan", "ios": "https://dc.lft.to/lastmile_qr_scan"}, "fusion_lat": 0.0, "lat": 38.923483166666664, "is_disabled": 0, "lon": -77.03494183333333, "is_reserved": 0}, {"bike_id": "0edbd8e7f1470b876ee382ad7a2ae851", "fusion_lon": 0.0, "type": "electric_bike", "name": "0edbd8e7f1470b876ee382ad7a2ae851", "rental_uris": {"android": "https://dc.lft.to/lastmile_qr_scan", "ios": "https://dc.lft.to/lastmile_qr_scan"}, "fusion_lat": 0.0, "lat": 38.85648616666667, "is_disabled": 0, "lon": -77.085303, "is_reserved": 0}, {"bike_id": "ff11c82738eff28dac6177dda859e5e7", "fusion_lon": 0.0, "type": "electric_scooter", "name": "ff11c82738eff28dac6177dda859e5e7", "rental_uris": {"android": "https://dc.lft.to/lastmile_qr_scan", "ios": "https://dc.lft.to/lastmile_qr_scan"}, "fusion_lat": 0.0, "lat": 38.90024733333333, "is_disabled": 0, "lon": -76.99520283333334, "is_reserved": 0}, {"bike_id": "fc26bb41b292bd8faabfa334e243afba", "fusion_lon": 0.0, "type": "electric_scooter", "name": "fc26bb41b292bd8faabfa334e243afba", "rental_uris": {"android": "https://dc.lft.to/lastmile_qr_scan", "ios": "https://dc.lft.to/lastmile_qr_scan"}, "fusion_lat": 0.0, "lat": 38.9035805, "is_disabled": 0, "lon": -77.01115983333334, "is_reserved": 0}, {"bike_id": "8866f9f41f7965eee7a88a76fa530683", "fusion_lon": 0.0, "type": "electric_scooter", "name": "8866f9f41f7965eee7a88a76fa530683", "rental_uris": {"android": "https://dc.lft.to/lastmile_qr_scan", "ios": "https://dc.lft.to/lastmile_qr_scan"}, "fusion_lat": 0.0, "lat": 38.894850166666664, "is_disabled": 0, "lon": -76.94844283333333, "is_reserved": 0}, {"bike_id": "7485df3a922071e7497e96dc48443afc", "fusion_lon": 0.0, "type": "electric_scooter", "name": "7485df3a922071e7497e96dc48443afc", "rental_uris": {"android": "https://dc.lft.to/lastmile_qr_scan", "ios": "https://dc.lft.to/lastmile_qr_scan"}, "fusion_lat": 0.0, "lat": 38.9133285, "is_disabled": 0, "lon": -77.04834716666667, "is_reserved": 0}, {"bike_id": "674a7e590c7caac28e4d01d06895b4f3", "fusion_lon": 0.0, "type": "electric_bike", "name": "674a7e590c7caac28e4d01d06895b4f3", "rental_uris": {"android": "https://dc.lft.to/lastmile_qr_scan", "ios": "https://dc.lft.to/lastmile_qr_scan"}, "fusion_lat": 0.0, "lat": 39.00371833333333, "is_disabled": 0, "lon": -77.01296483333333, "is_reserved": 0}, {"bike_id": "dff596dec322ded58fc0f1017b2ba5ec", "fusion_lon": 0.0, "type": "electric_scooter", "name": "dff596dec322ded58fc0f1017b2ba5ec", "rental_uris": {"android": "https://dc.lft.to/lastmile_qr_scan", "ios": "https://dc.lft.to/lastmile_qr_scan"}, "fusion_lat": 0.0, "lat": 38.91115666666666, "is_disabled": 0, "lon": -77.04498466666666, "is_reserved": 0}, {"bike_id": "c9609ee0b62bc107422fa650ee323be2", "fusion_lon": 0.0, "type": "electric_scooter", "name": "c9609ee0b62bc107422fa650ee323be2", "rental_uris": {"android": "https://dc.lft.to/lastmile_qr_scan", "ios": "https://dc.lft.to/lastmile_qr_scan"}, "fusion_lat": 0.0, "lat": 38.892315833333335, "is_disabled": 0, "lon": -77.02551466666667, "is_reserved": 0}, {"bike_id": "0a69e344cb3a7960e6254cf13f8dd7d6", "fusion_lon": 0.0, "type": "electric_scooter", "name": "0a69e344cb3a7960e6254cf13f8dd7d6", "rental_uris": {"android": "https://dc.lft.to/lastmile_qr_scan", "ios": "https://dc.lft.to/lastmile_qr_scan"}, "fusion_lat": 0.0, "lat": 38.885950333333334, "is_disabled": 0, "lon": -77.01719933333334, "is_reserved": 0}, {"bike_id": "15b294d5aa0571c639da151409b11fd9", "fusion_lon": 0.0, "type": "electric_scooter", "name": "15b294d5aa0571c639da151409b11fd9", "rental_uris": {"android": "https://dc.lft.to/lastmile_qr_scan", "ios": "https://dc.lft.to/lastmile_qr_scan"}, "fusion_lat": 0.0, "lat": 38.93857233333333, "is_disabled": 0, "lon": -77.0245675, "is_reserved": 0}, {"bike_id": "e6ff0021376ae0cee84ce45f202db88f", "fusion_lon": 0.0, "type": "electric_scooter", "name": "e6ff0021376ae0cee84ce45f202db88f", "rental_uris": {"android": "https://dc.lft.to/lastmile_qr_scan", "ios": "https://dc.lft.to/lastmile_qr_scan"}, "fusion_lat": 0.0, "lat": 38.877153666666665, "is_disabled": 0, "lon": -77.0067495, "is_reserved": 0}, {"bike_id": "1cf571b7d8fea8e3885f44d164abaddb", "fusion_lon": 0.0, "type": "electric_scooter", "name": "1cf571b7d8fea8e3885f44d164abaddb", "rental_uris": {"android": "https://dc.lft.to/lastmile_qr_scan", "ios": "https://dc.lft.to/lastmile_qr_scan"}, "fusion_lat": 0.0, "lat": 38.8688915, "is_disabled": 0, "lon": -76.98311583333333, "is_reserved": 0}, {"bike_id": "a7c997d2cd2d44ae622a1dabd245216a", "fusion_lon": 0.0, "type": "electric_scooter", "name": "a7c997d2cd2d44ae622a1dabd245216a", "rental_uris": {"android": "https://dc.lft.to/lastmile_qr_scan", "ios": "https://dc.lft.to/lastmile_qr_scan"}, "fusion_lat": 0.0, "lat": 38.897454, "is_disabled": 0, "lon": -77.0312785, "is_reserved": 0}, {"bike_id": "4fe3ae8021ac843e18c7738e24aeec9b", "fusion_lon": 0.0, "type": "electric_scooter", "name": "4fe3ae8021ac843e18c7738e24aeec9b", "rental_uris": {"android": "https://dc.lft.to/lastmile_qr_scan", "ios": "https://dc.lft.to/lastmile_qr_scan"}, "fusion_lat": 0.0, "lat": 38.921959, "is_disabled": 0, "lon": -77.04264416666666, "is_reserved": 0}, {"bike_id": "97289336666d57a572d833cc2678cd2c", "fusion_lon": 0.0, "type": "electric_scooter", "name": "97289336666d57a572d833cc2678cd2c", "rental_uris": {"android": "https://dc.lft.to/lastmile_qr_scan", "ios": "https://dc.lft.to/lastmile_qr_scan"}, "fusion_lat": 0.0, "lat": 38.88738466666667, "is_disabled": 0, "lon": -77.03166666666667, "is_reserved": 0}, {"bike_id": "4f1de9c81b30ab414bd8b86de0ee7c1c", "fusion_lon": 0.0, "type": "electric_bike", "name": "4f1de9c81b30ab414bd8b86de0ee7c1c", "rental_uris": {"android": "https://dc.lft.to/lastmile_qr_scan", "ios": "https://dc.lft.to/lastmile_qr_scan"}, "fusion_lat": 0.0, "lat": 38.86163066666667, "is_disabled": 0, "lon": -77.13096033333333, "is_reserved": 0}, {"bike_id": "a0a1d9e8ca64e289e6ba609ed3a3f6b3", "fusion_lon": 0.0, "type": "electric_scooter", "name": "a0a1d9e8ca64e289e6ba609ed3a3f6b3", "rental_uris": {"android": "https://dc.lft.to/lastmile_qr_scan", "ios": "https://dc.lft.to/lastmile_qr_scan"}, "fusion_lat": 0.0, "lat": 38.93294216666666, "is_disabled": 0, "lon": -77.02439966666667, "is_reserved": 0}, {"bike_id": "139f32a54544e2b719499e8c11f80b3b", "fusion_lon": 0.0, "type": "electric_scooter", "name": "139f32a54544e2b719499e8c11f80b3b", "rental_uris": {"android": "https://dc.lft.to/lastmile_qr_scan", "ios": "https://dc.lft.to/lastmile_qr_scan"}, "fusion_lat": 0.0, "lat": 38.922434333333335, "is_disabled": 0, "lon": -77.03517683333334, "is_reserved": 0}, {"bike_id": "62f665ee73e5738b18af4f803487cc9e", "fusion_lon": 0.0, "type": "electric_scooter", "name": "62f665ee73e5738b18af4f803487cc9e", "rental_uris": {"android": "https://dc.lft.to/lastmile_qr_scan", "ios": "https://dc.lft.to/lastmile_qr_scan"}, "fusion_lat": 0.0, "lat": 38.905923333333334, "is_disabled": 0, "lon": -77.06266833333333, "is_reserved": 0}, {"bike_id": "22f378c835599ed85f75beb100c8c561", "fusion_lon": 0.0, "type": "electric_scooter", "name": "22f378c835599ed85f75beb100c8c561", "rental_uris": {"android": "https://dc.lft.to/lastmile_qr_scan", "ios": "https://dc.lft.to/lastmile_qr_scan"}, "fusion_lat": 0.0, "lat": 38.9215645, "is_disabled": 0, "lon": -77.03378483333333, "is_reserved": 0}, {"bike_id": "ed53edf9b13f9807a096dfeffa52986f", "fusion_lon": 0.0, "type": "electric_scooter", "name": "ed53edf9b13f9807a096dfeffa52986f", "rental_uris": {"android": "https://dc.lft.to/lastmile_qr_scan", "ios": "https://dc.lft.to/lastmile_qr_scan"}, "fusion_lat": 0.0, "lat": 38.92123733333333, "is_disabled": 0, "lon": -77.04577683333333, "is_reserved": 0}, {"bike_id": "2b889e368643b53ded822904498f3899", "fusion_lon": 0.0, "type": "electric_scooter", "name": "2b889e368643b53ded822904498f3899", "rental_uris": {"android": "https://dc.lft.to/lastmile_qr_scan", "ios": "https://dc.lft.to/lastmile_qr_scan"}, "fusion_lat": 0.0, "lat": 38.88301966666667, "is_disabled": 0, "lon": -76.94853, "is_reserved": 0}, {"bike_id": "631e5ab245ba4195aae86f974f99e46a", "fusion_lon": 0.0, "type": "electric_scooter", "name": "631e5ab245ba4195aae86f974f99e46a", "rental_uris": {"android": "https://dc.lft.to/lastmile_qr_scan", "ios": "https://dc.lft.to/lastmile_qr_scan"}, "fusion_lat": 0.0, "lat": 38.857595833333335, "is_disabled": 0, "lon": -76.99317983333333, "is_reserved": 0}, {"bike_id": "673b36240914f1889dfc449eb8553614", "fusion_lon": 0.0, "type": "electric_scooter", "name": "673b36240914f1889dfc449eb8553614", "rental_uris": {"android": "https://dc.lft.to/lastmile_qr_scan", "ios": "https://dc.lft.to/lastmile_qr_scan"}, "fusion_lat": 0.0, "lat": 38.89487166666667, "is_disabled": 0, "lon": -76.9483835, "is_reserved": 0}, {"bike_id": "0d9f5e3e6f9322d27f1090a51cfe4963", "fusion_lon": 0.0, "type": "electric_scooter", "name": "0d9f5e3e6f9322d27f1090a51cfe4963", "rental_uris": {"android": "https://dc.lft.to/lastmile_qr_scan", "ios": "https://dc.lft.to/lastmile_qr_scan"}, "fusion_lat": 0.0, "lat": 38.896846833333335, "is_disabled": 0, "lon": -76.9927445, "is_reserved": 0}, {"bike_id": "e0892723a874c227a6ebe50573d469af", "fusion_lon": 0.0, "type": "electric_scooter", "name": "e0892723a874c227a6ebe50573d469af", "rental_uris": {"android": "https://dc.lft.to/lastmile_qr_scan", "ios": "https://dc.lft.to/lastmile_qr_scan"}, "fusion_lat": 0.0, "lat": 38.8988585, "is_disabled": 0, "lon": -76.93171383333333, "is_reserved": 0}, {"bike_id": "0b6579b3249f0f9df86e907e96e8946a", "fusion_lon": 0.0, "type": "electric_scooter", "name": "0b6579b3249f0f9df86e907e96e8946a", "rental_uris": {"android": "https://dc.lft.to/lastmile_qr_scan", "ios": "https://dc.lft.to/lastmile_qr_scan"}, "fusion_lat": 0.0, "lat": 38.944168833333336, "is_disabled": 0, "lon": -77.05516516666667, "is_reserved": 0}, {"bike_id": "2ea0b7ea754ad54797d784af30ab1eaa", "fusion_lon": 0.0, "type": "electric_scooter", "name": "2ea0b7ea754ad54797d784af30ab1eaa", "rental_uris": {"android": "https://dc.lft.to/lastmile_qr_scan", "ios": "https://dc.lft.to/lastmile_qr_scan"}, "fusion_lat": 0.0, "lat": 38.926855, "is_disabled": 0, "lon": -77.0359785, "is_reserved": 0}, {"bike_id": "1e6ea7dbccbc813e15c969f2412b8664", "fusion_lon": 0.0, "type": "electric_scooter", "name": "1e6ea7dbccbc813e15c969f2412b8664", "rental_uris": {"android": "https://dc.lft.to/lastmile_qr_scan", "ios": "https://dc.lft.to/lastmile_qr_scan"}, "fusion_lat": 0.0, "lat": 38.926254166666666, "is_disabled": 0, "lon": -77.05292466666667, "is_reserved": 0}, {"bike_id": "593c239f12df7a8677c85a69e35f4522", "fusion_lon": 0.0, "type": "electric_scooter", "name": "593c239f12df7a8677c85a69e35f4522", "rental_uris": {"android": "https://dc.lft.to/lastmile_qr_scan", "ios": "https://dc.lft.to/lastmile_qr_scan"}, "fusion_lat": 0.0, "lat": 38.911561, "is_disabled": 0, "lon": -77.03208083333334, "is_reserved": 0}, {"bike_id": "0a00b51c20407de3f41ec0ebc519cf27", "fusion_lon": 0.0, "type": "electric_scooter", "name": "0a00b51c20407de3f41ec0ebc519cf27", "rental_uris": {"android": "https://dc.lft.to/lastmile_qr_scan", "ios": "https://dc.lft.to/lastmile_qr_scan"}, "fusion_lat": 0.0, "lat": 38.894863, "is_disabled": 0, "lon": -76.99516383333334, "is_reserved": 0}, {"bike_id": "9c9ac4b38a2888e77eca40dc6fe077d2", "fusion_lon": 0.0, "type": "electric_scooter", "name": "9c9ac4b38a2888e77eca40dc6fe077d2", "rental_uris": {"android": "https://dc.lft.to/lastmile_qr_scan", "ios": "https://dc.lft.to/lastmile_qr_scan"}, "fusion_lat": 0.0, "lat": 38.88507366666666, "is_disabled": 0, "lon": -77.03356383333333, "is_reserved": 0}, {"bike_id": "56774772b34cbd7c9a91c5fbbb7a58ac", "fusion_lon": 0.0, "type": "electric_scooter", "name": "56774772b34cbd7c9a91c5fbbb7a58ac", "rental_uris": {"android": "https://dc.lft.to/lastmile_qr_scan", "ios": "https://dc.lft.to/lastmile_qr_scan"}, "fusion_lat": 0.0, "lat": 38.893402333333334, "is_disabled": 0, "lon": -77.04658866666666, "is_reserved": 0}, {"bike_id": "d08d0f5df9794e8d754c6614666abce8", "fusion_lon": 0.0, "type": "electric_scooter", "name": "d08d0f5df9794e8d754c6614666abce8", "rental_uris": {"android": "https://dc.lft.to/lastmile_qr_scan", "ios": "https://dc.lft.to/lastmile_qr_scan"}, "fusion_lat": 0.0, "lat": 38.90414233333333, "is_disabled": 0, "lon": -77.023969, "is_reserved": 0}, {"bike_id": "b8f36fb7c0495d338b7694c3c35d3a0d", "fusion_lon": 0.0, "type": "electric_scooter", "name": "b8f36fb7c0495d338b7694c3c35d3a0d", "rental_uris": {"android": "https://dc.lft.to/lastmile_qr_scan", "ios": "https://dc.lft.to/lastmile_qr_scan"}, "fusion_lat": 0.0, "lat": 38.902699, "is_disabled": 0, "lon": -77.04509733333333, "is_reserved": 0}, {"bike_id": "607b330f66e6d30fed0c7e9576141b1a", "fusion_lon": 0.0, "type": "electric_scooter", "name": "607b330f66e6d30fed0c7e9576141b1a", "rental_uris": {"android": "https://dc.lft.to/lastmile_qr_scan", "ios": "https://dc.lft.to/lastmile_qr_scan"}, "fusion_lat": 0.0, "lat": 38.92129716666667, "is_disabled": 0, "lon": -77.01023383333333, "is_reserved": 0}, {"bike_id": "738489850a3c1fe4ca6de3222ab77124", "fusion_lon": 0.0, "type": "electric_scooter", "name": "738489850a3c1fe4ca6de3222ab77124", "rental_uris": {"android": "https://dc.lft.to/lastmile_qr_scan", "ios": "https://dc.lft.to/lastmile_qr_scan"}, "fusion_lat": 0.0, "lat": 38.91410033333333, "is_disabled": 0, "lon": -77.03907716666667, "is_reserved": 0}, {"bike_id": "b124e754628ad73942a52ddcab58566b", "fusion_lon": 0.0, "type": "electric_scooter", "name": "b124e754628ad73942a52ddcab58566b", "rental_uris": {"android": "https://dc.lft.to/lastmile_qr_scan", "ios": "https://dc.lft.to/lastmile_qr_scan"}, "fusion_lat": 0.0, "lat": 38.93041266666667, "is_disabled": 0, "lon": -77.03217766666667, "is_reserved": 0}, {"bike_id": "c94578ae24301beb87ab833026ff8b6a", "fusion_lon": 0.0, "type": "electric_scooter", "name": "c94578ae24301beb87ab833026ff8b6a", "rental_uris": {"android": "https://dc.lft.to/lastmile_qr_scan", "ios": "https://dc.lft.to/lastmile_qr_scan"}, "fusion_lat": 0.0, "lat": 38.89440233333333, "is_disabled": 0, "lon": -76.979107, "is_reserved": 0}, {"bike_id": "f62ee9820a6aaae808ec2f50c9649652", "fusion_lon": 0.0, "type": "electric_bike", "name": "f62ee9820a6aaae808ec2f50c9649652", "rental_uris": {"android": "https://dc.lft.to/lastmile_qr_scan", "ios": "https://dc.lft.to/lastmile_qr_scan"}, "fusion_lat": 0.0, "lat": 38.93581316666667, "is_disabled": 0, "lon": -77.10684983333333, "is_reserved": 0},