{"data": {"bikes": [{"lat": 38.892221, "type": "electric_scooter", "fusion_lat": 0.0, "is_disabled": 0, "name": "2503da46660217732b909cdda203a370", "is_reserved": 0, "rental_uris": {"ios": "https://dc.lft.to/lastmile_qr_scan", "android": "https://dc.lft.to/lastmile_qr_scan"}, "lon": -77.02220216666667, "bike_id": "2503da46660217732b909cdda203a370", "fusion_lon": 0.0}, {"lat": 38.89227283333334, "type": "electric_scooter", "fusion_lat": 0.0, "is_disabled": 0, "name": "878e1d3004cc69fc39f706b2b1d55245", "is_reserved": 0, "rental_uris": {"ios": "https://dc.lft.to/lastmile_qr_scan", "android": "https://dc.lft.to/lastmile_qr_scan"}, "lon": -77.03185866666666, "bike_id": "878e1d3004cc69fc39f706b2b1d55245", "fusion_lon": 0.0}, {"lat": 38.89224216666667, "type": "electric_scooter", "fusion_lat": 0.0, "is_disabled": 0, "name": "210cb27e6e62637a00f792beb75fb2c8", "is_reserved": 0, "rental_uris": {"ios": "https://dc.lft.to/lastmile_qr_scan", "android": "https://dc.lft.to/lastmile_qr_scan"}, "lon": -77.03182733333334, "bike_id": "210cb27e6e62637a00f792beb75fb2c8", "fusion_lon": 0.0}, {"lat": 38.8922945, "type": "electric_scooter", "fusion_lat": 0.0, "is_disabled": 0, "name": "5fab5286477731485170c7dd04b396c3", "is_reserved": 0, "rental_uris": {"ios": "https://dc.lft.to/lastmile_qr_scan", "android": "https://dc.lft.to/lastmile_qr_scan"}, "lon": -77.04895466666666, "bike_id": "5fab5286477731485170c7dd04b396c3", "fusion_lon": 0.0}, {"lat": 38.89627, "type": "electric_scooter", "fusion_lat": 0.0, "is_disabled": 0, "name": "a66cf4a0aeb4dc9bb1524f4ef9da211e", "is_reserved": 0, "rental_uris": {"ios": "https://dc.lft.to/lastmile_qr_scan", "android": "https://dc.lft.to/lastmile_qr_scan"}, "lon": -77.03174433333334, "bike_id": "a66cf4a0aeb4dc9bb1524f4ef9da211e", "fusion_lon": 0.0}, {"lat": 38.866874833333334, "type": "electric_scooter", "fusion_lat": 0.0, "is_disabled": 0, "name": "8b2632420968f1b3239e5cbb89003702", "is_reserved": 0, "rental_uris": {"ios": "https://dc.lft.to/lastmile_qr_scan", "android": "https://dc.lft.to/lastmile_qr_scan"}, "lon": -76.9859795, "bike_id": "8b2632420968f1b3239e5cbb89003702", "fusion_lon": 0.0}, {"lat": 38.90081633333333, "type": "electric_scooter", "fusion_lat": 0.0, "is_disabled": 0, "name": "27dece5326f18860df710628fe1ab3cd", "is_reserved": 0, "rental_uris": {"ios": "https://dc.lft.to/lastmile_qr_scan", "android": "https://dc.lft.to/lastmile_qr_scan"}, "lon": -77.02517366666666, "bike_id": "27dece5326f18860df710628fe1ab3cd", "fusion_lon": 0.0}, {"lat": 38.899798, "type": "electric_scooter", "fusion_lat": 0.0, "is_disabled": 0, "name": "afdd063fafa6d21adf543bcd92b625ef", "is_reserved": 0, "rental_uris": {"ios": "https://dc.lft.to/lastmile_qr_scan", "android": "https://dc.lft.to/lastmile_qr_scan"}, "lon": -77.02624483333334, "bike_id": "afdd063fafa6d21adf543bcd92b625ef", "fusion_lon": 0.0}, {"lat": 38.892192, "type": "electric_scooter", "fusion_lat": 0.0, "is_disabled": 0, "name": "c4619968a3730ae0251f0e6e98c1b736", "is_reserved": 0, "rental_uris": {"ios": "https://dc.lft.to/lastmile_qr_scan", "android": "https://dc.lft.to/lastmile_qr_scan"}, "lon": -77.02623183333333, "bike_id": "c4619968a3730ae0251f0e6e98c1b736", "fusion_lon": 0.0}, {"lat": 38.916472666666664, "type": "electric_scooter", "fusion_lat": 0.0, "is_disabled": 0, "name": "26b0dbcf68cd08a47221d8d59b94020d", "is_reserved": 0, "rental_uris": {"ios": "https://dc.lft.to/lastmile_qr_scan", "android": "https://dc.lft.to/lastmile_qr_scan"}, "lon": -77.0319975, "bike_id": "26b0dbcf68cd08a47221d8d59b94020d", "fusion_lon": 0.0}, {"lat": 38.90260283333333, "type": "electric_scooter", "fusion_lat": 0.0, "is_disabled": 0, "name": "0015fd4bdc2c2a4a4c08ee4232fbbcf5", "is_reserved": 0, "rental_uris": {"ios": "https://dc.lft.to/lastmile_qr_scan", "android": "https://dc.lft.to/lastmile_qr_scan"}, "lon": -77.04602283333334, "bike_id": "0015fd4bdc2c2a4a4c08ee4232fbbcf5", "fusion_lon": 0.0}, {"lat": 38.91131983333333, "type": "electric_scooter", "fusion_lat": 0.0, "is_disabled": 0, "name": "f1ed0755c8738c572bf31fbc8285db9c", "is_reserved": 0, "rental_uris": {"ios": "https://dc.lft.to/lastmile_qr_scan", "android": "https://dc.lft.to/lastmile_qr_scan"}, "lon": -77.04426666666667, "bike_id": "f1ed0755c8738c572bf31fbc8285db9c", "fusion_lon": 0.0}, {"lat": 38.935183, "type": "electric_scooter", "fusion_lat": 0.0, "is_disabled": 0, "name": "5774c181ceba9238f3e170d7023528df", "is_reserved": 0, "rental_uris": {"ios": "https://dc.lft.to/lastmile_qr_scan", "android": "https://dc.lft.to/lastmile_qr_scan"}, "lon": -77.0818905, "bike_id": "5774c181ceba9238f3e170d7023528df", "fusion_lon": 0.0}, {"lat": 38.90527733333333, "type": "electric_scooter", "fusion_lat": 0.0, "is_disabled": 0, "name": "7ca862f0cf89ce40c417fdeb68a81661", "is_reserved": 0, "rental_uris": {"ios": "https://dc.lft.to/lastmile_qr_scan", "android": "https://dc.lft.to/lastmile_qr_scan"}, "lon": -77.0451, "bike_id": "7ca862f0cf89ce40c417fdeb68a81661", "fusion_lon": 0.0}, {"lat": 38.90571833333333, "type": "electric_scooter", "fusion_lat": 0.0, "is_disabled": 0, "name": "684efbd1f5c777d04fb404e82077bc64", "is_reserved": 0, "rental_uris": {"ios": "https://dc.lft.to/lastmile_qr_scan", "android": "https://dc.lft.to/lastmile_qr_scan"}, "lon": -77.06274283333333, "bike_id": "684efbd1f5c777d04fb404e82077bc64", "fusion_lon": 0.0}, {"lat": 38.931704, "type": "electric_scooter", "fusion_lat": 0.0, "is_disabled": 0, "name": "62d5008930efb78a5ef7f659570419af", "is_reserved": 0, "rental_uris": {"ios": "https://dc.lft.to/lastmile_qr_scan", "android": "https://dc.lft.to/lastmile_qr_scan"}, "lon": -77.028188, "bike_id": "62d5008930efb78a5ef7f659570419af", "fusion_lon": 0.0}, {"lat": 38.893285666666664, "type": "electric_scooter", "fusion_lat": 0.0, "is_disabled": 0, "name": "3a09d773314cf1cf9c302d6cfc9f0946", "is_reserved": 0, "rental_uris": {"ios": "https://dc.lft.to/lastmile_qr_scan", "android": "https://dc.lft.to/lastmile_qr_scan"}, "lon": -77.0222675, "bike_id": "3a09d773314cf1cf9c302d6cfc9f0946", "fusion_lon": 0.0}, {"lat": 38.89221416666667, "type": "electric_scooter", "fusion_lat": 0.0, "is_disabled": 0, "name": "220ecda8bec5ba9cb42b4c2bc062a900", "is_reserved": 0, "rental_uris": {"ios": "https://dc.lft.to/lastmile_qr_scan", "android": "https://dc.lft.to/lastmile_qr_scan"}, "lon": -77.0149725, "bike_id": "220ecda8bec5ba9cb42b4c2bc062a900", "fusion_lon": 0.0}, {"lat": 38.915600166666664, "type": "electric_scooter", "fusion_lat": 0.0, "is_disabled": 0, "name": "5aa41f1bf54b10bcb3a7e35180c1aefd", "is_reserved": 0, "rental_uris": {"ios": "https://dc.lft.to/lastmile_qr_scan", "android": "https://dc.lft.to/lastmile_qr_scan"}, "lon": -77.03937066666667, "bike_id": "5aa41f1bf54b10bcb3a7e35180c1aefd", "fusion_lon": 0.0}, {"lat": 38.900151, "type": "electric_scooter", "fusion_lat": 0.0, "is_disabled": 0, "name": "02f62ddf017e7f5cbdbbb037a8eef2b9", "is_reserved": 0, "rental_uris": {"ios": "https://dc.lft.to/lastmile_qr_scan", "android": "https://dc.lft.to/lastmile_qr_scan"}, "lon": -76.930312, "bike_id": "02f62ddf017e7f5cbdbbb037a8eef2b9", "fusion_lon": 0.0}, {"lat": 38.93283316666667, "type": "electric_scooter", "fusion_lat": 0.0, "is_disabled": 0, "name": "1bb1f9a351b5ca4bff25896619baec34", "is_reserved": 0, "rental_uris": {"ios": "https://dc.lft.to/lastmile_qr_scan", "android": "https://dc.lft.to/lastmile_qr_scan"}, "lon": -77.02309666666666, "bike_id": "1bb1f9a351b5ca4bff25896619baec34", "fusion_lon": 0.0}, {"lat": 38.91948583333333, "type": "electric_scooter", "fusion_lat": 0.0, "is_disabled": 0, "name": "952ea196e1dc01fd60d10c03850b074b", "is_reserved": 0, "rental_uris": {"ios": "https://dc.lft.to/lastmile_qr_scan", "android": "https://dc.lft.to/lastmile_qr_scan"}, "lon": -77.02506983333333, "bike_id": "952ea196e1dc01fd60d10c03850b074b", "fusion_lon": 0.0}, {"lat": 38.9034685, "type": "electric_scooter", "fusion_lat": 0.0, "is_disabled": 0, "name": "0e04d802665b9fb2347cdcbcdf91283f", "is_reserved": 0, "rental_uris": {"ios": "https://dc.lft.to/lastmile_qr_scan", "android": "https://dc.lft.to/lastmile_qr_scan"}, "lon": -77.025863, "bike_id": "0e04d802665b9fb2347cdcbcdf91283f", "fusion_lon": 0.0}, {"lat": 38.88767166666667, "type": "electric_bike", "fusion_lat": 0.0, "is_disabled": 0, "name": "18c32cceb88f3e80eedf9a573192907e", "is_reserved": 0, "rental_uris": {"ios": "https://dc.lft.to/lastmile_qr_scan", "android": "https://dc.lft.to/lastmile_qr_scan"}, "lon": -76.9008305, "bike_id": "18c32cceb88f3e80eedf9a573192907e", "fusion_lon": 0.0}, {"lat": 38.91721166666667, "type": "electric_scooter", "fusion_lat": 0.0, "is_disabled": 0, "name": "91f8cc5df041b4e22ccf5fd8c38584df", "is_reserved": 0, "rental_uris": {"ios": "https://dc.lft.to/lastmile_qr_scan", "android": "https://dc.lft.to/lastmile_qr_scan"}, "lon": -77.0366365, "bike_id": "91f8cc5df041b4e22ccf5fd8c38584df", "fusion_lon": 0.0}, {"lat": 38.91042866666667, "type": "electric_scooter", "fusion_lat": 0.0, "is_disabled": 0, "name": "2c57dc5cb0a3f91d7c04260a68523df5", "is_reserved": 0, "rental_uris": {"ios": "https://dc.lft.to/lastmile_qr_scan", "android": "https://dc.lft.to/lastmile_qr_scan"}, "lon": -77.0382575, "bike_id": "2c57dc5cb0a3f91d7c04260a68523df5", "fusion_lon": 0.0}, {"lat": 38.9162125, "type": "electric_scooter", "fusion_lat": 0.0, "is_disabled": 0, "name": "a01163b42ce3341cf7ef2f265b3376d5", "is_reserved": 0, "rental_uris": {"ios": "https://dc.lft.to/lastmile_qr_scan", "android": "https://dc.lft.to/lastmile_qr_scan"}, "lon": -77.04876666666667, "bike_id": "a01163b42ce3341cf7ef2f265b3376d5", "fusion_lon": 0.0}, {"lat": 38.89376166666667, "type": "electric_scooter", "fusion_lat": 0.0, "is_disabled": 0, "name": "451842ab2224608f50fcaddd1025889c", "is_reserved": 0, "rental_uris": {"ios": "https://dc.lft.to/lastmile_qr_scan", "android": "https://dc.lft.to/lastmile_qr_scan"}, "lon": -76.94972916666667, "bike_id": "451842ab2224608f50fcaddd1025889c", "fusion_lon": 0.0}, {"lat": 38.91272516666667, "type": "electric_scooter", "fusion_lat": 0.0, "is_disabled": 0, "name": "2fd18e18dfdd47bd192e2e5ce9e9d80e", "is_reserved": 0, "rental_uris": {"ios": "https://dc.lft.to/lastmile_qr_scan", "android": "https://dc.lft.to/lastmile_qr_scan"}, "lon": -77.02212883333333, "bike_id": "2fd18e18dfdd47bd192e2e5ce9e9d80e", "fusion_lon": 0.0}, {"lat": 38.8965795, "type": "electric_scooter", "fusion_lat": 0.0, "is_disabled": 0, "name": "5b64624b384b002910aa261de6a619c8", "is_reserved": 0, "rental_uris": {"ios": "https://dc.lft.to/lastmile_qr_scan", "android": "https://dc.lft.to/lastmile_qr_scan"}, "lon": -77.0502325, "bike_id": "5b64624b384b002910aa261de6a619c8", "fusion_lon": 0.0}, {"lat": 38.89270466666667, "type": "electric_scooter", "fusion_lat": 0.0, "is_disabled": 0, "name": "9cdf9a4eb05fe7c93a5fc714b4c8c3f1", "is_reserved": 0, "rental_uris": {"ios": "https://dc.lft.to/lastmile_qr_scan", "android": "https://dc.lft.to/lastmile_qr_scan"}, "lon": -77.003749, "bike_id": "9cdf9a4eb05fe7c93a5fc714b4c8c3f1", "fusion_lon": 0.0}, {"lat": 38.905314, "type": "electric_scooter", "fusion_lat": 0.0, "is_disabled": 0, "name": "27f6bb192a4bdc84fe1bde0b323dcf8d", "is_reserved": 0, "rental_uris": {"ios": "https://dc.lft.to/lastmile_qr_scan", "android": "https://dc.lft.to/lastmile_qr_scan"}, "lon": -77.0417625, "bike_id": "27f6bb192a4bdc84fe1bde0b323dcf8d", "fusion_lon": 0.0}, {"lat": 38.911417, "type": "electric_scooter", "fusion_lat": 0.0, "is_disabled": 0, "name": "b752037585ffa469e6083df922ef47fb", "is_reserved": 0, "rental_uris": {"ios": "https://dc.lft.to/lastmile_qr_scan", "android": "https://dc.lft.to/lastmile_qr_scan"}, "lon": -77.048935, "bike_id": "b752037585ffa469e6083df922ef47fb", "fusion_lon": 0.0}, {"lat": 38.909029333333336, "type": "electric_scooter", "fusion_lat": 0.0, "is_disabled": 0, "name": "86abe5c0b0923244a0f626bc308efb4d", "is_reserved": 0, "rental_uris": {"ios": "https://dc.lft.to/lastmile_qr_scan", "android": "https://dc.lft.to/lastmile_qr_scan"}, "lon": -77.04294783333333, "bike_id": "86abe5c0b0923244a0f626bc308efb4d", "fusion_lon": 0.0}, {"lat": 38.93498, "type": "electric_scooter", "fusion_lat": 0.0, "is_disabled": 0, "name": "ca1a3bef62289d25cd481b474ec11bfc", "is_reserved": 0, "rental_uris": {"ios": "https://dc.lft.to/lastmile_qr_scan", "android": "https://dc.lft.to/lastmile_qr_scan"}, "lon": -76.963606, "bike_id": "ca1a3bef62289d25cd481b474ec11bfc", "fusion_lon": 0.0}, {"lat": 38.890128, "type": "electric_scooter", "fusion_lat": 0.0, "is_disabled": 0, "name": "973e2ef3ea0fd861e160693e2018fb4b", "is_reserved": 0, "rental_uris": {"ios": "https://dc.lft.to/lastmile_qr_scan", "android": "https://dc.lft.to/lastmile_qr_scan"}, "lon": -76.95900683333333, "bike_id": "973e2ef3ea0fd861e160693e2018fb4b", "fusion_lon": 0.0}, {"lat": 38.9309475, "type": "electric_scooter", "fusion_lat": 0.0, "is_disabled": 0, "name": "7c06950691b645d0fc65021679ddde2d", "is_reserved": 0, "rental_uris": {"ios": "https://dc.lft.to/lastmile_qr_scan", "android": "https://dc.lft.to/lastmile_qr_scan"}, "lon": -77.0381615, "bike_id": "7c06950691b645d0fc65021679ddde2d", "fusion_lon": 0.0}, {"lat": 38.92141633333333, "type": "electric_scooter", "fusion_lat": 0.0, "is_disabled": 0, "name": "e0ceee89181c53e17db82abc325b89a7", "is_reserved": 0, "rental_uris": {"ios": "https://dc.lft.to/lastmile_qr_scan", "android": "https://dc.lft.to/lastmile_qr_scan"}, "lon": -77.03514983333334, "bike_id": "e0ceee89181c53e17db82abc325b89a7", "fusion_lon": 0.0}, {"lat": 38.82788433333333, "type": "electric_bike", "fusion_lat": 0.0, "is_disabled": 0, "name": "b3bb67518a5708a3dfef27320b35e89d", "is_reserved": 0, "rental_uris": {"ios": "https://dc.lft.to/lastmile_qr_scan", "android": "https://dc.lft.to/lastmile_qr_scan"}, "lon": -77.00920816666667, "bike_id": "b3bb67518a5708a3dfef27320b35e89d", "fusion_lon": 0.0}, {"lat": 38.906306, "type": "electric_scooter", "fusion_lat": 0.0, "is_disabled": 0, "name": "3df9985b633ca42f440414b7ce7656fa", "is_reserved": 0, "rental_uris": {"ios": "https://dc.lft.to/lastmile_qr_scan", "android": "https://dc.lft.to/lastmile_qr_scan"}, "lon": -77.038794, "bike_id": "3df9985b633ca42f440414b7ce7656fa", "fusion_lon": 0.0}, {"lat": 38.9370685, "type": "electric_scooter", "fusion_lat": 0.0, "is_disabled": 0, "name": "771bacf40dcbd23a391deb531abd2e27", "is_reserved": 0, "rental_uris": {"ios": "https://dc.lft.to/lastmile_qr_scan", "android": "https://dc.lft.to/lastmile_qr_scan"}, "lon": -77.02110733333333, "bike_id": "771bacf40dcbd23a391deb531abd2e27", "fusion_lon": 0.0}, {"lat": 38.892280666666665, "type": "electric_scooter", "fusion_lat": 0.0, "is_disabled": 0, "name": "1b813f4b3068148815d15448a987defe", "is_reserved": 0, "rental_uris": {"ios": "https://dc.lft.to/lastmile_qr_scan", "android": "https://dc.lft.to/lastmile_qr_scan"}, "lon": -77.043372, "bike_id": "1b813f4b3068148815d15448a987defe", "fusion_lon": 0.0}, {"lat": 38.89225916666667, "type": "electric_scooter", "fusion_lat": 0.0, "is_disabled": 0, "name": "46193ba98a0e7d54c2ca6022e8635cb4", "is_reserved": 0, "rental_uris": {"ios": "https://dc.lft.to/lastmile_qr_scan", "android": "https://dc.lft.to/lastmile_qr_scan"}, "lon": -77.04692483333334, "bike_id": "46193ba98a0e7d54c2ca6022e8635cb4", "fusion_lon": 0.0}, {"lat": 38.892228833333334, "type": "electric_scooter", "fusion_lat": 0.0, "is_disabled": 0, "name": "b1f7a9f600148e9e3982acf4f2856ef8", "is_reserved": 0, "rental_uris": {"ios": "https://dc.lft.to/lastmile_qr_scan", "android": "https://dc.lft.to/lastmile_qr_scan"}, "lon": -77.04690666666667, "bike_id": "b1f7a9f600148e9e3982acf4f2856ef8", "fusion_lon": 0.0}, {"lat": 38.904273, "type": "electric_scooter", "fusion_lat": 0.0, "is_disabled": 0, "name": "bfa1cd2b6515ba8925d5dee3f727a302", "is_reserved": 0, "rental_uris": {"ios": "https://dc.lft.to/lastmile_qr_scan", "android": "https://dc.lft.to/lastmile_qr_scan"}, "lon": -77.0241025, "bike_id": "bfa1cd2b6515ba8925d5dee3f727a302", "fusion_lon": 0.0}, {"lat": 38.899863333333336, "type": "electric_scooter", "fusion_lat": 0.0, "is_disabled": 0, "name": "bb3aeea1fd2a04d83ea8652a2629d5b8", "is_reserved": 0, "rental_uris": {"ios": "https://dc.lft.to/lastmile_qr_scan", "android": "https://dc.lft.to/lastmile_qr_scan"}, "lon": -77.030279, "bike_id": "bb3aeea1fd2a04d83ea8652a2629d5b8", "fusion_lon": 0.0}, {"lat": 38.887369166666666, "type": "electric_scooter", "fusion_lat": 0.0, "is_disabled": 0, "name": "7ccee1f8e0f6e6cc217684c7399ca93d", "is_reserved": 0, "rental_uris": {"ios": "https://dc.lft.to/lastmile_qr_scan", "android": "https://dc.lft.to/lastmile_qr_scan"}, "lon": -77.02580766666667, "bike_id": "7ccee1f8e0f6e6cc217684c7399ca93d", "fusion_lon": 0.0}, {"lat": 38.96585183333333, "type": "electric_bike", "fusion_lat": 0.0, "is_disabled": 0, "name": "9afb28b552addae3065e2a4f6518fc06", "is_reserved": 0, "rental_uris": {"ios": "https://dc.lft.to/lastmile_qr_scan", "android": "https://dc.lft.to/lastmile_qr_scan"}, "lon": -77.07623583333333, "bike_id": "9afb28b552addae3065e2a4f6518fc06", "fusion_lon": 0.0}, {"lat": 38.86748866666667, "type": "electric_bike", "fusion_lat": 0.0, "is_disabled": 0, "name": "c207daaa87a5c17ec52eb367b4341de6", "is_reserved": 0, "rental_uris": {"ios": "https://dc.lft.to/lastmile_qr_scan", "android": "https://dc.lft.to/lastmile_qr_scan"}, "lon": -77.11708533333334, "bike_id": "c207daaa87a5c17ec52eb367b4341de6", "fusion_lon": 0.0}, {"lat": 38.9368695, "type": "electric_scooter", "fusion_lat": 0.0, "is_disabled": 0, "name": "31c687ccd6df71f46c42183a833b244f", "is_reserved": 0, "rental_uris": {"ios": "https://dc.lft.to/lastmile_qr_scan", "android": "https://dc.lft.to/lastmile_qr_scan"}, "lon": -77.0360785, "bike_id": "31c687ccd6df71f46c42183a833b244f", "fusion_lon": 0.0}, {"lat": 38.91524066666667, "type": "electric_scooter", "fusion_lat": 0.0, "is_disabled": 0, "name": "2cb2453fb306773d6cf8e401e954c449", "is_reserved": 0, "rental_uris": {"ios": "https://dc.lft.to/lastmile_qr_scan", "android": "https://dc.lft.to/lastmile_qr_scan"}, "lon": -77.0449485, "bike_id": "2cb2453fb306773d6cf8e401e954c449", "fusion_lon": 0.0}, {"lat": 38.965318333333336, "type": "electric_bike", "fusion_lat": 0.0, "is_disabled": 0, "name": "fc63151c77fa8090e8676070590a8cc4", "is_reserved": 0, "rental_uris": {"ios": "https://dc.lft.to/lastmile_qr_scan", "android": "https://dc.lft.to/lastmile_qr_scan"}, "lon": -77.03429866666667, "bike_id": "fc63151c77fa8090e8676070590a8cc4", "fusion_lon": 0.0}, {"lat": 38.90704866666667, "type": "electric_scooter", "fusion_lat": 0.0, "is_disabled": 0, "name": "3c43004526fe307bdfcd0a0a30bddac6", "is_reserved": 0, "rental_uris": {"ios": "https://dc.lft.to/lastmile_qr_scan", "android": "https://dc.lft.to/lastmile_qr_scan"}, "lon": -77.03215816666666, "bike_id": "3c43004526fe307bdfcd0a0a30bddac6", "fusion_lon": 0.0}, {"lat": 38.894879333333336, "type": "electric_scooter", "fusion_lat": 0.0, "is_disabled": 0, "name": "393653f4d7b554abc5d17198d531429b", "is_reserved": 0, "rental_uris": {"ios": "https://dc.lft.to/lastmile_qr_scan", "android": "https://dc.lft.to/lastmile_qr_scan"}, "lon": -77.02311933333333, "bike_id": "393653f4d7b554abc5d17198d531429b", "fusion_lon": 0.0}, {"lat": 38.89973633333334, "type": "electric_scooter", "fusion_lat": 0.0, "is_disabled": 0, "name": "3ad1141b9e6db760d7f5ce2490812f00", "is_reserved": 0, "rental_uris": {"ios": "https://dc.lft.to/lastmile_qr_scan", "android": "https://dc.lft.to/lastmile_qr_scan"}, "lon": -77.04194866666667, "bike_id": "3ad1141b9e6db760d7f5ce2490812f00", "fusion_lon": 0.0}, {"lat": 38.910619833333335, "type": "electric_scooter", "fusion_lat": 0.0, "is_disabled": 0, "name": "4745fd97b6f54f20469d59c46378ec70", "is_reserved": 0, "rental_uris": {"ios": "https://dc.lft.to/lastmile_qr_scan", "android": "https://dc.lft.to/lastmile_qr_scan"}, "lon": -77.03093766666667, "bike_id": "4745fd97b6f54f20469d59c46378ec70", "fusion_lon": 0.0}, {"lat": 38.896508833333336, "type": "electric_scooter", "fusion_lat": 0.0, "is_disabled": 0, "name": "123fb8bf5737c55a0cbfdef71da5ca8d", "is_reserved": 0, "rental_uris": {"ios": "https://dc.lft.to/lastmile_qr_scan", "android": "https://dc.lft.to/lastmile_qr_scan"}, "lon": -77.026918, "bike_id": "123fb8bf5737c55a0cbfdef71da5ca8d", "fusion_lon": 0.0}, {"lat": 38.91201, "type": "electric_scooter", "fusion_lat": 0.0, "is_disabled": 0, "name": "8d3606464833ecf3f467d3cf3e0b5801", "is_reserved": 0, "rental_uris": {"ios": "https://dc.lft.to/lastmile_qr_scan", "android": "https://dc.lft.to/lastmile_qr_scan"}, "lon": -77.03185616666667, "bike_id": "8d3606464833ecf3f467d3cf3e0b5801", "fusion_lon": 0.0}, {"lat": 38.88431166666667, "type": "electric_scooter", "fusion_lat": 0.0, "is_disabled": 0, "name": "885262f8f4a8017a22291da4a28f652b", "is_reserved": 0, "rental_uris": {"ios": "https://dc.lft.to/lastmile_qr_scan", "android": "https://dc.lft.to/lastmile_qr_scan"}, "lon": -76.95755466666667, "bike_id": "885262f8f4a8017a22291da4a28f652b", "fusion_lon": 0.0}, {"lat": 38.9237785, "type": "electric_scooter", "fusion_lat": 0.0, "is_disabled": 0, "name": "a62f49799b8c82814bed47d89403894e", "is_reserved": 0, "rental_uris": {"ios": "https://dc.lft.to/lastmile_qr_scan", "android": "https://dc.lft.to/lastmile_qr_scan"}, "lon": -77.019219, "bike_id": "a62f49799b8c82814bed47d89403894e", "fusion_lon": 0.0}, {"lat": 38.8971845, "type": "electric_scooter", "fusion_lat": 0.0, "is_disabled": 0, "name": "540f05f5919a00aea5f68ecf5ada7e1d", "is_reserved": 0, "rental_uris": {"ios": "https://dc.lft.to/lastmile_qr_scan", "android": "https://dc.lft.to/lastmile_qr_scan"}, "lon": -77.02132916666666, "bike_id": "540f05f5919a00aea5f68ecf5ada7e1d", "fusion_lon": 0.0}, {"lat": 38.92024983333334, "type": "electric_scooter", "fusion_lat": 0.0, "is_disabled": 0, "name": "a78265156304f2127673da204c9ff119", "is_reserved": 0, "rental_uris": {"ios": "https://dc.lft.to/lastmile_qr_scan", "android": "https://dc.lft.to/lastmile_qr_scan"}, "lon": -77.03084033333333, "bike_id": "a78265156304f2127673da204c9ff119", "fusion_lon": 0.0}, {"lat": 38.8291105, "type": "electric_bike", "fusion_lat": 0.0, "is_disabled": 0, "name": "952bcb104ceffeb62fa682eb2e09ed5b", "is_reserved": 0, "rental_uris": {"ios": "https://dc.lft.to/lastmile_qr_scan", "android": "https://dc.lft.to/lastmile_qr_scan"}, "lon": -76.9979905, "bike_id": "952bcb104ceffeb62fa682eb2e09ed5b", "fusion_lon": 0.0}, {"lat": 38.919291333333334, "type": "electric_scooter", "fusion_lat": 0.0, "is_disabled": 0, "name": "01842da058f761922e120c97f27e1619", "is_reserved": 0, "rental_uris": {"ios": "https://dc.lft.to/lastmile_qr_scan", "android": "https://dc.lft.to/lastmile_qr_scan"}, "lon": -77.03180516666667, "bike_id": "01842da058f761922e120c97f27e1619", "fusion_lon": 0.0}, {"lat": 38.902073666666666, "type": "electric_scooter", "fusion_lat": 0.0, "is_disabled": 0, "name": "68e49f3a4061161043930ec9b95de8e8", "is_reserved": 0, "rental_uris": {"ios": "https://dc.lft.to/lastmile_qr_scan", "android": "https://dc.lft.to/lastmile_qr_scan"}, "lon": -77.02367466666666, "bike_id": "68e49f3a4061161043930ec9b95de8e8", "fusion_lon": 0.0}, {"lat": 38.92288216666667, "type": "electric_scooter", "fusion_lat": 0.0, "is_disabled": 0, "name": "4c4abc14e4481b21d34478a985694906", "is_reserved": 0, "rental_uris": {"ios": "https://dc.lft.to/lastmile_qr_scan", "android": "https://dc.lft.to/lastmile_qr_scan"}, "lon": -77.03661266666667, "bike_id": "4c4abc14e4481b21d34478a985694906", "fusion_lon": 0.0}, {"lat": 38.89254, "type": "electric_scooter", "fusion_lat": 0.0, "is_disabled": 0, "name": "8ddbf093a02fbf157e782f435a227813", "is_reserved": 0, "rental_uris": {"ios": "https://dc.lft.to/lastmile_qr_scan", "android": "https://dc.lft.to/lastmile_qr_scan"}, "lon": -77.041817, "bike_id": "8ddbf093a02fbf157e782f435a227813", "fusion_lon": 0.0}, {"lat": 38.99677116666667, "type": "electric_bike", "fusion_lat": 0.0, "is_disabled": 0, "name": "bef085919f5fc955167549fe1971ed09", "is_reserved": 0, "rental_uris": {"ios": "https://dc.lft.to/lastmile_qr_scan", "android": "https://dc.lft.to/lastmile_qr_scan"}, "lon": -77.03794383333333, "bike_id": "bef085919f5fc955167549fe1971ed09", "fusion_lon": 0.0}, {"lat": 38.8768415, "type": "electric_scooter", "fusion_lat": 0.0, "is_disabled": 0, "name": "796135a2b6958599e8b5cea2d7350792", "is_reserved": 0, "rental_uris": {"ios": "https://dc.lft.to/lastmile_qr_scan", "android": "https://dc.lft.to/lastmile_qr_scan"}, "lon": -77.01793066666667, "bike_id": "796135a2b6958599e8b5cea2d7350792", "fusion_lon": 0.0}, {"lat": 38.91799, "type": "electric_scooter", "fusion_lat": 0.0, "is_disabled": 0, "name": "2dbc54aa8b0ab6c3f2b7f34730fb63e9", "is_reserved": 0, "rental_uris": {"ios": "https://dc.lft.to/lastmile_qr_scan", "android": "https://dc.lft.to/lastmile_qr_scan"}, "lon": -77.044522, "bike_id": "2dbc54aa8b0ab6c3f2b7f34730fb63e9", "fusion_lon": 0.0}, {"lat": 38.924381, "type": "electric_scooter", "fusion_lat": 0.0, "is_disabled": 0, "name": "8a314034e432386d71a47c0ec0ed38ad", "is_reserved": 0, "rental_uris": {"ios": "https://dc.lft.to/lastmile_qr_scan", "android": "https://dc.lft.to/lastmile_qr_scan"}, "lon": -77.02021016666667, "bike_id": "8a314034e432386d71a47c0ec0ed38ad", "fusion_lon": 0.0}, {"lat": 38.9055125, "type": "electric_scooter", "fusion_lat": 0.0, "is_disabled": 0, "name": "d5a9acb68edad1272a0fc8f0af64e5e4", "is_reserved": 0, "rental_uris": {"ios": "https://dc.lft.to/lastmile_qr_scan", "android": "https://dc.lft.to/lastmile_qr_scan"}, "lon": -77.057047, "bike_id": "d5a9acb68edad1272a0fc8f0af64e5e4", "fusion_lon": 0.0}, {"lat": 38.908673, "type": "electric_scooter", "fusion_lat": 0.0, "is_disabled": 0, "name": "069adeac70f233d3d62641ae0fd3fbee", "is_reserved": 0, "rental_uris": {"ios": "https://dc.lft.to/lastmile_qr_scan", "android": "https://dc.lft.to/lastmile_qr_scan"}, "lon": -77.022416, "bike_id": "069adeac70f233d3d62641ae0fd3fbee", "fusion_lon": 0.0}, {"lat": 38.897455666666666, "type": "electric_scooter", "fusion_lat": 0.0, "is_disabled": 0, "name": "ac963e4ef849431cd52e836edeb1b7bd", "is_reserved": 0, "rental_uris": {"ios": "https://dc.lft.to/lastmile_qr_scan", "android": "https://dc.lft.to/lastmile_qr_scan"}, "lon": -76.9472925, "bike_id": "ac963e4ef849431cd52e836edeb1b7bd", "fusion_lon": 0.0}, {"lat": 38.885537166666666, "type": "electric_scooter", "fusion_lat": 0.0, "is_disabled": 0, "name": "bd9b2c612e6f24686ba17b5bf43bba38", "is_reserved": 0, "rental_uris": {"ios": "https://dc.lft.to/lastmile_qr_scan", "android": "https://dc.lft.to/lastmile_qr_scan"}, "lon": -77.0120485, "bike_id": "bd9b2c612e6f24686ba17b5bf43bba38", "fusion_lon": 0.0}, {"lat": 38.92615283333333, "type": "electric_scooter", "fusion_lat": 0.0, "is_disabled": 0, "name": "117c75fb9da42dba06f0ba6b632ca088", "is_reserved": 0, "rental_uris": {"ios": "https://dc.lft.to/lastmile_qr_scan", "android": "https://dc.lft.to/lastmile_qr_scan"}, "lon": -77.02655883333334, "bike_id": "117c75fb9da42dba06f0ba6b632ca088", "fusion_lon": 0.0}, {"lat": 38.93864216666667, "type": "electric_scooter", "fusion_lat": 0.0, "is_disabled": 0, "name": "15e13cfe8ec9938d4d6cb73311a8a7b8", "is_reserved": 0, "rental_uris": {"ios": "https://dc.lft.to/lastmile_qr_scan", "android": "https://dc.lft.to/lastmile_qr_scan"}, "lon": -77.030877, "bike_id": "15e13cfe8ec9938d4d6cb73311a8a7b8", "fusion_lon": 0.0}, {"lat": 38.84430116666667, "type": "electric_scooter", "fusion_lat": 0.0, "is_disabled": 0, "name": "5edff71a143210e9534df3ba3fd28d5f", "is_reserved": 0, "rental_uris": {"ios": "https://dc.lft.to/lastmile_qr_scan", "android": "https://dc.lft.to/lastmile_qr_scan"}, "lon": -76.99782683333333, "bike_id": "5edff71a143210e9534df3ba3fd28d5f", "fusion_lon": 0.0}, {"lat": 38.942961333333336, "type": "electric_scooter", "fusion_lat": 0.0, "is_disabled": 0, "name": "9cec41ed24c4bb726b954ebfa888bbc5", "is_reserved": 0, "rental_uris": {"ios": "https://dc.lft.to/lastmile_qr_scan", "android": "https://dc.lft.to/lastmile_qr_scan"}, "lon": -77.021726, "bike_id": "9cec41ed24c4bb726b954ebfa888bbc5", "fusion_lon": 0.0}, {"lat": 38.970678666666664, "type": "electric_bike", "fusion_lat": 0.0, "is_disabled": 0, "name": "f121fc7a52f88da32cb3f82b573ca1a5", "is_reserved": 0, "rental_uris": {"ios": "https://dc.lft.to/lastmile_qr_scan", "android": "https://dc.lft.to/lastmile_qr_scan"}, "lon": -76.93618883333333, "bike_id": "f121fc7a52f88da32cb3f82b573ca1a5", "fusion_lon": 0.0}, {"lat": 38.9072645, "type": "electric_scooter", "fusion_lat": 0.0, "is_disabled": 0, "name": "ae74478fc5b0aafe3e681c801d9232db", "is_reserved": 0, "rental_uris": {"ios": "https://dc.lft.to/lastmile_qr_scan", "android": "https://dc.lft.to/lastmile_qr_scan"}, "lon": -77.0347345, "bike_id": "ae74478fc5b0aafe3e681c801d9232db", "fusion_lon": 0.0}, {"lat": 38.912649333333334, "type": "electric_scooter", "fusion_lat": 0.0, "is_disabled": 0, "name": "36061c97b28abe4f576245e53580f7a7", "is_reserved": 0, "rental_uris": {"ios": "https://dc.lft.to/lastmile_qr_scan", "android": "https://dc.lft.to/lastmile_qr_scan"}, "lon": -77.03864883333334, "bike_id": "36061c97b28abe4f576245e53580f7a7", "fusion_lon": 0.0}, {"lat": 38.902820166666665, "type": "electric_scooter", "fusion_lat": 0.0, "is_disabled": 0, "name": "6f465145d71f77a1d0ba7356bd42f26a", "is_reserved": 0, "rental_uris": {"ios": "https://dc.lft.to/lastmile_qr_scan", "android": "https://dc.lft.to/lastmile_qr_scan"}, "lon": -77.0367695, "bike_id": "6f465145d71f77a1d0ba7356bd42f26a", "fusion_lon": 0.0}, {"lat": 38.866884166666665, "type": "electric_scooter", "fusion_lat": 0.0, "is_disabled": 0, "name": "db27b3d2ba939d688626176a60e5430b", "is_reserved": 0, "rental_uris": {"ios": "https://dc.lft.to/lastmile_qr_scan", "android": "https://dc.lft.to/lastmile_qr_scan"}, "lon": -76.98530466666666, "bike_id": "db27b3d2ba939d688626176a60e5430b", "fusion_lon": 0.0}, {"lat": 38.900221, "type": "electric_scooter", "fusion_lat": 0.0, "is_disabled": 0, "name": "18ced161aec587f87aba6c908ce53566", "is_reserved": 0, "rental_uris": {"ios": "https://dc.lft.to/lastmile_qr_scan", "android": "https://dc.lft.to/lastmile_qr_scan"}, "lon": -77.01324883333334, "bike_id": "18ced161aec587f87aba6c908ce53566", "fusion_lon": 0.0}, {"lat": 38.928779, "type": "electric_scooter", "fusion_lat": 0.0, "is_disabled": 0, "name": "04f4d8ae1a442eca5f3646dc8ad004ed", "is_reserved": 0, "rental_uris": {"ios": "https://dc.lft.to/lastmile_qr_scan", "android": "https://dc.lft.to/lastmile_qr_scan"}, "lon": -77.03354483333334, "bike_id": "04f4d8ae1a442eca5f3646dc8ad004ed", "fusion_lon": 0.0}, {"lat": 38.892319, "type": "electric_scooter", "fusion_lat": 0.0, "is_disabled": 0, "name": "04a43cd5ba51dbe13e4cfc7bdfeea188", "is_reserved": 0, "rental_uris": {"ios": "https://dc.lft.to/lastmile_qr_scan", "android": "https://dc.lft.to/lastmile_qr_scan"}, "lon": -77.0499905, "bike_id": "04a43cd5ba51dbe13e4cfc7bdfeea188", "fusion_lon": 0.0}, {"lat": 38.9204745, "type": "electric_bike", "fusion_lat": 0.0, "is_disabled": 0, "name": "66f59f045edd8e117fa8a8f92d0c54d3", "is_reserved": 0, "rental_uris": {"ios": "https://dc.lft.to/lastmile_qr_scan", "android": "https://dc.lft.to/lastmile_qr_scan"}, "lon": -77.06211116666667, "bike_id": "66f59f045edd8e117fa8a8f92d0c54d3", "fusion_lon": 0.0}, {"lat": 38.938629166666665, "type": "electric_scooter", "fusion_lat": 0.0, "is_disabled": 0, "name": "496a2125ba91e8e0e029b217af2624ea", "is_reserved": 0, "rental_uris": {"ios": "https://dc.lft.to/lastmile_qr_scan", "android": "https://dc.lft.to/lastmile_qr_scan"}, "lon": -77.02475683333333, "bike_id": "496a2125ba91e8e0e029b217af2624ea", "fusion_lon": 0.0}, {"lat": 38.912599, "type": "electric_scooter", "fusion_lat": 0.0, "is_disabled": 0, "name": "f9a21f7d02c78c2bba9184fa98674580", "is_reserved": 0, "rental_uris": {"ios": "https://dc.lft.to/lastmile_qr_scan", "android": "https://dc.lft.to/lastmile_qr_scan"}, "lon": -77.022254, "bike_id": "f9a21f7d02c78c2bba9184fa98674580", "fusion_lon": 0.0}, {"lat": 38.91745, "type": "electric_scooter", "fusion_lat": 0.0, "is_disabled": 0, "name": "07a0c652620100626a536ad24151d4d9", "is_reserved": 0, "rental_uris": {"ios": "https://dc.lft.to/lastmile_qr_scan", "android": "https://dc.lft.to/lastmile_qr_scan"}, "lon": -77.03206333333333, "bike_id": "07a0c652620100626a536ad24151d4d9", "fusion_lon": 0.0}, {"lat": 38.8951195, "type": "electric_scooter", "fusion_lat": 0.0, "is_disabled": 0, "name": "f05fed53fac2a5a29cc7530b46d82d8f", "is_reserved": 0, "rental_uris": {"ios": "https://dc.lft.to/lastmile_qr_scan", "android": "https://dc.lft.to/lastmile_qr_scan"}, "lon": -76.94886083333333, "bike_id": "f05fed53fac2a5a29cc7530b46d82d8f", "fusion_lon": 0.0}, {"lat": 38.89758466666667, "type": "electric_scooter", "fusion_lat": 0.0, "is_disabled": 0, "name": "9f1f82e8448588c5ccf456667e6d4f78", "is_reserved": 0, "rental_uris": {"ios": "https://dc.lft.to/lastmile_qr_scan", "android": "https://dc.lft.to/lastmile_qr_scan"}, "lon": -77.03225683333334, "bike_id": "9f1f82e8448588c5ccf456667e6d4f78", "fusion_lon": 0.0}, {"lat": 38.87639766666667, "type": "electric_scooter", "fusion_lat": 0.0, "is_disabled": 0, "name": "b384d34bebf908d3828b22422967e5df", "is_reserved": 0, "rental_uris": {"ios": "https://dc.lft.to/lastmile_qr_scan", "android": "https://dc.lft.to/lastmile_qr_scan"}, "lon": -77.003797, "bike_id": "b384d34bebf908d3828b22422967e5df", "fusion_lon": 0.0}, {"lat": 38.89198666666667, "type": "electric_scooter", "fusion_lat": 0.0, "is_disabled": 0, "name": "ee74e0ae9ade77784c555064b7b27134", "is_reserved": 0, "rental_uris": {"ios": "https://dc.lft.to/lastmile_qr_scan", "android": "https://dc.lft.to/lastmile_qr_scan"}, "lon": -77.00297516666667, "bike_id": "ee74e0ae9ade77784c555064b7b27134", "fusion_lon": 0.0}, {"lat": 38.902708833333335, "type": "electric_scooter", "fusion_lat": 0.0, "is_disabled": 0, "name": "bb4d09c8046f09f232635d850337f164", "is_reserved": 0, "rental_uris": {"ios": "https://dc.lft.to/lastmile_qr_scan", "android": "https://dc.lft.to/lastmile_qr_scan"}, "lon": -77.030348, "bike_id": "bb4d09c8046f09f232635d850337f164", "fusion_lon": 0.0}, {"lat": 38.85325183333333, "type": "electric_bike", "fusion_lat": 0.0, "is_disabled": 0, "name": "ef89de9708022090b7a9f8ef50a8a1ff", "is_reserved": 0, "rental_uris": {"ios": "https://dc.lft.to/lastmile_qr_scan", "android": "https://dc.lft.to/lastmile_qr_scan"}, "lon": -76.980264, "bike_id": "ef89de9708022090b7a9f8ef50a8a1ff", "fusion_lon": 0.0}, {"lat": 38.8981625, "type": "electric_bike", "fusion_lat": 0.0, "is_disabled": 0, "name": "2e36f5a6101727279e9f6abff1960368", "is_reserved": 0, "rental_uris": {"ios": "https://dc.lft.to/lastmile_qr_scan", "android": "https://dc.lft.to/lastmile_qr_scan"}, "lon": -76.99090733333334, "bike_id": "2e36f5a6101727279e9f6abff1960368", "fusion_lon": 0.0}, {"lat": 38.93349466666667, "type": "electric_scooter", "fusion_lat": 0.0, "is_disabled": 0, "name": "74b7fba78feeb23d5c373d57c5c7efeb", "is_reserved": 0, "rental_uris": {"ios": "https://dc.lft.to/lastmile_qr_scan", "android": "https://dc.lft.to/lastmile_qr_scan"}, "lon": -77.05750583333334, "bike_id": "74b7fba78feeb23d5c373d57c5c7efeb", "fusion_lon": 0.0}, {"lat": 38.91476183333333, "type": "electric_scooter", "fusion_lat": 0.0, "is_disabled": 0, "name": "7746a0f50be57da28817027a231cf89e", "is_reserved": 0, "rental_uris": {"ios": "https://dc.lft.to/lastmile_qr_scan", "android": "https://dc.lft.to/lastmile_qr_scan"}, "lon": -77.032136, "bike_id": "7746a0f50be57da28817027a231cf89e", "fusion_lon": 0.0}, {"lat": 38.933652, "type": "electric_scooter", "fusion_lat": 0.0, "is_disabled": 0, "name": "02fbf3ea72b7924cc7b58a10617e01d9", "is_reserved": 0, "rental_uris": {"ios": "https://dc.lft.to/lastmile_qr_scan", "android": "https://dc.lft.to/lastmile_qr_scan"}, "lon": -76.98993966666667, "bike_id": "02fbf3ea72b7924cc7b58a10617e01d9", "fusion_lon": 0.0}, {"lat": 38.937746, "type": "electric_bike", "fusion_lat": 0.0, "is_disabled": 0, "name": "59bcae7aac93a0026a84571d24f5b913", "is_reserved": 0, "rental_uris": {"ios": "https://dc.lft.to/lastmile_qr_scan", "android": "https://dc.lft.to/lastmile_qr_scan"}, "lon": -77.01910666666667, "bike_id": "59bcae7aac93a0026a84571d24f5b913", "fusion_lon": 0.0}, {"lat": 38.9014255, "type": "electric_scooter", "fusion_lat": 0.0, "is_disabled": 0, "name": "a960c2c87bf61f1bb1cd66980b47cdcd", "is_reserved": 0, "rental_uris": {"ios": "https://dc.lft.to/lastmile_qr_scan", "android": "https://dc.lft.to/lastmile_qr_scan"}, "lon": -77.03274533333334, "bike_id": "a960c2c87bf61f1bb1cd66980b47cdcd", "fusion_lon": 0.0}, {"lat": 38.89231566666667, "type": "electric_scooter", "fusion_lat": 0.0, "is_disabled": 0, "name": "a3fc300ca8dae39c84c2768f86ecb161", "is_reserved": 0, "rental_uris": {"ios": "https://dc.lft.to/lastmile_qr_scan", "android": "https://dc.lft.to/lastmile_qr_scan"}, "lon": -77.03190566666666, "bike_id": "a3fc300ca8dae39c84c2768f86ecb161", "fusion_lon": 0.0}, {"lat": 38.9241775, "type": "electric_scooter", "fusion_lat": 0.0, "is_disabled": 0, "name": "47c6d3efc43f5ec8fbacf6c4f0a1cd74", "is_reserved": 0, "rental_uris": {"ios": "https://dc.lft.to/lastmile_qr_scan", "android": "https://dc.lft.to/lastmile_qr_scan"}, "lon": -77.0200975, "bike_id": "47c6d3efc43f5ec8fbacf6c4f0a1cd74", "fusion_lon": 0.0}, {"lat": 38.917224833333336, "type": "electric_scooter", "fusion_lat": 0.0, "is_disabled": 0, "name": "9d16cfaf0bbc2c7689732c03029daf0f", "is_reserved": 0, "rental_uris": {"ios": "https://dc.lft.to/lastmile_qr_scan", "android": "https://dc.lft.to/lastmile_qr_scan"}, "lon": -77.0366465, "bike_id": "9d16cfaf0bbc2c7689732c03029daf0f", "fusion_lon": 0.0}, {"lat": 38.92487166666667, "type": "electric_scooter", "fusion_lat": 0.0, "is_disabled": 0, "name": "dff408af58cc97b4bf4d3cbf306e32c6", "is_reserved": 0, "rental_uris": {"ios": "https://dc.lft.to/lastmile_qr_scan", "android": "https://dc.lft.to/lastmile_qr_scan"}, "lon": -77.03532533333333, "bike_id": "dff408af58cc97b4bf4d3cbf306e32c6", "fusion_lon": 0.0}, {"lat": 38.892246666666665, "type": "electric_scooter", "fusion_lat": 0.0, "is_disabled": 0, "name": "f5ae18174ca4c31f3bd39f11d4406105", "is_reserved": 0, "rental_uris": {"ios": "https://dc.lft.to/lastmile_qr_scan", "android": "https://dc.lft.to/lastmile_qr_scan"}, "lon": -77.04645283333333, "bike_id": "f5ae18174ca4c31f3bd39f11d4406105", "fusion_lon": 0.0}, {"lat": 38.93041566666667, "type": "electric_scooter", "fusion_lat": 0.0, "is_disabled": 0, "name": "a2ad0eb6ec19e237b92f6b165cd99fb0", "is_reserved": 0, "rental_uris": {"ios": "https://dc.lft.to/lastmile_qr_scan", "android": "https://dc.lft.to/lastmile_qr_scan"}, "lon": -77.0329885, "bike_id": "a2ad0eb6ec19e237b92f6b165cd99fb0", "fusion_lon": 0.0}, {"lat": 38.889757833333334, "type": "electric_scooter", "fusion_lat": 0.0, "is_disabled": 0, "name": "d8085cc20f0fbb583abd39eb607a2968", "is_reserved": 0, "rental_uris": {"ios": "https://dc.lft.to/lastmile_qr_scan", "android": "https://dc.lft.to/lastmile_qr_scan"}, "lon": -76.99924133333333, "bike_id": "d8085cc20f0fbb583abd39eb607a2968", "fusion_lon": 0.0}, {"lat": 38.891978, "type": "electric_scooter", "fusion_lat": 0.0, "is_disabled": 0, "name": "db9370b111a6e3c8faff7504c419480e", "is_reserved": 0, "rental_uris": {"ios": "https://dc.lft.to/lastmile_qr_scan", "android": "https://dc.lft.to/lastmile_qr_scan"}, "lon": -77.0500525, "bike_id": "db9370b111a6e3c8faff7504c419480e", "fusion_lon": 0.0}, {"lat": 38.929929, "type": "electric_scooter", "fusion_lat": 0.0, "is_disabled": 0, "name": "411d2c3f5016e5bd1dc5758b52a01f12", "is_reserved": 0, "rental_uris": {"ios": "https://dc.lft.to/lastmile_qr_scan", "android": "https://dc.lft.to/lastmile_qr_scan"}, "lon": -77.032336, "bike_id": "411d2c3f5016e5bd1dc5758b52a01f12", "fusion_lon": 0.0}, {"lat": 38.891932833333335, "type": "electric_scooter", "fusion_lat": 0.0, "is_disabled": 0, "name": "b465b25f01ed16d4bf9b17ca1961fb53", "is_reserved": 0, "rental_uris": {"ios": "https://dc.lft.to/lastmile_qr_scan", "android": "https://dc.lft.to/lastmile_qr_scan"}, "lon": -77.0277645, "bike_id": "b465b25f01ed16d4bf9b17ca1961fb53", "fusion_lon": 0.0}, {"lat": 38.887709666666666, "type": "electric_scooter", "fusion_lat": 0.0, "is_disabled": 0, "name": "215c73bcc0603b2284e816b410d304a7", "is_reserved": 0, "rental_uris": {"ios": "https://dc.lft.to/lastmile_qr_scan", "android": "https://dc.lft.to/lastmile_qr_scan"}, "lon": -77.02216966666667, "bike_id": "215c73bcc0603b2284e816b410d304a7", "fusion_lon": 0.0}, {"lat": 38.886736666666664, "type": "electric_scooter", "fusion_lat": 0.0, "is_disabled": 0, "name": "7cd98f82b89fe276d8c32c76ba1f22f1", "is_reserved": 0, "rental_uris": {"ios": "https://dc.lft.to/lastmile_qr_scan", "android": "https://dc.lft.to/lastmile_qr_scan"}, "lon": -77.000664, "bike_id": "7cd98f82b89fe276d8c32c76ba1f22f1", "fusion_lon": 0.0}, {"lat": 38.891948666666664, "type": "electric_scooter", "fusion_lat": 0.0, "is_disabled": 0, "name": "2df3f9def77fadfdf483a22c0c6077ed", "is_reserved": 0, "rental_uris": {"ios": "https://dc.lft.to/lastmile_qr_scan", "android": "https://dc.lft.to/lastmile_qr_scan"}, "lon": -77.05001766666666, "bike_id": "2df3f9def77fadfdf483a22c0c6077ed", "fusion_lon": 0.0}, {"lat": 38.89535, "type": "electric_scooter", "fusion_lat": 0.0, "is_disabled": 0, "name": "a55021ac8b166f5cc0bc0776f13e1cc2", "is_reserved": 0, "rental_uris": {"ios": "https://dc.lft.to/lastmile_qr_scan", "android": "https://dc.lft.to/lastmile_qr_scan"}, "lon": -77.03210116666666, "bike_id": "a55021ac8b166f5cc0bc0776f13e1cc2", "fusion_lon": 0.0}, {"lat": 38.925464166666664, "type": "electric_scooter", "fusion_lat": 0.0, "is_disabled": 0, "name": "ad048fa3e7aa25a1c7e80211737dc83b", "is_reserved": 0, "rental_uris": {"ios": "https://dc.lft.to/lastmile_qr_scan", "android": "https://dc.lft.to/lastmile_qr_scan"}, "lon": -77.05248916666666, "bike_id": "ad048fa3e7aa25a1c7e80211737dc83b", "fusion_lon": 0.0}, {"lat": 38.877323, "type": "electric_bike", "fusion_lat": 0.0, "is_disabled": 0, "name": "293201709f5c3e384b3b57e6bfc9e825", "is_reserved": 0, "rental_uris": {"ios": "https://dc.lft.to/lastmile_qr_scan", "android": "https://dc.lft.to/lastmile_qr_scan"}, "lon": -76.98109383333333, "bike_id": "293201709f5c3e384b3b57e6bfc9e825", "fusion_lon": 0.0}, {"lat": 38.8922765, "type": "electric_scooter", "fusion_lat": 0.0, "is_disabled": 0, "name": "f36b8e258dbe1d3e01e3d49ff9f4e180", "is_reserved": 0, "rental_uris": {"ios": "https://dc.lft.to/lastmile_qr_scan", "android": "https://dc.lft.to/lastmile_qr_scan"}, "lon": -77.0433545, "bike_id": "f36b8e258dbe1d3e01e3d49ff9f4e180", "fusion_lon": 0.0}, {"lat": 38.9057685, "type": "electric_scooter", "fusion_lat": 0.0, "is_disabled": 0, "name": "9e8ba281467866cb8edfbf6b16976bbc", "is_reserved": 0, "rental_uris": {"ios": "https://dc.lft.to/lastmile_qr_scan", "android": "https://dc.lft.to/lastmile_qr_scan"}, "lon": -77.01511333333333, "bike_id": "9e8ba281467866cb8edfbf6b16976bbc", "fusion_lon": 0.0}, {"lat": 38.92340466666667, "type": "electric_scooter", "fusion_lat": 0.0, "is_disabled": 0, "name": "326e596e54b7d1929c549d26d0016693", "is_reserved": 0, "rental_uris": {"ios": "https://dc.lft.to/lastmile_qr_scan", "android": "https://dc.lft.to/lastmile_qr_scan"}, "lon": -77.021501, "bike_id": "326e596e54b7d1929c549d26d0016693", "fusion_lon": 0.0}, {"lat": 38.93344116666667, "type": "electric_scooter", "fusion_lat": 0.0, "is_disabled": 0, "name": "3062363dd953be9a90ec7d639deee1cf", "is_reserved": 0, "rental_uris": {"ios": "https://dc.lft.to/lastmile_qr_scan", "android": "https://dc.lft.to/lastmile_qr_scan"}, "lon": -77.03664716666667, "bike_id": "3062363dd953be9a90ec7d639deee1cf", "fusion_lon": 0.0}, {"lat": 38.897230666666665, "type": "electric_scooter", "fusion_lat": 0.0, "is_disabled": 0, "name": "a2aec65945286d275a1115363f7a6874", "is_reserved": 0, "rental_uris": {"ios": "https://dc.lft.to/lastmile_qr_scan", "android": "https://dc.lft.to/lastmile_qr_scan"}, "lon": -77.0311575, "bike_id": "a2aec65945286d275a1115363f7a6874", "fusion_lon": 0.0}, {"lat": 38.91131383333333, "type": "electric_scooter", "fusion_lat": 0.0, "is_disabled": 0, "name": "7929da348e6d9b1bf3b18ea975052ca9", "is_reserved": 0, "rental_uris": {"ios": "https://dc.lft.to/lastmile_qr_scan", "android": "https://dc.lft.to/lastmile_qr_scan"}, "lon": -77.02108016666666, "bike_id": "7929da348e6d9b1bf3b18ea975052ca9", "fusion_lon": 0.0}, {"lat": 38.92141516666667, "type": "electric_scooter", "fusion_lat": 0.0, "is_disabled": 0, "name": "89dcd5dbc52ea3c9241c980154c42bcd", "is_reserved": 0, "rental_uris": {"ios": "https://dc.lft.to/lastmile_qr_scan", "android": "https://dc.lft.to/lastmile_qr_scan"}, "lon": -77.009586, "bike_id": "89dcd5dbc52ea3c9241c980154c42bcd", "fusion_lon": 0.0}, {"lat": 38.908966, "type": "electric_scooter", "fusion_lat": 0.0, "is_disabled": 0, "name": "341a85582c8475dc98b589557cef21a1", "is_reserved": 0, "rental_uris": {"ios": "https://dc.lft.to/lastmile_qr_scan", "android": "https://dc.lft.to/lastmile_qr_scan"}, "lon": -77.01905483333333, "bike_id": "341a85582c8475dc98b589557cef21a1", "fusion_lon": 0.0}, {"lat": 38.924752166666664, "type": "electric_scooter", "fusion_lat": 0.0, "is_disabled": 0, "name": "816d9503c91a6aeacca4029259681005", "is_reserved": 0, "rental_uris": {"ios": "https://dc.lft.to/lastmile_qr_scan", "android": "https://dc.lft.to/lastmile_qr_scan"}, "lon": -77.02255033333333, "bike_id": "816d9503c91a6aeacca4029259681005", "fusion_lon": 0.0}, {"lat": 38.9136195, "type": "electric_scooter", "fusion_lat": 0.0, "is_disabled": 0, "name": "733b231bc1b56938f7e4677db151ee63", "is_reserved": 0, "rental_uris": {"ios": "https://dc.lft.to/lastmile_qr_scan", "android": "https://dc.lft.to/lastmile_qr_scan"}, "lon": -77.04488583333334, "bike_id": "733b231bc1b56938f7e4677db151ee63", "fusion_lon": 0.0}, {"lat": 38.90380116666667, "type": "electric_bike", "fusion_lat": 0.0, "is_disabled": 0, "name": "318e5c01cbf4d96493826f10545f5470", "is_reserved": 0, "rental_uris": {"ios": "https://dc.lft.to/lastmile_qr_scan", "android": "https://dc.lft.to/lastmile_qr_scan"}, "lon": -77.0592155, "bike_id": "318e5c01cbf4d96493826f10545f5470", "fusion_lon": 0.0}, {"lat": 38.876307833333335, "type": "electric_scooter", "fusion_lat": 0.0, "is_disabled": 0, "name": "f3739557ab57e1e06880b4363506cb96", "is_reserved": 0, "rental_uris": {"ios": "https://dc.lft.to/lastmile_qr_scan", "android": "https://dc.lft.to/lastmile_qr_scan"}, "lon": -76.96536783333333, "bike_id": "f3739557ab57e1e06880b4363506cb96", "fusion_lon": 0.0}, {"lat": 38.89227916666667, "type": "electric_scooter", "fusion_lat": 0.0, "is_disabled": 0, "name": "a6c5f2995b93b59c287f890f8e0a325c", "is_reserved": 0, "rental_uris": {"ios": "https://dc.lft.to/lastmile_qr_scan", "android": "https://dc.lft.to/lastmile_qr_scan"}, "lon": -77.04500816666666, "bike_id": "a6c5f2995b93b59c287f890f8e0a325c", "fusion_lon": 0.0}, {"lat": 38.871880166666664, "type": "electric_scooter", "fusion_lat": 0.0, "is_disabled": 0, "name": "24b1eccd7e4b3fe000f6c337fd561319", "is_reserved": 0, "rental_uris": {"ios": "https://dc.lft.to/lastmile_qr_scan", "android": "https://dc.lft.to/lastmile_qr_scan"}, "lon": -77.0059825, "bike_id": "24b1eccd7e4b3fe000f6c337fd561319", "fusion_lon": 0.0}, {"lat": 38.89222733333333, "type": "electric_scooter", "fusion_lat": 0.0, "is_disabled": 0, "name": "30c5c8e9475b696bc8ce6c6e7ced8ae7", "is_reserved": 0, "rental_uris": {"ios": "https://dc.lft.to/lastmile_qr_scan", "android": "https://dc.lft.to/lastmile_qr_scan"}, "lon": -77.02362116666667, "bike_id": "30c5c8e9475b696bc8ce6c6e7ced8ae7", "fusion_lon": 0.0}, {"lat": 38.9088165, "type": "electric_scooter", "fusion_lat": 0.0, "is_disabled": 0, "name": "bbb9236f58e8c7f5e2610ccd154af6c6", "is_reserved": 0, "rental_uris": {"ios": "https://dc.lft.to/lastmile_qr_scan", "android": "https://dc.lft.to/lastmile_qr_scan"}, "lon": -77.03472766666667, "bike_id": "bbb9236f58e8c7f5e2610ccd154af6c6", "fusion_lon": 0.0}, {"lat": 38.88729816666667, "type": "electric_scooter", "fusion_lat": 0.0, "is_disabled": 0, "name": "12c65a90b691c02e7d011517033eb688", "is_reserved": 0, "rental_uris": {"ios": "https://dc.lft.to/lastmile_qr_scan", "android": "https://dc.lft.to/lastmile_qr_scan"}, "lon": -77.02178416666666, "bike_id": "12c65a90b691c02e7d011517033eb688", "fusion_lon": 0.0}, {"lat": 38.901186833333334, "type": "electric_scooter", "fusion_lat": 0.0, "is_disabled": 0, "name": "d25befc0eeb45a11d81a56a5eb9b6515", "is_reserved": 0, "rental_uris": {"ios": "https://dc.lft.to/lastmile_qr_scan", "android": "https://dc.lft.to/lastmile_qr_scan"}, "lon": -77.06010333333333, "bike_id": "d25befc0eeb45a11d81a56a5eb9b6515", "fusion_lon": 0.0}, {"lat": 38.89843333333334, "type": "electric_scooter", "fusion_lat": 0.0, "is_disabled": 0, "name": "82c9a8100f4e874693a97891dead112e", "is_reserved": 0, "rental_uris": {"ios": "https://dc.lft.to/lastmile_qr_scan", "android": "https://dc.lft.to/lastmile_qr_scan"}, "lon": -77.0074005, "bike_id": "82c9a8100f4e874693a97891dead112e", "fusion_lon": 0.0}, {"lat": 38.916273, "type": "electric_scooter", "fusion_lat": 0.0, "is_disabled": 0, "name": "23a3d8cce6059391334eba02635ad823", "is_reserved": 0, "rental_uris": {"ios": "https://dc.lft.to/lastmile_qr_scan", "android": "https://dc.lft.to/lastmile_qr_scan"}, "lon": -77.03172833333333, "bike_id": "23a3d8cce6059391334eba02635ad823", "fusion_lon": 0.0}, {"lat": 38.90113733333333, "type": "electric_scooter", "fusion_lat": 0.0, "is_disabled": 0, "name": "14aded27ca434d7614fb99fc9ed6e443", "is_reserved": 0, "rental_uris": {"ios": "https://dc.lft.to/lastmile_qr_scan", "android": "https://dc.lft.to/lastmile_qr_scan"}, "lon": -77.05010583333333, "bike_id": "14aded27ca434d7614fb99fc9ed6e443", "fusion_lon": 0.0}, {"lat": 38.8783525, "type": "electric_scooter", "fusion_lat": 0.0, "is_disabled": 0, "name": "8ad18c493c1bfae61051b7639d19d291", "is_reserved": 0, "rental_uris": {"ios": "https://dc.lft.to/lastmile_qr_scan", "android": "https://dc.lft.to/lastmile_qr_scan"}, "lon": -76.984977, "bike_id": "8ad18c493c1bfae61051b7639d19d291", "fusion_lon": 0.0}, {"lat": 38.866693, "type": "electric_scooter", "fusion_lat": 0.0, "is_disabled": 0, "name": "33107e3008f3ba8e2b9f0b53341f8367", "is_reserved": 0, "rental_uris": {"ios": "https://dc.lft.to/lastmile_qr_scan", "android": "https://dc.lft.to/lastmile_qr_scan"}, "lon": -76.98896533333334, "bike_id": "33107e3008f3ba8e2b9f0b53341f8367", "fusion_lon": 0.0}, {"lat": 38.88772, "type": "electric_scooter", "fusion_lat": 0.0, "is_disabled": 0, "name": "3cfbb471da7a45e1bd3ad993a5d96c56", "is_reserved": 0, "rental_uris": {"ios": "https://dc.lft.to/lastmile_qr_scan", "android": "https://dc.lft.to/lastmile_qr_scan"}, "lon": -77.0221785, "bike_id": "3cfbb471da7a45e1bd3ad993a5d96c56", "fusion_lon": 0.0}, {"lat": 38.87198766666667, "type": "electric_scooter", "fusion_lat": 0.0, "is_disabled": 0, "name": "b33f103d3ef7ed62bd6486159abd09e3", "is_reserved": 0, "rental_uris": {"ios": "https://dc.lft.to/lastmile_qr_scan", "android": "https://dc.lft.to/lastmile_qr_scan"}, "lon": -76.97864383333334, "bike_id": "b33f103d3ef7ed62bd6486159abd09e3", "fusion_lon": 0.0}, {"lat": 38.903761833333334, "type": "electric_scooter", "fusion_lat": 0.0, "is_disabled": 0, "name": "5b4c275158e1b02d71505a7965bc8a63", "is_reserved": 0, "rental_uris": {"ios": "https://dc.lft.to/lastmile_qr_scan", "android": "https://dc.lft.to/lastmile_qr_scan"}, "lon": -77.03673183333333, "bike_id": "5b4c275158e1b02d71505a7965bc8a63", "fusion_lon": 0.0}, {"lat": 38.921593666666666, "type": "electric_scooter", "fusion_lat": 0.0, "is_disabled": 0, "name": "052f45f4a8e18655741d62f1e72756ca", "is_reserved": 0, "rental_uris": {"ios": "https://dc.lft.to/lastmile_qr_scan", "android": "https://dc.lft.to/lastmile_qr_scan"}, "lon": -77.044447, "bike_id": "052f45f4a8e18655741d62f1e72756ca", "fusion_lon": 0.0}, {"lat": 38.90514483333333, "type": "electric_scooter", "fusion_lat": 0.0, "is_disabled": 0, "name": "eb1dde12875c24f2e248c7e18002a784", "is_reserved": 0, "rental_uris": {"ios": "https://dc.lft.to/lastmile_qr_scan", "android": "https://dc.lft.to/lastmile_qr_scan"}, "lon": -77.05150566666667, "bike_id": "eb1dde12875c24f2e248c7e18002a784", "fusion_lon": 0.0}, {"lat": 38.90817333333333, "type": "electric_scooter", "fusion_lat": 0.0, "is_disabled": 0, "name": "f6b205ccb1038398e739b8aeaebfaf4a", "is_reserved": 0, "rental_uris": {"ios": "https://dc.lft.to/lastmile_qr_scan", "android": "https://dc.lft.to/lastmile_qr_scan"}, "lon": -77.03450816666667, "bike_id": "f6b205ccb1038398e739b8aeaebfaf4a", "fusion_lon": 0.0}, {"lat": 38.8057875, "type": "electric_bike", "fusion_lat": 0.0, "is_disabled": 0, "name": "54d7d87246d47680920ea0199501b070", "is_reserved": 0, "rental_uris": {"ios": "https://dc.lft.to/lastmile_qr_scan", "android": "https://dc.lft.to/lastmile_qr_scan"}, "lon": -77.06068866666666, "bike_id": "54d7d87246d47680920ea0199501b070", "fusion_lon": 0.0}, {"lat": 38.8948155, "type": "electric_scooter", "fusion_lat": 0.0, "is_disabled": 0, "name": "68900da970016ca99b963dc707e210d1", "is_reserved": 0, "rental_uris": {"ios": "https://dc.lft.to/lastmile_qr_scan", "android": "https://dc.lft.to/lastmile_qr_scan"}, "lon": -76.9924745, "bike_id": "68900da970016ca99b963dc707e210d1", "fusion_lon": 0.0}, {"lat": 38.911773333333336, "type": "electric_bike", "fusion_lat": 0.0, "is_disabled": 0, "name": "4ec9f55f5ad844e8d08e75613fcd5fe1", "is_reserved": 0, "rental_uris": {"ios": "https://dc.lft.to/lastmile_qr_scan", "android": "https://dc.lft.to/lastmile_qr_scan"}, "lon": -77.08811083333333, "bike_id": "4ec9f55f5ad844e8d08e75613fcd5fe1", "fusion_lon": 0.0}, {"lat": 38.844297833333336, "type": "electric_scooter", "fusion_lat": 0.0, "is_disabled": 0, "name": "be3fb34179aa3212456384c5fa6b4b9b", "is_reserved": 0, "rental_uris": {"ios": "https://dc.lft.to/lastmile_qr_scan", "android": "https://dc.lft.to/lastmile_qr_scan"}, "lon": -76.9978045, "bike_id": "be3fb34179aa3212456384c5fa6b4b9b", "fusion_lon": 0.0}, {"lat": 38.8799945, "type": "electric_scooter", "fusion_lat": 0.0, "is_disabled": 0, "name": "c71cacaef1fbf7bfddb3f1085e5b6f6d", "is_reserved": 0, "rental_uris": {"ios": "https://dc.lft.to/lastmile_qr_scan", "android": "https://dc.lft.to/lastmile_qr_scan"}, "lon": -77.0240505, "bike_id": "c71cacaef1fbf7bfddb3f1085e5b6f6d", "fusion_lon": 0.0}, {"lat": 38.933714, "type": "electric_scooter", "fusion_lat": 0.0, "is_disabled": 0, "name": "b53b30de431572db0a2725fd9adc296c", "is_reserved": 0, "rental_uris": {"ios": "https://dc.lft.to/lastmile_qr_scan", "android": "https://dc.lft.to/lastmile_qr_scan"}, "lon": -76.99511033333333, "bike_id": "b53b30de431572db0a2725fd9adc296c", "fusion_lon": 0.0}, {"lat": 38.910638666666664, "type": "electric_scooter", "fusion_lat": 0.0, "is_disabled": 0, "name": "13d7c75bf0bb40e0334b637be7ccbb0c", "is_reserved": 0, "rental_uris": {"ios": "https://dc.lft.to/lastmile_qr_scan", "android": "https://dc.lft.to/lastmile_qr_scan"}, "lon": -77.04097266666666, "bike_id": "13d7c75bf0bb40e0334b637be7ccbb0c", "fusion_lon": 0.0}, {"lat": 38.86509083333333, "type": "electric_bike", "fusion_lat": 0.0, "is_disabled": 0, "name": "97af9d3c5ee1b083643ca93f80730579", "is_reserved": 0, "rental_uris": {"ios": "https://dc.lft.to/lastmile_qr_scan", "android": "https://dc.lft.to/lastmile_qr_scan"}, "lon": -76.97744233333333, "bike_id": "97af9d3c5ee1b083643ca93f80730579", "fusion_lon": 0.0}, {"lat": 38.928025166666664, "type": "electric_scooter", "fusion_lat": 0.0, "is_disabled": 0, "name": "6ad1ed74285c6df9a25632b1e06b7d58", "is_reserved": 0, "rental_uris": {"ios": "https://dc.lft.to/lastmile_qr_scan", "android": "https://dc.lft.to/lastmile_qr_scan"}, "lon": -77.0392795, "bike_id": "6ad1ed74285c6df9a25632b1e06b7d58", "fusion_lon": 0.0}, {"lat": 38.9072595, "type": "electric_scooter", "fusion_lat": 0.0, "is_disabled": 0, "name": "370453313c9e46f43e57a7761018b2e2", "is_reserved": 0, "rental_uris": {"ios": "https://dc.lft.to/lastmile_qr_scan", "android": "https://dc.lft.to/lastmile_qr_scan"}, "lon": -77.04874583333333, "bike_id": "370453313c9e46f43e57a7761018b2e2", "fusion_lon": 0.0}, {"lat": 38.891014, "type": "electric_scooter", "fusion_lat": 0.0, "is_disabled": 0, "name": "2db4d2698f6440c0c5cc95b5b1643bd9", "is_reserved": 0, "rental_uris": {"ios": "https://dc.lft.to/lastmile_qr_scan", "android": "https://dc.lft.to/lastmile_qr_scan"}, "lon": -76.95238633333334, "bike_id": "2db4d2698f6440c0c5cc95b5b1643bd9", "fusion_lon": 0.0}, {"lat": 38.922704833333334, "type": "electric_scooter", "fusion_lat": 0.0, "is_disabled": 0, "name": "22588eefd497ea9e092c761ae94932b0", "is_reserved": 0, "rental_uris": {"ios": "https://dc.lft.to/lastmile_qr_scan", "android": "https://dc.lft.to/lastmile_qr_scan"}, "lon": -77.01826916666667, "bike_id": "22588eefd497ea9e092c761ae94932b0", "fusion_lon": 0.0}, {"lat": 38.92650966666667, "type": "electric_scooter", "fusion_lat": 0.0, "is_disabled": 0, "name": "f68772e2154364e37e7a99895ba3eb7e", "is_reserved": 0, "rental_uris": {"ios": "https://dc.lft.to/lastmile_qr_scan", "android": "https://dc.lft.to/lastmile_qr_scan"}, "lon": -76.97619716666667, "bike_id": "f68772e2154364e37e7a99895ba3eb7e", "fusion_lon": 0.0}, {"lat": 38.902615833333336, "type": "electric_scooter", "fusion_lat": 0.0, "is_disabled": 0, "name": "96d4b6de9d85c1cf2f3f8b6b0b22913a", "is_reserved": 0, "rental_uris": {"ios": "https://dc.lft.to/lastmile_qr_scan", "android": "https://dc.lft.to/lastmile_qr_scan"}, "lon": -77.033853, "bike_id": "96d4b6de9d85c1cf2f3f8b6b0b22913a", "fusion_lon": 0.0}, {"lat": 38.92106916666667, "type": "electric_scooter", "fusion_lat": 0.0, "is_disabled": 0, "name": "d8eb4a4efcc934a36663550cb8f366f9", "is_reserved": 0, "rental_uris": {"ios": "https://dc.lft.to/lastmile_qr_scan", "android": "https://dc.lft.to/lastmile_qr_scan"}, "lon": -77.0317085, "bike_id": "d8eb4a4efcc934a36663550cb8f366f9", "fusion_lon": 0.0}, {"lat": 38.90041083333333, "type": "electric_scooter", "fusion_lat": 0.0, "is_disabled": 0, "name": "d0ee3d42008bffb5ec8ae7f0d4e186c0", "is_reserved": 0, "rental_uris": {"ios": "https://dc.lft.to/lastmile_qr_scan", "android": "https://dc.lft.to/lastmile_qr_scan"}, "lon": -77.00214966666667, "bike_id": "d0ee3d42008bffb5ec8ae7f0d4e186c0", "fusion_lon": 0.0}, {"lat": 38.892049666666665, "type": "electric_scooter", "fusion_lat": 0.0, "is_disabled": 0, "name": "b5c2e5e3618803be364066339f3f2044", "is_reserved": 0, "rental_uris": {"ios": "https://dc.lft.to/lastmile_qr_scan", "android": "https://dc.lft.to/lastmile_qr_scan"}, "lon": -77.031753, "bike_id": "b5c2e5e3618803be364066339f3f2044", "fusion_lon": 0.0}, {"lat": 38.904271, "type": "electric_scooter", "fusion_lat": 0.0, "is_disabled": 0, "name": "3995e66f1218ce2a6de421cf53767585", "is_reserved": 0, "rental_uris": {"ios": "https://dc.lft.to/lastmile_qr_scan", "android": "https://dc.lft.to/lastmile_qr_scan"}, "lon": -77.0467725, "bike_id": "3995e66f1218ce2a6de421cf53767585", "fusion_lon": 0.0}, {"lat": 38.92141633333333, "type": "electric_scooter", "fusion_lat": 0.0, "is_disabled": 0, "name": "1ee73adc24a562424ce95cd3f68f6174", "is_reserved": 0, "rental_uris": {"ios": "https://dc.lft.to/lastmile_qr_scan", "android": "https://dc.lft.to/lastmile_qr_scan"}, "lon": -77.04704333333333, "bike_id": "1ee73adc24a562424ce95cd3f68f6174", "fusion_lon": 0.0}, {"lat": 38.900224333333334, "type": "electric_scooter", "fusion_lat": 0.0, "is_disabled": 0, "name": "7f0ed909adb3bc3a0df7ed22fb4437e3", "is_reserved": 0, "rental_uris": {"ios": "https://dc.lft.to/lastmile_qr_scan", "android": "https://dc.lft.to/lastmile_qr_scan"}, "lon": -77.04275483333333, "bike_id": "7f0ed909adb3bc3a0df7ed22fb4437e3", "fusion_lon": 0.0}, {"lat": 38.92371816666667, "type": "electric_scooter", "fusion_lat": 0.0, "is_disabled": 0, "name": "0e1303579faa6d5d41e7c57a2f312a52", "is_reserved": 0, "rental_uris": {"ios": "https://dc.lft.to/lastmile_qr_scan", "android": "https://dc.lft.to/lastmile_qr_scan"}, "lon": -77.05148766666667, "bike_id": "0e1303579faa6d5d41e7c57a2f312a52", "fusion_lon": 0.0}, {"lat": 38.924833666666665, "type": "electric_scooter", "fusion_lat": 0.0, "is_disabled": 0, "name": "329f0d20ce2aa4cb51f4b44057567805", "is_reserved": 0, "rental_uris": {"ios": "https://dc.lft.to/lastmile_qr_scan", "android": "https://dc.lft.to/lastmile_qr_scan"}, "lon": -77.02222033333334, "bike_id": "329f0d20ce2aa4cb51f4b44057567805", "fusion_lon": 0.0}, {"lat": 38.9650175, "type": "electric_bike", "fusion_lat": 0.0, "is_disabled": 0, "name": "8440339fb4444a10bdbefa4350f56a8f", "is_reserved": 0, "rental_uris": {"ios": "https://dc.lft.to/lastmile_qr_scan", "android": "https://dc.lft.to/lastmile_qr_scan"}, "lon": -77.10736716666666, "bike_id": "8440339fb4444a10bdbefa4350f56a8f", "fusion_lon": 0.0}, {"lat": 38.93336466666667, "type": "electric_scooter", "fusion_lat": 0.0, "is_disabled": 0, "name": "ad62021fe466f22cf3b437c58fce016c", "is_reserved": 0, "rental_uris": {"ios": "https://dc.lft.to/lastmile_qr_scan", "android": "https://dc.lft.to/lastmile_qr_scan"}, "lon": -77.04348866666666, "bike_id": "ad62021fe466f22cf3b437c58fce016c", "fusion_lon": 0.0}, {"lat": 39.03555766666667, "type": "electric_bike", "fusion_lat": 0.0, "is_disabled": 0, "name": "5f52b6144b11e741b3a9f128b2f895a6", "is_reserved": 0, "rental_uris": {"ios": "https://dc.lft.to/lastmile_qr_scan", "android": "https://dc.lft.to/lastmile_qr_scan"}, "lon": -77.04982033333333, "bike_id": "5f52b6144b11e741b3a9f128b2f895a6", "fusion_lon": 0.0}, {"lat": 38.880379833333336, "type": "electric_scooter", "fusion_lat": 0.0, "is_disabled": 0, "name": "f8d3593dbcb1e8ecfe5bdc17117ce465", "is_reserved": 0, "rental_uris": {"ios": "https://dc.lft.to/lastmile_qr_scan", "android": "https://dc.lft.to/lastmile_qr_scan"}, "lon": -77.03080966666667, "bike_id": "f8d3593dbcb1e8ecfe5bdc17117ce465", "fusion_lon": 0.0}, {"lat": 38.920046666666664, "type": "electric_scooter", "fusion_lat": 0.0, "is_disabled": 0, "name": "0f4365de760649a7e6b5aea855749b01", "is_reserved": 0, "rental_uris": {"ios": "https://dc.lft.to/lastmile_qr_scan", "android": "https://dc.lft.to/lastmile_qr_scan"}, "lon": -77.032767, "bike_id": "0f4365de760649a7e6b5aea855749b01", "fusion_lon": 0.0}, {"lat": 38.91840583333333, "type": "electric_scooter", "fusion_lat": 0.0, "is_disabled": 0, "name": "f7d96d13236b69e76e7aa924bef68c13", "is_reserved": 0, "rental_uris": {"ios": "https://dc.lft.to/lastmile_qr_scan", "android": "https://dc.lft.to/lastmile_qr_scan"}, "lon": -77.0229135, "bike_id": "f7d96d13236b69e76e7aa924bef68c13", "fusion_lon": 0.0}, {"lat": 38.9085675, "type": "electric_scooter", "fusion_lat": 0.0, "is_disabled": 0, "name": "e6a9914e90750aba39fb4973a74baf87", "is_reserved": 0, "rental_uris": {"ios": "https://dc.lft.to/lastmile_qr_scan", "android": "https://dc.lft.to/lastmile_qr_scan"}, "lon": -77.04479083333334, "bike_id": "e6a9914e90750aba39fb4973a74baf87", "fusion_lon": 0.0}, {"lat": 38.943778333333334, "type": "electric_scooter", "fusion_lat": 0.0, "is_disabled": 0, "name": "a5ab8289bac18d63e81e23926e143381", "is_reserved": 0, "rental_uris": {"ios": "https://dc.lft.to/lastmile_qr_scan", "android": "https://dc.lft.to/lastmile_qr_scan"}, "lon": -77.02735166666666, "bike_id": "a5ab8289bac18d63e81e23926e143381", "fusion_lon": 0.0}, {"lat": 38.9204395, "type": "electric_scooter", "fusion_lat": 0.0, "is_disabled": 0, "name": "95a842cdd5e9cb4fabe690171a0fd51e", "is_reserved": 0, "rental_uris": {"ios": "https://dc.lft.to/lastmile_qr_scan", "android": "https://dc.lft.to/lastmile_qr_scan"}, "lon": -77.01792683333333, "bike_id": "95a842cdd5e9cb4fabe690171a0fd51e", "fusion_lon": 0.0}, {"lat": 38.9080975, "type": "electric_scooter", "fusion_lat": 0.0, "is_disabled": 0, "name": "82d51735bf5778cc9a7b331081f4859a", "is_reserved": 0, "rental_uris": {"ios": "https://dc.lft.to/lastmile_qr_scan", "android": "https://dc.lft.to/lastmile_qr_scan"}, "lon": -77.000587, "bike_id": "82d51735bf5778cc9a7b331081f4859a", "fusion_lon": 0.0}, {"lat": 38.8995535, "type": "electric_scooter", "fusion_lat": 0.0, "is_disabled": 0, "name": "f99f45214b84265925a2761092790f4d", "is_reserved": 0, "rental_uris": {"ios": "https://dc.lft.to/lastmile_qr_scan", "android": "https://dc.lft.to/lastmile_qr_scan"}, "lon": -77.04112566666667, "bike_id": "f99f45214b84265925a2761092790f4d", "fusion_lon": 0.0}, {"lat": 38.908903333333335, "type": "electric_scooter", "fusion_lat": 0.0, "is_disabled": 0, "name": "920c85826d846c7934bc31f0cb92ee6e", "is_reserved": 0, "rental_uris": {"ios": "https://dc.lft.to/lastmile_qr_scan", "android": "https://dc.lft.to/lastmile_qr_scan"}, "lon": -77.03836233333334, "bike_id": "920c85826d846c7934bc31f0cb92ee6e", "fusion_lon": 0.0}, {"lat": 38.90146383333333, "type": "electric_scooter", "fusion_lat": 0.0, "is_disabled": 0, "name": "8d331bf09b7e40f996de78ee979a3353", "is_reserved": 0, "rental_uris": {"ios": "https://dc.lft.to/lastmile_qr_scan", "android": "https://dc.lft.to/lastmile_qr_scan"}, "lon": -77.0327155, "bike_id": "8d331bf09b7e40f996de78ee979a3353", "fusion_lon": 0.0}, {"lat": 38.88749033333333, "type": "electric_scooter", "fusion_lat": 0.0, "is_disabled": 0, "name": "eef9b05d7ed7357f55216505fb30b032", "is_reserved": 0, "rental_uris": {"ios": "https://dc.lft.to/lastmile_qr_scan", "android": "https://dc.lft.to/lastmile_qr_scan"}, "lon": -77.03113233333333, "bike_id": "eef9b05d7ed7357f55216505fb30b032", "fusion_lon": 0.0}, {"lat": 38.9223145, "type": "electric_scooter", "fusion_lat": 0.0, "is_disabled": 0, "name": "457fe88dded6c5c4ce74317cbd648c5f", "is_reserved": 0, "rental_uris": {"ios": "https://dc.lft.to/lastmile_qr_scan", "android": "https://dc.lft.to/lastmile_qr_scan"}, "lon": -76.97534866666666, "bike_id": "457fe88dded6c5c4ce74317cbd648c5f", "fusion_lon": 0.0}, {"lat": 38.885525666666666, "type": "electric_scooter", "fusion_lat": 0.0, "is_disabled": 0, "name": "5b16811bfe9f5d8f0d8fb9acb46273e4", "is_reserved": 0, "rental_uris": {"ios": "https://dc.lft.to/lastmile_qr_scan", "android": "https://dc.lft.to/lastmile_qr_scan"}, "lon": -77.01210933333333, "bike_id": "5b16811bfe9f5d8f0d8fb9acb46273e4", "fusion_lon": 0.0}, {"lat": 38.91919583333333, "type": "electric_scooter", "fusion_lat": 0.0, "is_disabled": 0, "name": "331178eb4c7895d55cc2e52af8f1815b", "is_reserved": 0, "rental_uris": {"ios": "https://dc.lft.to/lastmile_qr_scan", "android": "https://dc.lft.to/lastmile_qr_scan"}, "lon": -77.03100466666666, "bike_id": "331178eb4c7895d55cc2e52af8f1815b", "fusion_lon": 0.0}, {"lat": 38.876567666666666, "type": "electric_scooter", "fusion_lat": 0.0, "is_disabled": 0, "name": "0f9128c11c1cd1305ffdd8ab68877bec", "is_reserved": 0, "rental_uris": {"ios": "https://dc.lft.to/lastmile_qr_scan", "android": "https://dc.lft.to/lastmile_qr_scan"}, "lon": -77.01578266666667, "bike_id": "0f9128c11c1cd1305ffdd8ab68877bec", "fusion_lon": 0.0}, {"lat": 38.865565833333335, "type": "electric_scooter", "fusion_lat": 0.0, "is_disabled": 0, "name": "20f0967a00f9c25efdd3f000deea8e36", "is_reserved": 0, "rental_uris": {"ios": "https://dc.lft.to/lastmile_qr_scan", "android": "https://dc.lft.to/lastmile_qr_scan"}, "lon": -76.98936083333334, "bike_id": "20f0967a00f9c25efdd3f000deea8e36", "fusion_lon": 0.0}, {"lat": 38.900345, "type": "electric_scooter", "fusion_lat": 0.0, "is_disabled": 0, "name": "ec686e0a173060c9c3bc24ae0c720be8", "is_reserved": 0, "rental_uris": {"ios": "https://dc.lft.to/lastmile_qr_scan", "android": "https://dc.lft.to/lastmile_qr_scan"}, "lon": -77.0112345, "bike_id": "ec686e0a173060c9c3bc24ae0c720be8", "fusion_lon": 0.0}, {"lat": 38.90121883333333, "type": "electric_scooter", "fusion_lat": 0.0, "is_disabled": 0, "name": "9b9cf6261bd441f866c4805c9b3c7fa7", "is_reserved": 0, "rental_uris": {"ios": "https://dc.lft.to/lastmile_qr_scan", "android": "https://dc.lft.to/lastmile_qr_scan"}, "lon": -77.05005016666667, "bike_id": "9b9cf6261bd441f866c4805c9b3c7fa7", "fusion_lon": 0.0}, {"lat": 38.92963433333333, "type": "electric_scooter", "fusion_lat": 0.0, "is_disabled": 0, "name": "e54bfd189a75119d131c538ad375145b", "is_reserved": 0, "rental_uris": {"ios": "https://dc.lft.to/lastmile_qr_scan", "android": "https://dc.lft.to/lastmile_qr_scan"}, "lon": -77.03144166666667, "bike_id": "e54bfd189a75119d131c538ad375145b", "fusion_lon": 0.0}, {"lat": 38.89688816666666, "type": "electric_scooter", "fusion_lat": 0.0, "is_disabled": 0, "name": "aa661a127536b88e8e72be43a7b2f177", "is_reserved": 0, "rental_uris": {"ios": "https://dc.lft.to/lastmile_qr_scan", "android": "https://dc.lft.to/lastmile_qr_scan"}, "lon": -77.0120245, "bike_id": "aa661a127536b88e8e72be43a7b2f177", "fusion_lon": 0.0}, {"lat": 38.909165333333334, "type": "electric_scooter", "fusion_lat": 0.0, "is_disabled": 0, "name": "f61ec7f8da56fe160d3f174ba65e19d0", "is_reserved": 0, "rental_uris": {"ios": "https://dc.lft.to/lastmile_qr_scan", "android": "https://dc.lft.to/lastmile_qr_scan"}, "lon": -77.00696366666666, "bike_id": "f61ec7f8da56fe160d3f174ba65e19d0", "fusion_lon": 0.0}, {"lat": 38.90856433333333, "type": "electric_scooter", "fusion_lat": 0.0, "is_disabled": 0, "name": "86a92ebacb0fbe78e0ca43df00f6a28c", "is_reserved": 0, "rental_uris": {"ios": "https://dc.lft.to/lastmile_qr_scan", "android": "https://dc.lft.to/lastmile_qr_scan"}, "lon": -77.03989116666666, "bike_id": "86a92ebacb0fbe78e0ca43df00f6a28c", "fusion_lon": 0.0}, {"lat": 38.923335, "type": "electric_scooter", "fusion_lat": 0.0, "is_disabled": 0, "name": "fc2ea7a30beb13c4a0ae4ff879a1edb8", "is_reserved": 0, "rental_uris": {"ios": "https://dc.lft.to/lastmile_qr_scan", "android": "https://dc.lft.to/lastmile_qr_scan"}, "lon": -77.0195975, "bike_id": "fc2ea7a30beb13c4a0ae4ff879a1edb8", "fusion_lon": 0.0}, {"lat": 38.905047833333334, "type": "electric_bike", "fusion_lat": 0.0, "is_disabled": 0, "name": "3b418ec14d44a8431803277683632841", "is_reserved": 0, "rental_uris": {"ios": "https://dc.lft.to/lastmile_qr_scan", "android": "https://dc.lft.to/lastmile_qr_scan"}, "lon": -76.99806416666667, "bike_id": "3b418ec14d44a8431803277683632841", "fusion_lon": 0.0}, {"lat": 38.87786916666667, "type": "electric_scooter", "fusion_lat": 0.0, "is_disabled": 0, "name": "d0a2122e6e27fe6cf2f2af4cd9c99f15", "is_reserved": 0, "rental_uris": {"ios": "https://dc.lft.to/lastmile_qr_scan", "android": "https://dc.lft.to/lastmile_qr_scan"}, "lon": -76.99408383333333, "bike_id": "d0a2122e6e27fe6cf2f2af4cd9c99f15", "fusion_lon": 0.0}, {"lat": 38.882922666666666, "type": "electric_scooter", "fusion_lat": 0.0, "is_disabled": 0, "name": "142ebf933084fed58122385076bf50d8", "is_reserved": 0, "rental_uris": {"ios": "https://dc.lft.to/lastmile_qr_scan", "android": "https://dc.lft.to/lastmile_qr_scan"}, "lon": -77.02404483333333, "bike_id": "142ebf933084fed58122385076bf50d8", "fusion_lon": 0.0}, {"lat": 39.042396833333335, "type": "electric_bike", "fusion_lat": 0.0, "is_disabled": 0, "name": "19f263a7c4dbb7c1b925ed914570d83a", "is_reserved": 0, "rental_uris": {"ios": "https://dc.lft.to/lastmile_qr_scan", "android": "https://dc.lft.to/lastmile_qr_scan"}, "lon": -76.997404, "bike_id": "19f263a7c4dbb7c1b925ed914570d83a", "fusion_lon": 0.0}, {"lat": 38.95091716666667, "type": "electric_scooter", "fusion_lat": 0.0, "is_disabled": 0, "name": "16c091db3f2861691fc4b3c041f3598f", "is_reserved": 0, "rental_uris": {"ios": "https://dc.lft.to/lastmile_qr_scan", "android": "https://dc.lft.to/lastmile_qr_scan"}, "lon": -77.02820166666666, "bike_id": "16c091db3f2861691fc4b3c041f3598f", "fusion_lon": 0.0}, {"lat": 38.893736833333335, "type": "electric_scooter", "fusion_lat": 0.0, "is_disabled": 0, "name": "403116a8df96b0ba8df7fb8ce568354e", "is_reserved": 0, "rental_uris": {"ios": "https://dc.lft.to/lastmile_qr_scan", "android": "https://dc.lft.to/lastmile_qr_scan"}, "lon": -76.9497255, "bike_id": "403116a8df96b0ba8df7fb8ce568354e", "fusion_lon": 0.0}, {"lat": 38.896866833333334, "type": "electric_scooter", "fusion_lat": 0.0, "is_disabled": 0, "name": "fe4d6a6118de3fe9f6ccdb797b95cc13", "is_reserved": 0, "rental_uris": {"ios": "https://dc.lft.to/lastmile_qr_scan", "android": "https://dc.lft.to/lastmile_qr_scan"}, "lon": -76.935354, "bike_id": "fe4d6a6118de3fe9f6ccdb797b95cc13", "fusion_lon": 0.0}, {"lat": 38.908039, "type": "electric_scooter", "fusion_lat": 0.0, "is_disabled": 0, "name": "a3a91e9ce444a56d6fa321ac1555c20e", "is_reserved": 0, "rental_uris": {"ios": "https://dc.lft.to/lastmile_qr_scan", "android": "https://dc.lft.to/lastmile_qr_scan"}, "lon": -77.0237965, "bike_id": "a3a91e9ce444a56d6fa321ac1555c20e", "fusion_lon": 0.0}, {"lat": 38.9073845, "type": "electric_scooter", "fusion_lat": 0.0, "is_disabled": 0, "name": "04252c3bbaf97a3540cf03b7ad2c285c", "is_reserved": 0, "rental_uris": {"ios": "https://dc.lft.to/lastmile_qr_scan", "android": "https://dc.lft.to/lastmile_qr_scan"}, "lon": -77.03449916666666, "bike_id": "04252c3bbaf97a3540cf03b7ad2c285c", "fusion_lon": 0.0}, {"lat": 38.92455616666667, "type": "electric_scooter", "fusion_lat": 0.0, "is_disabled": 0, "name": "a8619ed525ca0363885fe959b0222cb0", "is_reserved": 0, "rental_uris": {"ios": "https://dc.lft.to/lastmile_qr_scan", "android": "https://dc.lft.to/lastmile_qr_scan"}, "lon": -77.02977383333334, "bike_id": "a8619ed525ca0363885fe959b0222cb0", "fusion_lon": 0.0}, {"lat": 38.9130365, "type": "electric_scooter", "fusion_lat": 0.0, "is_disabled": 0, "name": "866674ac15d9010d369e107c132f94ba", "is_reserved": 0, "rental_uris": {"ios": "https://dc.lft.to/lastmile_qr_scan", "android": "https://dc.lft.to/lastmile_qr_scan"}, "lon": -77.03206216666666, "bike_id": "866674ac15d9010d369e107c132f94ba", "fusion_lon": 0.0}, {"lat": 38.912664166666666, "type": "electric_scooter", "fusion_lat": 0.0, "is_disabled": 0, "name": "ef16d4b40be2e64cbeb0ca67c9088b04", "is_reserved": 0, "rental_uris": {"ios": "https://dc.lft.to/lastmile_qr_scan", "android": "https://dc.lft.to/lastmile_qr_scan"}, "lon": -77.03830266666667, "bike_id": "ef16d4b40be2e64cbeb0ca67c9088b04", "fusion_lon": 0.0}, {"lat": 38.88611383333333, "type": "electric_scooter", "fusion_lat": 0.0, "is_disabled": 0, "name": "daec7faad3c1a15f0dd87525ba9af77e", "is_reserved": 0, "rental_uris": {"ios": "https://dc.lft.to/lastmile_qr_scan", "android": "https://dc.lft.to/lastmile_qr_scan"}, "lon": -77.01777533333333, "bike_id": "daec7faad3c1a15f0dd87525ba9af77e", "fusion_lon": 0.0}, {"lat": 38.912541833333336, "type": "electric_scooter", "fusion_lat": 0.0, "is_disabled": 0, "name": "f6e1ae2373474d2fb227db7b6ce338f1", "is_reserved": 0, "rental_uris": {"ios": "https://dc.lft.to/lastmile_qr_scan", "android": "https://dc.lft.to/lastmile_qr_scan"}, "lon": -77.04162416666667, "bike_id": "f6e1ae2373474d2fb227db7b6ce338f1", "fusion_lon": 0.0}, {"lat": 38.88768483333333, "type": "electric_scooter", "fusion_lat": 0.0, "is_disabled": 0, "name": "4877431fac0af95dbb7ce083671e14f0", "is_reserved": 0, "rental_uris": {"ios": "https://dc.lft.to/lastmile_qr_scan", "android": "https://dc.lft.to/lastmile_qr_scan"}, "lon": -77.02218383333333, "bike_id": "4877431fac0af95dbb7ce083671e14f0", "fusion_lon": 0.0}, {"lat": 38.884204, "type": "electric_scooter", "fusion_lat": 0.0, "is_disabled": 0, "name": "7b747f1f90cba4fa4985d839448636c6", "is_reserved": 0, "rental_uris": {"ios": "https://dc.lft.to/lastmile_qr_scan", "android": "https://dc.lft.to/lastmile_qr_scan"}, "lon": -77.02433616666667, "bike_id": "7b747f1f90cba4fa4985d839448636c6", "fusion_lon": 0.0}, {"lat": 38.91403733333333, "type": "electric_scooter", "fusion_lat": 0.0, "is_disabled": 0, "name": "c666692db6277b19c3ab8ecbb8fa9c87", "is_reserved": 0, "rental_uris": {"ios": "https://dc.lft.to/lastmile_qr_scan", "android": "https://dc.lft.to/lastmile_qr_scan"}, "lon": -77.0480905, "bike_id": "c666692db6277b19c3ab8ecbb8fa9c87", "fusion_lon": 0.0}, {"lat": 38.88864133333333, "type": "electric_scooter", "fusion_lat": 0.0, "is_disabled": 0, "name": "68489cd2139d088f180fdc7381b49c59", "is_reserved": 0, "rental_uris": {"ios": "https://dc.lft.to/lastmile_qr_scan", "android": "https://dc.lft.to/lastmile_qr_scan"}, "lon": -76.98239533333333, "bike_id": "68489cd2139d088f180fdc7381b49c59", "fusion_lon": 0.0}, {"lat": 38.905911333333336, "type": "electric_scooter", "fusion_lat": 0.0, "is_disabled": 0, "name": "e899221f08eb43127c731b83a423b357", "is_reserved": 0, "rental_uris": {"ios": "https://dc.lft.to/lastmile_qr_scan", "android": "https://dc.lft.to/lastmile_qr_scan"}, "lon": -77.04026883333333, "bike_id": "e899221f08eb43127c731b83a423b357", "fusion_lon": 0.0}, {"lat": 38.892273333333335, "type": "electric_scooter", "fusion_lat": 0.0, "is_disabled": 0, "name": "70840b4edbcd5a523b46742477081b13", "is_reserved": 0, "rental_uris": {"ios": "https://dc.lft.to/lastmile_qr_scan", "android": "https://dc.lft.to/lastmile_qr_scan"}, "lon": -77.0418255, "bike_id": "70840b4edbcd5a523b46742477081b13", "fusion_lon": 0.0}, {"lat": 38.905326333333335, "type": "electric_bike", "fusion_lat": 0.0, "is_disabled": 0, "name": "744295889ee764438ead1efc42e59ec9", "is_reserved": 0, "rental_uris": {"ios": "https://dc.lft.to/lastmile_qr_scan", "android": "https://dc.lft.to/lastmile_qr_scan"}, "lon": -77.059344, "bike_id": "744295889ee764438ead1efc42e59ec9", "fusion_lon": 0.0}, {"lat": 38.9101485, "type": "electric_scooter", "fusion_lat": 0.0, "is_disabled": 0, "name": "29aad16bc54c48eb3e2af72841a4bcc8", "is_reserved": 0, "rental_uris": {"ios": "https://dc.lft.to/lastmile_qr_scan", "android": "https://dc.lft.to/lastmile_qr_scan"}, "lon": -77.02201433333333, "bike_id": "29aad16bc54c48eb3e2af72841a4bcc8", "fusion_lon": 0.0}, {"lat": 38.892965333333336, "type": "electric_scooter", "fusion_lat": 0.0, "is_disabled": 0, "name": "21338381c95926fd0e736bca24c72214", "is_reserved": 0, "rental_uris": {"ios": "https://dc.lft.to/lastmile_qr_scan", "android": "https://dc.lft.to/lastmile_qr_scan"}, "lon": -77.02206966666667, "bike_id": "21338381c95926fd0e736bca24c72214", "fusion_lon": 0.0}, {"lat": 38.9420375, "type": "electric_scooter", "fusion_lat": 0.0, "is_disabled": 0, "name": "0e7dddf61b4295830eee7a4305f0c380", "is_reserved": 0, "rental_uris": {"ios": "https://dc.lft.to/lastmile_qr_scan", "android": "https://dc.lft.to/lastmile_qr_scan"}, "lon": -77.0259385, "bike_id": "0e7dddf61b4295830eee7a4305f0c380", "fusion_lon": 0.0}, {"lat": 38.9011015, "type": "electric_scooter", "fusion_lat": 0.0, "is_disabled": 0, "name": "05d944b99ffecb39cea2f5641331f08a", "is_reserved": 0, "rental_uris": {"ios": "https://dc.lft.to/lastmile_qr_scan", "android": "https://dc.lft.to/lastmile_qr_scan"}, "lon": -77.03173666666666, "bike_id": "05d944b99ffecb39cea2f5641331f08a", "fusion_lon": 0.0}, {"lat": 38.900965666666664, "type": "electric_scooter", "fusion_lat": 0.0, "is_disabled": 0, "name": "169a1ab3e11d4a22b748f5a23e731306", "is_reserved": 0, "rental_uris": {"ios": "https://dc.lft.to/lastmile_qr_scan", "android": "https://dc.lft.to/lastmile_qr_scan"}, "lon": -76.98837216666666, "bike_id": "169a1ab3e11d4a22b748f5a23e731306", "fusion_lon": 0.0}, {"lat": 38.896260833333336, "type": "electric_scooter", "fusion_lat": 0.0, "is_disabled": 0, "name": "7966acc5348587bd1ac2cdb985c976ec", "is_reserved": 0, "rental_uris": {"ios": "https://dc.lft.to/lastmile_qr_scan", "android": "https://dc.lft.to/lastmile_qr_scan"}, "lon": -77.03184883333333, "bike_id": "7966acc5348587bd1ac2cdb985c976ec", "fusion_lon": 0.0}, {"lat": 38.89655366666667, "type": "electric_scooter", "fusion_lat": 0.0, "is_disabled": 0, "name": "ec8d01280b260e4aafd89a5a92541343", "is_reserved": 0, "rental_uris": {"ios": "https://dc.lft.to/lastmile_qr_scan", "android": "https://dc.lft.to/lastmile_qr_scan"}, "lon": -77.02718916666667, "bike_id": "ec8d01280b260e4aafd89a5a92541343", "fusion_lon": 0.0}, {"lat": 38.90268983333333, "type": "electric_scooter", "fusion_lat": 0.0, "is_disabled": 0, "name": "f22b4082153c18a1f23c41dc33bcd21f", "is_reserved": 0, "rental_uris": {"ios": "https://dc.lft.to/lastmile_qr_scan", "android": "https://dc.lft.to/lastmile_qr_scan"}, "lon": -77.03381933333333, "bike_id": "f22b4082153c18a1f23c41dc33bcd21f", "fusion_lon": 0.0}, {"lat": 38.922775666666666, "type": "electric_scooter", "fusion_lat": 0.0, "is_disabled": 0, "name": "fabb178ff7b2bba8f9612182ae760b59", "is_reserved": 0, "rental_uris": {"ios": "https://dc.lft.to/lastmile_qr_scan", "android": "https://dc.lft.to/lastmile_qr_scan"}, "lon": -77.03417083333333, "bike_id": "fabb178ff7b2bba8f9612182ae760b59", "fusion_lon": 0.0}, {"lat": 38.90226916666667, "type": "electric_scooter", "fusion_lat": 0.0, "is_disabled": 0, "name": "03bfdc9046a6617886473c2dc8479b07", "is_reserved": 0, "rental_uris": {"ios": "https://dc.lft.to/lastmile_qr_scan", "android": "https://dc.lft.to/lastmile_qr_scan"}, "lon": -77.04570466666667, "bike_id": "03bfdc9046a6617886473c2dc8479b07", "fusion_lon": 0.0}, {"lat": 38.907303, "type": "electric_scooter", "fusion_lat": 0.0, "is_disabled": 0, "name": "af540ffbf3ff41a986dab6ff1312be7c", "is_reserved": 0, "rental_uris": {"ios": "https://dc.lft.to/lastmile_qr_scan", "android": "https://dc.lft.to/lastmile_qr_scan"}, "lon": -77.03213083333333, "bike_id": "af540ffbf3ff41a986dab6ff1312be7c", "fusion_lon": 0.0}, {"lat": 38.919287833333335, "type": "electric_scooter", "fusion_lat": 0.0, "is_disabled": 0, "name": "bc9933fde68e4489f4e5a00c1b4a77ca", "is_reserved": 0, "rental_uris": {"ios": "https://dc.lft.to/lastmile_qr_scan", "android": "https://dc.lft.to/lastmile_qr_scan"}, "lon": -76.99953366666666, "bike_id": "bc9933fde68e4489f4e5a00c1b4a77ca", "fusion_lon": 0.0}, {"lat": 38.892234333333334, "type": "electric_scooter", "fusion_lat": 0.0, "is_disabled": 0, "name": "bec92daaf151706c478d84d3dd3c501c", "is_reserved": 0, "rental_uris": {"ios": "https://dc.lft.to/lastmile_qr_scan", "android": "https://dc.lft.to/lastmile_qr_scan"}, "lon": -77.04644466666667, "bike_id": "bec92daaf151706c478d84d3dd3c501c", "fusion_lon": 0.0}, {"lat": 38.89729783333333, "type": "electric_scooter", "fusion_lat": 0.0, "is_disabled": 0, "name": "0500f51603896fd944ffecaeccbbff7b", "is_reserved": 0, "rental_uris": {"ios": "https://dc.lft.to/lastmile_qr_scan", "android": "https://dc.lft.to/lastmile_qr_scan"}, "lon": -77.02163666666667, "bike_id": "0500f51603896fd944ffecaeccbbff7b", "fusion_lon": 0.0}, {"lat": 38.8947795, "type": "electric_scooter", "fusion_lat": 0.0, "is_disabled": 0, "name": "f2a7e6428e428ee88b542232843ab370", "is_reserved": 0, "rental_uris": {"ios": "https://dc.lft.to/lastmile_qr_scan", "android": "https://dc.lft.to/lastmile_qr_scan"}, "lon": -77.00612883333334, "bike_id": "f2a7e6428e428ee88b542232843ab370", "fusion_lon": 0.0}, {"lat": 38.920246666666664, "type": "electric_scooter", "fusion_lat": 0.0, "is_disabled": 0, "name": "ee1ea10c456a4343ca24e2551797b3db", "is_reserved": 0, "rental_uris": {"ios": "https://dc.lft.to/lastmile_qr_scan", "android": "https://dc.lft.to/lastmile_qr_scan"}, "lon": -77.03131166666667, "bike_id": "ee1ea10c456a4343ca24e2551797b3db", "fusion_lon": 0.0}, {"lat": 38.9298855, "type": "electric_scooter", "fusion_lat": 0.0, "is_disabled": 0, "name": "7b2aad6e814d0e32394959b56fa03210", "is_reserved": 0, "rental_uris": {"ios": "https://dc.lft.to/lastmile_qr_scan", "android": "https://dc.lft.to/lastmile_qr_scan"}, "lon": -77.032014, "bike_id": "7b2aad6e814d0e32394959b56fa03210", "fusion_lon": 0.0}, {"lat": 38.904090833333335, "type": "electric_scooter", "fusion_lat": 0.0, "is_disabled": 0, "name": "812c3b7227957d4d6975a3eda42cea82", "is_reserved": 0, "rental_uris": {"ios": "https://dc.lft.to/lastmile_qr_scan", "android": "https://dc.lft.to/lastmile_qr_scan"}, "lon": -77.0250755, "bike_id": "812c3b7227957d4d6975a3eda42cea82", "fusion_lon": 0.0}, {"lat": 38.918302833333335, "type": "electric_scooter", "fusion_lat": 0.0, "is_disabled": 0, "name": "398907faf983884f684c1a495c37c071", "is_reserved": 0, "rental_uris": {"ios": "https://dc.lft.to/lastmile_qr_scan", "android": "https://dc.lft.to/lastmile_qr_scan"}, "lon": -77.0321455, "bike_id": "398907faf983884f684c1a495c37c071", "fusion_lon": 0.0}, {"lat": 38.903846333333334, "type": "electric_scooter", "fusion_lat": 0.0, "is_disabled": 0, "name": "018573848693c6c87ce2f37274303270", "is_reserved": 0, "rental_uris": {"ios": "https://dc.lft.to/lastmile_qr_scan", "android": "https://dc.lft.to/lastmile_qr_scan"}, "lon": -77.03851766666666, "bike_id": "018573848693c6c87ce2f37274303270", "fusion_lon": 0.0}, {"lat": 38.894846, "type": "electric_scooter", "fusion_lat": 0.0, "is_disabled": 0, "name": "186fa82410322eaf66c2c90f30445122", "is_reserved": 0, "rental_uris": {"ios": "https://dc.lft.to/lastmile_qr_scan", "android": "https://dc.lft.to/lastmile_qr_scan"}, "lon": -77.01103783333333, "bike_id": "186fa82410322eaf66c2c90f30445122", "fusion_lon": 0.0}, {"lat": 38.843760833333334, "type": "electric_bike", "fusion_lat": 0.0, "is_disabled": 0, "name": "8769c99d8d40c467ecea573b84b40316", "is_reserved": 0, "rental_uris": {"ios": "https://dc.lft.to/lastmile_qr_scan", "android": "https://dc.lft.to/lastmile_qr_scan"}, "lon": -76.9783005, "bike_id": "8769c99d8d40c467ecea573b84b40316", "fusion_lon": 0.0}, {"lat": 38.8544535, "type": "electric_bike", "fusion_lat": 0.0, "is_disabled": 0, "name": "9c2f04c37660b34407117eb320817fce", "is_reserved": 0, "rental_uris": {"ios": "https://dc.lft.to/lastmile_qr_scan", "android": "https://dc.lft.to/lastmile_qr_scan"}, "lon": -77.083363, "bike_id": "9c2f04c37660b34407117eb320817fce", "fusion_lon": 0.0}, {"lat": 38.9199485, "type": "electric_scooter", "fusion_lat": 0.0, "is_disabled": 0, "name": "ca70c0c8ff270ba889188ced2de04cd4", "is_reserved": 0, "rental_uris": {"ios": "https://dc.lft.to/lastmile_qr_scan", "android": "https://dc.lft.to/lastmile_qr_scan"}, "lon": -77.03247666666667, "bike_id": "ca70c0c8ff270ba889188ced2de04cd4", "fusion_lon": 0.0}, {"lat": 38.89612483333333, "type": "electric_scooter", "fusion_lat": 0.0, "is_disabled": 0, "name": "71db3a6b8e866739d6853936423f10fa", "is_reserved": 0, "rental_uris": {"ios": "https://dc.lft.to/lastmile_qr_scan", "android": "https://dc.lft.to/lastmile_qr_scan"}, "lon": -77.04557683333333, "bike_id": "71db3a6b8e866739d6853936423f10fa", "fusion_lon": 0.0}, {"lat": 38.992279833333335, "type": "electric_scooter", "fusion_lat": 0.0, "is_disabled": 0, "name": "c6aa7d43321a5a61863aa211551e1d68", "is_reserved": 0, "rental_uris": {"ios": "https://dc.lft.to/lastmile_qr_scan", "android": "https://dc.lft.to/lastmile_qr_scan"}, "lon": -77.03588816666667, "bike_id": "c6aa7d43321a5a61863aa211551e1d68", "fusion_lon": 0.0}, {"lat": 38.91744083333333, "type": "electric_scooter", "fusion_lat": 0.0, "is_disabled": 0, "name": "2e4831afa136c1c162d9e4c338312ac5", "is_reserved": 0, "rental_uris": {"ios": "https://dc.lft.to/lastmile_qr_scan", "android": "https://dc.lft.to/lastmile_qr_scan"}, "lon": -77.0320305, "bike_id": "2e4831afa136c1c162d9e4c338312ac5", "fusion_lon": 0.0}, {"lat": 38.851792833333334, "type": "electric_bike", "fusion_lat": 0.0, "is_disabled": 0, "name": "82e1be538391e682b9ce0b9e47d28a86", "is_reserved": 0, "rental_uris": {"ios": "https://dc.lft.to/lastmile_qr_scan", "android": "https://dc.lft.to/lastmile_qr_scan"}, "lon": -76.9957005, "bike_id": "82e1be538391e682b9ce0b9e47d28a86", "fusion_lon": 0.0}, {"lat": 38.94990633333333, "type": "electric_scooter", "fusion_lat": 0.0, "is_disabled": 0, "name": "8d271b0219bc5583ede46ac7aebf3873", "is_reserved": 0, "rental_uris": {"ios": "https://dc.lft.to/lastmile_qr_scan", "android": "https://dc.lft.to/lastmile_qr_scan"}, "lon": -77.02704183333333, "bike_id": "8d271b0219bc5583ede46ac7aebf3873", "fusion_lon": 0.0}, {"lat": 38.89222616666667, "type": "electric_scooter", "fusion_lat": 0.0, "is_disabled": 0, "name": "c1121f88235826a4c4fdb5fa25c4ec0b", "is_reserved": 0, "rental_uris": {"ios": "https://dc.lft.to/lastmile_qr_scan", "android": "https://dc.lft.to/lastmile_qr_scan"}, "lon": -77.02624416666667, "bike_id": "c1121f88235826a4c4fdb5fa25c4ec0b", "fusion_lon": 0.0}, {"lat": 38.932682166666666, "type": "electric_scooter", "fusion_lat": 0.0, "is_disabled": 0, "name": "0761f898365d83813cb25621caab9360", "is_reserved": 0, "rental_uris": {"ios": "https://dc.lft.to/lastmile_qr_scan", "android": "https://dc.lft.to/lastmile_qr_scan"}, "lon": -77.028783, "bike_id": "0761f898365d83813cb25621caab9360", "fusion_lon": 0.0}, {"lat": 38.8719, "type": "electric_scooter", "fusion_lat": 0.0, "is_disabled": 0, "name": "1f9e9f8bee2faabab1482fabe3bd4f05", "is_reserved": 0, "rental_uris": {"ios": "https://dc.lft.to/lastmile_qr_scan", "android": "https://dc.lft.to/lastmile_qr_scan"}, "lon": -77.00600033333333, "bike_id": "1f9e9f8bee2faabab1482fabe3bd4f05", "fusion_lon": 0.0}, {"lat": 38.9112065, "type": "electric_scooter", "fusion_lat": 0.0, "is_disabled": 0, "name": "9bc8b8947c1729329d2108d77c932c80", "is_reserved": 0, "rental_uris": {"ios": "https://dc.lft.to/lastmile_qr_scan", "android": "https://dc.lft.to/lastmile_qr_scan"}, "lon": -77.03886366666667, "bike_id": "9bc8b8947c1729329d2108d77c932c80", "fusion_lon": 0.0}, {"lat": 38.88746866666666, "type": "electric_scooter", "fusion_lat": 0.0, "is_disabled": 0, "name": "0a261a9e1a9be6e10fc5eaf4dc675231", "is_reserved": 0, "rental_uris": {"ios": "https://dc.lft.to/lastmile_qr_scan", "android": "https://dc.lft.to/lastmile_qr_scan"}, "lon": -77.021603, "bike_id": "0a261a9e1a9be6e10fc5eaf4dc675231", "fusion_lon": 0.0}, {"lat": 38.904740833333335, "type": "electric_scooter", "fusion_lat": 0.0, "is_disabled": 0, "name": "2db2917d675a6ce9c9897e77fe120413", "is_reserved": 0, "rental_uris": {"ios": "https://dc.lft.to/lastmile_qr_scan", "android": "https://dc.lft.to/lastmile_qr_scan"}, "lon": -77.04862966666667, "bike_id": "2db2917d675a6ce9c9897e77fe120413", "fusion_lon": 0.0}, {"lat": 38.907011, "type": "electric_scooter", "fusion_lat": 0.0, "is_disabled": 0, "name": "295c749ab29498fbee62c7e2a2552cd2", "is_reserved": 0, "rental_uris": {"ios": "https://dc.lft.to/lastmile_qr_scan", "android": "https://dc.lft.to/lastmile_qr_scan"}, "lon": -76.999388, "bike_id": "295c749ab29498fbee62c7e2a2552cd2", "fusion_lon": 0.0}, {"lat": 38.89038466666667, "type": "electric_scooter", "fusion_lat": 0.0, "is_disabled": 0, "name": "ccd29d3147d9af8f86a2f383fdcc6812", "is_reserved": 0, "rental_uris": {"ios": "https://dc.lft.to/lastmile_qr_scan", "android": "https://dc.lft.to/lastmile_qr_scan"}, "lon": -76.9375275, "bike_id": "ccd29d3147d9af8f86a2f383fdcc6812", "fusion_lon": 0.0}, {"lat": 38.907766333333335, "type": "electric_scooter", "fusion_lat": 0.0, "is_disabled": 0, "name": "39290dfada71ca48b71efea773a771d9", "is_reserved": 0, "rental_uris": {"ios": "https://dc.lft.to/lastmile_qr_scan", "android": "https://dc.lft.to/lastmile_qr_scan"}, "lon": -77.04007166666666, "bike_id": "39290dfada71ca48b71efea773a771d9", "fusion_lon": 0.0}, {"lat": 38.907765833333336, "type": "electric_scooter", "fusion_lat": 0.0, "is_disabled": 0, "name": "889dbbcc6c16f05f6551e0af1eaf1e96", "is_reserved": 0, "rental_uris": {"ios": "https://dc.lft.to/lastmile_qr_scan", "android": "https://dc.lft.to/lastmile_qr_scan"}, "lon": -77.037626, "bike_id": "889dbbcc6c16f05f6551e0af1eaf1e96", "fusion_lon": 0.0}, {"lat": 38.887433, "type": "electric_scooter", "fusion_lat": 0.0, "is_disabled": 0, "name": "84a856c38a9e0f997d07089a54a2b735", "is_reserved": 0, "rental_uris": {"ios": "https://dc.lft.to/lastmile_qr_scan", "android": "https://dc.lft.to/lastmile_qr_scan"}, "lon": -77.03178733333333, "bike_id": "84a856c38a9e0f997d07089a54a2b735", "fusion_lon": 0.0}, {"lat": 38.885349, "type": "electric_scooter", "fusion_lat": 0.0, "is_disabled": 0, "name": "367af538e0833617a20cc794a44f6914", "is_reserved": 0, "rental_uris": {"ios": "https://dc.lft.to/lastmile_qr_scan", "android": "https://dc.lft.to/lastmile_qr_scan"}, "lon": -76.99831, "bike_id": "367af538e0833617a20cc794a44f6914", "fusion_lon": 0.0}, {"lat": 38.9065335, "type": "electric_scooter", "fusion_lat": 0.0, "is_disabled": 0, "name": "88804c8abbc5ed73c35e192222d0418e", "is_reserved": 0, "rental_uris": {"ios": "https://dc.lft.to/lastmile_qr_scan", "android": "https://dc.lft.to/lastmile_qr_scan"}, "lon": -77.053343, "bike_id": "88804c8abbc5ed73c35e192222d0418e", "fusion_lon": 0.0}, {"lat": 38.8991625, "type": "electric_scooter", "fusion_lat": 0.0, "is_disabled": 0, "name": "d0ef3fc66510fa8f7167ee3763f27b03", "is_reserved": 0, "rental_uris": {"ios": "https://dc.lft.to/lastmile_qr_scan", "android": "https://dc.lft.to/lastmile_qr_scan"}, "lon": -76.93369966666667, "bike_id": "d0ef3fc66510fa8f7167ee3763f27b03", "fusion_lon": 0.0}, {"lat": 38.89475383333333, "type": "electric_scooter", "fusion_lat": 0.0, "is_disabled": 0, "name": "3e11bd4d8e5f7a0a03269b7c5abfa16e", "is_reserved": 0, "rental_uris": {"ios": "https://dc.lft.to/lastmile_qr_scan", "android": "https://dc.lft.to/lastmile_qr_scan"}, "lon": -77.00254283333334, "bike_id": "3e11bd4d8e5f7a0a03269b7c5abfa16e", "fusion_lon": 0.0}, {"lat": 38.9158865, "type": "electric_scooter", "fusion_lat": 0.0, "is_disabled": 0, "name": "770b83afa140d7d05ccf3f0e524c5b34", "is_reserved": 0, "rental_uris": {"ios": "https://dc.lft.to/lastmile_qr_scan", "android": "https://dc.lft.to/lastmile_qr_scan"}, "lon": -77.02114233333333, "bike_id": "770b83afa140d7d05ccf3f0e524c5b34", "fusion_lon": 0.0}, {"lat": 38.936888833333335, "type": "electric_scooter", "fusion_lat": 0.0, "is_disabled": 0, "name": "9feb3c0b775034fde3f16da1030a24ca", "is_reserved": 0, "rental_uris": {"ios": "https://dc.lft.to/lastmile_qr_scan", "android": "https://dc.lft.to/lastmile_qr_scan"}, "lon": -77.01939883333333, "bike_id": "9feb3c0b775034fde3f16da1030a24ca", "fusion_lon": 0.0}, {"lat": 38.9929735, "type": "electric_bike", "fusion_lat": 0.0, "is_disabled": 0, "name": "105b988c04d4adacc7562ea9539fff2c", "is_reserved": 0, "rental_uris": {"ios": "https://dc.lft.to/lastmile_qr_scan", "android": "https://dc.lft.to/lastmile_qr_scan"}, "lon": -77.02541833333333, "bike_id": "105b988c04d4adacc7562ea9539fff2c", "fusion_lon": 0.0}, {"lat": 38.941982833333334, "type": "electric_scooter", "fusion_lat": 0.0, "is_disabled": 0, "name": "bef05a273525d0f0517403162151d5d4", "is_reserved": 0, "rental_uris": {"ios": "https://dc.lft.to/lastmile_qr_scan", "android": "https://dc.lft.to/lastmile_qr_scan"}, "lon": -77.02467466666667, "bike_id": "bef05a273525d0f0517403162151d5d4", "fusion_lon": 0.0}, {"lat": 38.905772666666664, "type": "electric_scooter", "fusion_lat": 0.0, "is_disabled": 0, "name": "174196cbd9ca9402d220949f5d5fbc97", "is_reserved": 0, "rental_uris": {"ios": "https://dc.lft.to/lastmile_qr_scan", "android": "https://dc.lft.to/lastmile_qr_scan"}, "lon": -76.97629033333334, "bike_id": "174196cbd9ca9402d220949f5d5fbc97", "fusion_lon": 0.0}, {"lat": 38.91042733333333, "type": "electric_scooter", "fusion_lat": 0.0, "is_disabled": 0, "name": "29c97a947c7d745029fcd45a1dcb2143", "is_reserved": 0, "rental_uris": {"ios": "https://dc.lft.to/lastmile_qr_scan", "android": "https://dc.lft.to/lastmile_qr_scan"}, "lon": -77.03822783333334, "bike_id": "29c97a947c7d745029fcd45a1dcb2143", "fusion_lon": 0.0}, {"lat": 38.862464, "type": "electric_scooter", "fusion_lat": 0.0, "is_disabled": 0, "name": "b824327a062789a965feea5f6ff2d102", "is_reserved": 0, "rental_uris": {"ios": "https://dc.lft.to/lastmile_qr_scan", "android": "https://dc.lft.to/lastmile_qr_scan"}, "lon": -76.99499433333334, "bike_id": "b824327a062789a965feea5f6ff2d102", "fusion_lon": 0.0}, {"lat": 38.901570166666666, "type": "electric_scooter", "fusion_lat": 0.0, "is_disabled": 0, "name": "eb89a1149f23f89be8d6f33fe7c8b381", "is_reserved": 0, "rental_uris": {"ios": "https://dc.lft.to/lastmile_qr_scan", "android": "https://dc.lft.to/lastmile_qr_scan"}, "lon": -76.9306005, "bike_id": "eb89a1149f23f89be8d6f33fe7c8b381", "fusion_lon": 0.0}, {"lat": 38.916863166666666, "type": "electric_scooter", "fusion_lat": 0.0, "is_disabled": 0, "name": "2f734b204a2db627bbbb30c102631694", "is_reserved": 0, "rental_uris": {"ios": "https://dc.lft.to/lastmile_qr_scan", "android": "https://dc.lft.to/lastmile_qr_scan"}, "lon": -77.0297085, "bike_id": "2f734b204a2db627bbbb30c102631694", "fusion_lon": 0.0}, {"lat": 38.903542333333334, "type": "electric_scooter", "fusion_lat": 0.0, "is_disabled": 0, "name": "96fe64f3792d011746d8ec016b765b3c", "is_reserved": 0, "rental_uris": {"ios": "https://dc.lft.to/lastmile_qr_scan", "android": "https://dc.lft.to/lastmile_qr_scan"}, "lon": -77.050227, "bike_id": "96fe64f3792d011746d8ec016b765b3c", "fusion_lon": 0.0}, {"lat": 38.925573, "type": "electric_scooter", "fusion_lat": 0.0, "is_disabled": 0, "name": "69afe782ce5e7209c8142c6e7aa7ed8f", "is_reserved": 0, "rental_uris": {"ios": "https://dc.lft.to/lastmile_qr_scan", "android": "https://dc.lft.to/lastmile_qr_scan"}, "lon": -77.03303716666667, "bike_id": "69afe782ce5e7209c8142c6e7aa7ed8f", "fusion_lon": 0.0}, {"lat": 38.921418, "type": "electric_scooter", "fusion_lat": 0.0, "is_disabled": 0, "name": "1e0ff6194a962040675d76fdfbbc36f8", "is_reserved": 0, "rental_uris": {"ios": "https://dc.lft.to/lastmile_qr_scan", "android": "https://dc.lft.to/lastmile_qr_scan"}, "lon": -77.04768333333334, "bike_id": "1e0ff6194a962040675d76fdfbbc36f8", "fusion_lon": 0.0}, {"lat": 38.899836666666666, "type": "electric_scooter", "fusion_lat": 0.0, "is_disabled": 0, "name": "56fd6110febc43a5caa573db0153ba1b", "is_reserved": 0, "rental_uris": {"ios": "https://dc.lft.to/lastmile_qr_scan", "android": "https://dc.lft.to/lastmile_qr_scan"}, "lon": -77.00937816666666, "bike_id": "56fd6110febc43a5caa573db0153ba1b", "fusion_lon": 0.0}, {"lat": 38.9309045, "type": "electric_scooter", "fusion_lat": 0.0, "is_disabled": 0, "name": "0c78a6108424253d30e97288eab233b7", "is_reserved": 0, "rental_uris": {"ios": "https://dc.lft.to/lastmile_qr_scan", "android": "https://dc.lft.to/lastmile_qr_scan"}, "lon": -77.02554883333333, "bike_id": "0c78a6108424253d30e97288eab233b7", "fusion_lon": 0.0}, {"lat": 38.9167395, "type": "electric_scooter", "fusion_lat": 0.0, "is_disabled": 0, "name": "235735543c98d9df5c99bb17751d691f", "is_reserved": 0, "rental_uris": {"ios": "https://dc.lft.to/lastmile_qr_scan", "android": "https://dc.lft.to/lastmile_qr_scan"}, "lon": -77.03668633333334, "bike_id": "235735543c98d9df5c99bb17751d691f", "fusion_lon": 0.0}, {"lat": 38.90215766666667, "type": "electric_scooter", "fusion_lat": 0.0, "is_disabled": 0, "name": "4635e7d7329e8170eb33529b681a8025", "is_reserved": 0, "rental_uris": {"ios": "https://dc.lft.to/lastmile_qr_scan", "android": "https://dc.lft.to/lastmile_qr_scan"}, "lon": -77.023736, "bike_id": "4635e7d7329e8170eb33529b681a8025", "fusion_lon": 0.0}, {"lat": 38.893940666666666, "type": "electric_scooter", "fusion_lat": 0.0, "is_disabled": 0, "name": "dd550fbb7e58913497653f65de060c88", "is_reserved": 0, "rental_uris": {"ios": "https://dc.lft.to/lastmile_qr_scan", "android": "https://dc.lft.to/lastmile_qr_scan"}, "lon": -77.02813266666666, "bike_id": "dd550fbb7e58913497653f65de060c88", "fusion_lon": 0.0}, {"lat": 38.866685, "type": "electric_scooter", "fusion_lat": 0.0, "is_disabled": 0, "name": "01cd7715d18ba981606701569a7e01f1", "is_reserved": 0, "rental_uris": {"ios": "https://dc.lft.to/lastmile_qr_scan", "android": "https://dc.lft.to/lastmile_qr_scan"}, "lon": -76.98902133333333, "bike_id": "01cd7715d18ba981606701569a7e01f1", "fusion_lon": 0.0}, {"lat": 38.9024955, "type": "electric_scooter", "fusion_lat": 0.0, "is_disabled": 0, "name": "dc7a7e23794f6bf83ad25ab2064588dd", "is_reserved": 0, "rental_uris": {"ios": "https://dc.lft.to/lastmile_qr_scan", "android": "https://dc.lft.to/lastmile_qr_scan"}, "lon": -77.04365816666666, "bike_id": "dc7a7e23794f6bf83ad25ab2064588dd", "fusion_lon": 0.0}, {"lat": 38.911136166666665, "type": "electric_scooter", "fusion_lat": 0.0, "is_disabled": 0, "name": "3548dbaffe7a1d30711bf6d417659798", "is_reserved": 0, "rental_uris": {"ios": "https://dc.lft.to/lastmile_qr_scan", "android": "https://dc.lft.to/lastmile_qr_scan"}, "lon": -77.04333083333333, "bike_id": "3548dbaffe7a1d30711bf6d417659798", "fusion_lon": 0.0}, {"lat": 38.865035, "type": "electric_scooter", "fusion_lat": 0.0, "is_disabled": 0, "name": "31458a152a95c8c6930b9c0d3d5d4fea", "is_reserved": 0, "rental_uris": {"ios": "https://dc.lft.to/lastmile_qr_scan", "android": "https://dc.lft.to/lastmile_qr_scan"}, "lon": -76.99000683333334, "bike_id": "31458a152a95c8c6930b9c0d3d5d4fea", "fusion_lon": 0.0},