{"data": {"bikes": [{"rental_uris": {"ios": "https://dc.lft.to/lastmile_qr_scan", "android": "https://dc.lft.to/lastmile_qr_scan"}, "lon": -76.97507633333333, "type": "electric_bike", "fusion_lat": 0.0, "lat": 38.91929916666667, "name": "07ff442bc61c9fb105babe2d098c601a", "fusion_lon": 0.0, "bike_id": "07ff442bc61c9fb105babe2d098c601a", "is_disabled": 0, "is_reserved": 0}, {"rental_uris": {"ios": "https://dc.lft.to/lastmile_qr_scan", "android": "https://dc.lft.to/lastmile_qr_scan"}, "lon": -77.0567805, "type": "electric_scooter", "fusion_lat": 0.0, "lat": 38.905171333333335, "name": "8aacba08c46c220405634f2a6afc290f", "fusion_lon": 0.0, "bike_id": "8aacba08c46c220405634f2a6afc290f", "is_disabled": 0, "is_reserved": 0}, {"rental_uris": {"ios": "https://dc.lft.to/lastmile_qr_scan", "android": "https://dc.lft.to/lastmile_qr_scan"}, "lon": -76.97320833333333, "type": "electric_scooter", "fusion_lat": 0.0, "lat": 38.93025383333333, "name": "fa7c9f67fe120c69a3f0d1f7f5b7ad17", "fusion_lon": 0.0, "bike_id": "fa7c9f67fe120c69a3f0d1f7f5b7ad17", "is_disabled": 0, "is_reserved": 0}, {"rental_uris": {"ios": "https://dc.lft.to/lastmile_qr_scan", "android": "https://dc.lft.to/lastmile_qr_scan"}, "lon": -77.04224766666667, "type": "electric_scooter", "fusion_lat": 0.0, "lat": 38.92130916666667, "name": "83b8cf1811e35952549e5bff5ddef466", "fusion_lon": 0.0, "bike_id": "83b8cf1811e35952549e5bff5ddef466", "is_disabled": 0, "is_reserved": 0}, {"rental_uris": {"ios": "https://dc.lft.to/lastmile_qr_scan", "android": "https://dc.lft.to/lastmile_qr_scan"}, "lon": -76.97555033333333, "type": "electric_scooter", "fusion_lat": 0.0, "lat": 38.9044205, "name": "53b7f9d2fd5f536ee35e8ca27c0a5318", "fusion_lon": 0.0, "bike_id": "53b7f9d2fd5f536ee35e8ca27c0a5318", "is_disabled": 0, "is_reserved": 0}, {"rental_uris": {"ios": "https://dc.lft.to/lastmile_qr_scan", "android": "https://dc.lft.to/lastmile_qr_scan"}, "lon": -76.9655945, "type": "electric_scooter", "fusion_lat": 0.0, "lat": 38.91859933333333, "name": "0e7301d8831790a836858396a6ccdb31", "fusion_lon": 0.0, "bike_id": "0e7301d8831790a836858396a6ccdb31", "is_disabled": 0, "is_reserved": 0}, {"rental_uris": {"ios": "https://dc.lft.to/lastmile_qr_scan", "android": "https://dc.lft.to/lastmile_qr_scan"}, "lon": -76.996062, "type": "electric_scooter", "fusion_lat": 0.0, "lat": 38.886262, "name": "c543e4da9112d91f794e06bd283f52e5", "fusion_lon": 0.0, "bike_id": "c543e4da9112d91f794e06bd283f52e5", "is_disabled": 0, "is_reserved": 0}, {"rental_uris": {"ios": "https://dc.lft.to/lastmile_qr_scan", "android": "https://dc.lft.to/lastmile_qr_scan"}, "lon": -77.02306783333333, "type": "electric_scooter", "fusion_lat": 0.0, "lat": 38.90959083333333, "name": "5ff6c59abf76545a0df604e820c15b23", "fusion_lon": 0.0, "bike_id": "5ff6c59abf76545a0df604e820c15b23", "is_disabled": 0, "is_reserved": 0}, {"rental_uris": {"ios": "https://dc.lft.to/lastmile_qr_scan", "android": "https://dc.lft.to/lastmile_qr_scan"}, "lon": -76.985683, "type": "electric_scooter", "fusion_lat": 0.0, "lat": 38.86140266666666, "name": "e67d3881cc952fd502a4aef4cf0345ef", "fusion_lon": 0.0, "bike_id": "e67d3881cc952fd502a4aef4cf0345ef", "is_disabled": 0, "is_reserved": 0}, {"rental_uris": {"ios": "https://dc.lft.to/lastmile_qr_scan", "android": "https://dc.lft.to/lastmile_qr_scan"}, "lon": -77.03536016666666, "type": "electric_scooter", "fusion_lat": 0.0, "lat": 38.92855983333333, "name": "c26b96ed9d6bf21c9b8fb466d208aa70", "fusion_lon": 0.0, "bike_id": "c26b96ed9d6bf21c9b8fb466d208aa70", "is_disabled": 0, "is_reserved": 0}, {"rental_uris": {"ios": "https://dc.lft.to/lastmile_qr_scan", "android": "https://dc.lft.to/lastmile_qr_scan"}, "lon": -77.0502995, "type": "electric_scooter", "fusion_lat": 0.0, "lat": 38.9001825, "name": "9bb577497a5b75f58c86b4e4d0402af6", "fusion_lon": 0.0, "bike_id": "9bb577497a5b75f58c86b4e4d0402af6", "is_disabled": 0, "is_reserved": 0}, {"rental_uris": {"ios": "https://dc.lft.to/lastmile_qr_scan", "android": "https://dc.lft.to/lastmile_qr_scan"}, "lon": -77.0217165, "type": "electric_scooter", "fusion_lat": 0.0, "lat": 38.87966316666667, "name": "157d3011ad5ec9ed1fc58b4a5f1ea80d", "fusion_lon": 0.0, "bike_id": "157d3011ad5ec9ed1fc58b4a5f1ea80d", "is_disabled": 0, "is_reserved": 0}, {"rental_uris": {"ios": "https://dc.lft.to/lastmile_qr_scan", "android": "https://dc.lft.to/lastmile_qr_scan"}, "lon": -77.0332105, "type": "electric_scooter", "fusion_lat": 0.0, "lat": 38.903765, "name": "50746063e8c6224d7712dd80fd2930e4", "fusion_lon": 0.0, "bike_id": "50746063e8c6224d7712dd80fd2930e4", "is_disabled": 0, "is_reserved": 0}, {"rental_uris": {"ios": "https://dc.lft.to/lastmile_qr_scan", "android": "https://dc.lft.to/lastmile_qr_scan"}, "lon": -77.07902933333334, "type": "electric_bike", "fusion_lat": 0.0, "lat": 38.839324833333336, "name": "cadfcce19968d540f8003213ec86f6f4", "fusion_lon": 0.0, "bike_id": "cadfcce19968d540f8003213ec86f6f4", "is_disabled": 0, "is_reserved": 0}, {"rental_uris": {"ios": "https://dc.lft.to/lastmile_qr_scan", "android": "https://dc.lft.to/lastmile_qr_scan"}, "lon": -77.01286183333333, "type": "electric_scooter", "fusion_lat": 0.0, "lat": 38.91535783333333, "name": "79861cf7e70d2a8f27aeb45b7370cee9", "fusion_lon": 0.0, "bike_id": "79861cf7e70d2a8f27aeb45b7370cee9", "is_disabled": 0, "is_reserved": 0}, {"rental_uris": {"ios": "https://dc.lft.to/lastmile_qr_scan", "android": "https://dc.lft.to/lastmile_qr_scan"}, "lon": -77.0054015, "type": "electric_scooter", "fusion_lat": 0.0, "lat": 38.874561, "name": "3753327d42282fdf832035b3456d228a", "fusion_lon": 0.0, "bike_id": "3753327d42282fdf832035b3456d228a", "is_disabled": 0, "is_reserved": 0}, {"rental_uris": {"ios": "https://dc.lft.to/lastmile_qr_scan", "android": "https://dc.lft.to/lastmile_qr_scan"}, "lon": -76.9808145, "type": "electric_bike", "fusion_lat": 0.0, "lat": 38.9028695, "name": "8dff1ba6e33d82c226f3383541ecff24", "fusion_lon": 0.0, "bike_id": "8dff1ba6e33d82c226f3383541ecff24", "is_disabled": 0, "is_reserved": 0}, {"rental_uris": {"ios": "https://dc.lft.to/lastmile_qr_scan", "android": "https://dc.lft.to/lastmile_qr_scan"}, "lon": -77.11922666666666, "type": "electric_bike", "fusion_lat": 0.0, "lat": 38.84093933333333, "name": "892caac97bdfd232218d38f9f8f9dc57", "fusion_lon": 0.0, "bike_id": "892caac97bdfd232218d38f9f8f9dc57", "is_disabled": 0, "is_reserved": 0}, {"rental_uris": {"ios": "https://dc.lft.to/lastmile_qr_scan", "android": "https://dc.lft.to/lastmile_qr_scan"}, "lon": -76.9361925, "type": "electric_bike", "fusion_lat": 0.0, "lat": 38.970595333333335, "name": "da0d51345116d5a2a1774702ba4a90b9", "fusion_lon": 0.0, "bike_id": "da0d51345116d5a2a1774702ba4a90b9", "is_disabled": 0, "is_reserved": 0}, {"rental_uris": {"ios": "https://dc.lft.to/lastmile_qr_scan", "android": "https://dc.lft.to/lastmile_qr_scan"}, "lon": -77.029794, "type": "electric_scooter", "fusion_lat": 0.0, "lat": 38.89575383333333, "name": "8dba60100e39639274cc2fdf874aeee1", "fusion_lon": 0.0, "bike_id": "8dba60100e39639274cc2fdf874aeee1", "is_disabled": 0, "is_reserved": 0}, {"rental_uris": {"ios": "https://dc.lft.to/lastmile_qr_scan", "android": "https://dc.lft.to/lastmile_qr_scan"}, "lon": -77.02346716666666, "type": "electric_scooter", "fusion_lat": 0.0, "lat": 38.933835, "name": "71cda188cd8ba0d0b7aee0aafc21fcd6", "fusion_lon": 0.0, "bike_id": "71cda188cd8ba0d0b7aee0aafc21fcd6", "is_disabled": 0, "is_reserved": 0}, {"rental_uris": {"ios": "https://dc.lft.to/lastmile_qr_scan", "android": "https://dc.lft.to/lastmile_qr_scan"}, "lon": -77.04420583333334, "type": "electric_scooter", "fusion_lat": 0.0, "lat": 38.921187, "name": "da2a6731d192dbce1360f3fd1ad89291", "fusion_lon": 0.0, "bike_id": "da2a6731d192dbce1360f3fd1ad89291", "is_disabled": 0, "is_reserved": 0}, {"rental_uris": {"ios": "https://dc.lft.to/lastmile_qr_scan", "android": "https://dc.lft.to/lastmile_qr_scan"}, "lon": -77.0578665, "type": "electric_scooter", "fusion_lat": 0.0, "lat": 38.905094, "name": "3e1575098ff5b6b2920c099c8bc372ce", "fusion_lon": 0.0, "bike_id": "3e1575098ff5b6b2920c099c8bc372ce", "is_disabled": 0, "is_reserved": 0}, {"rental_uris": {"ios": "https://dc.lft.to/lastmile_qr_scan", "android": "https://dc.lft.to/lastmile_qr_scan"}, "lon": -76.96505766666667, "type": "electric_scooter", "fusion_lat": 0.0, "lat": 38.87646266666667, "name": "6b1bbcbe1e922e1ba4e78948f8471326", "fusion_lon": 0.0, "bike_id": "6b1bbcbe1e922e1ba4e78948f8471326", "is_disabled": 0, "is_reserved": 0}, {"rental_uris": {"ios": "https://dc.lft.to/lastmile_qr_scan", "android": "https://dc.lft.to/lastmile_qr_scan"}, "lon": -77.02961183333333, "type": "electric_scooter", "fusion_lat": 0.0, "lat": 38.904888166666666, "name": "c22ff2cf04c6743349108655aa9451d1", "fusion_lon": 0.0, "bike_id": "c22ff2cf04c6743349108655aa9451d1", "is_disabled": 0, "is_reserved": 0}, {"rental_uris": {"ios": "https://dc.lft.to/lastmile_qr_scan", "android": "https://dc.lft.to/lastmile_qr_scan"}, "lon": -77.023823, "type": "electric_scooter", "fusion_lat": 0.0, "lat": 38.932009666666666, "name": "a5712bf43565ddfa4efbbeded9382165", "fusion_lon": 0.0, "bike_id": "a5712bf43565ddfa4efbbeded9382165", "is_disabled": 0, "is_reserved": 0}, {"rental_uris": {"ios": "https://dc.lft.to/lastmile_qr_scan", "android": "https://dc.lft.to/lastmile_qr_scan"}, "lon": -77.02793816666667, "type": "electric_scooter", "fusion_lat": 0.0, "lat": 38.92473416666667, "name": "de0b3f6ce352ee6e5374269162f71f3e", "fusion_lon": 0.0, "bike_id": "de0b3f6ce352ee6e5374269162f71f3e", "is_disabled": 0, "is_reserved": 0}, {"rental_uris": {"ios": "https://dc.lft.to/lastmile_qr_scan", "android": "https://dc.lft.to/lastmile_qr_scan"}, "lon": -77.0301105, "type": "electric_scooter", "fusion_lat": 0.0, "lat": 38.897306, "name": "9311d4db53998a1ec877951cc7610ad3", "fusion_lon": 0.0, "bike_id": "9311d4db53998a1ec877951cc7610ad3", "is_disabled": 0, "is_reserved": 0}, {"rental_uris": {"ios": "https://dc.lft.to/lastmile_qr_scan", "android": "https://dc.lft.to/lastmile_qr_scan"}, "lon": -76.93827, "type": "electric_scooter", "fusion_lat": 0.0, "lat": 38.89761416666666, "name": "836e0771346c0a4299a87ff955337380", "fusion_lon": 0.0, "bike_id": "836e0771346c0a4299a87ff955337380", "is_disabled": 0, "is_reserved": 0}, {"rental_uris": {"ios": "https://dc.lft.to/lastmile_qr_scan", "android": "https://dc.lft.to/lastmile_qr_scan"}, "lon": -76.96558066666667, "type": "electric_scooter", "fusion_lat": 0.0, "lat": 38.918633, "name": "f0969859c35807658851777c76a33fc4", "fusion_lon": 0.0, "bike_id": "f0969859c35807658851777c76a33fc4", "is_disabled": 0, "is_reserved": 0}, {"rental_uris": {"ios": "https://dc.lft.to/lastmile_qr_scan", "android": "https://dc.lft.to/lastmile_qr_scan"}, "lon": -77.00426966666667, "type": "electric_scooter", "fusion_lat": 0.0, "lat": 38.9039415, "name": "d3f98eb871e42a63a96556ebe761d4e3", "fusion_lon": 0.0, "bike_id": "d3f98eb871e42a63a96556ebe761d4e3", "is_disabled": 0, "is_reserved": 0}, {"rental_uris": {"ios": "https://dc.lft.to/lastmile_qr_scan", "android": "https://dc.lft.to/lastmile_qr_scan"}, "lon": -77.03511516666667, "type": "electric_scooter", "fusion_lat": 0.0, "lat": 38.9214815, "name": "e430b3f7605819f004ef790a7e91b1dd", "fusion_lon": 0.0, "bike_id": "e430b3f7605819f004ef790a7e91b1dd", "is_disabled": 0, "is_reserved": 0}, {"rental_uris": {"ios": "https://dc.lft.to/lastmile_qr_scan", "android": "https://dc.lft.to/lastmile_qr_scan"}, "lon": -77.03212016666667, "type": "electric_scooter", "fusion_lat": 0.0, "lat": 38.91432066666667, "name": "3f59e4ee86095ede960b7fa40854d197", "fusion_lon": 0.0, "bike_id": "3f59e4ee86095ede960b7fa40854d197", "is_disabled": 0, "is_reserved": 0}, {"rental_uris": {"ios": "https://dc.lft.to/lastmile_qr_scan", "android": "https://dc.lft.to/lastmile_qr_scan"}, "lon": -77.00116916666667, "type": "electric_scooter", "fusion_lat": 0.0, "lat": 38.89432816666667, "name": "bd74685535f97c6d0262d8d43740994e", "fusion_lon": 0.0, "bike_id": "bd74685535f97c6d0262d8d43740994e", "is_disabled": 0, "is_reserved": 0}, {"rental_uris": {"ios": "https://dc.lft.to/lastmile_qr_scan", "android": "https://dc.lft.to/lastmile_qr_scan"}, "lon": -76.94177116666667, "type": "electric_scooter", "fusion_lat": 0.0, "lat": 38.88221683333333, "name": "604e5cdb6dceb23bedf04d955d1ea203", "fusion_lon": 0.0, "bike_id": "604e5cdb6dceb23bedf04d955d1ea203", "is_disabled": 0, "is_reserved": 0}, {"rental_uris": {"ios": "https://dc.lft.to/lastmile_qr_scan", "android": "https://dc.lft.to/lastmile_qr_scan"}, "lon": -77.02704666666666, "type": "electric_scooter", "fusion_lat": 0.0, "lat": 38.94988983333333, "name": "204cdfa24eed8f23ee2c34a8002180fb", "fusion_lon": 0.0, "bike_id": "204cdfa24eed8f23ee2c34a8002180fb", "is_disabled": 0, "is_reserved": 0}, {"rental_uris": {"ios": "https://dc.lft.to/lastmile_qr_scan", "android": "https://dc.lft.to/lastmile_qr_scan"}, "lon": -77.0611155, "type": "electric_scooter", "fusion_lat": 0.0, "lat": 38.9128355, "name": "30ccd12cd7654a52aa4aa734d43411d5", "fusion_lon": 0.0, "bike_id": "30ccd12cd7654a52aa4aa734d43411d5", "is_disabled": 0, "is_reserved": 0}, {"rental_uris": {"ios": "https://dc.lft.to/lastmile_qr_scan", "android": "https://dc.lft.to/lastmile_qr_scan"}, "lon": -76.925791, "type": "electric_scooter", "fusion_lat": 0.0, "lat": 38.897814, "name": "3f91ffe1e122dc847fdb22179d438f7f", "fusion_lon": 0.0, "bike_id": "3f91ffe1e122dc847fdb22179d438f7f", "is_disabled": 0, "is_reserved": 0}, {"rental_uris": {"ios": "https://dc.lft.to/lastmile_qr_scan", "android": "https://dc.lft.to/lastmile_qr_scan"}, "lon": -77.04659583333333, "type": "electric_scooter", "fusion_lat": 0.0, "lat": 38.89249566666667, "name": "a6ea83c64d4a4f1b4a94dd259cd78456", "fusion_lon": 0.0, "bike_id": "a6ea83c64d4a4f1b4a94dd259cd78456", "is_disabled": 0, "is_reserved": 0}, {"rental_uris": {"ios": "https://dc.lft.to/lastmile_qr_scan", "android": "https://dc.lft.to/lastmile_qr_scan"}, "lon": -76.96561016666666, "type": "electric_scooter", "fusion_lat": 0.0, "lat": 38.9186425, "name": "766baeb1796e8a5319560e4d586529e9", "fusion_lon": 0.0, "bike_id": "766baeb1796e8a5319560e4d586529e9", "is_disabled": 0, "is_reserved": 0}, {"rental_uris": {"ios": "https://dc.lft.to/lastmile_qr_scan", "android": "https://dc.lft.to/lastmile_qr_scan"}, "lon": -77.0466035, "type": "electric_scooter", "fusion_lat": 0.0, "lat": 38.919151666666664, "name": "3e4d0b63bf1e273a1183de030fccd5d0", "fusion_lon": 0.0, "bike_id": "3e4d0b63bf1e273a1183de030fccd5d0", "is_disabled": 0, "is_reserved": 0}, {"rental_uris": {"ios": "https://dc.lft.to/lastmile_qr_scan", "android": "https://dc.lft.to/lastmile_qr_scan"}, "lon": -77.02304916666667, "type": "electric_scooter", "fusion_lat": 0.0, "lat": 38.916804, "name": "fe30ba5976034ff3625cb209a55b4ea2", "fusion_lon": 0.0, "bike_id": "fe30ba5976034ff3625cb209a55b4ea2", "is_disabled": 0, "is_reserved": 0}, {"rental_uris": {"ios": "https://dc.lft.to/lastmile_qr_scan", "android": "https://dc.lft.to/lastmile_qr_scan"}, "lon": -77.054693, "type": "electric_scooter", "fusion_lat": 0.0, "lat": 38.921019, "name": "5e40885c6cd7a82f2fdc20678174c82a", "fusion_lon": 0.0, "bike_id": "5e40885c6cd7a82f2fdc20678174c82a", "is_disabled": 0, "is_reserved": 0}, {"rental_uris": {"ios": "https://dc.lft.to/lastmile_qr_scan", "android": "https://dc.lft.to/lastmile_qr_scan"}, "lon": -76.98713766666667, "type": "electric_scooter", "fusion_lat": 0.0, "lat": 38.862602333333335, "name": "e24905c8d596c2f6798841f50c000e7b", "fusion_lon": 0.0, "bike_id": "e24905c8d596c2f6798841f50c000e7b", "is_disabled": 0, "is_reserved": 0}, {"rental_uris": {"ios": "https://dc.lft.to/lastmile_qr_scan", "android": "https://dc.lft.to/lastmile_qr_scan"}, "lon": -76.94630383333333, "type": "electric_scooter", "fusion_lat": 0.0, "lat": 38.89840083333333, "name": "4052cd0184057226ef380854b1fdcf53", "fusion_lon": 0.0, "bike_id": "4052cd0184057226ef380854b1fdcf53", "is_disabled": 0, "is_reserved": 0}, {"rental_uris": {"ios": "https://dc.lft.to/lastmile_qr_scan", "android": "https://dc.lft.to/lastmile_qr_scan"}, "lon": -77.03231416666667, "type": "electric_scooter", "fusion_lat": 0.0, "lat": 38.91403783333333, "name": "53a00a5f37572d0701c23e79a8e18385", "fusion_lon": 0.0, "bike_id": "53a00a5f37572d0701c23e79a8e18385", "is_disabled": 0, "is_reserved": 0}, {"rental_uris": {"ios": "https://dc.lft.to/lastmile_qr_scan", "android": "https://dc.lft.to/lastmile_qr_scan"}, "lon": -76.983504, "type": "electric_scooter", "fusion_lat": 0.0, "lat": 38.91531766666667, "name": "9c177a74b85f4792c963fa4a84fb486c", "fusion_lon": 0.0, "bike_id": "9c177a74b85f4792c963fa4a84fb486c", "is_disabled": 0, "is_reserved": 0}, {"rental_uris": {"ios": "https://dc.lft.to/lastmile_qr_scan", "android": "https://dc.lft.to/lastmile_qr_scan"}, "lon": -77.0321655, "type": "electric_scooter", "fusion_lat": 0.0, "lat": 38.911917, "name": "ca0678cf0e1ff0e9edc895348de8c824", "fusion_lon": 0.0, "bike_id": "ca0678cf0e1ff0e9edc895348de8c824", "is_disabled": 0, "is_reserved": 0}, {"rental_uris": {"ios": "https://dc.lft.to/lastmile_qr_scan", "android": "https://dc.lft.to/lastmile_qr_scan"}, "lon": -77.021933, "type": "electric_scooter", "fusion_lat": 0.0, "lat": 38.88395166666667, "name": "50543e7a94a3aa9c848c9b014069f04e", "fusion_lon": 0.0, "bike_id": "50543e7a94a3aa9c848c9b014069f04e", "is_disabled": 0, "is_reserved": 0}, {"rental_uris": {"ios": "https://dc.lft.to/lastmile_qr_scan", "android": "https://dc.lft.to/lastmile_qr_scan"}, "lon": -77.02346766666666, "type": "electric_scooter", "fusion_lat": 0.0, "lat": 38.91552883333333, "name": "03b68b018b97926532e4607d16809a66", "fusion_lon": 0.0, "bike_id": "03b68b018b97926532e4607d16809a66", "is_disabled": 0, "is_reserved": 0}, {"rental_uris": {"ios": "https://dc.lft.to/lastmile_qr_scan", "android": "https://dc.lft.to/lastmile_qr_scan"}, "lon": -77.00255483333333, "type": "electric_scooter", "fusion_lat": 0.0, "lat": 38.91923366666666, "name": "f20771c3466ede4538cd82a889b9e227", "fusion_lon": 0.0, "bike_id": "f20771c3466ede4538cd82a889b9e227", "is_disabled": 0, "is_reserved": 0}, {"rental_uris": {"ios": "https://dc.lft.to/lastmile_qr_scan", "android": "https://dc.lft.to/lastmile_qr_scan"}, "lon": -76.96554683333333, "type": "electric_scooter", "fusion_lat": 0.0, "lat": 38.91867166666667, "name": "fd23548bca3f0782b84b8fb6c42b825a", "fusion_lon": 0.0, "bike_id": "fd23548bca3f0782b84b8fb6c42b825a", "is_disabled": 0, "is_reserved": 0}, {"rental_uris": {"ios": "https://dc.lft.to/lastmile_qr_scan", "android": "https://dc.lft.to/lastmile_qr_scan"}, "lon": -77.0076275, "type": "electric_scooter", "fusion_lat": 0.0, "lat": 38.87114833333333, "name": "3cccfac950ecba9cf4c097145fd1639a", "fusion_lon": 0.0, "bike_id": "3cccfac950ecba9cf4c097145fd1639a", "is_disabled": 0, "is_reserved": 0}, {"rental_uris": {"ios": "https://dc.lft.to/lastmile_qr_scan", "android": "https://dc.lft.to/lastmile_qr_scan"}, "lon": -77.032042, "type": "electric_scooter", "fusion_lat": 0.0, "lat": 38.9376555, "name": "722989659cead3b62b366f7ad180f013", "fusion_lon": 0.0, "bike_id": "722989659cead3b62b366f7ad180f013", "is_disabled": 0, "is_reserved": 0}, {"rental_uris": {"ios": "https://dc.lft.to/lastmile_qr_scan", "android": "https://dc.lft.to/lastmile_qr_scan"}, "lon": -77.0486105, "type": "electric_scooter", "fusion_lat": 0.0, "lat": 38.906409333333336, "name": "f4494f1ff43a0f7c233bbbeda8439317", "fusion_lon": 0.0, "bike_id": "f4494f1ff43a0f7c233bbbeda8439317", "is_disabled": 0, "is_reserved": 0}, {"rental_uris": {"ios": "https://dc.lft.to/lastmile_qr_scan", "android": "https://dc.lft.to/lastmile_qr_scan"}, "lon": -77.05004683333334, "type": "electric_scooter", "fusion_lat": 0.0, "lat": 38.904032666666666, "name": "89711f8f85f30e2b885b7172ed693b87", "fusion_lon": 0.0, "bike_id": "89711f8f85f30e2b885b7172ed693b87", "is_disabled": 0, "is_reserved": 0}, {"rental_uris": {"ios": "https://dc.lft.to/lastmile_qr_scan", "android": "https://dc.lft.to/lastmile_qr_scan"}, "lon": -76.97251066666666, "type": "electric_bike", "fusion_lat": 0.0, "lat": 38.95737733333333, "name": "80e1e1e5472bb20f37c6622bbcedbcd8", "fusion_lon": 0.0, "bike_id": "80e1e1e5472bb20f37c6622bbcedbcd8", "is_disabled": 0, "is_reserved": 0}, {"rental_uris": {"ios": "https://dc.lft.to/lastmile_qr_scan", "android": "https://dc.lft.to/lastmile_qr_scan"}, "lon": -77.05880183333333, "type": "electric_scooter", "fusion_lat": 0.0, "lat": 38.936341666666664, "name": "63986b7b6950f639eb319c0aa1d0f089", "fusion_lon": 0.0, "bike_id": "63986b7b6950f639eb319c0aa1d0f089", "is_disabled": 0, "is_reserved": 0}, {"rental_uris": {"ios": "https://dc.lft.to/lastmile_qr_scan", "android": "https://dc.lft.to/lastmile_qr_scan"}, "lon": -77.03365983333333, "type": "electric_scooter", "fusion_lat": 0.0, "lat": 38.906144833333336, "name": "6d47685c496c529db8afe6f5a0341f46", "fusion_lon": 0.0, "bike_id": "6d47685c496c529db8afe6f5a0341f46", "is_disabled": 0, "is_reserved": 0}, {"rental_uris": {"ios": "https://dc.lft.to/lastmile_qr_scan", "android": "https://dc.lft.to/lastmile_qr_scan"}, "lon": -77.0110925, "type": "electric_scooter", "fusion_lat": 0.0, "lat": 38.89537883333333, "name": "8e394f1ce0aa4f68ac12c3d2d2802550", "fusion_lon": 0.0, "bike_id": "8e394f1ce0aa4f68ac12c3d2d2802550", "is_disabled": 0, "is_reserved": 0}, {"rental_uris": {"ios": "https://dc.lft.to/lastmile_qr_scan", "android": "https://dc.lft.to/lastmile_qr_scan"}, "lon": -76.94652316666667, "type": "electric_scooter", "fusion_lat": 0.0, "lat": 38.898260666666665, "name": "c0a2ec4f28c69317974d7b75317e0b94", "fusion_lon": 0.0, "bike_id": "c0a2ec4f28c69317974d7b75317e0b94", "is_disabled": 0, "is_reserved": 0}, {"rental_uris": {"ios": "https://dc.lft.to/lastmile_qr_scan", "android": "https://dc.lft.to/lastmile_qr_scan"}, "lon": -77.02463866666666, "type": "electric_scooter", "fusion_lat": 0.0, "lat": 38.906298, "name": "64814c105554a55f374d1af7e3fa5a46", "fusion_lon": 0.0, "bike_id": "64814c105554a55f374d1af7e3fa5a46", "is_disabled": 0, "is_reserved": 0}, {"rental_uris": {"ios": "https://dc.lft.to/lastmile_qr_scan", "android": "https://dc.lft.to/lastmile_qr_scan"}, "lon": -77.03032933333333, "type": "electric_scooter", "fusion_lat": 0.0, "lat": 38.9026825, "name": "016ff3ba05d32f338ab19f7ffdb51f55", "fusion_lon": 0.0, "bike_id": "016ff3ba05d32f338ab19f7ffdb51f55", "is_disabled": 0, "is_reserved": 0}, {"rental_uris": {"ios": "https://dc.lft.to/lastmile_qr_scan", "android": "https://dc.lft.to/lastmile_qr_scan"}, "lon": -77.00222233333334, "type": "electric_bike", "fusion_lat": 0.0, "lat": 38.82377733333333, "name": "d64b3c9a6033d1b14b01513269acfaa8", "fusion_lon": 0.0, "bike_id": "d64b3c9a6033d1b14b01513269acfaa8", "is_disabled": 0, "is_reserved": 0}, {"rental_uris": {"ios": "https://dc.lft.to/lastmile_qr_scan", "android": "https://dc.lft.to/lastmile_qr_scan"}, "lon": -77.026941, "type": "electric_scooter", "fusion_lat": 0.0, "lat": 38.91690083333334, "name": "f4bcbe9f91c9e69496a49b1540426b7c", "fusion_lon": 0.0, "bike_id": "f4bcbe9f91c9e69496a49b1540426b7c", "is_disabled": 0, "is_reserved": 0}, {"rental_uris": {"ios": "https://dc.lft.to/lastmile_qr_scan", "android": "https://dc.lft.to/lastmile_qr_scan"}, "lon": -77.02615183333333, "type": "electric_scooter", "fusion_lat": 0.0, "lat": 38.91812616666667, "name": "04c869960d0debdf4d5741ca3cce7790", "fusion_lon": 0.0, "bike_id": "04c869960d0debdf4d5741ca3cce7790", "is_disabled": 0, "is_reserved": 0}, {"rental_uris": {"ios": "https://dc.lft.to/lastmile_qr_scan", "android": "https://dc.lft.to/lastmile_qr_scan"}, "lon": -77.02104, "type": "electric_scooter", "fusion_lat": 0.0, "lat": 38.91317883333333, "name": "851d13a3cf38b3e69dd62086fe73abd2", "fusion_lon": 0.0, "bike_id": "851d13a3cf38b3e69dd62086fe73abd2", "is_disabled": 0, "is_reserved": 0}, {"rental_uris": {"ios": "https://dc.lft.to/lastmile_qr_scan", "android": "https://dc.lft.to/lastmile_qr_scan"}, "lon": -77.02298783333333, "type": "electric_scooter", "fusion_lat": 0.0, "lat": 38.932973833333335, "name": "dac8af1ef2852ef17aaba0692a1492b3", "fusion_lon": 0.0, "bike_id": "dac8af1ef2852ef17aaba0692a1492b3", "is_disabled": 0, "is_reserved": 0}, {"rental_uris": {"ios": "https://dc.lft.to/lastmile_qr_scan", "android": "https://dc.lft.to/lastmile_qr_scan"}, "lon": -76.96632633333333, "type": "electric_bike", "fusion_lat": 0.0, "lat": 38.94203, "name": "eb88e0cbbe3595bce8f53186e730a26f", "fusion_lon": 0.0, "bike_id": "eb88e0cbbe3595bce8f53186e730a26f", "is_disabled": 0, "is_reserved": 0}, {"rental_uris": {"ios": "https://dc.lft.to/lastmile_qr_scan", "android": "https://dc.lft.to/lastmile_qr_scan"}, "lon": -77.025127, "type": "electric_scooter", "fusion_lat": 0.0, "lat": 38.880342166666665, "name": "54937dcff9138b41b96b273ccf7b4102", "fusion_lon": 0.0, "bike_id": "54937dcff9138b41b96b273ccf7b4102", "is_disabled": 0, "is_reserved": 0}, {"rental_uris": {"ios": "https://dc.lft.to/lastmile_qr_scan", "android": "https://dc.lft.to/lastmile_qr_scan"}, "lon": -76.93800616666667, "type": "electric_scooter", "fusion_lat": 0.0, "lat": 38.882374, "name": "118e8ebb0ffcc6d97c4c0c00a52f35e8", "fusion_lon": 0.0, "bike_id": "118e8ebb0ffcc6d97c4c0c00a52f35e8", "is_disabled": 0, "is_reserved": 0}, {"rental_uris": {"ios": "https://dc.lft.to/lastmile_qr_scan", "android": "https://dc.lft.to/lastmile_qr_scan"}, "lon": -77.009838, "type": "electric_scooter", "fusion_lat": 0.0, "lat": 38.914862166666666, "name": "6cc9edf2f2a9deeb7905fa6b130662cb", "fusion_lon": 0.0, "bike_id": "6cc9edf2f2a9deeb7905fa6b130662cb", "is_disabled": 0, "is_reserved": 0}, {"rental_uris": {"ios": "https://dc.lft.to/lastmile_qr_scan", "android": "https://dc.lft.to/lastmile_qr_scan"}, "lon": -77.02796166666667, "type": "electric_scooter", "fusion_lat": 0.0, "lat": 38.91761, "name": "043e30f08e97453b7993168e5704b88f", "fusion_lon": 0.0, "bike_id": "043e30f08e97453b7993168e5704b88f", "is_disabled": 0, "is_reserved": 0}, {"rental_uris": {"ios": "https://dc.lft.to/lastmile_qr_scan", "android": "https://dc.lft.to/lastmile_qr_scan"}, "lon": -77.027011, "type": "electric_scooter", "fusion_lat": 0.0, "lat": 38.94974333333333, "name": "95e093cce220b6ce2162d9b1a27c8c6b", "fusion_lon": 0.0, "bike_id": "95e093cce220b6ce2162d9b1a27c8c6b", "is_disabled": 0, "is_reserved": 0}, {"rental_uris": {"ios": "https://dc.lft.to/lastmile_qr_scan", "android": "https://dc.lft.to/lastmile_qr_scan"}, "lon": -77.010524, "type": "electric_scooter", "fusion_lat": 0.0, "lat": 38.879352, "name": "1bfe59bdb45ba7c57fcc370603413efa", "fusion_lon": 0.0, "bike_id": "1bfe59bdb45ba7c57fcc370603413efa", "is_disabled": 0, "is_reserved": 0}, {"rental_uris": {"ios": "https://dc.lft.to/lastmile_qr_scan", "android": "https://dc.lft.to/lastmile_qr_scan"}, "lon": -77.01639216666666, "type": "electric_scooter", "fusion_lat": 0.0, "lat": 38.929376500000004, "name": "ab2b975627c62af414eb00d8b2a109fa", "fusion_lon": 0.0, "bike_id": "ab2b975627c62af414eb00d8b2a109fa", "is_disabled": 0, "is_reserved": 0}, {"rental_uris": {"ios": "https://dc.lft.to/lastmile_qr_scan", "android": "https://dc.lft.to/lastmile_qr_scan"}, "lon": -77.05153, "type": "electric_scooter", "fusion_lat": 0.0, "lat": 38.92381966666667, "name": "dd4485358cdd54152745a544abc15966", "fusion_lon": 0.0, "bike_id": "dd4485358cdd54152745a544abc15966", "is_disabled": 0, "is_reserved": 0}, {"rental_uris": {"ios": "https://dc.lft.to/lastmile_qr_scan", "android": "https://dc.lft.to/lastmile_qr_scan"}, "lon": -77.06004716666666, "type": "electric_scooter", "fusion_lat": 0.0, "lat": 38.905146333333334, "name": "23cf1a6fbe70729236a62107225a3cf6", "fusion_lon": 0.0, "bike_id": "23cf1a6fbe70729236a62107225a3cf6", "is_disabled": 0, "is_reserved": 0}, {"rental_uris": {"ios": "https://dc.lft.to/lastmile_qr_scan", "android": "https://dc.lft.to/lastmile_qr_scan"}, "lon": -77.0253815, "type": "electric_scooter", "fusion_lat": 0.0, "lat": 38.91489683333333, "name": "e825d4e8bafc9617588f4995a85dc45f", "fusion_lon": 0.0, "bike_id": "e825d4e8bafc9617588f4995a85dc45f", "is_disabled": 0, "is_reserved": 0}, {"rental_uris": {"ios": "https://dc.lft.to/lastmile_qr_scan", "android": "https://dc.lft.to/lastmile_qr_scan"}, "lon": -77.00913466666667, "type": "electric_scooter", "fusion_lat": 0.0, "lat": 38.90517633333333, "name": "f5096076e5acfc3be81e984ee83b1de7", "fusion_lon": 0.0, "bike_id": "f5096076e5acfc3be81e984ee83b1de7", "is_disabled": 0, "is_reserved": 0}, {"rental_uris": {"ios": "https://dc.lft.to/lastmile_qr_scan", "android": "https://dc.lft.to/lastmile_qr_scan"}, "lon": -77.02193766666667, "type": "electric_scooter", "fusion_lat": 0.0, "lat": 38.914227833333335, "name": "8b7ef613d1b2be5be0e228535dd1ff8b", "fusion_lon": 0.0, "bike_id": "8b7ef613d1b2be5be0e228535dd1ff8b", "is_disabled": 0, "is_reserved": 0}, {"rental_uris": {"ios": "https://dc.lft.to/lastmile_qr_scan", "android": "https://dc.lft.to/lastmile_qr_scan"}, "lon": -77.03583683333333, "type": "electric_scooter", "fusion_lat": 0.0, "lat": 38.907596833333336, "name": "5ab8b776d35f7f75dcbb1274e7a7ff84", "fusion_lon": 0.0, "bike_id": "5ab8b776d35f7f75dcbb1274e7a7ff84", "is_disabled": 0, "is_reserved": 0}, {"rental_uris": {"ios": "https://dc.lft.to/lastmile_qr_scan", "android": "https://dc.lft.to/lastmile_qr_scan"}, "lon": -77.02507, "type": "electric_scooter", "fusion_lat": 0.0, "lat": 38.9020335, "name": "ef2daf8e7bafcc77c5ea245f6b162a4c", "fusion_lon": 0.0, "bike_id": "ef2daf8e7bafcc77c5ea245f6b162a4c", "is_disabled": 0, "is_reserved": 0}, {"rental_uris": {"ios": "https://dc.lft.to/lastmile_qr_scan", "android": "https://dc.lft.to/lastmile_qr_scan"}, "lon": -77.035156, "type": "electric_scooter", "fusion_lat": 0.0, "lat": 38.906661666666665, "name": "bb9599bda40285602c219130a30713b3", "fusion_lon": 0.0, "bike_id": "bb9599bda40285602c219130a30713b3", "is_disabled": 0, "is_reserved": 0}, {"rental_uris": {"ios": "https://dc.lft.to/lastmile_qr_scan", "android": "https://dc.lft.to/lastmile_qr_scan"}, "lon": -76.9949365, "type": "electric_scooter", "fusion_lat": 0.0, "lat": 38.902305166666665, "name": "8eac039b57b1218bcf98918f7cb431b1", "fusion_lon": 0.0, "bike_id": "8eac039b57b1218bcf98918f7cb431b1", "is_disabled": 0, "is_reserved": 0}, {"rental_uris": {"ios": "https://dc.lft.to/lastmile_qr_scan", "android": "https://dc.lft.to/lastmile_qr_scan"}, "lon": -77.069433, "type": "electric_scooter", "fusion_lat": 0.0, "lat": 38.9051165, "name": "7fced7e6313823c43429a81b8c2e018b", "fusion_lon": 0.0, "bike_id": "7fced7e6313823c43429a81b8c2e018b", "is_disabled": 0, "is_reserved": 0}, {"rental_uris": {"ios": "https://dc.lft.to/lastmile_qr_scan", "android": "https://dc.lft.to/lastmile_qr_scan"}, "lon": -77.04289533333333, "type": "electric_scooter", "fusion_lat": 0.0, "lat": 38.90786833333333, "name": "c69fcdee75e104bba4a19cb6c4ccd5eb", "fusion_lon": 0.0, "bike_id": "c69fcdee75e104bba4a19cb6c4ccd5eb", "is_disabled": 0, "is_reserved": 0}, {"rental_uris": {"ios": "https://dc.lft.to/lastmile_qr_scan", "android": "https://dc.lft.to/lastmile_qr_scan"}, "lon": -77.00368283333333, "type": "electric_scooter", "fusion_lat": 0.0, "lat": 38.8380205, "name": "d1b0ef18f55e096a9adfa680393f808d", "fusion_lon": 0.0, "bike_id": "d1b0ef18f55e096a9adfa680393f808d", "is_disabled": 0, "is_reserved": 0}, {"rental_uris": {"ios": "https://dc.lft.to/lastmile_qr_scan", "android": "https://dc.lft.to/lastmile_qr_scan"}, "lon": -77.051973, "type": "electric_scooter", "fusion_lat": 0.0, "lat": 38.924049333333336, "name": "6758d9153e31fdcc8c037bd0fc6086d7", "fusion_lon": 0.0, "bike_id": "6758d9153e31fdcc8c037bd0fc6086d7", "is_disabled": 0, "is_reserved": 0}, {"rental_uris": {"ios": "https://dc.lft.to/lastmile_qr_scan", "android": "https://dc.lft.to/lastmile_qr_scan"}, "lon": -77.03190483333333, "type": "electric_scooter", "fusion_lat": 0.0, "lat": 38.91757616666666, "name": "c6dbae14e66297f70da61310f5cb8ffd", "fusion_lon": 0.0, "bike_id": "c6dbae14e66297f70da61310f5cb8ffd", "is_disabled": 0, "is_reserved": 0}, {"rental_uris": {"ios": "https://dc.lft.to/lastmile_qr_scan", "android": "https://dc.lft.to/lastmile_qr_scan"}, "lon": -76.99061966666666, "type": "electric_scooter", "fusion_lat": 0.0, "lat": 38.86352516666667, "name": "3645b1a91d965c4cf204bb3f7246583a", "fusion_lon": 0.0, "bike_id": "3645b1a91d965c4cf204bb3f7246583a", "is_disabled": 0, "is_reserved": 0}, {"rental_uris": {"ios": "https://dc.lft.to/lastmile_qr_scan", "android": "https://dc.lft.to/lastmile_qr_scan"}, "lon": -77.09550933333334, "type": "electric_bike", "fusion_lat": 0.0, "lat": 38.83731783333333, "name": "f72158690fabc5905c0c14c9cff40d79", "fusion_lon": 0.0, "bike_id": "f72158690fabc5905c0c14c9cff40d79", "is_disabled": 0, "is_reserved": 0}, {"rental_uris": {"ios": "https://dc.lft.to/lastmile_qr_scan", "android": "https://dc.lft.to/lastmile_qr_scan"}, "lon": -77.00373933333333, "type": "electric_bike", "fusion_lat": 0.0, "lat": 38.83605416666666, "name": "4ba078a39c2cc5e739ce672547f06399", "fusion_lon": 0.0, "bike_id": "4ba078a39c2cc5e739ce672547f06399", "is_disabled": 0, "is_reserved": 0}, {"rental_uris": {"ios": "https://dc.lft.to/lastmile_qr_scan", "android": "https://dc.lft.to/lastmile_qr_scan"}, "lon": -76.94049483333333, "type": "electric_scooter", "fusion_lat": 0.0, "lat": 38.89674316666667, "name": "6512720ec23b1a14de10387cea5d2c44", "fusion_lon": 0.0, "bike_id": "6512720ec23b1a14de10387cea5d2c44", "is_disabled": 0, "is_reserved": 0}, {"rental_uris": {"ios": "https://dc.lft.to/lastmile_qr_scan", "android": "https://dc.lft.to/lastmile_qr_scan"}, "lon": -77.02759716666667, "type": "electric_scooter", "fusion_lat": 0.0, "lat": 38.95609966666667, "name": "e26de77602b3c36c790946dc99d22bf9", "fusion_lon": 0.0, "bike_id": "e26de77602b3c36c790946dc99d22bf9", "is_disabled": 0, "is_reserved": 0}, {"rental_uris": {"ios": "https://dc.lft.to/lastmile_qr_scan", "android": "https://dc.lft.to/lastmile_qr_scan"}, "lon": -77.04371666666667, "type": "electric_scooter", "fusion_lat": 0.0, "lat": 38.8922455, "name": "efe3163f017cfb76130e894042fd92df", "fusion_lon": 0.0, "bike_id": "efe3163f017cfb76130e894042fd92df", "is_disabled": 0, "is_reserved": 0}, {"rental_uris": {"ios": "https://dc.lft.to/lastmile_qr_scan", "android": "https://dc.lft.to/lastmile_qr_scan"}, "lon": -77.05765883333333, "type": "electric_scooter", "fusion_lat": 0.0, "lat": 38.90530283333333, "name": "bb0f424214f725a090308385d1167291", "fusion_lon": 0.0, "bike_id": "bb0f424214f725a090308385d1167291", "is_disabled": 0, "is_reserved": 0}, {"rental_uris": {"ios": "https://dc.lft.to/lastmile_qr_scan", "android": "https://dc.lft.to/lastmile_qr_scan"}, "lon": -77.05088266666667, "type": "electric_scooter", "fusion_lat": 0.0, "lat": 38.900391166666665, "name": "81d27eea7554d747e7d68c04e617a362", "fusion_lon": 0.0, "bike_id": "81d27eea7554d747e7d68c04e617a362", "is_disabled": 0, "is_reserved": 0}, {"rental_uris": {"ios": "https://dc.lft.to/lastmile_qr_scan", "android": "https://dc.lft.to/lastmile_qr_scan"}, "lon": -77.03832083333333, "type": "electric_bike", "fusion_lat": 0.0, "lat": 38.996631666666666, "name": "655cdcb7f638e0c2e6359772cdcfd317", "fusion_lon": 0.0, "bike_id": "655cdcb7f638e0c2e6359772cdcfd317", "is_disabled": 0, "is_reserved": 0}, {"rental_uris": {"ios": "https://dc.lft.to/lastmile_qr_scan", "android": "https://dc.lft.to/lastmile_qr_scan"}, "lon": -77.02984016666667, "type": "electric_scooter", "fusion_lat": 0.0, "lat": 38.900497, "name": "ed7b3d6074e2faac9308ab4f4bad88e6", "fusion_lon": 0.0, "bike_id": "ed7b3d6074e2faac9308ab4f4bad88e6", "is_disabled": 0, "is_reserved": 0}, {"rental_uris": {"ios": "https://dc.lft.to/lastmile_qr_scan", "android": "https://dc.lft.to/lastmile_qr_scan"}, "lon": -77.031475, "type": "electric_scooter", "fusion_lat": 0.0, "lat": 38.9126865, "name": "2c381c925c49323617eeba13e4e1fca9", "fusion_lon": 0.0, "bike_id": "2c381c925c49323617eeba13e4e1fca9", "is_disabled": 0, "is_reserved": 0}, {"rental_uris": {"ios": "https://dc.lft.to/lastmile_qr_scan", "android": "https://dc.lft.to/lastmile_qr_scan"}, "lon": -77.0221875, "type": "electric_scooter", "fusion_lat": 0.0, "lat": 38.916332, "name": "f4fe5667a1f3679cae59fa94d7be756b", "fusion_lon": 0.0, "bike_id": "f4fe5667a1f3679cae59fa94d7be756b", "is_disabled": 0, "is_reserved": 0}, {"rental_uris": {"ios": "https://dc.lft.to/lastmile_qr_scan", "android": "https://dc.lft.to/lastmile_qr_scan"}, "lon": -77.02752933333333, "type": "electric_scooter", "fusion_lat": 0.0, "lat": 38.9292205, "name": "8cf23d0db8d64d63443665c5288a3897", "fusion_lon": 0.0, "bike_id": "8cf23d0db8d64d63443665c5288a3897", "is_disabled": 0, "is_reserved": 0}, {"rental_uris": {"ios": "https://dc.lft.to/lastmile_qr_scan", "android": "https://dc.lft.to/lastmile_qr_scan"}, "lon": -77.13186766666666, "type": "electric_bike", "fusion_lat": 0.0, "lat": 38.869086, "name": "eeeb72a75419d4f4ba18f996bab27bc3", "fusion_lon": 0.0, "bike_id": "eeeb72a75419d4f4ba18f996bab27bc3", "is_disabled": 0, "is_reserved": 0}, {"rental_uris": {"ios": "https://dc.lft.to/lastmile_qr_scan", "android": "https://dc.lft.to/lastmile_qr_scan"}, "lon": -77.01983583333333, "type": "electric_bike", "fusion_lat": 0.0, "lat": 38.964827, "name": "ee9a6972c4c70c157512753fe034872e", "fusion_lon": 0.0, "bike_id": "ee9a6972c4c70c157512753fe034872e", "is_disabled": 0, "is_reserved": 0}, {"rental_uris": {"ios": "https://dc.lft.to/lastmile_qr_scan", "android": "https://dc.lft.to/lastmile_qr_scan"}, "lon": -76.97441766666667, "type": "electric_bike", "fusion_lat": 0.0, "lat": 38.864025166666664, "name": "45b1aff07abe46667693a2dd55caeb4e", "fusion_lon": 0.0, "bike_id": "45b1aff07abe46667693a2dd55caeb4e", "is_disabled": 0, "is_reserved": 0}, {"rental_uris": {"ios": "https://dc.lft.to/lastmile_qr_scan", "android": "https://dc.lft.to/lastmile_qr_scan"}, "lon": -76.97727216666667, "type": "electric_scooter", "fusion_lat": 0.0, "lat": 38.872906, "name": "de827d1fb51523d08f98870f460138a7", "fusion_lon": 0.0, "bike_id": "de827d1fb51523d08f98870f460138a7", "is_disabled": 0, "is_reserved": 0}, {"rental_uris": {"ios": "https://dc.lft.to/lastmile_qr_scan", "android": "https://dc.lft.to/lastmile_qr_scan"}, "lon": -76.9977505, "type": "electric_scooter", "fusion_lat": 0.0, "lat": 38.844235, "name": "d0c5a0120232c5fdfa8d7451d7392259", "fusion_lon": 0.0, "bike_id": "d0c5a0120232c5fdfa8d7451d7392259", "is_disabled": 0, "is_reserved": 0}, {"rental_uris": {"ios": "https://dc.lft.to/lastmile_qr_scan", "android": "https://dc.lft.to/lastmile_qr_scan"}, "lon": -76.957422, "type": "electric_scooter", "fusion_lat": 0.0, "lat": 38.89215683333333, "name": "6cdf08adf22773d9d095c6b0b3b2a71f", "fusion_lon": 0.0, "bike_id": "6cdf08adf22773d9d095c6b0b3b2a71f", "is_disabled": 0, "is_reserved": 0}, {"rental_uris": {"ios": "https://dc.lft.to/lastmile_qr_scan", "android": "https://dc.lft.to/lastmile_qr_scan"}, "lon": -77.0435385, "type": "electric_scooter", "fusion_lat": 0.0, "lat": 38.911277, "name": "885ffcd3c9ea52f2bd2f984a62cff636", "fusion_lon": 0.0, "bike_id": "885ffcd3c9ea52f2bd2f984a62cff636", "is_disabled": 0, "is_reserved": 0}, {"rental_uris": {"ios": "https://dc.lft.to/lastmile_qr_scan", "android": "https://dc.lft.to/lastmile_qr_scan"}, "lon": -77.04280233333333, "type": "electric_scooter", "fusion_lat": 0.0, "lat": 38.90742683333333, "name": "e3186c9c41e0f6d7528c91ca76878c41", "fusion_lon": 0.0, "bike_id": "e3186c9c41e0f6d7528c91ca76878c41", "is_disabled": 0, "is_reserved": 0}, {"rental_uris": {"ios": "https://dc.lft.to/lastmile_qr_scan", "android": "https://dc.lft.to/lastmile_qr_scan"}, "lon": -77.01549783333333, "type": "electric_scooter", "fusion_lat": 0.0, "lat": 38.89804183333333, "name": "4e7da8de3dbc459bb51e2e92d65dc800", "fusion_lon": 0.0, "bike_id": "4e7da8de3dbc459bb51e2e92d65dc800", "is_disabled": 0, "is_reserved": 0}, {"rental_uris": {"ios": "https://dc.lft.to/lastmile_qr_scan", "android": "https://dc.lft.to/lastmile_qr_scan"}, "lon": -77.02715533333334, "type": "electric_scooter", "fusion_lat": 0.0, "lat": 38.9021205, "name": "9ccbf4a94a1489bb2125641e318e5c51", "fusion_lon": 0.0, "bike_id": "9ccbf4a94a1489bb2125641e318e5c51", "is_disabled": 0, "is_reserved": 0}, {"rental_uris": {"ios": "https://dc.lft.to/lastmile_qr_scan", "android": "https://dc.lft.to/lastmile_qr_scan"}, "lon": -76.99252466666667, "type": "electric_scooter", "fusion_lat": 0.0, "lat": 38.919693, "name": "7b87da37075526eb1c25cf2491becc29", "fusion_lon": 0.0, "bike_id": "7b87da37075526eb1c25cf2491becc29", "is_disabled": 0, "is_reserved": 0}, {"rental_uris": {"ios": "https://dc.lft.to/lastmile_qr_scan", "android": "https://dc.lft.to/lastmile_qr_scan"}, "lon": -77.03196633333333, "type": "electric_scooter", "fusion_lat": 0.0, "lat": 38.914810333333335, "name": "cd2c5176afc45f88dbbc1d96f9468ccd", "fusion_lon": 0.0, "bike_id": "cd2c5176afc45f88dbbc1d96f9468ccd", "is_disabled": 0, "is_reserved": 0}, {"rental_uris": {"ios": "https://dc.lft.to/lastmile_qr_scan", "android": "https://dc.lft.to/lastmile_qr_scan"}, "lon": -77.01205233333333, "type": "electric_scooter", "fusion_lat": 0.0, "lat": 38.9156695, "name": "d0b7302cb57d7923906f6c0d33c7509e", "fusion_lon": 0.0, "bike_id": "d0b7302cb57d7923906f6c0d33c7509e", "is_disabled": 0, "is_reserved": 0}, {"rental_uris": {"ios": "https://dc.lft.to/lastmile_qr_scan", "android": "https://dc.lft.to/lastmile_qr_scan"}, "lon": -77.05742783333334, "type": "electric_scooter", "fusion_lat": 0.0, "lat": 38.93398883333333, "name": "c9e5ebd891c1ccfcafd61e2afa9c45e3", "fusion_lon": 0.0, "bike_id": "c9e5ebd891c1ccfcafd61e2afa9c45e3", "is_disabled": 0, "is_reserved": 0}, {"rental_uris": {"ios": "https://dc.lft.to/lastmile_qr_scan", "android": "https://dc.lft.to/lastmile_qr_scan"}, "lon": -76.99758416666667, "type": "electric_scooter", "fusion_lat": 0.0, "lat": 38.92178716666667, "name": "0509bbf9feb1b960ce61a22c605db837", "fusion_lon": 0.0, "bike_id": "0509bbf9feb1b960ce61a22c605db837", "is_disabled": 0, "is_reserved": 0}, {"rental_uris": {"ios": "https://dc.lft.to/lastmile_qr_scan", "android": "https://dc.lft.to/lastmile_qr_scan"}, "lon": -77.03197533333334, "type": "electric_scooter", "fusion_lat": 0.0, "lat": 38.88565, "name": "ba5598f987b6b3e557ae471065246f29", "fusion_lon": 0.0, "bike_id": "ba5598f987b6b3e557ae471065246f29", "is_disabled": 0, "is_reserved": 0}, {"rental_uris": {"ios": "https://dc.lft.to/lastmile_qr_scan", "android": "https://dc.lft.to/lastmile_qr_scan"}, "lon": -77.115232, "type": "electric_bike", "fusion_lat": 0.0, "lat": 38.85491966666667, "name": "1f6565368e7f73f2d1a970bd29f8f0cb", "fusion_lon": 0.0, "bike_id": "1f6565368e7f73f2d1a970bd29f8f0cb", "is_disabled": 0, "is_reserved": 0}, {"rental_uris": {"ios": "https://dc.lft.to/lastmile_qr_scan", "android": "https://dc.lft.to/lastmile_qr_scan"}, "lon": -77.04799416666667, "type": "electric_scooter", "fusion_lat": 0.0, "lat": 38.916359166666666, "name": "1290e72eabcba18ce18a81e2d5d006ea", "fusion_lon": 0.0, "bike_id": "1290e72eabcba18ce18a81e2d5d006ea", "is_disabled": 0, "is_reserved": 0}, {"rental_uris": {"ios": "https://dc.lft.to/lastmile_qr_scan", "android": "https://dc.lft.to/lastmile_qr_scan"}, "lon": -77.02611616666667, "type": "electric_scooter", "fusion_lat": 0.0, "lat": 38.91709616666667, "name": "dba20273b9a37e21e3b6e24f952a0120", "fusion_lon": 0.0, "bike_id": "dba20273b9a37e21e3b6e24f952a0120", "is_disabled": 0, "is_reserved": 0}, {"rental_uris": {"ios": "https://dc.lft.to/lastmile_qr_scan", "android": "https://dc.lft.to/lastmile_qr_scan"}, "lon": -77.03181116666667, "type": "electric_scooter", "fusion_lat": 0.0, "lat": 38.91329833333333, "name": "d4144d2cf8a86adf9193727c44ca5381", "fusion_lon": 0.0, "bike_id": "d4144d2cf8a86adf9193727c44ca5381", "is_disabled": 0, "is_reserved": 0}, {"rental_uris": {"ios": "https://dc.lft.to/lastmile_qr_scan", "android": "https://dc.lft.to/lastmile_qr_scan"}, "lon": -77.01779483333334, "type": "electric_scooter", "fusion_lat": 0.0, "lat": 38.903903166666666, "name": "002f07ac258459be4ae34a725d33ca83", "fusion_lon": 0.0, "bike_id": "002f07ac258459be4ae34a725d33ca83", "is_disabled": 0, "is_reserved": 0}, {"rental_uris": {"ios": "https://dc.lft.to/lastmile_qr_scan", "android": "https://dc.lft.to/lastmile_qr_scan"}, "lon": -76.99886666666667, "type": "electric_scooter", "fusion_lat": 0.0, "lat": 38.909447166666666, "name": "fdffc68705456df4c4c588ab6f6aa9fb", "fusion_lon": 0.0, "bike_id": "fdffc68705456df4c4c588ab6f6aa9fb", "is_disabled": 0, "is_reserved": 0}, {"rental_uris": {"ios": "https://dc.lft.to/lastmile_qr_scan", "android": "https://dc.lft.to/lastmile_qr_scan"}, "lon": -77.0427965, "type": "electric_scooter", "fusion_lat": 0.0, "lat": 38.905680833333335, "name": "f8ba5d564d46f46766bb844103c467bc", "fusion_lon": 0.0, "bike_id": "f8ba5d564d46f46766bb844103c467bc", "is_disabled": 0, "is_reserved": 0}, {"rental_uris": {"ios": "https://dc.lft.to/lastmile_qr_scan", "android": "https://dc.lft.to/lastmile_qr_scan"}, "lon": -76.933711, "type": "electric_scooter", "fusion_lat": 0.0, "lat": 38.89917766666667, "name": "8b0a3d24a09789977d92edd7148753ed", "fusion_lon": 0.0, "bike_id": "8b0a3d24a09789977d92edd7148753ed", "is_disabled": 0, "is_reserved": 0}, {"rental_uris": {"ios": "https://dc.lft.to/lastmile_qr_scan", "android": "https://dc.lft.to/lastmile_qr_scan"}, "lon": -76.936479, "type": "electric_scooter", "fusion_lat": 0.0, "lat": 38.889956166666664, "name": "2dee1cb4660b2309951a3146fd9ffa42", "fusion_lon": 0.0, "bike_id": "2dee1cb4660b2309951a3146fd9ffa42", "is_disabled": 0, "is_reserved": 0}, {"rental_uris": {"ios": "https://dc.lft.to/lastmile_qr_scan", "android": "https://dc.lft.to/lastmile_qr_scan"}, "lon": -77.022747, "type": "electric_scooter", "fusion_lat": 0.0, "lat": 38.91670883333333, "name": "84ee96ebdfe901bfc5df90635db2fd6d", "fusion_lon": 0.0, "bike_id": "84ee96ebdfe901bfc5df90635db2fd6d", "is_disabled": 0, "is_reserved": 0}, {"rental_uris": {"ios": "https://dc.lft.to/lastmile_qr_scan", "android": "https://dc.lft.to/lastmile_qr_scan"}, "lon": -77.04174883333333, "type": "electric_scooter", "fusion_lat": 0.0, "lat": 38.917317833333335, "name": "35207682af096278da4eee4545ce3861", "fusion_lon": 0.0, "bike_id": "35207682af096278da4eee4545ce3861", "is_disabled": 0, "is_reserved": 0}, {"rental_uris": {"ios": "https://dc.lft.to/lastmile_qr_scan", "android": "https://dc.lft.to/lastmile_qr_scan"}, "lon": -76.99510716666667, "type": "electric_scooter", "fusion_lat": 0.0, "lat": 38.88307833333333, "name": "8e9f26542f8fc7d42ea58dfe8a0b6eb5", "fusion_lon": 0.0, "bike_id": "8e9f26542f8fc7d42ea58dfe8a0b6eb5", "is_disabled": 0, "is_reserved": 0}, {"rental_uris": {"ios": "https://dc.lft.to/lastmile_qr_scan", "android": "https://dc.lft.to/lastmile_qr_scan"}, "lon": -77.01415016666667, "type": "electric_scooter", "fusion_lat": 0.0, "lat": 38.91711816666667, "name": "ba3e7c2bb69c3400c7466586d1008591", "fusion_lon": 0.0, "bike_id": "ba3e7c2bb69c3400c7466586d1008591", "is_disabled": 0, "is_reserved": 0}, {"rental_uris": {"ios": "https://dc.lft.to/lastmile_qr_scan", "android": "https://dc.lft.to/lastmile_qr_scan"}, "lon": -77.09158816666667, "type": "electric_bike", "fusion_lat": 0.0, "lat": 38.96761, "name": "8758dd0c3d7219ef5e2120f60f401bd8", "fusion_lon": 0.0, "bike_id": "8758dd0c3d7219ef5e2120f60f401bd8", "is_disabled": 0, "is_reserved": 0}, {"rental_uris": {"ios": "https://dc.lft.to/lastmile_qr_scan", "android": "https://dc.lft.to/lastmile_qr_scan"}, "lon": -77.02116733333334, "type": "electric_bike", "fusion_lat": 0.0, "lat": 38.93700183333333, "name": "f3a6cccf4128c59e4ebf941f1e0210e1", "fusion_lon": 0.0, "bike_id": "f3a6cccf4128c59e4ebf941f1e0210e1", "is_disabled": 0, "is_reserved": 0}, {"rental_uris": {"ios": "https://dc.lft.to/lastmile_qr_scan", "android": "https://dc.lft.to/lastmile_qr_scan"}, "lon": -77.04179433333333, "type": "electric_scooter", "fusion_lat": 0.0, "lat": 38.91856416666667, "name": "a35f6c94661b2ffe415b506afcc7d6cc", "fusion_lon": 0.0, "bike_id": "a35f6c94661b2ffe415b506afcc7d6cc", "is_disabled": 0, "is_reserved": 0}, {"rental_uris": {"ios": "https://dc.lft.to/lastmile_qr_scan", "android": "https://dc.lft.to/lastmile_qr_scan"}, "lon": -77.04565516666666, "type": "electric_scooter", "fusion_lat": 0.0, "lat": 38.913153666666666, "name": "5044e7175f3258a3dce847a9bf7d1e5c", "fusion_lon": 0.0, "bike_id": "5044e7175f3258a3dce847a9bf7d1e5c", "is_disabled": 0, "is_reserved": 0}, {"rental_uris": {"ios": "https://dc.lft.to/lastmile_qr_scan", "android": "https://dc.lft.to/lastmile_qr_scan"}, "lon": -77.04184383333333, "type": "electric_scooter", "fusion_lat": 0.0, "lat": 38.91986933333333, "name": "3c1c54d46acce2bb13cea4e4c0802bf7", "fusion_lon": 0.0, "bike_id": "3c1c54d46acce2bb13cea4e4c0802bf7", "is_disabled": 0, "is_reserved": 0}, {"rental_uris": {"ios": "https://dc.lft.to/lastmile_qr_scan", "android": "https://dc.lft.to/lastmile_qr_scan"}, "lon": -77.03300466666667, "type": "electric_scooter", "fusion_lat": 0.0, "lat": 38.92541666666666, "name": "42104f27f8a4270d1e11ece8cb213f7d", "fusion_lon": 0.0, "bike_id": "42104f27f8a4270d1e11ece8cb213f7d", "is_disabled": 0, "is_reserved": 0}, {"rental_uris": {"ios": "https://dc.lft.to/lastmile_qr_scan", "android": "https://dc.lft.to/lastmile_qr_scan"}, "lon": -77.04683316666667, "type": "electric_scooter", "fusion_lat": 0.0, "lat": 38.90576983333333, "name": "66b26367ecbb9050800980f4cc952a00", "fusion_lon": 0.0, "bike_id": "66b26367ecbb9050800980f4cc952a00", "is_disabled": 0, "is_reserved": 0}, {"rental_uris": {"ios": "https://dc.lft.to/lastmile_qr_scan", "android": "https://dc.lft.to/lastmile_qr_scan"}, "lon": -77.03858983333333, "type": "electric_scooter", "fusion_lat": 0.0, "lat": 38.910186333333336, "name": "153b66d6f6981948d6969da6801427dc", "fusion_lon": 0.0, "bike_id": "153b66d6f6981948d6969da6801427dc", "is_disabled": 0, "is_reserved": 0}, {"rental_uris": {"ios": "https://dc.lft.to/lastmile_qr_scan", "android": "https://dc.lft.to/lastmile_qr_scan"}, "lon": -77.02338333333333, "type": "electric_scooter", "fusion_lat": 0.0, "lat": 38.88363866666667, "name": "18325d4079f089635e69b0840b594389", "fusion_lon": 0.0, "bike_id": "18325d4079f089635e69b0840b594389", "is_disabled": 0, "is_reserved": 0}, {"rental_uris": {"ios": "https://dc.lft.to/lastmile_qr_scan", "android": "https://dc.lft.to/lastmile_qr_scan"}, "lon": -77.0215295, "type": "electric_scooter", "fusion_lat": 0.0, "lat": 38.9096795, "name": "d00bd1c1a7f678952c31b7ea4844ce92", "fusion_lon": 0.0, "bike_id": "d00bd1c1a7f678952c31b7ea4844ce92", "is_disabled": 0, "is_reserved": 0}, {"rental_uris": {"ios": "https://dc.lft.to/lastmile_qr_scan", "android": "https://dc.lft.to/lastmile_qr_scan"}, "lon": -77.13094866666667, "type": "electric_bike", "fusion_lat": 0.0, "lat": 38.8616235, "name": "f0ce38f3103fd06755b1662db3a16230", "fusion_lon": 0.0, "bike_id": "f0ce38f3103fd06755b1662db3a16230", "is_disabled": 0, "is_reserved": 0}, {"rental_uris": {"ios": "https://dc.lft.to/lastmile_qr_scan", "android": "https://dc.lft.to/lastmile_qr_scan"}, "lon": -76.96556233333334, "type": "electric_scooter", "fusion_lat": 0.0, "lat": 38.9186115, "name": "21b462dfecf897184e8bc7c9705ecf06", "fusion_lon": 0.0, "bike_id": "21b462dfecf897184e8bc7c9705ecf06", "is_disabled": 0, "is_reserved": 0}, {"rental_uris": {"ios": "https://dc.lft.to/lastmile_qr_scan", "android": "https://dc.lft.to/lastmile_qr_scan"}, "lon": -77.02243366666667, "type": "electric_scooter", "fusion_lat": 0.0, "lat": 38.9164225, "name": "83e28154d6f42916b5b7b9d365302a22", "fusion_lon": 0.0, "bike_id": "83e28154d6f42916b5b7b9d365302a22", "is_disabled": 0, "is_reserved": 0}, {"rental_uris": {"ios": "https://dc.lft.to/lastmile_qr_scan", "android": "https://dc.lft.to/lastmile_qr_scan"}, "lon": -77.04073133333333, "type": "electric_scooter", "fusion_lat": 0.0, "lat": 38.92384366666667, "name": "53d2aaaac4de0bfa9d46783486ba8c66", "fusion_lon": 0.0, "bike_id": "53d2aaaac4de0bfa9d46783486ba8c66", "is_disabled": 0, "is_reserved": 0}, {"rental_uris": {"ios": "https://dc.lft.to/lastmile_qr_scan", "android": "https://dc.lft.to/lastmile_qr_scan"}, "lon": -77.04137516666667, "type": "electric_scooter", "fusion_lat": 0.0, "lat": 38.922057833333334, "name": "dc81635eaa3a9bae2a8bd5eaa603f837", "fusion_lon": 0.0, "bike_id": "dc81635eaa3a9bae2a8bd5eaa603f837", "is_disabled": 0, "is_reserved": 0}, {"rental_uris": {"ios": "https://dc.lft.to/lastmile_qr_scan", "android": "https://dc.lft.to/lastmile_qr_scan"}, "lon": -77.063676, "type": "electric_scooter", "fusion_lat": 0.0, "lat": 38.90928233333333, "name": "43e93ef67d5c619bded348f6ddba27c3", "fusion_lon": 0.0, "bike_id": "43e93ef67d5c619bded348f6ddba27c3", "is_disabled": 0, "is_reserved": 0}, {"rental_uris": {"ios": "https://dc.lft.to/lastmile_qr_scan", "android": "https://dc.lft.to/lastmile_qr_scan"}, "lon": -77.02168066666667, "type": "electric_scooter", "fusion_lat": 0.0, "lat": 38.91610766666667, "name": "32227950e3973272908e45a3cf7bae51", "fusion_lon": 0.0, "bike_id": "32227950e3973272908e45a3cf7bae51", "is_disabled": 0, "is_reserved": 0}, {"rental_uris": {"ios": "https://dc.lft.to/lastmile_qr_scan", "android": "https://dc.lft.to/lastmile_qr_scan"}, "lon": -76.99944266666667, "type": "electric_scooter", "fusion_lat": 0.0, "lat": 38.84291733333333, "name": "80abdf20b8827e229510c1587650109e", "fusion_lon": 0.0, "bike_id": "80abdf20b8827e229510c1587650109e", "is_disabled": 0, "is_reserved": 0}, {"rental_uris": {"ios": "https://dc.lft.to/lastmile_qr_scan", "android": "https://dc.lft.to/lastmile_qr_scan"}, "lon": -77.01199633333333, "type": "electric_scooter", "fusion_lat": 0.0, "lat": 38.9154565, "name": "0738f7ed60a36245705e193ea3f86229", "fusion_lon": 0.0, "bike_id": "0738f7ed60a36245705e193ea3f86229", "is_disabled": 0, "is_reserved": 0}, {"rental_uris": {"ios": "https://dc.lft.to/lastmile_qr_scan", "android": "https://dc.lft.to/lastmile_qr_scan"}, "lon": -76.916009, "type": "electric_bike", "fusion_lat": 0.0, "lat": 38.879801666666665, "name": "cbb1d23fcbc4a84cf8854810e29dc75c", "fusion_lon": 0.0, "bike_id": "cbb1d23fcbc4a84cf8854810e29dc75c", "is_disabled": 0, "is_reserved": 0}, {"rental_uris": {"ios": "https://dc.lft.to/lastmile_qr_scan", "android": "https://dc.lft.to/lastmile_qr_scan"}, "lon": -77.02407283333334, "type": "electric_bike", "fusion_lat": 0.0, "lat": 38.994396333333334, "name": "1c71a4c8810e0eda37e7c2c4bf8fad6f", "fusion_lon": 0.0, "bike_id": "1c71a4c8810e0eda37e7c2c4bf8fad6f", "is_disabled": 0, "is_reserved": 0}, {"rental_uris": {"ios": "https://dc.lft.to/lastmile_qr_scan", "android": "https://dc.lft.to/lastmile_qr_scan"}, "lon": -77.00928983333333, "type": "electric_scooter", "fusion_lat": 0.0, "lat": 38.871999333333335, "name": "6b9854005888814373393407360af40c", "fusion_lon": 0.0, "bike_id": "6b9854005888814373393407360af40c", "is_disabled": 0, "is_reserved": 0}, {"rental_uris": {"ios": "https://dc.lft.to/lastmile_qr_scan", "android": "https://dc.lft.to/lastmile_qr_scan"}, "lon": -77.04058733333333, "type": "electric_scooter", "fusion_lat": 0.0, "lat": 38.926500833333336, "name": "5019340f8b1eeb1cc468d313d904222a", "fusion_lon": 0.0, "bike_id": "5019340f8b1eeb1cc468d313d904222a", "is_disabled": 0, "is_reserved": 0}, {"rental_uris": {"ios": "https://dc.lft.to/lastmile_qr_scan", "android": "https://dc.lft.to/lastmile_qr_scan"}, "lon": -77.06887266666666, "type": "electric_scooter", "fusion_lat": 0.0, "lat": 38.940274333333335, "name": "40a8bd543a9331fe9c02435b58a51d6b", "fusion_lon": 0.0, "bike_id": "40a8bd543a9331fe9c02435b58a51d6b", "is_disabled": 0, "is_reserved": 0}, {"rental_uris": {"ios": "https://dc.lft.to/lastmile_qr_scan", "android": "https://dc.lft.to/lastmile_qr_scan"}, "lon": -77.07045, "type": "electric_bike", "fusion_lat": 0.0, "lat": 38.82444483333333, "name": "ddf708f1d527f4b63518d5c0d1ebf927", "fusion_lon": 0.0, "bike_id": "ddf708f1d527f4b63518d5c0d1ebf927", "is_disabled": 0, "is_reserved": 0}, {"rental_uris": {"ios": "https://dc.lft.to/lastmile_qr_scan", "android": "https://dc.lft.to/lastmile_qr_scan"}, "lon": -77.03968283333333, "type": "electric_scooter", "fusion_lat": 0.0, "lat": 38.902388333333334, "name": "beeaa9bf116ee3231457380aa71cc161", "fusion_lon": 0.0, "bike_id": "beeaa9bf116ee3231457380aa71cc161", "is_disabled": 0, "is_reserved": 0}, {"rental_uris": {"ios": "https://dc.lft.to/lastmile_qr_scan", "android": "https://dc.lft.to/lastmile_qr_scan"}, "lon": -77.05263766666667, "type": "electric_scooter", "fusion_lat": 0.0, "lat": 38.9101885, "name": "fa06bbb2ab9728eacd1b1acb6560fd51", "fusion_lon": 0.0, "bike_id": "fa06bbb2ab9728eacd1b1acb6560fd51", "is_disabled": 0, "is_reserved": 0}, {"rental_uris": {"ios": "https://dc.lft.to/lastmile_qr_scan", "android": "https://dc.lft.to/lastmile_qr_scan"}, "lon": -77.0417045, "type": "electric_scooter", "fusion_lat": 0.0, "lat": 38.9177005, "name": "702f7707a30442b0c964bdc35574b9f3", "fusion_lon": 0.0, "bike_id": "702f7707a30442b0c964bdc35574b9f3", "is_disabled": 0, "is_reserved": 0}, {"rental_uris": {"ios": "https://dc.lft.to/lastmile_qr_scan", "android": "https://dc.lft.to/lastmile_qr_scan"}, "lon": -77.02456966666666, "type": "electric_scooter", "fusion_lat": 0.0, "lat": 38.97937816666666, "name": "b260f7594756cb603574b389a8d9f6f6", "fusion_lon": 0.0, "bike_id": "b260f7594756cb603574b389a8d9f6f6", "is_disabled": 0, "is_reserved": 0}, {"rental_uris": {"ios": "https://dc.lft.to/lastmile_qr_scan", "android": "https://dc.lft.to/lastmile_qr_scan"}, "lon": -77.0380505, "type": "electric_scooter", "fusion_lat": 0.0, "lat": 38.9038305, "name": "d3ee206c9ba5b93225b1740c843bd088", "fusion_lon": 0.0, "bike_id": "d3ee206c9ba5b93225b1740c843bd088", "is_disabled": 0, "is_reserved": 0}, {"rental_uris": {"ios": "https://dc.lft.to/lastmile_qr_scan", "android": "https://dc.lft.to/lastmile_qr_scan"}, "lon": -77.03210483333334, "type": "electric_scooter", "fusion_lat": 0.0, "lat": 38.91828533333333, "name": "e1825c824d0300732257b264f5c03db5", "fusion_lon": 0.0, "bike_id": "e1825c824d0300732257b264f5c03db5", "is_disabled": 0, "is_reserved": 0}, {"rental_uris": {"ios": "https://dc.lft.to/lastmile_qr_scan", "android": "https://dc.lft.to/lastmile_qr_scan"}, "lon": -77.0363055, "type": "electric_scooter", "fusion_lat": 0.0, "lat": 38.956402, "name": "b8bcfed3667664104e6d716e2313381a", "fusion_lon": 0.0, "bike_id": "b8bcfed3667664104e6d716e2313381a", "is_disabled": 0, "is_reserved": 0}, {"rental_uris": {"ios": "https://dc.lft.to/lastmile_qr_scan", "android": "https://dc.lft.to/lastmile_qr_scan"}, "lon": -77.03874816666666, "type": "electric_scooter", "fusion_lat": 0.0, "lat": 38.9324295, "name": "08814d251aef3c55568db4729c59b43d", "fusion_lon": 0.0, "bike_id": "08814d251aef3c55568db4729c59b43d", "is_disabled": 0, "is_reserved": 0}, {"rental_uris": {"ios": "https://dc.lft.to/lastmile_qr_scan", "android": "https://dc.lft.to/lastmile_qr_scan"}, "lon": -77.02664666666666, "type": "electric_scooter", "fusion_lat": 0.0, "lat": 38.89992016666667, "name": "0b2f7c1bcb151c5d91a1c05b08ad0750", "fusion_lon": 0.0, "bike_id": "0b2f7c1bcb151c5d91a1c05b08ad0750", "is_disabled": 0, "is_reserved": 0}, {"rental_uris": {"ios": "https://dc.lft.to/lastmile_qr_scan", "android": "https://dc.lft.to/lastmile_qr_scan"}, "lon": -77.045355, "type": "electric_scooter", "fusion_lat": 0.0, "lat": 38.919399, "name": "20054d93b64d2a74a8fa5a25dbe018fe", "fusion_lon": 0.0, "bike_id": "20054d93b64d2a74a8fa5a25dbe018fe", "is_disabled": 0, "is_reserved": 0}, {"rental_uris": {"ios": "https://dc.lft.to/lastmile_qr_scan", "android": "https://dc.lft.to/lastmile_qr_scan"}, "lon": -77.02194066666667, "type": "electric_scooter", "fusion_lat": 0.0, "lat": 38.88056, "name": "ed400cbe9daddd4badbfda7a38748978", "fusion_lon": 0.0, "bike_id": "ed400cbe9daddd4badbfda7a38748978", "is_disabled": 0, "is_reserved": 0}, {"rental_uris": {"ios": "https://dc.lft.to/lastmile_qr_scan", "android": "https://dc.lft.to/lastmile_qr_scan"}, "lon": -77.03958, "type": "electric_scooter", "fusion_lat": 0.0, "lat": 38.90248366666667, "name": "05e55ca3fd859821b478b45867280330", "fusion_lon": 0.0, "bike_id": "05e55ca3fd859821b478b45867280330", "is_disabled": 0, "is_reserved": 0}, {"rental_uris": {"ios": "https://dc.lft.to/lastmile_qr_scan", "android": "https://dc.lft.to/lastmile_qr_scan"}, "lon": -77.02578716666666, "type": "electric_scooter", "fusion_lat": 0.0, "lat": 38.91817266666666, "name": "1743139b4da5323e7559b900c18045b6", "fusion_lon": 0.0, "bike_id": "1743139b4da5323e7559b900c18045b6", "is_disabled": 0, "is_reserved": 0}, {"rental_uris": {"ios": "https://dc.lft.to/lastmile_qr_scan", "android": "https://dc.lft.to/lastmile_qr_scan"}, "lon": -76.973288, "type": "electric_bike", "fusion_lat": 0.0, "lat": 38.85061666666667, "name": "8b880f6249453b2488069e299ac482ac", "fusion_lon": 0.0, "bike_id": "8b880f6249453b2488069e299ac482ac", "is_disabled": 0, "is_reserved": 0}, {"rental_uris": {"ios": "https://dc.lft.to/lastmile_qr_scan", "android": "https://dc.lft.to/lastmile_qr_scan"}, "lon": -77.03710433333333, "type": "electric_scooter", "fusion_lat": 0.0, "lat": 38.928644, "name": "cee1e1da52f7a24f076e0982bed8ba5b", "fusion_lon": 0.0, "bike_id": "cee1e1da52f7a24f076e0982bed8ba5b", "is_disabled": 0, "is_reserved": 0}, {"rental_uris": {"ios": "https://dc.lft.to/lastmile_qr_scan", "android": "https://dc.lft.to/lastmile_qr_scan"}, "lon": -77.02835166666667, "type": "electric_scooter", "fusion_lat": 0.0, "lat": 38.8959725, "name": "a7d662bb288887a6c955627121a976f0", "fusion_lon": 0.0, "bike_id": "a7d662bb288887a6c955627121a976f0", "is_disabled": 0, "is_reserved": 0}, {"rental_uris": {"ios": "https://dc.lft.to/lastmile_qr_scan", "android": "https://dc.lft.to/lastmile_qr_scan"}, "lon": -76.99001233333334, "type": "electric_scooter", "fusion_lat": 0.0, "lat": 38.865012, "name": "765df80b3c0b52d6952d97696ec794d7", "fusion_lon": 0.0, "bike_id": "765df80b3c0b52d6952d97696ec794d7", "is_disabled": 0, "is_reserved": 0}, {"rental_uris": {"ios": "https://dc.lft.to/lastmile_qr_scan", "android": "https://dc.lft.to/lastmile_qr_scan"}, "lon": -77.031433, "type": "electric_scooter", "fusion_lat": 0.0, "lat": 38.91415116666667, "name": "eff47053f42e1ef77a34933e46654276", "fusion_lon": 0.0, "bike_id": "eff47053f42e1ef77a34933e46654276", "is_disabled": 0, "is_reserved": 0}, {"rental_uris": {"ios": "https://dc.lft.to/lastmile_qr_scan", "android": "https://dc.lft.to/lastmile_qr_scan"}, "lon": -77.01945716666667, "type": "electric_scooter", "fusion_lat": 0.0, "lat": 38.924141166666665, "name": "10b6d33e31924f690ee4c1fb4e90a69e", "fusion_lon": 0.0, "bike_id": "10b6d33e31924f690ee4c1fb4e90a69e", "is_disabled": 0, "is_reserved": 0}, {"rental_uris": {"ios": "https://dc.lft.to/lastmile_qr_scan", "android": "https://dc.lft.to/lastmile_qr_scan"}, "lon": -77.047161, "type": "electric_scooter", "fusion_lat": 0.0, "lat": 38.922378, "name": "89579c2aa1a94977237dc6dbc4b20c7f", "fusion_lon": 0.0, "bike_id": "89579c2aa1a94977237dc6dbc4b20c7f", "is_disabled": 0, "is_reserved": 0}, {"rental_uris": {"ios": "https://dc.lft.to/lastmile_qr_scan", "android": "https://dc.lft.to/lastmile_qr_scan"}, "lon": -77.05416383333333, "type": "electric_scooter", "fusion_lat": 0.0, "lat": 38.90248066666667, "name": "479f45849f2813afa979433936a4ced7", "fusion_lon": 0.0, "bike_id": "479f45849f2813afa979433936a4ced7", "is_disabled": 0, "is_reserved": 0}, {"rental_uris": {"ios": "https://dc.lft.to/lastmile_qr_scan", "android": "https://dc.lft.to/lastmile_qr_scan"}, "lon": -77.01760166666666, "type": "electric_scooter", "fusion_lat": 0.0, "lat": 38.9210785, "name": "05f82a10ef3bbd9c8ee2577ddfe608a2", "fusion_lon": 0.0, "bike_id": "05f82a10ef3bbd9c8ee2577ddfe608a2", "is_disabled": 0, "is_reserved": 0}, {"rental_uris": {"ios": "https://dc.lft.to/lastmile_qr_scan", "android": "https://dc.lft.to/lastmile_qr_scan"}, "lon": -77.00862733333334, "type": "electric_bike", "fusion_lat": 0.0, "lat": 38.82727283333333, "name": "25088f778156358974426b8762b89c78", "fusion_lon": 0.0, "bike_id": "25088f778156358974426b8762b89c78", "is_disabled": 0, "is_reserved": 0}, {"rental_uris": {"ios": "https://dc.lft.to/lastmile_qr_scan", "android": "https://dc.lft.to/lastmile_qr_scan"}, "lon": -76.9489035, "type": "electric_scooter", "fusion_lat": 0.0, "lat": 38.895272166666665, "name": "e6814a08e9b56df16d743cce85c8b5ac", "fusion_lon": 0.0, "bike_id": "e6814a08e9b56df16d743cce85c8b5ac", "is_disabled": 0, "is_reserved": 0}, {"rental_uris": {"ios": "https://dc.lft.to/lastmile_qr_scan", "android": "https://dc.lft.to/lastmile_qr_scan"}, "lon": -76.9900355, "type": "electric_scooter", "fusion_lat": 0.0, "lat": 38.9002815, "name": "52f7f51194b5871c014c03b7cb4a0398", "fusion_lon": 0.0, "bike_id": "52f7f51194b5871c014c03b7cb4a0398", "is_disabled": 0, "is_reserved": 0}, {"rental_uris": {"ios": "https://dc.lft.to/lastmile_qr_scan", "android": "https://dc.lft.to/lastmile_qr_scan"}, "lon": -76.98567016666667, "type": "electric_scooter", "fusion_lat": 0.0, "lat": 38.85587233333333, "name": "213ed0e0d9798ff468de6af5dbcb8265", "fusion_lon": 0.0, "bike_id": "213ed0e0d9798ff468de6af5dbcb8265", "is_disabled": 0, "is_reserved": 0}, {"rental_uris": {"ios": "https://dc.lft.to/lastmile_qr_scan", "android": "https://dc.lft.to/lastmile_qr_scan"}, "lon": -77.07067133333334, "type": "electric_scooter", "fusion_lat": 0.0, "lat": 38.95221, "name": "784ab885726ae623dd89c228bad079c6", "fusion_lon": 0.0, "bike_id": "784ab885726ae623dd89c228bad079c6", "is_disabled": 0, "is_reserved": 0}, {"rental_uris": {"ios": "https://dc.lft.to/lastmile_qr_scan", "android": "https://dc.lft.to/lastmile_qr_scan"}, "lon": -77.05510716666667, "type": "electric_scooter", "fusion_lat": 0.0, "lat": 38.9296795, "name": "07f4abd89a9d79ebc614aca425b5c4d9", "fusion_lon": 0.0, "bike_id": "07f4abd89a9d79ebc614aca425b5c4d9", "is_disabled": 0, "is_reserved": 0}, {"rental_uris": {"ios": "https://dc.lft.to/lastmile_qr_scan", "android": "https://dc.lft.to/lastmile_qr_scan"}, "lon": -77.0419685, "type": "electric_scooter", "fusion_lat": 0.0, "lat": 38.903307166666664, "name": "6e3abc869fac2c7fb5259bfd435fda6e", "fusion_lon": 0.0, "bike_id": "6e3abc869fac2c7fb5259bfd435fda6e", "is_disabled": 0, "is_reserved": 0}, {"rental_uris": {"ios": "https://dc.lft.to/lastmile_qr_scan", "android": "https://dc.lft.to/lastmile_qr_scan"}, "lon": -77.12626066666667, "type": "electric_bike", "fusion_lat": 0.0, "lat": 39.0581225, "name": "3e8e37540902e0cacc2956c5dc71a356", "fusion_lon": 0.0, "bike_id": "3e8e37540902e0cacc2956c5dc71a356", "is_disabled": 0, "is_reserved": 0}, {"rental_uris": {"ios": "https://dc.lft.to/lastmile_qr_scan", "android": "https://dc.lft.to/lastmile_qr_scan"}, "lon": -77.041554, "type": "electric_scooter", "fusion_lat": 0.0, "lat": 38.91403916666667, "name": "3f985b9e3fe34e220d885e07f45ae70b", "fusion_lon": 0.0, "bike_id": "3f985b9e3fe34e220d885e07f45ae70b", "is_disabled": 0, "is_reserved": 0}, {"rental_uris": {"ios": "https://dc.lft.to/lastmile_qr_scan", "android": "https://dc.lft.to/lastmile_qr_scan"}, "lon": -77.02303083333334, "type": "electric_scooter", "fusion_lat": 0.0, "lat": 38.918346166666666, "name": "aaef54c425eb4f9defa732a93b6c3b01", "fusion_lon": 0.0, "bike_id": "aaef54c425eb4f9defa732a93b6c3b01", "is_disabled": 0, "is_reserved": 0}, {"rental_uris": {"ios": "https://dc.lft.to/lastmile_qr_scan", "android": "https://dc.lft.to/lastmile_qr_scan"}, "lon": -76.9782915, "type": "electric_bike", "fusion_lat": 0.0, "lat": 38.846101166666664, "name": "ea59b54fcbe9766dfcb751cffa7f8fed", "fusion_lon": 0.0, "bike_id": "ea59b54fcbe9766dfcb751cffa7f8fed", "is_disabled": 0, "is_reserved": 0}, {"rental_uris": {"ios": "https://dc.lft.to/lastmile_qr_scan", "android": "https://dc.lft.to/lastmile_qr_scan"}, "lon": -77.06258683333333, "type": "electric_scooter", "fusion_lat": 0.0, "lat": 38.902869, "name": "9f594bd679ee397ca49b34f997a830da", "fusion_lon": 0.0, "bike_id": "9f594bd679ee397ca49b34f997a830da", "is_disabled": 0, "is_reserved": 0}, {"rental_uris": {"ios": "https://dc.lft.to/lastmile_qr_scan", "android": "https://dc.lft.to/lastmile_qr_scan"}, "lon": -77.1078215, "type": "electric_bike", "fusion_lat": 0.0, "lat": 38.892161, "name": "86a55c3bcadced56c6e80c0ad4d54fcd", "fusion_lon": 0.0, "bike_id": "86a55c3bcadced56c6e80c0ad4d54fcd", "is_disabled": 0, "is_reserved": 0}, {"rental_uris": {"ios": "https://dc.lft.to/lastmile_qr_scan", "android": "https://dc.lft.to/lastmile_qr_scan"}, "lon": -77.012248, "type": "electric_scooter", "fusion_lat": 0.0, "lat": 38.869722, "name": "ebbad19d9fa7eb4bd863067fcf14b68e", "fusion_lon": 0.0, "bike_id": "ebbad19d9fa7eb4bd863067fcf14b68e", "is_disabled": 0, "is_reserved": 0}, {"rental_uris": {"ios": "https://dc.lft.to/lastmile_qr_scan", "android": "https://dc.lft.to/lastmile_qr_scan"}, "lon": -76.96552983333333, "type": "electric_scooter", "fusion_lat": 0.0, "lat": 38.91862316666667, "name": "e82c4a93481ae94c346d87a01df5696e", "fusion_lon": 0.0, "bike_id": "e82c4a93481ae94c346d87a01df5696e", "is_disabled": 0, "is_reserved": 0}, {"rental_uris": {"ios": "https://dc.lft.to/lastmile_qr_scan", "android": "https://dc.lft.to/lastmile_qr_scan"}, "lon": -76.9890665, "type": "electric_scooter", "fusion_lat": 0.0, "lat": 38.86689916666667, "name": "20a8a2d1a136443e0c51271f095b2806", "fusion_lon": 0.0, "bike_id": "20a8a2d1a136443e0c51271f095b2806", "is_disabled": 0, "is_reserved": 0}, {"rental_uris": {"ios": "https://dc.lft.to/lastmile_qr_scan", "android": "https://dc.lft.to/lastmile_qr_scan"}, "lon": -77.01778033333333, "type": "electric_scooter", "fusion_lat": 0.0, "lat": 38.8871745, "name": "ace82f59f68b9c9034edab48d6a36284", "fusion_lon": 0.0, "bike_id": "ace82f59f68b9c9034edab48d6a36284", "is_disabled": 0, "is_reserved": 0}, {"rental_uris": {"ios": "https://dc.lft.to/lastmile_qr_scan", "android": "https://dc.lft.to/lastmile_qr_scan"}, "lon": -77.06635933333334, "type": "electric_scooter", "fusion_lat": 0.0, "lat": 38.9280105, "name": "1464e38a67b42803eac1f9a02d60dbae", "fusion_lon": 0.0, "bike_id": "1464e38a67b42803eac1f9a02d60dbae", "is_disabled": 0, "is_reserved": 0}, {"rental_uris": {"ios": "https://dc.lft.to/lastmile_qr_scan", "android": "https://dc.lft.to/lastmile_qr_scan"}, "lon": -77.02310133333333, "type": "electric_scooter", "fusion_lat": 0.0, "lat": 38.916824, "name": "c171553f3da79dd5f2293e4dc4a8d84b", "fusion_lon": 0.0, "bike_id": "c171553f3da79dd5f2293e4dc4a8d84b", "is_disabled": 0, "is_reserved": 0}, {"rental_uris": {"ios": "https://dc.lft.to/lastmile_qr_scan", "android": "https://dc.lft.to/lastmile_qr_scan"}, "lon": -76.92711583333333, "type": "electric_scooter", "fusion_lat": 0.0, "lat": 38.8876665, "name": "dd153c4cef7c24037b2f293725fd7581", "fusion_lon": 0.0, "bike_id": "dd153c4cef7c24037b2f293725fd7581", "is_disabled": 0, "is_reserved": 0}, {"rental_uris": {"ios": "https://dc.lft.to/lastmile_qr_scan", "android": "https://dc.lft.to/lastmile_qr_scan"}, "lon": -77.059041, "type": "electric_scooter", "fusion_lat": 0.0, "lat": 38.90081966666666, "name": "2351580881d2d3a610f4f6b61086b061", "fusion_lon": 0.0, "bike_id": "2351580881d2d3a610f4f6b61086b061", "is_disabled": 0, "is_reserved": 0}, {"rental_uris": {"ios": "https://dc.lft.to/lastmile_qr_scan", "android": "https://dc.lft.to/lastmile_qr_scan"}, "lon": -77.0272375, "type": "electric_scooter", "fusion_lat": 0.0, "lat": 38.90199283333333, "name": "dee61dfb783e89c5ef8d0ff704ea04f6", "fusion_lon": 0.0, "bike_id": "dee61dfb783e89c5ef8d0ff704ea04f6", "is_disabled": 0, "is_reserved": 0}, {"rental_uris": {"ios": "https://dc.lft.to/lastmile_qr_scan", "android": "https://dc.lft.to/lastmile_qr_scan"}, "lon": -77.039906, "type": "electric_scooter", "fusion_lat": 0.0, "lat": 38.90389316666667, "name": "b7ed3c30ac9bb812d00a7662178b6ba6", "fusion_lon": 0.0, "bike_id": "b7ed3c30ac9bb812d00a7662178b6ba6", "is_disabled": 0, "is_reserved": 0}, {"rental_uris": {"ios": "https://dc.lft.to/lastmile_qr_scan", "android": "https://dc.lft.to/lastmile_qr_scan"}, "lon": -77.03076933333334, "type": "electric_scooter", "fusion_lat": 0.0, "lat": 38.899933, "name": "facffb510ee6f767ccc73085777a87c0", "fusion_lon": 0.0, "bike_id": "facffb510ee6f767ccc73085777a87c0", "is_disabled": 0, "is_reserved": 0}, {"rental_uris": {"ios": "https://dc.lft.to/lastmile_qr_scan", "android": "https://dc.lft.to/lastmile_qr_scan"}, "lon": -77.02330333333333, "type": "electric_scooter", "fusion_lat": 0.0, "lat": 38.88467883333333, "name": "5b9f30d02c9c9bdb9dc57746301a5db6", "fusion_lon": 0.0, "bike_id": "5b9f30d02c9c9bdb9dc57746301a5db6", "is_disabled": 0, "is_reserved": 0}, {"rental_uris": {"ios": "https://dc.lft.to/lastmile_qr_scan", "android": "https://dc.lft.to/lastmile_qr_scan"}, "lon": -77.02378466666667, "type": "electric_scooter", "fusion_lat": 0.0, "lat": 38.89849316666667, "name": "97686890d3e49861b76e778e27737b3d", "fusion_lon": 0.0, "bike_id": "97686890d3e49861b76e778e27737b3d", "is_disabled": 0, "is_reserved": 0}, {"rental_uris": {"ios": "https://dc.lft.to/lastmile_qr_scan", "android": "https://dc.lft.to/lastmile_qr_scan"}, "lon": -77.0039045, "type": "electric_scooter", "fusion_lat": 0.0, "lat": 38.9119565, "name": "2391f7d9b358013038f1aba967d97097", "fusion_lon": 0.0, "bike_id": "2391f7d9b358013038f1aba967d97097", "is_disabled": 0, "is_reserved": 0}, {"rental_uris": {"ios": "https://dc.lft.to/lastmile_qr_scan", "android": "https://dc.lft.to/lastmile_qr_scan"}, "lon": -77.071622, "type": "electric_scooter", "fusion_lat": 0.0, "lat": 38.920184166666665, "name": "f12c5af558e796e967f616448de49b40", "fusion_lon": 0.0, "bike_id": "f12c5af558e796e967f616448de49b40", "is_disabled": 0, "is_reserved": 0}, {"rental_uris": {"ios": "https://dc.lft.to/lastmile_qr_scan", "android": "https://dc.lft.to/lastmile_qr_scan"}, "lon": -77.02689166666667, "type": "electric_bike", "fusion_lat": 0.0, "lat": 38.91136233333334, "name": "9f2a1aad1a6babdd132fdf873fd1797d", "fusion_lon": 0.0, "bike_id": "9f2a1aad1a6babdd132fdf873fd1797d", "is_disabled": 0, "is_reserved": 0}, {"rental_uris": {"ios": "https://dc.lft.to/lastmile_qr_scan", "android": "https://dc.lft.to/lastmile_qr_scan"}, "lon": -77.0374255, "type": "electric_scooter", "fusion_lat": 0.0, "lat": 38.95156816666667, "name": "047bc57a0f954902baa659ad375114e6", "fusion_lon": 0.0, "bike_id": "047bc57a0f954902baa659ad375114e6", "is_disabled": 0, "is_reserved": 0}, {"rental_uris": {"ios": "https://dc.lft.to/lastmile_qr_scan", "android": "https://dc.lft.to/lastmile_qr_scan"}, "lon": -77.025572, "type": "electric_scooter", "fusion_lat": 0.0, "lat": 38.91814183333334, "name": "05283da1b705b2ef0f3810bfcfc6c7ae", "fusion_lon": 0.0, "bike_id": "05283da1b705b2ef0f3810bfcfc6c7ae", "is_disabled": 0, "is_reserved": 0}, {"rental_uris": {"ios": "https://dc.lft.to/lastmile_qr_scan", "android": "https://dc.lft.to/lastmile_qr_scan"}, "lon": -77.0414955, "type": "electric_scooter", "fusion_lat": 0.0, "lat": 38.916778666666666, "name": "00652ec21dfd83733d3c422da6e383f4", "fusion_lon": 0.0, "bike_id": "00652ec21dfd83733d3c422da6e383f4", "is_disabled": 0, "is_reserved": 0}, {"rental_uris": {"ios": "https://dc.lft.to/lastmile_qr_scan", "android": "https://dc.lft.to/lastmile_qr_scan"}, "lon": -77.01534066666666, "type": "electric_scooter", "fusion_lat": 0.0, "lat": 38.88742333333333, "name": "6a48a61824eb2ae945c8db366a2c6d59", "fusion_lon": 0.0, "bike_id": "6a48a61824eb2ae945c8db366a2c6d59", "is_disabled": 0, "is_reserved": 0}, {"rental_uris": {"ios": "https://dc.lft.to/lastmile_qr_scan", "android": "https://dc.lft.to/lastmile_qr_scan"}, "lon": -77.10507366666667, "type": "electric_bike", "fusion_lat": 0.0, "lat": 38.928483666666665, "name": "58fd2db47e50952b6e11ba43ec460ba0", "fusion_lon": 0.0, "bike_id": "58fd2db47e50952b6e11ba43ec460ba0", "is_disabled": 0, "is_reserved": 0}, {"rental_uris": {"ios": "https://dc.lft.to/lastmile_qr_scan", "android": "https://dc.lft.to/lastmile_qr_scan"}, "lon": -77.041257, "type": "electric_scooter", "fusion_lat": 0.0, "lat": 38.92434316666667, "name": "e24f7ca3783b39779cfe0f1df48aba32", "fusion_lon": 0.0, "bike_id": "e24f7ca3783b39779cfe0f1df48aba32", "is_disabled": 0, "is_reserved": 0}, {"rental_uris": {"ios": "https://dc.lft.to/lastmile_qr_scan", "android": "https://dc.lft.to/lastmile_qr_scan"}, "lon": -77.0535965, "type": "electric_scooter", "fusion_lat": 0.0, "lat": 38.9270625, "name": "4d7b680d4a2888ab63fbd2801d57bd03", "fusion_lon": 0.0, "bike_id": "4d7b680d4a2888ab63fbd2801d57bd03", "is_disabled": 0, "is_reserved": 0}, {"rental_uris": {"ios": "https://dc.lft.to/lastmile_qr_scan", "android": "https://dc.lft.to/lastmile_qr_scan"}, "lon": -77.02713983333334, "type": "electric_scooter", "fusion_lat": 0.0, "lat": 38.90845916666667, "name": "5f5d6d7ee3afcc14fc2528328a4538e9", "fusion_lon": 0.0, "bike_id": "5f5d6d7ee3afcc14fc2528328a4538e9", "is_disabled": 0, "is_reserved": 0}, {"rental_uris": {"ios": "https://dc.lft.to/lastmile_qr_scan", "android": "https://dc.lft.to/lastmile_qr_scan"}, "lon": -77.02804233333333, "type": "electric_scooter", "fusion_lat": 0.0, "lat": 38.9168305, "name": "23e09e5c636f2cc8f72c97e39f60e358", "fusion_lon": 0.0, "bike_id": "23e09e5c636f2cc8f72c97e39f60e358", "is_disabled": 0, "is_reserved": 0}, {"rental_uris": {"ios": "https://dc.lft.to/lastmile_qr_scan", "android": "https://dc.lft.to/lastmile_qr_scan"}, "lon": -77.00685083333333, "type": "electric_scooter", "fusion_lat": 0.0, "lat": 38.90005216666667, "name": "64ed0ba1c44bb7169e0fc92a61650a8f", "fusion_lon": 0.0, "bike_id": "64ed0ba1c44bb7169e0fc92a61650a8f", "is_disabled": 0, "is_reserved": 0}, {"rental_uris": {"ios": "https://dc.lft.to/lastmile_qr_scan", "android": "https://dc.lft.to/lastmile_qr_scan"}, "lon": -77.04611933333334, "type": "electric_scooter", "fusion_lat": 0.0, "lat": 38.898244166666665, "name": "da6d52b3683d7580f0dd5b25b798dab6", "fusion_lon": 0.0, "bike_id": "da6d52b3683d7580f0dd5b25b798dab6", "is_disabled": 0, "is_reserved": 0}, {"rental_uris": {"ios": "https://dc.lft.to/lastmile_qr_scan", "android": "https://dc.lft.to/lastmile_qr_scan"}, "lon": -77.04861933333333, "type": "electric_scooter", "fusion_lat": 0.0, "lat": 38.903771, "name": "7ee089f1ab27cfca8c459b544df8370e", "fusion_lon": 0.0, "bike_id": "7ee089f1ab27cfca8c459b544df8370e", "is_disabled": 0, "is_reserved": 0}, {"rental_uris": {"ios": "https://dc.lft.to/lastmile_qr_scan", "android": "https://dc.lft.to/lastmile_qr_scan"}, "lon": -77.03179933333334, "type": "electric_scooter", "fusion_lat": 0.0, "lat": 38.91323383333334, "name": "f3c8ed6a965ad77845e56365806845ed", "fusion_lon": 0.0, "bike_id": "f3c8ed6a965ad77845e56365806845ed", "is_disabled": 0, "is_reserved": 0}, {"rental_uris": {"ios": "https://dc.lft.to/lastmile_qr_scan", "android": "https://dc.lft.to/lastmile_qr_scan"}, "lon": -77.060011, "type": "electric_scooter", "fusion_lat": 0.0, "lat": 38.9053145, "name": "5c17ce46bfa9fd710e2be5a01cb32ba1", "fusion_lon": 0.0, "bike_id": "5c17ce46bfa9fd710e2be5a01cb32ba1", "is_disabled": 0, "is_reserved": 0}, {"rental_uris": {"ios": "https://dc.lft.to/lastmile_qr_scan", "android": "https://dc.lft.to/lastmile_qr_scan"}, "lon": -76.96852883333334, "type": "electric_scooter", "fusion_lat": 0.0, "lat": 38.8606785, "name": "b7bb962b9c1d9305470a3aeb9b13cb2d", "fusion_lon": 0.0, "bike_id": "b7bb962b9c1d9305470a3aeb9b13cb2d", "is_disabled": 0, "is_reserved": 0}, {"rental_uris": {"ios": "https://dc.lft.to/lastmile_qr_scan", "android": "https://dc.lft.to/lastmile_qr_scan"}, "lon": -77.03516666666667, "type": "electric_scooter", "fusion_lat": 0.0, "lat": 38.92197, "name": "0941303d08a51f5fffe682bfa601798d", "fusion_lon": 0.0, "bike_id": "0941303d08a51f5fffe682bfa601798d", "is_disabled": 0, "is_reserved": 0}, {"rental_uris": {"ios": "https://dc.lft.to/lastmile_qr_scan", "android": "https://dc.lft.to/lastmile_qr_scan"}, "lon": -77.03183983333334, "type": "electric_scooter", "fusion_lat": 0.0, "lat": 38.9117285, "name": "7d7784a55496b5b408f9f35a041911aa", "fusion_lon": 0.0, "bike_id": "7d7784a55496b5b408f9f35a041911aa", "is_disabled": 0, "is_reserved": 0}, {"rental_uris": {"ios": "https://dc.lft.to/lastmile_qr_scan", "android": "https://dc.lft.to/lastmile_qr_scan"}, "lon": -77.029735, "type": "electric_scooter", "fusion_lat": 0.0, "lat": 38.962262833333334, "name": "0a80ced7c399242c9dd9091a8cfba87c", "fusion_lon": 0.0, "bike_id": "0a80ced7c399242c9dd9091a8cfba87c", "is_disabled": 0, "is_reserved": 0}, {"rental_uris": {"ios": "https://dc.lft.to/lastmile_qr_scan", "android": "https://dc.lft.to/lastmile_qr_scan"}, "lon": -76.94795633333334, "type": "electric_scooter", "fusion_lat": 0.0, "lat": 38.8963275, "name": "2578909a9dd85541918798a43fd129ad", "fusion_lon": 0.0, "bike_id": "2578909a9dd85541918798a43fd129ad", "is_disabled": 0, "is_reserved": 0}, {"rental_uris": {"ios": "https://dc.lft.to/lastmile_qr_scan", "android": "https://dc.lft.to/lastmile_qr_scan"}, "lon": -77.00878533333334, "type": "electric_scooter", "fusion_lat": 0.0, "lat": 38.914032, "name": "38b94d965470ae0d28d9e1bda641b9f1", "fusion_lon": 0.0, "bike_id": "38b94d965470ae0d28d9e1bda641b9f1", "is_disabled": 0, "is_reserved": 0}, {"rental_uris": {"ios": "https://dc.lft.to/lastmile_qr_scan", "android": "https://dc.lft.to/lastmile_qr_scan"}, "lon": -77.00137, "type": "electric_scooter", "fusion_lat": 0.0, "lat": 38.904096, "name": "69d1fe847ff45c0647a8c158ec0bec92", "fusion_lon": 0.0, "bike_id": "69d1fe847ff45c0647a8c158ec0bec92", "is_disabled": 0, "is_reserved": 0}, {"rental_uris": {"ios": "https://dc.lft.to/lastmile_qr_scan", "android": "https://dc.lft.to/lastmile_qr_scan"}, "lon": -76.96550283333333, "type": "electric_scooter", "fusion_lat": 0.0, "lat": 38.91857566666667, "name": "3075fa24826a1d853643969f9f54c68f", "fusion_lon": 0.0, "bike_id": "3075fa24826a1d853643969f9f54c68f", "is_disabled": 0, "is_reserved": 0}, {"rental_uris": {"ios": "https://dc.lft.to/lastmile_qr_scan", "android": "https://dc.lft.to/lastmile_qr_scan"}, "lon": -77.01621316666666, "type": "electric_scooter", "fusion_lat": 0.0, "lat": 38.88744966666667, "name": "c996a9428ed60c6db410e9dee46b711a", "fusion_lon": 0.0, "bike_id": "c996a9428ed60c6db410e9dee46b711a", "is_disabled": 0, "is_reserved": 0}, {"rental_uris": {"ios": "https://dc.lft.to/lastmile_qr_scan", "android": "https://dc.lft.to/lastmile_qr_scan"}, "lon": -76.96553566666667, "type": "electric_scooter", "fusion_lat": 0.0, "lat": 38.91847883333333, "name": "42fd46761f52be3ac2d0eaa623e60021", "fusion_lon": 0.0, "bike_id": "42fd46761f52be3ac2d0eaa623e60021", "is_disabled": 0, "is_reserved": 0}, {"rental_uris": {"ios": "https://dc.lft.to/lastmile_qr_scan", "android": "https://dc.lft.to/lastmile_qr_scan"}, "lon": -77.1033545, "type": "electric_bike", "fusion_lat": 0.0, "lat": 38.852220833333334, "name": "fc7c6efe129db1a9e67363c6a388201e", "fusion_lon": 0.0, "bike_id": "fc7c6efe129db1a9e67363c6a388201e", "is_disabled": 0, "is_reserved": 0}, {"rental_uris": {"ios": "https://dc.lft.to/lastmile_qr_scan", "android": "https://dc.lft.to/lastmile_qr_scan"}, "lon": -77.04824883333333, "type": "electric_scooter", "fusion_lat": 0.0, "lat": 38.90793716666667, "name": "9c7e3e9989942a7b69cf88f5e514ec47", "fusion_lon": 0.0, "bike_id": "9c7e3e9989942a7b69cf88f5e514ec47", "is_disabled": 0, "is_reserved": 0}, {"rental_uris": {"ios": "https://dc.lft.to/lastmile_qr_scan", "android": "https://dc.lft.to/lastmile_qr_scan"}, "lon": -77.0401015, "type": "electric_scooter", "fusion_lat": 0.0, "lat": 38.91797233333333, "name": "86a19fac1fabc0aaa6289c91de0aa24b", "fusion_lon": 0.0, "bike_id": "86a19fac1fabc0aaa6289c91de0aa24b", "is_disabled": 0, "is_reserved": 0}, {"rental_uris": {"ios": "https://dc.lft.to/lastmile_qr_scan", "android": "https://dc.lft.to/lastmile_qr_scan"}, "lon": -77.06330783333334, "type": "electric_bike", "fusion_lat": 0.0, "lat": 38.921089, "name": "228b16f4e6592060d7e0c3db68cc136c", "fusion_lon": 0.0, "bike_id": "228b16f4e6592060d7e0c3db68cc136c", "is_disabled": 0, "is_reserved": 0}, {"rental_uris": {"ios": "https://dc.lft.to/lastmile_qr_scan", "android": "https://dc.lft.to/lastmile_qr_scan"}, "lon": -76.94629916666666, "type": "electric_scooter", "fusion_lat": 0.0, "lat": 38.89843716666667, "name": "2c43bb8504ffc07df575b7b582a53cc5", "fusion_lon": 0.0, "bike_id": "2c43bb8504ffc07df575b7b582a53cc5", "is_disabled": 0, "is_reserved": 0}, {"rental_uris": {"ios": "https://dc.lft.to/lastmile_qr_scan", "android": "https://dc.lft.to/lastmile_qr_scan"}, "lon": -77.05861716666666, "type": "electric_scooter", "fusion_lat": 0.0, "lat": 38.93604966666667, "name": "b73b769a494d8260d375b61c7226e98c", "fusion_lon": 0.0, "bike_id": "b73b769a494d8260d375b61c7226e98c", "is_disabled": 0, "is_reserved": 0}, {"rental_uris": {"ios": "https://dc.lft.to/lastmile_qr_scan", "android": "https://dc.lft.to/lastmile_qr_scan"}, "lon": -77.08869883333334, "type": "electric_scooter", "fusion_lat": 0.0, "lat": 38.90985, "name": "89fb781b07459293cf1f0c210517773b", "fusion_lon": 0.0, "bike_id": "89fb781b07459293cf1f0c210517773b", "is_disabled": 0, "is_reserved": 0}, {"rental_uris": {"ios": "https://dc.lft.to/lastmile_qr_scan", "android": "https://dc.lft.to/lastmile_qr_scan"}, "lon": -77.0294, "type": "electric_scooter", "fusion_lat": 0.0, "lat": 38.899392666666664, "name": "e12196b7293259b6c7a35748168ea0c4", "fusion_lon": 0.0, "bike_id": "e12196b7293259b6c7a35748168ea0c4", "is_disabled": 0, "is_reserved": 0}, {"rental_uris": {"ios": "https://dc.lft.to/lastmile_qr_scan", "android": "https://dc.lft.to/lastmile_qr_scan"}, "lon": -77.00501733333333, "type": "electric_scooter", "fusion_lat": 0.0, "lat": 38.878862, "name": "64778ca407cdbf2e88b30c83d1e9096f", "fusion_lon": 0.0, "bike_id": "64778ca407cdbf2e88b30c83d1e9096f", "is_disabled": 0, "is_reserved": 0}, {"rental_uris": {"ios": "https://dc.lft.to/lastmile_qr_scan", "android": "https://dc.lft.to/lastmile_qr_scan"}, "lon": -77.00929083333334, "type": "electric_scooter", "fusion_lat": 0.0, "lat": 38.87117883333333, "name": "fb955efa29786c15811296363b99692e", "fusion_lon": 0.0, "bike_id": "fb955efa29786c15811296363b99692e", "is_disabled": 0, "is_reserved": 0}, {"rental_uris": {"ios": "https://dc.lft.to/lastmile_qr_scan", "android": "https://dc.lft.to/lastmile_qr_scan"}, "lon": -77.03690066666667, "type": "electric_scooter", "fusion_lat": 0.0, "lat": 38.927620833333336, "name": "bef6cc30fdb3f7edfb3a10e4f781268b", "fusion_lon": 0.0, "bike_id": "bef6cc30fdb3f7edfb3a10e4f781268b", "is_disabled": 0, "is_reserved": 0}, {"rental_uris": {"ios": "https://dc.lft.to/lastmile_qr_scan", "android": "https://dc.lft.to/lastmile_qr_scan"}, "lon": -77.04988083333333, "type": "electric_scooter", "fusion_lat": 0.0, "lat": 38.896039, "name": "dadc3b8e1472a0717d63f2af00e6969b", "fusion_lon": 0.0, "bike_id": "dadc3b8e1472a0717d63f2af00e6969b", "is_disabled": 0, "is_reserved": 0}, {"rental_uris": {"ios": "https://dc.lft.to/lastmile_qr_scan", "android": "https://dc.lft.to/lastmile_qr_scan"}, "lon": -77.0073165, "type": "electric_scooter", "fusion_lat": 0.0, "lat": 38.90360916666667, "name": "4a8ee529bbe17744067bb39611f7dec9", "fusion_lon": 0.0, "bike_id": "4a8ee529bbe17744067bb39611f7dec9", "is_disabled": 0, "is_reserved": 0}, {"rental_uris": {"ios": "https://dc.lft.to/lastmile_qr_scan", "android": "https://dc.lft.to/lastmile_qr_scan"}, "lon": -77.03145966666666, "type": "electric_scooter", "fusion_lat": 0.0, "lat": 38.914148, "name": "22557d88d57db2848cc8d263d0eaeef2", "fusion_lon": 0.0, "bike_id": "22557d88d57db2848cc8d263d0eaeef2", "is_disabled": 0, "is_reserved": 0}, {"rental_uris": {"ios": "https://dc.lft.to/lastmile_qr_scan", "android": "https://dc.lft.to/lastmile_qr_scan"}, "lon": -76.997725, "type": "electric_scooter", "fusion_lat": 0.0, "lat": 38.84428616666667, "name": "79f3c8117757d5b53dad6b1ddd96dbb1", "fusion_lon": 0.0, "bike_id": "79f3c8117757d5b53dad6b1ddd96dbb1", "is_disabled": 0, "is_reserved": 0}, {"rental_uris": {"ios": "https://dc.lft.to/lastmile_qr_scan", "android": "https://dc.lft.to/lastmile_qr_scan"}, "lon": -77.066128, "type": "electric_scooter", "fusion_lat": 0.0, "lat": 38.90524166666667, "name": "6498c20b14cb37f7f400fbce0bd19ce0", "fusion_lon": 0.0, "bike_id": "6498c20b14cb37f7f400fbce0bd19ce0", "is_disabled": 0, "is_reserved": 0}, {"rental_uris": {"ios": "https://dc.lft.to/lastmile_qr_scan", "android": "https://dc.lft.to/lastmile_qr_scan"}, "lon": -76.99947633333333, "type": "electric_bike", "fusion_lat": 0.0, "lat": 38.92338216666667, "name": "b6e337c13497d4ba646ec1b7a225c701", "fusion_lon": 0.0, "bike_id": "b6e337c13497d4ba646ec1b7a225c701", "is_disabled": 0, "is_reserved": 0}, {"rental_uris": {"ios": "https://dc.lft.to/lastmile_qr_scan", "android": "https://dc.lft.to/lastmile_qr_scan"}, "lon": -77.00719516666666, "type": "electric_scooter", "fusion_lat": 0.0, "lat": 38.91340866666667, "name": "3fd37d58d649a70a69b164c3d03b145a", "fusion_lon": 0.0, "bike_id": "3fd37d58d649a70a69b164c3d03b145a", "is_disabled": 0, "is_reserved": 0}, {"rental_uris": {"ios": "https://dc.lft.to/lastmile_qr_scan", "android": "https://dc.lft.to/lastmile_qr_scan"}, "lon": -76.93961066666667, "type": "electric_scooter", "fusion_lat": 0.0, "lat": 38.8941715, "name": "d650f3598f4446ae75c000c3c1cdaf3b", "fusion_lon": 0.0, "bike_id": "d650f3598f4446ae75c000c3c1cdaf3b", "is_disabled": 0, "is_reserved": 0}, {"rental_uris": {"ios": "https://dc.lft.to/lastmile_qr_scan", "android": "https://dc.lft.to/lastmile_qr_scan"}, "lon": -77.05273416666667, "type": "electric_scooter", "fusion_lat": 0.0, "lat": 38.91010583333333, "name": "d7b76820be6550e8386cbf911a01e4ed", "fusion_lon": 0.0, "bike_id": "d7b76820be6550e8386cbf911a01e4ed", "is_disabled": 0, "is_reserved": 0}, {"rental_uris": {"ios": "https://dc.lft.to/lastmile_qr_scan", "android": "https://dc.lft.to/lastmile_qr_scan"}, "lon": -77.01594916666667, "type": "electric_scooter", "fusion_lat": 0.0, "lat": 38.896139833333336, "name": "58b771175ab2d09c117522a91a867287", "fusion_lon": 0.0, "bike_id": "58b771175ab2d09c117522a91a867287", "is_disabled": 0, "is_reserved": 0}, {"rental_uris": {"ios": "https://dc.lft.to/lastmile_qr_scan", "android": "https://dc.lft.to/lastmile_qr_scan"}, "lon": -77.0328345, "type": "electric_scooter", "fusion_lat": 0.0, "lat": 38.937752333333336, "name": "c16d76724211eba08e70268aaac80c60", "fusion_lon": 0.0, "bike_id": "c16d76724211eba08e70268aaac80c60", "is_disabled": 0, "is_reserved": 0}, {"rental_uris": {"ios": "https://dc.lft.to/lastmile_qr_scan", "android": "https://dc.lft.to/lastmile_qr_scan"}, "lon": -77.027068, "type": "electric_scooter", "fusion_lat": 0.0, "lat": 38.918005666666666, "name": "bc62dc6952cf429d16ac594919e65fb7", "fusion_lon": 0.0, "bike_id": "bc62dc6952cf429d16ac594919e65fb7", "is_disabled": 0, "is_reserved": 0}, {"rental_uris": {"ios": "https://dc.lft.to/lastmile_qr_scan", "android": "https://dc.lft.to/lastmile_qr_scan"}, "lon": -77.049317, "type": "electric_scooter", "fusion_lat": 0.0, "lat": 38.89605516666666, "name": "50a95a4e1eb05ff225ed754c66d2f524", "fusion_lon": 0.0, "bike_id": "50a95a4e1eb05ff225ed754c66d2f524", "is_disabled": 0, "is_reserved": 0}, {"rental_uris": {"ios": "https://dc.lft.to/lastmile_qr_scan", "android": "https://dc.lft.to/lastmile_qr_scan"}, "lon": -77.02578083333333, "type": "electric_scooter", "fusion_lat": 0.0, "lat": 38.89586633333333, "name": "69ca8366550b3591a01693f08f7af77d", "fusion_lon": 0.0, "bike_id": "69ca8366550b3591a01693f08f7af77d", "is_disabled": 0, "is_reserved": 0}, {"rental_uris": {"ios": "https://dc.lft.to/lastmile_qr_scan", "android": "https://dc.lft.to/lastmile_qr_scan"}, "lon": -76.92995683333334, "type": "electric_bike", "fusion_lat": 0.0, "lat": 38.88796216666667, "name": "72d8adb5a596c7686e81bced63795ae1", "fusion_lon": 0.0, "bike_id": "72d8adb5a596c7686e81bced63795ae1", "is_disabled": 0, "is_reserved": 0}, {"rental_uris": {"ios": "https://dc.lft.to/lastmile_qr_scan", "android": "https://dc.lft.to/lastmile_qr_scan"}, "lon": -77.00310116666667, "type": "electric_scooter", "fusion_lat": 0.0, "lat": 38.88764183333333, "name": "0e8c407c71874027f862db1e479b8193", "fusion_lon": 0.0, "bike_id": "0e8c407c71874027f862db1e479b8193", "is_disabled": 0, "is_reserved": 0}, {"rental_uris": {"ios": "https://dc.lft.to/lastmile_qr_scan", "android": "https://dc.lft.to/lastmile_qr_scan"}, "lon": -77.007391, "type": "electric_scooter", "fusion_lat": 0.0, "lat": 38.955235333333334, "name": "5ff218e04784f9f9ca88d7ca3f1be7d6", "fusion_lon": 0.0, "bike_id": "5ff218e04784f9f9ca88d7ca3f1be7d6", "is_disabled": 0, "is_reserved": 0}, {"rental_uris": {"ios": "https://dc.lft.to/lastmile_qr_scan", "android": "https://dc.lft.to/lastmile_qr_scan"}, "lon": -77.042398, "type": "electric_scooter", "fusion_lat": 0.0, "lat": 38.9215365, "name": "2472b3d05db984b58950fd9528417498", "fusion_lon": 0.0, "bike_id": "2472b3d05db984b58950fd9528417498", "is_disabled": 0, "is_reserved": 0}, {"rental_uris": {"ios": "https://dc.lft.to/lastmile_qr_scan", "android": "https://dc.lft.to/lastmile_qr_scan"}, "lon": -77.03981716666667, "type": "electric_scooter", "fusion_lat": 0.0, "lat": 38.900440833333334, "name": "10504ca04b28240fa411122dc6157358", "fusion_lon": 0.0, "bike_id": "10504ca04b28240fa411122dc6157358", "is_disabled": 0, "is_reserved": 0}, {"rental_uris": {"ios": "https://dc.lft.to/lastmile_qr_scan", "android": "https://dc.lft.to/lastmile_qr_scan"}, "lon": -76.9900245, "type": "electric_scooter", "fusion_lat": 0.0, "lat": 38.8650735, "name": "5c195c7a52d92fde6afbbb9c08b01cb4", "fusion_lon": 0.0, "bike_id": "5c195c7a52d92fde6afbbb9c08b01cb4", "is_disabled": 0, "is_reserved": 0}, {"rental_uris": {"ios": "https://dc.lft.to/lastmile_qr_scan", "android": "https://dc.lft.to/lastmile_qr_scan"}, "lon": -77.03228883333334, "type": "electric_scooter", "fusion_lat": 0.0, "lat": 38.91255866666667, "name": "24c7f7e5be5260b3c110a14b5a560289", "fusion_lon": 0.0, "bike_id": "24c7f7e5be5260b3c110a14b5a560289", "is_disabled": 0, "is_reserved": 0}, {"rental_uris": {"ios": "https://dc.lft.to/lastmile_qr_scan", "android": "https://dc.lft.to/lastmile_qr_scan"}, "lon": -76.96552766666667, "type": "electric_scooter", "fusion_lat": 0.0, "lat": 38.918580166666665, "name": "7628b92f6df4616b6b7ee79cc8bc4869", "fusion_lon": 0.0, "bike_id": "7628b92f6df4616b6b7ee79cc8bc4869", "is_disabled": 0, "is_reserved": 0}, {"rental_uris": {"ios": "https://dc.lft.to/lastmile_qr_scan", "android": "https://dc.lft.to/lastmile_qr_scan"}, "lon": -77.0611805, "type": "electric_scooter", "fusion_lat": 0.0, "lat": 38.9129735, "name": "09708004dc06b630b07519eea27289df", "fusion_lon": 0.0, "bike_id": "09708004dc06b630b07519eea27289df", "is_disabled": 0, "is_reserved": 0}, {"rental_uris": {"ios": "https://dc.lft.to/lastmile_qr_scan", "android": "https://dc.lft.to/lastmile_qr_scan"}, "lon": -76.9946845, "type": "electric_scooter", "fusion_lat": 0.0, "lat": 38.86207183333333, "name": "862401c09cd637dbf64013fde0109511", "fusion_lon": 0.0, "bike_id": "862401c09cd637dbf64013fde0109511", "is_disabled": 0, "is_reserved": 0}, {"rental_uris": {"ios": "https://dc.lft.to/lastmile_qr_scan", "android": "https://dc.lft.to/lastmile_qr_scan"}, "lon": -76.96554933333333, "type": "electric_scooter", "fusion_lat": 0.0, "lat": 38.91854, "name": "f5ac35f6680d4b863c4ecaf3b938771b", "fusion_lon": 0.0, "bike_id": "f5ac35f6680d4b863c4ecaf3b938771b", "is_disabled": 0, "is_reserved": 0}, {"rental_uris": {"ios": "https://dc.lft.to/lastmile_qr_scan", "android": "https://dc.lft.to/lastmile_qr_scan"}, "lon": -77.036397, "type": "electric_scooter", "fusion_lat": 0.0, "lat": 38.911245, "name": "cc9f3842bddbf89c479fc5c344067d68", "fusion_lon": 0.0, "bike_id": "cc9f3842bddbf89c479fc5c344067d68", "is_disabled": 0, "is_reserved": 0}, {"rental_uris": {"ios": "https://dc.lft.to/lastmile_qr_scan", "android": "https://dc.lft.to/lastmile_qr_scan"}, "lon": -76.94999283333334, "type": "electric_scooter", "fusion_lat": 0.0, "lat": 38.8937265, "name": "78023571907ae35009a4a7e94961f594", "fusion_lon": 0.0, "bike_id": "78023571907ae35009a4a7e94961f594", "is_disabled": 0, "is_reserved": 0}, {"rental_uris": {"ios": "https://dc.lft.to/lastmile_qr_scan", "android": "https://dc.lft.to/lastmile_qr_scan"}, "lon": -77.032167, "type": "electric_scooter", "fusion_lat": 0.0, "lat": 38.912684666666664, "name": "9494153fd2fbd6cdf9955c04402a0d19", "fusion_lon": 0.0, "bike_id": "9494153fd2fbd6cdf9955c04402a0d19", "is_disabled": 0, "is_reserved": 0}, {"rental_uris": {"ios": "https://dc.lft.to/lastmile_qr_scan", "android": "https://dc.lft.to/lastmile_qr_scan"}, "lon": -77.02006183333333, "type": "electric_scooter", "fusion_lat": 0.0, "lat": 38.919045833333335, "name": "5080bdab1b38931040f3aa25b161ed4b", "fusion_lon": 0.0, "bike_id": "5080bdab1b38931040f3aa25b161ed4b", "is_disabled": 0, "is_reserved": 0}, {"rental_uris": {"ios": "https://dc.lft.to/lastmile_qr_scan", "android": "https://dc.lft.to/lastmile_qr_scan"}, "lon": -77.01639833333333, "type": "electric_scooter", "fusion_lat": 0.0, "lat": 38.92936, "name": "7dffbc4b88607b6a35e73b72b5cce38b", "fusion_lon": 0.0, "bike_id": "7dffbc4b88607b6a35e73b72b5cce38b", "is_disabled": 0, "is_reserved": 0}, {"rental_uris": {"ios": "https://dc.lft.to/lastmile_qr_scan", "android": "https://dc.lft.to/lastmile_qr_scan"}, "lon": -77.0412305, "type": "electric_scooter", "fusion_lat": 0.0, "lat": 38.918881166666665, "name": "b3eb93007fee38df468b1d70ea7d8da9", "fusion_lon": 0.0, "bike_id": "b3eb93007fee38df468b1d70ea7d8da9", "is_disabled": 0, "is_reserved": 0}, {"rental_uris": {"ios": "https://dc.lft.to/lastmile_qr_scan", "android": "https://dc.lft.to/lastmile_qr_scan"}, "lon": -77.04901533333333, "type": "electric_scooter", "fusion_lat": 0.0, "lat": 38.888403, "name": "20e4457871608e96366d8aed1f1fb9b0", "fusion_lon": 0.0, "bike_id": "20e4457871608e96366d8aed1f1fb9b0", "is_disabled": 0, "is_reserved": 0}, {"rental_uris": {"ios": "https://dc.lft.to/lastmile_qr_scan", "android": "https://dc.lft.to/lastmile_qr_scan"}, "lon": -77.03207383333333, "type": "electric_scooter", "fusion_lat": 0.0, "lat": 38.919939166666666, "name": "fea1be8bf2e337f22fc4a47e5c72ca7e", "fusion_lon": 0.0, "bike_id": "fea1be8bf2e337f22fc4a47e5c72ca7e", "is_disabled": 0, "is_reserved": 0}, {"rental_uris": {"ios": "https://dc.lft.to/lastmile_qr_scan", "android": "https://dc.lft.to/lastmile_qr_scan"}, "lon": -77.35305766666667, "type": "electric_bike", "fusion_lat": 0.0, "lat": 38.94999883333333, "name": "844b9852a015ac43d398037b7187d985", "fusion_lon": 0.0, "bike_id": "844b9852a015ac43d398037b7187d985", "is_disabled": 0, "is_reserved": 0}, {"rental_uris": {"ios": "https://dc.lft.to/lastmile_qr_scan", "android": "https://dc.lft.to/lastmile_qr_scan"}, "lon": -76.99490666666667, "type": "electric_scooter", "fusion_lat": 0.0, "lat": 38.89963066666667, "name": "73eda232f98912cabf758fcba854c28d", "fusion_lon": 0.0, "bike_id": "73eda232f98912cabf758fcba854c28d", "is_disabled": 0, "is_reserved": 0}, {"rental_uris": {"ios": "https://dc.lft.to/lastmile_qr_scan", "android": "https://dc.lft.to/lastmile_qr_scan"}, "lon": -77.06287266666666, "type": "electric_scooter", "fusion_lat": 0.0, "lat": 38.903943, "name": "8bbae50fb01694f6206ce9b10c4530ae", "fusion_lon": 0.0, "bike_id": "8bbae50fb01694f6206ce9b10c4530ae", "is_disabled": 0, "is_reserved": 0}, {"rental_uris": {"ios": "https://dc.lft.to/lastmile_qr_scan", "android": "https://dc.lft.to/lastmile_qr_scan"}, "lon": -77.03958016666667, "type": "electric_scooter", "fusion_lat": 0.0, "lat": 38.901211333333336, "name": "8457f65400646d0c39373b85e4164f36", "fusion_lon": 0.0, "bike_id": "8457f65400646d0c39373b85e4164f36", "is_disabled": 0, "is_reserved": 0}, {"rental_uris": {"ios": "https://dc.lft.to/lastmile_qr_scan", "android": "https://dc.lft.to/lastmile_qr_scan"}, "lon": -77.02842183333334, "type": "electric_scooter", "fusion_lat": 0.0, "lat": 38.94263083333333, "name": "477ad255c0104c6f7cc3b306f49c70a7", "fusion_lon": 0.0, "bike_id": "477ad255c0104c6f7cc3b306f49c70a7", "is_disabled": 0, "is_reserved": 0}, {"rental_uris": {"ios": "https://dc.lft.to/lastmile_qr_scan", "android": "https://dc.lft.to/lastmile_qr_scan"}, "lon": -76.99489316666667, "type": "electric_scooter", "fusion_lat": 0.0, "lat": 38.862370166666665, "name": "fe9c007be766b196a99147457f080587", "fusion_lon": 0.0, "bike_id": "fe9c007be766b196a99147457f080587", "is_disabled": 0, "is_reserved": 0}, {"rental_uris": {"ios": "https://dc.lft.to/lastmile_qr_scan", "android": "https://dc.lft.to/lastmile_qr_scan"},