{"data": {"bikes": [{"rental_uris": {"ios": "https://dc.lft.to/lastmile_qr_scan", "android": "https://dc.lft.to/lastmile_qr_scan"}, "type": "electric_scooter", "name": "17c6045dd2ebee9eae5bdb9717d4bb0f", "is_reserved": 0, "lon": -76.99560566666666, "is_disabled": 0, "fusion_lat": 0.0, "lat": 38.903699833333334, "bike_id": "17c6045dd2ebee9eae5bdb9717d4bb0f", "fusion_lon": 0.0}, {"rental_uris": {"ios": "https://dc.lft.to/lastmile_qr_scan", "android": "https://dc.lft.to/lastmile_qr_scan"}, "type": "electric_scooter", "name": "8b56cbe8dede049873f6f7a86d1e3b2d", "is_reserved": 0, "lon": -77.01378766666667, "is_disabled": 0, "fusion_lat": 0.0, "lat": 38.8760625, "bike_id": "8b56cbe8dede049873f6f7a86d1e3b2d", "fusion_lon": 0.0}, {"rental_uris": {"ios": "https://dc.lft.to/lastmile_qr_scan", "android": "https://dc.lft.to/lastmile_qr_scan"}, "type": "electric_bike", "name": "4340099f82f33d284af0758aaed3522c", "is_reserved": 0, "lon": -77.00378333333333, "is_disabled": 0, "fusion_lat": 0.0, "lat": 38.8360335, "bike_id": "4340099f82f33d284af0758aaed3522c", "fusion_lon": 0.0}, {"rental_uris": {"ios": "https://dc.lft.to/lastmile_qr_scan", "android": "https://dc.lft.to/lastmile_qr_scan"}, "type": "electric_scooter", "name": "70328e3f5287f9ff2c70a3c732628eee", "is_reserved": 0, "lon": -77.042557, "is_disabled": 0, "fusion_lat": 0.0, "lat": 38.90364066666667, "bike_id": "70328e3f5287f9ff2c70a3c732628eee", "fusion_lon": 0.0}, {"rental_uris": {"ios": "https://dc.lft.to/lastmile_qr_scan", "android": "https://dc.lft.to/lastmile_qr_scan"}, "type": "electric_scooter", "name": "40dce1bbc3230e8c0efc988c627737c7", "is_reserved": 0, "lon": -77.0207595, "is_disabled": 0, "fusion_lat": 0.0, "lat": 38.93018683333333, "bike_id": "40dce1bbc3230e8c0efc988c627737c7", "fusion_lon": 0.0}, {"rental_uris": {"ios": "https://dc.lft.to/lastmile_qr_scan", "android": "https://dc.lft.to/lastmile_qr_scan"}, "type": "electric_scooter", "name": "11e7fc6298a997868cac9b2d2559c0a8", "is_reserved": 0, "lon": -77.05912016666667, "is_disabled": 0, "fusion_lat": 0.0, "lat": 38.90186383333333, "bike_id": "11e7fc6298a997868cac9b2d2559c0a8", "fusion_lon": 0.0}, {"rental_uris": {"ios": "https://dc.lft.to/lastmile_qr_scan", "android": "https://dc.lft.to/lastmile_qr_scan"}, "type": "electric_scooter", "name": "d414a39a41f777037e10d6bb23e3f20e", "is_reserved": 0, "lon": -77.01839533333333, "is_disabled": 0, "fusion_lat": 0.0, "lat": 38.915087166666666, "bike_id": "d414a39a41f777037e10d6bb23e3f20e", "fusion_lon": 0.0}, {"rental_uris": {"ios": "https://dc.lft.to/lastmile_qr_scan", "android": "https://dc.lft.to/lastmile_qr_scan"}, "type": "electric_scooter", "name": "5467b088789da34b0a188638c9e24922", "is_reserved": 0, "lon": -77.0019995, "is_disabled": 0, "fusion_lat": 0.0, "lat": 38.907688, "bike_id": "5467b088789da34b0a188638c9e24922", "fusion_lon": 0.0}, {"rental_uris": {"ios": "https://dc.lft.to/lastmile_qr_scan", "android": "https://dc.lft.to/lastmile_qr_scan"}, "type": "electric_scooter", "name": "5c6aef5a4ce460e76bb0102c07dacc65", "is_reserved": 0, "lon": -77.05156066666666, "is_disabled": 0, "fusion_lat": 0.0, "lat": 38.902319, "bike_id": "5c6aef5a4ce460e76bb0102c07dacc65", "fusion_lon": 0.0}, {"rental_uris": {"ios": "https://dc.lft.to/lastmile_qr_scan", "android": "https://dc.lft.to/lastmile_qr_scan"}, "type": "electric_scooter", "name": "14e9e04ec8f2bae13ab74f425f9090f1", "is_reserved": 0, "lon": -77.03729083333333, "is_disabled": 0, "fusion_lat": 0.0, "lat": 38.9202695, "bike_id": "14e9e04ec8f2bae13ab74f425f9090f1", "fusion_lon": 0.0}, {"rental_uris": {"ios": "https://dc.lft.to/lastmile_qr_scan", "android": "https://dc.lft.to/lastmile_qr_scan"}, "type": "electric_bike", "name": "70cc64e0b0355dee0b7b416d9bf8f126", "is_reserved": 0, "lon": -76.96337833333334, "is_disabled": 0, "fusion_lat": 0.0, "lat": 38.938962833333335, "bike_id": "70cc64e0b0355dee0b7b416d9bf8f126", "fusion_lon": 0.0}, {"rental_uris": {"ios": "https://dc.lft.to/lastmile_qr_scan", "android": "https://dc.lft.to/lastmile_qr_scan"}, "type": "electric_scooter", "name": "6c74d995ef0c25b069827d26cf0c53f6", "is_reserved": 0, "lon": -77.04418516666667, "is_disabled": 0, "fusion_lat": 0.0, "lat": 38.9113385, "bike_id": "6c74d995ef0c25b069827d26cf0c53f6", "fusion_lon": 0.0}, {"rental_uris": {"ios": "https://dc.lft.to/lastmile_qr_scan", "android": "https://dc.lft.to/lastmile_qr_scan"}, "type": "electric_scooter", "name": "379c11ba0d8f8b51d8c1b722490350b0", "is_reserved": 0, "lon": -76.993536, "is_disabled": 0, "fusion_lat": 0.0, "lat": 38.900143, "bike_id": "379c11ba0d8f8b51d8c1b722490350b0", "fusion_lon": 0.0}, {"rental_uris": {"ios": "https://dc.lft.to/lastmile_qr_scan", "android": "https://dc.lft.to/lastmile_qr_scan"}, "type": "electric_scooter", "name": "a1d10fa5fe6e117a9f10869157d11381", "is_reserved": 0, "lon": -76.99032433333333, "is_disabled": 0, "fusion_lat": 0.0, "lat": 38.88874916666666, "bike_id": "a1d10fa5fe6e117a9f10869157d11381", "fusion_lon": 0.0}, {"rental_uris": {"ios": "https://dc.lft.to/lastmile_qr_scan", "android": "https://dc.lft.to/lastmile_qr_scan"}, "type": "electric_bike", "name": "1aad730bef62a1fa4b839d3f7b1dc36c", "is_reserved": 0, "lon": -77.0739055, "is_disabled": 0, "fusion_lat": 0.0, "lat": 38.929171833333335, "bike_id": "1aad730bef62a1fa4b839d3f7b1dc36c", "fusion_lon": 0.0}, {"rental_uris": {"ios": "https://dc.lft.to/lastmile_qr_scan", "android": "https://dc.lft.to/lastmile_qr_scan"}, "type": "electric_scooter", "name": "0bb3830eacfa84519e885e545b92f856", "is_reserved": 0, "lon": -77.03838583333334, "is_disabled": 0, "fusion_lat": 0.0, "lat": 38.9217545, "bike_id": "0bb3830eacfa84519e885e545b92f856", "fusion_lon": 0.0}, {"rental_uris": {"ios": "https://dc.lft.to/lastmile_qr_scan", "android": "https://dc.lft.to/lastmile_qr_scan"}, "type": "electric_scooter", "name": "f68a3eb05e77bfe77fe1bfe583c20b29", "is_reserved": 0, "lon": -77.005254, "is_disabled": 0, "fusion_lat": 0.0, "lat": 38.876470833333336, "bike_id": "f68a3eb05e77bfe77fe1bfe583c20b29", "fusion_lon": 0.0}, {"rental_uris": {"ios": "https://dc.lft.to/lastmile_qr_scan", "android": "https://dc.lft.to/lastmile_qr_scan"}, "type": "electric_scooter", "name": "eb084bc48b8ea6751148cb44e9c649cc", "is_reserved": 0, "lon": -77.04082583333333, "is_disabled": 0, "fusion_lat": 0.0, "lat": 38.9478815, "bike_id": "eb084bc48b8ea6751148cb44e9c649cc", "fusion_lon": 0.0}, {"rental_uris": {"ios": "https://dc.lft.to/lastmile_qr_scan", "android": "https://dc.lft.to/lastmile_qr_scan"}, "type": "electric_scooter", "name": "0a905c9c433063eb2e3794489781ee78", "is_reserved": 0, "lon": -77.06102, "is_disabled": 0, "fusion_lat": 0.0, "lat": 38.9053015, "bike_id": "0a905c9c433063eb2e3794489781ee78", "fusion_lon": 0.0}, {"rental_uris": {"ios": "https://dc.lft.to/lastmile_qr_scan", "android": "https://dc.lft.to/lastmile_qr_scan"}, "type": "electric_scooter", "name": "029093382870d54c1b72ff65cb759ca6", "is_reserved": 0, "lon": -77.02103616666666, "is_disabled": 0, "fusion_lat": 0.0, "lat": 38.9326, "bike_id": "029093382870d54c1b72ff65cb759ca6", "fusion_lon": 0.0}, {"rental_uris": {"ios": "https://dc.lft.to/lastmile_qr_scan", "android": "https://dc.lft.to/lastmile_qr_scan"}, "type": "electric_scooter", "name": "82039182e8e91e8c0eb874f85e6011f8", "is_reserved": 0, "lon": -76.9815385, "is_disabled": 0, "fusion_lat": 0.0, "lat": 38.89942933333333, "bike_id": "82039182e8e91e8c0eb874f85e6011f8", "fusion_lon": 0.0}, {"rental_uris": {"ios": "https://dc.lft.to/lastmile_qr_scan", "android": "https://dc.lft.to/lastmile_qr_scan"}, "type": "electric_scooter", "name": "4467a59cde8df39fc41e1c6f25fc9420", "is_reserved": 0, "lon": -77.03260416666667, "is_disabled": 0, "fusion_lat": 0.0, "lat": 38.912678666666665, "bike_id": "4467a59cde8df39fc41e1c6f25fc9420", "fusion_lon": 0.0}, {"rental_uris": {"ios": "https://dc.lft.to/lastmile_qr_scan", "android": "https://dc.lft.to/lastmile_qr_scan"}, "type": "electric_scooter", "name": "4cc79bfd68dc7dcf0793614248d1db74", "is_reserved": 0, "lon": -77.02143366666667, "is_disabled": 0, "fusion_lat": 0.0, "lat": 38.9029135, "bike_id": "4cc79bfd68dc7dcf0793614248d1db74", "fusion_lon": 0.0}, {"rental_uris": {"ios": "https://dc.lft.to/lastmile_qr_scan", "android": "https://dc.lft.to/lastmile_qr_scan"}, "type": "electric_bike", "name": "ee8e214bbc507b52302c064dc73f3796", "is_reserved": 0, "lon": -76.99073033333333, "is_disabled": 0, "fusion_lat": 0.0, "lat": 38.898122, "bike_id": "ee8e214bbc507b52302c064dc73f3796", "fusion_lon": 0.0}, {"rental_uris": {"ios": "https://dc.lft.to/lastmile_qr_scan", "android": "https://dc.lft.to/lastmile_qr_scan"}, "type": "electric_bike", "name": "4d1f658fba020ad77351ca50e0cf41dd", "is_reserved": 0, "lon": -76.9824895, "is_disabled": 0, "fusion_lat": 0.0, "lat": 38.95238466666667, "bike_id": "4d1f658fba020ad77351ca50e0cf41dd", "fusion_lon": 0.0}, {"rental_uris": {"ios": "https://dc.lft.to/lastmile_qr_scan", "android": "https://dc.lft.to/lastmile_qr_scan"}, "type": "electric_bike", "name": "48249ba4e23125058dc63205045fefa1", "is_reserved": 0, "lon": -76.98018166666667, "is_disabled": 0, "fusion_lat": 0.0, "lat": 38.853174833333334, "bike_id": "48249ba4e23125058dc63205045fefa1", "fusion_lon": 0.0}, {"rental_uris": {"ios": "https://dc.lft.to/lastmile_qr_scan", "android": "https://dc.lft.to/lastmile_qr_scan"}, "type": "electric_scooter", "name": "4edf9093eb3b22a564f9a5dd926f4dcc", "is_reserved": 0, "lon": -77.02966383333333, "is_disabled": 0, "fusion_lat": 0.0, "lat": 38.92524083333333, "bike_id": "4edf9093eb3b22a564f9a5dd926f4dcc", "fusion_lon": 0.0}, {"rental_uris": {"ios": "https://dc.lft.to/lastmile_qr_scan", "android": "https://dc.lft.to/lastmile_qr_scan"}, "type": "electric_scooter", "name": "e0cb607c49112702601398f29c303594", "is_reserved": 0, "lon": -77.04216716666667, "is_disabled": 0, "fusion_lat": 0.0, "lat": 38.921283833333334, "bike_id": "e0cb607c49112702601398f29c303594", "fusion_lon": 0.0}, {"rental_uris": {"ios": "https://dc.lft.to/lastmile_qr_scan", "android": "https://dc.lft.to/lastmile_qr_scan"}, "type": "electric_scooter", "name": "4aee8e4a11764cd52bf6dc307a91685e", "is_reserved": 0, "lon": -77.03664183333333, "is_disabled": 0, "fusion_lat": 0.0, "lat": 38.9418235, "bike_id": "4aee8e4a11764cd52bf6dc307a91685e", "fusion_lon": 0.0}, {"rental_uris": {"ios": "https://dc.lft.to/lastmile_qr_scan", "android": "https://dc.lft.to/lastmile_qr_scan"}, "type": "electric_scooter", "name": "9b44be021139d4560f074e936e850021", "is_reserved": 0, "lon": -77.04233366666666, "is_disabled": 0, "fusion_lat": 0.0, "lat": 38.9216785, "bike_id": "9b44be021139d4560f074e936e850021", "fusion_lon": 0.0}, {"rental_uris": {"ios": "https://dc.lft.to/lastmile_qr_scan", "android": "https://dc.lft.to/lastmile_qr_scan"}, "type": "electric_scooter", "name": "0e723e1783b2dc02a10524a5b1ada1a0", "is_reserved": 0, "lon": -77.04249066666667, "is_disabled": 0, "fusion_lat": 0.0, "lat": 38.9223715, "bike_id": "0e723e1783b2dc02a10524a5b1ada1a0", "fusion_lon": 0.0}, {"rental_uris": {"ios": "https://dc.lft.to/lastmile_qr_scan", "android": "https://dc.lft.to/lastmile_qr_scan"}, "type": "electric_scooter", "name": "dfc961fa4cdaa508206920749d3f7f23", "is_reserved": 0, "lon": -77.04763183333333, "is_disabled": 0, "fusion_lat": 0.0, "lat": 38.912503, "bike_id": "dfc961fa4cdaa508206920749d3f7f23", "fusion_lon": 0.0}, {"rental_uris": {"ios": "https://dc.lft.to/lastmile_qr_scan", "android": "https://dc.lft.to/lastmile_qr_scan"}, "type": "electric_scooter", "name": "ed4a985cac3b1b0a0090da14f6e49a37", "is_reserved": 0, "lon": -77.034605, "is_disabled": 0, "fusion_lat": 0.0, "lat": 38.908334333333336, "bike_id": "ed4a985cac3b1b0a0090da14f6e49a37", "fusion_lon": 0.0}, {"rental_uris": {"ios": "https://dc.lft.to/lastmile_qr_scan", "android": "https://dc.lft.to/lastmile_qr_scan"}, "type": "electric_scooter", "name": "9f9bd92d49063dffe97557d75f34d31a", "is_reserved": 0, "lon": -77.05167183333333, "is_disabled": 0, "fusion_lat": 0.0, "lat": 38.9030835, "bike_id": "9f9bd92d49063dffe97557d75f34d31a", "fusion_lon": 0.0}, {"rental_uris": {"ios": "https://dc.lft.to/lastmile_qr_scan", "android": "https://dc.lft.to/lastmile_qr_scan"}, "type": "electric_scooter", "name": "96d298a872cd3bee170a63cf7d8cbcbf", "is_reserved": 0, "lon": -77.03817566666666, "is_disabled": 0, "fusion_lat": 0.0, "lat": 38.91041116666667, "bike_id": "96d298a872cd3bee170a63cf7d8cbcbf", "fusion_lon": 0.0}, {"rental_uris": {"ios": "https://dc.lft.to/lastmile_qr_scan", "android": "https://dc.lft.to/lastmile_qr_scan"}, "type": "electric_scooter", "name": "3b38b945ec748a435ca45d1d36bafe59", "is_reserved": 0, "lon": -77.04877616666667, "is_disabled": 0, "fusion_lat": 0.0, "lat": 38.900769833333335, "bike_id": "3b38b945ec748a435ca45d1d36bafe59", "fusion_lon": 0.0}, {"rental_uris": {"ios": "https://dc.lft.to/lastmile_qr_scan", "android": "https://dc.lft.to/lastmile_qr_scan"}, "type": "electric_scooter", "name": "f64ac455393365b029768388fb0eee6b", "is_reserved": 0, "lon": -77.04707983333333, "is_disabled": 0, "fusion_lat": 0.0, "lat": 38.90288866666667, "bike_id": "f64ac455393365b029768388fb0eee6b", "fusion_lon": 0.0}, {"rental_uris": {"ios": "https://dc.lft.to/lastmile_qr_scan", "android": "https://dc.lft.to/lastmile_qr_scan"}, "type": "electric_scooter", "name": "3a34d5c7451d48838d8221c929d58787", "is_reserved": 0, "lon": -76.93354233333334, "is_disabled": 0, "fusion_lat": 0.0, "lat": 38.899041833333335, "bike_id": "3a34d5c7451d48838d8221c929d58787", "fusion_lon": 0.0}, {"rental_uris": {"ios": "https://dc.lft.to/lastmile_qr_scan", "android": "https://dc.lft.to/lastmile_qr_scan"}, "type": "electric_scooter", "name": "c3a07a98f872950444414a0a91da6d0c", "is_reserved": 0, "lon": -77.04180866666667, "is_disabled": 0, "fusion_lat": 0.0, "lat": 38.916260666666666, "bike_id": "c3a07a98f872950444414a0a91da6d0c", "fusion_lon": 0.0}, {"rental_uris": {"ios": "https://dc.lft.to/lastmile_qr_scan", "android": "https://dc.lft.to/lastmile_qr_scan"}, "type": "electric_scooter", "name": "69891957a2c94dbd75f42c431f12a97c", "is_reserved": 0, "lon": -77.02378883333333, "is_disabled": 0, "fusion_lat": 0.0, "lat": 38.902214666666666, "bike_id": "69891957a2c94dbd75f42c431f12a97c", "fusion_lon": 0.0}, {"rental_uris": {"ios": "https://dc.lft.to/lastmile_qr_scan", "android": "https://dc.lft.to/lastmile_qr_scan"}, "type": "electric_scooter", "name": "dcf41d5848fbd223db8218d7cec719ad", "is_reserved": 0, "lon": -77.03215416666667, "is_disabled": 0, "fusion_lat": 0.0, "lat": 38.91846916666667, "bike_id": "dcf41d5848fbd223db8218d7cec719ad", "fusion_lon": 0.0}, {"rental_uris": {"ios": "https://dc.lft.to/lastmile_qr_scan", "android": "https://dc.lft.to/lastmile_qr_scan"}, "type": "electric_scooter", "name": "282d6b18f683820ec1e7fd8635b4b424", "is_reserved": 0, "lon": -77.01558816666666, "is_disabled": 0, "fusion_lat": 0.0, "lat": 38.884948666666666, "bike_id": "282d6b18f683820ec1e7fd8635b4b424", "fusion_lon": 0.0}, {"rental_uris": {"ios": "https://dc.lft.to/lastmile_qr_scan", "android": "https://dc.lft.to/lastmile_qr_scan"}, "type": "electric_scooter", "name": "2a70f504355c75b529822847ba87570b", "is_reserved": 0, "lon": -77.03515783333333, "is_disabled": 0, "fusion_lat": 0.0, "lat": 38.9221085, "bike_id": "2a70f504355c75b529822847ba87570b", "fusion_lon": 0.0}, {"rental_uris": {"ios": "https://dc.lft.to/lastmile_qr_scan", "android": "https://dc.lft.to/lastmile_qr_scan"}, "type": "electric_scooter", "name": "218e942fb07e4596fa795b22de7e61d9", "is_reserved": 0, "lon": -77.01753366666667, "is_disabled": 0, "fusion_lat": 0.0, "lat": 38.88737116666667, "bike_id": "218e942fb07e4596fa795b22de7e61d9", "fusion_lon": 0.0}, {"rental_uris": {"ios": "https://dc.lft.to/lastmile_qr_scan", "android": "https://dc.lft.to/lastmile_qr_scan"}, "type": "electric_scooter", "name": "b68a0c53b3b7e7f1ca6fee10d8867cf5", "is_reserved": 0, "lon": -77.024478, "is_disabled": 0, "fusion_lat": 0.0, "lat": 38.93723283333333, "bike_id": "b68a0c53b3b7e7f1ca6fee10d8867cf5", "fusion_lon": 0.0}, {"rental_uris": {"ios": "https://dc.lft.to/lastmile_qr_scan", "android": "https://dc.lft.to/lastmile_qr_scan"}, "type": "electric_bike", "name": "5a0bc5fe6144e0102a184e0c8fded409", "is_reserved": 0, "lon": -76.99678116666666, "is_disabled": 0, "fusion_lat": 0.0, "lat": 38.83818183333333, "bike_id": "5a0bc5fe6144e0102a184e0c8fded409", "fusion_lon": 0.0}, {"rental_uris": {"ios": "https://dc.lft.to/lastmile_qr_scan", "android": "https://dc.lft.to/lastmile_qr_scan"}, "type": "electric_scooter", "name": "8b9718dcf243362f9e1d314de5fd507f", "is_reserved": 0, "lon": -77.045862, "is_disabled": 0, "fusion_lat": 0.0, "lat": 38.91442833333333, "bike_id": "8b9718dcf243362f9e1d314de5fd507f", "fusion_lon": 0.0}, {"rental_uris": {"ios": "https://dc.lft.to/lastmile_qr_scan", "android": "https://dc.lft.to/lastmile_qr_scan"}, "type": "electric_scooter", "name": "4cfc088b25dfa691f4e9427822585cff", "is_reserved": 0, "lon": -77.0296925, "is_disabled": 0, "fusion_lat": 0.0, "lat": 38.91015933333333, "bike_id": "4cfc088b25dfa691f4e9427822585cff", "fusion_lon": 0.0}, {"rental_uris": {"ios": "https://dc.lft.to/lastmile_qr_scan", "android": "https://dc.lft.to/lastmile_qr_scan"}, "type": "electric_scooter", "name": "a370bdaeae3e55f5efd829e4a19f3f92", "is_reserved": 0, "lon": -77.06039733333333, "is_disabled": 0, "fusion_lat": 0.0, "lat": 38.90232533333333, "bike_id": "a370bdaeae3e55f5efd829e4a19f3f92", "fusion_lon": 0.0}, {"rental_uris": {"ios": "https://dc.lft.to/lastmile_qr_scan", "android": "https://dc.lft.to/lastmile_qr_scan"}, "type": "electric_scooter", "name": "62f72640f5a2f4560ed7b90bf468cbbf", "is_reserved": 0, "lon": -77.0212805, "is_disabled": 0, "fusion_lat": 0.0, "lat": 38.928018, "bike_id": "62f72640f5a2f4560ed7b90bf468cbbf", "fusion_lon": 0.0}, {"rental_uris": {"ios": "https://dc.lft.to/lastmile_qr_scan", "android": "https://dc.lft.to/lastmile_qr_scan"}, "type": "electric_scooter", "name": "781e076ceb8c5090b06d4ab2121e1259", "is_reserved": 0, "lon": -77.06860316666666, "is_disabled": 0, "fusion_lat": 0.0, "lat": 38.90409283333334, "bike_id": "781e076ceb8c5090b06d4ab2121e1259", "fusion_lon": 0.0}, {"rental_uris": {"ios": "https://dc.lft.to/lastmile_qr_scan", "android": "https://dc.lft.to/lastmile_qr_scan"}, "type": "electric_bike", "name": "962d1b281ddad997c5612f0628be47be", "is_reserved": 0, "lon": -77.01233383333333, "is_disabled": 0, "fusion_lat": 0.0, "lat": 38.95083183333333, "bike_id": "962d1b281ddad997c5612f0628be47be", "fusion_lon": 0.0}, {"rental_uris": {"ios": "https://dc.lft.to/lastmile_qr_scan", "android": "https://dc.lft.to/lastmile_qr_scan"}, "type": "electric_bike", "name": "35eeb509a0df03fc83722a5818a28f8f", "is_reserved": 0, "lon": -77.0184365, "is_disabled": 0, "fusion_lat": 0.0, "lat": 38.902562333333336, "bike_id": "35eeb509a0df03fc83722a5818a28f8f", "fusion_lon": 0.0}, {"rental_uris": {"ios": "https://dc.lft.to/lastmile_qr_scan", "android": "https://dc.lft.to/lastmile_qr_scan"}, "type": "electric_scooter", "name": "f26d4b465baa9091ff5c1a298fff77b5", "is_reserved": 0, "lon": -76.9916065, "is_disabled": 0, "fusion_lat": 0.0, "lat": 38.900343166666666, "bike_id": "f26d4b465baa9091ff5c1a298fff77b5", "fusion_lon": 0.0}, {"rental_uris": {"ios": "https://dc.lft.to/lastmile_qr_scan", "android": "https://dc.lft.to/lastmile_qr_scan"}, "type": "electric_scooter", "name": "b25350b8e6f908fe049efaf5bad8c719", "is_reserved": 0, "lon": -77.0230475, "is_disabled": 0, "fusion_lat": 0.0, "lat": 38.89500983333333, "bike_id": "b25350b8e6f908fe049efaf5bad8c719", "fusion_lon": 0.0}, {"rental_uris": {"ios": "https://dc.lft.to/lastmile_qr_scan", "android": "https://dc.lft.to/lastmile_qr_scan"}, "type": "electric_scooter", "name": "c80fdd8858c928f4203c2dd0e1103eef", "is_reserved": 0, "lon": -77.01833483333333, "is_disabled": 0, "fusion_lat": 0.0, "lat": 38.909574166666665, "bike_id": "c80fdd8858c928f4203c2dd0e1103eef", "fusion_lon": 0.0}, {"rental_uris": {"ios": "https://dc.lft.to/lastmile_qr_scan", "android": "https://dc.lft.to/lastmile_qr_scan"}, "type": "electric_scooter", "name": "7403ce0cb510660b4af87525ef2eaf5a", "is_reserved": 0, "lon": -77.0208985, "is_disabled": 0, "fusion_lat": 0.0, "lat": 38.929149833333334, "bike_id": "7403ce0cb510660b4af87525ef2eaf5a", "fusion_lon": 0.0}, {"rental_uris": {"ios": "https://dc.lft.to/lastmile_qr_scan", "android": "https://dc.lft.to/lastmile_qr_scan"}, "type": "electric_scooter", "name": "a491b49ddbcebec2bbc57f2b165d8587", "is_reserved": 0, "lon": -77.00566066666667, "is_disabled": 0, "fusion_lat": 0.0, "lat": 38.880404166666665, "bike_id": "a491b49ddbcebec2bbc57f2b165d8587", "fusion_lon": 0.0}, {"rental_uris": {"ios": "https://dc.lft.to/lastmile_qr_scan", "android": "https://dc.lft.to/lastmile_qr_scan"}, "type": "electric_scooter", "name": "3a6a594c7d24786d49d64e16140d7cd8", "is_reserved": 0, "lon": -77.061122, "is_disabled": 0, "fusion_lat": 0.0, "lat": 38.91282183333333, "bike_id": "3a6a594c7d24786d49d64e16140d7cd8", "fusion_lon": 0.0}, {"rental_uris": {"ios": "https://dc.lft.to/lastmile_qr_scan", "android": "https://dc.lft.to/lastmile_qr_scan"}, "type": "electric_scooter", "name": "a45ca912e7abbdc1dc2272beb341ed2b", "is_reserved": 0, "lon": -77.00336666666666, "is_disabled": 0, "fusion_lat": 0.0, "lat": 38.876695166666664, "bike_id": "a45ca912e7abbdc1dc2272beb341ed2b", "fusion_lon": 0.0}, {"rental_uris": {"ios": "https://dc.lft.to/lastmile_qr_scan", "android": "https://dc.lft.to/lastmile_qr_scan"}, "type": "electric_scooter", "name": "306a9b2227da8dcff69926d0c4a2381b", "is_reserved": 0, "lon": -77.06136816666667, "is_disabled": 0, "fusion_lat": 0.0, "lat": 38.94307883333333, "bike_id": "306a9b2227da8dcff69926d0c4a2381b", "fusion_lon": 0.0}, {"rental_uris": {"ios": "https://dc.lft.to/lastmile_qr_scan", "android": "https://dc.lft.to/lastmile_qr_scan"}, "type": "electric_scooter", "name": "4cf28beaba0e8fd8ef4bd5d265f81964", "is_reserved": 0, "lon": -76.93000633333334, "is_disabled": 0, "fusion_lat": 0.0, "lat": 38.88995516666667, "bike_id": "4cf28beaba0e8fd8ef4bd5d265f81964", "fusion_lon": 0.0}, {"rental_uris": {"ios": "https://dc.lft.to/lastmile_qr_scan", "android": "https://dc.lft.to/lastmile_qr_scan"}, "type": "electric_bike", "name": "62d837b724a0c0742dc1e9e674f52454", "is_reserved": 0, "lon": -77.07755, "is_disabled": 0, "fusion_lat": 0.0, "lat": 38.841947166666664, "bike_id": "62d837b724a0c0742dc1e9e674f52454", "fusion_lon": 0.0}, {"rental_uris": {"ios": "https://dc.lft.to/lastmile_qr_scan", "android": "https://dc.lft.to/lastmile_qr_scan"}, "type": "electric_bike", "name": "2145ec9199a33161bc325d4a2553c417", "is_reserved": 0, "lon": -76.96085116666667, "is_disabled": 0, "fusion_lat": 0.0, "lat": 38.9186265, "bike_id": "2145ec9199a33161bc325d4a2553c417", "fusion_lon": 0.0}, {"rental_uris": {"ios": "https://dc.lft.to/lastmile_qr_scan", "android": "https://dc.lft.to/lastmile_qr_scan"}, "type": "electric_scooter", "name": "e131190b7f6735d0c6e85f29e1c9e9e5", "is_reserved": 0, "lon": -77.04187283333333, "is_disabled": 0, "fusion_lat": 0.0, "lat": 38.920526833333334, "bike_id": "e131190b7f6735d0c6e85f29e1c9e9e5", "fusion_lon": 0.0}, {"rental_uris": {"ios": "https://dc.lft.to/lastmile_qr_scan", "android": "https://dc.lft.to/lastmile_qr_scan"}, "type": "electric_scooter", "name": "7e84521d74fef20ce4ab43b7e1d592ba", "is_reserved": 0, "lon": -76.9925395, "is_disabled": 0, "fusion_lat": 0.0, "lat": 38.94068333333333, "bike_id": "7e84521d74fef20ce4ab43b7e1d592ba", "fusion_lon": 0.0}, {"rental_uris": {"ios": "https://dc.lft.to/lastmile_qr_scan", "android": "https://dc.lft.to/lastmile_qr_scan"}, "type": "electric_bike", "name": "b429a9a4dfd31076e16ca7eee332518b", "is_reserved": 0, "lon": -76.97313116666666, "is_disabled": 0, "fusion_lat": 0.0, "lat": 38.917699666666664, "bike_id": "b429a9a4dfd31076e16ca7eee332518b", "fusion_lon": 0.0}, {"rental_uris": {"ios": "https://dc.lft.to/lastmile_qr_scan", "android": "https://dc.lft.to/lastmile_qr_scan"}, "type": "electric_scooter", "name": "0119ffa5ab2aff1c1d4063e0e22d66b4", "is_reserved": 0, "lon": -77.0323665, "is_disabled": 0, "fusion_lat": 0.0, "lat": 38.9156115, "bike_id": "0119ffa5ab2aff1c1d4063e0e22d66b4", "fusion_lon": 0.0}, {"rental_uris": {"ios": "https://dc.lft.to/lastmile_qr_scan", "android": "https://dc.lft.to/lastmile_qr_scan"}, "type": "electric_scooter", "name": "e70d543391aa280087b7e3f1490abc8e", "is_reserved": 0, "lon": -76.96527333333333, "is_disabled": 0, "fusion_lat": 0.0, "lat": 38.876324833333335, "bike_id": "e70d543391aa280087b7e3f1490abc8e", "fusion_lon": 0.0}, {"rental_uris": {"ios": "https://dc.lft.to/lastmile_qr_scan", "android": "https://dc.lft.to/lastmile_qr_scan"}, "type": "electric_scooter", "name": "84dd4b60c9b99061075bb360f12df529", "is_reserved": 0, "lon": -77.03575633333334, "is_disabled": 0, "fusion_lat": 0.0, "lat": 38.90963766666667, "bike_id": "84dd4b60c9b99061075bb360f12df529", "fusion_lon": 0.0}, {"rental_uris": {"ios": "https://dc.lft.to/lastmile_qr_scan", "android": "https://dc.lft.to/lastmile_qr_scan"}, "type": "electric_scooter", "name": "66380c185cc1ddc74d4f34676ca15a22", "is_reserved": 0, "lon": -77.0075625, "is_disabled": 0, "fusion_lat": 0.0, "lat": 38.876580833333335, "bike_id": "66380c185cc1ddc74d4f34676ca15a22", "fusion_lon": 0.0}, {"rental_uris": {"ios": "https://dc.lft.to/lastmile_qr_scan", "android": "https://dc.lft.to/lastmile_qr_scan"}, "type": "electric_scooter", "name": "1d269636686a5e5ec382ed650dd1cc4c", "is_reserved": 0, "lon": -77.023222, "is_disabled": 0, "fusion_lat": 0.0, "lat": 38.9091935, "bike_id": "1d269636686a5e5ec382ed650dd1cc4c", "fusion_lon": 0.0}, {"rental_uris": {"ios": "https://dc.lft.to/lastmile_qr_scan", "android": "https://dc.lft.to/lastmile_qr_scan"}, "type": "electric_scooter", "name": "f6d14621914178a24972468cda8bce10", "is_reserved": 0, "lon": -77.02560133333333, "is_disabled": 0, "fusion_lat": 0.0, "lat": 38.9539495, "bike_id": "f6d14621914178a24972468cda8bce10", "fusion_lon": 0.0}, {"rental_uris": {"ios": "https://dc.lft.to/lastmile_qr_scan", "android": "https://dc.lft.to/lastmile_qr_scan"}, "type": "electric_scooter", "name": "c6038086f8c9b73ae57ebdf73c57e7ad", "is_reserved": 0, "lon": -76.94106616666667, "is_disabled": 0, "fusion_lat": 0.0, "lat": 38.893638833333334, "bike_id": "c6038086f8c9b73ae57ebdf73c57e7ad", "fusion_lon": 0.0}, {"rental_uris": {"ios": "https://dc.lft.to/lastmile_qr_scan", "android": "https://dc.lft.to/lastmile_qr_scan"}, "type": "electric_scooter", "name": "1f495a787b95b5c395f1439f3dc05437", "is_reserved": 0, "lon": -77.05313233333334, "is_disabled": 0, "fusion_lat": 0.0, "lat": 38.906566, "bike_id": "1f495a787b95b5c395f1439f3dc05437", "fusion_lon": 0.0}, {"rental_uris": {"ios": "https://dc.lft.to/lastmile_qr_scan", "android": "https://dc.lft.to/lastmile_qr_scan"}, "type": "electric_scooter", "name": "3205fa33f11fcb7a864dde83313658a4", "is_reserved": 0, "lon": -77.02300383333333, "is_disabled": 0, "fusion_lat": 0.0, "lat": 38.96130183333333, "bike_id": "3205fa33f11fcb7a864dde83313658a4", "fusion_lon": 0.0}, {"rental_uris": {"ios": "https://dc.lft.to/lastmile_qr_scan", "android": "https://dc.lft.to/lastmile_qr_scan"}, "type": "electric_bike", "name": "1eba14c704abf67272ae6ae3e3dd5f24", "is_reserved": 0, "lon": -77.00213366666667, "is_disabled": 0, "fusion_lat": 0.0, "lat": 38.98847966666666, "bike_id": "1eba14c704abf67272ae6ae3e3dd5f24", "fusion_lon": 0.0}, {"rental_uris": {"ios": "https://dc.lft.to/lastmile_qr_scan", "android": "https://dc.lft.to/lastmile_qr_scan"}, "type": "electric_scooter", "name": "223baf82ccc6fcab11d9e69b05762a7e", "is_reserved": 0, "lon": -77.01391083333333, "is_disabled": 0, "fusion_lat": 0.0, "lat": 38.87896516666667, "bike_id": "223baf82ccc6fcab11d9e69b05762a7e", "fusion_lon": 0.0}, {"rental_uris": {"ios": "https://dc.lft.to/lastmile_qr_scan", "android": "https://dc.lft.to/lastmile_qr_scan"}, "type": "electric_scooter", "name": "c1db01c6b733aa13fecdb6f9d03af92b", "is_reserved": 0, "lon": -77.0060025, "is_disabled": 0, "fusion_lat": 0.0, "lat": 38.875756833333334, "bike_id": "c1db01c6b733aa13fecdb6f9d03af92b", "fusion_lon": 0.0}, {"rental_uris": {"ios": "https://dc.lft.to/lastmile_qr_scan", "android": "https://dc.lft.to/lastmile_qr_scan"}, "type": "electric_scooter", "name": "c9f60a66386ebde7670add6467f9b85e", "is_reserved": 0, "lon": -77.03381883333333, "is_disabled": 0, "fusion_lat": 0.0, "lat": 38.910372333333335, "bike_id": "c9f60a66386ebde7670add6467f9b85e", "fusion_lon": 0.0}, {"rental_uris": {"ios": "https://dc.lft.to/lastmile_qr_scan", "android": "https://dc.lft.to/lastmile_qr_scan"}, "type": "electric_scooter", "name": "88d5ebdeecda2fe4b977180071e30992", "is_reserved": 0, "lon": -77.02956133333333, "is_disabled": 0, "fusion_lat": 0.0, "lat": 38.904217833333334, "bike_id": "88d5ebdeecda2fe4b977180071e30992", "fusion_lon": 0.0}, {"rental_uris": {"ios": "https://dc.lft.to/lastmile_qr_scan", "android": "https://dc.lft.to/lastmile_qr_scan"}, "type": "electric_bike", "name": "07aeb6088c9488ad89890031b659e7d3", "is_reserved": 0, "lon": -77.03708183333333, "is_disabled": 0, "fusion_lat": 0.0, "lat": 38.93556933333333, "bike_id": "07aeb6088c9488ad89890031b659e7d3", "fusion_lon": 0.0}, {"rental_uris": {"ios": "https://dc.lft.to/lastmile_qr_scan", "android": "https://dc.lft.to/lastmile_qr_scan"}, "type": "electric_scooter", "name": "e1ef58fb9d9a29aaecac1810b1b9346e", "is_reserved": 0, "lon": -77.02816633333333, "is_disabled": 0, "fusion_lat": 0.0, "lat": 38.956413, "bike_id": "e1ef58fb9d9a29aaecac1810b1b9346e", "fusion_lon": 0.0}, {"rental_uris": {"ios": "https://dc.lft.to/lastmile_qr_scan", "android": "https://dc.lft.to/lastmile_qr_scan"}, "type": "electric_scooter", "name": "480e8a71b3c35de84cc4a949bec4cdf8", "is_reserved": 0, "lon": -77.05345616666666, "is_disabled": 0, "fusion_lat": 0.0, "lat": 38.90400066666667, "bike_id": "480e8a71b3c35de84cc4a949bec4cdf8", "fusion_lon": 0.0}, {"rental_uris": {"ios": "https://dc.lft.to/lastmile_qr_scan", "android": "https://dc.lft.to/lastmile_qr_scan"}, "type": "electric_scooter", "name": "bf683fa3aa9e74f802bbf593a6b23868", "is_reserved": 0, "lon": -77.04293983333334, "is_disabled": 0, "fusion_lat": 0.0, "lat": 38.91117283333333, "bike_id": "bf683fa3aa9e74f802bbf593a6b23868", "fusion_lon": 0.0}, {"rental_uris": {"ios": "https://dc.lft.to/lastmile_qr_scan", "android": "https://dc.lft.to/lastmile_qr_scan"}, "type": "electric_scooter", "name": "d41caae6df4a43523505cfa7014118fe", "is_reserved": 0, "lon": -77.03932316666666, "is_disabled": 0, "fusion_lat": 0.0, "lat": 38.9002045, "bike_id": "d41caae6df4a43523505cfa7014118fe", "fusion_lon": 0.0}, {"rental_uris": {"ios": "https://dc.lft.to/lastmile_qr_scan", "android": "https://dc.lft.to/lastmile_qr_scan"}, "type": "electric_bike", "name": "c3e64fa81d82c0b0f308a45927c95cd7", "is_reserved": 0, "lon": -77.0388085, "is_disabled": 0, "fusion_lat": 0.0, "lat": 39.02627016666667, "bike_id": "c3e64fa81d82c0b0f308a45927c95cd7", "fusion_lon": 0.0}, {"rental_uris": {"ios": "https://dc.lft.to/lastmile_qr_scan", "android": "https://dc.lft.to/lastmile_qr_scan"}, "type": "electric_scooter", "name": "ea766ab366011c2fb45bbb25da8ba5be", "is_reserved": 0, "lon": -77.052215, "is_disabled": 0, "fusion_lat": 0.0, "lat": 38.889101833333335, "bike_id": "ea766ab366011c2fb45bbb25da8ba5be", "fusion_lon": 0.0}, {"rental_uris": {"ios": "https://dc.lft.to/lastmile_qr_scan", "android": "https://dc.lft.to/lastmile_qr_scan"}, "type": "electric_scooter", "name": "2fc2130be2ce350c1557ee715d4bbac3", "is_reserved": 0, "lon": -77.02384283333333, "is_disabled": 0, "fusion_lat": 0.0, "lat": 38.891988, "bike_id": "2fc2130be2ce350c1557ee715d4bbac3", "fusion_lon": 0.0}, {"rental_uris": {"ios": "https://dc.lft.to/lastmile_qr_scan", "android": "https://dc.lft.to/lastmile_qr_scan"}, "type": "electric_scooter", "name": "165215a08810a8592cf8656564be3e40", "is_reserved": 0, "lon": -77.01196, "is_disabled": 0, "fusion_lat": 0.0, "lat": 38.89665766666667, "bike_id": "165215a08810a8592cf8656564be3e40", "fusion_lon": 0.0}, {"rental_uris": {"ios": "https://dc.lft.to/lastmile_qr_scan", "android": "https://dc.lft.to/lastmile_qr_scan"}, "type": "electric_scooter", "name": "3280bbbc55d5de418f8a1fdeefe1a6cb", "is_reserved": 0, "lon": -76.93188316666667, "is_disabled": 0, "fusion_lat": 0.0, "lat": 38.89875933333333, "bike_id": "3280bbbc55d5de418f8a1fdeefe1a6cb", "fusion_lon": 0.0}, {"rental_uris": {"ios": "https://dc.lft.to/lastmile_qr_scan", "android": "https://dc.lft.to/lastmile_qr_scan"}, "type": "electric_bike", "name": "6371cf83df0e75892d9b7838eeff9d0e", "is_reserved": 0, "lon": -77.09631133333333, "is_disabled": 0, "fusion_lat": 0.0, "lat": 38.95247783333333, "bike_id": "6371cf83df0e75892d9b7838eeff9d0e", "fusion_lon": 0.0}, {"rental_uris": {"ios": "https://dc.lft.to/lastmile_qr_scan", "android": "https://dc.lft.to/lastmile_qr_scan"}, "type": "electric_bike", "name": "6cf02b63b874510573171792c576ec07", "is_reserved": 0, "lon": -77.12740983333333, "is_disabled": 0, "fusion_lat": 0.0, "lat": 38.89569016666667, "bike_id": "6cf02b63b874510573171792c576ec07", "fusion_lon": 0.0}, {"rental_uris": {"ios": "https://dc.lft.to/lastmile_qr_scan", "android": "https://dc.lft.to/lastmile_qr_scan"}, "type": "electric_scooter", "name": "4196cee55fbc81b8a8f5fc3600aa51ee", "is_reserved": 0, "lon": -77.01351683333333, "is_disabled": 0, "fusion_lat": 0.0, "lat": 38.91912933333333, "bike_id": "4196cee55fbc81b8a8f5fc3600aa51ee", "fusion_lon": 0.0}, {"rental_uris": {"ios": "https://dc.lft.to/lastmile_qr_scan", "android": "https://dc.lft.to/lastmile_qr_scan"}, "type": "electric_bike", "name": "7cc43795b586b3b016946325cb80de84", "is_reserved": 0, "lon": -76.97859466666667, "is_disabled": 0, "fusion_lat": 0.0, "lat": 38.983820333333334, "bike_id": "7cc43795b586b3b016946325cb80de84", "fusion_lon": 0.0}, {"rental_uris": {"ios": "https://dc.lft.to/lastmile_qr_scan", "android": "https://dc.lft.to/lastmile_qr_scan"}, "type": "electric_scooter", "name": "bdc1456c542a8d12774fac942ec450dd", "is_reserved": 0, "lon": -76.97941966666667, "is_disabled": 0, "fusion_lat": 0.0, "lat": 38.916041, "bike_id": "bdc1456c542a8d12774fac942ec450dd", "fusion_lon": 0.0}, {"rental_uris": {"ios": "https://dc.lft.to/lastmile_qr_scan", "android": "https://dc.lft.to/lastmile_qr_scan"}, "type": "electric_scooter", "name": "20dc42245eafc76ed42da2441d2afd22", "is_reserved": 0, "lon": -77.02970933333333, "is_disabled": 0, "fusion_lat": 0.0, "lat": 38.92290633333333, "bike_id": "20dc42245eafc76ed42da2441d2afd22", "fusion_lon": 0.0}, {"rental_uris": {"ios": "https://dc.lft.to/lastmile_qr_scan", "android": "https://dc.lft.to/lastmile_qr_scan"}, "type": "electric_scooter", "name": "57b65a393a6ce7cfe4130c7b66044b7e", "is_reserved": 0, "lon": -77.03211816666666, "is_disabled": 0, "fusion_lat": 0.0, "lat": 38.91634083333334, "bike_id": "57b65a393a6ce7cfe4130c7b66044b7e", "fusion_lon": 0.0}, {"rental_uris": {"ios": "https://dc.lft.to/lastmile_qr_scan", "android": "https://dc.lft.to/lastmile_qr_scan"}, "type": "electric_scooter", "name": "7e1dd1b4ad059b5074b150528f79071d", "is_reserved": 0, "lon": -77.00578516666667, "is_disabled": 0, "fusion_lat": 0.0, "lat": 38.874591333333335, "bike_id": "7e1dd1b4ad059b5074b150528f79071d", "fusion_lon": 0.0}, {"rental_uris": {"ios": "https://dc.lft.to/lastmile_qr_scan", "android": "https://dc.lft.to/lastmile_qr_scan"}, "type": "electric_scooter", "name": "2ae5088b698435bbdb3d3d5943e20cbd", "is_reserved": 0, "lon": -77.0326745, "is_disabled": 0, "fusion_lat": 0.0, "lat": 38.919841, "bike_id": "2ae5088b698435bbdb3d3d5943e20cbd", "fusion_lon": 0.0}, {"rental_uris": {"ios": "https://dc.lft.to/lastmile_qr_scan", "android": "https://dc.lft.to/lastmile_qr_scan"}, "type": "electric_scooter", "name": "25af5d42178546d47315d44c9b2166a1", "is_reserved": 0, "lon": -77.03387733333334, "is_disabled": 0, "fusion_lat": 0.0, "lat": 38.900471833333334, "bike_id": "25af5d42178546d47315d44c9b2166a1", "fusion_lon": 0.0}, {"rental_uris": {"ios": "https://dc.lft.to/lastmile_qr_scan", "android": "https://dc.lft.to/lastmile_qr_scan"}, "type": "electric_scooter", "name": "3ef554bef6aafda921f41a4d6b02f908", "is_reserved": 0, "lon": -77.04214416666667, "is_disabled": 0, "fusion_lat": 0.0, "lat": 38.91705316666667, "bike_id": "3ef554bef6aafda921f41a4d6b02f908", "fusion_lon": 0.0}, {"rental_uris": {"ios": "https://dc.lft.to/lastmile_qr_scan", "android": "https://dc.lft.to/lastmile_qr_scan"}, "type": "electric_scooter", "name": "ca3ec301327694d4a718c1efbb181fd1", "is_reserved": 0, "lon": -76.9871065, "is_disabled": 0, "fusion_lat": 0.0, "lat": 38.88840733333333, "bike_id": "ca3ec301327694d4a718c1efbb181fd1", "fusion_lon": 0.0}, {"rental_uris": {"ios": "https://dc.lft.to/lastmile_qr_scan", "android": "https://dc.lft.to/lastmile_qr_scan"}, "type": "electric_bike", "name": "4697a1617488d0dc76a726511e2d82c1", "is_reserved": 0, "lon": -77.09957166666666, "is_disabled": 0, "fusion_lat": 0.0, "lat": 38.8579555, "bike_id": "4697a1617488d0dc76a726511e2d82c1", "fusion_lon": 0.0}, {"rental_uris": {"ios": "https://dc.lft.to/lastmile_qr_scan", "android": "https://dc.lft.to/lastmile_qr_scan"}, "type": "electric_scooter", "name": "4216e0aa0855c6967b21ab036abf1d97", "is_reserved": 0, "lon": -77.00942433333333, "is_disabled": 0, "fusion_lat": 0.0, "lat": 38.9126915, "bike_id": "4216e0aa0855c6967b21ab036abf1d97", "fusion_lon": 0.0}, {"rental_uris": {"ios": "https://dc.lft.to/lastmile_qr_scan", "android": "https://dc.lft.to/lastmile_qr_scan"}, "type": "electric_scooter", "name": "499425241e18091ea2c8ee190102af76", "is_reserved": 0, "lon": -77.04550116666667, "is_disabled": 0, "fusion_lat": 0.0, "lat": 38.907404, "bike_id": "499425241e18091ea2c8ee190102af76", "fusion_lon": 0.0}, {"rental_uris": {"ios": "https://dc.lft.to/lastmile_qr_scan", "android": "https://dc.lft.to/lastmile_qr_scan"}, "type": "electric_scooter", "name": "d850d79f99ff070a3eb2d5e6f99409e1", "is_reserved": 0, "lon": -77.03225433333333, "is_disabled": 0, "fusion_lat": 0.0, "lat": 38.9185115, "bike_id": "d850d79f99ff070a3eb2d5e6f99409e1", "fusion_lon": 0.0}, {"rental_uris": {"ios": "https://dc.lft.to/lastmile_qr_scan", "android": "https://dc.lft.to/lastmile_qr_scan"}, "type": "electric_scooter", "name": "0f065f361b593cf644e9bb5aa86c1d50", "is_reserved": 0, "lon": -77.06351583333333, "is_disabled": 0, "fusion_lat": 0.0, "lat": 38.9436715, "bike_id": "0f065f361b593cf644e9bb5aa86c1d50", "fusion_lon": 0.0}, {"rental_uris": {"ios": "https://dc.lft.to/lastmile_qr_scan", "android": "https://dc.lft.to/lastmile_qr_scan"}, "type": "electric_scooter", "name": "530a43dfb2acc26f0f9d7a24ca4e7f05", "is_reserved": 0, "lon": -77.04358233333333, "is_disabled": 0, "fusion_lat": 0.0, "lat": 38.892233166666664, "bike_id": "530a43dfb2acc26f0f9d7a24ca4e7f05", "fusion_lon": 0.0}, {"rental_uris": {"ios": "https://dc.lft.to/lastmile_qr_scan", "android": "https://dc.lft.to/lastmile_qr_scan"}, "type": "electric_scooter", "name": "c20203b03494f13ea0ec5d433078574f", "is_reserved": 0, "lon": -77.02478666666667, "is_disabled": 0, "fusion_lat": 0.0, "lat": 38.91815833333333, "bike_id": "c20203b03494f13ea0ec5d433078574f", "fusion_lon": 0.0}, {"rental_uris": {"ios": "https://dc.lft.to/lastmile_qr_scan", "android": "https://dc.lft.to/lastmile_qr_scan"}, "type": "electric_scooter", "name": "b0d2a9b6b600cf3cc0b9100029380a06", "is_reserved": 0, "lon": -77.04795183333333, "is_disabled": 0, "fusion_lat": 0.0, "lat": 38.899665166666665, "bike_id": "b0d2a9b6b600cf3cc0b9100029380a06", "fusion_lon": 0.0}, {"rental_uris": {"ios": "https://dc.lft.to/lastmile_qr_scan", "android": "https://dc.lft.to/lastmile_qr_scan"}, "type": "electric_scooter", "name": "f5041c5c9f9962e3af7b666af16df1ae", "is_reserved": 0, "lon": -77.04827683333333, "is_disabled": 0, "fusion_lat": 0.0, "lat": 38.91924133333333, "bike_id": "f5041c5c9f9962e3af7b666af16df1ae", "fusion_lon": 0.0}, {"rental_uris": {"ios": "https://dc.lft.to/lastmile_qr_scan", "android": "https://dc.lft.to/lastmile_qr_scan"}, "type": "electric_scooter", "name": "c7326ca5b865a16e6c55f381004b6747", "is_reserved": 0, "lon": -76.991898, "is_disabled": 0, "fusion_lat": 0.0, "lat": 38.908419333333335, "bike_id": "c7326ca5b865a16e6c55f381004b6747", "fusion_lon": 0.0}, {"rental_uris": {"ios": "https://dc.lft.to/lastmile_qr_scan", "android": "https://dc.lft.to/lastmile_qr_scan"}, "type": "electric_scooter", "name": "f4dd6551875b8c5aa437279c661c34f0", "is_reserved": 0, "lon": -77.013808, "is_disabled": 0, "fusion_lat": 0.0, "lat": 38.899152, "bike_id": "f4dd6551875b8c5aa437279c661c34f0", "fusion_lon": 0.0}, {"rental_uris": {"ios": "https://dc.lft.to/lastmile_qr_scan", "android": "https://dc.lft.to/lastmile_qr_scan"}, "type": "electric_scooter", "name": "bc625bafc6c06fb19521ffa6f76097e7", "is_reserved": 0, "lon": -77.03411016666666, "is_disabled": 0, "fusion_lat": 0.0, "lat": 38.9096575, "bike_id": "bc625bafc6c06fb19521ffa6f76097e7", "fusion_lon": 0.0}, {"rental_uris": {"ios": "https://dc.lft.to/lastmile_qr_scan", "android": "https://dc.lft.to/lastmile_qr_scan"}, "type": "electric_scooter", "name": "bac823d6e6bd05418444a0ddf9e73775", "is_reserved": 0, "lon": -77.031617, "is_disabled": 0, "fusion_lat": 0.0, "lat": 38.9593905, "bike_id": "bac823d6e6bd05418444a0ddf9e73775", "fusion_lon": 0.0}, {"rental_uris": {"ios": "https://dc.lft.to/lastmile_qr_scan", "android": "https://dc.lft.to/lastmile_qr_scan"}, "type": "electric_scooter", "name": "40f1043691223db9cc3191155c719204", "is_reserved": 0, "lon": -77.0339775, "is_disabled": 0, "fusion_lat": 0.0, "lat": 38.899731, "bike_id": "40f1043691223db9cc3191155c719204", "fusion_lon": 0.0}, {"rental_uris": {"ios": "https://dc.lft.to/lastmile_qr_scan", "android": "https://dc.lft.to/lastmile_qr_scan"}, "type": "electric_scooter", "name": "d32815db7567401d3b38082e72d85984", "is_reserved": 0, "lon": -77.04061633333333, "is_disabled": 0, "fusion_lat": 0.0, "lat": 38.91767516666667, "bike_id": "d32815db7567401d3b38082e72d85984", "fusion_lon": 0.0}, {"rental_uris": {"ios": "https://dc.lft.to/lastmile_qr_scan", "android": "https://dc.lft.to/lastmile_qr_scan"}, "type": "electric_bike", "name": "037868fb46a2b812545b089a7960049e", "is_reserved": 0, "lon": -77.00675783333334, "is_disabled": 0, "fusion_lat": 0.0, "lat": 38.94508366666667, "bike_id": "037868fb46a2b812545b089a7960049e", "fusion_lon": 0.0}, {"rental_uris": {"ios": "https://dc.lft.to/lastmile_qr_scan", "android": "https://dc.lft.to/lastmile_qr_scan"}, "type": "electric_bike", "name": "a2f1aceb8c49ba4a71f787b5c663a944", "is_reserved": 0, "lon": -76.986354, "is_disabled": 0, "fusion_lat": 0.0, "lat": 38.936893, "bike_id": "a2f1aceb8c49ba4a71f787b5c663a944", "fusion_lon": 0.0}, {"rental_uris": {"ios": "https://dc.lft.to/lastmile_qr_scan", "android": "https://dc.lft.to/lastmile_qr_scan"}, "type": "electric_scooter", "name": "75415775cd630d56d536e198f8bd5393", "is_reserved": 0, "lon": -77.033348, "is_disabled": 0, "fusion_lat": 0.0, "lat": 38.930343, "bike_id": "75415775cd630d56d536e198f8bd5393", "fusion_lon": 0.0}, {"rental_uris": {"ios": "https://dc.lft.to/lastmile_qr_scan", "android": "https://dc.lft.to/lastmile_qr_scan"}, "type": "electric_scooter", "name": "94ab167b0baa188f1de3fb2e1e21bb06", "is_reserved": 0, "lon": -77.02399216666667, "is_disabled": 0, "fusion_lat": 0.0, "lat": 38.903346166666665, "bike_id": "94ab167b0baa188f1de3fb2e1e21bb06", "fusion_lon": 0.0}, {"rental_uris": {"ios": "https://dc.lft.to/lastmile_qr_scan", "android": "https://dc.lft.to/lastmile_qr_scan"}, "type": "electric_scooter", "name": "c85100f341b5ed6abf21a689a772fdaa", "is_reserved": 0, "lon": -76.9833695, "is_disabled": 0, "fusion_lat": 0.0, "lat": 38.9008685, "bike_id": "c85100f341b5ed6abf21a689a772fdaa", "fusion_lon": 0.0}, {"rental_uris": {"ios": "https://dc.lft.to/lastmile_qr_scan", "android": "https://dc.lft.to/lastmile_qr_scan"}, "type": "electric_scooter", "name": "3f90a0c884f211a8951b797d086001eb", "is_reserved": 0, "lon": -77.019246, "is_disabled": 0, "fusion_lat": 0.0, "lat": 38.928702, "bike_id": "3f90a0c884f211a8951b797d086001eb", "fusion_lon": 0.0}, {"rental_uris": {"ios": "https://dc.lft.to/lastmile_qr_scan", "android": "https://dc.lft.to/lastmile_qr_scan"}, "type": "electric_scooter", "name": "e1b9fd971be5d0a2c0ee31fe064422a4", "is_reserved": 0, "lon": -77.03230233333333, "is_disabled": 0, "fusion_lat": 0.0, "lat": 38.925159, "bike_id": "e1b9fd971be5d0a2c0ee31fe064422a4", "fusion_lon": 0.0}, {"rental_uris": {"ios": "https://dc.lft.to/lastmile_qr_scan", "android": "https://dc.lft.to/lastmile_qr_scan"}, "type": "electric_scooter", "name": "36cb0b26717aca45081bd2d55821b2c8", "is_reserved": 0, "lon": -77.06135933333333, "is_disabled": 0, "fusion_lat": 0.0, "lat": 38.9430485, "bike_id": "36cb0b26717aca45081bd2d55821b2c8", "fusion_lon": 0.0}, {"rental_uris": {"ios": "https://dc.lft.to/lastmile_qr_scan", "android": "https://dc.lft.to/lastmile_qr_scan"}, "type": "electric_scooter", "name": "6463749f7caaa0fab8430eae1e55c3ae", "is_reserved": 0, "lon": -77.011112, "is_disabled": 0, "fusion_lat": 0.0, "lat": 38.90969533333333, "bike_id": "6463749f7caaa0fab8430eae1e55c3ae", "fusion_lon": 0.0}, {"rental_uris": {"ios": "https://dc.lft.to/lastmile_qr_scan", "android": "https://dc.lft.to/lastmile_qr_scan"}, "type": "electric_scooter", "name": "b5281d775dad0dd084a3fca8f831b582", "is_reserved": 0, "lon": -77.02020233333333, "is_disabled": 0, "fusion_lat": 0.0, "lat": 38.89905133333333, "bike_id": "b5281d775dad0dd084a3fca8f831b582", "fusion_lon": 0.0}, {"rental_uris": {"ios": "https://dc.lft.to/lastmile_qr_scan", "android": "https://dc.lft.to/lastmile_qr_scan"}, "type": "electric_bike", "name": "61030b6a147eb23c17ee7498963aca7c", "is_reserved": 0, "lon": -77.077729, "is_disabled": 0, "fusion_lat": 0.0, "lat": 38.93048316666667, "bike_id": "61030b6a147eb23c17ee7498963aca7c", "fusion_lon": 0.0}, {"rental_uris": {"ios": "https://dc.lft.to/lastmile_qr_scan", "android": "https://dc.lft.to/lastmile_qr_scan"}, "type": "electric_scooter", "name": "9149a27ceea15361c88ee2fea70bebd0", "is_reserved": 0, "lon": -77.013896, "is_disabled": 0, "fusion_lat": 0.0, "lat": 38.919533, "bike_id": "9149a27ceea15361c88ee2fea70bebd0", "fusion_lon": 0.0}, {"rental_uris": {"ios": "https://dc.lft.to/lastmile_qr_scan", "android": "https://dc.lft.to/lastmile_qr_scan"}, "type": "electric_scooter", "name": "19582593ec2f53bce6569e63d729ed0d", "is_reserved": 0, "lon": -77.07567516666667, "is_disabled": 0, "fusion_lat": 0.0, "lat": 38.9065485, "bike_id": "19582593ec2f53bce6569e63d729ed0d", "fusion_lon": 0.0}, {"rental_uris": {"ios": "https://dc.lft.to/lastmile_qr_scan", "android": "https://dc.lft.to/lastmile_qr_scan"}, "type": "electric_scooter", "name": "b878f83fa43dda1617a3635e9ec2074e", "is_reserved": 0, "lon": -77.02185566666667, "is_disabled": 0, "fusion_lat": 0.0, "lat": 38.925018666666666, "bike_id": "b878f83fa43dda1617a3635e9ec2074e", "fusion_lon": 0.0}, {"rental_uris": {"ios": "https://dc.lft.to/lastmile_qr_scan", "android": "https://dc.lft.to/lastmile_qr_scan"}, "type": "electric_scooter", "name": "9635d958810f3531fe252ad0453c1d05", "is_reserved": 0, "lon": -77.029535, "is_disabled": 0, "fusion_lat": 0.0, "lat": 38.898272, "bike_id": "9635d958810f3531fe252ad0453c1d05", "fusion_lon": 0.0}, {"rental_uris": {"ios": "https://dc.lft.to/lastmile_qr_scan", "android": "https://dc.lft.to/lastmile_qr_scan"}, "type": "electric_scooter", "name": "ca6314f46ed288bdf7cea694799ba463", "is_reserved": 0, "lon": -77.03282783333333, "is_disabled": 0, "fusion_lat": 0.0, "lat": 38.89754683333334, "bike_id": "ca6314f46ed288bdf7cea694799ba463", "fusion_lon": 0.0}, {"rental_uris": {"ios": "https://dc.lft.to/lastmile_qr_scan", "android": "https://dc.lft.to/lastmile_qr_scan"}, "type": "electric_scooter", "name": "2fcd2a6472f7d37e468b57a8fa51dab4", "is_reserved": 0, "lon": -77.064318, "is_disabled": 0, "fusion_lat": 0.0, "lat": 38.93564116666667, "bike_id": "2fcd2a6472f7d37e468b57a8fa51dab4", "fusion_lon": 0.0}, {"rental_uris": {"ios": "https://dc.lft.to/lastmile_qr_scan", "android": "https://dc.lft.to/lastmile_qr_scan"}, "type": "electric_scooter", "name": "e875a0f8ce2055d56f0e7a49894ef7cb", "is_reserved": 0, "lon": -77.030514, "is_disabled": 0, "fusion_lat": 0.0, "lat": 38.898397333333335, "bike_id": "e875a0f8ce2055d56f0e7a49894ef7cb", "fusion_lon": 0.0}, {"rental_uris": {"ios": "https://dc.lft.to/lastmile_qr_scan", "android": "https://dc.lft.to/lastmile_qr_scan"}, "type": "electric_scooter", "name": "1e5f1cb0e30b5736895d54be64ae4807", "is_reserved": 0, "lon": -77.01725333333333, "is_disabled": 0, "fusion_lat": 0.0, "lat": 38.8922575, "bike_id": "1e5f1cb0e30b5736895d54be64ae4807", "fusion_lon": 0.0}, {"rental_uris": {"ios": "https://dc.lft.to/lastmile_qr_scan", "android": "https://dc.lft.to/lastmile_qr_scan"}, "type": "electric_bike", "name": "d3162fab3cfb2292ae7d45dff62c55c9", "is_reserved": 0, "lon": -76.951595, "is_disabled": 0, "fusion_lat": 0.0, "lat": 39.08438983333333, "bike_id": "d3162fab3cfb2292ae7d45dff62c55c9", "fusion_lon": 0.0}, {"rental_uris": {"ios": "https://dc.lft.to/lastmile_qr_scan", "android": "https://dc.lft.to/lastmile_qr_scan"}, "type": "electric_scooter", "name": "02250366d359a7a2a6d8733c8ee0d643", "is_reserved": 0, "lon": -77.001563, "is_disabled": 0, "fusion_lat": 0.0, "lat": 38.82132433333334, "bike_id": "02250366d359a7a2a6d8733c8ee0d643", "fusion_lon": 0.0}, {"rental_uris": {"ios": "https://dc.lft.to/lastmile_qr_scan", "android": "https://dc.lft.to/lastmile_qr_scan"}, "type": "electric_scooter", "name": "8ebbb24b2dbd14540a3ee6fea9112b0a", "is_reserved": 0, "lon": -76.99950966666667, "is_disabled": 0, "fusion_lat": 0.0, "lat": 38.89088016666667, "bike_id": "8ebbb24b2dbd14540a3ee6fea9112b0a", "fusion_lon": 0.0}, {"rental_uris": {"ios": "https://dc.lft.to/lastmile_qr_scan", "android": "https://dc.lft.to/lastmile_qr_scan"}, "type": "electric_bike", "name": "ded5a78709abcda92c452b9987cfb74b", "is_reserved": 0, "lon": -76.97545033333333, "is_disabled": 0, "fusion_lat": 0.0, "lat": 38.904307833333334, "bike_id": "ded5a78709abcda92c452b9987cfb74b", "fusion_lon": 0.0}, {"rental_uris": {"ios": "https://dc.lft.to/lastmile_qr_scan", "android": "https://dc.lft.to/lastmile_qr_scan"}, "type": "electric_scooter", "name": "109096cafe6467467d1d3e70912f289d", "is_reserved": 0, "lon": -76.98734266666666, "is_disabled": 0, "fusion_lat": 0.0, "lat": 38.909872166666666, "bike_id": "109096cafe6467467d1d3e70912f289d", "fusion_lon": 0.0}, {"rental_uris": {"ios": "https://dc.lft.to/lastmile_qr_scan", "android": "https://dc.lft.to/lastmile_qr_scan"}, "type": "electric_scooter", "name": "1872ac19161a7532a830e6bf9ea1475d", "is_reserved": 0, "lon": -77.01636516666667, "is_disabled": 0, "fusion_lat": 0.0, "lat": 38.929384666666664, "bike_id": "1872ac19161a7532a830e6bf9ea1475d", "fusion_lon": 0.0}, {"rental_uris": {"ios": "https://dc.lft.to/lastmile_qr_scan", "android": "https://dc.lft.to/lastmile_qr_scan"}, "type": "electric_scooter", "name": "27f76a3d1d8a640c2cc255799dfb032b", "is_reserved": 0, "lon": -77.032314, "is_disabled": 0, "fusion_lat": 0.0, "lat": 38.91707683333333, "bike_id": "27f76a3d1d8a640c2cc255799dfb032b", "fusion_lon": 0.0}, {"rental_uris": {"ios": "https://dc.lft.to/lastmile_qr_scan", "android": "https://dc.lft.to/lastmile_qr_scan"}, "type": "electric_scooter", "name": "cfaa149f68e16514560ebee21421addf", "is_reserved": 0, "lon": -77.03184483333334, "is_disabled": 0, "fusion_lat": 0.0, "lat": 38.9210135, "bike_id": "cfaa149f68e16514560ebee21421addf", "fusion_lon": 0.0}, {"rental_uris": {"ios": "https://dc.lft.to/lastmile_qr_scan", "android": "https://dc.lft.to/lastmile_qr_scan"}, "type": "electric_scooter", "name": "dde46de3e21f30c073d88c8867216059", "is_reserved": 0, "lon": -76.9835975, "is_disabled": 0, "fusion_lat": 0.0, "lat": 38.887346666666666, "bike_id": "dde46de3e21f30c073d88c8867216059", "fusion_lon": 0.0}, {"rental_uris": {"ios": "https://dc.lft.to/lastmile_qr_scan", "android": "https://dc.lft.to/lastmile_qr_scan"}, "type": "electric_scooter", "name": "395b6296ddd5df756a3bda1be5e5e43f", "is_reserved": 0, "lon": -76.92315083333334, "is_disabled": 0, "fusion_lat": 0.0, "lat": 38.89387466666667, "bike_id": "395b6296ddd5df756a3bda1be5e5e43f", "fusion_lon": 0.0}, {"rental_uris": {"ios": "https://dc.lft.to/lastmile_qr_scan", "android": "https://dc.lft.to/lastmile_qr_scan"}, "type": "electric_scooter", "name": "cdf17f4d989f0ef38472b3553400766e", "is_reserved": 0, "lon": -77.034145, "is_disabled": 0, "fusion_lat": 0.0, "lat": 38.90138666666667, "bike_id": "cdf17f4d989f0ef38472b3553400766e", "fusion_lon": 0.0}, {"rental_uris": {"ios": "https://dc.lft.to/lastmile_qr_scan", "android": "https://dc.lft.to/lastmile_qr_scan"}, "type": "electric_scooter", "name": "84cef2e4d221f75b6e4c5e2361605628", "is_reserved": 0, "lon": -77.06384616666666, "is_disabled": 0, "fusion_lat": 0.0, "lat": 38.905282166666666, "bike_id": "84cef2e4d221f75b6e4c5e2361605628", "fusion_lon": 0.0}, {"rental_uris": {"ios": "https://dc.lft.to/lastmile_qr_scan", "android": "https://dc.lft.to/lastmile_qr_scan"}, "type": "electric_bike", "name": "9e51b0d91fa3918d406c05be0c68da27", "is_reserved": 0, "lon": -77.23180266666667, "is_disabled": 0, "fusion_lat": 0.0, "lat": 38.9289465, "bike_id": "9e51b0d91fa3918d406c05be0c68da27", "fusion_lon": 0.0}, {"rental_uris": {"ios": "https://dc.lft.to/lastmile_qr_scan", "android": "https://dc.lft.to/lastmile_qr_scan"}, "type": "electric_bike", "name": "3063649578b672527a11660f21a05534", "is_reserved": 0, "lon": -76.97963983333334, "is_disabled": 0, "fusion_lat": 0.0, "lat": 38.9204065, "bike_id": "3063649578b672527a11660f21a05534", "fusion_lon": 0.0}, {"rental_uris": {"ios": "https://dc.lft.to/lastmile_qr_scan", "android": "https://dc.lft.to/lastmile_qr_scan"}, "type": "electric_bike", "name": "490db8adad2b5beeaecedb7cfa96c30a", "is_reserved": 0, "lon": -77.07911233333333, "is_disabled": 0, "fusion_lat": 0.0, "lat": 38.83939483333333, "bike_id": "490db8adad2b5beeaecedb7cfa96c30a", "fusion_lon": 0.0}, {"rental_uris": {"ios": "https://dc.lft.to/lastmile_qr_scan", "android": "https://dc.lft.to/lastmile_qr_scan"}, "type": "electric_bike", "name": "1875591fcb769cce9ca6a455d1736c71", "is_reserved": 0, "lon": -77.10295016666667, "is_disabled": 0, "fusion_lat": 0.0, "lat": 38.8525295, "bike_id": "1875591fcb769cce9ca6a455d1736c71", "fusion_lon": 0.0}, {"rental_uris": {"ios": "https://dc.lft.to/lastmile_qr_scan", "android": "https://dc.lft.to/lastmile_qr_scan"}, "type": "electric_scooter", "name": "ac018834bcfb3cbcfd7a49bbfd1b0452", "is_reserved": 0, "lon": -77.01504066666666, "is_disabled": 0, "fusion_lat": 0.0, "lat": 38.90654266666667, "bike_id": "ac018834bcfb3cbcfd7a49bbfd1b0452", "fusion_lon": 0.0}, {"rental_uris": {"ios": "https://dc.lft.to/lastmile_qr_scan", "android": "https://dc.lft.to/lastmile_qr_scan"}, "type": "electric_scooter", "name": "6d39d19d6daf04217e5311e430cfbd1b", "is_reserved": 0, "lon": -77.03220783333333, "is_disabled": 0, "fusion_lat": 0.0, "lat": 38.91136016666667, "bike_id": "6d39d19d6daf04217e5311e430cfbd1b", "fusion_lon": 0.0}, {"rental_uris": {"ios": "https://dc.lft.to/lastmile_qr_scan", "android": "https://dc.lft.to/lastmile_qr_scan"}, "type": "electric_scooter", "name": "8b66910953cb35196383d0c25ab8b892", "is_reserved": 0, "lon": -77.02456083333334, "is_disabled": 0, "fusion_lat": 0.0, "lat": 38.9185285, "bike_id": "8b66910953cb35196383d0c25ab8b892", "fusion_lon": 0.0}, {"rental_uris": {"ios": "https://dc.lft.to/lastmile_qr_scan", "android": "https://dc.lft.to/lastmile_qr_scan"}, "type": "electric_scooter", "name": "53890152c64ed4e1344c563c9265bc5f", "is_reserved": 0, "lon": -77.00592466666667, "is_disabled": 0, "fusion_lat": 0.0, "lat": 38.87655933333333, "bike_id": "53890152c64ed4e1344c563c9265bc5f", "fusion_lon": 0.0}, {"rental_uris": {"ios": "https://dc.lft.to/lastmile_qr_scan", "android": "https://dc.lft.to/lastmile_qr_scan"}, "type": "electric_scooter", "name": "79457562415e04c2759141b0e89ac4ea", "is_reserved": 0, "lon": -77.0200825, "is_disabled": 0, "fusion_lat": 0.0, "lat": 38.928065333333336, "bike_id": "79457562415e04c2759141b0e89ac4ea", "fusion_lon": 0.0}, {"rental_uris": {"ios": "https://dc.lft.to/lastmile_qr_scan", "android": "https://dc.lft.to/lastmile_qr_scan"}, "type": "electric_scooter", "name": "c36c96bd94b2425326f6440627d79d72", "is_reserved": 0, "lon": -76.94638983333333, "is_disabled": 0, "fusion_lat": 0.0, "lat": 38.8986755, "bike_id": "c36c96bd94b2425326f6440627d79d72", "fusion_lon": 0.0}, {"rental_uris": {"ios": "https://dc.lft.to/lastmile_qr_scan", "android": "https://dc.lft.to/lastmile_qr_scan"}, "type": "electric_scooter", "name": "af455ae0a76a8d398ff1ca96fc055a5c", "is_reserved": 0, "lon": -77.02697033333334, "is_disabled": 0, "fusion_lat": 0.0, "lat": 38.90605016666667, "bike_id": "af455ae0a76a8d398ff1ca96fc055a5c", "fusion_lon": 0.0}, {"rental_uris": {"ios": "https://dc.lft.to/lastmile_qr_scan", "android": "https://dc.lft.to/lastmile_qr_scan"}, "type": "electric_scooter", "name": "f3a6452fbf3572c4524e945e697b874a", "is_reserved": 0, "lon": -77.02570633333333, "is_disabled": 0, "fusion_lat": 0.0, "lat": 38.94849283333333, "bike_id": "f3a6452fbf3572c4524e945e697b874a", "fusion_lon": 0.0}, {"rental_uris": {"ios": "https://dc.lft.to/lastmile_qr_scan", "android": "https://dc.lft.to/lastmile_qr_scan"}, "type": "electric_scooter", "name": "14784b7d8da7adb42ec1eb6017ca5614", "is_reserved": 0, "lon": -77.04492083333334, "is_disabled": 0, "fusion_lat": 0.0, "lat": 38.91366266666667, "bike_id": "14784b7d8da7adb42ec1eb6017ca5614", "fusion_lon": 0.0}, {"rental_uris": {"ios": "https://dc.lft.to/lastmile_qr_scan", "android": "https://dc.lft.to/lastmile_qr_scan"}, "type": "electric_scooter", "name": "efa9976ca53b15baa9b2346b430ab842", "is_reserved": 0, "lon": -76.98372233333333, "is_disabled": 0, "fusion_lat": 0.0, "lat": 38.8926345, "bike_id": "efa9976ca53b15baa9b2346b430ab842", "fusion_lon": 0.0}, {"rental_uris": {"ios": "https://dc.lft.to/lastmile_qr_scan", "android": "https://dc.lft.to/lastmile_qr_scan"}, "type": "electric_scooter", "name": "495adc4ee5b2c86d88d390160b148529", "is_reserved": 0, "lon": -77.02818083333334, "is_disabled": 0, "fusion_lat": 0.0, "lat": 38.91762666666666, "bike_id": "495adc4ee5b2c86d88d390160b148529", "fusion_lon": 0.0}, {"rental_uris": {"ios": "https://dc.lft.to/lastmile_qr_scan", "android": "https://dc.lft.to/lastmile_qr_scan"}, "type": "electric_scooter", "name": "1d78a2130f98e3fe23034127622d1410", "is_reserved": 0, "lon": -76.95743233333333, "is_disabled": 0, "fusion_lat": 0.0, "lat": 38.88393116666667, "bike_id": "1d78a2130f98e3fe23034127622d1410", "fusion_lon": 0.0}, {"rental_uris": {"ios": "https://dc.lft.to/lastmile_qr_scan", "android": "https://dc.lft.to/lastmile_qr_scan"}, "type": "electric_scooter", "name": "cf4e6869c9e5b6bb87b90fac72d062cc", "is_reserved": 0, "lon": -77.03843883333333, "is_disabled": 0, "fusion_lat": 0.0, "lat": 38.910206, "bike_id": "cf4e6869c9e5b6bb87b90fac72d062cc", "fusion_lon": 0.0}, {"rental_uris": {"ios": "https://dc.lft.to/lastmile_qr_scan", "android": "https://dc.lft.to/lastmile_qr_scan"}, "type": "electric_scooter", "name": "059ef9b383e8ecaa2f4dac94bcc02a46", "is_reserved": 0, "lon": -77.01803066666666, "is_disabled": 0, "fusion_lat": 0.0, "lat": 38.9203465, "bike_id": "059ef9b383e8ecaa2f4dac94bcc02a46", "fusion_lon": 0.0}, {"rental_uris": {"ios": "https://dc.lft.to/lastmile_qr_scan", "android": "https://dc.lft.to/lastmile_qr_scan"}, "type": "electric_scooter", "name": "bca03ec1477db6e863f9e82ee6862f19", "is_reserved": 0, "lon": -77.0337615, "is_disabled": 0, "fusion_lat": 0.0, "lat": 38.92477316666667, "bike_id": "bca03ec1477db6e863f9e82ee6862f19", "fusion_lon": 0.0}, {"rental_uris": {"ios": "https://dc.lft.to/lastmile_qr_scan", "android": "https://dc.lft.to/lastmile_qr_scan"}, "type": "electric_scooter", "name": "b84b72cad715488c8e301eafaf5ace9c", "is_reserved": 0, "lon": -77.031838, "is_disabled": 0, "fusion_lat": 0.0, "lat": 38.909519, "bike_id": "b84b72cad715488c8e301eafaf5ace9c", "fusion_lon": 0.0}, {"rental_uris": {"ios": "https://dc.lft.to/lastmile_qr_scan", "android": "https://dc.lft.to/lastmile_qr_scan"}, "type": "electric_scooter", "name": "9b953f6baa3612325580804cd93ec82f", "is_reserved": 0, "lon": -77.01793916666666, "is_disabled": 0, "fusion_lat": 0.0, "lat": 38.91992, "bike_id": "9b953f6baa3612325580804cd93ec82f", "fusion_lon": 0.0}, {"rental_uris": {"ios": "https://dc.lft.to/lastmile_qr_scan", "android": "https://dc.lft.to/lastmile_qr_scan"}, "type": "electric_scooter", "name": "b19ba19bd1f80b10d1b2eb99d6fb2661", "is_reserved": 0, "lon": -77.04248033333333, "is_disabled": 0, "fusion_lat": 0.0, "lat": 38.90364966666667, "bike_id": "b19ba19bd1f80b10d1b2eb99d6fb2661", "fusion_lon": 0.0}, {"rental_uris": {"ios": "https://dc.lft.to/lastmile_qr_scan", "android": "https://dc.lft.to/lastmile_qr_scan"}, "type": "electric_scooter", "name": "7c2747e1592b6be805a2835d8591cbd1", "is_reserved": 0, "lon": -77.02144966666667, "is_disabled": 0, "fusion_lat": 0.0, "lat": 38.903029, "bike_id": "7c2747e1592b6be805a2835d8591cbd1", "fusion_lon": 0.0}, {"rental_uris": {"ios": "https://dc.lft.to/lastmile_qr_scan", "android": "https://dc.lft.to/lastmile_qr_scan"}, "type": "electric_scooter", "name": "70e845464d1fd872db4d17419538150d", "is_reserved": 0, "lon": -77.04107083333334, "is_disabled": 0, "fusion_lat": 0.0, "lat": 38.92715966666667, "bike_id": "70e845464d1fd872db4d17419538150d", "fusion_lon": 0.0}, {"rental_uris": {"ios": "https://dc.lft.to/lastmile_qr_scan", "android": "https://dc.lft.to/lastmile_qr_scan"}, "type": "electric_scooter", "name": "20a382ef48db4a4a0fd6d0c52812b0e2", "is_reserved": 0, "lon": -77.04168383333334, "is_disabled": 0, "fusion_lat": 0.0, "lat": 38.916005166666665, "bike_id": "20a382ef48db4a4a0fd6d0c52812b0e2", "fusion_lon": 0.0}, {"rental_uris": {"ios": "https://dc.lft.to/lastmile_qr_scan", "android": "https://dc.lft.to/lastmile_qr_scan"}, "type": "electric_scooter", "name": "15da4d6d24678a2a7b60a7abaede419d", "is_reserved": 0, "lon": -77.04645766666667, "is_disabled": 0, "fusion_lat": 0.0, "lat": 38.915675666666665, "bike_id": "15da4d6d24678a2a7b60a7abaede419d", "fusion_lon": 0.0}, {"rental_uris": {"ios": "https://dc.lft.to/lastmile_qr_scan", "android": "https://dc.lft.to/lastmile_qr_scan"}, "type": "electric_scooter", "name": "732303aea7cbcc4307d0588bf7781c43", "is_reserved": 0, "lon": -77.02665466666667, "is_disabled": 0, "fusion_lat": 0.0, "lat": 38.921806333333336, "bike_id": "732303aea7cbcc4307d0588bf7781c43", "fusion_lon": 0.0}, {"rental_uris": {"ios": "https://dc.lft.to/lastmile_qr_scan", "android": "https://dc.lft.to/lastmile_qr_scan"}, "type": "electric_bike", "name": "153178a8882354ec2b7c0016d97e5293", "is_reserved": 0, "lon": -76.999152, "is_disabled": 0, "fusion_lat": 0.0, "lat": 38.8644895, "bike_id": "153178a8882354ec2b7c0016d97e5293", "fusion_lon": 0.0}, {"rental_uris": {"ios": "https://dc.lft.to/lastmile_qr_scan", "android": "https://dc.lft.to/lastmile_qr_scan"}, "type": "electric_bike", "name": "278a5ce6b169a5e49a74f9a4c4d9e006", "is_reserved": 0, "lon": -77.00420516666667, "is_disabled": 0, "fusion_lat": 0.0, "lat": 38.98527716666667, "bike_id": "278a5ce6b169a5e49a74f9a4c4d9e006", "fusion_lon": 0.0}, {"rental_uris": {"ios": "https://dc.lft.to/lastmile_qr_scan", "android": "https://dc.lft.to/lastmile_qr_scan"}, "type": "electric_scooter", "name": "bf46379d72e405d665f9fb877ca58bde", "is_reserved": 0, "lon": -77.00386383333333, "is_disabled": 0, "fusion_lat": 0.0, "lat": 38.87936416666667, "bike_id": "bf46379d72e405d665f9fb877ca58bde", "fusion_lon": 0.0}, {"rental_uris": {"ios": "https://dc.lft.to/lastmile_qr_scan", "android": "https://dc.lft.to/lastmile_qr_scan"}, "type": "electric_scooter", "name": "e474b31632580610cc71016e1d86029c", "is_reserved": 0, "lon": -77.031892, "is_disabled": 0, "fusion_lat": 0.0, "lat": 38.9305885, "bike_id": "e474b31632580610cc71016e1d86029c", "fusion_lon": 0.0}, {"rental_uris": {"ios": "https://dc.lft.to/lastmile_qr_scan", "android": "https://dc.lft.to/lastmile_qr_scan"}, "type": "electric_scooter", "name": "235cdeaa2193d12cda4227d6ef396c2e", "is_reserved": 0, "lon": -77.05300933333334, "is_disabled": 0, "fusion_lat": 0.0, "lat": 38.902708, "bike_id": "235cdeaa2193d12cda4227d6ef396c2e", "fusion_lon": 0.0}, {"rental_uris": {"ios": "https://dc.lft.to/lastmile_qr_scan", "android": "https://dc.lft.to/lastmile_qr_scan"}, "type": "electric_scooter", "name": "00d63f48a8708fdf6c4cdf5c98741877", "is_reserved": 0, "lon": -77.0320145, "is_disabled": 0, "fusion_lat": 0.0, "lat": 38.917992, "bike_id": "00d63f48a8708fdf6c4cdf5c98741877", "fusion_lon": 0.0}, {"rental_uris": {"ios": "https://dc.lft.to/lastmile_qr_scan", "android": "https://dc.lft.to/lastmile_qr_scan"}, "type": "electric_scooter", "name": "49aec271aa5e0266aa5205b2bffae72f", "is_reserved": 0, "lon": -77.04904683333334, "is_disabled": 0, "fusion_lat": 0.0, "lat": 38.900801333333334, "bike_id": "49aec271aa5e0266aa5205b2bffae72f", "fusion_lon": 0.0}, {"rental_uris": {"ios": "https://dc.lft.to/lastmile_qr_scan", "android": "https://dc.lft.to/lastmile_qr_scan"}, "type": "electric_scooter", "name": "3af7194d6157a04b837fd1bf153d8280", "is_reserved": 0, "lon": -77.02028966666667, "is_disabled": 0, "fusion_lat": 0.0, "lat": 38.934163833333336, "bike_id": "3af7194d6157a04b837fd1bf153d8280", "fusion_lon": 0.0}, {"rental_uris": {"ios": "https://dc.lft.to/lastmile_qr_scan", "android": "https://dc.lft.to/lastmile_qr_scan"}, "type": "electric_scooter", "name": "1f629c97c0422a1ef167e00758849466", "is_reserved": 0, "lon": -76.93395933333333, "is_disabled": 0, "fusion_lat": 0.0, "lat": 38.89909816666667, "bike_id": "1f629c97c0422a1ef167e00758849466", "fusion_lon": 0.0}, {"rental_uris": {"ios": "https://dc.lft.to/lastmile_qr_scan", "android": "https://dc.lft.to/lastmile_qr_scan"}, "type": "electric_scooter", "name": "a398275c58a823109f89e7c1d1f68a8a", "is_reserved": 0, "lon": -77.04080433333333, "is_disabled": 0, "fusion_lat": 0.0, "lat": 38.917178, "bike_id": "a398275c58a823109f89e7c1d1f68a8a", "fusion_lon": 0.0}, {"rental_uris": {"ios": "https://dc.lft.to/lastmile_qr_scan", "android": "https://dc.lft.to/lastmile_qr_scan"}, "type": "electric_scooter", "name": "fd8bf20da8f969ffd9762a849849999f", "is_reserved": 0, "lon": -77.05969033333334, "is_disabled": 0, "fusion_lat": 0.0, "lat": 38.92830683333333, "bike_id": "fd8bf20da8f969ffd9762a849849999f", "fusion_lon": 0.0}, {"rental_uris": {"ios": "https://dc.lft.to/lastmile_qr_scan", "android": "https://dc.lft.to/lastmile_qr_scan"}, "type": "electric_scooter", "name": "01aa9f794556b3d9f0b126304dbc28a7", "is_reserved": 0, "lon": -77.04237466666666, "is_disabled": 0, "fusion_lat": 0.0, "lat": 38.911097833333336, "bike_id": "01aa9f794556b3d9f0b126304dbc28a7", "fusion_lon": 0.0}, {"rental_uris": {"ios": "https://dc.lft.to/lastmile_qr_scan", "android": "https://dc.lft.to/lastmile_qr_scan"}, "type": "electric_bike", "name": "2c87f5cf7cc89da62ca6206e36694795", "is_reserved": 0, "lon": -77.00775766666666, "is_disabled": 0, "fusion_lat": 0.0, "lat": 38.9978425, "bike_id": "2c87f5cf7cc89da62ca6206e36694795", "fusion_lon": 0.0}, {"rental_uris": {"ios": "https://dc.lft.to/lastmile_qr_scan", "android": "https://dc.lft.to/lastmile_qr_scan"}, "type": "electric_scooter", "name": "1a14088e1058e95203d5b4fa6bd41960", "is_reserved": 0, "lon": -77.039484, "is_disabled": 0, "fusion_lat": 0.0, "lat": 38.898251333333334, "bike_id": "1a14088e1058e95203d5b4fa6bd41960", "fusion_lon": 0.0}, {"rental_uris": {"ios": "https://dc.lft.to/lastmile_qr_scan", "android": "https://dc.lft.to/lastmile_qr_scan"}, "type": "electric_scooter", "name": "d2b7f9ae82caffabec642a03d7de0556", "is_reserved": 0, "lon": -77.00320633333334, "is_disabled": 0, "fusion_lat": 0.0, "lat": 38.9133765, "bike_id": "d2b7f9ae82caffabec642a03d7de0556", "fusion_lon": 0.0}, {"rental_uris": {"ios": "https://dc.lft.to/lastmile_qr_scan", "android": "https://dc.lft.to/lastmile_qr_scan"}, "type": "electric_bike", "name": "ed9add2d94061ab025322cf06ef600f4", "is_reserved": 0, "lon": -76.95243416666666, "is_disabled": 0, "fusion_lat": 0.0, "lat": 38.884661, "bike_id": "ed9add2d94061ab025322cf06ef600f4", "fusion_lon": 0.0}, {"rental_uris": {"ios": "https://dc.lft.to/lastmile_qr_scan", "android": "https://dc.lft.to/lastmile_qr_scan"}, "type": "electric_scooter", "name": "c66ef387a0d49b1ef4d5be476ea2aa64", "is_reserved": 0, "lon": -77.0966805, "is_disabled": 0, "fusion_lat": 0.0, "lat": 38.9176235, "bike_id": "c66ef387a0d49b1ef4d5be476ea2aa64", "fusion_lon": 0.0}, {"rental_uris": {"ios": "https://dc.lft.to/lastmile_qr_scan", "android": "https://dc.lft.to/lastmile_qr_scan"}, "type": "electric_scooter", "name": "b724df71d54c3ccfe3e7b7532ad9cd32", "is_reserved": 0, "lon": -77.03465216666666, "is_disabled": 0, "fusion_lat": 0.0, "lat": 38.9084145, "bike_id": "b724df71d54c3ccfe3e7b7532ad9cd32", "fusion_lon": 0.0}, {"rental_uris": {"ios": "https://dc.lft.to/lastmile_qr_scan", "android": "https://dc.lft.to/lastmile_qr_scan"}, "type": "electric_bike", "name": "7252fbffe1c55e80045a69bf0dcc5f69", "is_reserved": 0, "lon": -76.9455205, "is_disabled": 0, "fusion_lat": 0.0, "lat": 38.98297433333333, "bike_id": "7252fbffe1c55e80045a69bf0dcc5f69", "fusion_lon": 0.0}, {"rental_uris": {"ios": "https://dc.lft.to/lastmile_qr_scan", "android": "https://dc.lft.to/lastmile_qr_scan"}, "type": "electric_scooter", "name": "432bbafdf80f96fbcac6eadfdf46ea9b", "is_reserved": 0, "lon": -77.02032, "is_disabled": 0, "fusion_lat": 0.0, "lat": 38.899885833333336, "bike_id": "432bbafdf80f96fbcac6eadfdf46ea9b", "fusion_lon": 0.0}, {"rental_uris": {"ios": "https://dc.lft.to/lastmile_qr_scan", "android": "https://dc.lft.to/lastmile_qr_scan"}, "type": "electric_scooter", "name": "723eca1c000fffbbe6743de214c367c8", "is_reserved": 0, "lon": -77.03213933333333, "is_disabled": 0, "fusion_lat": 0.0, "lat": 38.9072735, "bike_id": "723eca1c000fffbbe6743de214c367c8", "fusion_lon": 0.0}, {"rental_uris": {"ios": "https://dc.lft.to/lastmile_qr_scan", "android": "https://dc.lft.to/lastmile_qr_scan"}, "type": "electric_scooter", "name": "00a280107ae9d5cd6f2f7ad57d270988", "is_reserved": 0, "lon": -77.01762083333334, "is_disabled": 0, "fusion_lat": 0.0, "lat": 38.87685483333333, "bike_id": "00a280107ae9d5cd6f2f7ad57d270988", "fusion_lon": 0.0}, {"rental_uris": {"ios": "https://dc.lft.to/lastmile_qr_scan", "android": "https://dc.lft.to/lastmile_qr_scan"}, "type": "electric_scooter", "name": "61d629e349821d4353b4f97643b5828d", "is_reserved": 0, "lon": -77.00322916666667, "is_disabled": 0, "fusion_lat": 0.0, "lat": 38.877182, "bike_id": "61d629e349821d4353b4f97643b5828d", "fusion_lon": 0.0}, {"rental_uris": {"ios": "https://dc.lft.to/lastmile_qr_scan", "android": "https://dc.lft.to/lastmile_qr_scan"}, "type": "electric_scooter", "name": "acb77e6772466f2ab9507b9153082abd", "is_reserved": 0, "lon": -76.98358016666667, "is_disabled": 0, "fusion_lat": 0.0, "lat": 38.91257816666667, "bike_id": "acb77e6772466f2ab9507b9153082abd", "fusion_lon": 0.0}, {"rental_uris": {"ios": "https://dc.lft.to/lastmile_qr_scan", "android": "https://dc.lft.to/lastmile_qr_scan"}, "type": "electric_scooter", "name": "fa7a46654d50bcc2349cfba61bd92efe", "is_reserved": 0, "lon": -76.99164316666666, "is_disabled": 0, "fusion_lat": 0.0, "lat": 38.8882225, "bike_id": "fa7a46654d50bcc2349cfba61bd92efe", "fusion_lon": 0.0}, {"rental_uris": {"ios": "https://dc.lft.to/lastmile_qr_scan", "android": "https://dc.lft.to/lastmile_qr_scan"}, "type": "electric_scooter", "name": "e7dfa380915be6fd3c4ce24e44024ee4", "is_reserved": 0, "lon": -77.01722933333333, "is_disabled": 0, "fusion_lat": 0.0, "lat": 38.9046545, "bike_id": "e7dfa380915be6fd3c4ce24e44024ee4", "fusion_lon": 0.0}, {"rental_uris": {"ios": "https://dc.lft.to/lastmile_qr_scan", "android": "https://dc.lft.to/lastmile_qr_scan"}, "type": "electric_scooter", "name": "ff32fcd717099b0abfb22df1afbf6d07", "is_reserved": 0, "lon": -77.03529, "is_disabled": 0, "fusion_lat": 0.0, "lat": 38.9223475, "bike_id": "ff32fcd717099b0abfb22df1afbf6d07", "fusion_lon": 0.0}, {"rental_uris": {"ios": "https://dc.lft.to/lastmile_qr_scan", "android": "https://dc.lft.to/lastmile_qr_scan"}, "type": "electric_scooter", "name": "125ae68dcef5df43a6858c6945c38b22", "is_reserved": 0, "lon": -77.02879183333333, "is_disabled": 0, "fusion_lat": 0.0, "lat": 38.92023533333333, "bike_id": "125ae68dcef5df43a6858c6945c38b22", "fusion_lon": 0.0}, {"rental_uris": {"ios": "https://dc.lft.to/lastmile_qr_scan", "android": "https://dc.lft.to/lastmile_qr_scan"}, "type": "electric_scooter", "name": "ddc990b34316eaa0827ee7c3238ff72b", "is_reserved": 0, "lon": -77.02413616666666, "is_disabled": 0, "fusion_lat": 0.0, "lat": 38.90672983333333, "bike_id": "ddc990b34316eaa0827ee7c3238ff72b", "fusion_lon": 0.0}, {"rental_uris": {"ios": "https://dc.lft.to/lastmile_qr_scan", "android": "https://dc.lft.to/lastmile_qr_scan"}, "type": "electric_scooter", "name": "924ae3f84397921d2bacfafa87156928", "is_reserved": 0, "lon": -77.02413483333333, "is_disabled": 0, "fusion_lat": 0.0, "lat": 38.89790266666667, "bike_id": "924ae3f84397921d2bacfafa87156928", "fusion_lon": 0.0}, {"rental_uris": {"ios": "https://dc.lft.to/lastmile_qr_scan", "android": "https://dc.lft.to/lastmile_qr_scan"}, "type": "electric_scooter", "name": "6102d95a36c462ed39fb64107884a0a9", "is_reserved": 0, "lon": -77.0239265, "is_disabled": 0, "fusion_lat": 0.0, "lat": 38.932566333333334, "bike_id": "6102d95a36c462ed39fb64107884a0a9", "fusion_lon": 0.0}, {"rental_uris": {"ios": "https://dc.lft.to/lastmile_qr_scan", "android": "https://dc.lft.to/lastmile_qr_scan"}, "type": "electric_bike", "name": "9df3f6cf47e789976c31071927b3bd6d", "is_reserved": 0, "lon": -77.01233333333333, "is_disabled": 0, "fusion_lat": 0.0, "lat": 38.950872, "bike_id": "9df3f6cf47e789976c31071927b3bd6d", "fusion_lon": 0.0}, {"rental_uris": {"ios": "https://dc.lft.to/lastmile_qr_scan", "android": "https://dc.lft.to/lastmile_qr_scan"}, "type": "electric_scooter", "name": "a323698086e3c54d9efb14b3a78ead10", "is_reserved": 0, "lon": -77.02010316666667, "is_disabled": 0, "fusion_lat": 0.0, "lat": 38.90050866666667, "bike_id": "a323698086e3c54d9efb14b3a78ead10", "fusion_lon": 0.0}, {"rental_uris": {"ios": "https://dc.lft.to/lastmile_qr_scan", "android": "https://dc.lft.to/lastmile_qr_scan"}, "type": "electric_scooter", "name": "9bec206c606f9c22a31ad9bdce8111bf", "is_reserved": 0, "lon": -77.03874416666666, "is_disabled": 0, "fusion_lat": 0.0, "lat": 38.91116383333333, "bike_id": "9bec206c606f9c22a31ad9bdce8111bf", "fusion_lon": 0.0}, {"rental_uris": {"ios": "https://dc.lft.to/lastmile_qr_scan", "android": "https://dc.lft.to/lastmile_qr_scan"}, "type": "electric_scooter", "name": "a7d42b10da39c07d381f3af6dcdea622", "is_reserved": 0, "lon": -77.04124983333334, "is_disabled": 0, "fusion_lat": 0.0, "lat": 38.93105766666667, "bike_id": "a7d42b10da39c07d381f3af6dcdea622", "fusion_lon": 0.0}, {"rental_uris": {"ios": "https://dc.lft.to/lastmile_qr_scan", "android": "https://dc.lft.to/lastmile_qr_scan"}, "type": "electric_scooter", "name": "666170f087811b35d09855a64e11403a", "is_reserved": 0, "lon": -76.98636866666666, "is_disabled": 0, "fusion_lat": 0.0, "lat": 38.85515933333333, "bike_id": "666170f087811b35d09855a64e11403a", "fusion_lon": 0.0}, {"rental_uris": {"ios": "https://dc.lft.to/lastmile_qr_scan", "android": "https://dc.lft.to/lastmile_qr_scan"}, "type": "electric_scooter", "name": "0dafbb19c8818b359b0566803662b418", "is_reserved": 0, "lon": -77.0318265, "is_disabled": 0, "fusion_lat": 0.0, "lat": 38.899862666666664, "bike_id": "0dafbb19c8818b359b0566803662b418", "fusion_lon": 0.0}, {"rental_uris": {"ios": "https://dc.lft.to/lastmile_qr_scan", "android": "https://dc.lft.to/lastmile_qr_scan"}, "type": "electric_scooter", "name": "6b63937a585158ef74cadc61b6380716", "is_reserved": 0, "lon": -76.97939083333333, "is_disabled": 0, "fusion_lat": 0.0, "lat": 38.90660316666666, "bike_id": "6b63937a585158ef74cadc61b6380716", "fusion_lon": 0.0}, {"rental_uris": {"ios": "https://dc.lft.to/lastmile_qr_scan", "android": "https://dc.lft.to/lastmile_qr_scan"}, "type": "electric_scooter", "name": "796580752b7fae266b8dafaeeb8e8c7b", "is_reserved": 0, "lon": -76.95290266666666, "is_disabled": 0, "fusion_lat": 0.0, "lat": 38.8902635, "bike_id": "796580752b7fae266b8dafaeeb8e8c7b", "fusion_lon": 0.0}, {"rental_uris": {"ios": "https://dc.lft.to/lastmile_qr_scan", "android": "https://dc.lft.to/lastmile_qr_scan"}, "type": "electric_scooter", "name": "d5ef11a1be9950af54af370851bf3ce8", "is_reserved": 0, "lon": -77.03671766666666, "is_disabled": 0, "fusion_lat": 0.0, "lat": 38.93209233333333, "bike_id": "d5ef11a1be9950af54af370851bf3ce8", "fusion_lon": 0.0}, {"rental_uris": {"ios": "https://dc.lft.to/lastmile_qr_scan", "android": "https://dc.lft.to/lastmile_qr_scan"}, "type": "electric_scooter", "name": "20f3263c49028e3e1ddeb65f5c0d8354", "is_reserved": 0, "lon": -76.9861535, "is_disabled": 0, "fusion_lat": 0.0, "lat": 38.93826283333333, "bike_id": "20f3263c49028e3e1ddeb65f5c0d8354", "fusion_lon": 0.0}, {"rental_uris": {"ios": "https://dc.lft.to/lastmile_qr_scan", "android": "https://dc.lft.to/lastmile_qr_scan"}, "type": "electric_scooter", "name": "636617c65d8dd3b22cc208e12550e3c1", "is_reserved": 0, "lon": -77.04697866666666, "is_disabled": 0, "fusion_lat": 0.0, "lat": 38.89740283333333, "bike_id": "636617c65d8dd3b22cc208e12550e3c1", "fusion_lon": 0.0}, {"rental_uris": {"ios": "https://dc.lft.to/lastmile_qr_scan", "android": "https://dc.lft.to/lastmile_qr_scan"}, "type": "electric_scooter", "name": "d51040548914642a88a5b8f013b53cd3", "is_reserved": 0, "lon": -77.046588, "is_disabled": 0, "fusion_lat": 0.0, "lat": 38.89343016666667, "bike_id": "d51040548914642a88a5b8f013b53cd3", "fusion_lon": 0.0}, {"rental_uris": {"ios": "https://dc.lft.to/lastmile_qr_scan", "android": "https://dc.lft.to/lastmile_qr_scan"}, "type": "electric_scooter", "name": "2431405462f417d3695af6f3dc566a66", "is_reserved": 0, "lon": -76.99637783333333, "is_disabled": 0, "fusion_lat": 0.0, "lat": 38.887683833333334, "bike_id": "2431405462f417d3695af6f3dc566a66", "fusion_lon": 0.0}, {"rental_uris": {"ios": "https://dc.lft.to/lastmile_qr_scan", "android": "https://dc.lft.to/lastmile_qr_scan"}, "type": "electric_scooter", "name": "717863cca676425191fcc0fa3ad82b00", "is_reserved": 0, "lon": -77.00768916666667, "is_disabled": 0, "fusion_lat": 0.0, "lat": 38.90975433333333, "bike_id": "717863cca676425191fcc0fa3ad82b00", "fusion_lon": 0.0}, {"rental_uris": {"ios": "https://dc.lft.to/lastmile_qr_scan", "android": "https://dc.lft.to/lastmile_qr_scan"}, "type": "electric_scooter", "name": "fc3dbda76fb656a4d8daae9ed175500d", "is_reserved": 0, "lon": -77.0217275, "is_disabled": 0, "fusion_lat": 0.0, "lat": 38.919937833333336, "bike_id": "fc3dbda76fb656a4d8daae9ed175500d", "fusion_lon": 0.0}, {"rental_uris": {"ios": "https://dc.lft.to/lastmile_qr_scan", "android": "https://dc.lft.to/lastmile_qr_scan"}, "type": "electric_scooter", "name": "cceeab6cea37e5763c796567547643d4", "is_reserved": 0, "lon": -77.02509683333334, "is_disabled": 0, "fusion_lat": 0.0, "lat": 38.920202333333336, "bike_id": "cceeab6cea37e5763c796567547643d4", "fusion_lon": 0.0}, {"rental_uris": {"ios": "https://dc.lft.to/lastmile_qr_scan", "android": "https://dc.lft.to/lastmile_qr_scan"}, "type": "electric_scooter", "name": "9c07dd2249910da486a305f2386e1282", "is_reserved": 0, "lon": -77.04703433333333, "is_disabled": 0, "fusion_lat": 0.0, "lat": 38.90607266666667, "bike_id": "9c07dd2249910da486a305f2386e1282", "fusion_lon": 0.0}, {"rental_uris": {"ios": "https://dc.lft.to/lastmile_qr_scan", "android": "https://dc.lft.to/lastmile_qr_scan"}, "type": "electric_bike", "name": "37fc40eaa6ab32b1265754011c64473a", "is_reserved": 0, "lon": -76.980995, "is_disabled": 0, "fusion_lat": 0.0, "lat": 38.95362333333333, "bike_id": "37fc40eaa6ab32b1265754011c64473a", "fusion_lon": 0.0}, {"rental_uris": {"ios": "https://dc.lft.to/lastmile_qr_scan", "android": "https://dc.lft.to/lastmile_qr_scan"}, "type": "electric_bike", "name": "ca0936df191cbd2e44e043c7e6dfc2b6", "is_reserved": 0, "lon": -76.99551083333333, "is_disabled": 0, "fusion_lat": 0.0, "lat": 38.83160183333333, "bike_id": "ca0936df191cbd2e44e043c7e6dfc2b6", "fusion_lon": 0.0}, {"rental_uris": {"ios": "https://dc.lft.to/lastmile_qr_scan", "android": "https://dc.lft.to/lastmile_qr_scan"}, "type": "electric_scooter", "name": "754a24da2e4cf0ec0b922031847a86ba", "is_reserved": 0, "lon": -77.01515516666667, "is_disabled": 0, "fusion_lat": 0.0, "lat": 38.887359333333336, "bike_id": "754a24da2e4cf0ec0b922031847a86ba", "fusion_lon": 0.0}, {"rental_uris": {"ios": "https://dc.lft.to/lastmile_qr_scan", "android": "https://dc.lft.to/lastmile_qr_scan"}, "type": "electric_scooter", "name": "ed8792d88be41396fa2c27becd7f274f", "is_reserved": 0, "lon": -77.00565333333333, "is_disabled": 0, "fusion_lat": 0.0, "lat": 38.87556466666667, "bike_id": "ed8792d88be41396fa2c27becd7f274f", "fusion_lon": 0.0}, {"rental_uris": {"ios": "https://dc.lft.to/lastmile_qr_scan", "android": "https://dc.lft.to/lastmile_qr_scan"}, "type": "electric_scooter", "name": "d1a7e22fc4557a7bafa3f542b22a3618", "is_reserved": 0, "lon": -77.01098483333334, "is_disabled": 0, "fusion_lat": 0.0, "lat": 38.90731383333333, "bike_id": "d1a7e22fc4557a7bafa3f542b22a3618", "fusion_lon": 0.0}, {"rental_uris": {"ios": "https://dc.lft.to/lastmile_qr_scan", "android": "https://dc.lft.to/lastmile_qr_scan"}, "type": "electric_bike", "name": "62f5f8ad61fe79456a7c2d3fb77b0c45", "is_reserved": 0, "lon": -77.01207616666667, "is_disabled": 0, "fusion_lat": 0.0, "lat": 38.95071866666667, "bike_id": "62f5f8ad61fe79456a7c2d3fb77b0c45", "fusion_lon": 0.0}, {"rental_uris": {"ios": "https://dc.lft.to/lastmile_qr_scan", "android": "https://dc.lft.to/lastmile_qr_scan"}, "type": "electric_scooter", "name": "18ee75cd0bfe3ed377c4d02534c13f89", "is_reserved": 0, "lon": -77.03045966666667, "is_disabled": 0, "fusion_lat": 0.0, "lat": 38.91264, "bike_id": "18ee75cd0bfe3ed377c4d02534c13f89", "fusion_lon": 0.0}, {"rental_uris": {"ios": "https://dc.lft.to/lastmile_qr_scan", "android": "https://dc.lft.to/lastmile_qr_scan"}, "type": "electric_bike", "name": "cd99ee2620e2e356e9f232bbe19666d5", "is_reserved": 0, "lon": -76.9877445, "is_disabled": 0, "fusion_lat": 0.0, "lat": 38.85772866666667, "bike_id": "cd99ee2620e2e356e9f232bbe19666d5", "fusion_lon": 0.0}, {"rental_uris": {"ios": "https://dc.lft.to/lastmile_qr_scan", "android": "https://dc.lft.to/lastmile_qr_scan"}, "type": "electric_scooter", "name": "73c6389cb988b79dc5fcd9d2525a2114", "is_reserved": 0, "lon": -77.04484766666667, "is_disabled": 0, "fusion_lat": 0.0, "lat": 38.8999985, "bike_id": "73c6389cb988b79dc5fcd9d2525a2114", "fusion_lon": 0.0}, {"rental_uris": {"ios": "https://dc.lft.to/lastmile_qr_scan", "android": "https://dc.lft.to/lastmile_qr_scan"}, "type": "electric_scooter", "name": "208c8c6316bd26428534522835ec650b", "is_reserved": 0, "lon": -77.03233666666667, "is_disabled": 0, "fusion_lat": 0.0, "lat": 38.912689, "bike_id": "208c8c6316bd26428534522835ec650b", "fusion_lon": 0.0}, {"rental_uris": {"ios": "https://dc.lft.to/lastmile_qr_scan", "android": "https://dc.lft.to/lastmile_qr_scan"}, "type": "electric_scooter", "name": "1473bbf72d62b9864cfc1b54f5d34dfb", "is_reserved": 0, "lon": -77.01980616666667, "is_disabled": 0, "fusion_lat": 0.0, "lat": 38.8872015, "bike_id": "1473bbf72d62b9864cfc1b54f5d34dfb", "fusion_lon": 0.0}, {"rental_uris": {"ios": "https://dc.lft.to/lastmile_qr_scan", "android": "https://dc.lft.to/lastmile_qr_scan"}, "type": "electric_scooter", "name": "153f5b0f4717eea5fb6a8d8e15bc97b8", "is_reserved": 0, "lon": -77.02716916666667, "is_disabled": 0, "fusion_lat": 0.0, "lat": 38.89577583333333, "bike_id": "153f5b0f4717eea5fb6a8d8e15bc97b8", "fusion_lon": 0.0}, {"rental_uris": {"ios": "https://dc.lft.to/lastmile_qr_scan", "android": "https://dc.lft.to/lastmile_qr_scan"}, "type": "electric_scooter", "name": "4820753fd7210b4b1c171435539eb893", "is_reserved": 0, "lon": -77.0630045, "is_disabled": 0, "fusion_lat": 0.0, "lat": 38.90396716666667, "bike_id": "4820753fd7210b4b1c171435539eb893", "fusion_lon": 0.0}, {"rental_uris": {"ios": "https://dc.lft.to/lastmile_qr_scan", "android": "https://dc.lft.to/lastmile_qr_scan"}, "type": "electric_scooter", "name": "fa7c4321c8de9e26ce5623675425f5de", "is_reserved": 0, "lon": -77.034687, "is_disabled": 0, "fusion_lat": 0.0, "lat": 38.90839733333333, "bike_id": "fa7c4321c8de9e26ce5623675425f5de", "fusion_lon": 0.0}, {"rental_uris": {"ios": "https://dc.lft.to/lastmile_qr_scan", "android": "https://dc.lft.to/lastmile_qr_scan"}, "type": "electric_scooter", "name": "60a791cdb9543b4da826c058e0025e66", "is_reserved": 0, "lon": -77.044712, "is_disabled": 0, "fusion_lat": 0.0, "lat": 38.924714, "bike_id": "60a791cdb9543b4da826c058e0025e66", "fusion_lon": 0.0}, {"rental_uris": {"ios": "https://dc.lft.to/lastmile_qr_scan", "android": "https://dc.lft.to/lastmile_qr_scan"}, "type": "electric_scooter", "name": "5fd57c37aeb8bcbca43a180201f956f8", "is_reserved": 0, "lon": -77.03165233333333, "is_disabled": 0, "fusion_lat": 0.0, "lat": 38.894611, "bike_id": "5fd57c37aeb8bcbca43a180201f956f8", "fusion_lon": 0.0}, {"rental_uris": {"ios": "https://dc.lft.to/lastmile_qr_scan", "android": "https://dc.lft.to/lastmile_qr_scan"}, "type": "electric_scooter", "name": "50f5588385619e7275aea1ce01101c1c", "is_reserved": 0, "lon": -77.0112665, "is_disabled": 0, "fusion_lat": 0.0, "lat": 38.89559066666666, "bike_id": "50f5588385619e7275aea1ce01101c1c", "fusion_lon": 0.0}, {"rental_uris": {"ios": "https://dc.lft.to/lastmile_qr_scan", "android": "https://dc.lft.to/lastmile_qr_scan"}, "type": "electric_scooter", "name": "afdb12a46615657ac4e5ec072d0aaedc", "is_reserved": 0, "lon": -76.98383066666666, "is_disabled": 0, "fusion_lat": 0.0, "lat": 38.89973033333333, "bike_id": "afdb12a46615657ac4e5ec072d0aaedc", "fusion_lon": 0.0}, {"rental_uris": {"ios": "https://dc.lft.to/lastmile_qr_scan", "android": "https://dc.lft.to/lastmile_qr_scan"}, "type": "electric_scooter", "name": "ee39374bf6740ce53dbb5d5c9e463e18", "is_reserved": 0, "lon": -77.03868233333333, "is_disabled": 0, "fusion_lat": 0.0, "lat": 38.91711983333333, "bike_id": "ee39374bf6740ce53dbb5d5c9e463e18", "fusion_lon": 0.0}, {"rental_uris": {"ios": "https://dc.lft.to/lastmile_qr_scan", "android": "https://dc.lft.to/lastmile_qr_scan"}, "type": "electric_scooter", "name": "425822bf206e00dc07b8be0477d94a6d", "is_reserved": 0, "lon": -77.01263433333334, "is_disabled": 0, "fusion_lat": 0.0, "lat": 38.915709, "bike_id": "425822bf206e00dc07b8be0477d94a6d", "fusion_lon": 0.0}, {"rental_uris": {"ios": "https://dc.lft.to/lastmile_qr_scan", "android": "https://dc.lft.to/lastmile_qr_scan"}, "type": "electric_scooter", "name": "61d03e149281b4c5e195ee524041439b", "is_reserved": 0, "lon": -77.0276075, "is_disabled": 0, "fusion_lat": 0.0, "lat": 38.90481066666667, "bike_id": "61d03e149281b4c5e195ee524041439b", "fusion_lon": 0.0}, {"rental_uris": {"ios": "https://dc.lft.to/lastmile_qr_scan", "android": "https://dc.lft.to/lastmile_qr_scan"}, "type": "electric_scooter", "name": "8567e3b951b81430acdc54e3c3086457", "is_reserved": 0, "lon": -77.0268935, "is_disabled": 0, "fusion_lat": 0.0, "lat": 38.90856566666667, "bike_id": "8567e3b951b81430acdc54e3c3086457", "fusion_lon": 0.0}, {"rental_uris": {"ios": "https://dc.lft.to/lastmile_qr_scan", "android": "https://dc.lft.to/lastmile_qr_scan"}, "type": "electric_scooter", "name": "8c3edae279ab22b69e7fb7ed047826cf", "is_reserved": 0, "lon": -77.02637716666666, "is_disabled": 0, "fusion_lat": 0.0, "lat": 38.904114166666666, "bike_id": "8c3edae279ab22b69e7fb7ed047826cf", "fusion_lon": 0.0}, {"rental_uris": {"ios": "https://dc.lft.to/lastmile_qr_scan", "android": "https://dc.lft.to/lastmile_qr_scan"}, "type": "electric_scooter", "name": "e2118baeaafd3ccdffabe2cb0a3f9d5a", "is_reserved": 0, "lon": -77.007032, "is_disabled": 0, "fusion_lat": 0.0, "lat": 38.900253666666664, "bike_id": "e2118baeaafd3ccdffabe2cb0a3f9d5a", "fusion_lon": 0.0}, {"rental_uris": {"ios": "https://dc.lft.to/lastmile_qr_scan", "android": "https://dc.lft.to/lastmile_qr_scan"}, "type": "electric_scooter", "name": "6f77fc8a0571ae73a21279a0196f05e7", "is_reserved": 0, "lon": -77.01876766666666, "is_disabled": 0, "fusion_lat": 0.0, "lat": 38.9141725, "bike_id": "6f77fc8a0571ae73a21279a0196f05e7", "fusion_lon": 0.0}, {"rental_uris": {"ios": "https://dc.lft.to/lastmile_qr_scan", "android": "https://dc.lft.to/lastmile_qr_scan"}, "type": "electric_bike", "name": "5ab31cab71f8c6221c2501282cbbefca", "is_reserved": 0, "lon": -77.08985183333333, "is_disabled": 0, "fusion_lat": 0.0, "lat": 38.91177166666667, "bike_id": "5ab31cab71f8c6221c2501282cbbefca", "fusion_lon": 0.0}, {"rental_uris": {"ios": "https://dc.lft.to/lastmile_qr_scan", "android": "https://dc.lft.to/lastmile_qr_scan"}, "type": "electric_scooter", "name": "44795d27785569c1107e68b13fb5d1c5", "is_reserved": 0, "lon": -77.02703283333334, "is_disabled": 0, "fusion_lat": 0.0, "lat": 38.90093566666667, "bike_id": "44795d27785569c1107e68b13fb5d1c5", "fusion_lon": 0.0}, {"rental_uris": {"ios": "https://dc.lft.to/lastmile_qr_scan", "android": "https://dc.lft.to/lastmile_qr_scan"}, "type": "electric_scooter", "name": "06c43592b80c83add17241c9b3819f9f", "is_reserved": 0, "lon": -77.063357, "is_disabled": 0, "fusion_lat": 0.0, "lat": 38.921524833333336, "bike_id": "06c43592b80c83add17241c9b3819f9f", "fusion_lon": 0.0}, {"rental_uris": {"ios": "https://dc.lft.to/lastmile_qr_scan", "android": "https://dc.lft.to/lastmile_qr_scan"}, "type": "electric_scooter", "name": "bbfa15a3b46ce99f760b0ace3f1e86c3", "is_reserved": 0, "lon": -77.02816016666667, "is_disabled": 0, "fusion_lat": 0.0, "lat": 38.90934333333333, "bike_id": "bbfa15a3b46ce99f760b0ace3f1e86c3", "fusion_lon": 0.0}, {"rental_uris": {"ios": "https://dc.lft.to/lastmile_qr_scan", "android": "https://dc.lft.to/lastmile_qr_scan"}, "type": "electric_scooter", "name": "1fdf5f72a07f2bc9af2015cf2d49b7f1", "is_reserved": 0, "lon": -77.028108, "is_disabled": 0, "fusion_lat": 0.0, "lat": 38.89660383333333, "bike_id": "1fdf5f72a07f2bc9af2015cf2d49b7f1", "fusion_lon": 0.0}, {"rental_uris": {"ios": "https://dc.lft.to/lastmile_qr_scan", "android": "https://dc.lft.to/lastmile_qr_scan"}, "type": "electric_scooter", "name": "13afadb2e0f69b2d08aa99a88681c9e3", "is_reserved": 0, "lon": -77.0256715, "is_disabled": 0, "fusion_lat": 0.0, "lat": 38.88742416666667, "bike_id": "13afadb2e0f69b2d08aa99a88681c9e3", "fusion_lon": 0.0}, {"rental_uris": {"ios": "https://dc.lft.to/lastmile_qr_scan", "android": "https://dc.lft.to/lastmile_qr_scan"}, "type": "electric_scooter", "name": "30f3aa36e0f919abf677e2448b13e02c", "is_reserved": 0, "lon": -77.023919, "is_disabled": 0, "fusion_lat": 0.0, "lat": 38.92602183333333, "bike_id": "30f3aa36e0f919abf677e2448b13e02c", "fusion_lon": 0.0}, {"rental_uris": {"ios": "https://dc.lft.to/lastmile_qr_scan", "android": "https://dc.lft.to/lastmile_qr_scan"}, "type": "electric_scooter", "name": "4d183db072ae2abeaffd81c9604c7e97", "is_reserved": 0, "lon": -77.03865133333333, "is_disabled": 0, "fusion_lat": 0.0, "lat": 38.917080166666665, "bike_id": "4d183db072ae2abeaffd81c9604c7e97", "fusion_lon": 0.0}, {"rental_uris": {"ios": "https://dc.lft.to/lastmile_qr_scan", "android": "https://dc.lft.to/lastmile_qr_scan"}, "type": "electric_scooter", "name": "aa62736a5718f5ae6ddb82b831dacac0", "is_reserved": 0, "lon": -77.040904, "is_disabled": 0, "fusion_lat": 0.0, "lat": 38.92062683333333, "bike_id": "aa62736a5718f5ae6ddb82b831dacac0", "fusion_lon": 0.0}, {"rental_uris": {"ios": "https://dc.lft.to/lastmile_qr_scan", "android": "https://dc.lft.to/lastmile_qr_scan"}, "type": "electric_scooter", "name": "901e97932c526394ea67fc9e5b267c4e", "is_reserved": 0, "lon": -76.97657833333334, "is_disabled": 0, "fusion_lat": 0.0, "lat": 38.903628, "bike_id": "901e97932c526394ea67fc9e5b267c4e", "fusion_lon": 0.0}, {"rental_uris": {"ios": "https://dc.lft.to/lastmile_qr_scan", "android": "https://dc.lft.to/lastmile_qr_scan"}, "type": "electric_scooter", "name": "5efddc06519bbb728b09b7dfa70bdbb8", "is_reserved": 0, "lon": -77.0066585, "is_disabled": 0, "fusion_lat": 0.0, "lat": 38.91196933333333, "bike_id": "5efddc06519bbb728b09b7dfa70bdbb8", "fusion_lon": 0.0}, {"rental_uris": {"ios": "https://dc.lft.to/lastmile_qr_scan", "android": "https://dc.lft.to/lastmile_qr_scan"}, "type": "electric_bike", "name": "cde1be64e011afce454b15c339adb4c3", "is_reserved": 0, "lon": -77.09557683333334, "is_disabled": 0, "fusion_lat": 0.0, "lat": 38.8587675, "bike_id": "cde1be64e011afce454b15c339adb4c3", "fusion_lon": 0.0}, {"rental_uris": {"ios": "https://dc.lft.to/lastmile_qr_scan", "android": "https://dc.lft.to/lastmile_qr_scan"}, "type": "electric_scooter", "name": "f98dabae8d4b265acc636414dc6b077a", "is_reserved": 0, "lon": -77.03499033333334, "is_disabled": 0, "fusion_lat": 0.0, "lat": 38.917061, "bike_id": "f98dabae8d4b265acc636414dc6b077a", "fusion_lon": 0.0}, {"rental_uris": {"ios": "https://dc.lft.to/lastmile_qr_scan", "android": "https://dc.lft.to/lastmile_qr_scan"}, "type": "electric_scooter", "name": "d8093ac2294fb3b8ac6be7bd5451ac0c", "is_reserved": 0, "lon": -77.035077, "is_disabled": 0, "fusion_lat": 0.0, "lat": 38.921489333333334, "bike_id": "d8093ac2294fb3b8ac6be7bd5451ac0c", "fusion_lon": 0.0}, {"rental_uris": {"ios": "https://dc.lft.to/lastmile_qr_scan", "android": "https://dc.lft.to/lastmile_qr_scan"}, "type": "electric_scooter", "name": "e9e57b35aa0fe92350437c08cf6e6088", "is_reserved": 0, "lon": -77.03850916666667, "is_disabled": 0, "fusion_lat": 0.0, "lat": 38.903939, "bike_id": "e9e57b35aa0fe92350437c08cf6e6088", "fusion_lon": 0.0}, {"rental_uris": {"ios": "https://dc.lft.to/lastmile_qr_scan", "android": "https://dc.lft.to/lastmile_qr_scan"}, "type": "electric_scooter", "name": "e8aa3dc0abd295f73a8f0a3a4cccaf0e", "is_reserved": 0, "lon": -77.0134465, "is_disabled": 0, "fusion_lat": 0.0, "lat": 38.881235333333336, "bike_id": "e8aa3dc0abd295f73a8f0a3a4cccaf0e", "fusion_lon": 0.0}, {"rental_uris": {"ios": "https://dc.lft.to/lastmile_qr_scan", "android": "https://dc.lft.to/lastmile_qr_scan"}, "type": "electric_scooter", "name": "6d735974297eaa7cce90d6779b2c2601", "is_reserved": 0, "lon": -77.02780266666667, "is_disabled": 0, "fusion_lat": 0.0, "lat": 38.96583433333333, "bike_id": "6d735974297eaa7cce90d6779b2c2601", "fusion_lon": 0.0}, {"rental_uris": {"ios": "https://dc.lft.to/lastmile_qr_scan", "android": "https://dc.lft.to/lastmile_qr_scan"}, "type": "electric_scooter", "name": "6358c2034f26c4abb83aafe8398bf3b5", "is_reserved": 0, "lon": -77.039715, "is_disabled": 0, "fusion_lat": 0.0, "lat": 38.898656, "bike_id": "6358c2034f26c4abb83aafe8398bf3b5", "fusion_lon": 0.0}, {"rental_uris": {"ios": "https://dc.lft.to/lastmile_qr_scan", "android": "https://dc.lft.to/lastmile_qr_scan"}, "type": "electric_scooter", "name": "d345433c0149a026671e6ecc991ba1f8", "is_reserved": 0, "lon": -76.99038383333334, "is_disabled": 0, "fusion_lat": 0.0, "lat": 38.8913645, "bike_id": "d345433c0149a026671e6ecc991ba1f8", "fusion_lon": 0.0}, {"rental_uris": {"ios": "https://dc.lft.to/lastmile_qr_scan", "android": "https://dc.lft.to/lastmile_qr_scan"}, "type": "electric_scooter", "name": "62ddcc9bcb8f3eabe1d6e3a3c04edbeb", "is_reserved": 0, "lon": -77.03979416666667, "is_disabled": 0, "fusion_lat": 0.0, "lat": 38.8922445, "bike_id": "62ddcc9bcb8f3eabe1d6e3a3c04edbeb", "fusion_lon": 0.0}, {"rental_uris": {"ios": "https://dc.lft.to/lastmile_qr_scan", "android": "https://dc.lft.to/lastmile_qr_scan"}, "type": "electric_scooter", "name": "a090a73e8a1587bdc61b2738ce474ba7", "is_reserved": 0, "lon": -77.004848, "is_disabled": 0, "fusion_lat": 0.0, "lat": 38.8745995, "bike_id": "a090a73e8a1587bdc61b2738ce474ba7", "fusion_lon": 0.0}, {"rental_uris": {"ios": "https://dc.lft.to/lastmile_qr_scan", "android": "https://dc.lft.to/lastmile_qr_scan"}, "type": "electric_bike", "name": "e2ce23c0171ba5a6a6558de7d66d78cd", "is_reserved": 0, "lon": -77.0242615, "is_disabled": 0, "fusion_lat": 0.0, "lat": 38.94905383333333, "bike_id": "e2ce23c0171ba5a6a6558de7d66d78cd", "fusion_lon": 0.0}, {"rental_uris": {"ios": "https://dc.lft.to/lastmile_qr_scan", "android": "https://dc.lft.to/lastmile_qr_scan"}, "type": "electric_bike", "name": "eaa19399215ac43bb4c0446e1fded3a0", "is_reserved": 0, "lon": -77.0235205, "is_disabled": 0, "fusion_lat": 0.0, "lat": 38.9317745, "bike_id": "eaa19399215ac43bb4c0446e1fded3a0", "fusion_lon": 0.0}, {"rental_uris": {"ios": "https://dc.lft.to/lastmile_qr_scan", "android": "https://dc.lft.to/lastmile_qr_scan"}, "type": "electric_scooter", "name": "38bb7b90209b9ee7c7dd1c6e50efc4a3", "is_reserved": 0, "lon": -77.03690016666667, "is_disabled": 0, "fusion_lat": 0.0, "lat": 38.939312, "bike_id": "38bb7b90209b9ee7c7dd1c6e50efc4a3", "fusion_lon": 0.0}, {"rental_uris": {"ios": "https://dc.lft.to/lastmile_qr_scan", "android": "https://dc.lft.to/lastmile_qr_scan"}, "type": "electric_scooter", "name": "b0b917e4f7f9deda1fe26f61fd710497", "is_reserved": 0, "lon": -77.00717233333333, "is_disabled": 0, "fusion_lat": 0.0, "lat": 38.9057695, "bike_id": "b0b917e4f7f9deda1fe26f61fd710497", "fusion_lon": 0.0}, {"rental_uris": {"ios": "https://dc.lft.to/lastmile_qr_scan", "android": "https://dc.lft.to/lastmile_qr_scan"}, "type": "electric_scooter", "name": "5a7f78fa563e44f84f74a44b1a2a0702", "is_reserved": 0, "lon": -77.039963, "is_disabled": 0, "fusion_lat": 0.0, "lat": 38.934014166666664, "bike_id": "5a7f78fa563e44f84f74a44b1a2a0702", "fusion_lon": 0.0}, {"rental_uris": {"ios": "https://dc.lft.to/lastmile_qr_scan", "android": "https://dc.lft.to/lastmile_qr_scan"}, "type": "electric_bike", "name": "f4e1b491d70bb71bff0462513b39a81c", "is_reserved": 0, "lon": -76.9805925, "is_disabled": 0, "fusion_lat": 0.0, "lat": 38.972538, "bike_id": "f4e1b491d70bb71bff0462513b39a81c", "fusion_lon": 0.0}, {"rental_uris": {"ios": "https://dc.lft.to/lastmile_qr_scan", "android": "https://dc.lft.to/lastmile_qr_scan"}, "type": "electric_bike", "name": "372ac0775b13064f62f1d8731c056773", "is_reserved": 0, "lon": -77.12697633333333, "is_disabled": 0, "fusion_lat": 0.0, "lat": 38.89557816666667, "bike_id": "372ac0775b13064f62f1d8731c056773", "fusion_lon": 0.0}, {"rental_uris": {"ios": "https://dc.lft.to/lastmile_qr_scan", "android": "https://dc.lft.to/lastmile_qr_scan"}, "type": "electric_scooter", "name": "7435e2ee0a698b6a1cf13b753bbdf7da", "is_reserved": 0, "lon": -76.95740966666666, "is_disabled": 0, "fusion_lat": 0.0, "lat": 38.88390833333333, "bike_id": "7435e2ee0a698b6a1cf13b753bbdf7da", "fusion_lon": 0.0}, {"rental_uris": {"ios": "https://dc.lft.to/lastmile_qr_scan", "android": "https://dc.lft.to/lastmile_qr_scan"}, "type": "electric_scooter", "name": "06c7bae34354c28fada9ae186888ec96", "is_reserved": 0, "lon": -77.03390133333333, "is_disabled": 0, "fusion_lat": 0.0, "lat": 38.900461666666665, "bike_id": "06c7bae34354c28fada9ae186888ec96", "fusion_lon": 0.0}, {"rental_uris": {"ios": "https://dc.lft.to/lastmile_qr_scan", "android": "https://dc.lft.to/lastmile_qr_scan"}, "type": "electric_bike", "name": "0f9556376488b73edb4913845b3e7917", "is_reserved": 0, "lon": -76.95696083333333, "is_disabled": 0, "fusion_lat": 0.0, "lat": 38.8508725, "bike_id": "0f9556376488b73edb4913845b3e7917", "fusion_lon": 0.0}, {"rental_uris": {"ios": "https://dc.lft.to/lastmile_qr_scan", "android": "https://dc.lft.to/lastmile_qr_scan"}, "type": "electric_scooter", "name": "c3a51514fcf28cdf956e08e458bb580d", "is_reserved": 0, "lon": -77.04816766666667, "is_disabled": 0, "fusion_lat": 0.0, "lat": 38.905181666666664, "bike_id": "c3a51514fcf28cdf956e08e458bb580d", "fusion_lon": 0.0}, {"rental_uris": {"ios": "https://dc.lft.to/lastmile_qr_scan", "android": "https://dc.lft.to/lastmile_qr_scan"}, "type": "electric_scooter", "name": "ac18bfa59d4eb88a5bf60b285e28e866", "is_reserved": 0, "lon": -77.02397066666667, "is_disabled": 0, "fusion_lat": 0.0, "lat": 38.903087666666664, "bike_id": "ac18bfa59d4eb88a5bf60b285e28e866", "fusion_lon": 0.0}, {"rental_uris": {"ios": "https://dc.lft.to/lastmile_qr_scan", "android": "https://dc.lft.to/lastmile_qr_scan"},