{"data": {"bikes": [{"is_reserved": 0, "type": "electric_scooter", "fusion_lat": 0.0, "is_disabled": 0, "rental_uris": {"ios": "https://dc.lft.to/lastmile_qr_scan", "android": "https://dc.lft.to/lastmile_qr_scan"}, "bike_id": "c57af76146a9993830915c500fb42266", "lat": 38.901793833333336, "name": "c57af76146a9993830915c500fb42266", "lon": -76.979721, "fusion_lon": 0.0}, {"is_reserved": 0, "type": "electric_scooter", "fusion_lat": 0.0, "is_disabled": 0, "rental_uris": {"ios": "https://dc.lft.to/lastmile_qr_scan", "android": "https://dc.lft.to/lastmile_qr_scan"}, "bike_id": "e1326aee0568597f63ae94a385aa8483", "lat": 38.8931715, "name": "e1326aee0568597f63ae94a385aa8483", "lon": -77.0260095, "fusion_lon": 0.0}, {"is_reserved": 0, "type": "electric_scooter", "fusion_lat": 0.0, "is_disabled": 0, "rental_uris": {"ios": "https://dc.lft.to/lastmile_qr_scan", "android": "https://dc.lft.to/lastmile_qr_scan"}, "bike_id": "84cdeb984883cd7e19e2b4a645ebec29", "lat": 38.91734983333333, "name": "84cdeb984883cd7e19e2b4a645ebec29", "lon": -77.02118533333334, "fusion_lon": 0.0}, {"is_reserved": 0, "type": "electric_scooter", "fusion_lat": 0.0, "is_disabled": 0, "rental_uris": {"ios": "https://dc.lft.to/lastmile_qr_scan", "android": "https://dc.lft.to/lastmile_qr_scan"}, "bike_id": "2e256f970021eb68e6fc2ea06e7e7c7f", "lat": 38.967963, "name": "2e256f970021eb68e6fc2ea06e7e7c7f", "lon": -77.02559266666667, "fusion_lon": 0.0}, {"is_reserved": 0, "type": "electric_scooter", "fusion_lat": 0.0, "is_disabled": 0, "rental_uris": {"ios": "https://dc.lft.to/lastmile_qr_scan", "android": "https://dc.lft.to/lastmile_qr_scan"}, "bike_id": "1f9519f49925417595168e6277d9ff07", "lat": 38.904834, "name": "1f9519f49925417595168e6277d9ff07", "lon": -76.9496315, "fusion_lon": 0.0}, {"is_reserved": 0, "type": "electric_scooter", "fusion_lat": 0.0, "is_disabled": 0, "rental_uris": {"ios": "https://dc.lft.to/lastmile_qr_scan", "android": "https://dc.lft.to/lastmile_qr_scan"}, "bike_id": "ea8d3409858885224db26dd00507de3b", "lat": 38.91981, "name": "ea8d3409858885224db26dd00507de3b", "lon": -77.041591, "fusion_lon": 0.0}, {"is_reserved": 0, "type": "electric_scooter", "fusion_lat": 0.0, "is_disabled": 0, "rental_uris": {"ios": "https://dc.lft.to/lastmile_qr_scan", "android": "https://dc.lft.to/lastmile_qr_scan"}, "bike_id": "f77bc96958ec908f2c64a1699b42427b", "lat": 38.9221275, "name": "f77bc96958ec908f2c64a1699b42427b", "lon": -77.04260616666667, "fusion_lon": 0.0}, {"is_reserved": 0, "type": "electric_bike", "fusion_lat": 0.0, "is_disabled": 0, "rental_uris": {"ios": "https://dc.lft.to/lastmile_qr_scan", "android": "https://dc.lft.to/lastmile_qr_scan"}, "bike_id": "4e4f93aae1f6e66f4409bf00c1d7b67a", "lat": 38.884977, "name": "4e4f93aae1f6e66f4409bf00c1d7b67a", "lon": -77.00059133333333, "fusion_lon": 0.0}, {"is_reserved": 0, "type": "electric_scooter", "fusion_lat": 0.0, "is_disabled": 0, "rental_uris": {"ios": "https://dc.lft.to/lastmile_qr_scan", "android": "https://dc.lft.to/lastmile_qr_scan"}, "bike_id": "2f08308afed11c6f9f74c41a9c21fbc8", "lat": 38.92717916666667, "name": "2f08308afed11c6f9f74c41a9c21fbc8", "lon": -77.05346883333333, "fusion_lon": 0.0}, {"is_reserved": 0, "type": "electric_scooter", "fusion_lat": 0.0, "is_disabled": 0, "rental_uris": {"ios": "https://dc.lft.to/lastmile_qr_scan", "android": "https://dc.lft.to/lastmile_qr_scan"}, "bike_id": "eeb061b380a004b0da6dbc3cc50cc6be", "lat": 38.903020833333336, "name": "eeb061b380a004b0da6dbc3cc50cc6be", "lon": -77.02806116666666, "fusion_lon": 0.0}, {"is_reserved": 0, "type": "electric_scooter", "fusion_lat": 0.0, "is_disabled": 0, "rental_uris": {"ios": "https://dc.lft.to/lastmile_qr_scan", "android": "https://dc.lft.to/lastmile_qr_scan"}, "bike_id": "8a8308ba8b4108c6053733382b0bf271", "lat": 38.93086783333333, "name": "8a8308ba8b4108c6053733382b0bf271", "lon": -77.03222116666667, "fusion_lon": 0.0}, {"is_reserved": 0, "type": "electric_scooter", "fusion_lat": 0.0, "is_disabled": 0, "rental_uris": {"ios": "https://dc.lft.to/lastmile_qr_scan", "android": "https://dc.lft.to/lastmile_qr_scan"}, "bike_id": "6d245f3964c0b58b4be6ac94b404a3f3", "lat": 38.909591166666665, "name": "6d245f3964c0b58b4be6ac94b404a3f3", "lon": -77.0245845, "fusion_lon": 0.0}, {"is_reserved": 0, "type": "electric_scooter", "fusion_lat": 0.0, "is_disabled": 0, "rental_uris": {"ios": "https://dc.lft.to/lastmile_qr_scan", "android": "https://dc.lft.to/lastmile_qr_scan"}, "bike_id": "20cd7a522658b2ff2557675ac0fd8e57", "lat": 38.921793, "name": "20cd7a522658b2ff2557675ac0fd8e57", "lon": -77.0424345, "fusion_lon": 0.0}, {"is_reserved": 0, "type": "electric_scooter", "fusion_lat": 0.0, "is_disabled": 0, "rental_uris": {"ios": "https://dc.lft.to/lastmile_qr_scan", "android": "https://dc.lft.to/lastmile_qr_scan"}, "bike_id": "400afb7786586ce03c0474143077a76a", "lat": 38.939808, "name": "400afb7786586ce03c0474143077a76a", "lon": -77.02886116666667, "fusion_lon": 0.0}, {"is_reserved": 0, "type": "electric_scooter", "fusion_lat": 0.0, "is_disabled": 0, "rental_uris": {"ios": "https://dc.lft.to/lastmile_qr_scan", "android": "https://dc.lft.to/lastmile_qr_scan"}, "bike_id": "3c6a1018256da4b0937a59a62eb5f041", "lat": 38.9322145, "name": "3c6a1018256da4b0937a59a62eb5f041", "lon": -77.0386945, "fusion_lon": 0.0}, {"is_reserved": 0, "type": "electric_scooter", "fusion_lat": 0.0, "is_disabled": 0, "rental_uris": {"ios": "https://dc.lft.to/lastmile_qr_scan", "android": "https://dc.lft.to/lastmile_qr_scan"}, "bike_id": "06ace1c87da5400a3b7df0999f4e5c17", "lat": 38.916901, "name": "06ace1c87da5400a3b7df0999f4e5c17", "lon": -77.0259615, "fusion_lon": 0.0}, {"is_reserved": 0, "type": "electric_bike", "fusion_lat": 0.0, "is_disabled": 0, "rental_uris": {"ios": "https://dc.lft.to/lastmile_qr_scan", "android": "https://dc.lft.to/lastmile_qr_scan"}, "bike_id": "1d0084504bd02449bef97d371c52efe8", "lat": 38.88278566666666, "name": "1d0084504bd02449bef97d371c52efe8", "lon": -76.932426, "fusion_lon": 0.0}, {"is_reserved": 0, "type": "electric_scooter", "fusion_lat": 0.0, "is_disabled": 0, "rental_uris": {"ios": "https://dc.lft.to/lastmile_qr_scan", "android": "https://dc.lft.to/lastmile_qr_scan"}, "bike_id": "67413aa4804942f974947c88d6d413d3", "lat": 38.91966, "name": "67413aa4804942f974947c88d6d413d3", "lon": -77.07106783333333, "fusion_lon": 0.0}, {"is_reserved": 0, "type": "electric_scooter", "fusion_lat": 0.0, "is_disabled": 0, "rental_uris": {"ios": "https://dc.lft.to/lastmile_qr_scan", "android": "https://dc.lft.to/lastmile_qr_scan"}, "bike_id": "21c191aa34c0e6a76f68de0690e27e12", "lat": 38.898232, "name": "21c191aa34c0e6a76f68de0690e27e12", "lon": -76.93003516666667, "fusion_lon": 0.0}, {"is_reserved": 0, "type": "electric_bike", "fusion_lat": 0.0, "is_disabled": 0, "rental_uris": {"ios": "https://dc.lft.to/lastmile_qr_scan", "android": "https://dc.lft.to/lastmile_qr_scan"}, "bike_id": "d3148748eb130f8c13fcd76759224dd6", "lat": 38.80978016666667, "name": "d3148748eb130f8c13fcd76759224dd6", "lon": -77.07656633333333, "fusion_lon": 0.0}, {"is_reserved": 0, "type": "electric_scooter", "fusion_lat": 0.0, "is_disabled": 0, "rental_uris": {"ios": "https://dc.lft.to/lastmile_qr_scan", "android": "https://dc.lft.to/lastmile_qr_scan"}, "bike_id": "b08f5c79ad0c741027548a421b67439d", "lat": 38.8885805, "name": "b08f5c79ad0c741027548a421b67439d", "lon": -76.97735566666667, "fusion_lon": 0.0}, {"is_reserved": 0, "type": "electric_scooter", "fusion_lat": 0.0, "is_disabled": 0, "rental_uris": {"ios": "https://dc.lft.to/lastmile_qr_scan", "android": "https://dc.lft.to/lastmile_qr_scan"}, "bike_id": "3e4f7f60c45aa86a56e4725e51c30fe9", "lat": 38.89763383333333, "name": "3e4f7f60c45aa86a56e4725e51c30fe9", "lon": -77.04791516666667, "fusion_lon": 0.0}, {"is_reserved": 0, "type": "electric_scooter", "fusion_lat": 0.0, "is_disabled": 0, "rental_uris": {"ios": "https://dc.lft.to/lastmile_qr_scan", "android": "https://dc.lft.to/lastmile_qr_scan"}, "bike_id": "7cd5e62de2f92d3a6d55ef8968f15dfa", "lat": 38.92212033333333, "name": "7cd5e62de2f92d3a6d55ef8968f15dfa", "lon": -77.04238516666666, "fusion_lon": 0.0}, {"is_reserved": 0, "type": "electric_scooter", "fusion_lat": 0.0, "is_disabled": 0, "rental_uris": {"ios": "https://dc.lft.to/lastmile_qr_scan", "android": "https://dc.lft.to/lastmile_qr_scan"}, "bike_id": "5c10cdde26f30a0ef8cd3f3389e64e76", "lat": 38.9240655, "name": "5c10cdde26f30a0ef8cd3f3389e64e76", "lon": -77.020345, "fusion_lon": 0.0}, {"is_reserved": 0, "type": "electric_scooter", "fusion_lat": 0.0, "is_disabled": 0, "rental_uris": {"ios": "https://dc.lft.to/lastmile_qr_scan", "android": "https://dc.lft.to/lastmile_qr_scan"}, "bike_id": "f85250ad6aa3cef350f05766856d2f84", "lat": 38.899954, "name": "f85250ad6aa3cef350f05766856d2f84", "lon": -77.02642183333333, "fusion_lon": 0.0}, {"is_reserved": 0, "type": "electric_scooter", "fusion_lat": 0.0, "is_disabled": 0, "rental_uris": {"ios": "https://dc.lft.to/lastmile_qr_scan", "android": "https://dc.lft.to/lastmile_qr_scan"}, "bike_id": "8f29134a6a619948f569646ff618e11c", "lat": 38.9006165, "name": "8f29134a6a619948f569646ff618e11c", "lon": -77.0452845, "fusion_lon": 0.0}, {"is_reserved": 0, "type": "electric_scooter", "fusion_lat": 0.0, "is_disabled": 0, "rental_uris": {"ios": "https://dc.lft.to/lastmile_qr_scan", "android": "https://dc.lft.to/lastmile_qr_scan"}, "bike_id": "b8f42b05029f33dc692915a7adde076c", "lat": 38.9366425, "name": "b8f42b05029f33dc692915a7adde076c", "lon": -77.03635183333333, "fusion_lon": 0.0}, {"is_reserved": 0, "type": "electric_bike", "fusion_lat": 0.0, "is_disabled": 0, "rental_uris": {"ios": "https://dc.lft.to/lastmile_qr_scan", "android": "https://dc.lft.to/lastmile_qr_scan"}, "bike_id": "9f3606bb5d30b2c5bd5ef2c2decd846a", "lat": 38.94679583333333, "name": "9f3606bb5d30b2c5bd5ef2c2decd846a", "lon": -76.95671716666666, "fusion_lon": 0.0}, {"is_reserved": 0, "type": "electric_scooter", "fusion_lat": 0.0, "is_disabled": 0, "rental_uris": {"ios": "https://dc.lft.to/lastmile_qr_scan", "android": "https://dc.lft.to/lastmile_qr_scan"}, "bike_id": "62162c7c50ef6a74b4f92f25012540a6", "lat": 38.896316166666665, "name": "62162c7c50ef6a74b4f92f25012540a6", "lon": -77.02848116666667, "fusion_lon": 0.0}, {"is_reserved": 0, "type": "electric_scooter", "fusion_lat": 0.0, "is_disabled": 0, "rental_uris": {"ios": "https://dc.lft.to/lastmile_qr_scan", "android": "https://dc.lft.to/lastmile_qr_scan"}, "bike_id": "05f1d618d6558c1f3067191fef1e05e5", "lat": 38.916505, "name": "05f1d618d6558c1f3067191fef1e05e5", "lon": -77.010247, "fusion_lon": 0.0}, {"is_reserved": 0, "type": "electric_scooter", "fusion_lat": 0.0, "is_disabled": 0, "rental_uris": {"ios": "https://dc.lft.to/lastmile_qr_scan", "android": "https://dc.lft.to/lastmile_qr_scan"}, "bike_id": "b7edd78d19d66821c26e5d28845641bc", "lat": 38.920039333333335, "name": "b7edd78d19d66821c26e5d28845641bc", "lon": -77.041703, "fusion_lon": 0.0}, {"is_reserved": 0, "type": "electric_bike", "fusion_lat": 0.0, "is_disabled": 0, "rental_uris": {"ios": "https://dc.lft.to/lastmile_qr_scan", "android": "https://dc.lft.to/lastmile_qr_scan"}, "bike_id": "45c09dbad83dcb6b0ed5d8fa7346c42b", "lat": 38.882978666666666, "name": "45c09dbad83dcb6b0ed5d8fa7346c42b", "lon": -77.00195116666667, "fusion_lon": 0.0}, {"is_reserved": 0, "type": "electric_scooter", "fusion_lat": 0.0, "is_disabled": 0, "rental_uris": {"ios": "https://dc.lft.to/lastmile_qr_scan", "android": "https://dc.lft.to/lastmile_qr_scan"}, "bike_id": "fb478e2211ccbaf2a8c95659d7665fee", "lat": 38.90504416666667, "name": "fb478e2211ccbaf2a8c95659d7665fee", "lon": -77.0295095, "fusion_lon": 0.0}, {"is_reserved": 0, "type": "electric_scooter", "fusion_lat": 0.0, "is_disabled": 0, "rental_uris": {"ios": "https://dc.lft.to/lastmile_qr_scan", "android": "https://dc.lft.to/lastmile_qr_scan"}, "bike_id": "4cdd14f5cf7a8a55514fffd9557129fe", "lat": 38.92331433333333, "name": "4cdd14f5cf7a8a55514fffd9557129fe", "lon": -77.04306166666667, "fusion_lon": 0.0}, {"is_reserved": 0, "type": "electric_scooter", "fusion_lat": 0.0, "is_disabled": 0, "rental_uris": {"ios": "https://dc.lft.to/lastmile_qr_scan", "android": "https://dc.lft.to/lastmile_qr_scan"}, "bike_id": "1a1d71e525b2f2e335e31fa57cbc1741", "lat": 38.91946683333333, "name": "1a1d71e525b2f2e335e31fa57cbc1741", "lon": -77.01386716666667, "fusion_lon": 0.0}, {"is_reserved": 0, "type": "electric_scooter", "fusion_lat": 0.0, "is_disabled": 0, "rental_uris": {"ios": "https://dc.lft.to/lastmile_qr_scan", "android": "https://dc.lft.to/lastmile_qr_scan"}, "bike_id": "c4d5c84a44b89036a43f85fd520f19fa", "lat": 38.88306933333333, "name": "c4d5c84a44b89036a43f85fd520f19fa", "lon": -76.99373166666666, "fusion_lon": 0.0}, {"is_reserved": 0, "type": "electric_scooter", "fusion_lat": 0.0, "is_disabled": 0, "rental_uris": {"ios": "https://dc.lft.to/lastmile_qr_scan", "android": "https://dc.lft.to/lastmile_qr_scan"}, "bike_id": "ef1865ec700f810083ed3d27088505fc", "lat": 38.93843916666667, "name": "ef1865ec700f810083ed3d27088505fc", "lon": -77.01956916666667, "fusion_lon": 0.0}, {"is_reserved": 0, "type": "electric_scooter", "fusion_lat": 0.0, "is_disabled": 0, "rental_uris": {"ios": "https://dc.lft.to/lastmile_qr_scan", "android": "https://dc.lft.to/lastmile_qr_scan"}, "bike_id": "1c4b3ed69b201061ef8d04289c503809", "lat": 38.92478833333333, "name": "1c4b3ed69b201061ef8d04289c503809", "lon": -77.02713716666666, "fusion_lon": 0.0}, {"is_reserved": 0, "type": "electric_scooter", "fusion_lat": 0.0, "is_disabled": 0, "rental_uris": {"ios": "https://dc.lft.to/lastmile_qr_scan", "android": "https://dc.lft.to/lastmile_qr_scan"}, "bike_id": "23ad8bb43ccf7eaae69895e451f29f83", "lat": 38.90504966666666, "name": "23ad8bb43ccf7eaae69895e451f29f83", "lon": -76.95189883333333, "fusion_lon": 0.0}, {"is_reserved": 0, "type": "electric_scooter", "fusion_lat": 0.0, "is_disabled": 0, "rental_uris": {"ios": "https://dc.lft.to/lastmile_qr_scan", "android": "https://dc.lft.to/lastmile_qr_scan"}, "bike_id": "75b154a765b5ec84fbd1918ffbf46b73", "lat": 38.8966955, "name": "75b154a765b5ec84fbd1918ffbf46b73", "lon": -76.93210883333333, "fusion_lon": 0.0}, {"is_reserved": 0, "type": "electric_scooter", "fusion_lat": 0.0, "is_disabled": 0, "rental_uris": {"ios": "https://dc.lft.to/lastmile_qr_scan", "android": "https://dc.lft.to/lastmile_qr_scan"}, "bike_id": "a7c2702b7fa938735b5900d6c190ed56", "lat": 38.8972685, "name": "a7c2702b7fa938735b5900d6c190ed56", "lon": -77.01913566666667, "fusion_lon": 0.0}, {"is_reserved": 0, "type": "electric_scooter", "fusion_lat": 0.0, "is_disabled": 0, "rental_uris": {"ios": "https://dc.lft.to/lastmile_qr_scan", "android": "https://dc.lft.to/lastmile_qr_scan"}, "bike_id": "2a4d448b1298dec47ae54c5fbc928ca4", "lat": 38.8807605, "name": "2a4d448b1298dec47ae54c5fbc928ca4", "lon": -76.9851635, "fusion_lon": 0.0}, {"is_reserved": 0, "type": "electric_scooter", "fusion_lat": 0.0, "is_disabled": 0, "rental_uris": {"ios": "https://dc.lft.to/lastmile_qr_scan", "android": "https://dc.lft.to/lastmile_qr_scan"}, "bike_id": "ba32a403dcebf766f9fb33e8092da4b1", "lat": 38.8854125, "name": "ba32a403dcebf766f9fb33e8092da4b1", "lon": -76.95975133333333, "fusion_lon": 0.0}, {"is_reserved": 0, "type": "electric_bike", "fusion_lat": 0.0, "is_disabled": 0, "rental_uris": {"ios": "https://dc.lft.to/lastmile_qr_scan", "android": "https://dc.lft.to/lastmile_qr_scan"}, "bike_id": "f18dbd712023351130fc8f63b439f5a8", "lat": 38.86008316666667, "name": "f18dbd712023351130fc8f63b439f5a8", "lon": -77.06529083333334, "fusion_lon": 0.0}, {"is_reserved": 0, "type": "electric_scooter", "fusion_lat": 0.0, "is_disabled": 0, "rental_uris": {"ios": "https://dc.lft.to/lastmile_qr_scan", "android": "https://dc.lft.to/lastmile_qr_scan"}, "bike_id": "8102c2bbca047e6001962c6bae52fa28", "lat": 38.911128833333336, "name": "8102c2bbca047e6001962c6bae52fa28", "lon": -77.03831066666666, "fusion_lon": 0.0}, {"is_reserved": 0, "type": "electric_bike", "fusion_lat": 0.0, "is_disabled": 0, "rental_uris": {"ios": "https://dc.lft.to/lastmile_qr_scan", "android": "https://dc.lft.to/lastmile_qr_scan"}, "bike_id": "753f70d979a7efc27819fb4536f0b3a2", "lat": 38.85781333333333, "name": "753f70d979a7efc27819fb4536f0b3a2", "lon": -76.98748683333334, "fusion_lon": 0.0}, {"is_reserved": 0, "type": "electric_scooter", "fusion_lat": 0.0, "is_disabled": 0, "rental_uris": {"ios": "https://dc.lft.to/lastmile_qr_scan", "android": "https://dc.lft.to/lastmile_qr_scan"}, "bike_id": "a0367717691097e09bd9e1316426bccb", "lat": 38.902041, "name": "a0367717691097e09bd9e1316426bccb", "lon": -76.99386333333334, "fusion_lon": 0.0}, {"is_reserved": 0, "type": "electric_scooter", "fusion_lat": 0.0, "is_disabled": 0, "rental_uris": {"ios": "https://dc.lft.to/lastmile_qr_scan", "android": "https://dc.lft.to/lastmile_qr_scan"}, "bike_id": "061d456312d506448cd445ee5ff47c4e", "lat": 38.882311666666666, "name": "061d456312d506448cd445ee5ff47c4e", "lon": -76.99091766666666, "fusion_lon": 0.0}, {"is_reserved": 0, "type": "electric_scooter", "fusion_lat": 0.0, "is_disabled": 0, "rental_uris": {"ios": "https://dc.lft.to/lastmile_qr_scan", "android": "https://dc.lft.to/lastmile_qr_scan"}, "bike_id": "2f684959f9a4a8d1ac2f0bf65e7ec0a2", "lat": 38.90415633333333, "name": "2f684959f9a4a8d1ac2f0bf65e7ec0a2", "lon": -77.05124883333333, "fusion_lon": 0.0}, {"is_reserved": 0, "type": "electric_bike", "fusion_lat": 0.0, "is_disabled": 0, "rental_uris": {"ios": "https://dc.lft.to/lastmile_qr_scan", "android": "https://dc.lft.to/lastmile_qr_scan"}, "bike_id": "5c799ace8fd396386d6e8d47516d7e5c", "lat": 38.924140666666666, "name": "5c799ace8fd396386d6e8d47516d7e5c", "lon": -77.05042966666667, "fusion_lon": 0.0}, {"is_reserved": 0, "type": "electric_bike", "fusion_lat": 0.0, "is_disabled": 0, "rental_uris": {"ios": "https://dc.lft.to/lastmile_qr_scan", "android": "https://dc.lft.to/lastmile_qr_scan"}, "bike_id": "602e2abe13c3184ff13204b2c022dd15", "lat": 38.836022666666665, "name": "602e2abe13c3184ff13204b2c022dd15", "lon": -77.003764, "fusion_lon": 0.0}, {"is_reserved": 0, "type": "electric_scooter", "fusion_lat": 0.0, "is_disabled": 0, "rental_uris": {"ios": "https://dc.lft.to/lastmile_qr_scan", "android": "https://dc.lft.to/lastmile_qr_scan"}, "bike_id": "ff8069c481496d3ededfcb369c5a78ac", "lat": 38.92135416666667, "name": "ff8069c481496d3ededfcb369c5a78ac", "lon": -77.0040085, "fusion_lon": 0.0}, {"is_reserved": 0, "type": "electric_scooter", "fusion_lat": 0.0, "is_disabled": 0, "rental_uris": {"ios": "https://dc.lft.to/lastmile_qr_scan", "android": "https://dc.lft.to/lastmile_qr_scan"}, "bike_id": "f1251629c06fdca3928dd650780b4035", "lat": 38.902324, "name": "f1251629c06fdca3928dd650780b4035", "lon": -77.03462666666667, "fusion_lon": 0.0}, {"is_reserved": 0, "type": "electric_scooter", "fusion_lat": 0.0, "is_disabled": 0, "rental_uris": {"ios": "https://dc.lft.to/lastmile_qr_scan", "android": "https://dc.lft.to/lastmile_qr_scan"}, "bike_id": "d4d5a2daa23a72fd5101039b291bc072", "lat": 38.924094833333335, "name": "d4d5a2daa23a72fd5101039b291bc072", "lon": -77.020122, "fusion_lon": 0.0}, {"is_reserved": 0, "type": "electric_bike", "fusion_lat": 0.0, "is_disabled": 0, "rental_uris": {"ios": "https://dc.lft.to/lastmile_qr_scan", "android": "https://dc.lft.to/lastmile_qr_scan"}, "bike_id": "0eac5d2f8e4089ef33183b85943f3bae", "lat": 38.93633766666667, "name": "0eac5d2f8e4089ef33183b85943f3bae", "lon": -77.06356816666667, "fusion_lon": 0.0}, {"is_reserved": 0, "type": "electric_scooter", "fusion_lat": 0.0, "is_disabled": 0, "rental_uris": {"ios": "https://dc.lft.to/lastmile_qr_scan", "android": "https://dc.lft.to/lastmile_qr_scan"}, "bike_id": "beafc49fc1c3b75854ec9a649bb9f8eb", "lat": 38.83378833333333, "name": "beafc49fc1c3b75854ec9a649bb9f8eb", "lon": -77.00301766666666, "fusion_lon": 0.0}, {"is_reserved": 0, "type": "electric_scooter", "fusion_lat": 0.0, "is_disabled": 0, "rental_uris": {"ios": "https://dc.lft.to/lastmile_qr_scan", "android": "https://dc.lft.to/lastmile_qr_scan"}, "bike_id": "b69dd4c5e00d5f85624f2cf58aebed2e", "lat": 38.89873866666667, "name": "b69dd4c5e00d5f85624f2cf58aebed2e", "lon": -77.02205266666667, "fusion_lon": 0.0}, {"is_reserved": 0, "type": "electric_scooter", "fusion_lat": 0.0, "is_disabled": 0, "rental_uris": {"ios": "https://dc.lft.to/lastmile_qr_scan", "android": "https://dc.lft.to/lastmile_qr_scan"}, "bike_id": "d10ce4decd9cb986a9585168c3949e2d", "lat": 38.90879116666667, "name": "d10ce4decd9cb986a9585168c3949e2d", "lon": -77.044949, "fusion_lon": 0.0}, {"is_reserved": 0, "type": "electric_bike", "fusion_lat": 0.0, "is_disabled": 0, "rental_uris": {"ios": "https://dc.lft.to/lastmile_qr_scan", "android": "https://dc.lft.to/lastmile_qr_scan"}, "bike_id": "12471054a9cac726d487c45b1189e8b7", "lat": 38.903908666666666, "name": "12471054a9cac726d487c45b1189e8b7", "lon": -77.0631135, "fusion_lon": 0.0}, {"is_reserved": 0, "type": "electric_scooter", "fusion_lat": 0.0, "is_disabled": 0, "rental_uris": {"ios": "https://dc.lft.to/lastmile_qr_scan", "android": "https://dc.lft.to/lastmile_qr_scan"}, "bike_id": "c7c0c299bb1789753108767cadb783cb", "lat": 38.9072785, "name": "c7c0c299bb1789753108767cadb783cb", "lon": -77.00502433333334, "fusion_lon": 0.0}, {"is_reserved": 0, "type": "electric_bike", "fusion_lat": 0.0, "is_disabled": 0, "rental_uris": {"ios": "https://dc.lft.to/lastmile_qr_scan", "android": "https://dc.lft.to/lastmile_qr_scan"}, "bike_id": "f7429af4be9e0c54521135c639b65fe9", "lat": 38.97845, "name": "f7429af4be9e0c54521135c639b65fe9", "lon": -77.09098866666666, "fusion_lon": 0.0}, {"is_reserved": 0, "type": "electric_bike", "fusion_lat": 0.0, "is_disabled": 0, "rental_uris": {"ios": "https://dc.lft.to/lastmile_qr_scan", "android": "https://dc.lft.to/lastmile_qr_scan"}, "bike_id": "5ca7b60a6fdbc686927e682f065ae840", "lat": 39.0262095, "name": "5ca7b60a6fdbc686927e682f065ae840", "lon": -77.038803, "fusion_lon": 0.0}, {"is_reserved": 0, "type": "electric_bike", "fusion_lat": 0.0, "is_disabled": 0, "rental_uris": {"ios": "https://dc.lft.to/lastmile_qr_scan", "android": "https://dc.lft.to/lastmile_qr_scan"}, "bike_id": "f32a78c899e154486f675e1830c392a4", "lat": 38.85798833333333, "name": "f32a78c899e154486f675e1830c392a4", "lon": -76.98756566666667, "fusion_lon": 0.0}, {"is_reserved": 0, "type": "electric_scooter", "fusion_lat": 0.0, "is_disabled": 0, "rental_uris": {"ios": "https://dc.lft.to/lastmile_qr_scan", "android": "https://dc.lft.to/lastmile_qr_scan"}, "bike_id": "30ea43dd26ce3db529f4ed5f12acfa67", "lat": 38.890363666666666, "name": "30ea43dd26ce3db529f4ed5f12acfa67", "lon": -76.98840116666666, "fusion_lon": 0.0}, {"is_reserved": 0, "type": "electric_scooter", "fusion_lat": 0.0, "is_disabled": 0, "rental_uris": {"ios": "https://dc.lft.to/lastmile_qr_scan", "android": "https://dc.lft.to/lastmile_qr_scan"}, "bike_id": "7f9bbd57ed1463aeb244c32622c07013", "lat": 38.899944166666664, "name": "7f9bbd57ed1463aeb244c32622c07013", "lon": -77.02631466666666, "fusion_lon": 0.0}, {"is_reserved": 0, "type": "electric_scooter", "fusion_lat": 0.0, "is_disabled": 0, "rental_uris": {"ios": "https://dc.lft.to/lastmile_qr_scan", "android": "https://dc.lft.to/lastmile_qr_scan"}, "bike_id": "f52855aa687d3e746acf0536dffd2e5b", "lat": 38.93877416666667, "name": "f52855aa687d3e746acf0536dffd2e5b", "lon": -77.02829633333333, "fusion_lon": 0.0}, {"is_reserved": 0, "type": "electric_bike", "fusion_lat": 0.0, "is_disabled": 0, "rental_uris": {"ios": "https://dc.lft.to/lastmile_qr_scan", "android": "https://dc.lft.to/lastmile_qr_scan"}, "bike_id": "117ed4d8beb1bf8877f0746c293ef315", "lat": 38.88832566666667, "name": "117ed4d8beb1bf8877f0746c293ef315", "lon": -76.9772355, "fusion_lon": 0.0}, {"is_reserved": 0, "type": "electric_scooter", "fusion_lat": 0.0, "is_disabled": 0, "rental_uris": {"ios": "https://dc.lft.to/lastmile_qr_scan", "android": "https://dc.lft.to/lastmile_qr_scan"}, "bike_id": "7038d8670fbf577514613ed67e7286b7", "lat": 38.92466733333333, "name": "7038d8670fbf577514613ed67e7286b7", "lon": -77.02710833333333, "fusion_lon": 0.0}, {"is_reserved": 0, "type": "electric_scooter", "fusion_lat": 0.0, "is_disabled": 0, "rental_uris": {"ios": "https://dc.lft.to/lastmile_qr_scan", "android": "https://dc.lft.to/lastmile_qr_scan"}, "bike_id": "5697335a7508aca00a09885366a497dd", "lat": 38.9564275, "name": "5697335a7508aca00a09885366a497dd", "lon": -77.02819316666667, "fusion_lon": 0.0}, {"is_reserved": 0, "type": "electric_scooter", "fusion_lat": 0.0, "is_disabled": 0, "rental_uris": {"ios": "https://dc.lft.to/lastmile_qr_scan", "android": "https://dc.lft.to/lastmile_qr_scan"}, "bike_id": "2c9b747b3d83bad16dbcc4fe5bc0af08", "lat": 38.887441, "name": "2c9b747b3d83bad16dbcc4fe5bc0af08", "lon": -77.015411, "fusion_lon": 0.0}, {"is_reserved": 0, "type": "electric_scooter", "fusion_lat": 0.0, "is_disabled": 0, "rental_uris": {"ios": "https://dc.lft.to/lastmile_qr_scan", "android": "https://dc.lft.to/lastmile_qr_scan"}, "bike_id": "b3ecea6116062edfe98368e50c5c3ad4", "lat": 38.887442, "name": "b3ecea6116062edfe98368e50c5c3ad4", "lon": -77.026306, "fusion_lon": 0.0}, {"is_reserved": 0, "type": "electric_scooter", "fusion_lat": 0.0, "is_disabled": 0, "rental_uris": {"ios": "https://dc.lft.to/lastmile_qr_scan", "android": "https://dc.lft.to/lastmile_qr_scan"}, "bike_id": "28de016e25a8466563d66ade818e4371", "lat": 38.903344, "name": "28de016e25a8466563d66ade818e4371", "lon": -77.02144266666667, "fusion_lon": 0.0}, {"is_reserved": 0, "type": "electric_scooter", "fusion_lat": 0.0, "is_disabled": 0, "rental_uris": {"ios": "https://dc.lft.to/lastmile_qr_scan", "android": "https://dc.lft.to/lastmile_qr_scan"}, "bike_id": "dd88c0f39fe56b8fde860f62e3a5a528", "lat": 38.842662833333335, "name": "dd88c0f39fe56b8fde860f62e3a5a528", "lon": -76.98841783333333, "fusion_lon": 0.0}, {"is_reserved": 0, "type": "electric_scooter", "fusion_lat": 0.0, "is_disabled": 0, "rental_uris": {"ios": "https://dc.lft.to/lastmile_qr_scan", "android": "https://dc.lft.to/lastmile_qr_scan"}, "bike_id": "3e0496681ff1a6d56e3c82dcd8ad77fd", "lat": 38.903119333333336, "name": "3e0496681ff1a6d56e3c82dcd8ad77fd", "lon": -76.978011, "fusion_lon": 0.0}, {"is_reserved": 0, "type": "electric_scooter", "fusion_lat": 0.0, "is_disabled": 0, "rental_uris": {"ios": "https://dc.lft.to/lastmile_qr_scan", "android": "https://dc.lft.to/lastmile_qr_scan"}, "bike_id": "0e4e2bec152941a2a05a7e1f7df43909", "lat": 38.900444, "name": "0e4e2bec152941a2a05a7e1f7df43909", "lon": -76.99334133333333, "fusion_lon": 0.0}, {"is_reserved": 0, "type": "electric_scooter", "fusion_lat": 0.0, "is_disabled": 0, "rental_uris": {"ios": "https://dc.lft.to/lastmile_qr_scan", "android": "https://dc.lft.to/lastmile_qr_scan"}, "bike_id": "e8eeeb9346c3581bc1cb79bc84b57184", "lat": 38.87588616666667, "name": "e8eeeb9346c3581bc1cb79bc84b57184", "lon": -77.00566666666667, "fusion_lon": 0.0}, {"is_reserved": 0, "type": "electric_scooter", "fusion_lat": 0.0, "is_disabled": 0, "rental_uris": {"ios": "https://dc.lft.to/lastmile_qr_scan", "android": "https://dc.lft.to/lastmile_qr_scan"}, "bike_id": "017615b46d8bc4542e48aa55cae23db6", "lat": 38.938619833333334, "name": "017615b46d8bc4542e48aa55cae23db6", "lon": -77.0782445, "fusion_lon": 0.0}, {"is_reserved": 0, "type": "electric_scooter", "fusion_lat": 0.0, "is_disabled": 0, "rental_uris": {"ios": "https://dc.lft.to/lastmile_qr_scan", "android": "https://dc.lft.to/lastmile_qr_scan"}, "bike_id": "f41025526e8e87d2556bb6b90417245e", "lat": 38.90072, "name": "f41025526e8e87d2556bb6b90417245e", "lon": -77.04336083333334, "fusion_lon": 0.0}, {"is_reserved": 0, "type": "electric_scooter", "fusion_lat": 0.0, "is_disabled": 0, "rental_uris": {"ios": "https://dc.lft.to/lastmile_qr_scan", "android": "https://dc.lft.to/lastmile_qr_scan"}, "bike_id": "8a5cb02ac6c3fc577fe4e119c5e0c3b5", "lat": 38.926881333333334, "name": "8a5cb02ac6c3fc577fe4e119c5e0c3b5", "lon": -77.0229245, "fusion_lon": 0.0}, {"is_reserved": 0, "type": "electric_scooter", "fusion_lat": 0.0, "is_disabled": 0, "rental_uris": {"ios": "https://dc.lft.to/lastmile_qr_scan", "android": "https://dc.lft.to/lastmile_qr_scan"}, "bike_id": "a2321138104979b4ec4711a407db926d", "lat": 38.91782366666666, "name": "a2321138104979b4ec4711a407db926d", "lon": -77.02400033333333, "fusion_lon": 0.0}, {"is_reserved": 0, "type": "electric_scooter", "fusion_lat": 0.0, "is_disabled": 0, "rental_uris": {"ios": "https://dc.lft.to/lastmile_qr_scan", "android": "https://dc.lft.to/lastmile_qr_scan"}, "bike_id": "cf42a6ee234ba07d6f60c2a0baa33b61", "lat": 38.903603333333336, "name": "cf42a6ee234ba07d6f60c2a0baa33b61", "lon": -77.03993883333334, "fusion_lon": 0.0}, {"is_reserved": 0, "type": "electric_scooter", "fusion_lat": 0.0, "is_disabled": 0, "rental_uris": {"ios": "https://dc.lft.to/lastmile_qr_scan", "android": "https://dc.lft.to/lastmile_qr_scan"}, "bike_id": "6d044637cd384b11e64a25df79442da2", "lat": 38.920540333333335, "name": "6d044637cd384b11e64a25df79442da2", "lon": -77.0339315, "fusion_lon": 0.0}, {"is_reserved": 0, "type": "electric_scooter", "fusion_lat": 0.0, "is_disabled": 0, "rental_uris": {"ios": "https://dc.lft.to/lastmile_qr_scan", "android": "https://dc.lft.to/lastmile_qr_scan"}, "bike_id": "584545ce5b15e0b6b2bcde728bcbfd00", "lat": 38.922328666666665, "name": "584545ce5b15e0b6b2bcde728bcbfd00", "lon": -76.97532166666667, "fusion_lon": 0.0}, {"is_reserved": 0, "type": "electric_scooter", "fusion_lat": 0.0, "is_disabled": 0, "rental_uris": {"ios": "https://dc.lft.to/lastmile_qr_scan", "android": "https://dc.lft.to/lastmile_qr_scan"}, "bike_id": "50953d2539c45a47e19ba2761ff70099", "lat": 38.93092133333333, "name": "50953d2539c45a47e19ba2761ff70099", "lon": -77.03618766666666, "fusion_lon": 0.0}, {"is_reserved": 0, "type": "electric_scooter", "fusion_lat": 0.0, "is_disabled": 0, "rental_uris": {"ios": "https://dc.lft.to/lastmile_qr_scan", "android": "https://dc.lft.to/lastmile_qr_scan"}, "bike_id": "fec3386d64b154983fbebcd666a190a5", "lat": 38.89717566666667, "name": "fec3386d64b154983fbebcd666a190a5", "lon": -77.02079483333333, "fusion_lon": 0.0}, {"is_reserved": 0, "type": "electric_scooter", "fusion_lat": 0.0, "is_disabled": 0, "rental_uris": {"ios": "https://dc.lft.to/lastmile_qr_scan", "android": "https://dc.lft.to/lastmile_qr_scan"}, "bike_id": "1b1fd685d6ddae50066781db7dff5e6c", "lat": 38.933784333333335, "name": "1b1fd685d6ddae50066781db7dff5e6c", "lon": -77.05766516666667, "fusion_lon": 0.0}, {"is_reserved": 0, "type": "electric_scooter", "fusion_lat": 0.0, "is_disabled": 0, "rental_uris": {"ios": "https://dc.lft.to/lastmile_qr_scan", "android": "https://dc.lft.to/lastmile_qr_scan"}, "bike_id": "41e4b2fe2706e50da0101a3fa843f00b", "lat": 38.897267166666666, "name": "41e4b2fe2706e50da0101a3fa843f00b", "lon": -77.049901, "fusion_lon": 0.0}, {"is_reserved": 0, "type": "electric_scooter", "fusion_lat": 0.0, "is_disabled": 0, "rental_uris": {"ios": "https://dc.lft.to/lastmile_qr_scan", "android": "https://dc.lft.to/lastmile_qr_scan"}, "bike_id": "e14a48018974de2b883d589198834240", "lat": 38.892199166666664, "name": "e14a48018974de2b883d589198834240", "lon": -77.02220333333334, "fusion_lon": 0.0}, {"is_reserved": 0, "type": "electric_bike", "fusion_lat": 0.0, "is_disabled": 0, "rental_uris": {"ios": "https://dc.lft.to/lastmile_qr_scan", "android": "https://dc.lft.to/lastmile_qr_scan"}, "bike_id": "0dab85455fec0d22d3379b8dd3b6dde5", "lat": 38.9227685, "name": "0dab85455fec0d22d3379b8dd3b6dde5", "lon": -76.99772916666667, "fusion_lon": 0.0}, {"is_reserved": 0, "type": "electric_scooter", "fusion_lat": 0.0, "is_disabled": 0, "rental_uris": {"ios": "https://dc.lft.to/lastmile_qr_scan", "android": "https://dc.lft.to/lastmile_qr_scan"}, "bike_id": "9ecea0c1d4d080eb6269ad634bfe83c9", "lat": 38.90388083333333, "name": "9ecea0c1d4d080eb6269ad634bfe83c9", "lon": -77.051277, "fusion_lon": 0.0}, {"is_reserved": 0, "type": "electric_scooter", "fusion_lat": 0.0, "is_disabled": 0, "rental_uris": {"ios": "https://dc.lft.to/lastmile_qr_scan", "android": "https://dc.lft.to/lastmile_qr_scan"}, "bike_id": "3bbf826d50613b4b37002ba4fe3a30bd", "lat": 38.90101966666667, "name": "3bbf826d50613b4b37002ba4fe3a30bd", "lon": -77.02787033333334, "fusion_lon": 0.0}, {"is_reserved": 0, "type": "electric_scooter", "fusion_lat": 0.0, "is_disabled": 0, "rental_uris": {"ios": "https://dc.lft.to/lastmile_qr_scan", "android": "https://dc.lft.to/lastmile_qr_scan"}, "bike_id": "be44c1abe8836a381f9c6aee89f12bec", "lat": 38.89527566666667, "name": "be44c1abe8836a381f9c6aee89f12bec", "lon": -76.9772185, "fusion_lon": 0.0}, {"is_reserved": 0, "type": "electric_scooter", "fusion_lat": 0.0, "is_disabled": 0, "rental_uris": {"ios": "https://dc.lft.to/lastmile_qr_scan", "android": "https://dc.lft.to/lastmile_qr_scan"}, "bike_id": "af055575d9a50d7faf5b3f8071b596c3", "lat": 38.887454, "name": "af055575d9a50d7faf5b3f8071b596c3", "lon": -77.02624833333333, "fusion_lon": 0.0}, {"is_reserved": 0, "type": "electric_scooter", "fusion_lat": 0.0, "is_disabled": 0, "rental_uris": {"ios": "https://dc.lft.to/lastmile_qr_scan", "android": "https://dc.lft.to/lastmile_qr_scan"}, "bike_id": "d0f74b705c3bb0a21ae580909ca561aa", "lat": 38.917107, "name": "d0f74b705c3bb0a21ae580909ca561aa", "lon": -77.03428333333333, "fusion_lon": 0.0}, {"is_reserved": 0, "type": "electric_bike", "fusion_lat": 0.0, "is_disabled": 0, "rental_uris": {"ios": "https://dc.lft.to/lastmile_qr_scan", "android": "https://dc.lft.to/lastmile_qr_scan"}, "bike_id": "167f03ba2ce4e5711cd2a17d9029da3f", "lat": 38.90088516666667, "name": "167f03ba2ce4e5711cd2a17d9029da3f", "lon": -77.0187695, "fusion_lon": 0.0}, {"is_reserved": 0, "type": "electric_scooter", "fusion_lat": 0.0, "is_disabled": 0, "rental_uris": {"ios": "https://dc.lft.to/lastmile_qr_scan", "android": "https://dc.lft.to/lastmile_qr_scan"}, "bike_id": "6b1f70e5879ebb6c7bd55f27378ca9f0", "lat": 38.89748083333333, "name": "6b1f70e5879ebb6c7bd55f27378ca9f0", "lon": -77.00929416666666, "fusion_lon": 0.0}, {"is_reserved": 0, "type": "electric_scooter", "fusion_lat": 0.0, "is_disabled": 0, "rental_uris": {"ios": "https://dc.lft.to/lastmile_qr_scan", "android": "https://dc.lft.to/lastmile_qr_scan"}, "bike_id": "c687e9d2668f345b5101c8a8355f07af", "lat": 38.89883866666667, "name": "c687e9d2668f345b5101c8a8355f07af", "lon": -77.02197116666666, "fusion_lon": 0.0}, {"is_reserved": 0, "type": "electric_bike", "fusion_lat": 0.0, "is_disabled": 0, "rental_uris": {"ios": "https://dc.lft.to/lastmile_qr_scan", "android": "https://dc.lft.to/lastmile_qr_scan"}, "bike_id": "2431b51edd07bfde8a95314f57fc89bb", "lat": 38.8410555, "name": "2431b51edd07bfde8a95314f57fc89bb", "lon": -77.08944216666667, "fusion_lon": 0.0}, {"is_reserved": 0, "type": "electric_scooter", "fusion_lat": 0.0, "is_disabled": 0, "rental_uris": {"ios": "https://dc.lft.to/lastmile_qr_scan", "android": "https://dc.lft.to/lastmile_qr_scan"}, "bike_id": "7c845fded985578d68e7740a036a1149", "lat": 38.902059333333334, "name": "7c845fded985578d68e7740a036a1149", "lon": -77.04875483333333, "fusion_lon": 0.0}, {"is_reserved": 0, "type": "electric_scooter", "fusion_lat": 0.0, "is_disabled": 0, "rental_uris": {"ios": "https://dc.lft.to/lastmile_qr_scan", "android": "https://dc.lft.to/lastmile_qr_scan"}, "bike_id": "a859d517be23413dc1f66e9cf577c739", "lat": 38.9326025, "name": "a859d517be23413dc1f66e9cf577c739", "lon": -77.03259083333333, "fusion_lon": 0.0}, {"is_reserved": 0, "type": "electric_scooter", "fusion_lat": 0.0, "is_disabled": 0, "rental_uris": {"ios": "https://dc.lft.to/lastmile_qr_scan", "android": "https://dc.lft.to/lastmile_qr_scan"}, "bike_id": "03b8aa59b80f80b5c65571213f388d95", "lat": 38.926775666666664, "name": "03b8aa59b80f80b5c65571213f388d95", "lon": -77.00877433333333, "fusion_lon": 0.0}, {"is_reserved": 0, "type": "electric_scooter", "fusion_lat": 0.0, "is_disabled": 0, "rental_uris": {"ios": "https://dc.lft.to/lastmile_qr_scan", "android": "https://dc.lft.to/lastmile_qr_scan"}, "bike_id": "6a454fe9c533c0d7e2a0f1f8820e12ac", "lat": 38.88377666666667, "name": "6a454fe9c533c0d7e2a0f1f8820e12ac", "lon": -76.9305325, "fusion_lon": 0.0}, {"is_reserved": 0, "type": "electric_scooter", "fusion_lat": 0.0, "is_disabled": 0, "rental_uris": {"ios": "https://dc.lft.to/lastmile_qr_scan", "android": "https://dc.lft.to/lastmile_qr_scan"}, "bike_id": "84d6dfaeb5b46fe6dbcfbea34183bb4a", "lat": 38.9236085, "name": "84d6dfaeb5b46fe6dbcfbea34183bb4a", "lon": -77.02978116666667, "fusion_lon": 0.0}, {"is_reserved": 0, "type": "electric_scooter", "fusion_lat": 0.0, "is_disabled": 0, "rental_uris": {"ios": "https://dc.lft.to/lastmile_qr_scan", "android": "https://dc.lft.to/lastmile_qr_scan"}, "bike_id": "1d99588d3f138c687a4e1a19147a5090", "lat": 38.908059, "name": "1d99588d3f138c687a4e1a19147a5090", "lon": -77.04353366666666, "fusion_lon": 0.0}, {"is_reserved": 0, "type": "electric_scooter", "fusion_lat": 0.0, "is_disabled": 0, "rental_uris": {"ios": "https://dc.lft.to/lastmile_qr_scan", "android": "https://dc.lft.to/lastmile_qr_scan"}, "bike_id": "7a4f8c2630b5d556153e02270387db1f", "lat": 38.931622833333336, "name": "7a4f8c2630b5d556153e02270387db1f", "lon": -77.05608916666667, "fusion_lon": 0.0}, {"is_reserved": 0, "type": "electric_bike", "fusion_lat": 0.0, "is_disabled": 0, "rental_uris": {"ios": "https://dc.lft.to/lastmile_qr_scan", "android": "https://dc.lft.to/lastmile_qr_scan"}, "bike_id": "5217baeb734d00774d224974da70d189", "lat": 38.88374133333333, "name": "5217baeb734d00774d224974da70d189", "lon": -76.92370316666667, "fusion_lon": 0.0}, {"is_reserved": 0, "type": "electric_scooter", "fusion_lat": 0.0, "is_disabled": 0, "rental_uris": {"ios": "https://dc.lft.to/lastmile_qr_scan", "android": "https://dc.lft.to/lastmile_qr_scan"}, "bike_id": "7dc023242a728f1a89c97995da8fda63", "lat": 38.8943105, "name": "7dc023242a728f1a89c97995da8fda63", "lon": -77.00105533333333, "fusion_lon": 0.0}, {"is_reserved": 0, "type": "electric_bike", "fusion_lat": 0.0, "is_disabled": 0, "rental_uris": {"ios": "https://dc.lft.to/lastmile_qr_scan", "android": "https://dc.lft.to/lastmile_qr_scan"}, "bike_id": "9c72633d72362b32597034423093704c", "lat": 39.084331166666665, "name": "9c72633d72362b32597034423093704c", "lon": -76.95138566666667, "fusion_lon": 0.0}, {"is_reserved": 0, "type": "electric_scooter", "fusion_lat": 0.0, "is_disabled": 0, "rental_uris": {"ios": "https://dc.lft.to/lastmile_qr_scan", "android": "https://dc.lft.to/lastmile_qr_scan"}, "bike_id": "f16582b02a1282b129e5067fe39f608f", "lat": 38.917769166666666, "name": "f16582b02a1282b129e5067fe39f608f", "lon": -77.023131, "fusion_lon": 0.0}, {"is_reserved": 0, "type": "electric_scooter", "fusion_lat": 0.0, "is_disabled": 0, "rental_uris": {"ios": "https://dc.lft.to/lastmile_qr_scan", "android": "https://dc.lft.to/lastmile_qr_scan"}, "bike_id": "4805bc81869b13aff3a251bef903e5b6", "lat": 38.91593833333334, "name": "4805bc81869b13aff3a251bef903e5b6", "lon": -77.03181216666667, "fusion_lon": 0.0}, {"is_reserved": 0, "type": "electric_scooter", "fusion_lat": 0.0, "is_disabled": 0, "rental_uris": {"ios": "https://dc.lft.to/lastmile_qr_scan", "android": "https://dc.lft.to/lastmile_qr_scan"}, "bike_id": "97ad3d45b27eec7fef28a7ef38f85359", "lat": 38.93405116666667, "name": "97ad3d45b27eec7fef28a7ef38f85359", "lon": -77.0455465, "fusion_lon": 0.0}, {"is_reserved": 0, "type": "electric_scooter", "fusion_lat": 0.0, "is_disabled": 0, "rental_uris": {"ios": "https://dc.lft.to/lastmile_qr_scan", "android": "https://dc.lft.to/lastmile_qr_scan"}, "bike_id": "bd382f37bea706405fa32004401d864f", "lat": 38.913506166666664, "name": "bd382f37bea706405fa32004401d864f", "lon": -76.97140866666666, "fusion_lon": 0.0}, {"is_reserved": 0, "type": "electric_bike", "fusion_lat": 0.0, "is_disabled": 0, "rental_uris": {"ios": "https://dc.lft.to/lastmile_qr_scan", "android": "https://dc.lft.to/lastmile_qr_scan"}, "bike_id": "f14c4ecce82d147ec5d756a6694a80ef", "lat": 38.9103225, "name": "f14c4ecce82d147ec5d756a6694a80ef", "lon": -76.92335233333333, "fusion_lon": 0.0}, {"is_reserved": 0, "type": "electric_scooter", "fusion_lat": 0.0, "is_disabled": 0, "rental_uris": {"ios": "https://dc.lft.to/lastmile_qr_scan", "android": "https://dc.lft.to/lastmile_qr_scan"}, "bike_id": "4e182fe2ca316f95c27fcd9b63e6a574", "lat": 38.89825883333334, "name": "4e182fe2ca316f95c27fcd9b63e6a574", "lon": -77.04822166666666, "fusion_lon": 0.0}, {"is_reserved": 0, "type": "electric_scooter", "fusion_lat": 0.0, "is_disabled": 0, "rental_uris": {"ios": "https://dc.lft.to/lastmile_qr_scan", "android": "https://dc.lft.to/lastmile_qr_scan"}, "bike_id": "822b4d8f6536f3fef6c73e1a04e36906", "lat": 38.914523, "name": "822b4d8f6536f3fef6c73e1a04e36906", "lon": -77.02194683333333, "fusion_lon": 0.0}, {"is_reserved": 0, "type": "electric_scooter", "fusion_lat": 0.0, "is_disabled": 0, "rental_uris": {"ios": "https://dc.lft.to/lastmile_qr_scan", "android": "https://dc.lft.to/lastmile_qr_scan"}, "bike_id": "e9101de329f02928c453521344e3ec49", "lat": 38.930325, "name": "e9101de329f02928c453521344e3ec49", "lon": -77.03808766666667, "fusion_lon": 0.0}, {"is_reserved": 0, "type": "electric_scooter", "fusion_lat": 0.0, "is_disabled": 0, "rental_uris": {"ios": "https://dc.lft.to/lastmile_qr_scan", "android": "https://dc.lft.to/lastmile_qr_scan"}, "bike_id": "8cfd14224bcd8d9c351acf3ee15df47c", "lat": 38.899833666666666, "name": "8cfd14224bcd8d9c351acf3ee15df47c", "lon": -77.02699166666666, "fusion_lon": 0.0}, {"is_reserved": 0, "type": "electric_scooter", "fusion_lat": 0.0, "is_disabled": 0, "rental_uris": {"ios": "https://dc.lft.to/lastmile_qr_scan", "android": "https://dc.lft.to/lastmile_qr_scan"}, "bike_id": "f17e081a2c4ac8008320517af3de6e4e", "lat": 38.909144, "name": "f17e081a2c4ac8008320517af3de6e4e", "lon": -77.04939066666667, "fusion_lon": 0.0}, {"is_reserved": 0, "type": "electric_scooter", "fusion_lat": 0.0, "is_disabled": 0, "rental_uris": {"ios": "https://dc.lft.to/lastmile_qr_scan", "android": "https://dc.lft.to/lastmile_qr_scan"}, "bike_id": "6363b56a82f4eb84461fc16ea697233a", "lat": 38.9241345, "name": "6363b56a82f4eb84461fc16ea697233a", "lon": -77.0200985, "fusion_lon": 0.0}, {"is_reserved": 0, "type": "electric_scooter", "fusion_lat": 0.0, "is_disabled": 0, "rental_uris": {"ios": "https://dc.lft.to/lastmile_qr_scan", "android": "https://dc.lft.to/lastmile_qr_scan"}, "bike_id": "93b3594ff6c881657524009b2b3065c0", "lat": 38.93493633333333, "name": "93b3594ff6c881657524009b2b3065c0", "lon": -77.02537266666667, "fusion_lon": 0.0}, {"is_reserved": 0, "type": "electric_scooter", "fusion_lat": 0.0, "is_disabled": 0, "rental_uris": {"ios": "https://dc.lft.to/lastmile_qr_scan", "android": "https://dc.lft.to/lastmile_qr_scan"}, "bike_id": "467d734ddf6fccec6b491d805a585b61", "lat": 38.892467, "name": "467d734ddf6fccec6b491d805a585b61", "lon": -77.02612783333333, "fusion_lon": 0.0}, {"is_reserved": 0, "type": "electric_scooter", "fusion_lat": 0.0, "is_disabled": 0, "rental_uris": {"ios": "https://dc.lft.to/lastmile_qr_scan", "android": "https://dc.lft.to/lastmile_qr_scan"}, "bike_id": "8d7b87e7d52df1e2a08b151534f618a9", "lat": 38.89166316666667, "name": "8d7b87e7d52df1e2a08b151534f618a9", "lon": -77.01546033333334, "fusion_lon": 0.0}, {"is_reserved": 0, "type": "electric_scooter", "fusion_lat": 0.0, "is_disabled": 0, "rental_uris": {"ios": "https://dc.lft.to/lastmile_qr_scan", "android": "https://dc.lft.to/lastmile_qr_scan"}, "bike_id": "99c1e42c408534fda875719dc0054aa4", "lat": 38.90025833333333, "name": "99c1e42c408534fda875719dc0054aa4", "lon": -77.00737966666667, "fusion_lon": 0.0}, {"is_reserved": 0, "type": "electric_scooter", "fusion_lat": 0.0, "is_disabled": 0, "rental_uris": {"ios": "https://dc.lft.to/lastmile_qr_scan", "android": "https://dc.lft.to/lastmile_qr_scan"}, "bike_id": "ee743f42b6bb20393b6f9d41661e639f", "lat": 38.928093833333335, "name": "ee743f42b6bb20393b6f9d41661e639f", "lon": -77.036117, "fusion_lon": 0.0}, {"is_reserved": 0, "type": "electric_scooter", "fusion_lat": 0.0, "is_disabled": 0, "rental_uris": {"ios": "https://dc.lft.to/lastmile_qr_scan", "android": "https://dc.lft.to/lastmile_qr_scan"}, "bike_id": "df9a1463bc107227680e462c27a95e31", "lat": 38.93195016666667, "name": "df9a1463bc107227680e462c27a95e31", "lon": -77.02353166666667, "fusion_lon": 0.0}, {"is_reserved": 0, "type": "electric_scooter", "fusion_lat": 0.0, "is_disabled": 0, "rental_uris": {"ios": "https://dc.lft.to/lastmile_qr_scan", "android": "https://dc.lft.to/lastmile_qr_scan"}, "bike_id": "bd75525968c792bdfeffecf55bfedfcf", "lat": 38.923355, "name": "bd75525968c792bdfeffecf55bfedfcf", "lon": -77.0401525, "fusion_lon": 0.0}, {"is_reserved": 0, "type": "electric_scooter", "fusion_lat": 0.0, "is_disabled": 0, "rental_uris": {"ios": "https://dc.lft.to/lastmile_qr_scan", "android": "https://dc.lft.to/lastmile_qr_scan"}, "bike_id": "948e9ef9ebcaa912f2565843bcad6dec", "lat": 38.933319833333336, "name": "948e9ef9ebcaa912f2565843bcad6dec", "lon": -77.03879616666667, "fusion_lon": 0.0}, {"is_reserved": 0, "type": "electric_scooter", "fusion_lat": 0.0, "is_disabled": 0, "rental_uris": {"ios": "https://dc.lft.to/lastmile_qr_scan", "android": "https://dc.lft.to/lastmile_qr_scan"}, "bike_id": "bac514c35172ab6fb266269642c264df", "lat": 38.911192166666666, "name": "bac514c35172ab6fb266269642c264df", "lon": -77.03832083333333, "fusion_lon": 0.0}, {"is_reserved": 0, "type": "electric_scooter", "fusion_lat": 0.0, "is_disabled": 0, "rental_uris": {"ios": "https://dc.lft.to/lastmile_qr_scan", "android": "https://dc.lft.to/lastmile_qr_scan"}, "bike_id": "740af62158d0e8cd0e0dac92f589713e", "lat": 38.92444, "name": "740af62158d0e8cd0e0dac92f589713e", "lon": -77.02980083333334, "fusion_lon": 0.0}, {"is_reserved": 0, "type": "electric_scooter", "fusion_lat": 0.0, "is_disabled": 0, "rental_uris": {"ios": "https://dc.lft.to/lastmile_qr_scan", "android": "https://dc.lft.to/lastmile_qr_scan"}, "bike_id": "1073c0bd6f0278214e2c93b7d1651dc6", "lat": 38.9168995, "name": "1073c0bd6f0278214e2c93b7d1651dc6", "lon": -77.025959, "fusion_lon": 0.0}, {"is_reserved": 0, "type": "electric_bike", "fusion_lat": 0.0, "is_disabled": 0, "rental_uris": {"ios": "https://dc.lft.to/lastmile_qr_scan", "android": "https://dc.lft.to/lastmile_qr_scan"}, "bike_id": "bd491fc7ee86c5e698eee5d9c6efdc96", "lat": 38.88632666666667, "name": "bd491fc7ee86c5e698eee5d9c6efdc96", "lon": -77.05795033333334, "fusion_lon": 0.0}, {"is_reserved": 0, "type": "electric_scooter", "fusion_lat": 0.0, "is_disabled": 0, "rental_uris": {"ios": "https://dc.lft.to/lastmile_qr_scan", "android": "https://dc.lft.to/lastmile_qr_scan"}, "bike_id": "689d4f408388913c25ff7517e456840a", "lat": 38.9514845, "name": "689d4f408388913c25ff7517e456840a", "lon": -77.01868333333333, "fusion_lon": 0.0}, {"is_reserved": 0, "type": "electric_bike", "fusion_lat": 0.0, "is_disabled": 0, "rental_uris": {"ios": "https://dc.lft.to/lastmile_qr_scan", "android": "https://dc.lft.to/lastmile_qr_scan"}, "bike_id": "7ba48b38e07b63a401e416b90947367f", "lat": 38.951850666666665, "name": "7ba48b38e07b63a401e416b90947367f", "lon": -76.9354755, "fusion_lon": 0.0}, {"is_reserved": 0, "type": "electric_scooter", "fusion_lat": 0.0, "is_disabled": 0, "rental_uris": {"ios": "https://dc.lft.to/lastmile_qr_scan", "android": "https://dc.lft.to/lastmile_qr_scan"}, "bike_id": "0edab23495f410f09e9506a004ed6575", "lat": 38.929956, "name": "0edab23495f410f09e9506a004ed6575", "lon": -77.05539916666666, "fusion_lon": 0.0}, {"is_reserved": 0, "type": "electric_bike", "fusion_lat": 0.0, "is_disabled": 0, "rental_uris": {"ios": "https://dc.lft.to/lastmile_qr_scan", "android": "https://dc.lft.to/lastmile_qr_scan"}, "bike_id": "d6cb45b5a09898c5602f85c5f177f124", "lat": 38.963798833333335, "name": "d6cb45b5a09898c5602f85c5f177f124", "lon": -77.01977466666666, "fusion_lon": 0.0}, {"is_reserved": 0, "type": "electric_scooter", "fusion_lat": 0.0, "is_disabled": 0, "rental_uris": {"ios": "https://dc.lft.to/lastmile_qr_scan", "android": "https://dc.lft.to/lastmile_qr_scan"}, "bike_id": "7a0c4dbcc71213b8eb8e7bff73f15db1", "lat": 38.92045266666667, "name": "7a0c4dbcc71213b8eb8e7bff73f15db1", "lon": -77.02443066666666, "fusion_lon": 0.0}, {"is_reserved": 0, "type": "electric_scooter", "fusion_lat": 0.0, "is_disabled": 0, "rental_uris": {"ios": "https://dc.lft.to/lastmile_qr_scan", "android": "https://dc.lft.to/lastmile_qr_scan"}, "bike_id": "a0fba09f6541a7d0316e3f0082415551", "lat": 38.92016016666667, "name": "a0fba09f6541a7d0316e3f0082415551", "lon": -77.07142983333334, "fusion_lon": 0.0}, {"is_reserved": 0, "type": "electric_scooter", "fusion_lat": 0.0, "is_disabled": 0, "rental_uris": {"ios": "https://dc.lft.to/lastmile_qr_scan", "android": "https://dc.lft.to/lastmile_qr_scan"}, "bike_id": "d6a6efae1d9a7eab497b2c380c5c4bad", "lat": 38.9207195, "name": "d6a6efae1d9a7eab497b2c380c5c4bad", "lon": -77.02516633333333, "fusion_lon": 0.0}, {"is_reserved": 0, "type": "electric_scooter", "fusion_lat": 0.0, "is_disabled": 0, "rental_uris": {"ios": "https://dc.lft.to/lastmile_qr_scan", "android": "https://dc.lft.to/lastmile_qr_scan"}, "bike_id": "3be8efd36cfaa76b4e439b67cb3836cc", "lat": 38.897291, "name": "3be8efd36cfaa76b4e439b67cb3836cc", "lon": -77.04145483333333, "fusion_lon": 0.0}, {"is_reserved": 0, "type": "electric_scooter", "fusion_lat": 0.0, "is_disabled": 0, "rental_uris": {"ios": "https://dc.lft.to/lastmile_qr_scan", "android": "https://dc.lft.to/lastmile_qr_scan"}, "bike_id": "3b9170828e17145da66234e4f601c2a9", "lat": 38.8784665, "name": "3b9170828e17145da66234e4f601c2a9", "lon": -77.0058075, "fusion_lon": 0.0}, {"is_reserved": 0, "type": "electric_bike", "fusion_lat": 0.0, "is_disabled": 0, "rental_uris": {"ios": "https://dc.lft.to/lastmile_qr_scan", "android": "https://dc.lft.to/lastmile_qr_scan"}, "bike_id": "ebb6e8380a13f0c1f31a833cda8cd865", "lat": 38.877635166666664, "name": "ebb6e8380a13f0c1f31a833cda8cd865", "lon": -77.010511, "fusion_lon": 0.0}, {"is_reserved": 0, "type": "electric_scooter", "fusion_lat": 0.0, "is_disabled": 0, "rental_uris": {"ios": "https://dc.lft.to/lastmile_qr_scan", "android": "https://dc.lft.to/lastmile_qr_scan"}, "bike_id": "804584c30bf100ae33ceab52be3f6d93", "lat": 38.89843183333333, "name": "804584c30bf100ae33ceab52be3f6d93", "lon": -77.04362, "fusion_lon": 0.0}, {"is_reserved": 0, "type": "electric_scooter", "fusion_lat": 0.0, "is_disabled": 0, "rental_uris": {"ios": "https://dc.lft.to/lastmile_qr_scan", "android": "https://dc.lft.to/lastmile_qr_scan"}, "bike_id": "1bec7ad90ce4ec713e58cceec72e6319", "lat": 38.9121795, "name": "1bec7ad90ce4ec713e58cceec72e6319", "lon": -77.006611, "fusion_lon": 0.0}, {"is_reserved": 0, "type": "electric_scooter", "fusion_lat": 0.0, "is_disabled": 0, "rental_uris": {"ios": "https://dc.lft.to/lastmile_qr_scan", "android": "https://dc.lft.to/lastmile_qr_scan"}, "bike_id": "faae74760265038cc1169fb3c79a5c0d", "lat": 38.91782283333333, "name": "faae74760265038cc1169fb3c79a5c0d", "lon": -77.0239625, "fusion_lon": 0.0}, {"is_reserved": 0, "type": "electric_scooter", "fusion_lat": 0.0, "is_disabled": 0, "rental_uris": {"ios": "https://dc.lft.to/lastmile_qr_scan", "android": "https://dc.lft.to/lastmile_qr_scan"}, "bike_id": "e593ae4b3659ccb616742c210dc7170d", "lat": 38.91557, "name": "e593ae4b3659ccb616742c210dc7170d", "lon": -77.0317295, "fusion_lon": 0.0}, {"is_reserved": 0, "type": "electric_scooter", "fusion_lat": 0.0, "is_disabled": 0, "rental_uris": {"ios": "https://dc.lft.to/lastmile_qr_scan", "android": "https://dc.lft.to/lastmile_qr_scan"}, "bike_id": "4e10e102044621962963b5b859b2f268", "lat": 38.933714333333334, "name": "4e10e102044621962963b5b859b2f268", "lon": -77.07243566666666, "fusion_lon": 0.0}, {"is_reserved": 0, "type": "electric_scooter", "fusion_lat": 0.0, "is_disabled": 0, "rental_uris": {"ios": "https://dc.lft.to/lastmile_qr_scan", "android": "https://dc.lft.to/lastmile_qr_scan"}, "bike_id": "5865ffd7467a4b7628a42574ba95885a", "lat": 38.9066445, "name": "5865ffd7467a4b7628a42574ba95885a", "lon": -77.02720883333333, "fusion_lon": 0.0}, {"is_reserved": 0, "type": "electric_scooter", "fusion_lat": 0.0, "is_disabled": 0, "rental_uris": {"ios": "https://dc.lft.to/lastmile_qr_scan", "android": "https://dc.lft.to/lastmile_qr_scan"}, "bike_id": "8d36eea6de1869f5c2f87c5eab2c0fc1", "lat": 38.944637666666665, "name": "8d36eea6de1869f5c2f87c5eab2c0fc1", "lon": -77.006558, "fusion_lon": 0.0}, {"is_reserved": 0, "type": "electric_scooter", "fusion_lat": 0.0, "is_disabled": 0, "rental_uris": {"ios": "https://dc.lft.to/lastmile_qr_scan", "android": "https://dc.lft.to/lastmile_qr_scan"}, "bike_id": "75dac44fda670523e711ca5ce8b51e72", "lat": 38.902601, "name": "75dac44fda670523e711ca5ce8b51e72", "lon": -76.98981666666667, "fusion_lon": 0.0}, {"is_reserved": 0, "type": "electric_scooter", "fusion_lat": 0.0, "is_disabled": 0, "rental_uris": {"ios": "https://dc.lft.to/lastmile_qr_scan", "android": "https://dc.lft.to/lastmile_qr_scan"}, "bike_id": "442f2e7da40b34d54c35374fa4c0b3ec", "lat": 38.920765333333335, "name": "442f2e7da40b34d54c35374fa4c0b3ec", "lon": -77.02514216666667, "fusion_lon": 0.0}, {"is_reserved": 0, "type": "electric_scooter", "fusion_lat": 0.0, "is_disabled": 0, "rental_uris": {"ios": "https://dc.lft.to/lastmile_qr_scan", "android": "https://dc.lft.to/lastmile_qr_scan"}, "bike_id": "8109e482dd728d15637262ebfc11b068", "lat": 38.899552, "name": "8109e482dd728d15637262ebfc11b068", "lon": -77.01509616666667, "fusion_lon": 0.0}, {"is_reserved": 0, "type": "electric_scooter", "fusion_lat": 0.0, "is_disabled": 0, "rental_uris": {"ios": "https://dc.lft.to/lastmile_qr_scan", "android": "https://dc.lft.to/lastmile_qr_scan"}, "bike_id": "48675708ecbaa584f1d9375735eb24fa", "lat": 38.9563525, "name": "48675708ecbaa584f1d9375735eb24fa", "lon": -77.03629866666667, "fusion_lon": 0.0}, {"is_reserved": 0, "type": "electric_scooter", "fusion_lat": 0.0, "is_disabled": 0, "rental_uris": {"ios": "https://dc.lft.to/lastmile_qr_scan", "android": "https://dc.lft.to/lastmile_qr_scan"}, "bike_id": "99279f4b878f3b08e79be5f49acf7439", "lat": 38.891925666666666, "name": "99279f4b878f3b08e79be5f49acf7439", "lon": -77.0212605, "fusion_lon": 0.0}, {"is_reserved": 0, "type": "electric_scooter", "fusion_lat": 0.0, "is_disabled": 0, "rental_uris": {"ios": "https://dc.lft.to/lastmile_qr_scan", "android": "https://dc.lft.to/lastmile_qr_scan"}, "bike_id": "0d0262ab8777152839d2aa1d08b82363", "lat": 38.930002333333334, "name": "0d0262ab8777152839d2aa1d08b82363", "lon": -77.03798683333333, "fusion_lon": 0.0}, {"is_reserved": 0, "type": "electric_scooter", "fusion_lat": 0.0, "is_disabled": 0, "rental_uris": {"ios": "https://dc.lft.to/lastmile_qr_scan", "android": "https://dc.lft.to/lastmile_qr_scan"}, "bike_id": "43b689aca6ce29558aaa71c3c0841321", "lat": 38.901216833333336, "name": "43b689aca6ce29558aaa71c3c0841321", "lon": -77.0409995, "fusion_lon": 0.0}, {"is_reserved": 0, "type": "electric_scooter", "fusion_lat": 0.0, "is_disabled": 0, "rental_uris": {"ios": "https://dc.lft.to/lastmile_qr_scan", "android": "https://dc.lft.to/lastmile_qr_scan"}, "bike_id": "c9f8dc5292afc05a1db69561fd7452ec", "lat": 38.89331716666667, "name": "c9f8dc5292afc05a1db69561fd7452ec", "lon": -76.9288935, "fusion_lon": 0.0}, {"is_reserved": 0, "type": "electric_scooter", "fusion_lat": 0.0, "is_disabled": 0, "rental_uris": {"ios": "https://dc.lft.to/lastmile_qr_scan", "android": "https://dc.lft.to/lastmile_qr_scan"}, "bike_id": "9940df8098a6544a951b8c93605187e6", "lat": 38.93767533333333, "name": "9940df8098a6544a951b8c93605187e6", "lon": -77.0266355, "fusion_lon": 0.0}, {"is_reserved": 0, "type": "electric_scooter", "fusion_lat": 0.0, "is_disabled": 0, "rental_uris": {"ios": "https://dc.lft.to/lastmile_qr_scan", "android": "https://dc.lft.to/lastmile_qr_scan"}, "bike_id": "af8ff52d3547c2b54d38b8eccc2a2aab", "lat": 38.900226, "name": "af8ff52d3547c2b54d38b8eccc2a2aab", "lon": -77.01991816666667, "fusion_lon": 0.0}, {"is_reserved": 0, "type": "electric_scooter", "fusion_lat": 0.0, "is_disabled": 0, "rental_uris": {"ios": "https://dc.lft.to/lastmile_qr_scan", "android": "https://dc.lft.to/lastmile_qr_scan"}, "bike_id": "554229119a6e66769d9e0d583cbf0521", "lat": 38.942722833333335, "name": "554229119a6e66769d9e0d583cbf0521", "lon": -77.0819345, "fusion_lon": 0.0}, {"is_reserved": 0, "type": "electric_scooter", "fusion_lat": 0.0, "is_disabled": 0, "rental_uris": {"ios": "https://dc.lft.to/lastmile_qr_scan", "android": "https://dc.lft.to/lastmile_qr_scan"}, "bike_id": "e08db57546eb6b1f8109edb27aa647d4", "lat": 38.91258233333333, "name": "e08db57546eb6b1f8109edb27aa647d4", "lon": -77.00992283333333, "fusion_lon": 0.0}, {"is_reserved": 0, "type": "electric_scooter", "fusion_lat": 0.0, "is_disabled": 0, "rental_uris": {"ios": "https://dc.lft.to/lastmile_qr_scan", "android": "https://dc.lft.to/lastmile_qr_scan"}, "bike_id": "d6e251eb5ca010e559d1c2d328ef95b1", "lat": 38.91774783333334, "name": "d6e251eb5ca010e559d1c2d328ef95b1", "lon": -77.02412383333333, "fusion_lon": 0.0}, {"is_reserved": 0, "type": "electric_scooter", "fusion_lat": 0.0, "is_disabled": 0, "rental_uris": {"ios": "https://dc.lft.to/lastmile_qr_scan", "android": "https://dc.lft.to/lastmile_qr_scan"}, "bike_id": "73438e3ca68031d96ea5c9339a7e4833", "lat": 38.92462316666666, "name": "73438e3ca68031d96ea5c9339a7e4833", "lon": -77.02238016666666, "fusion_lon": 0.0}, {"is_reserved": 0, "type": "electric_scooter", "fusion_lat": 0.0, "is_disabled": 0, "rental_uris": {"ios": "https://dc.lft.to/lastmile_qr_scan", "android": "https://dc.lft.to/lastmile_qr_scan"}, "bike_id": "bd832684563a9401ad9e8c31576d956d", "lat": 38.90509383333333, "name": "bd832684563a9401ad9e8c31576d956d", "lon": -77.04827266666666, "fusion_lon": 0.0}, {"is_reserved": 0, "type": "electric_scooter", "fusion_lat": 0.0, "is_disabled": 0, "rental_uris": {"ios": "https://dc.lft.to/lastmile_qr_scan", "android": "https://dc.lft.to/lastmile_qr_scan"}, "bike_id": "9f573a90922f4a0e16def1e51281b9b2", "lat": 38.8998165, "name": "9f573a90922f4a0e16def1e51281b9b2", "lon": -77.02697833333333, "fusion_lon": 0.0}, {"is_reserved": 0, "type": "electric_scooter", "fusion_lat": 0.0, "is_disabled": 0, "rental_uris": {"ios": "https://dc.lft.to/lastmile_qr_scan", "android": "https://dc.lft.to/lastmile_qr_scan"}, "bike_id": "eded864af7afdc437e75830c400894fc", "lat": 38.9003095, "name": "eded864af7afdc437e75830c400894fc", "lon": -77.034686, "fusion_lon": 0.0}, {"is_reserved": 0, "type": "electric_bike", "fusion_lat": 0.0, "is_disabled": 0, "rental_uris": {"ios": "https://dc.lft.to/lastmile_qr_scan", "android": "https://dc.lft.to/lastmile_qr_scan"}, "bike_id": "d6adf650a494b22cb329f3cec33408ed", "lat": 38.94261233333334, "name": "d6adf650a494b22cb329f3cec33408ed", "lon": -76.99069566666667, "fusion_lon": 0.0}, {"is_reserved": 0, "type": "electric_bike", "fusion_lat": 0.0, "is_disabled": 0, "rental_uris": {"ios": "https://dc.lft.to/lastmile_qr_scan", "android": "https://dc.lft.to/lastmile_qr_scan"}, "bike_id": "43ae336ac558aba83f4fb55043c96f9e", "lat": 38.954080166666664, "name": "43ae336ac558aba83f4fb55043c96f9e", "lon": -76.98131416666666, "fusion_lon": 0.0}, {"is_reserved": 0, "type": "electric_scooter", "fusion_lat": 0.0, "is_disabled": 0, "rental_uris": {"ios": "https://dc.lft.to/lastmile_qr_scan", "android": "https://dc.lft.to/lastmile_qr_scan"}, "bike_id": "8fbd44e473ff5b617a9bed3215c39058", "lat": 38.911155666666666, "name": "8fbd44e473ff5b617a9bed3215c39058", "lon": -77.036539, "fusion_lon": 0.0}, {"is_reserved": 0, "type": "electric_scooter", "fusion_lat": 0.0, "is_disabled": 0, "rental_uris": {"ios": "https://dc.lft.to/lastmile_qr_scan", "android": "https://dc.lft.to/lastmile_qr_scan"}, "bike_id": "e4d2357f9ee210d0cbfdf196a33f35ce", "lat": 38.901745, "name": "e4d2357f9ee210d0cbfdf196a33f35ce", "lon": -77.00209216666667, "fusion_lon": 0.0}, {"is_reserved": 0, "type": "electric_scooter", "fusion_lat": 0.0, "is_disabled": 0, "rental_uris": {"ios": "https://dc.lft.to/lastmile_qr_scan", "android": "https://dc.lft.to/lastmile_qr_scan"}, "bike_id": "00cf86c4b4c9f3886ed9aab3bcaca758", "lat": 38.881471166666664, "name": "00cf86c4b4c9f3886ed9aab3bcaca758", "lon": -77.013174, "fusion_lon": 0.0}, {"is_reserved": 0, "type": "electric_scooter", "fusion_lat": 0.0, "is_disabled": 0, "rental_uris": {"ios": "https://dc.lft.to/lastmile_qr_scan", "android": "https://dc.lft.to/lastmile_qr_scan"}, "bike_id": "40cbc6042101f6608a1180d1504be360", "lat": 38.91712883333334, "name": "40cbc6042101f6608a1180d1504be360", "lon": -77.03428133333334, "fusion_lon": 0.0}, {"is_reserved": 0, "type": "electric_scooter", "fusion_lat": 0.0, "is_disabled": 0, "rental_uris": {"ios": "https://dc.lft.to/lastmile_qr_scan", "android": "https://dc.lft.to/lastmile_qr_scan"}, "bike_id": "103fa9d56e445b1885c7f8fbbd4d0bcb", "lat": 38.917948333333335, "name": "103fa9d56e445b1885c7f8fbbd4d0bcb", "lon": -77.03440183333333, "fusion_lon": 0.0}, {"is_reserved": 0, "type": "electric_scooter", "fusion_lat": 0.0, "is_disabled": 0, "rental_uris": {"ios": "https://dc.lft.to/lastmile_qr_scan", "android": "https://dc.lft.to/lastmile_qr_scan"}, "bike_id": "82bb352a3f8fd5aad39cfdb4f0f57baf", "lat": 38.92536666666667, "name": "82bb352a3f8fd5aad39cfdb4f0f57baf", "lon": -77.0353445, "fusion_lon": 0.0}, {"is_reserved": 0, "type": "electric_scooter", "fusion_lat": 0.0, "is_disabled": 0, "rental_uris": {"ios": "https://dc.lft.to/lastmile_qr_scan", "android": "https://dc.lft.to/lastmile_qr_scan"}, "bike_id": "c350e87175b35211633964081b42c942", "lat": 38.914847, "name": "c350e87175b35211633964081b42c942", "lon": -77.04949866666666, "fusion_lon": 0.0}, {"is_reserved": 0, "type": "electric_scooter", "fusion_lat": 0.0, "is_disabled": 0, "rental_uris": {"ios": "https://dc.lft.to/lastmile_qr_scan", "android": "https://dc.lft.to/lastmile_qr_scan"}, "bike_id": "541a3db7f33f1be6ace570b85ef36be6", "lat": 38.91926483333334, "name": "541a3db7f33f1be6ace570b85ef36be6", "lon": -77.04499033333333, "fusion_lon": 0.0}, {"is_reserved": 0, "type": "electric_scooter", "fusion_lat": 0.0, "is_disabled": 0, "rental_uris": {"ios": "https://dc.lft.to/lastmile_qr_scan", "android": "https://dc.lft.to/lastmile_qr_scan"}, "bike_id": "eadddddc4efaaf659f83b51d7f3fda94", "lat": 38.89171116666667, "name": "eadddddc4efaaf659f83b51d7f3fda94", "lon": -77.01551866666667, "fusion_lon": 0.0}, {"is_reserved": 0, "type": "electric_scooter", "fusion_lat": 0.0, "is_disabled": 0, "rental_uris": {"ios": "https://dc.lft.to/lastmile_qr_scan", "android": "https://dc.lft.to/lastmile_qr_scan"}, "bike_id": "1ac41168733f16b85c921d88ee15f006", "lat": 38.89417016666667, "name": "1ac41168733f16b85c921d88ee15f006", "lon": -77.02126033333333, "fusion_lon": 0.0}, {"is_reserved": 0, "type": "electric_scooter", "fusion_lat": 0.0, "is_disabled": 0, "rental_uris": {"ios": "https://dc.lft.to/lastmile_qr_scan", "android": "https://dc.lft.to/lastmile_qr_scan"}, "bike_id": "e4cee51179caa2d9c35253ea9a598b45", "lat": 38.93952733333333, "name": "e4cee51179caa2d9c35253ea9a598b45", "lon": -77.07238733333334, "fusion_lon": 0.0}, {"is_reserved": 0, "type": "electric_scooter", "fusion_lat": 0.0, "is_disabled": 0, "rental_uris": {"ios": "https://dc.lft.to/lastmile_qr_scan", "android": "https://dc.lft.to/lastmile_qr_scan"}, "bike_id": "b1f6cc9303f1cf1d291923018aaf6928", "lat": 38.89529566666667, "name": "b1f6cc9303f1cf1d291923018aaf6928", "lon": -76.94896533333333, "fusion_lon": 0.0}, {"is_reserved": 0, "type": "electric_scooter", "fusion_lat": 0.0, "is_disabled": 0, "rental_uris": {"ios": "https://dc.lft.to/lastmile_qr_scan", "android": "https://dc.lft.to/lastmile_qr_scan"}, "bike_id": "b9790683301110559c54d77822586073", "lat": 38.914694833333336, "name": "b9790683301110559c54d77822586073", "lon": -77.02174166666667, "fusion_lon": 0.0}, {"is_reserved": 0, "type": "electric_scooter", "fusion_lat": 0.0, "is_disabled": 0, "rental_uris": {"ios": "https://dc.lft.to/lastmile_qr_scan", "android": "https://dc.lft.to/lastmile_qr_scan"}, "bike_id": "d7909157c52875593a02987ecb6a7df5", "lat": 38.9104315, "name": "d7909157c52875593a02987ecb6a7df5", "lon": -76.99804366666666, "fusion_lon": 0.0}, {"is_reserved": 0, "type": "electric_scooter", "fusion_lat": 0.0, "is_disabled": 0, "rental_uris": {"ios": "https://dc.lft.to/lastmile_qr_scan", "android": "https://dc.lft.to/lastmile_qr_scan"}, "bike_id": "fdc2d2c98f57aa2ba2d76224da7d0653", "lat": 38.922409, "name": "fdc2d2c98f57aa2ba2d76224da7d0653", "lon": -77.03661733333334, "fusion_lon": 0.0}, {"is_reserved": 0, "type": "electric_scooter", "fusion_lat": 0.0, "is_disabled": 0, "rental_uris": {"ios": "https://dc.lft.to/lastmile_qr_scan", "android": "https://dc.lft.to/lastmile_qr_scan"}, "bike_id": "a9790c20ea8f2f37b0620bfaa9658301", "lat": 38.89196033333333, "name": "a9790c20ea8f2f37b0620bfaa9658301", "lon": -77.01550866666666, "fusion_lon": 0.0}, {"is_reserved": 0, "type": "electric_scooter", "fusion_lat": 0.0, "is_disabled": 0, "rental_uris": {"ios": "https://dc.lft.to/lastmile_qr_scan", "android": "https://dc.lft.to/lastmile_qr_scan"}, "bike_id": "843a522d5afa7aa632a538b39af7cddb", "lat": 38.896243, "name": "843a522d5afa7aa632a538b39af7cddb", "lon": -77.02750933333333, "fusion_lon": 0.0}, {"is_reserved": 0, "type": "electric_bike", "fusion_lat": 0.0, "is_disabled": 0, "rental_uris": {"ios": "https://dc.lft.to/lastmile_qr_scan", "android": "https://dc.lft.to/lastmile_qr_scan"}, "bike_id": "c8816cf7435a0b0caeedf29338a9ddf3", "lat": 38.83582283333333, "name": "c8816cf7435a0b0caeedf29338a9ddf3", "lon": -76.99030883333333, "fusion_lon": 0.0}, {"is_reserved": 0, "type": "electric_scooter", "fusion_lat": 0.0, "is_disabled": 0, "rental_uris": {"ios": "https://dc.lft.to/lastmile_qr_scan", "android": "https://dc.lft.to/lastmile_qr_scan"}, "bike_id": "a61b9b3f15ff74ebe1018c4ad2ee968c", "lat": 38.92037633333333, "name": "a61b9b3f15ff74ebe1018c4ad2ee968c", "lon": -77.025931, "fusion_lon": 0.0}, {"is_reserved": 0, "type": "electric_scooter", "fusion_lat": 0.0, "is_disabled": 0, "rental_uris": {"ios": "https://dc.lft.to/lastmile_qr_scan", "android": "https://dc.lft.to/lastmile_qr_scan"}, "bike_id": "8d15b9025595332fe3b9f8d610d8dfef", "lat": 38.9233195, "name": "8d15b9025595332fe3b9f8d610d8dfef", "lon": -77.0351275, "fusion_lon": 0.0}, {"is_reserved": 0, "type": "electric_scooter", "fusion_lat": 0.0, "is_disabled": 0, "rental_uris": {"ios": "https://dc.lft.to/lastmile_qr_scan", "android": "https://dc.lft.to/lastmile_qr_scan"}, "bike_id": "1406cc94cf1d18598b55437f3061006b", "lat": 38.9271035, "name": "1406cc94cf1d18598b55437f3061006b", "lon": -77.0209835, "fusion_lon": 0.0}, {"is_reserved": 0, "type": "electric_scooter", "fusion_lat": 0.0, "is_disabled": 0, "rental_uris": {"ios": "https://dc.lft.to/lastmile_qr_scan", "android": "https://dc.lft.to/lastmile_qr_scan"}, "bike_id": "1e9bdcd2c3f400978f27505e1016e530", "lat": 38.927446833333335, "name": "1e9bdcd2c3f400978f27505e1016e530", "lon": -77.02144066666666, "fusion_lon": 0.0}, {"is_reserved": 0, "type": "electric_scooter", "fusion_lat": 0.0, "is_disabled": 0, "rental_uris": {"ios": "https://dc.lft.to/lastmile_qr_scan", "android": "https://dc.lft.to/lastmile_qr_scan"}, "bike_id": "120ecd48593705d1156ab58ac8e6590d", "lat": 38.871713166666666, "name": "120ecd48593705d1156ab58ac8e6590d", "lon": -77.00629183333334, "fusion_lon": 0.0}, {"is_reserved": 0, "type": "electric_scooter", "fusion_lat": 0.0, "is_disabled": 0, "rental_uris": {"ios": "https://dc.lft.to/lastmile_qr_scan", "android": "https://dc.lft.to/lastmile_qr_scan"}, "bike_id": "5462d3e2ae7c7eb2eaf65e5fbccf6d1f", "lat": 38.9095665, "name": "5462d3e2ae7c7eb2eaf65e5fbccf6d1f", "lon": -77.02282966666667, "fusion_lon": 0.0}, {"is_reserved": 0, "type": "electric_scooter", "fusion_lat": 0.0, "is_disabled": 0, "rental_uris": {"ios": "https://dc.lft.to/lastmile_qr_scan", "android": "https://dc.lft.to/lastmile_qr_scan"}, "bike_id": "d0c34d9e3c09cecaef8c7916c477d6f7", "lat": 38.90019266666667, "name": "d0c34d9e3c09cecaef8c7916c477d6f7", "lon": -77.04468466666667, "fusion_lon": 0.0}, {"is_reserved": 0, "type": "electric_scooter", "fusion_lat": 0.0, "is_disabled": 0, "rental_uris": {"ios": "https://dc.lft.to/lastmile_qr_scan", "android": "https://dc.lft.to/lastmile_qr_scan"}, "bike_id": "f440d3a21c91ce9f08b7d22e7d56ca79", "lat": 38.8960935, "name": "f440d3a21c91ce9f08b7d22e7d56ca79", "lon": -77.027566, "fusion_lon": 0.0}, {"is_reserved": 0, "type": "electric_scooter", "fusion_lat": 0.0, "is_disabled": 0, "rental_uris": {"ios": "https://dc.lft.to/lastmile_qr_scan", "android": "https://dc.lft.to/lastmile_qr_scan"}, "bike_id": "75d7abdd592a56f54cb222cafb4fef2c", "lat": 38.96497866666667, "name": "75d7abdd592a56f54cb222cafb4fef2c", "lon": -77.0628305, "fusion_lon": 0.0}, {"is_reserved": 0, "type": "electric_scooter", "fusion_lat": 0.0, "is_disabled": 0, "rental_uris": {"ios": "https://dc.lft.to/lastmile_qr_scan", "android": "https://dc.lft.to/lastmile_qr_scan"}, "bike_id": "5e406b88b420bd868f01cac68b12ae96", "lat": 38.912645166666664, "name": "5e406b88b420bd868f01cac68b12ae96", "lon": -77.01687633333333, "fusion_lon": 0.0}, {"is_reserved": 0, "type": "electric_scooter", "fusion_lat": 0.0, "is_disabled": 0, "rental_uris": {"ios": "https://dc.lft.to/lastmile_qr_scan", "android": "https://dc.lft.to/lastmile_qr_scan"}, "bike_id": "2c82c1778d255a263fd8b2a21cdd6e55", "lat": 38.8838615, "name": "2c82c1778d255a263fd8b2a21cdd6e55", "lon": -77.0303845, "fusion_lon": 0.0}, {"is_reserved": 0, "type": "electric_scooter", "fusion_lat": 0.0, "is_disabled": 0, "rental_uris": {"ios": "https://dc.lft.to/lastmile_qr_scan", "android": "https://dc.lft.to/lastmile_qr_scan"}, "bike_id": "a809525f14dbc645716bd730866e8bb7", "lat": 38.917004, "name": "a809525f14dbc645716bd730866e8bb7", "lon": -77.0341045, "fusion_lon": 0.0}, {"is_reserved": 0, "type": "electric_scooter", "fusion_lat": 0.0, "is_disabled": 0, "rental_uris": {"ios": "https://dc.lft.to/lastmile_qr_scan", "android": "https://dc.lft.to/lastmile_qr_scan"}, "bike_id": "d90c4550dc267ac6332e6b9772613ce4", "lat": 38.91579483333334, "name": "d90c4550dc267ac6332e6b9772613ce4", "lon": -76.98301066666667, "fusion_lon": 0.0}, {"is_reserved": 0, "type": "electric_scooter", "fusion_lat": 0.0, "is_disabled": 0, "rental_uris": {"ios": "https://dc.lft.to/lastmile_qr_scan", "android": "https://dc.lft.to/lastmile_qr_scan"}, "bike_id": "6a03af66d67e8dbbf603898f0654b873", "lat": 38.866295666666666, "name": "6a03af66d67e8dbbf603898f0654b873", "lon": -76.98261016666666, "fusion_lon": 0.0}, {"is_reserved": 0, "type": "electric_scooter", "fusion_lat": 0.0, "is_disabled": 0, "rental_uris": {"ios": "https://dc.lft.to/lastmile_qr_scan", "android": "https://dc.lft.to/lastmile_qr_scan"}, "bike_id": "a00a654d228a94903b7714e507776b91", "lat": 38.906179, "name": "a00a654d228a94903b7714e507776b91", "lon": -77.0056105, "fusion_lon": 0.0}, {"is_reserved": 0, "type": "electric_scooter", "fusion_lat": 0.0, "is_disabled": 0, "rental_uris": {"ios": "https://dc.lft.to/lastmile_qr_scan", "android": "https://dc.lft.to/lastmile_qr_scan"}, "bike_id": "94b84472862cbb9046e3c790a9f8dc2f", "lat": 38.92353133333334, "name": "94b84472862cbb9046e3c790a9f8dc2f", "lon": -77.04152083333334, "fusion_lon": 0.0}, {"is_reserved": 0, "type": "electric_scooter", "fusion_lat": 0.0, "is_disabled": 0, "rental_uris": {"ios": "https://dc.lft.to/lastmile_qr_scan", "android": "https://dc.lft.to/lastmile_qr_scan"}, "bike_id": "1bdd7339c25523cd40cde12e5d71292f", "lat": 38.876371, "name": "1bdd7339c25523cd40cde12e5d71292f", "lon": -76.99295583333334, "fusion_lon": 0.0}, {"is_reserved": 0, "type": "electric_scooter", "fusion_lat": 0.0, "is_disabled": 0, "rental_uris": {"ios": "https://dc.lft.to/lastmile_qr_scan", "android": "https://dc.lft.to/lastmile_qr_scan"}, "bike_id": "fba503630549c3f9ad2a68604f5494bd", "lat": 38.901831, "name": "fba503630549c3f9ad2a68604f5494bd", "lon": -77.00219683333333, "fusion_lon": 0.0}, {"is_reserved": 0, "type": "electric_scooter", "fusion_lat": 0.0, "is_disabled": 0, "rental_uris": {"ios": "https://dc.lft.to/lastmile_qr_scan", "android": "https://dc.lft.to/lastmile_qr_scan"}, "bike_id": "9c2eb4c718b71ea09e379e89f11ab958", "lat": 38.902391, "name": "9c2eb4c718b71ea09e379e89f11ab958", "lon": -77.019532, "fusion_lon": 0.0}, {"is_reserved": 0, "type": "electric_bike", "fusion_lat": 0.0, "is_disabled": 0, "rental_uris": {"ios": "https://dc.lft.to/lastmile_qr_scan", "android": "https://dc.lft.to/lastmile_qr_scan"}, "bike_id": "a9aaa97b333fc59f345efddbaf6d0a13", "lat": 38.91197583333334, "name": "a9aaa97b333fc59f345efddbaf6d0a13", "lon": -77.011222, "fusion_lon": 0.0}, {"is_reserved": 0, "type": "electric_scooter", "fusion_lat": 0.0, "is_disabled": 0, "rental_uris": {"ios": "https://dc.lft.to/lastmile_qr_scan", "android": "https://dc.lft.to/lastmile_qr_scan"}, "bike_id": "e09fdecdbc2af735718e4dfcacfaca99", "lat": 38.901811333333335, "name": "e09fdecdbc2af735718e4dfcacfaca99", "lon": -76.99851366666667, "fusion_lon": 0.0}, {"is_reserved": 0, "type": "electric_scooter", "fusion_lat": 0.0, "is_disabled": 0, "rental_uris": {"ios": "https://dc.lft.to/lastmile_qr_scan", "android": "https://dc.lft.to/lastmile_qr_scan"}, "bike_id": "56086a011e0cae60259e37f3dafa295c", "lat": 38.935089833333336, "name": "56086a011e0cae60259e37f3dafa295c", "lon": -77.05702433333333, "fusion_lon": 0.0}, {"is_reserved": 0, "type": "electric_scooter", "fusion_lat": 0.0, "is_disabled": 0, "rental_uris": {"ios": "https://dc.lft.to/lastmile_qr_scan", "android": "https://dc.lft.to/lastmile_qr_scan"}, "bike_id": "54b11ea570a1b63bb911fcb50f2a8298", "lat": 38.90530066666667, "name": "54b11ea570a1b63bb911fcb50f2a8298", "lon": -77.05690783333333, "fusion_lon": 0.0}, {"is_reserved": 0, "type": "electric_scooter", "fusion_lat": 0.0, "is_disabled": 0, "rental_uris": {"ios": "https://dc.lft.to/lastmile_qr_scan", "android": "https://dc.lft.to/lastmile_qr_scan"}, "bike_id": "b505b4cec8cedb8e85700a61cf70fbab", "lat": 38.90907383333333, "name": "b505b4cec8cedb8e85700a61cf70fbab", "lon": -77.03514416666667, "fusion_lon": 0.0}, {"is_reserved": 0, "type": "electric_scooter", "fusion_lat": 0.0, "is_disabled": 0, "rental_uris": {"ios": "https://dc.lft.to/lastmile_qr_scan", "android": "https://dc.lft.to/lastmile_qr_scan"}, "bike_id": "9e115c5211e7dc7b5f05863711cb42ef", "lat": 38.9015185, "name": "9e115c5211e7dc7b5f05863711cb42ef", "lon": -77.038133, "fusion_lon": 0.0}, {"is_reserved": 0, "type": "electric_scooter", "fusion_lat": 0.0, "is_disabled": 0, "rental_uris": {"ios": "https://dc.lft.to/lastmile_qr_scan", "android": "https://dc.lft.to/lastmile_qr_scan"}, "bike_id": "603485398a81293f41158178ac3ab408", "lat": 38.899914, "name": "603485398a81293f41158178ac3ab408", "lon": -77.026337, "fusion_lon": 0.0}, {"is_reserved": 0, "type": "electric_scooter", "fusion_lat": 0.0, "is_disabled": 0, "rental_uris": {"ios": "https://dc.lft.to/lastmile_qr_scan", "android": "https://dc.lft.to/lastmile_qr_scan"}, "bike_id": "93801b542ced165c89787dcc8612acb2", "lat": 38.92155616666667, "name": "93801b542ced165c89787dcc8612acb2", "lon": -77.03387583333334, "fusion_lon": 0.0}, {"is_reserved": 0, "type": "electric_bike", "fusion_lat": 0.0, "is_disabled": 0, "rental_uris": {"ios": "https://dc.lft.to/lastmile_qr_scan", "android": "https://dc.lft.to/lastmile_qr_scan"}, "bike_id": "f338c59b9809624fa6d42bc444225686", "lat": 38.81934183333333, "name": "f338c59b9809624fa6d42bc444225686", "lon": -77.00207233333333, "fusion_lon": 0.0}, {"is_reserved": 0, "type": "electric_scooter", "fusion_lat": 0.0, "is_disabled": 0, "rental_uris": {"ios": "https://dc.lft.to/lastmile_qr_scan", "android": "https://dc.lft.to/lastmile_qr_scan"}, "bike_id": "555d5bec2068929d2b914875707a3a7f", "lat": 38.92160833333333, "name": "555d5bec2068929d2b914875707a3a7f", "lon": -77.040323, "fusion_lon": 0.0}, {"is_reserved": 0, "type": "electric_scooter", "fusion_lat": 0.0, "is_disabled": 0, "rental_uris": {"ios": "https://dc.lft.to/lastmile_qr_scan", "android": "https://dc.lft.to/lastmile_qr_scan"}, "bike_id": "09e1567eae159994b46a7a985a606529", "lat": 38.92340566666667, "name": "09e1567eae159994b46a7a985a606529", "lon": -77.05784233333334, "fusion_lon": 0.0}, {"is_reserved": 0, "type": "electric_scooter", "fusion_lat": 0.0, "is_disabled": 0, "rental_uris": {"ios": "https://dc.lft.to/lastmile_qr_scan", "android": "https://dc.lft.to/lastmile_qr_scan"}, "bike_id": "78c32a0b307c9be6f7cbb1a43ea5863a", "lat": 38.91663333333333, "name": "78c32a0b307c9be6f7cbb1a43ea5863a", "lon": -77.03852316666666, "fusion_lon": 0.0}, {"is_reserved": 0, "type": "electric_scooter", "fusion_lat": 0.0, "is_disabled": 0, "rental_uris": {"ios": "https://dc.lft.to/lastmile_qr_scan", "android": "https://dc.lft.to/lastmile_qr_scan"}, "bike_id": "21efe62a2c91635590ca2db81604c6bb", "lat": 38.9060185, "name": "21efe62a2c91635590ca2db81604c6bb", "lon": -77.06296966666666, "fusion_lon": 0.0}, {"is_reserved": 0, "type": "electric_scooter", "fusion_lat": 0.0, "is_disabled": 0, "rental_uris": {"ios": "https://dc.lft.to/lastmile_qr_scan", "android": "https://dc.lft.to/lastmile_qr_scan"}, "bike_id": "658c86e94026d2add5738f9d4a19173a", "lat": 38.91626433333333, "name": "658c86e94026d2add5738f9d4a19173a", "lon": -76.9827425, "fusion_lon": 0.0}, {"is_reserved": 0, "type": "electric_scooter", "fusion_lat": 0.0, "is_disabled": 0, "rental_uris": {"ios": "https://dc.lft.to/lastmile_qr_scan", "android": "https://dc.lft.to/lastmile_qr_scan"}, "bike_id": "dd1349a6a03b5cda4249b11445b2f075", "lat": 38.90652566666667, "name": "dd1349a6a03b5cda4249b11445b2f075", "lon": -77.02479716666667, "fusion_lon": 0.0}, {"is_reserved": 0, "type": "electric_scooter", "fusion_lat": 0.0, "is_disabled": 0, "rental_uris": {"ios": "https://dc.lft.to/lastmile_qr_scan", "android": "https://dc.lft.to/lastmile_qr_scan"}, "bike_id": "ed5d1db007470914bc9a0b9bd7535026", "lat": 38.920444333333336, "name": "ed5d1db007470914bc9a0b9bd7535026", "lon": -77.02605516666667, "fusion_lon": 0.0}, {"is_reserved": 0, "type": "electric_scooter", "fusion_lat": 0.0, "is_disabled": 0, "rental_uris": {"ios": "https://dc.lft.to/lastmile_qr_scan", "android": "https://dc.lft.to/lastmile_qr_scan"}, "bike_id": "49e69b5588dacaacea1af0f4bc78db0f", "lat": 38.920533666666664, "name": "49e69b5588dacaacea1af0f4bc78db0f", "lon": -77.02294866666666, "fusion_lon": 0.0}, {"is_reserved": 0, "type": "electric_scooter", "fusion_lat": 0.0, "is_disabled": 0, "rental_uris": {"ios": "https://dc.lft.to/lastmile_qr_scan", "android": "https://dc.lft.to/lastmile_qr_scan"}, "bike_id": "a49e72cb477cdbe3c094ed17acb6e2aa", "lat": 38.9213415, "name": "a49e72cb477cdbe3c094ed17acb6e2aa", "lon": -77.00400166666667, "fusion_lon": 0.0}, {"is_reserved": 0, "type": "electric_scooter", "fusion_lat": 0.0, "is_disabled": 0, "rental_uris": {"ios": "https://dc.lft.to/lastmile_qr_scan", "android": "https://dc.lft.to/lastmile_qr_scan"}, "bike_id": "f32364e435fba7fa4816e54946d5de1b", "lat": 38.8923015, "name": "f32364e435fba7fa4816e54946d5de1b", "lon": -77.025868, "fusion_lon": 0.0}, {"is_reserved": 0, "type": "electric_bike", "fusion_lat": 0.0, "is_disabled": 0, "rental_uris": {"ios": "https://dc.lft.to/lastmile_qr_scan", "android": "https://dc.lft.to/lastmile_qr_scan"}, "bike_id": "45f7e2d831d8594d9597036af48a49a5", "lat": 38.952406333333336, "name": "45f7e2d831d8594d9597036af48a49a5", "lon": -76.98245816666666, "fusion_lon": 0.0}, {"is_reserved": 0, "type": "electric_scooter", "fusion_lat": 0.0, "is_disabled": 0, "rental_uris": {"ios": "https://dc.lft.to/lastmile_qr_scan", "android": "https://dc.lft.to/lastmile_qr_scan"}, "bike_id": "232913e8cdfc49e9142572ebd7412771", "lat": 38.92068166666667, "name": "232913e8cdfc49e9142572ebd7412771", "lon": -77.02420233333333, "fusion_lon": 0.0}, {"is_reserved": 0, "type": "electric_scooter", "fusion_lat": 0.0, "is_disabled": 0, "rental_uris": {"ios": "https://dc.lft.to/lastmile_qr_scan", "android": "https://dc.lft.to/lastmile_qr_scan"}, "bike_id": "0d831ec0a3490f816ce7ae4ba0b6c26d", "lat": 38.90144816666667, "name": "0d831ec0a3490f816ce7ae4ba0b6c26d", "lon": -77.0150705, "fusion_lon": 0.0}, {"is_reserved": 0, "type": "electric_scooter", "fusion_lat": 0.0, "is_disabled": 0, "rental_uris": {"ios": "https://dc.lft.to/lastmile_qr_scan", "android": "https://dc.lft.to/lastmile_qr_scan"}, "bike_id": "79d26d250e55f89f2d0b8965b4c6557c", "lat": 38.927934, "name": "79d26d250e55f89f2d0b8965b4c6557c", "lon": -77.02134966666667, "fusion_lon": 0.0}, {"is_reserved": 0, "type": "electric_scooter", "fusion_lat": 0.0, "is_disabled": 0, "rental_uris": {"ios": "https://dc.lft.to/lastmile_qr_scan", "android": "https://dc.lft.to/lastmile_qr_scan"}, "bike_id": "da7df0b75605bb93164d4bdaaa5294a7", "lat": 38.90210583333333, "name": "da7df0b75605bb93164d4bdaaa5294a7", "lon": -76.99025716666667, "fusion_lon": 0.0}, {"is_reserved": 0, "type": "electric_scooter", "fusion_lat": 0.0, "is_disabled": 0, "rental_uris": {"ios": "https://dc.lft.to/lastmile_qr_scan", "android": "https://dc.lft.to/lastmile_qr_scan"}, "bike_id": "7355cfe80617ff09aed10155d96d2fb5", "lat": 38.89838816666666, "name": "7355cfe80617ff09aed10155d96d2fb5", "lon": -77.000694, "fusion_lon": 0.0}, {"is_reserved": 0, "type": "electric_scooter", "fusion_lat": 0.0, "is_disabled": 0, "rental_uris": {"ios": "https://dc.lft.to/lastmile_qr_scan", "android": "https://dc.lft.to/lastmile_qr_scan"}, "bike_id": "eefdc7ecbc4def2790479a53bf612a60", "lat": 38.88581166666667, "name": "eefdc7ecbc4def2790479a53bf612a60", "lon": -77.01226766666667, "fusion_lon": 0.0}, {"is_reserved": 0, "type": "electric_bike", "fusion_lat": 0.0, "is_disabled": 0, "rental_uris": {"ios": "https://dc.lft.to/lastmile_qr_scan", "android": "https://dc.lft.to/lastmile_qr_scan"}, "bike_id": "ba405659a88fab674182aab847772c51", "lat": 38.8656305, "name": "ba405659a88fab674182aab847772c51", "lon": -76.974792, "fusion_lon": 0.0}, {"is_reserved": 0, "type": "electric_scooter", "fusion_lat": 0.0, "is_disabled": 0, "rental_uris": {"ios": "https://dc.lft.to/lastmile_qr_scan", "android": "https://dc.lft.to/lastmile_qr_scan"}, "bike_id": "b28e3f6b5ea161edcaf30de3a03a1e6d", "lat": 38.900606, "name": "b28e3f6b5ea161edcaf30de3a03a1e6d", "lon": -77.01315816666667, "fusion_lon": 0.0}, {"is_reserved": 0, "type": "electric_scooter", "fusion_lat": 0.0, "is_disabled": 0, "rental_uris": {"ios": "https://dc.lft.to/lastmile_qr_scan", "android": "https://dc.lft.to/lastmile_qr_scan"}, "bike_id": "74bcec0da590a4a29288ec6b99a7cef7", "lat": 38.929567666666664, "name": "74bcec0da590a4a29288ec6b99a7cef7", "lon": -77.05487333333333, "fusion_lon": 0.0}, {"is_reserved": 0, "type": "electric_bike", "fusion_lat": 0.0, "is_disabled": 0, "rental_uris": {"ios": "https://dc.lft.to/lastmile_qr_scan", "android": "https://dc.lft.to/lastmile_qr_scan"}, "bike_id": "76f311bde76cd8937a8c9e750bd88bce", "lat": 38.8242945, "name": "76f311bde76cd8937a8c9e750bd88bce", "lon": -77.120396, "fusion_lon": 0.0}, {"is_reserved": 0, "type": "electric_bike", "fusion_lat": 0.0, "is_disabled": 0, "rental_uris": {"ios": "https://dc.lft.to/lastmile_qr_scan", "android": "https://dc.lft.to/lastmile_qr_scan"}, "bike_id": "9027b424276aa20b7a70cfde15ecb543", "lat": 38.856301333333334, "name": "9027b424276aa20b7a70cfde15ecb543", "lon": -77.06843116666667, "fusion_lon": 0.0}, {"is_reserved": 0, "type": "electric_scooter", "fusion_lat": 0.0, "is_disabled": 0, "rental_uris": {"ios": "https://dc.lft.to/lastmile_qr_scan", "android": "https://dc.lft.to/lastmile_qr_scan"}, "bike_id": "912c481640c9dc507279f8f16eccfd22", "lat": 38.876090833333336, "name": "912c481640c9dc507279f8f16eccfd22", "lon": -77.0058665, "fusion_lon": 0.0}, {"is_reserved": 0, "type": "electric_scooter", "fusion_lat": 0.0, "is_disabled": 0, "rental_uris": {"ios": "https://dc.lft.to/lastmile_qr_scan", "android": "https://dc.lft.to/lastmile_qr_scan"}, "bike_id": "b704a0d4ebc950c17541e1d2cceff848", "lat": 38.930570833333334, "name": "b704a0d4ebc950c17541e1d2cceff848", "lon": -77.03668733333333, "fusion_lon": 0.0}, {"is_reserved": 0, "type": "electric_scooter", "fusion_lat": 0.0, "is_disabled": 0, "rental_uris": {"ios": "https://dc.lft.to/lastmile_qr_scan", "android": "https://dc.lft.to/lastmile_qr_scan"}, "bike_id": "e91b083602592487e1c7d8206b9f55e3", "lat": 38.90955316666667, "name": "e91b083602592487e1c7d8206b9f55e3", "lon": -77.02311466666667, "fusion_lon": 0.0}, {"is_reserved": 0, "type": "electric_scooter", "fusion_lat": 0.0, "is_disabled": 0, "rental_uris": {"ios": "https://dc.lft.to/lastmile_qr_scan", "android": "https://dc.lft.to/lastmile_qr_scan"}, "bike_id": "911094c1a77dbd291a788f166ddead25", "lat": 38.922571833333336, "name": "911094c1a77dbd291a788f166ddead25", "lon": -77.03662466666667, "fusion_lon": 0.0}, {"is_reserved": 0, "type": "electric_scooter", "fusion_lat": 0.0, "is_disabled": 0, "rental_uris": {"ios": "https://dc.lft.to/lastmile_qr_scan", "android": "https://dc.lft.to/lastmile_qr_scan"}, "bike_id": "32203bf03a0eab48301ffb730bb8adf8", "lat": 38.89414083333333, "name": "32203bf03a0eab48301ffb730bb8adf8", "lon": -77.02392416666666, "fusion_lon": 0.0}, {"is_reserved": 0, "type": "electric_scooter", "fusion_lat": 0.0, "is_disabled": 0, "rental_uris": {"ios": "https://dc.lft.to/lastmile_qr_scan", "android": "https://dc.lft.to/lastmile_qr_scan"}, "bike_id": "fd396606b4cef456809b60e769ccd5fe", "lat": 38.948148833333335, "name": "fd396606b4cef456809b60e769ccd5fe", "lon": -77.026179, "fusion_lon": 0.0}, {"is_reserved": 0, "type": "electric_scooter", "fusion_lat": 0.0, "is_disabled": 0, "rental_uris": {"ios": "https://dc.lft.to/lastmile_qr_scan", "android": "https://dc.lft.to/lastmile_qr_scan"}, "bike_id": "33c9b88a1ca30383acfee9c9d500eb71", "lat": 38.89979133333333, "name": "33c9b88a1ca30383acfee9c9d500eb71", "lon": -77.044752, "fusion_lon": 0.0}, {"is_reserved": 0, "type": "electric_scooter", "fusion_lat": 0.0, "is_disabled": 0, "rental_uris": {"ios": "https://dc.lft.to/lastmile_qr_scan", "android": "https://dc.lft.to/lastmile_qr_scan"}, "bike_id": "1bb79712f275c8d8b3ebd040bb84e102", "lat": 38.87763666666667, "name": "1bb79712f275c8d8b3ebd040bb84e102", "lon": -77.00511116666667, "fusion_lon": 0.0}, {"is_reserved": 0, "type": "electric_scooter", "fusion_lat": 0.0, "is_disabled": 0, "rental_uris": {"ios": "https://dc.lft.to/lastmile_qr_scan", "android": "https://dc.lft.to/lastmile_qr_scan"}, "bike_id": "2ac61a19fdb8c047de3506c10e9c3f6d", "lat": 38.90231283333333, "name": "2ac61a19fdb8c047de3506c10e9c3f6d", "lon": -77.0006285, "fusion_lon": 0.0}, {"is_reserved": 0, "type": "electric_scooter", "fusion_lat": 0.0, "is_disabled": 0, "rental_uris": {"ios": "https://dc.lft.to/lastmile_qr_scan", "android": "https://dc.lft.to/lastmile_qr_scan"}, "bike_id": "588b089ec8d1fd3d85d47cd7dc324913", "lat": 38.876554, "name": "588b089ec8d1fd3d85d47cd7dc324913", "lon": -77.00407333333334, "fusion_lon": 0.0}, {"is_reserved": 0, "type": "electric_scooter", "fusion_lat": 0.0, "is_disabled": 0, "rental_uris": {"ios": "https://dc.lft.to/lastmile_qr_scan", "android": "https://dc.lft.to/lastmile_qr_scan"}, "bike_id": "549b0666eb4b98a9a997034a3bc5e259", "lat": 38.924105833333336, "name": "549b0666eb4b98a9a997034a3bc5e259", "lon": -77.02128783333333, "fusion_lon": 0.0}, {"is_reserved": 0, "type": "electric_scooter", "fusion_lat": 0.0, "is_disabled": 0, "rental_uris": {"ios": "https://dc.lft.to/lastmile_qr_scan", "android": "https://dc.lft.to/lastmile_qr_scan"}, "bike_id": "5c25781c18f3f4ac4cb59564cd9cb929", "lat": 38.956323, "name": "5c25781c18f3f4ac4cb59564cd9cb929", "lon": -77.02214016666667, "fusion_lon": 0.0}, {"is_reserved": 0, "type": "electric_scooter", "fusion_lat": 0.0, "is_disabled": 0, "rental_uris": {"ios": "https://dc.lft.to/lastmile_qr_scan", "android": "https://dc.lft.to/lastmile_qr_scan"}, "bike_id": "4e4ad7dca2c629e49b5cb5a98d827c47", "lat": 38.8989895, "name": "4e4ad7dca2c629e49b5cb5a98d827c47", "lon": -77.05002333333333, "fusion_lon": 0.0}, {"is_reserved": 0, "type": "electric_scooter", "fusion_lat": 0.0, "is_disabled": 0, "rental_uris": {"ios": "https://dc.lft.to/lastmile_qr_scan", "android": "https://dc.lft.to/lastmile_qr_scan"}, "bike_id": "06cb7fa13bdc2229b9ad1eeba39bba40", "lat": 38.92259116666666, "name": "06cb7fa13bdc2229b9ad1eeba39bba40", "lon": -77.03669383333333, "fusion_lon": 0.0}, {"is_reserved": 0, "type": "electric_scooter", "fusion_lat": 0.0, "is_disabled": 0, "rental_uris": {"ios": "https://dc.lft.to/lastmile_qr_scan", "android": "https://dc.lft.to/lastmile_qr_scan"}, "bike_id": "89f8094169097cc1f656fb07bb40cd7d", "lat": 38.920149333333335, "name": "89f8094169097cc1f656fb07bb40cd7d", "lon": -77.017035, "fusion_lon": 0.0}, {"is_reserved": 0, "type": "electric_scooter", "fusion_lat": 0.0, "is_disabled": 0, "rental_uris": {"ios": "https://dc.lft.to/lastmile_qr_scan", "android": "https://dc.lft.to/lastmile_qr_scan"}, "bike_id": "fef9e3439d6f1ebff935e06630e3fab1", "lat": 38.93863116666667, "name": "fef9e3439d6f1ebff935e06630e3fab1", "lon": -77.07235216666666, "fusion_lon": 0.0}, {"is_reserved": 0, "type": "electric_scooter", "fusion_lat": 0.0, "is_disabled": 0, "rental_uris": {"ios": "https://dc.lft.to/lastmile_qr_scan", "android": "https://dc.lft.to/lastmile_qr_scan"}, "bike_id": "fe5cf48add7d304c5c0bf8eb1b108890", "lat": 38.902069833333336, "name": "fe5cf48add7d304c5c0bf8eb1b108890", "lon": -77.06119616666666, "fusion_lon": 0.0}, {"is_reserved": 0, "type": "electric_scooter", "fusion_lat": 0.0, "is_disabled": 0, "rental_uris": {"ios": "https://dc.lft.to/lastmile_qr_scan", "android": "https://dc.lft.to/lastmile_qr_scan"}, "bike_id": "55350d46a24f9c5fa71c533f9dfa15c7", "lat": 38.91703283333333, "name": "55350d46a24f9c5fa71c533f9dfa15c7", "lon": -77.041747, "fusion_lon": 0.0}, {"is_reserved": 0, "type": "electric_scooter", "fusion_lat": 0.0, "is_disabled": 0, "rental_uris": {"ios": "https://dc.lft.to/lastmile_qr_scan", "android": "https://dc.lft.to/lastmile_qr_scan"}, "bike_id": "812659040ec9859565b40f084b755128", "lat": 38.9205025, "name": "812659040ec9859565b40f084b755128", "lon": -77.01670166666666, "fusion_lon": 0.0}, {"is_reserved": 0, "type": "electric_scooter", "fusion_lat": 0.0, "is_disabled": 0, "rental_uris": {"ios": "https://dc.lft.to/lastmile_qr_scan", "android": "https://dc.lft.to/lastmile_qr_scan"}, "bike_id": "1675f560c63546e9e899c1955818fd9e", "lat": 38.93930816666666, "name": "1675f560c63546e9e899c1955818fd9e", "lon": -77.0724545, "fusion_lon": 0.0}, {"is_reserved": 0, "type": "electric_scooter", "fusion_lat": 0.0, "is_disabled": 0, "rental_uris": {"ios": "https://dc.lft.to/lastmile_qr_scan", "android": "https://dc.lft.to/lastmile_qr_scan"}, "bike_id": "cfe2e32d58b4a723954c4080a0714ff0", "lat": 38.89727883333333, "name": "cfe2e32d58b4a723954c4080a0714ff0", "lon": -77.04987916666667, "fusion_lon": 0.0}, {"is_reserved": 0, "type": "electric_scooter", "fusion_lat": 0.0, "is_disabled": 0, "rental_uris": {"ios": "https://dc.lft.to/lastmile_qr_scan", "android": "https://dc.lft.to/lastmile_qr_scan"}, "bike_id": "1abc9d3d3e5a27e569e6228a26e955cb", "lat": 38.9227215, "name": "1abc9d3d3e5a27e569e6228a26e955cb", "lon": -77.04238866666667, "fusion_lon": 0.0}, {"is_reserved": 0, "type": "electric_scooter", "fusion_lat": 0.0, "is_disabled": 0, "rental_uris": {"ios": "https://dc.lft.to/lastmile_qr_scan", "android": "https://dc.lft.to/lastmile_qr_scan"}, "bike_id": "b7b7537241bd0543eb95ed778c3725f7", "lat": 38.91697766666667, "name": "b7b7537241bd0543eb95ed778c3725f7", "lon": -77.02482816666667, "fusion_lon": 0.0}, {"is_reserved": 0, "type": "electric_scooter", "fusion_lat": 0.0, "is_disabled": 0, "rental_uris": {"ios": "https://dc.lft.to/lastmile_qr_scan", "android": "https://dc.lft.to/lastmile_qr_scan"}, "bike_id": "abb416180047793cc67b58200c8dab33", "lat": 38.90528366666667, "name": "abb416180047793cc67b58200c8dab33", "lon": -77.05932416666667, "fusion_lon": 0.0}, {"is_reserved": 0, "type": "electric_scooter", "fusion_lat": 0.0, "is_disabled": 0, "rental_uris": {"ios": "https://dc.lft.to/lastmile_qr_scan", "android": "https://dc.lft.to/lastmile_qr_scan"}, "bike_id": "981e9f91972b1434f0881d49b9bbc530", "lat": 38.873797, "name": "981e9f91972b1434f0881d49b9bbc530", "lon": -77.00126833333333, "fusion_lon": 0.0}, {"is_reserved": 0, "type": "electric_scooter", "fusion_lat": 0.0, "is_disabled": 0, "rental_uris": {"ios": "https://dc.lft.to/lastmile_qr_scan", "android": "https://dc.lft.to/lastmile_qr_scan"}, "bike_id": "ad8c5beecf243bc367a1d2fb01469be1", "lat": 38.886231, "name": "ad8c5beecf243bc367a1d2fb01469be1", "lon": -76.92630333333334, "fusion_lon": 0.0}, {"is_reserved": 0, "type": "electric_scooter", "fusion_lat": 0.0, "is_disabled": 0, "rental_uris": {"ios": "https://dc.lft.to/lastmile_qr_scan", "android": "https://dc.lft.to/lastmile_qr_scan"}, "bike_id": "b4b047c4a4bd45f587b82af90deb345e", "lat": 38.8983195, "name": "b4b047c4a4bd45f587b82af90deb345e", "lon": -76.99627283333334, "fusion_lon": 0.0}, {"is_reserved": 0, "type": "electric_scooter", "fusion_lat": 0.0, "is_disabled": 0, "rental_uris": {"ios": "https://dc.lft.to/lastmile_qr_scan", "android": "https://dc.lft.to/lastmile_qr_scan"}, "bike_id": "80681e99ce4f5671104393aef2d1ab6d", "lat": 38.88447216666667, "name": "80681e99ce4f5671104393aef2d1ab6d", "lon": -77.02365383333333, "fusion_lon": 0.0}, {"is_reserved": 0, "type": "electric_scooter", "fusion_lat": 0.0, "is_disabled": 0, "rental_uris": {"ios": "https://dc.lft.to/lastmile_qr_scan", "android": "https://dc.lft.to/lastmile_qr_scan"}, "bike_id": "578653ffe8b54d1a8cd96509f6d7efc8", "lat": 38.8919515, "name": "578653ffe8b54d1a8cd96509f6d7efc8", "lon": -77.02124216666667, "fusion_lon": 0.0}, {"is_reserved": 0, "type": "electric_scooter", "fusion_lat": 0.0, "is_disabled": 0, "rental_uris": {"ios": "https://dc.lft.to/lastmile_qr_scan", "android": "https://dc.lft.to/lastmile_qr_scan"}, "bike_id": "7b3fd17a59787dcc863e16e077bee0d1", "lat": 38.9297685, "name": "7b3fd17a59787dcc863e16e077bee0d1", "lon": -77.05510383333333, "fusion_lon": 0.0}, {"is_reserved": 0, "type": "electric_scooter", "fusion_lat": 0.0, "is_disabled": 0, "rental_uris": {"ios": "https://dc.lft.to/lastmile_qr_scan", "android": "https://dc.lft.to/lastmile_qr_scan"}, "bike_id": "c4af4997326143241ffd564208f14359", "lat": 38.955873833333335, "name": "c4af4997326143241ffd564208f14359", "lon": -77.01776816666667, "fusion_lon": 0.0}, {"is_reserved": 0, "type": "electric_scooter", "fusion_lat": 0.0, "is_disabled": 0, "rental_uris": {"ios": "https://dc.lft.to/lastmile_qr_scan", "android": "https://dc.lft.to/lastmile_qr_scan"}, "bike_id": "eb2b6b627258046ca3a7e210d7bcb83d", "lat": 38.93453133333333, "name": "eb2b6b627258046ca3a7e210d7bcb83d", "lon": -77.02773583333334, "fusion_lon": 0.0}, {"is_reserved": 0, "type": "electric_scooter", "fusion_lat": 0.0, "is_disabled": 0, "rental_uris": {"ios": "https://dc.lft.to/lastmile_qr_scan", "android": "https://dc.lft.to/lastmile_qr_scan"}, "bike_id": "56a9203eb6ebb7bcc66843f408dd009d", "lat": 38.909431833333336, "name": "56a9203eb6ebb7bcc66843f408dd009d", "lon": -77.04424033333333, "fusion_lon": 0.0}, {"is_reserved": 0, "type": "electric_scooter", "fusion_lat": 0.0, "is_disabled": 0, "rental_uris": {"ios": "https://dc.lft.to/lastmile_qr_scan", "android": "https://dc.lft.to/lastmile_qr_scan"}, "bike_id": "84463c047b1e4d1f5c70cbeb540ffce0", "lat": 38.87966683333333, "name": "84463c047b1e4d1f5c70cbeb540ffce0", "lon": -77.02429283333333, "fusion_lon": 0.0}, {"is_reserved": 0, "type": "electric_scooter", "fusion_lat": 0.0, "is_disabled": 0, "rental_uris": {"ios": "https://dc.lft.to/lastmile_qr_scan", "android": "https://dc.lft.to/lastmile_qr_scan"}, "bike_id": "657254089c8e2933899f969c04d0d642", "lat": 38.90404433333333, "name": "657254089c8e2933899f969c04d0d642", "lon": -77.03243516666667, "fusion_lon": 0.0}, {"is_reserved": 0, "type": "electric_bike", "fusion_lat": 0.0, "is_disabled": 0, "rental_uris": {"ios": "https://dc.lft.to/lastmile_qr_scan", "android": "https://dc.lft.to/lastmile_qr_scan"}, "bike_id": "11bda998a592868f75e7512b664da2cd", "lat": 39.02646416666666, "name": "11bda998a592868f75e7512b664da2cd", "lon": -77.0368725, "fusion_lon": 0.0}, {"is_reserved": 0, "type": "electric_scooter", "fusion_lat": 0.0, "is_disabled": 0, "rental_uris": {"ios": "https://dc.lft.to/lastmile_qr_scan", "android": "https://dc.lft.to/lastmile_qr_scan"}, "bike_id": "709a87aff19fda8ffdcd5826fbd5d61d", "lat": 38.905074666666664, "name": "709a87aff19fda8ffdcd5826fbd5d61d", "lon": -76.9519755, "fusion_lon": 0.0}, {"is_reserved": 0, "type": "electric_scooter", "fusion_lat": 0.0, "is_disabled": 0, "rental_uris": {"ios": "https://dc.lft.to/lastmile_qr_scan", "android": "https://dc.lft.to/lastmile_qr_scan"}, "bike_id": "71805303ce5ff7c20d30ad1319b24572", "lat": 38.90855283333333, "name": "71805303ce5ff7c20d30ad1319b24572", "lon": -77.023545, "fusion_lon": 0.0}, {"is_reserved": 0, "type": "electric_scooter", "fusion_lat": 0.0, "is_disabled": 0, "rental_uris": {"ios": "https://dc.lft.to/lastmile_qr_scan", "android": "https://dc.lft.to/lastmile_qr_scan"}, "bike_id": "7f611d32888e1199a1b37deed52ab4b4", "lat": 38.9275705, "name": "7f611d32888e1199a1b37deed52ab4b4", "lon": -77.05251783333334, "fusion_lon": 0.0}, {"is_reserved": 0, "type": "electric_scooter", "fusion_lat": 0.0, "is_disabled": 0, "rental_uris": {"ios": "https://dc.lft.to/lastmile_qr_scan", "android": "https://dc.lft.to/lastmile_qr_scan"}, "bike_id": "55bc2fdd26bb04df3167b40b8026001b", "lat": 38.9219645, "name": "55bc2fdd26bb04df3167b40b8026001b", "lon": -77.02041183333333, "fusion_lon": 0.0}, {"is_reserved": 0, "type": "electric_scooter", "fusion_lat": 0.0, "is_disabled": 0, "rental_uris": {"ios": "https://dc.lft.to/lastmile_qr_scan", "android": "https://dc.lft.to/lastmile_qr_scan"}, "bike_id": "82274d64949eeed55370d20843dd3297", "lat": 38.8995715, "name": "82274d64949eeed55370d20843dd3297", "lon": -77.01505916666666, "fusion_lon": 0.0}, {"is_reserved": 0, "type": "electric_scooter", "fusion_lat": 0.0, "is_disabled": 0, "rental_uris": {"ios": "https://dc.lft.to/lastmile_qr_scan", "android": "https://dc.lft.to/lastmile_qr_scan"}, "bike_id": "d59809da9df59b875aea64de08712660", "lat": 38.905698, "name": "d59809da9df59b875aea64de08712660", "lon": -77.006579, "fusion_lon": 0.0}, {"is_reserved": 0, "type": "electric_scooter", "fusion_lat": 0.0, "is_disabled": 0, "rental_uris": {"ios": "https://dc.lft.to/lastmile_qr_scan", "android": "https://dc.lft.to/lastmile_qr_scan"}, "bike_id": "01e33393ee0a145fb7b5c94c5c61c388", "lat": 38.9209395, "name": "01e33393ee0a145fb7b5c94c5c61c388", "lon": -77.04716033333334, "fusion_lon": 0.0}, {"is_reserved": 0, "type": "electric_scooter", "fusion_lat": 0.0, "is_disabled": 0, "rental_uris": {"ios": "https://dc.lft.to/lastmile_qr_scan", "android": "https://dc.lft.to/lastmile_qr_scan"}, "bike_id": "88f75bc46592dfe3cbf1c09c5988865c", "lat": 38.894973666666665, "name": "88f75bc46592dfe3cbf1c09c5988865c", "lon": -77.02294983333333, "fusion_lon": 0.0}, {"is_reserved": 0, "type": "electric_scooter", "fusion_lat": 0.0, "is_disabled": 0, "rental_uris": {"ios": "https://dc.lft.to/lastmile_qr_scan", "android": "https://dc.lft.to/lastmile_qr_scan"}, "bike_id": "881e802773934d06d489a1f9732460e7", "lat": 38.8784815, "name": "881e802773934d06d489a1f9732460e7", "lon": -77.00681733333333, "fusion_lon": 0.0}, {"is_reserved": 0, "type": "electric_bike", "fusion_lat": 0.0, "is_disabled": 0, "rental_uris": {"ios": "https://dc.lft.to/lastmile_qr_scan", "android": "https://dc.lft.to/lastmile_qr_scan"}, "bike_id": "c4b1bc13f1681756e9197fd3b335ae76", "lat": 38.805180666666665, "name": "c4b1bc13f1681756e9197fd3b335ae76", "lon": -77.04344266666666, "fusion_lon": 0.0}, {"is_reserved": 0, "type": "electric_scooter", "fusion_lat": 0.0, "is_disabled": 0, "rental_uris": {"ios": "https://dc.lft.to/lastmile_qr_scan", "android": "https://dc.lft.to/lastmile_qr_scan"}, "bike_id": "47a83e04e4bab9c0cebe09a41b323d9a", "lat": 38.90272816666667, "name": "47a83e04e4bab9c0cebe09a41b323d9a", "lon": -77.0591815, "fusion_lon": 0.0}, {"is_reserved": 0, "type": "electric_scooter", "fusion_lat": 0.0, "is_disabled": 0, "rental_uris": {"ios": "https://dc.lft.to/lastmile_qr_scan", "android": "https://dc.lft.to/lastmile_qr_scan"},