{"data": {"bikes": [{"is_reserved": 0, "type": "electric_scooter", "bike_id": "64c934ea5b9c51924b99f325957bed88", "lat": 38.89172216666667, "lon": -77.01555016666667, "rental_uris": {"android": "https://dc.lft.to/lastmile_qr_scan", "ios": "https://dc.lft.to/lastmile_qr_scan"}, "is_disabled": 0, "fusion_lat": 0.0, "name": "64c934ea5b9c51924b99f325957bed88", "fusion_lon": 0.0}, {"is_reserved": 0, "type": "electric_bike", "bike_id": "b707dc49c16cb16e127619ad056e51ac", "lat": 38.946668333333335, "lon": -76.993341, "rental_uris": {"android": "https://dc.lft.to/lastmile_qr_scan", "ios": "https://dc.lft.to/lastmile_qr_scan"}, "is_disabled": 0, "fusion_lat": 0.0, "name": "b707dc49c16cb16e127619ad056e51ac", "fusion_lon": 0.0}, {"is_reserved": 0, "type": "electric_scooter", "bike_id": "9f4a173dca34cc9fe3ecb765614aca81", "lat": 38.897465833333335, "lon": -76.99772983333334, "rental_uris": {"android": "https://dc.lft.to/lastmile_qr_scan", "ios": "https://dc.lft.to/lastmile_qr_scan"}, "is_disabled": 0, "fusion_lat": 0.0, "name": "9f4a173dca34cc9fe3ecb765614aca81", "fusion_lon": 0.0}, {"is_reserved": 0, "type": "electric_scooter", "bike_id": "b0f95a2af21ac3ff57197765411282aa", "lat": 38.91416383333333, "lon": -77.02251016666666, "rental_uris": {"android": "https://dc.lft.to/lastmile_qr_scan", "ios": "https://dc.lft.to/lastmile_qr_scan"}, "is_disabled": 0, "fusion_lat": 0.0, "name": "b0f95a2af21ac3ff57197765411282aa", "fusion_lon": 0.0}, {"is_reserved": 0, "type": "electric_scooter", "bike_id": "edaa1b5ce4a93c5fadcf84932c4eb610", "lat": 38.9164835, "lon": -77.02396316666666, "rental_uris": {"android": "https://dc.lft.to/lastmile_qr_scan", "ios": "https://dc.lft.to/lastmile_qr_scan"}, "is_disabled": 0, "fusion_lat": 0.0, "name": "edaa1b5ce4a93c5fadcf84932c4eb610", "fusion_lon": 0.0}, {"is_reserved": 0, "type": "electric_scooter", "bike_id": "43685a694d80137a18bc3544f6697ffc", "lat": 38.917109833333335, "lon": -77.03218516666666, "rental_uris": {"android": "https://dc.lft.to/lastmile_qr_scan", "ios": "https://dc.lft.to/lastmile_qr_scan"}, "is_disabled": 0, "fusion_lat": 0.0, "name": "43685a694d80137a18bc3544f6697ffc", "fusion_lon": 0.0}, {"is_reserved": 0, "type": "electric_scooter", "bike_id": "22cb983cdcb7fcafe35a22d60eed5230", "lat": 38.9179385, "lon": -77.031917, "rental_uris": {"android": "https://dc.lft.to/lastmile_qr_scan", "ios": "https://dc.lft.to/lastmile_qr_scan"}, "is_disabled": 0, "fusion_lat": 0.0, "name": "22cb983cdcb7fcafe35a22d60eed5230", "fusion_lon": 0.0}, {"is_reserved": 0, "type": "electric_scooter", "bike_id": "7a9e75f9df2de2cf8db8dffedbf51f85", "lat": 38.926546, "lon": -77.04057766666666, "rental_uris": {"android": "https://dc.lft.to/lastmile_qr_scan", "ios": "https://dc.lft.to/lastmile_qr_scan"}, "is_disabled": 0, "fusion_lat": 0.0, "name": "7a9e75f9df2de2cf8db8dffedbf51f85", "fusion_lon": 0.0}, {"is_reserved": 0, "type": "electric_bike", "bike_id": "f69a4e034384917d5c193fd4582bc0ad", "lat": 38.92968583333333, "lon": -77.02869683333333, "rental_uris": {"android": "https://dc.lft.to/lastmile_qr_scan", "ios": "https://dc.lft.to/lastmile_qr_scan"}, "is_disabled": 0, "fusion_lat": 0.0, "name": "f69a4e034384917d5c193fd4582bc0ad", "fusion_lon": 0.0}, {"is_reserved": 0, "type": "electric_scooter", "bike_id": "f5fa4e8764b9030645f43ad485fddd9e", "lat": 38.92084583333333, "lon": -77.0253125, "rental_uris": {"android": "https://dc.lft.to/lastmile_qr_scan", "ios": "https://dc.lft.to/lastmile_qr_scan"}, "is_disabled": 0, "fusion_lat": 0.0, "name": "f5fa4e8764b9030645f43ad485fddd9e", "fusion_lon": 0.0}, {"is_reserved": 0, "type": "electric_scooter", "bike_id": "fcdb043a60bbb278711e1e79fbf0e4fb", "lat": 38.93191016666667, "lon": -77.0414105, "rental_uris": {"android": "https://dc.lft.to/lastmile_qr_scan", "ios": "https://dc.lft.to/lastmile_qr_scan"}, "is_disabled": 0, "fusion_lat": 0.0, "name": "fcdb043a60bbb278711e1e79fbf0e4fb", "fusion_lon": 0.0}, {"is_reserved": 0, "type": "electric_bike", "bike_id": "d652412ba718dbd4ac6596fb5a73f3c0", "lat": 38.84053133333333, "lon": -77.0559875, "rental_uris": {"android": "https://dc.lft.to/lastmile_qr_scan", "ios": "https://dc.lft.to/lastmile_qr_scan"}, "is_disabled": 0, "fusion_lat": 0.0, "name": "d652412ba718dbd4ac6596fb5a73f3c0", "fusion_lon": 0.0}, {"is_reserved": 0, "type": "electric_scooter", "bike_id": "da1659dc62c8bacc1d6ed7c467eb2b9d", "lat": 38.910594833333334, "lon": -77.02188366666667, "rental_uris": {"android": "https://dc.lft.to/lastmile_qr_scan", "ios": "https://dc.lft.to/lastmile_qr_scan"}, "is_disabled": 0, "fusion_lat": 0.0, "name": "da1659dc62c8bacc1d6ed7c467eb2b9d", "fusion_lon": 0.0}, {"is_reserved": 0, "type": "electric_scooter", "bike_id": "80d25ee42c43a11f95b92522ed2831fb", "lat": 38.89937916666667, "lon": -77.0321005, "rental_uris": {"android": "https://dc.lft.to/lastmile_qr_scan", "ios": "https://dc.lft.to/lastmile_qr_scan"}, "is_disabled": 0, "fusion_lat": 0.0, "name": "80d25ee42c43a11f95b92522ed2831fb", "fusion_lon": 0.0}, {"is_reserved": 0, "type": "electric_scooter", "bike_id": "840bb5db122b03fd49cbae143fb43bd3", "lat": 38.911153, "lon": -77.0219025, "rental_uris": {"android": "https://dc.lft.to/lastmile_qr_scan", "ios": "https://dc.lft.to/lastmile_qr_scan"}, "is_disabled": 0, "fusion_lat": 0.0, "name": "840bb5db122b03fd49cbae143fb43bd3", "fusion_lon": 0.0}, {"is_reserved": 0, "type": "electric_scooter", "bike_id": "f4e1f028934bc6d2ff5de2aa38c48c09", "lat": 38.90871816666667, "lon": -77.00221083333334, "rental_uris": {"android": "https://dc.lft.to/lastmile_qr_scan", "ios": "https://dc.lft.to/lastmile_qr_scan"}, "is_disabled": 0, "fusion_lat": 0.0, "name": "f4e1f028934bc6d2ff5de2aa38c48c09", "fusion_lon": 0.0}, {"is_reserved": 0, "type": "electric_scooter", "bike_id": "05bc91dd5bae9e4d04cf74992088b06c", "lat": 38.89489366666667, "lon": -76.9958255, "rental_uris": {"android": "https://dc.lft.to/lastmile_qr_scan", "ios": "https://dc.lft.to/lastmile_qr_scan"}, "is_disabled": 0, "fusion_lat": 0.0, "name": "05bc91dd5bae9e4d04cf74992088b06c", "fusion_lon": 0.0}, {"is_reserved": 0, "type": "electric_scooter", "bike_id": "94fba48d96c5ba128c5e971bdc00d5fb", "lat": 38.86487783333333, "lon": -76.97741766666667, "rental_uris": {"android": "https://dc.lft.to/lastmile_qr_scan", "ios": "https://dc.lft.to/lastmile_qr_scan"}, "is_disabled": 0, "fusion_lat": 0.0, "name": "94fba48d96c5ba128c5e971bdc00d5fb", "fusion_lon": 0.0}, {"is_reserved": 0, "type": "electric_scooter", "bike_id": "b5c9fd6dcc2f044b98f96a23fd8e0c07", "lat": 38.89348866666667, "lon": -77.048736, "rental_uris": {"android": "https://dc.lft.to/lastmile_qr_scan", "ios": "https://dc.lft.to/lastmile_qr_scan"}, "is_disabled": 0, "fusion_lat": 0.0, "name": "b5c9fd6dcc2f044b98f96a23fd8e0c07", "fusion_lon": 0.0}, {"is_reserved": 0, "type": "electric_bike", "bike_id": "c36245eb1ef15fb51a8e2114919f67ce", "lat": 38.89615233333333, "lon": -76.90733016666667, "rental_uris": {"android": "https://dc.lft.to/lastmile_qr_scan", "ios": "https://dc.lft.to/lastmile_qr_scan"}, "is_disabled": 0, "fusion_lat": 0.0, "name": "c36245eb1ef15fb51a8e2114919f67ce", "fusion_lon": 0.0}, {"is_reserved": 0, "type": "electric_scooter", "bike_id": "d73e83e2efb283c58f1b4c05c3a4f1ff", "lat": 38.893516166666664, "lon": -77.01731833333334, "rental_uris": {"android": "https://dc.lft.to/lastmile_qr_scan", "ios": "https://dc.lft.to/lastmile_qr_scan"}, "is_disabled": 0, "fusion_lat": 0.0, "name": "d73e83e2efb283c58f1b4c05c3a4f1ff", "fusion_lon": 0.0}, {"is_reserved": 0, "type": "electric_scooter", "bike_id": "c5ecc5f41507fec1098331876c877e3f", "lat": 38.894266333333334, "lon": -77.05596, "rental_uris": {"android": "https://dc.lft.to/lastmile_qr_scan", "ios": "https://dc.lft.to/lastmile_qr_scan"}, "is_disabled": 0, "fusion_lat": 0.0, "name": "c5ecc5f41507fec1098331876c877e3f", "fusion_lon": 0.0}, {"is_reserved": 0, "type": "electric_scooter", "bike_id": "2e71eba0f54b63a23b49986f29c212d4", "lat": 38.88529283333333, "lon": -76.99722383333334, "rental_uris": {"android": "https://dc.lft.to/lastmile_qr_scan", "ios": "https://dc.lft.to/lastmile_qr_scan"}, "is_disabled": 0, "fusion_lat": 0.0, "name": "2e71eba0f54b63a23b49986f29c212d4", "fusion_lon": 0.0}, {"is_reserved": 0, "type": "electric_scooter", "bike_id": "53cb61d7c9713233e0c367b75d20a495", "lat": 38.91195366666667, "lon": -77.03228116666666, "rental_uris": {"android": "https://dc.lft.to/lastmile_qr_scan", "ios": "https://dc.lft.to/lastmile_qr_scan"}, "is_disabled": 0, "fusion_lat": 0.0, "name": "53cb61d7c9713233e0c367b75d20a495", "fusion_lon": 0.0}, {"is_reserved": 0, "type": "electric_scooter", "bike_id": "8b91bc22de3acdc0940e0757f7f0e8e4", "lat": 38.9171105, "lon": -77.02469, "rental_uris": {"android": "https://dc.lft.to/lastmile_qr_scan", "ios": "https://dc.lft.to/lastmile_qr_scan"}, "is_disabled": 0, "fusion_lat": 0.0, "name": "8b91bc22de3acdc0940e0757f7f0e8e4", "fusion_lon": 0.0}, {"is_reserved": 0, "type": "electric_scooter", "bike_id": "0087973562011a2ac0119c320340436a", "lat": 38.920517333333336, "lon": -77.02576533333334, "rental_uris": {"android": "https://dc.lft.to/lastmile_qr_scan", "ios": "https://dc.lft.to/lastmile_qr_scan"}, "is_disabled": 0, "fusion_lat": 0.0, "name": "0087973562011a2ac0119c320340436a", "fusion_lon": 0.0}, {"is_reserved": 0, "type": "electric_scooter", "bike_id": "cfd0e4bf4f0f9f2cdce29e1f837cbb04", "lat": 38.91711033333333, "lon": -77.02719183333333, "rental_uris": {"android": "https://dc.lft.to/lastmile_qr_scan", "ios": "https://dc.lft.to/lastmile_qr_scan"}, "is_disabled": 0, "fusion_lat": 0.0, "name": "cfd0e4bf4f0f9f2cdce29e1f837cbb04", "fusion_lon": 0.0}, {"is_reserved": 0, "type": "electric_scooter", "bike_id": "25ae340575975471946ff8005d2b66e2", "lat": 38.86485666666667, "lon": -76.97742483333333, "rental_uris": {"android": "https://dc.lft.to/lastmile_qr_scan", "ios": "https://dc.lft.to/lastmile_qr_scan"}, "is_disabled": 0, "fusion_lat": 0.0, "name": "25ae340575975471946ff8005d2b66e2", "fusion_lon": 0.0}, {"is_reserved": 0, "type": "electric_bike", "bike_id": "f42a6fe444944cada04fa791f879b810", "lat": 38.889331166666665, "lon": -76.91327433333333, "rental_uris": {"android": "https://dc.lft.to/lastmile_qr_scan", "ios": "https://dc.lft.to/lastmile_qr_scan"}, "is_disabled": 0, "fusion_lat": 0.0, "name": "f42a6fe444944cada04fa791f879b810", "fusion_lon": 0.0}, {"is_reserved": 0, "type": "electric_scooter", "bike_id": "911e3b6aaa8b56b5bc18d4bb48721d24", "lat": 38.900225666666664, "lon": -77.0120295, "rental_uris": {"android": "https://dc.lft.to/lastmile_qr_scan", "ios": "https://dc.lft.to/lastmile_qr_scan"}, "is_disabled": 0, "fusion_lat": 0.0, "name": "911e3b6aaa8b56b5bc18d4bb48721d24", "fusion_lon": 0.0}, {"is_reserved": 0, "type": "electric_scooter", "bike_id": "6cfb7d174e4bd7ff56d270e88b3d3146", "lat": 38.920772166666666, "lon": -77.0437735, "rental_uris": {"android": "https://dc.lft.to/lastmile_qr_scan", "ios": "https://dc.lft.to/lastmile_qr_scan"}, "is_disabled": 0, "fusion_lat": 0.0, "name": "6cfb7d174e4bd7ff56d270e88b3d3146", "fusion_lon": 0.0}, {"is_reserved": 0, "type": "electric_scooter", "bike_id": "f63faa675960195ddbf4322a3e10acf1", "lat": 38.897302, "lon": -77.022892, "rental_uris": {"android": "https://dc.lft.to/lastmile_qr_scan", "ios": "https://dc.lft.to/lastmile_qr_scan"}, "is_disabled": 0, "fusion_lat": 0.0, "name": "f63faa675960195ddbf4322a3e10acf1", "fusion_lon": 0.0}, {"is_reserved": 0, "type": "electric_scooter", "bike_id": "054e96b6efbf326ba4804ef309bf7f50", "lat": 38.897261666666665, "lon": -77.02069383333334, "rental_uris": {"android": "https://dc.lft.to/lastmile_qr_scan", "ios": "https://dc.lft.to/lastmile_qr_scan"}, "is_disabled": 0, "fusion_lat": 0.0, "name": "054e96b6efbf326ba4804ef309bf7f50", "fusion_lon": 0.0}, {"is_reserved": 0, "type": "electric_scooter", "bike_id": "78fc1ebc6225e7ed0f7704f04aabdadd", "lat": 38.917086166666664, "lon": -77.02944916666667, "rental_uris": {"android": "https://dc.lft.to/lastmile_qr_scan", "ios": "https://dc.lft.to/lastmile_qr_scan"}, "is_disabled": 0, "fusion_lat": 0.0, "name": "78fc1ebc6225e7ed0f7704f04aabdadd", "fusion_lon": 0.0}, {"is_reserved": 0, "type": "electric_scooter", "bike_id": "41dc78377e7a866f01781864301e3243", "lat": 38.905436333333334, "lon": -77.041695, "rental_uris": {"android": "https://dc.lft.to/lastmile_qr_scan", "ios": "https://dc.lft.to/lastmile_qr_scan"}, "is_disabled": 0, "fusion_lat": 0.0, "name": "41dc78377e7a866f01781864301e3243", "fusion_lon": 0.0}, {"is_reserved": 0, "type": "electric_scooter", "bike_id": "a18ebd37c8665945c7e086a745c1d1b5", "lat": 38.9021025, "lon": -77.021563, "rental_uris": {"android": "https://dc.lft.to/lastmile_qr_scan", "ios": "https://dc.lft.to/lastmile_qr_scan"}, "is_disabled": 0, "fusion_lat": 0.0, "name": "a18ebd37c8665945c7e086a745c1d1b5", "fusion_lon": 0.0}, {"is_reserved": 0, "type": "electric_scooter", "bike_id": "e96dc4d21d161161ebb0f28041bc73d3", "lat": 38.922601, "lon": -77.0430045, "rental_uris": {"android": "https://dc.lft.to/lastmile_qr_scan", "ios": "https://dc.lft.to/lastmile_qr_scan"}, "is_disabled": 0, "fusion_lat": 0.0, "name": "e96dc4d21d161161ebb0f28041bc73d3", "fusion_lon": 0.0}, {"is_reserved": 0, "type": "electric_bike", "bike_id": "b136a3a797231701300a16fb75056f43", "lat": 38.8940885, "lon": -76.8682705, "rental_uris": {"android": "https://dc.lft.to/lastmile_qr_scan", "ios": "https://dc.lft.to/lastmile_qr_scan"}, "is_disabled": 0, "fusion_lat": 0.0, "name": "b136a3a797231701300a16fb75056f43", "fusion_lon": 0.0}, {"is_reserved": 0, "type": "electric_scooter", "bike_id": "f06cc6dddc24515fccc2dc87cb788203", "lat": 38.9202145, "lon": -77.03156583333333, "rental_uris": {"android": "https://dc.lft.to/lastmile_qr_scan", "ios": "https://dc.lft.to/lastmile_qr_scan"}, "is_disabled": 0, "fusion_lat": 0.0, "name": "f06cc6dddc24515fccc2dc87cb788203", "fusion_lon": 0.0}, {"is_reserved": 0, "type": "electric_scooter", "bike_id": "4958f51b823f8e065846de0d3f2282e2", "lat": 38.91683966666667, "lon": -77.03195083333334, "rental_uris": {"android": "https://dc.lft.to/lastmile_qr_scan", "ios": "https://dc.lft.to/lastmile_qr_scan"}, "is_disabled": 0, "fusion_lat": 0.0, "name": "4958f51b823f8e065846de0d3f2282e2", "fusion_lon": 0.0}, {"is_reserved": 0, "type": "electric_scooter", "bike_id": "ccd3a6b4ef9c3ebb9b0ebb34b72af1dd", "lat": 38.924210333333335, "lon": -77.02018616666666, "rental_uris": {"android": "https://dc.lft.to/lastmile_qr_scan", "ios": "https://dc.lft.to/lastmile_qr_scan"}, "is_disabled": 0, "fusion_lat": 0.0, "name": "ccd3a6b4ef9c3ebb9b0ebb34b72af1dd", "fusion_lon": 0.0}, {"is_reserved": 0, "type": "electric_scooter", "bike_id": "fc6e294d39feb3f3112e4902083d4197", "lat": 38.927723666666665, "lon": -77.02755133333334, "rental_uris": {"android": "https://dc.lft.to/lastmile_qr_scan", "ios": "https://dc.lft.to/lastmile_qr_scan"}, "is_disabled": 0, "fusion_lat": 0.0, "name": "fc6e294d39feb3f3112e4902083d4197", "fusion_lon": 0.0}, {"is_reserved": 0, "type": "electric_scooter", "bike_id": "973c4ffc42eaab4ed55a23e107b0b838", "lat": 38.90272, "lon": -77.03150766666667, "rental_uris": {"android": "https://dc.lft.to/lastmile_qr_scan", "ios": "https://dc.lft.to/lastmile_qr_scan"}, "is_disabled": 0, "fusion_lat": 0.0, "name": "973c4ffc42eaab4ed55a23e107b0b838", "fusion_lon": 0.0}, {"is_reserved": 0, "type": "electric_bike", "bike_id": "b0cb683f35175a48e0982b8a187a080f", "lat": 39.010957833333336, "lon": -77.049517, "rental_uris": {"android": "https://dc.lft.to/lastmile_qr_scan", "ios": "https://dc.lft.to/lastmile_qr_scan"}, "is_disabled": 0, "fusion_lat": 0.0, "name": "b0cb683f35175a48e0982b8a187a080f", "fusion_lon": 0.0}, {"is_reserved": 0, "type": "electric_bike", "bike_id": "f29e9705d1c39cca3d11665374cc9478", "lat": 38.863286, "lon": -76.98724016666667, "rental_uris": {"android": "https://dc.lft.to/lastmile_qr_scan", "ios": "https://dc.lft.to/lastmile_qr_scan"}, "is_disabled": 0, "fusion_lat": 0.0, "name": "f29e9705d1c39cca3d11665374cc9478", "fusion_lon": 0.0}, {"is_reserved": 0, "type": "electric_bike", "bike_id": "1780a0f96c5e80924b5b143ccc93d909", "lat": 39.0000335, "lon": -76.9180465, "rental_uris": {"android": "https://dc.lft.to/lastmile_qr_scan", "ios": "https://dc.lft.to/lastmile_qr_scan"}, "is_disabled": 0, "fusion_lat": 0.0, "name": "1780a0f96c5e80924b5b143ccc93d909", "fusion_lon": 0.0}, {"is_reserved": 0, "type": "electric_scooter", "bike_id": "4b5e548db5155e4537a3566f342f0552", "lat": 38.917191833333334, "lon": -77.0383645, "rental_uris": {"android": "https://dc.lft.to/lastmile_qr_scan", "ios": "https://dc.lft.to/lastmile_qr_scan"}, "is_disabled": 0, "fusion_lat": 0.0, "name": "4b5e548db5155e4537a3566f342f0552", "fusion_lon": 0.0}, {"is_reserved": 0, "type": "electric_scooter", "bike_id": "eff2b63e9f43a8240b07837d2f504246", "lat": 38.9199195, "lon": -76.97304933333334, "rental_uris": {"android": "https://dc.lft.to/lastmile_qr_scan", "ios": "https://dc.lft.to/lastmile_qr_scan"}, "is_disabled": 0, "fusion_lat": 0.0, "name": "eff2b63e9f43a8240b07837d2f504246", "fusion_lon": 0.0}, {"is_reserved": 0, "type": "electric_scooter", "bike_id": "4df7f42f1f221db58bb857afd6fd5282", "lat": 38.91781433333333, "lon": -77.03171633333334, "rental_uris": {"android": "https://dc.lft.to/lastmile_qr_scan", "ios": "https://dc.lft.to/lastmile_qr_scan"}, "is_disabled": 0, "fusion_lat": 0.0, "name": "4df7f42f1f221db58bb857afd6fd5282", "fusion_lon": 0.0}, {"is_reserved": 0, "type": "electric_scooter", "bike_id": "eb2d5b81d80f146be371bd532a39ebc9", "lat": 38.89892733333333, "lon": -77.00356766666667, "rental_uris": {"android": "https://dc.lft.to/lastmile_qr_scan", "ios": "https://dc.lft.to/lastmile_qr_scan"}, "is_disabled": 0, "fusion_lat": 0.0, "name": "eb2d5b81d80f146be371bd532a39ebc9", "fusion_lon": 0.0}, {"is_reserved": 0, "type": "electric_scooter", "bike_id": "abe752ed29296bba9cb81e29b6807c27", "lat": 38.9265245, "lon": -77.03421533333334, "rental_uris": {"android": "https://dc.lft.to/lastmile_qr_scan", "ios": "https://dc.lft.to/lastmile_qr_scan"}, "is_disabled": 0, "fusion_lat": 0.0, "name": "abe752ed29296bba9cb81e29b6807c27", "fusion_lon": 0.0}, {"is_reserved": 0, "type": "electric_scooter", "bike_id": "46fb5d540d8d6ebf70cf4e86c23c76c7", "lat": 38.90010316666667, "lon": -76.9890925, "rental_uris": {"android": "https://dc.lft.to/lastmile_qr_scan", "ios": "https://dc.lft.to/lastmile_qr_scan"}, "is_disabled": 0, "fusion_lat": 0.0, "name": "46fb5d540d8d6ebf70cf4e86c23c76c7", "fusion_lon": 0.0}, {"is_reserved": 0, "type": "electric_scooter", "bike_id": "e2b9204eaf0fe7b61b803177e1387201", "lat": 38.897158833333336, "lon": -77.03205166666666, "rental_uris": {"android": "https://dc.lft.to/lastmile_qr_scan", "ios": "https://dc.lft.to/lastmile_qr_scan"}, "is_disabled": 0, "fusion_lat": 0.0, "name": "e2b9204eaf0fe7b61b803177e1387201", "fusion_lon": 0.0}, {"is_reserved": 0, "type": "electric_bike", "bike_id": "b37909d59b805982888ffa14ae45ce7e", "lat": 39.04241233333333, "lon": -76.99735733333333, "rental_uris": {"android": "https://dc.lft.to/lastmile_qr_scan", "ios": "https://dc.lft.to/lastmile_qr_scan"}, "is_disabled": 0, "fusion_lat": 0.0, "name": "b37909d59b805982888ffa14ae45ce7e", "fusion_lon": 0.0}, {"is_reserved": 0, "type": "electric_scooter", "bike_id": "b03d346f7ec4d69d6a37d53ccd7e150d", "lat": 38.92790083333333, "lon": -77.02563566666667, "rental_uris": {"android": "https://dc.lft.to/lastmile_qr_scan", "ios": "https://dc.lft.to/lastmile_qr_scan"}, "is_disabled": 0, "fusion_lat": 0.0, "name": "b03d346f7ec4d69d6a37d53ccd7e150d", "fusion_lon": 0.0}, {"is_reserved": 0, "type": "electric_bike", "bike_id": "a23ac41b04423ccf3f1be3514a55e15c", "lat": 38.973450166666666, "lon": -76.9959535, "rental_uris": {"android": "https://dc.lft.to/lastmile_qr_scan", "ios": "https://dc.lft.to/lastmile_qr_scan"}, "is_disabled": 0, "fusion_lat": 0.0, "name": "a23ac41b04423ccf3f1be3514a55e15c", "fusion_lon": 0.0}, {"is_reserved": 0, "type": "electric_scooter", "bike_id": "c5f8527f7420c10ea4376d61ad09e073", "lat": 38.91389483333333, "lon": -77.04600016666667, "rental_uris": {"android": "https://dc.lft.to/lastmile_qr_scan", "ios": "https://dc.lft.to/lastmile_qr_scan"}, "is_disabled": 0, "fusion_lat": 0.0, "name": "c5f8527f7420c10ea4376d61ad09e073", "fusion_lon": 0.0}, {"is_reserved": 0, "type": "electric_scooter", "bike_id": "05423c7563c03484dc3073acfc30d646", "lat": 38.895200333333335, "lon": -77.02200033333334, "rental_uris": {"android": "https://dc.lft.to/lastmile_qr_scan", "ios": "https://dc.lft.to/lastmile_qr_scan"}, "is_disabled": 0, "fusion_lat": 0.0, "name": "05423c7563c03484dc3073acfc30d646", "fusion_lon": 0.0}, {"is_reserved": 0, "type": "electric_scooter", "bike_id": "22c35f506b4b224727ed185a891fc7af", "lat": 38.895051333333335, "lon": -76.934773, "rental_uris": {"android": "https://dc.lft.to/lastmile_qr_scan", "ios": "https://dc.lft.to/lastmile_qr_scan"}, "is_disabled": 0, "fusion_lat": 0.0, "name": "22c35f506b4b224727ed185a891fc7af", "fusion_lon": 0.0}, {"is_reserved": 0, "type": "electric_scooter", "bike_id": "98c3433e221461d7e4bc7a29e67f64dc", "lat": 38.93173016666667, "lon": -77.02814483333333, "rental_uris": {"android": "https://dc.lft.to/lastmile_qr_scan", "ios": "https://dc.lft.to/lastmile_qr_scan"}, "is_disabled": 0, "fusion_lat": 0.0, "name": "98c3433e221461d7e4bc7a29e67f64dc", "fusion_lon": 0.0}, {"is_reserved": 0, "type": "electric_scooter", "bike_id": "e1754df34d9663bdd44d4728455575eb", "lat": 38.9024955, "lon": -77.0167655, "rental_uris": {"android": "https://dc.lft.to/lastmile_qr_scan", "ios": "https://dc.lft.to/lastmile_qr_scan"}, "is_disabled": 0, "fusion_lat": 0.0, "name": "e1754df34d9663bdd44d4728455575eb", "fusion_lon": 0.0}, {"is_reserved": 0, "type": "electric_scooter", "bike_id": "54f5e869eb256e5a9050003f1bf4d25c", "lat": 38.898346333333336, "lon": -77.027903, "rental_uris": {"android": "https://dc.lft.to/lastmile_qr_scan", "ios": "https://dc.lft.to/lastmile_qr_scan"}, "is_disabled": 0, "fusion_lat": 0.0, "name": "54f5e869eb256e5a9050003f1bf4d25c", "fusion_lon": 0.0}, {"is_reserved": 0, "type": "electric_scooter", "bike_id": "a67233012b019cd87ea2443a4aaeeda2", "lat": 38.87388883333333, "lon": -77.00134233333333, "rental_uris": {"android": "https://dc.lft.to/lastmile_qr_scan", "ios": "https://dc.lft.to/lastmile_qr_scan"}, "is_disabled": 0, "fusion_lat": 0.0, "name": "a67233012b019cd87ea2443a4aaeeda2", "fusion_lon": 0.0}, {"is_reserved": 0, "type": "electric_scooter", "bike_id": "7f32301f99c5d3e7e702e5f291ea5ad1", "lat": 38.92839566666667, "lon": -77.00604733333333, "rental_uris": {"android": "https://dc.lft.to/lastmile_qr_scan", "ios": "https://dc.lft.to/lastmile_qr_scan"}, "is_disabled": 0, "fusion_lat": 0.0, "name": "7f32301f99c5d3e7e702e5f291ea5ad1", "fusion_lon": 0.0}, {"is_reserved": 0, "type": "electric_scooter", "bike_id": "8e622fb49477b744cce2e195c724a192", "lat": 38.90162316666667, "lon": -77.0258785, "rental_uris": {"android": "https://dc.lft.to/lastmile_qr_scan", "ios": "https://dc.lft.to/lastmile_qr_scan"}, "is_disabled": 0, "fusion_lat": 0.0, "name": "8e622fb49477b744cce2e195c724a192", "fusion_lon": 0.0}, {"is_reserved": 0, "type": "electric_scooter", "bike_id": "0be158908164378321e43d3a54fd7316", "lat": 38.900204333333335, "lon": -76.993517, "rental_uris": {"android": "https://dc.lft.to/lastmile_qr_scan", "ios": "https://dc.lft.to/lastmile_qr_scan"}, "is_disabled": 0, "fusion_lat": 0.0, "name": "0be158908164378321e43d3a54fd7316", "fusion_lon": 0.0}, {"is_reserved": 0, "type": "electric_scooter", "bike_id": "c0b5c9c14af06b963fe3917439705e08", "lat": 38.900248166666664, "lon": -77.03209016666666, "rental_uris": {"android": "https://dc.lft.to/lastmile_qr_scan", "ios": "https://dc.lft.to/lastmile_qr_scan"}, "is_disabled": 0, "fusion_lat": 0.0, "name": "c0b5c9c14af06b963fe3917439705e08", "fusion_lon": 0.0}, {"is_reserved": 0, "type": "electric_scooter", "bike_id": "9e8115de0c538497bc0f462df2d86543", "lat": 38.885130833333335, "lon": -76.99679533333334, "rental_uris": {"android": "https://dc.lft.to/lastmile_qr_scan", "ios": "https://dc.lft.to/lastmile_qr_scan"}, "is_disabled": 0, "fusion_lat": 0.0, "name": "9e8115de0c538497bc0f462df2d86543", "fusion_lon": 0.0}, {"is_reserved": 0, "type": "electric_bike", "bike_id": "e3ef0c1fa32537e5355c85147b677397", "lat": 38.91302683333333, "lon": -77.08292633333333, "rental_uris": {"android": "https://dc.lft.to/lastmile_qr_scan", "ios": "https://dc.lft.to/lastmile_qr_scan"}, "is_disabled": 0, "fusion_lat": 0.0, "name": "e3ef0c1fa32537e5355c85147b677397", "fusion_lon": 0.0}, {"is_reserved": 0, "type": "electric_scooter", "bike_id": "5e6ab6c1a4986818fc74b7542ce66501", "lat": 38.92884033333333, "lon": -77.03281533333333, "rental_uris": {"android": "https://dc.lft.to/lastmile_qr_scan", "ios": "https://dc.lft.to/lastmile_qr_scan"}, "is_disabled": 0, "fusion_lat": 0.0, "name": "5e6ab6c1a4986818fc74b7542ce66501", "fusion_lon": 0.0}, {"is_reserved": 0, "type": "electric_scooter", "bike_id": "0d1b1c55e12097c43a98609c06f5a8db", "lat": 38.92636733333333, "lon": -77.0353925, "rental_uris": {"android": "https://dc.lft.to/lastmile_qr_scan", "ios": "https://dc.lft.to/lastmile_qr_scan"}, "is_disabled": 0, "fusion_lat": 0.0, "name": "0d1b1c55e12097c43a98609c06f5a8db", "fusion_lon": 0.0}, {"is_reserved": 0, "type": "electric_scooter", "bike_id": "eb084b20042b6565de8caa8b32d914d4", "lat": 38.93535216666667, "lon": -77.02356566666667, "rental_uris": {"android": "https://dc.lft.to/lastmile_qr_scan", "ios": "https://dc.lft.to/lastmile_qr_scan"}, "is_disabled": 0, "fusion_lat": 0.0, "name": "eb084b20042b6565de8caa8b32d914d4", "fusion_lon": 0.0}, {"is_reserved": 0, "type": "electric_scooter", "bike_id": "8e694865c210b60cf6c7d4314ee8edc7", "lat": 38.901617, "lon": -77.03238233333333, "rental_uris": {"android": "https://dc.lft.to/lastmile_qr_scan", "ios": "https://dc.lft.to/lastmile_qr_scan"}, "is_disabled": 0, "fusion_lat": 0.0, "name": "8e694865c210b60cf6c7d4314ee8edc7", "fusion_lon": 0.0}, {"is_reserved": 0, "type": "electric_scooter", "bike_id": "3894ab807e7f14ba5390a980c4900462", "lat": 38.91710033333333, "lon": -77.0321695, "rental_uris": {"android": "https://dc.lft.to/lastmile_qr_scan", "ios": "https://dc.lft.to/lastmile_qr_scan"}, "is_disabled": 0, "fusion_lat": 0.0, "name": "3894ab807e7f14ba5390a980c4900462", "fusion_lon": 0.0}, {"is_reserved": 0, "type": "electric_scooter", "bike_id": "0d76760cb7a716c9e881d906bdb2131a", "lat": 38.90974716666667, "lon": -77.03188733333333, "rental_uris": {"android": "https://dc.lft.to/lastmile_qr_scan", "ios": "https://dc.lft.to/lastmile_qr_scan"}, "is_disabled": 0, "fusion_lat": 0.0, "name": "0d76760cb7a716c9e881d906bdb2131a", "fusion_lon": 0.0}, {"is_reserved": 0, "type": "electric_scooter", "bike_id": "18ac79ebe046d36d5bc1058562e4c821", "lat": 38.92045616666667, "lon": -77.04185416666667, "rental_uris": {"android": "https://dc.lft.to/lastmile_qr_scan", "ios": "https://dc.lft.to/lastmile_qr_scan"}, "is_disabled": 0, "fusion_lat": 0.0, "name": "18ac79ebe046d36d5bc1058562e4c821", "fusion_lon": 0.0}, {"is_reserved": 0, "type": "electric_scooter", "bike_id": "58a9542cb5cd15ea2a5ebb8ff06f8148", "lat": 38.9822555, "lon": -77.02643216666667, "rental_uris": {"android": "https://dc.lft.to/lastmile_qr_scan", "ios": "https://dc.lft.to/lastmile_qr_scan"}, "is_disabled": 0, "fusion_lat": 0.0, "name": "58a9542cb5cd15ea2a5ebb8ff06f8148", "fusion_lon": 0.0}, {"is_reserved": 0, "type": "electric_bike", "bike_id": "7ddf997baa70fe728a194c4649a12d83", "lat": 38.83938966666667, "lon": -77.0790255, "rental_uris": {"android": "https://dc.lft.to/lastmile_qr_scan", "ios": "https://dc.lft.to/lastmile_qr_scan"}, "is_disabled": 0, "fusion_lat": 0.0, "name": "7ddf997baa70fe728a194c4649a12d83", "fusion_lon": 0.0}, {"is_reserved": 0, "type": "electric_scooter", "bike_id": "fc5dab63dfaaa9f113cba14d79624287", "lat": 38.92605733333333, "lon": -77.02168566666667, "rental_uris": {"android": "https://dc.lft.to/lastmile_qr_scan", "ios": "https://dc.lft.to/lastmile_qr_scan"}, "is_disabled": 0, "fusion_lat": 0.0, "name": "fc5dab63dfaaa9f113cba14d79624287", "fusion_lon": 0.0}, {"is_reserved": 0, "type": "electric_scooter", "bike_id": "5f28e6037391b5d7a892c69fc4419a42", "lat": 38.91360983333333, "lon": -77.01995333333333, "rental_uris": {"android": "https://dc.lft.to/lastmile_qr_scan", "ios": "https://dc.lft.to/lastmile_qr_scan"}, "is_disabled": 0, "fusion_lat": 0.0, "name": "5f28e6037391b5d7a892c69fc4419a42", "fusion_lon": 0.0}, {"is_reserved": 0, "type": "electric_scooter", "bike_id": "50e1aedeef417e8e2605e4042c53f527", "lat": 38.883002833333336, "lon": -77.02378983333334, "rental_uris": {"android": "https://dc.lft.to/lastmile_qr_scan", "ios": "https://dc.lft.to/lastmile_qr_scan"}, "is_disabled": 0, "fusion_lat": 0.0, "name": "50e1aedeef417e8e2605e4042c53f527", "fusion_lon": 0.0}, {"is_reserved": 0, "type": "electric_scooter", "bike_id": "ad8523c1c37057d35dabe3e7c706d9b0", "lat": 38.917078833333335, "lon": -77.04183183333333, "rental_uris": {"android": "https://dc.lft.to/lastmile_qr_scan", "ios": "https://dc.lft.to/lastmile_qr_scan"}, "is_disabled": 0, "fusion_lat": 0.0, "name": "ad8523c1c37057d35dabe3e7c706d9b0", "fusion_lon": 0.0}, {"is_reserved": 0, "type": "electric_scooter", "bike_id": "91a704f465512b29a3906636e46a4c6e", "lat": 38.92415366666667, "lon": -77.020115, "rental_uris": {"android": "https://dc.lft.to/lastmile_qr_scan", "ios": "https://dc.lft.to/lastmile_qr_scan"}, "is_disabled": 0, "fusion_lat": 0.0, "name": "91a704f465512b29a3906636e46a4c6e", "fusion_lon": 0.0}, {"is_reserved": 0, "type": "electric_bike", "bike_id": "fd6bbfa2a657f54d96c4464641bdedbd", "lat": 38.920774, "lon": -76.99586383333333, "rental_uris": {"android": "https://dc.lft.to/lastmile_qr_scan", "ios": "https://dc.lft.to/lastmile_qr_scan"}, "is_disabled": 0, "fusion_lat": 0.0, "name": "fd6bbfa2a657f54d96c4464641bdedbd", "fusion_lon": 0.0}, {"is_reserved": 0, "type": "electric_scooter", "bike_id": "d07fccf405689f11caa633e36fe04184", "lat": 38.91631783333333, "lon": -77.04619966666667, "rental_uris": {"android": "https://dc.lft.to/lastmile_qr_scan", "ios": "https://dc.lft.to/lastmile_qr_scan"}, "is_disabled": 0, "fusion_lat": 0.0, "name": "d07fccf405689f11caa633e36fe04184", "fusion_lon": 0.0}, {"is_reserved": 0, "type": "electric_scooter", "bike_id": "1f83f1afa6625dc76e8ec1a1efe0a496", "lat": 38.91759483333333, "lon": -77.0044935, "rental_uris": {"android": "https://dc.lft.to/lastmile_qr_scan", "ios": "https://dc.lft.to/lastmile_qr_scan"}, "is_disabled": 0, "fusion_lat": 0.0, "name": "1f83f1afa6625dc76e8ec1a1efe0a496", "fusion_lon": 0.0}, {"is_reserved": 0, "type": "electric_bike", "bike_id": "c3bec837190e644860af37b59ab1f896", "lat": 38.91708633333333, "lon": -77.05724483333333, "rental_uris": {"android": "https://dc.lft.to/lastmile_qr_scan", "ios": "https://dc.lft.to/lastmile_qr_scan"}, "is_disabled": 0, "fusion_lat": 0.0, "name": "c3bec837190e644860af37b59ab1f896", "fusion_lon": 0.0}, {"is_reserved": 0, "type": "electric_scooter", "bike_id": "38247bba2830529e7c34ce466d3c3e62", "lat": 38.90195583333333, "lon": -77.02365283333333, "rental_uris": {"android": "https://dc.lft.to/lastmile_qr_scan", "ios": "https://dc.lft.to/lastmile_qr_scan"}, "is_disabled": 0, "fusion_lat": 0.0, "name": "38247bba2830529e7c34ce466d3c3e62", "fusion_lon": 0.0}, {"is_reserved": 0, "type": "electric_scooter", "bike_id": "62dbf4e265a014c629f0fe26be3df67c", "lat": 38.918037166666664, "lon": -77.03441266666667, "rental_uris": {"android": "https://dc.lft.to/lastmile_qr_scan", "ios": "https://dc.lft.to/lastmile_qr_scan"}, "is_disabled": 0, "fusion_lat": 0.0, "name": "62dbf4e265a014c629f0fe26be3df67c", "fusion_lon": 0.0}, {"is_reserved": 0, "type": "electric_scooter", "bike_id": "81f36caba066ca9442a11d4184669c16", "lat": 38.8753305, "lon": -77.00551933333334, "rental_uris": {"android": "https://dc.lft.to/lastmile_qr_scan", "ios": "https://dc.lft.to/lastmile_qr_scan"}, "is_disabled": 0, "fusion_lat": 0.0, "name": "81f36caba066ca9442a11d4184669c16", "fusion_lon": 0.0}, {"is_reserved": 0, "type": "electric_scooter", "bike_id": "05f3714b0fc6c6c751ce67d052428ec9", "lat": 38.9395725, "lon": -77.02757733333333, "rental_uris": {"android": "https://dc.lft.to/lastmile_qr_scan", "ios": "https://dc.lft.to/lastmile_qr_scan"}, "is_disabled": 0, "fusion_lat": 0.0, "name": "05f3714b0fc6c6c751ce67d052428ec9", "fusion_lon": 0.0}, {"is_reserved": 0, "type": "electric_bike", "bike_id": "cf4c1dea4f952f5d5be9dd1eb0a741fa", "lat": 38.92320483333334, "lon": -77.04772933333334, "rental_uris": {"android": "https://dc.lft.to/lastmile_qr_scan", "ios": "https://dc.lft.to/lastmile_qr_scan"}, "is_disabled": 0, "fusion_lat": 0.0, "name": "cf4c1dea4f952f5d5be9dd1eb0a741fa", "fusion_lon": 0.0}, {"is_reserved": 0, "type": "electric_scooter", "bike_id": "cf53c0512745ceda5987d2c1a3222e41", "lat": 38.908908833333335, "lon": -77.00280833333333, "rental_uris": {"android": "https://dc.lft.to/lastmile_qr_scan", "ios": "https://dc.lft.to/lastmile_qr_scan"}, "is_disabled": 0, "fusion_lat": 0.0, "name": "cf53c0512745ceda5987d2c1a3222e41", "fusion_lon": 0.0}, {"is_reserved": 0, "type": "electric_scooter", "bike_id": "c13528a8189a31b864779945232abb39", "lat": 38.92331816666667, "lon": -77.04383816666666, "rental_uris": {"android": "https://dc.lft.to/lastmile_qr_scan", "ios": "https://dc.lft.to/lastmile_qr_scan"}, "is_disabled": 0, "fusion_lat": 0.0, "name": "c13528a8189a31b864779945232abb39", "fusion_lon": 0.0}, {"is_reserved": 0, "type": "electric_scooter", "bike_id": "3ce35249176928657a50f9e376648a54", "lat": 38.912326, "lon": -77.02692366666666, "rental_uris": {"android": "https://dc.lft.to/lastmile_qr_scan", "ios": "https://dc.lft.to/lastmile_qr_scan"}, "is_disabled": 0, "fusion_lat": 0.0, "name": "3ce35249176928657a50f9e376648a54", "fusion_lon": 0.0}, {"is_reserved": 0, "type": "electric_scooter", "bike_id": "6bc7cbfa8c7429daceaf36d8bda3dbee", "lat": 38.89596383333333, "lon": -76.929836, "rental_uris": {"android": "https://dc.lft.to/lastmile_qr_scan", "ios": "https://dc.lft.to/lastmile_qr_scan"}, "is_disabled": 0, "fusion_lat": 0.0, "name": "6bc7cbfa8c7429daceaf36d8bda3dbee", "fusion_lon": 0.0}, {"is_reserved": 0, "type": "electric_scooter", "bike_id": "6bfccaee205b5caf513bf2853a6c76b8", "lat": 38.89854966666667, "lon": -77.02217366666666, "rental_uris": {"android": "https://dc.lft.to/lastmile_qr_scan", "ios": "https://dc.lft.to/lastmile_qr_scan"}, "is_disabled": 0, "fusion_lat": 0.0, "name": "6bfccaee205b5caf513bf2853a6c76b8", "fusion_lon": 0.0}, {"is_reserved": 0, "type": "electric_bike", "bike_id": "b3454e3b3e68384938d94bd1a2d2702e", "lat": 38.949057833333335, "lon": -77.0242125, "rental_uris": {"android": "https://dc.lft.to/lastmile_qr_scan", "ios": "https://dc.lft.to/lastmile_qr_scan"}, "is_disabled": 0, "fusion_lat": 0.0, "name": "b3454e3b3e68384938d94bd1a2d2702e", "fusion_lon": 0.0}, {"is_reserved": 0, "type": "electric_scooter", "bike_id": "700b38b46b0b538e91557f9d4e36404f", "lat": 38.91559516666667, "lon": -77.02117916666667, "rental_uris": {"android": "https://dc.lft.to/lastmile_qr_scan", "ios": "https://dc.lft.to/lastmile_qr_scan"}, "is_disabled": 0, "fusion_lat": 0.0, "name": "700b38b46b0b538e91557f9d4e36404f", "fusion_lon": 0.0}, {"is_reserved": 0, "type": "electric_scooter", "bike_id": "1c993cafc03634311abb95d1c16141e7", "lat": 38.931856, "lon": -77.02354966666667, "rental_uris": {"android": "https://dc.lft.to/lastmile_qr_scan", "ios": "https://dc.lft.to/lastmile_qr_scan"}, "is_disabled": 0, "fusion_lat": 0.0, "name": "1c993cafc03634311abb95d1c16141e7", "fusion_lon": 0.0}, {"is_reserved": 0, "type": "electric_scooter", "bike_id": "d5820735ae1f0a934135bc1ed3e588e9", "lat": 38.897183166666665, "lon": -77.00798483333334, "rental_uris": {"android": "https://dc.lft.to/lastmile_qr_scan", "ios": "https://dc.lft.to/lastmile_qr_scan"}, "is_disabled": 0, "fusion_lat": 0.0, "name": "d5820735ae1f0a934135bc1ed3e588e9", "fusion_lon": 0.0}, {"is_reserved": 0, "type": "electric_scooter", "bike_id": "4e3eabc505675d8372217af22935ea01", "lat": 38.892561, "lon": -76.94131583333333, "rental_uris": {"android": "https://dc.lft.to/lastmile_qr_scan", "ios": "https://dc.lft.to/lastmile_qr_scan"}, "is_disabled": 0, "fusion_lat": 0.0, "name": "4e3eabc505675d8372217af22935ea01", "fusion_lon": 0.0}, {"is_reserved": 0, "type": "electric_scooter", "bike_id": "3ec578790107ca764ea83cd6c475fc8f", "lat": 38.94455883333333, "lon": -77.02805566666666, "rental_uris": {"android": "https://dc.lft.to/lastmile_qr_scan", "ios": "https://dc.lft.to/lastmile_qr_scan"}, "is_disabled": 0, "fusion_lat": 0.0, "name": "3ec578790107ca764ea83cd6c475fc8f", "fusion_lon": 0.0}, {"is_reserved": 0, "type": "electric_bike", "bike_id": "105d29f992707ffe2fa90781114ee336", "lat": 38.824315666666664, "lon": -77.12037266666667, "rental_uris": {"android": "https://dc.lft.to/lastmile_qr_scan", "ios": "https://dc.lft.to/lastmile_qr_scan"}, "is_disabled": 0, "fusion_lat": 0.0, "name": "105d29f992707ffe2fa90781114ee336", "fusion_lon": 0.0}, {"is_reserved": 0, "type": "electric_scooter", "bike_id": "6d976dd8abb2b1df0242673f4caff450", "lat": 38.907348999999996, "lon": -77.00703416666667, "rental_uris": {"android": "https://dc.lft.to/lastmile_qr_scan", "ios": "https://dc.lft.to/lastmile_qr_scan"}, "is_disabled": 0, "fusion_lat": 0.0, "name": "6d976dd8abb2b1df0242673f4caff450", "fusion_lon": 0.0}, {"is_reserved": 0, "type": "electric_scooter", "bike_id": "58d89898e5a02fba9d263b2cd1e3b592", "lat": 38.898328666666664, "lon": -77.02940116666667, "rental_uris": {"android": "https://dc.lft.to/lastmile_qr_scan", "ios": "https://dc.lft.to/lastmile_qr_scan"}, "is_disabled": 0, "fusion_lat": 0.0, "name": "58d89898e5a02fba9d263b2cd1e3b592", "fusion_lon": 0.0}, {"is_reserved": 0, "type": "electric_bike", "bike_id": "3b72580db36d4d914c04ce21f7fc75c9", "lat": 38.8303085, "lon": -77.0837705, "rental_uris": {"android": "https://dc.lft.to/lastmile_qr_scan", "ios": "https://dc.lft.to/lastmile_qr_scan"}, "is_disabled": 0, "fusion_lat": 0.0, "name": "3b72580db36d4d914c04ce21f7fc75c9", "fusion_lon": 0.0}, {"is_reserved": 0, "type": "electric_scooter", "bike_id": "ea069e34eefe58885ccb911061551615", "lat": 38.9289435, "lon": -77.0249715, "rental_uris": {"android": "https://dc.lft.to/lastmile_qr_scan", "ios": "https://dc.lft.to/lastmile_qr_scan"}, "is_disabled": 0, "fusion_lat": 0.0, "name": "ea069e34eefe58885ccb911061551615", "fusion_lon": 0.0}, {"is_reserved": 0, "type": "electric_scooter", "bike_id": "ccada679218697d9598f4b1e00a878f4", "lat": 38.914074166666666, "lon": -77.0322795, "rental_uris": {"android": "https://dc.lft.to/lastmile_qr_scan", "ios": "https://dc.lft.to/lastmile_qr_scan"}, "is_disabled": 0, "fusion_lat": 0.0, "name": "ccada679218697d9598f4b1e00a878f4", "fusion_lon": 0.0}, {"is_reserved": 0, "type": "electric_scooter", "bike_id": "7cb5cc05fc7156b8423f69d08e59a3aa", "lat": 38.912067, "lon": -77.03211633333333, "rental_uris": {"android": "https://dc.lft.to/lastmile_qr_scan", "ios": "https://dc.lft.to/lastmile_qr_scan"}, "is_disabled": 0, "fusion_lat": 0.0, "name": "7cb5cc05fc7156b8423f69d08e59a3aa", "fusion_lon": 0.0}, {"is_reserved": 0, "type": "electric_scooter", "bike_id": "0f19eafcbb3af59915de2cd79aeb9d04", "lat": 38.897287166666665, "lon": -76.9951275, "rental_uris": {"android": "https://dc.lft.to/lastmile_qr_scan", "ios": "https://dc.lft.to/lastmile_qr_scan"}, "is_disabled": 0, "fusion_lat": 0.0, "name": "0f19eafcbb3af59915de2cd79aeb9d04", "fusion_lon": 0.0}, {"is_reserved": 0, "type": "electric_scooter", "bike_id": "46c3d18ae754ea94465a3d3f89e07419", "lat": 38.916926833333335, "lon": -77.02275116666667, "rental_uris": {"android": "https://dc.lft.to/lastmile_qr_scan", "ios": "https://dc.lft.to/lastmile_qr_scan"}, "is_disabled": 0, "fusion_lat": 0.0, "name": "46c3d18ae754ea94465a3d3f89e07419", "fusion_lon": 0.0}, {"is_reserved": 0, "type": "electric_bike", "bike_id": "4ef12cbf835c55705624813532fc43f3", "lat": 38.85784866666667, "lon": -76.98768183333334, "rental_uris": {"android": "https://dc.lft.to/lastmile_qr_scan", "ios": "https://dc.lft.to/lastmile_qr_scan"}, "is_disabled": 0, "fusion_lat": 0.0, "name": "4ef12cbf835c55705624813532fc43f3", "fusion_lon": 0.0}, {"is_reserved": 0, "type": "electric_scooter", "bike_id": "5131a5ac409645063eccb92bbc680136", "lat": 38.900674, "lon": -77.05436483333334, "rental_uris": {"android": "https://dc.lft.to/lastmile_qr_scan", "ios": "https://dc.lft.to/lastmile_qr_scan"}, "is_disabled": 0, "fusion_lat": 0.0, "name": "5131a5ac409645063eccb92bbc680136", "fusion_lon": 0.0}, {"is_reserved": 0, "type": "electric_scooter", "bike_id": "2eb95e975f284ea3b16beed3a97e61e3", "lat": 38.9056265, "lon": -77.00599783333334, "rental_uris": {"android": "https://dc.lft.to/lastmile_qr_scan", "ios": "https://dc.lft.to/lastmile_qr_scan"}, "is_disabled": 0, "fusion_lat": 0.0, "name": "2eb95e975f284ea3b16beed3a97e61e3", "fusion_lon": 0.0}, {"is_reserved": 0, "type": "electric_scooter", "bike_id": "b8c228e84bcf32ef235295538b0a15d0", "lat": 38.88631483333333, "lon": -76.99612633333334, "rental_uris": {"android": "https://dc.lft.to/lastmile_qr_scan", "ios": "https://dc.lft.to/lastmile_qr_scan"}, "is_disabled": 0, "fusion_lat": 0.0, "name": "b8c228e84bcf32ef235295538b0a15d0", "fusion_lon": 0.0}, {"is_reserved": 0, "type": "electric_scooter", "bike_id": "a24fc28cff9ef2bac28cbfd6e69d7ad3", "lat": 38.927694833333334, "lon": -77.02791483333333, "rental_uris": {"android": "https://dc.lft.to/lastmile_qr_scan", "ios": "https://dc.lft.to/lastmile_qr_scan"}, "is_disabled": 0, "fusion_lat": 0.0, "name": "a24fc28cff9ef2bac28cbfd6e69d7ad3", "fusion_lon": 0.0}, {"is_reserved": 0, "type": "electric_scooter", "bike_id": "7d45acd9e9afa239206c8975fc4b3489", "lat": 38.938112833333335, "lon": -77.0665345, "rental_uris": {"android": "https://dc.lft.to/lastmile_qr_scan", "ios": "https://dc.lft.to/lastmile_qr_scan"}, "is_disabled": 0, "fusion_lat": 0.0, "name": "7d45acd9e9afa239206c8975fc4b3489", "fusion_lon": 0.0}, {"is_reserved": 0, "type": "electric_scooter", "bike_id": "b49f46a52d4e902047117229cc9416a3", "lat": 38.8944185, "lon": -76.98085083333334, "rental_uris": {"android": "https://dc.lft.to/lastmile_qr_scan", "ios": "https://dc.lft.to/lastmile_qr_scan"}, "is_disabled": 0, "fusion_lat": 0.0, "name": "b49f46a52d4e902047117229cc9416a3", "fusion_lon": 0.0}, {"is_reserved": 0, "type": "electric_scooter", "bike_id": "62ccd3d265c362120eb56e7531f72dca", "lat": 38.905424833333335, "lon": -77.00692483333333, "rental_uris": {"android": "https://dc.lft.to/lastmile_qr_scan", "ios": "https://dc.lft.to/lastmile_qr_scan"}, "is_disabled": 0, "fusion_lat": 0.0, "name": "62ccd3d265c362120eb56e7531f72dca", "fusion_lon": 0.0}, {"is_reserved": 0, "type": "electric_scooter", "bike_id": "1e08774931a20c8f08f0b3ef8ff33a75", "lat": 38.91027733333333, "lon": -77.0343695, "rental_uris": {"android": "https://dc.lft.to/lastmile_qr_scan", "ios": "https://dc.lft.to/lastmile_qr_scan"}, "is_disabled": 0, "fusion_lat": 0.0, "name": "1e08774931a20c8f08f0b3ef8ff33a75", "fusion_lon": 0.0}, {"is_reserved": 0, "type": "electric_scooter", "bike_id": "009c006106c6c877c6f3bdd2791567f4", "lat": 38.931764666666666, "lon": -77.02811866666667, "rental_uris": {"android": "https://dc.lft.to/lastmile_qr_scan", "ios": "https://dc.lft.to/lastmile_qr_scan"}, "is_disabled": 0, "fusion_lat": 0.0, "name": "009c006106c6c877c6f3bdd2791567f4", "fusion_lon": 0.0}, {"is_reserved": 0, "type": "electric_scooter", "bike_id": "18060ab379c7e100df72d780bd11d6c0", "lat": 38.907836833333334, "lon": -76.998561, "rental_uris": {"android": "https://dc.lft.to/lastmile_qr_scan", "ios": "https://dc.lft.to/lastmile_qr_scan"}, "is_disabled": 0, "fusion_lat": 0.0, "name": "18060ab379c7e100df72d780bd11d6c0", "fusion_lon": 0.0}, {"is_reserved": 0, "type": "electric_scooter", "bike_id": "bcd1c15614ce7f364246a74af5bff75a", "lat": 38.887728333333335, "lon": -76.93262266666666, "rental_uris": {"android": "https://dc.lft.to/lastmile_qr_scan", "ios": "https://dc.lft.to/lastmile_qr_scan"}, "is_disabled": 0, "fusion_lat": 0.0, "name": "bcd1c15614ce7f364246a74af5bff75a", "fusion_lon": 0.0}, {"is_reserved": 0, "type": "electric_scooter", "bike_id": "2df9dd1df7c074f5c913094f54ee81ca", "lat": 38.91403483333333, "lon": -77.03317966666667, "rental_uris": {"android": "https://dc.lft.to/lastmile_qr_scan", "ios": "https://dc.lft.to/lastmile_qr_scan"}, "is_disabled": 0, "fusion_lat": 0.0, "name": "2df9dd1df7c074f5c913094f54ee81ca", "fusion_lon": 0.0}, {"is_reserved": 0, "type": "electric_scooter", "bike_id": "3931387e2f6db9ee3147cee6720d066a", "lat": 38.942447333333334, "lon": -77.035834, "rental_uris": {"android": "https://dc.lft.to/lastmile_qr_scan", "ios": "https://dc.lft.to/lastmile_qr_scan"}, "is_disabled": 0, "fusion_lat": 0.0, "name": "3931387e2f6db9ee3147cee6720d066a", "fusion_lon": 0.0}, {"is_reserved": 0, "type": "electric_scooter", "bike_id": "20e43e302f8d026a88235fed601f585b", "lat": 38.9312225, "lon": -77.02081733333333, "rental_uris": {"android": "https://dc.lft.to/lastmile_qr_scan", "ios": "https://dc.lft.to/lastmile_qr_scan"}, "is_disabled": 0, "fusion_lat": 0.0, "name": "20e43e302f8d026a88235fed601f585b", "fusion_lon": 0.0}, {"is_reserved": 0, "type": "electric_scooter", "bike_id": "9a5b268fef8646c8cfcecb54facb4614", "lat": 38.91996683333333, "lon": -77.0289155, "rental_uris": {"android": "https://dc.lft.to/lastmile_qr_scan", "ios": "https://dc.lft.to/lastmile_qr_scan"}, "is_disabled": 0, "fusion_lat": 0.0, "name": "9a5b268fef8646c8cfcecb54facb4614", "fusion_lon": 0.0}, {"is_reserved": 0, "type": "electric_scooter", "bike_id": "bc5c47789fa2a02f1937d81e272fd564", "lat": 38.910045333333336, "lon": -77.04010466666666, "rental_uris": {"android": "https://dc.lft.to/lastmile_qr_scan", "ios": "https://dc.lft.to/lastmile_qr_scan"}, "is_disabled": 0, "fusion_lat": 0.0, "name": "bc5c47789fa2a02f1937d81e272fd564", "fusion_lon": 0.0}, {"is_reserved": 0, "type": "electric_scooter", "bike_id": "e7f3e28ad9a30370f20bbc2e2465f785", "lat": 38.883984166666664, "lon": -76.9898235, "rental_uris": {"android": "https://dc.lft.to/lastmile_qr_scan", "ios": "https://dc.lft.to/lastmile_qr_scan"}, "is_disabled": 0, "fusion_lat": 0.0, "name": "e7f3e28ad9a30370f20bbc2e2465f785", "fusion_lon": 0.0}, {"is_reserved": 0, "type": "electric_scooter", "bike_id": "6c719b439f192c75defc0a86248344a7", "lat": 38.929513666666665, "lon": -77.0233045, "rental_uris": {"android": "https://dc.lft.to/lastmile_qr_scan", "ios": "https://dc.lft.to/lastmile_qr_scan"}, "is_disabled": 0, "fusion_lat": 0.0, "name": "6c719b439f192c75defc0a86248344a7", "fusion_lon": 0.0}, {"is_reserved": 0, "type": "electric_scooter", "bike_id": "ae17ffda7a1fa6ecbc64e49e7d1b2fa9", "lat": 38.940765166666665, "lon": -77.03331216666666, "rental_uris": {"android": "https://dc.lft.to/lastmile_qr_scan", "ios": "https://dc.lft.to/lastmile_qr_scan"}, "is_disabled": 0, "fusion_lat": 0.0, "name": "ae17ffda7a1fa6ecbc64e49e7d1b2fa9", "fusion_lon": 0.0}, {"is_reserved": 0, "type": "electric_scooter", "bike_id": "613378e4fcdd0d0ebd0028020820bcae", "lat": 38.91380683333333, "lon": -77.000663, "rental_uris": {"android": "https://dc.lft.to/lastmile_qr_scan", "ios": "https://dc.lft.to/lastmile_qr_scan"}, "is_disabled": 0, "fusion_lat": 0.0, "name": "613378e4fcdd0d0ebd0028020820bcae", "fusion_lon": 0.0}, {"is_reserved": 0, "type": "electric_scooter", "bike_id": "6ee5e84d6adf129547978ae4349838e5", "lat": 38.905482666666664, "lon": -77.06275316666667, "rental_uris": {"android": "https://dc.lft.to/lastmile_qr_scan", "ios": "https://dc.lft.to/lastmile_qr_scan"}, "is_disabled": 0, "fusion_lat": 0.0, "name": "6ee5e84d6adf129547978ae4349838e5", "fusion_lon": 0.0}, {"is_reserved": 0, "type": "electric_scooter", "bike_id": "73b0c9121eb9b34fd5fd38209a92bbb2", "lat": 38.87763116666667, "lon": -76.99422316666667, "rental_uris": {"android": "https://dc.lft.to/lastmile_qr_scan", "ios": "https://dc.lft.to/lastmile_qr_scan"}, "is_disabled": 0, "fusion_lat": 0.0, "name": "73b0c9121eb9b34fd5fd38209a92bbb2", "fusion_lon": 0.0}, {"is_reserved": 0, "type": "electric_bike", "bike_id": "5fa4d2d5f30e35caed1e31d512b19793", "lat": 38.924439, "lon": -76.99661483333334, "rental_uris": {"android": "https://dc.lft.to/lastmile_qr_scan", "ios": "https://dc.lft.to/lastmile_qr_scan"}, "is_disabled": 0, "fusion_lat": 0.0, "name": "5fa4d2d5f30e35caed1e31d512b19793", "fusion_lon": 0.0}, {"is_reserved": 0, "type": "electric_scooter", "bike_id": "3f26d22dc79eefea33f8fa5717c4a00a", "lat": 38.8988915, "lon": -76.93177866666667, "rental_uris": {"android": "https://dc.lft.to/lastmile_qr_scan", "ios": "https://dc.lft.to/lastmile_qr_scan"}, "is_disabled": 0, "fusion_lat": 0.0, "name": "3f26d22dc79eefea33f8fa5717c4a00a", "fusion_lon": 0.0}, {"is_reserved": 0, "type": "electric_scooter", "bike_id": "8e0ce769c4624fb15cfbf582f0df60cc", "lat": 38.9006725, "lon": -76.9274255, "rental_uris": {"android": "https://dc.lft.to/lastmile_qr_scan", "ios": "https://dc.lft.to/lastmile_qr_scan"}, "is_disabled": 0, "fusion_lat": 0.0, "name": "8e0ce769c4624fb15cfbf582f0df60cc", "fusion_lon": 0.0}, {"is_reserved": 0, "type": "electric_scooter", "bike_id": "955c1be7babec6735671813a372e62da", "lat": 38.929443, "lon": -77.00409966666666, "rental_uris": {"android": "https://dc.lft.to/lastmile_qr_scan", "ios": "https://dc.lft.to/lastmile_qr_scan"}, "is_disabled": 0, "fusion_lat": 0.0, "name": "955c1be7babec6735671813a372e62da", "fusion_lon": 0.0}, {"is_reserved": 0, "type": "electric_bike", "bike_id": "3e32bd2e6a920483b2d1fedf34394fd5", "lat": 38.943178, "lon": -76.99013283333333, "rental_uris": {"android": "https://dc.lft.to/lastmile_qr_scan", "ios": "https://dc.lft.to/lastmile_qr_scan"}, "is_disabled": 0, "fusion_lat": 0.0, "name": "3e32bd2e6a920483b2d1fedf34394fd5", "fusion_lon": 0.0}, {"is_reserved": 0, "type": "electric_scooter", "bike_id": "cee114c397ef9e3063e58a70ab912e75", "lat": 38.90588866666667, "lon": -77.03632633333334, "rental_uris": {"android": "https://dc.lft.to/lastmile_qr_scan", "ios": "https://dc.lft.to/lastmile_qr_scan"}, "is_disabled": 0, "fusion_lat": 0.0, "name": "cee114c397ef9e3063e58a70ab912e75", "fusion_lon": 0.0}, {"is_reserved": 0, "type": "electric_scooter", "bike_id": "7ed8a9c15980a142ce3468d23d2e6692", "lat": 38.9043295, "lon": -76.98159116666666, "rental_uris": {"android": "https://dc.lft.to/lastmile_qr_scan", "ios": "https://dc.lft.to/lastmile_qr_scan"}, "is_disabled": 0, "fusion_lat": 0.0, "name": "7ed8a9c15980a142ce3468d23d2e6692", "fusion_lon": 0.0}, {"is_reserved": 0, "type": "electric_scooter", "bike_id": "176a82c90ac43954cc231db7fff53df8", "lat": 38.876136, "lon": -77.00712783333333, "rental_uris": {"android": "https://dc.lft.to/lastmile_qr_scan", "ios": "https://dc.lft.to/lastmile_qr_scan"}, "is_disabled": 0, "fusion_lat": 0.0, "name": "176a82c90ac43954cc231db7fff53df8", "fusion_lon": 0.0}, {"is_reserved": 0, "type": "electric_scooter", "bike_id": "faa94ad601ce1b5f444e1d43d3a67d20", "lat": 38.9141495, "lon": -77.031401, "rental_uris": {"android": "https://dc.lft.to/lastmile_qr_scan", "ios": "https://dc.lft.to/lastmile_qr_scan"}, "is_disabled": 0, "fusion_lat": 0.0, "name": "faa94ad601ce1b5f444e1d43d3a67d20", "fusion_lon": 0.0}, {"is_reserved": 0, "type": "electric_bike", "bike_id": "934b444d8af9c08df1b74aa7be605a29", "lat": 38.87210683333333, "lon": -77.11740266666666, "rental_uris": {"android": "https://dc.lft.to/lastmile_qr_scan", "ios": "https://dc.lft.to/lastmile_qr_scan"}, "is_disabled": 0, "fusion_lat": 0.0, "name": "934b444d8af9c08df1b74aa7be605a29", "fusion_lon": 0.0}, {"is_reserved": 0, "type": "electric_scooter", "bike_id": "2f82299c51985904179f5f5cf0a41c17", "lat": 38.88507283333333, "lon": -77.017843, "rental_uris": {"android": "https://dc.lft.to/lastmile_qr_scan", "ios": "https://dc.lft.to/lastmile_qr_scan"}, "is_disabled": 0, "fusion_lat": 0.0, "name": "2f82299c51985904179f5f5cf0a41c17", "fusion_lon": 0.0}, {"is_reserved": 0, "type": "electric_scooter", "bike_id": "871ce9c61ff964cb74b53318e6bc7c63", "lat": 38.91917433333333, "lon": -77.031233, "rental_uris": {"android": "https://dc.lft.to/lastmile_qr_scan", "ios": "https://dc.lft.to/lastmile_qr_scan"}, "is_disabled": 0, "fusion_lat": 0.0, "name": "871ce9c61ff964cb74b53318e6bc7c63", "fusion_lon": 0.0}, {"is_reserved": 0, "type": "electric_scooter", "bike_id": "bd1b6ec8cc15faab026b865d21dd6311", "lat": 38.91750566666666, "lon": -77.041571, "rental_uris": {"android": "https://dc.lft.to/lastmile_qr_scan", "ios": "https://dc.lft.to/lastmile_qr_scan"}, "is_disabled": 0, "fusion_lat": 0.0, "name": "bd1b6ec8cc15faab026b865d21dd6311", "fusion_lon": 0.0}, {"is_reserved": 0, "type": "electric_bike", "bike_id": "264dbd730adf38b276a2a54b18b33d8b", "lat": 38.856045, "lon": -76.9745775, "rental_uris": {"android": "https://dc.lft.to/lastmile_qr_scan", "ios": "https://dc.lft.to/lastmile_qr_scan"}, "is_disabled": 0, "fusion_lat": 0.0, "name": "264dbd730adf38b276a2a54b18b33d8b", "fusion_lon": 0.0}, {"is_reserved": 0, "type": "electric_scooter", "bike_id": "2a07351c58447ad7764ec9c5bde2cdc3", "lat": 38.919668, "lon": -77.01435216666667, "rental_uris": {"android": "https://dc.lft.to/lastmile_qr_scan", "ios": "https://dc.lft.to/lastmile_qr_scan"}, "is_disabled": 0, "fusion_lat": 0.0, "name": "2a07351c58447ad7764ec9c5bde2cdc3", "fusion_lon": 0.0}, {"is_reserved": 0, "type": "electric_scooter", "bike_id": "687c1fb10b5238756cd7a0aa08d52e44", "lat": 38.90006433333333, "lon": -77.01882366666666, "rental_uris": {"android": "https://dc.lft.to/lastmile_qr_scan", "ios": "https://dc.lft.to/lastmile_qr_scan"}, "is_disabled": 0, "fusion_lat": 0.0, "name": "687c1fb10b5238756cd7a0aa08d52e44", "fusion_lon": 0.0}, {"is_reserved": 0, "type": "electric_bike", "bike_id": "98bbc5cf3868d04c5821eebb175c7a99", "lat": 38.8578785, "lon": -76.98761433333334, "rental_uris": {"android": "https://dc.lft.to/lastmile_qr_scan", "ios": "https://dc.lft.to/lastmile_qr_scan"}, "is_disabled": 0, "fusion_lat": 0.0, "name": "98bbc5cf3868d04c5821eebb175c7a99", "fusion_lon": 0.0}, {"is_reserved": 0, "type": "electric_scooter", "bike_id": "b95d322f2eb2683ebd8ef98181618496", "lat": 38.94798433333333, "lon": -77.02153016666666, "rental_uris": {"android": "https://dc.lft.to/lastmile_qr_scan", "ios": "https://dc.lft.to/lastmile_qr_scan"}, "is_disabled": 0, "fusion_lat": 0.0, "name": "b95d322f2eb2683ebd8ef98181618496", "fusion_lon": 0.0}, {"is_reserved": 0, "type": "electric_scooter", "bike_id": "85828f06cf24c4e251d2f07212e70033", "lat": 38.898655, "lon": -76.97760283333334, "rental_uris": {"android": "https://dc.lft.to/lastmile_qr_scan", "ios": "https://dc.lft.to/lastmile_qr_scan"}, "is_disabled": 0, "fusion_lat": 0.0, "name": "85828f06cf24c4e251d2f07212e70033", "fusion_lon": 0.0}, {"is_reserved": 0, "type": "electric_bike", "bike_id": "f2fa4f61fd193d704c0d809d52ac68fb", "lat": 38.80674966666667, "lon": -77.08758883333333, "rental_uris": {"android": "https://dc.lft.to/lastmile_qr_scan", "ios": "https://dc.lft.to/lastmile_qr_scan"}, "is_disabled": 0, "fusion_lat": 0.0, "name": "f2fa4f61fd193d704c0d809d52ac68fb", "fusion_lon": 0.0}, {"is_reserved": 0, "type": "electric_scooter", "bike_id": "ce4336c5cff9e4056f960ff43cc9a3d4", "lat": 38.917079333333334, "lon": -77.02377583333333, "rental_uris": {"android": "https://dc.lft.to/lastmile_qr_scan", "ios": "https://dc.lft.to/lastmile_qr_scan"}, "is_disabled": 0, "fusion_lat": 0.0, "name": "ce4336c5cff9e4056f960ff43cc9a3d4", "fusion_lon": 0.0}, {"is_reserved": 0, "type": "electric_bike", "bike_id": "724c5f4c60ce604e3cf1808f407e82f9", "lat": 38.972430833333334, "lon": -77.02716616666666, "rental_uris": {"android": "https://dc.lft.to/lastmile_qr_scan", "ios": "https://dc.lft.to/lastmile_qr_scan"}, "is_disabled": 0, "fusion_lat": 0.0, "name": "724c5f4c60ce604e3cf1808f407e82f9", "fusion_lon": 0.0}, {"is_reserved": 0, "type": "electric_scooter", "bike_id": "eab887812ba4aed82b4bba6aada4d056", "lat": 38.89753916666667, "lon": -77.02984566666667, "rental_uris": {"android": "https://dc.lft.to/lastmile_qr_scan", "ios": "https://dc.lft.to/lastmile_qr_scan"}, "is_disabled": 0, "fusion_lat": 0.0, "name": "eab887812ba4aed82b4bba6aada4d056", "fusion_lon": 0.0}, {"is_reserved": 0, "type": "electric_bike", "bike_id": "4e1efe64e3e717692f4f2908f178aae3", "lat": 38.9245165, "lon": -77.019198, "rental_uris": {"android": "https://dc.lft.to/lastmile_qr_scan", "ios": "https://dc.lft.to/lastmile_qr_scan"}, "is_disabled": 0, "fusion_lat": 0.0, "name": "4e1efe64e3e717692f4f2908f178aae3", "fusion_lon": 0.0}, {"is_reserved": 0, "type": "electric_scooter", "bike_id": "8ef07b99cd5960333702ce66094092a8", "lat": 38.91754066666667, "lon": -77.040782, "rental_uris": {"android": "https://dc.lft.to/lastmile_qr_scan", "ios": "https://dc.lft.to/lastmile_qr_scan"}, "is_disabled": 0, "fusion_lat": 0.0, "name": "8ef07b99cd5960333702ce66094092a8", "fusion_lon": 0.0}, {"is_reserved": 0, "type": "electric_bike", "bike_id": "3e20ed1c2375d3d0a525f3a2836d9994", "lat": 38.81336266666667, "lon": -77.05105566666667, "rental_uris": {"android": "https://dc.lft.to/lastmile_qr_scan", "ios": "https://dc.lft.to/lastmile_qr_scan"}, "is_disabled": 0, "fusion_lat": 0.0, "name": "3e20ed1c2375d3d0a525f3a2836d9994", "fusion_lon": 0.0}, {"is_reserved": 0, "type": "electric_scooter", "bike_id": "338b8a2bb12e7499c19dce4ace88f509", "lat": 38.93566833333333, "lon": -77.032999, "rental_uris": {"android": "https://dc.lft.to/lastmile_qr_scan", "ios": "https://dc.lft.to/lastmile_qr_scan"}, "is_disabled": 0, "fusion_lat": 0.0, "name": "338b8a2bb12e7499c19dce4ace88f509", "fusion_lon": 0.0}, {"is_reserved": 0, "type": "electric_scooter", "bike_id": "468066870e51531a1a1ec2e011dbb947", "lat": 38.89458183333333, "lon": -77.02392483333334, "rental_uris": {"android": "https://dc.lft.to/lastmile_qr_scan", "ios": "https://dc.lft.to/lastmile_qr_scan"}, "is_disabled": 0, "fusion_lat": 0.0, "name": "468066870e51531a1a1ec2e011dbb947", "fusion_lon": 0.0}, {"is_reserved": 0, "type": "electric_scooter", "bike_id": "6d3fd9cc3a7dafb924f74c53f410aa21", "lat": 38.91682083333333, "lon": -77.0364085, "rental_uris": {"android": "https://dc.lft.to/lastmile_qr_scan", "ios": "https://dc.lft.to/lastmile_qr_scan"}, "is_disabled": 0, "fusion_lat": 0.0, "name": "6d3fd9cc3a7dafb924f74c53f410aa21", "fusion_lon": 0.0}, {"is_reserved": 0, "type": "electric_scooter", "bike_id": "191d0e373b19a3f18e1cdc72fbf76c6d", "lat": 38.9016045, "lon": -77.05924916666666, "rental_uris": {"android": "https://dc.lft.to/lastmile_qr_scan", "ios": "https://dc.lft.to/lastmile_qr_scan"}, "is_disabled": 0, "fusion_lat": 0.0, "name": "191d0e373b19a3f18e1cdc72fbf76c6d", "fusion_lon": 0.0}, {"is_reserved": 0, "type": "electric_scooter", "bike_id": "b9743ddf6af2c7ff6b41aa922baaa67e", "lat": 38.90361583333333, "lon": -77.0312655, "rental_uris": {"android": "https://dc.lft.to/lastmile_qr_scan", "ios": "https://dc.lft.to/lastmile_qr_scan"}, "is_disabled": 0, "fusion_lat": 0.0, "name": "b9743ddf6af2c7ff6b41aa922baaa67e", "fusion_lon": 0.0}, {"is_reserved": 0, "type": "electric_scooter", "bike_id": "7fb4669c4a160f64b23266fa0bb772f7", "lat": 38.892422, "lon": -77.04896666666667, "rental_uris": {"android": "https://dc.lft.to/lastmile_qr_scan", "ios": "https://dc.lft.to/lastmile_qr_scan"}, "is_disabled": 0, "fusion_lat": 0.0, "name": "7fb4669c4a160f64b23266fa0bb772f7", "fusion_lon": 0.0}, {"is_reserved": 0, "type": "electric_scooter", "bike_id": "c2c4ea5b45577045a7270572499e97ee", "lat": 38.92549983333333, "lon": -76.99954616666666, "rental_uris": {"android": "https://dc.lft.to/lastmile_qr_scan", "ios": "https://dc.lft.to/lastmile_qr_scan"}, "is_disabled": 0, "fusion_lat": 0.0, "name": "c2c4ea5b45577045a7270572499e97ee", "fusion_lon": 0.0}, {"is_reserved": 0, "type": "electric_scooter", "bike_id": "4b6702442530f2d95bfa3e8a4c3ca6ba", "lat": 38.92157316666667, "lon": -77.04218616666667, "rental_uris": {"android": "https://dc.lft.to/lastmile_qr_scan", "ios": "https://dc.lft.to/lastmile_qr_scan"}, "is_disabled": 0, "fusion_lat": 0.0, "name": "4b6702442530f2d95bfa3e8a4c3ca6ba", "fusion_lon": 0.0}, {"is_reserved": 0, "type": "electric_scooter", "bike_id": "ca94b41c1561b4cb31f8de79ac713ee1", "lat": 38.896551333333335, "lon": -77.01196116666667, "rental_uris": {"android": "https://dc.lft.to/lastmile_qr_scan", "ios": "https://dc.lft.to/lastmile_qr_scan"}, "is_disabled": 0, "fusion_lat": 0.0, "name": "ca94b41c1561b4cb31f8de79ac713ee1", "fusion_lon": 0.0}, {"is_reserved": 0, "type": "electric_scooter", "bike_id": "c6c0ff8fb3bbf8cc980017287e8cc023", "lat": 38.873435, "lon": -76.99170933333333, "rental_uris": {"android": "https://dc.lft.to/lastmile_qr_scan", "ios": "https://dc.lft.to/lastmile_qr_scan"}, "is_disabled": 0, "fusion_lat": 0.0, "name": "c6c0ff8fb3bbf8cc980017287e8cc023", "fusion_lon": 0.0}, {"is_reserved": 0, "type": "electric_scooter", "bike_id": "536a50d83ae20a28542bf0182c5a17bb", "lat": 38.869723666666665, "lon": -77.01118916666667, "rental_uris": {"android": "https://dc.lft.to/lastmile_qr_scan", "ios": "https://dc.lft.to/lastmile_qr_scan"}, "is_disabled": 0, "fusion_lat": 0.0, "name": "536a50d83ae20a28542bf0182c5a17bb", "fusion_lon": 0.0}, {"is_reserved": 0, "type": "electric_scooter", "bike_id": "ef7bfa35da0469c5043201c96bdbae6f", "lat": 38.91431033333333, "lon": -77.032117, "rental_uris": {"android": "https://dc.lft.to/lastmile_qr_scan", "ios": "https://dc.lft.to/lastmile_qr_scan"}, "is_disabled": 0, "fusion_lat": 0.0, "name": "ef7bfa35da0469c5043201c96bdbae6f", "fusion_lon": 0.0}, {"is_reserved": 0, "type": "electric_scooter", "bike_id": "e17d62c2e4cc58d782090d6bd8bdb0b5", "lat": 38.90560516666667, "lon": -77.00583683333333, "rental_uris": {"android": "https://dc.lft.to/lastmile_qr_scan", "ios": "https://dc.lft.to/lastmile_qr_scan"}, "is_disabled": 0, "fusion_lat": 0.0, "name": "e17d62c2e4cc58d782090d6bd8bdb0b5", "fusion_lon": 0.0}, {"is_reserved": 0, "type": "electric_scooter", "bike_id": "9f3f02de75a9015fd719878fdfd68384", "lat": 38.9053055, "lon": -77.0567795, "rental_uris": {"android": "https://dc.lft.to/lastmile_qr_scan", "ios": "https://dc.lft.to/lastmile_qr_scan"}, "is_disabled": 0, "fusion_lat": 0.0, "name": "9f3f02de75a9015fd719878fdfd68384", "fusion_lon": 0.0}, {"is_reserved": 0, "type": "electric_scooter", "bike_id": "6111e8c6e72f473d2a6660fb9e97e661", "lat": 38.9170135, "lon": -77.0410715, "rental_uris": {"android": "https://dc.lft.to/lastmile_qr_scan", "ios": "https://dc.lft.to/lastmile_qr_scan"}, "is_disabled": 0, "fusion_lat": 0.0, "name": "6111e8c6e72f473d2a6660fb9e97e661", "fusion_lon": 0.0}, {"is_reserved": 0, "type": "electric_scooter", "bike_id": "62bb90b6b7a6d473879c64d557669779", "lat": 38.911250833333334, "lon": -77.02188866666667, "rental_uris": {"android": "https://dc.lft.to/lastmile_qr_scan", "ios": "https://dc.lft.to/lastmile_qr_scan"}, "is_disabled": 0, "fusion_lat": 0.0, "name": "62bb90b6b7a6d473879c64d557669779", "fusion_lon": 0.0}, {"is_reserved": 0, "type": "electric_scooter", "bike_id": "9787dff67c7255c06d5b20cd968797e6", "lat": 38.91560116666667, "lon": -77.02555483333333, "rental_uris": {"android": "https://dc.lft.to/lastmile_qr_scan", "ios": "https://dc.lft.to/lastmile_qr_scan"}, "is_disabled": 0, "fusion_lat": 0.0, "name": "9787dff67c7255c06d5b20cd968797e6", "fusion_lon": 0.0}, {"is_reserved": 0, "type": "electric_scooter", "bike_id": "81ca5385b9757e60bb1ea199dc6829d0", "lat": 38.88940233333334, "lon": -77.0491655, "rental_uris": {"android": "https://dc.lft.to/lastmile_qr_scan", "ios": "https://dc.lft.to/lastmile_qr_scan"}, "is_disabled": 0, "fusion_lat": 0.0, "name": "81ca5385b9757e60bb1ea199dc6829d0", "fusion_lon": 0.0}, {"is_reserved": 0, "type": "electric_scooter", "bike_id": "7478c4ad268ca78b6255a16b69178bc1", "lat": 38.9201545, "lon": -77.0314285, "rental_uris": {"android": "https://dc.lft.to/lastmile_qr_scan", "ios": "https://dc.lft.to/lastmile_qr_scan"}, "is_disabled": 0, "fusion_lat": 0.0, "name": "7478c4ad268ca78b6255a16b69178bc1", "fusion_lon": 0.0}, {"is_reserved": 0, "type": "electric_scooter", "bike_id": "f69e16edbb2115f16e52f006ec2f2e33", "lat": 38.8922525, "lon": -77.02800433333333, "rental_uris": {"android": "https://dc.lft.to/lastmile_qr_scan", "ios": "https://dc.lft.to/lastmile_qr_scan"}, "is_disabled": 0, "fusion_lat": 0.0, "name": "f69e16edbb2115f16e52f006ec2f2e33", "fusion_lon": 0.0}, {"is_reserved": 0, "type": "electric_scooter", "bike_id": "d139760025e660366da1a93edcc45f43", "lat": 38.916761666666666, "lon": -77.02952633333334, "rental_uris": {"android": "https://dc.lft.to/lastmile_qr_scan", "ios": "https://dc.lft.to/lastmile_qr_scan"}, "is_disabled": 0, "fusion_lat": 0.0, "name": "d139760025e660366da1a93edcc45f43", "fusion_lon": 0.0}, {"is_reserved": 0, "type": "electric_scooter", "bike_id": "0a5b1a812797bd74f031a6a3e14dd650", "lat": 38.86578216666667, "lon": -76.990359, "rental_uris": {"android": "https://dc.lft.to/lastmile_qr_scan", "ios": "https://dc.lft.to/lastmile_qr_scan"}, "is_disabled": 0, "fusion_lat": 0.0, "name": "0a5b1a812797bd74f031a6a3e14dd650", "fusion_lon": 0.0}, {"is_reserved": 0, "type": "electric_scooter", "bike_id": "10186d1bc69fcb31c1c529484e2f1cc8", "lat": 38.915506, "lon": -77.038351, "rental_uris": {"android": "https://dc.lft.to/lastmile_qr_scan", "ios": "https://dc.lft.to/lastmile_qr_scan"}, "is_disabled": 0, "fusion_lat": 0.0, "name": "10186d1bc69fcb31c1c529484e2f1cc8", "fusion_lon": 0.0}, {"is_reserved": 0, "type": "electric_scooter", "bike_id": "84765ea27632240b7fe95d9115eabc86", "lat": 38.92890583333333, "lon": -77.03235516666666, "rental_uris": {"android": "https://dc.lft.to/lastmile_qr_scan", "ios": "https://dc.lft.to/lastmile_qr_scan"}, "is_disabled": 0, "fusion_lat": 0.0, "name": "84765ea27632240b7fe95d9115eabc86", "fusion_lon": 0.0}, {"is_reserved": 0, "type": "electric_scooter", "bike_id": "7df5deace387fb057a82898fa27a5916", "lat": 38.9248755, "lon": -77.02814916666667, "rental_uris": {"android": "https://dc.lft.to/lastmile_qr_scan", "ios": "https://dc.lft.to/lastmile_qr_scan"}, "is_disabled": 0, "fusion_lat": 0.0, "name": "7df5deace387fb057a82898fa27a5916", "fusion_lon": 0.0}, {"is_reserved": 0, "type": "electric_scooter", "bike_id": "93550071a3eef17893fc7fb8a44f8f41", "lat": 38.905327666666665, "lon": -77.06150883333333, "rental_uris": {"android": "https://dc.lft.to/lastmile_qr_scan", "ios": "https://dc.lft.to/lastmile_qr_scan"}, "is_disabled": 0, "fusion_lat": 0.0, "name": "93550071a3eef17893fc7fb8a44f8f41", "fusion_lon": 0.0}, {"is_reserved": 0, "type": "electric_scooter", "bike_id": "28bfd93365b24a8b6773ae355f42124c", "lat": 38.972975166666664, "lon": -77.03627166666666, "rental_uris": {"android": "https://dc.lft.to/lastmile_qr_scan", "ios": "https://dc.lft.to/lastmile_qr_scan"}, "is_disabled": 0, "fusion_lat": 0.0, "name": "28bfd93365b24a8b6773ae355f42124c", "fusion_lon": 0.0}, {"is_reserved": 0, "type": "electric_scooter", "bike_id": "fa07f8fc20ba61f071e573f34c4b5564", "lat": 38.936426, "lon": -77.06003683333333, "rental_uris": {"android": "https://dc.lft.to/lastmile_qr_scan", "ios": "https://dc.lft.to/lastmile_qr_scan"}, "is_disabled": 0, "fusion_lat": 0.0, "name": "fa07f8fc20ba61f071e573f34c4b5564", "fusion_lon": 0.0}, {"is_reserved": 0, "type": "electric_scooter", "bike_id": "ac663502292edcfe1edc6e7c13f5f540", "lat": 38.9037415, "lon": -77.05355783333333, "rental_uris": {"android": "https://dc.lft.to/lastmile_qr_scan", "ios": "https://dc.lft.to/lastmile_qr_scan"}, "is_disabled": 0, "fusion_lat": 0.0, "name": "ac663502292edcfe1edc6e7c13f5f540", "fusion_lon": 0.0}, {"is_reserved": 0, "type": "electric_bike", "bike_id": "487c638af24408efa57a0f6d75c62bca", "lat": 39.094503333333336, "lon": -77.13462666666666, "rental_uris": {"android": "https://dc.lft.to/lastmile_qr_scan", "ios": "https://dc.lft.to/lastmile_qr_scan"}, "is_disabled": 0, "fusion_lat": 0.0, "name": "487c638af24408efa57a0f6d75c62bca", "fusion_lon": 0.0}, {"is_reserved": 0, "type": "electric_scooter", "bike_id": "c85826d4051f2fc9ebf154cc12c5a653", "lat": 38.897124166666664, "lon": -76.99118683333333, "rental_uris": {"android": "https://dc.lft.to/lastmile_qr_scan", "ios": "https://dc.lft.to/lastmile_qr_scan"}, "is_disabled": 0, "fusion_lat": 0.0, "name": "c85826d4051f2fc9ebf154cc12c5a653", "fusion_lon": 0.0}, {"is_reserved": 0, "type": "electric_scooter", "bike_id": "905393b78d2ab3d71e06f202be0344cb", "lat": 38.919270833333336, "lon": -77.01974466666667, "rental_uris": {"android": "https://dc.lft.to/lastmile_qr_scan", "ios": "https://dc.lft.to/lastmile_qr_scan"}, "is_disabled": 0, "fusion_lat": 0.0, "name": "905393b78d2ab3d71e06f202be0344cb", "fusion_lon": 0.0}, {"is_reserved": 0, "type": "electric_scooter", "bike_id": "8cbecdd57b731fa408f95baccedc77d7", "lat": 38.90571033333333, "lon": -77.02816266666666, "rental_uris": {"android": "https://dc.lft.to/lastmile_qr_scan", "ios": "https://dc.lft.to/lastmile_qr_scan"}, "is_disabled": 0, "fusion_lat": 0.0, "name": "8cbecdd57b731fa408f95baccedc77d7", "fusion_lon": 0.0}, {"is_reserved": 0, "type": "electric_scooter", "bike_id": "8dc6ef1335fca8053520b7dda9d6c47a", "lat": 38.927038, "lon": -77.037404, "rental_uris": {"android": "https://dc.lft.to/lastmile_qr_scan", "ios": "https://dc.lft.to/lastmile_qr_scan"}, "is_disabled": 0, "fusion_lat": 0.0, "name": "8dc6ef1335fca8053520b7dda9d6c47a", "fusion_lon": 0.0}, {"is_reserved": 0, "type": "electric_scooter", "bike_id": "077e6ce098e7170f15e8b86b71e52d74", "lat": 38.9237695, "lon": -77.08054816666667, "rental_uris": {"android": "https://dc.lft.to/lastmile_qr_scan", "ios": "https://dc.lft.to/lastmile_qr_scan"}, "is_disabled": 0, "fusion_lat": 0.0, "name": "077e6ce098e7170f15e8b86b71e52d74", "fusion_lon": 0.0}, {"is_reserved": 0, "type": "electric_scooter", "bike_id": "5f29b736c570afc71eb0802f9bab55dc", "lat": 38.895292166666664, "lon": -77.033457, "rental_uris": {"android": "https://dc.lft.to/lastmile_qr_scan", "ios": "https://dc.lft.to/lastmile_qr_scan"}, "is_disabled": 0, "fusion_lat": 0.0, "name": "5f29b736c570afc71eb0802f9bab55dc", "fusion_lon": 0.0}, {"is_reserved": 0, "type": "electric_scooter", "bike_id": "8df6cb0cfa85e2ca3e8f163b992e9a87", "lat": 38.86453683333333, "lon": -76.99126316666667, "rental_uris": {"android": "https://dc.lft.to/lastmile_qr_scan", "ios": "https://dc.lft.to/lastmile_qr_scan"}, "is_disabled": 0, "fusion_lat": 0.0, "name": "8df6cb0cfa85e2ca3e8f163b992e9a87", "fusion_lon": 0.0}, {"is_reserved": 0, "type": "electric_scooter", "bike_id": "8ccfbab92830b9c973c0ae566f711883", "lat": 38.93020633333333, "lon": -77.03786916666667, "rental_uris": {"android": "https://dc.lft.to/lastmile_qr_scan", "ios": "https://dc.lft.to/lastmile_qr_scan"}, "is_disabled": 0, "fusion_lat": 0.0, "name": "8ccfbab92830b9c973c0ae566f711883", "fusion_lon": 0.0}, {"is_reserved": 0, "type": "electric_scooter", "bike_id": "075a02ae8655a3ea92bd8029bb3216f4", "lat": 38.92789466666667, "lon": -77.03589416666667, "rental_uris": {"android": "https://dc.lft.to/lastmile_qr_scan", "ios": "https://dc.lft.to/lastmile_qr_scan"}, "is_disabled": 0, "fusion_lat": 0.0, "name": "075a02ae8655a3ea92bd8029bb3216f4", "fusion_lon": 0.0}, {"is_reserved": 0, "type": "electric_scooter", "bike_id": "c6ee993bdaf602b628246d8359d5858b", "lat": 38.91704983333333, "lon": -77.03898066666666, "rental_uris": {"android": "https://dc.lft.to/lastmile_qr_scan", "ios": "https://dc.lft.to/lastmile_qr_scan"}, "is_disabled": 0, "fusion_lat": 0.0, "name": "c6ee993bdaf602b628246d8359d5858b", "fusion_lon": 0.0}, {"is_reserved": 0, "type": "electric_scooter", "bike_id": "8cc96d9974cc2c25382465b57e65bd81", "lat": 38.91591416666667, "lon": -77.0208385, "rental_uris": {"android": "https://dc.lft.to/lastmile_qr_scan", "ios": "https://dc.lft.to/lastmile_qr_scan"}, "is_disabled": 0, "fusion_lat": 0.0, "name": "8cc96d9974cc2c25382465b57e65bd81", "fusion_lon": 0.0}, {"is_reserved": 0, "type": "electric_scooter", "bike_id": "1af3691d7b6f099350cad2e47c58028f", "lat": 38.9014085, "lon": -77.032114, "rental_uris": {"android": "https://dc.lft.to/lastmile_qr_scan", "ios": "https://dc.lft.to/lastmile_qr_scan"}, "is_disabled": 0, "fusion_lat": 0.0, "name": "1af3691d7b6f099350cad2e47c58028f", "fusion_lon": 0.0}, {"is_reserved": 0, "type": "electric_scooter", "bike_id": "7b25bfdf51f82a6022e7dded676d1f35", "lat": 38.9135085, "lon": -77.0344345, "rental_uris": {"android": "https://dc.lft.to/lastmile_qr_scan", "ios": "https://dc.lft.to/lastmile_qr_scan"}, "is_disabled": 0, "fusion_lat": 0.0, "name": "7b25bfdf51f82a6022e7dded676d1f35", "fusion_lon": 0.0}, {"is_reserved": 0, "type": "electric_scooter", "bike_id": "079806b4bae4efb14a46022b9be215f4", "lat": 38.93195583333333, "lon": -76.99610516666667, "rental_uris": {"android": "https://dc.lft.to/lastmile_qr_scan", "ios": "https://dc.lft.to/lastmile_qr_scan"}, "is_disabled": 0, "fusion_lat": 0.0, "name": "079806b4bae4efb14a46022b9be215f4", "fusion_lon": 0.0}, {"is_reserved": 0, "type": "electric_scooter", "bike_id": "d7e66dc278331975fd0e0359c81e1e08", "lat": 38.89569316666667, "lon": -77.03166933333334, "rental_uris": {"android": "https://dc.lft.to/lastmile_qr_scan", "ios": "https://dc.lft.to/lastmile_qr_scan"}, "is_disabled": 0, "fusion_lat": 0.0, "name": "d7e66dc278331975fd0e0359c81e1e08", "fusion_lon": 0.0}, {"is_reserved": 0, "type": "electric_scooter", "bike_id": "2cf8c0262f8029ee6671edf80a2ea6f2", "lat": 38.9194295, "lon": -77.04182433333334, "rental_uris": {"android": "https://dc.lft.to/lastmile_qr_scan", "ios": "https://dc.lft.to/lastmile_qr_scan"}, "is_disabled": 0, "fusion_lat": 0.0, "name": "2cf8c0262f8029ee6671edf80a2ea6f2", "fusion_lon": 0.0}, {"is_reserved": 0, "type": "electric_scooter", "bike_id": "af2f9087866ef8726066b6d886b3f26e", "lat": 38.93810216666667, "lon": -77.02418166666666, "rental_uris": {"android": "https://dc.lft.to/lastmile_qr_scan", "ios": "https://dc.lft.to/lastmile_qr_scan"}, "is_disabled": 0, "fusion_lat": 0.0, "name": "af2f9087866ef8726066b6d886b3f26e", "fusion_lon": 0.0}, {"is_reserved": 0, "type": "electric_bike", "bike_id": "9098eb4e3edbaefd31c7d76acd522366", "lat": 38.840371, "lon": -76.97624733333333, "rental_uris": {"android": "https://dc.lft.to/lastmile_qr_scan", "ios": "https://dc.lft.to/lastmile_qr_scan"}, "is_disabled": 0, "fusion_lat": 0.0, "name": "9098eb4e3edbaefd31c7d76acd522366", "fusion_lon": 0.0}, {"is_reserved": 0, "type": "electric_scooter", "bike_id": "6beca0e998a39f1d00269ea512579ef9", "lat": 38.935045, "lon": -77.020073, "rental_uris": {"android": "https://dc.lft.to/lastmile_qr_scan", "ios": "https://dc.lft.to/lastmile_qr_scan"}, "is_disabled": 0, "fusion_lat": 0.0, "name": "6beca0e998a39f1d00269ea512579ef9", "fusion_lon": 0.0}, {"is_reserved": 0, "type": "electric_bike", "bike_id": "b4910809b72b7940aef996cfdf413ab3", "lat": 38.83812366666667, "lon": -77.09523, "rental_uris": {"android": "https://dc.lft.to/lastmile_qr_scan", "ios": "https://dc.lft.to/lastmile_qr_scan"}, "is_disabled": 0, "fusion_lat": 0.0, "name": "b4910809b72b7940aef996cfdf413ab3", "fusion_lon": 0.0}, {"is_reserved": 0, "type": "electric_scooter", "bike_id": "6a5339ccb2f170727e0bae6941590481", "lat": 38.87886483333333, "lon": -77.02267133333334, "rental_uris": {"android": "https://dc.lft.to/lastmile_qr_scan", "ios": "https://dc.lft.to/lastmile_qr_scan"}, "is_disabled": 0, "fusion_lat": 0.0, "name": "6a5339ccb2f170727e0bae6941590481", "fusion_lon": 0.0}, {"is_reserved": 0, "type": "electric_scooter", "bike_id": "2ced4567029c2e182ebe082120e2402f", "lat": 38.93659566666667, "lon": -77.05495716666667, "rental_uris": {"android": "https://dc.lft.to/lastmile_qr_scan", "ios": "https://dc.lft.to/lastmile_qr_scan"}, "is_disabled": 0, "fusion_lat": 0.0, "name": "2ced4567029c2e182ebe082120e2402f", "fusion_lon": 0.0}, {"is_reserved": 0, "type": "electric_scooter", "bike_id": "c76ba4ce93fa489d9ccc205f52f6155d", "lat": 38.90149666666667, "lon": -77.032109, "rental_uris": {"android": "https://dc.lft.to/lastmile_qr_scan", "ios": "https://dc.lft.to/lastmile_qr_scan"}, "is_disabled": 0, "fusion_lat": 0.0, "name": "c76ba4ce93fa489d9ccc205f52f6155d", "fusion_lon": 0.0}, {"is_reserved": 0, "type": "electric_scooter", "bike_id": "e0281cb44cc221728ea2c0f2329d8490", "lat": 38.9111095, "lon": -77.04446966666667, "rental_uris": {"android": "https://dc.lft.to/lastmile_qr_scan", "ios": "https://dc.lft.to/lastmile_qr_scan"}, "is_disabled": 0, "fusion_lat": 0.0, "name": "e0281cb44cc221728ea2c0f2329d8490", "fusion_lon": 0.0}, {"is_reserved": 0, "type": "electric_scooter", "bike_id": "699f33b45790dfd177517471866a7c9a", "lat": 38.917396333333336, "lon": -77.01715366666667, "rental_uris": {"android": "https://dc.lft.to/lastmile_qr_scan", "ios": "https://dc.lft.to/lastmile_qr_scan"}, "is_disabled": 0, "fusion_lat": 0.0, "name": "699f33b45790dfd177517471866a7c9a", "fusion_lon": 0.0}, {"is_reserved": 0, "type": "electric_scooter", "bike_id": "90ee938f18e0fca94c582ef631a48756", "lat": 38.88437783333333, "lon": -77.02478433333333, "rental_uris": {"android": "https://dc.lft.to/lastmile_qr_scan", "ios": "https://dc.lft.to/lastmile_qr_scan"}, "is_disabled": 0, "fusion_lat": 0.0, "name": "90ee938f18e0fca94c582ef631a48756", "fusion_lon": 0.0}, {"is_reserved": 0, "type": "electric_scooter", "bike_id": "cf1d98148fd981673e4b307e0e78d014", "lat": 38.90289633333333, "lon": -77.03658766666666, "rental_uris": {"android": "https://dc.lft.to/lastmile_qr_scan", "ios": "https://dc.lft.to/lastmile_qr_scan"}, "is_disabled": 0, "fusion_lat": 0.0, "name": "cf1d98148fd981673e4b307e0e78d014", "fusion_lon": 0.0}, {"is_reserved": 0, "type": "electric_scooter", "bike_id": "32cc494bad91d6a3e42683e8070a37f9", "lat": 38.909600833333336, "lon": -77.02379016666667, "rental_uris": {"android": "https://dc.lft.to/lastmile_qr_scan", "ios": "https://dc.lft.to/lastmile_qr_scan"}, "is_disabled": 0, "fusion_lat": 0.0, "name": "32cc494bad91d6a3e42683e8070a37f9", "fusion_lon": 0.0}, {"is_reserved": 0, "type": "electric_scooter", "bike_id": "30414206f6bd5d650d550985cf36056f", "lat": 38.92741483333333, "lon": -77.053638, "rental_uris": {"android": "https://dc.lft.to/lastmile_qr_scan", "ios": "https://dc.lft.to/lastmile_qr_scan"}, "is_disabled": 0, "fusion_lat": 0.0, "name": "30414206f6bd5d650d550985cf36056f", "fusion_lon": 0.0}, {"is_reserved": 0, "type": "electric_scooter", "bike_id": "a5320eb24561bedef6d1d414b599dace", "lat": 38.87840966666667, "lon": -77.02274516666667, "rental_uris": {"android": "https://dc.lft.to/lastmile_qr_scan", "ios": "https://dc.lft.to/lastmile_qr_scan"}, "is_disabled": 0, "fusion_lat": 0.0, "name": "a5320eb24561bedef6d1d414b599dace", "fusion_lon": 0.0}, {"is_reserved": 0, "type": "electric_scooter", "bike_id": "a27aa42e783bffd5ec869041078c5cf7", "lat": 38.887162000000004, "lon": -76.99613316666667, "rental_uris": {"android": "https://dc.lft.to/lastmile_qr_scan", "ios": "https://dc.lft.to/lastmile_qr_scan"}, "is_disabled": 0, "fusion_lat": 0.0, "name": "a27aa42e783bffd5ec869041078c5cf7", "fusion_lon": 0.0}, {"is_reserved": 0, "type": "electric_scooter", "bike_id": "3ad0312fe6358b21bb154ff61e158b60", "lat": 38.9246465, "lon": -77.039539, "rental_uris": {"android": "https://dc.lft.to/lastmile_qr_scan", "ios": "https://dc.lft.to/lastmile_qr_scan"}, "is_disabled": 0, "fusion_lat": 0.0, "name": "3ad0312fe6358b21bb154ff61e158b60", "fusion_lon": 0.0}, {"is_reserved": 0, "type": "electric_scooter", "bike_id": "71f9a5d52b1f6417bc9167b8d139c4bd", "lat": 38.89905183333333, "lon": -77.02737833333333, "rental_uris": {"android": "https://dc.lft.to/lastmile_qr_scan", "ios": "https://dc.lft.to/lastmile_qr_scan"}, "is_disabled": 0, "fusion_lat": 0.0, "name": "71f9a5d52b1f6417bc9167b8d139c4bd", "fusion_lon": 0.0}, {"is_reserved": 0, "type": "electric_scooter", "bike_id": "a72fd95e7b2959bc3a46b3891d13cb87", "lat": 38.928551, "lon": -77.037331, "rental_uris": {"android": "https://dc.lft.to/lastmile_qr_scan", "ios": "https://dc.lft.to/lastmile_qr_scan"}, "is_disabled": 0, "fusion_lat": 0.0, "name": "a72fd95e7b2959bc3a46b3891d13cb87", "fusion_lon": 0.0}, {"is_reserved": 0, "type": "electric_bike", "bike_id": "1d00a5c16d688f92ee4e26fe1d58d766", "lat": 38.89679616666667, "lon": -77.02191516666667, "rental_uris": {"android": "https://dc.lft.to/lastmile_qr_scan", "ios": "https://dc.lft.to/lastmile_qr_scan"}, "is_disabled": 0, "fusion_lat": 0.0, "name": "1d00a5c16d688f92ee4e26fe1d58d766", "fusion_lon": 0.0}, {"is_reserved": 0, "type": "electric_scooter", "bike_id": "2baf29ed8c13db969a5baf27a3cfaf41", "lat": 38.930793333333334, "lon": -77.0374405, "rental_uris": {"android": "https://dc.lft.to/lastmile_qr_scan", "ios": "https://dc.lft.to/lastmile_qr_scan"}, "is_disabled": 0, "fusion_lat": 0.0, "name": "2baf29ed8c13db969a5baf27a3cfaf41", "fusion_lon": 0.0}, {"is_reserved": 0, "type": "electric_scooter", "bike_id": "0720d4976803af204c042898827b24da", "lat": 38.91633566666667, "lon": -77.04624033333333, "rental_uris": {"android": "https://dc.lft.to/lastmile_qr_scan", "ios": "https://dc.lft.to/lastmile_qr_scan"}, "is_disabled": 0, "fusion_lat": 0.0, "name": "0720d4976803af204c042898827b24da", "fusion_lon": 0.0}, {"is_reserved": 0, "type": "electric_scooter", "bike_id": "4502dee419a6cca7584ca5cdf9601761", "lat": 38.91817566666667, "lon": -77.0400185, "rental_uris": {"android": "https://dc.lft.to/lastmile_qr_scan", "ios": "https://dc.lft.to/lastmile_qr_scan"}, "is_disabled": 0, "fusion_lat": 0.0, "name": "4502dee419a6cca7584ca5cdf9601761", "fusion_lon": 0.0}, {"is_reserved": 0, "type": "electric_scooter", "bike_id": "a120c418a3566a11598c3217e1d3478d", "lat": 38.887870166666666, "lon": -76.97715866666667, "rental_uris": {"android": "https://dc.lft.to/lastmile_qr_scan", "ios": "https://dc.lft.to/lastmile_qr_scan"}, "is_disabled": 0, "fusion_lat": 0.0, "name": "a120c418a3566a11598c3217e1d3478d", "fusion_lon": 0.0}, {"is_reserved": 0, "type": "electric_scooter", "bike_id": "254c962f7164054ac1243de732173c0c", "lat": 38.872967, "lon": -77.015584, "rental_uris": {"android": "https://dc.lft.to/lastmile_qr_scan", "ios": "https://dc.lft.to/lastmile_qr_scan"}, "is_disabled": 0, "fusion_lat": 0.0, "name": "254c962f7164054ac1243de732173c0c", "fusion_lon": 0.0}, {"is_reserved": 0, "type": "electric_scooter", "bike_id": "13eff443ce4c4c3896e951dcaed47746", "lat": 38.9562765, "lon": -77.02782266666667, "rental_uris": {"android": "https://dc.lft.to/lastmile_qr_scan", "ios": "https://dc.lft.to/lastmile_qr_scan"}, "is_disabled": 0, "fusion_lat": 0.0, "name": "13eff443ce4c4c3896e951dcaed47746", "fusion_lon": 0.0}, {"is_reserved": 0, "type": "electric_scooter", "bike_id": "b2b1d660f92bdf0da03dfa6c2d20f55f", "lat": 38.92454633333333, "lon": -77.04401233333333, "rental_uris": {"android": "https://dc.lft.to/lastmile_qr_scan", "ios": "https://dc.lft.to/lastmile_qr_scan"}, "is_disabled": 0, "fusion_lat": 0.0, "name": "b2b1d660f92bdf0da03dfa6c2d20f55f", "fusion_lon": 0.0}, {"is_reserved": 0, "type": "electric_bike", "bike_id": "b0fea67cc2273fae85143f9de0ccc2c0", "lat": 38.908491, "lon": -77.057619, "rental_uris": {"android": "https://dc.lft.to/lastmile_qr_scan", "ios": "https://dc.lft.to/lastmile_qr_scan"}, "is_disabled": 0, "fusion_lat": 0.0, "name": "b0fea67cc2273fae85143f9de0ccc2c0", "fusion_lon": 0.0}, {"is_reserved": 0, "type": "electric_scooter", "bike_id": "9ff70f9ecef044e324ed06113df5080a", "lat": 38.898076, "lon": -77.02950166666666, "rental_uris": {"android": "https://dc.lft.to/lastmile_qr_scan", "ios": "https://dc.lft.to/lastmile_qr_scan"}, "is_disabled": 0, "fusion_lat": 0.0, "name": "9ff70f9ecef044e324ed06113df5080a", "fusion_lon": 0.0}, {"is_reserved": 0, "type": "electric_scooter", "bike_id": "18736da466e9300efc73fa39911175aa", "lat": 38.892255666666664, "lon": -77.043602, "rental_uris": {"android": "https://dc.lft.to/lastmile_qr_scan", "ios": "https://dc.lft.to/lastmile_qr_scan"}, "is_disabled": 0, "fusion_lat": 0.0, "name": "18736da466e9300efc73fa39911175aa", "fusion_lon": 0.0}, {"is_reserved": 0, "type": "electric_bike", "bike_id": "cbf4f222a02df75f20557cfc0cf1710d", "lat": 38.90328783333333, "lon": -77.05214, "rental_uris": {"android": "https://dc.lft.to/lastmile_qr_scan", "ios": "https://dc.lft.to/lastmile_qr_scan"}, "is_disabled": 0, "fusion_lat": 0.0, "name": "cbf4f222a02df75f20557cfc0cf1710d", "fusion_lon": 0.0}, {"is_reserved": 0, "type": "electric_scooter", "bike_id": "b2dd60231aa0ee5786ec2b80e4475d83", "lat": 38.91816083333333, "lon": -77.03304383333334, "rental_uris": {"android": "https://dc.lft.to/lastmile_qr_scan", "ios": "https://dc.lft.to/lastmile_qr_scan"}, "is_disabled": 0, "fusion_lat": 0.0, "name": "b2dd60231aa0ee5786ec2b80e4475d83", "fusion_lon": 0.0}, {"is_reserved": 0, "type": "electric_scooter", "bike_id": "d7573bee777b17f4b6000ab702876cbb", "lat": 38.908727, "lon": -77.023677, "rental_uris": {"android": "https://dc.lft.to/lastmile_qr_scan", "ios": "https://dc.lft.to/lastmile_qr_scan"}, "is_disabled": 0, "fusion_lat": 0.0, "name": "d7573bee777b17f4b6000ab702876cbb", "fusion_lon": 0.0}, {"is_reserved": 0, "type": "electric_scooter", "bike_id": "7d8e7cc2175865be8c45b2a939e4b290", "lat": 38.895044666666664, "lon": -77.00216266666666, "rental_uris": {"android": "https://dc.lft.to/lastmile_qr_scan", "ios": "https://dc.lft.to/lastmile_qr_scan"}, "is_disabled": 0, "fusion_lat": 0.0, "name": "7d8e7cc2175865be8c45b2a939e4b290", "fusion_lon": 0.0}, {"is_reserved": 0, "type": "electric_scooter", "bike_id": "b2ab9e412a740c2b8597960f9b0af9cc", "lat": 38.89962333333333, "lon": -77.01602566666666, "rental_uris": {"android": "https://dc.lft.to/lastmile_qr_scan", "ios": "https://dc.lft.to/lastmile_qr_scan"}, "is_disabled": 0, "fusion_lat": 0.0, "name": "b2ab9e412a740c2b8597960f9b0af9cc", "fusion_lon": 0.0}, {"is_reserved": 0, "type": "electric_scooter", "bike_id": "89683d22272e870c1afee08237cca074", "lat": 38.92853783333333, "lon": -77.0135065, "rental_uris": {"android": "https://dc.lft.to/lastmile_qr_scan", "ios": "https://dc.lft.to/lastmile_qr_scan"}, "is_disabled": 0, "fusion_lat": 0.0, "name": "89683d22272e870c1afee08237cca074", "fusion_lon": 0.0}, {"is_reserved": 0, "type": "electric_scooter", "bike_id": "e9395f56c1da5f0c7b69fe0461d2c696", "lat": 38.9155865, "lon": -77.03118666666667, "rental_uris": {"android": "https://dc.lft.to/lastmile_qr_scan", "ios": "https://dc.lft.to/lastmile_qr_scan"}, "is_disabled": 0, "fusion_lat": 0.0, "name": "e9395f56c1da5f0c7b69fe0461d2c696", "fusion_lon": 0.0}, {"is_reserved": 0, "type": "electric_scooter", "bike_id": "6524ac82385183508b5f4a01e35f05d7", "lat": 38.9168365, "lon": -77.02972283333334, "rental_uris": {"android": "https://dc.lft.to/lastmile_qr_scan", "ios": "https://dc.lft.to/lastmile_qr_scan"}, "is_disabled": 0, "fusion_lat": 0.0, "name": "6524ac82385183508b5f4a01e35f05d7", "fusion_lon": 0.0}, {"is_reserved": 0, "type": "electric_scooter", "bike_id": "89a04423b1c29f430e16d481048661b9", "lat": 38.91637433333333, "lon": -77.03195233333334, "rental_uris": {"android": "https://dc.lft.to/lastmile_qr_scan", "ios": "https://dc.lft.to/lastmile_qr_scan"}, "is_disabled": 0, "fusion_lat": 0.0, "name": "89a04423b1c29f430e16d481048661b9", "fusion_lon": 0.0}, {"is_reserved": 0, "type": "electric_bike", "bike_id": "a424979247dd5457f35c48326e1d9700", "lat": 38.987164666666665, "lon": -76.9458485, "rental_uris": {"android": "https://dc.lft.to/lastmile_qr_scan", "ios": "https://dc.lft.to/lastmile_qr_scan"}, "is_disabled": 0, "fusion_lat": 0.0, "name": "a424979247dd5457f35c48326e1d9700", "fusion_lon": 0.0}, {"is_reserved": 0, "type": "electric_bike", "bike_id": "98e5e7ce6cb3b029575c4c6e97746771", "lat": 38.947967, "lon": -76.94250616666666, "rental_uris": {"android": "https://dc.lft.to/lastmile_qr_scan", "ios": "https://dc.lft.to/lastmile_qr_scan"}, "is_disabled": 0, "fusion_lat": 0.0, "name": "98e5e7ce6cb3b029575c4c6e97746771", "fusion_lon": 0.0}, {"is_reserved": 0, "type": "electric_scooter", "bike_id": "178376a56cc2f09ebfa7227031b86830", "lat": 38.895487, "lon": -76.98336833333333, "rental_uris": {"android": "https://dc.lft.to/lastmile_qr_scan", "ios": "https://dc.lft.to/lastmile_qr_scan"}, "is_disabled": 0, "fusion_lat": 0.0, "name": "178376a56cc2f09ebfa7227031b86830", "fusion_lon": 0.0}, {"is_reserved": 0, "type": "electric_scooter", "bike_id": "29c43ea4006a20967cb31939f5835ca1", "lat": 38.900723, "lon": -77.04844033333333, "rental_uris": {"android": "https://dc.lft.to/lastmile_qr_scan", "ios": "https://dc.lft.to/lastmile_qr_scan"}, "is_disabled": 0, "fusion_lat": 0.0, "name": "29c43ea4006a20967cb31939f5835ca1", "fusion_lon": 0.0}, {"is_reserved": 0, "type": "electric_scooter", "bike_id": "f0b6df30db7359a12edcb69e700bd9cb", "lat": 38.911744166666665, "lon": -77.03187066666666, "rental_uris": {"android": "https://dc.lft.to/lastmile_qr_scan", "ios": "https://dc.lft.to/lastmile_qr_scan"}, "is_disabled": 0, "fusion_lat": 0.0, "name": "f0b6df30db7359a12edcb69e700bd9cb", "fusion_lon": 0.0}, {"is_reserved": 0, "type": "electric_scooter", "bike_id": "3f186795c2f0fcaada94853f893e2c05", "lat": 38.88143733333333, "lon": -77.02706083333334, "rental_uris": {"android": "https://dc.lft.to/lastmile_qr_scan", "ios": "https://dc.lft.to/lastmile_qr_scan"}, "is_disabled": 0, "fusion_lat": 0.0, "name": "3f186795c2f0fcaada94853f893e2c05", "fusion_lon": 0.0}, {"is_reserved": 0, "type": "electric_bike", "bike_id": "5321108f27845f6e02c59bcf255f35ae", "lat": 38.8446555, "lon": -76.931567, "rental_uris": {"android": "https://dc.lft.to/lastmile_qr_scan", "ios": "https://dc.lft.to/lastmile_qr_scan"}, "is_disabled": 0, "fusion_lat": 0.0, "name": "5321108f27845f6e02c59bcf255f35ae", "fusion_lon": 0.0}, {"is_reserved": 0, "type": "electric_scooter", "bike_id": "3e2115b9a4c31986a15f241f1104a770", "lat": 38.923791666666666, "lon": -77.05247066666666, "rental_uris": {"android": "https://dc.lft.to/lastmile_qr_scan", "ios": "https://dc.lft.to/lastmile_qr_scan"}, "is_disabled": 0, "fusion_lat": 0.0, "name": "3e2115b9a4c31986a15f241f1104a770", "fusion_lon": 0.0}, {"is_reserved": 0, "type": "electric_scooter", "bike_id": "b952cc667b21fc9e0e8ccb5c3d2faa46", "lat": 38.91868816666667, "lon": -77.04047266666667, "rental_uris": {"android": "https://dc.lft.to/lastmile_qr_scan", "ios": "https://dc.lft.to/lastmile_qr_scan"}, "is_disabled": 0, "fusion_lat": 0.0, "name": "b952cc667b21fc9e0e8ccb5c3d2faa46", "fusion_lon": 0.0}, {"is_reserved": 0, "type": "electric_bike", "bike_id": "17fc88dcc7c2dbb32d5b8344912e2cf6", "lat": 38.898753, "lon": -77.01952083333333, "rental_uris": {"android": "https://dc.lft.to/lastmile_qr_scan", "ios": "https://dc.lft.to/lastmile_qr_scan"}, "is_disabled": 0, "fusion_lat": 0.0, "name": "17fc88dcc7c2dbb32d5b8344912e2cf6", "fusion_lon": 0.0}, {"is_reserved": 0, "type": "electric_scooter", "bike_id": "a9e70fa0d709f9884994b354c670e312", "lat": 38.896284666666666, "lon": -77.0263075, "rental_uris": {"android": "https://dc.lft.to/lastmile_qr_scan", "ios": "https://dc.lft.to/lastmile_qr_scan"}, "is_disabled": 0, "fusion_lat": 0.0, "name": "a9e70fa0d709f9884994b354c670e312", "fusion_lon": 0.0}, {"is_reserved": 0, "type": "electric_scooter", "bike_id": "c173c7d08c450811b12793c625c151e3", "lat": 38.886939166666664, "lon": -77.02006483333334, "rental_uris": {"android": "https://dc.lft.to/lastmile_qr_scan", "ios": "https://dc.lft.to/lastmile_qr_scan"}, "is_disabled": 0, "fusion_lat": 0.0, "name": "c173c7d08c450811b12793c625c151e3", "fusion_lon": 0.0}, {"is_reserved": 0, "type": "electric_scooter", "bike_id": "2528974dba899e66eb65a7a1cdbcce39", "lat": 38.95959116666667, "lon": -77.072602, "rental_uris": {"android": "https://dc.lft.to/lastmile_qr_scan", "ios": "https://dc.lft.to/lastmile_qr_scan"}, "is_disabled": 0, "fusion_lat": 0.0, "name": "2528974dba899e66eb65a7a1cdbcce39", "fusion_lon": 0.0}, {"is_reserved": 0, "type": "electric_scooter", "bike_id": "10b8e139b835ec0b2964ef383459ffc2", "lat": 38.92488633333333, "lon": -77.02712716666667, "rental_uris": {"android": "https://dc.lft.to/lastmile_qr_scan", "ios": "https://dc.lft.to/lastmile_qr_scan"}, "is_disabled": 0, "fusion_lat": 0.0, "name": "10b8e139b835ec0b2964ef383459ffc2", "fusion_lon": 0.0}, {"is_reserved": 0, "type": "electric_scooter", "bike_id": "f59e7876626622dbe9cd798b79297492", "lat": 38.8953455, "lon": -77.039846, "rental_uris": {"android": "https://dc.lft.to/lastmile_qr_scan", "ios": "https://dc.lft.to/lastmile_qr_scan"}, "is_disabled": 0, "fusion_lat": 0.0, "name": "f59e7876626622dbe9cd798b79297492", "fusion_lon": 0.0}, {"is_reserved": 0, "type": "electric_scooter", "bike_id": "0bdaf351285853464b12f6d22c0b426b", "lat": 38.934181, "lon": -77.02846716666667, "rental_uris": {"android": "https://dc.lft.to/lastmile_qr_scan", "ios": "https://dc.lft.to/lastmile_qr_scan"}, "is_disabled": 0, "fusion_lat": 0.0, "name": "0bdaf351285853464b12f6d22c0b426b", "fusion_lon": 0.0}, {"is_reserved": 0, "type": "electric_scooter", "bike_id": "436984a00160a5e619de7db68b05e3cb", "lat": 38.91782966666667, "lon": -77.02309633333333, "rental_uris": {"android": "https://dc.lft.to/lastmile_qr_scan", "ios": "https://dc.lft.to/lastmile_qr_scan"}, "is_disabled": 0, "fusion_lat": 0.0, "name": "436984a00160a5e619de7db68b05e3cb", "fusion_lon": 0.0}, {"is_reserved": 0, "type": "electric_scooter", "bike_id": "a021d3fe34a89a8da9799f20eade7549", "lat": 38.89657483333333, "lon": -77.03305766666666, "rental_uris": {"android": "https://dc.lft.to/lastmile_qr_scan", "ios": "https://dc.lft.to/lastmile_qr_scan"}, "is_disabled": 0, "fusion_lat": 0.0, "name": "a021d3fe34a89a8da9799f20eade7549", "fusion_lon": 0.0}, {"is_reserved": 0, "type": "electric_scooter", "bike_id": "38f7536291781b87b100aa34fbb5dabc", "lat": 38.921847666666665, "lon": -77.04132533333333, "rental_uris": {"android": "https://dc.lft.to/lastmile_qr_scan", "ios": "https://dc.lft.to/lastmile_qr_scan"}, "is_disabled": 0, "fusion_lat": 0.0, "name": "38f7536291781b87b100aa34fbb5dabc", "fusion_lon": 0.0}, {"is_reserved": 0, "type": "electric_scooter", "bike_id": "3e5b5873548dd2e5265d09249584f4fd", "lat": 38.917176833333336, "lon": -77.02989783333334, "rental_uris": {"android": "https://dc.lft.to/lastmile_qr_scan", "ios": "https://dc.lft.to/lastmile_qr_scan"}, "is_disabled": 0, "fusion_lat": 0.0, "name": "3e5b5873548dd2e5265d09249584f4fd", "fusion_lon": 0.0}, {"is_reserved": 0, "type": "electric_scooter", "bike_id": "4d576a43b7a297869fc40d8e05cd0ec0", "lat": 38.9193285, "lon": -77.04476966666667, "rental_uris": {"android": "https://dc.lft.to/lastmile_qr_scan", "ios": "https://dc.lft.to/lastmile_qr_scan"}, "is_disabled": 0, "fusion_lat": 0.0, "name": "4d576a43b7a297869fc40d8e05cd0ec0", "fusion_lon": 0.0}, {"is_reserved": 0, "type": "electric_scooter", "bike_id": "7ccdbd6c63320cf3f879f2d1c265981b", "lat": 38.881913833333336, "lon": -76.98906666666667, "rental_uris": {"android": "https://dc.lft.to/lastmile_qr_scan", "ios": "https://dc.lft.to/lastmile_qr_scan"}, "is_disabled": 0, "fusion_lat": 0.0, "name": "7ccdbd6c63320cf3f879f2d1c265981b", "fusion_lon": 0.0}, {"is_reserved": 0, "type": "electric_scooter", "bike_id": "3639d815ccbaa3107fa8376856f1779c", "lat": 38.90088216666667, "lon": -77.049687, "rental_uris": {"android": "https://dc.lft.to/lastmile_qr_scan", "ios": "https://dc.lft.to/lastmile_qr_scan"}, "is_disabled": 0, "fusion_lat": 0.0, "name": "3639d815ccbaa3107fa8376856f1779c", "fusion_lon": 0.0}, {"is_reserved": 0, "type": "electric_scooter", "bike_id": "92eb86c8c01b428751b367ad4248e73c", "lat": 38.938599333333336, "lon": -77.0245675, "rental_uris": {"android": "https://dc.lft.to/lastmile_qr_scan", "ios": "https://dc.lft.to/lastmile_qr_scan"}, "is_disabled": 0, "fusion_lat": 0.0, "name": "92eb86c8c01b428751b367ad4248e73c", "fusion_lon": 0.0}, {"is_reserved": 0, "type": "electric_scooter", "bike_id": "31e84c5a9f91bf790c4af25124a674ec", "lat": 38.905544166666665, "lon": -77.0418555, "rental_uris": {"android": "https://dc.lft.to/lastmile_qr_scan", "ios": "https://dc.lft.to/lastmile_qr_scan"}, "is_disabled": 0, "fusion_lat": 0.0, "name": "31e84c5a9f91bf790c4af25124a674ec", "fusion_lon": 0.0}, {"is_reserved": 0, "type": "electric_scooter", "bike_id": "28f4aca5d14e3c140327724aa89f5a63", "lat": 38.9111175, "lon": -77.07351766666666, "rental_uris": {"android": "https://dc.lft.to/lastmile_qr_scan", "ios": "https://dc.lft.to/lastmile_qr_scan"}, "is_disabled": 0, "fusion_lat": 0.0, "name": "28f4aca5d14e3c140327724aa89f5a63", "fusion_lon": 0.0}, {"is_reserved": 0, "type": "electric_scooter", "bike_id": "b024e5e125be9c66e7f6eaf9a88a5b70", "lat": 38.9140895, "lon": -77.031716, "rental_uris": {"android": "https://dc.lft.to/lastmile_qr_scan", "ios": "https://dc.lft.to/lastmile_qr_scan"}, "is_disabled": 0, "fusion_lat": 0.0, "name": "b024e5e125be9c66e7f6eaf9a88a5b70", "fusion_lon": 0.0}, {"is_reserved": 0, "type": "electric_scooter", "bike_id": "da4811288596d1d213e19cdf505e7769", "lat": 38.90024433333333, "lon": -77.02207966666667, "rental_uris": {"android": "https://dc.lft.to/lastmile_qr_scan", "ios": "https://dc.lft.to/lastmile_qr_scan"}, "is_disabled": 0, "fusion_lat": 0.0, "name": "da4811288596d1d213e19cdf505e7769", "fusion_lon": 0.0}, {"is_reserved": 0, "type": "electric_scooter", "bike_id": "a22197cbb0ed5b76949a09b9afd9b3f6", "lat": 38.93873633333333, "lon": -77.03218433333333, "rental_uris": {"android": "https://dc.lft.to/lastmile_qr_scan", "ios": "https://dc.lft.to/lastmile_qr_scan"}, "is_disabled": 0, "fusion_lat": 0.0, "name": "a22197cbb0ed5b76949a09b9afd9b3f6", "fusion_lon": 0.0}, {"is_reserved": 0, "type": "electric_scooter", "bike_id": "47375e06ce8f640d748f2b92d93ac029", "lat": 38.914855, "lon": -77.04162366666667, "rental_uris": {"android": "https://dc.lft.to/lastmile_qr_scan", "ios": "https://dc.lft.to/lastmile_qr_scan"}, "is_disabled": 0, "fusion_lat": 0.0, "name": "47375e06ce8f640d748f2b92d93ac029", "fusion_lon": 0.0}, {"is_reserved": 0, "type": "electric_scooter", "bike_id": "c115963a5690e080d7ffa36e85d7ac54", "lat": 38.92474433333334, "lon": -77.02549866666666, "rental_uris": {"android": "https://dc.lft.to/lastmile_qr_scan", "ios": "https://dc.lft.to/lastmile_qr_scan"}, "is_disabled": 0, "fusion_lat": 0.0, "name": "c115963a5690e080d7ffa36e85d7ac54", "fusion_lon": 0.0}, {"is_reserved": 0, "type": "electric_scooter", "bike_id": "52b280ef14aee0567730046e60ea8a05", "lat": 38.922996499999996, "lon": -77.03015333333333, "rental_uris": {"android": "https://dc.lft.to/lastmile_qr_scan", "ios": "https://dc.lft.to/lastmile_qr_scan"}, "is_disabled": 0, "fusion_lat": 0.0, "name": "52b280ef14aee0567730046e60ea8a05", "fusion_lon": 0.0}, {"is_reserved": 0, "type": "electric_scooter", "bike_id": "18d7fce9b53ed730af126ff372e96574", "lat": 38.91708216666667, "lon": -77.02293616666667, "rental_uris": {"android": "https://dc.lft.to/lastmile_qr_scan", "ios": "https://dc.lft.to/lastmile_qr_scan"}, "is_disabled": 0, "fusion_lat": 0.0, "name": "18d7fce9b53ed730af126ff372e96574", "fusion_lon": 0.0}, {"is_reserved": 0, "type": "electric_scooter", "bike_id": "4d39e19e0a12902201fc9033795a9c7d", "lat": 38.882863, "lon": -76.9948765, "rental_uris": {"android": "https://dc.lft.to/lastmile_qr_scan", "ios": "https://dc.lft.to/lastmile_qr_scan"}, "is_disabled": 0, "fusion_lat": 0.0, "name": "4d39e19e0a12902201fc9033795a9c7d", "fusion_lon": 0.0}, {"is_reserved": 0, "type": "electric_scooter", "bike_id": "61814fcc7a189055d575ceb306be0237", "lat": 38.886676333333334, "lon": -76.936734, "rental_uris": {"android": "https://dc.lft.to/lastmile_qr_scan", "ios": "https://dc.lft.to/lastmile_qr_scan"}, "is_disabled": 0, "fusion_lat": 0.0, "name": "61814fcc7a189055d575ceb306be0237", "fusion_lon": 0.0}, {"is_reserved": 0, "type": "electric_bike", "bike_id": "35c523a1a6506fc1ee93280c11542797", "lat": 38.94537116666667, "lon": -77.34463333333333, "rental_uris": {"android": "https://dc.lft.to/lastmile_qr_scan", "ios": "https://dc.lft.to/lastmile_qr_scan"}, "is_disabled": 0, "fusion_lat": 0.0, "name": "35c523a1a6506fc1ee93280c11542797", "fusion_lon": 0.0}, {"is_reserved": 0, "type": "electric_bike", "bike_id": "0940a8fbd8b5f3a616effd39e9e08eba", "lat": 38.8194215, "lon": -77.00206066666667, "rental_uris": {"android": "https://dc.lft.to/lastmile_qr_scan", "ios": "https://dc.lft.to/lastmile_qr_scan"}, "is_disabled": 0, "fusion_lat": 0.0, "name": "0940a8fbd8b5f3a616effd39e9e08eba", "fusion_lon": 0.0},