{"data": {"bikes": [{"name": "94e6f147e4a14a23801622ad0aa8ec82", "fusion_lat": 0.0, "type": "electric_scooter", "lat": 38.89221916666666, "is_reserved": 0, "is_disabled": 0, "fusion_lon": 0.0, "bike_id": "94e6f147e4a14a23801622ad0aa8ec82", "lon": -77.03982466666666, "rental_uris": {"ios": "https://dc.lft.to/lastmile_qr_scan", "android": "https://dc.lft.to/lastmile_qr_scan"}}, {"name": "2b82b1380cb8b2390785c7467289cf7c", "fusion_lat": 0.0, "type": "electric_scooter", "lat": 38.90254816666667, "is_reserved": 0, "is_disabled": 0, "fusion_lon": 0.0, "bike_id": "2b82b1380cb8b2390785c7467289cf7c", "lon": -77.01752333333333, "rental_uris": {"ios": "https://dc.lft.to/lastmile_qr_scan", "android": "https://dc.lft.to/lastmile_qr_scan"}}, {"name": "1ed5c3475b1cfffd03a1bfa587c31712", "fusion_lat": 0.0, "type": "electric_scooter", "lat": 38.89595516666667, "is_reserved": 0, "is_disabled": 0, "fusion_lon": 0.0, "bike_id": "1ed5c3475b1cfffd03a1bfa587c31712", "lon": -77.04129466666667, "rental_uris": {"ios": "https://dc.lft.to/lastmile_qr_scan", "android": "https://dc.lft.to/lastmile_qr_scan"}}, {"name": "64ebd69d78bc0482f3e7b78deab7132f", "fusion_lat": 0.0, "type": "electric_scooter", "lat": 38.9156635, "is_reserved": 0, "is_disabled": 0, "fusion_lon": 0.0, "bike_id": "64ebd69d78bc0482f3e7b78deab7132f", "lon": -77.03900483333334, "rental_uris": {"ios": "https://dc.lft.to/lastmile_qr_scan", "android": "https://dc.lft.to/lastmile_qr_scan"}}, {"name": "67ecfc8c300079a1c97ebb45bf749141", "fusion_lat": 0.0, "type": "electric_scooter", "lat": 38.89570966666667, "is_reserved": 0, "is_disabled": 0, "fusion_lon": 0.0, "bike_id": "67ecfc8c300079a1c97ebb45bf749141", "lon": -77.01349233333333, "rental_uris": {"ios": "https://dc.lft.to/lastmile_qr_scan", "android": "https://dc.lft.to/lastmile_qr_scan"}}, {"name": "01e2214437d8f6849f3085ec56ffa377", "fusion_lat": 0.0, "type": "electric_scooter", "lat": 38.915638666666666, "is_reserved": 0, "is_disabled": 0, "fusion_lon": 0.0, "bike_id": "01e2214437d8f6849f3085ec56ffa377", "lon": -77.00591533333333, "rental_uris": {"ios": "https://dc.lft.to/lastmile_qr_scan", "android": "https://dc.lft.to/lastmile_qr_scan"}}, {"name": "88a46c5e5a5f4a327e1645adce557b53", "fusion_lat": 0.0, "type": "electric_scooter", "lat": 38.881269, "is_reserved": 0, "is_disabled": 0, "fusion_lon": 0.0, "bike_id": "88a46c5e5a5f4a327e1645adce557b53", "lon": -77.01667066666667, "rental_uris": {"ios": "https://dc.lft.to/lastmile_qr_scan", "android": "https://dc.lft.to/lastmile_qr_scan"}}, {"name": "17b7b85fa886b185f7a044936e203926", "fusion_lat": 0.0, "type": "electric_scooter", "lat": 38.89604383333333, "is_reserved": 0, "is_disabled": 0, "fusion_lon": 0.0, "bike_id": "17b7b85fa886b185f7a044936e203926", "lon": -77.04750933333334, "rental_uris": {"ios": "https://dc.lft.to/lastmile_qr_scan", "android": "https://dc.lft.to/lastmile_qr_scan"}}, {"name": "eed9ebcb3d04b3e7bad51b4e874c8fed", "fusion_lat": 0.0, "type": "electric_bike", "lat": 39.02420716666666, "is_reserved": 0, "is_disabled": 0, "fusion_lon": 0.0, "bike_id": "eed9ebcb3d04b3e7bad51b4e874c8fed", "lon": -77.12504316666667, "rental_uris": {"ios": "https://dc.lft.to/lastmile_qr_scan", "android": "https://dc.lft.to/lastmile_qr_scan"}}, {"name": "b13817e6bf16d8c10c5dd6353512ebcb", "fusion_lat": 0.0, "type": "electric_scooter", "lat": 38.908596333333335, "is_reserved": 0, "is_disabled": 0, "fusion_lon": 0.0, "bike_id": "b13817e6bf16d8c10c5dd6353512ebcb", "lon": -77.04503316666667, "rental_uris": {"ios": "https://dc.lft.to/lastmile_qr_scan", "android": "https://dc.lft.to/lastmile_qr_scan"}}, {"name": "3cb45a9d550f1f30adf3b85216c836dc", "fusion_lat": 0.0, "type": "electric_scooter", "lat": 38.918057833333336, "is_reserved": 0, "is_disabled": 0, "fusion_lon": 0.0, "bike_id": "3cb45a9d550f1f30adf3b85216c836dc", "lon": -77.02488516666666, "rental_uris": {"ios": "https://dc.lft.to/lastmile_qr_scan", "android": "https://dc.lft.to/lastmile_qr_scan"}}, {"name": "6042f6aaa6bc10c9abbd247c7d9549fa", "fusion_lat": 0.0, "type": "electric_scooter", "lat": 38.917209166666666, "is_reserved": 0, "is_disabled": 0, "fusion_lon": 0.0, "bike_id": "6042f6aaa6bc10c9abbd247c7d9549fa", "lon": -77.02887216666667, "rental_uris": {"ios": "https://dc.lft.to/lastmile_qr_scan", "android": "https://dc.lft.to/lastmile_qr_scan"}}, {"name": "e8e5bd605e907d3a40e1e95c5c3e23de", "fusion_lat": 0.0, "type": "electric_scooter", "lat": 38.8949365, "is_reserved": 0, "is_disabled": 0, "fusion_lon": 0.0, "bike_id": "e8e5bd605e907d3a40e1e95c5c3e23de", "lon": -77.01022466666667, "rental_uris": {"ios": "https://dc.lft.to/lastmile_qr_scan", "android": "https://dc.lft.to/lastmile_qr_scan"}}, {"name": "911550fbdc33f3ae06158677e1328313", "fusion_lat": 0.0, "type": "electric_bike", "lat": 38.84431083333333, "is_reserved": 0, "is_disabled": 0, "fusion_lon": 0.0, "bike_id": "911550fbdc33f3ae06158677e1328313", "lon": -77.11263833333334, "rental_uris": {"ios": "https://dc.lft.to/lastmile_qr_scan", "android": "https://dc.lft.to/lastmile_qr_scan"}}, {"name": "266cfcaf4228c7aaf47256fdcee187e3", "fusion_lat": 0.0, "type": "electric_scooter", "lat": 38.904524333333335, "is_reserved": 0, "is_disabled": 0, "fusion_lon": 0.0, "bike_id": "266cfcaf4228c7aaf47256fdcee187e3", "lon": -77.03105266666667, "rental_uris": {"ios": "https://dc.lft.to/lastmile_qr_scan", "android": "https://dc.lft.to/lastmile_qr_scan"}}, {"name": "25001b309fab733a3c4cf7e42bd04b0b", "fusion_lat": 0.0, "type": "electric_scooter", "lat": 38.917126, "is_reserved": 0, "is_disabled": 0, "fusion_lon": 0.0, "bike_id": "25001b309fab733a3c4cf7e42bd04b0b", "lon": -77.03862216666667, "rental_uris": {"ios": "https://dc.lft.to/lastmile_qr_scan", "android": "https://dc.lft.to/lastmile_qr_scan"}}, {"name": "263162fc8434b72ec75ee3beb1c68973", "fusion_lat": 0.0, "type": "electric_bike", "lat": 38.886172, "is_reserved": 0, "is_disabled": 0, "fusion_lon": 0.0, "bike_id": "263162fc8434b72ec75ee3beb1c68973", "lon": -77.10753416666667, "rental_uris": {"ios": "https://dc.lft.to/lastmile_qr_scan", "android": "https://dc.lft.to/lastmile_qr_scan"}}, {"name": "c03b5ffc492c381913c500ff0c856a81", "fusion_lat": 0.0, "type": "electric_scooter", "lat": 38.9084605, "is_reserved": 0, "is_disabled": 0, "fusion_lon": 0.0, "bike_id": "c03b5ffc492c381913c500ff0c856a81", "lon": -77.02595366666667, "rental_uris": {"ios": "https://dc.lft.to/lastmile_qr_scan", "android": "https://dc.lft.to/lastmile_qr_scan"}}, {"name": "e94abd2d95befce624fc8dc1cf995eda", "fusion_lat": 0.0, "type": "electric_bike", "lat": 39.053509, "is_reserved": 0, "is_disabled": 0, "fusion_lon": 0.0, "bike_id": "e94abd2d95befce624fc8dc1cf995eda", "lon": -77.13596383333334, "rental_uris": {"ios": "https://dc.lft.to/lastmile_qr_scan", "android": "https://dc.lft.to/lastmile_qr_scan"}}, {"name": "161347fc5264247aa84fe23f7e0379c3", "fusion_lat": 0.0, "type": "electric_scooter", "lat": 38.86279666666667, "is_reserved": 0, "is_disabled": 0, "fusion_lon": 0.0, "bike_id": "161347fc5264247aa84fe23f7e0379c3", "lon": -76.98716266666666, "rental_uris": {"ios": "https://dc.lft.to/lastmile_qr_scan", "android": "https://dc.lft.to/lastmile_qr_scan"}}, {"name": "2f302e46a2f7cae85172f31548861a71", "fusion_lat": 0.0, "type": "electric_scooter", "lat": 38.9338935, "is_reserved": 0, "is_disabled": 0, "fusion_lon": 0.0, "bike_id": "2f302e46a2f7cae85172f31548861a71", "lon": -77.07383983333334, "rental_uris": {"ios": "https://dc.lft.to/lastmile_qr_scan", "android": "https://dc.lft.to/lastmile_qr_scan"}}, {"name": "7ef1f8daaa66b4925160bd66a348c4ad", "fusion_lat": 0.0, "type": "electric_scooter", "lat": 38.919172333333336, "is_reserved": 0, "is_disabled": 0, "fusion_lon": 0.0, "bike_id": "7ef1f8daaa66b4925160bd66a348c4ad", "lon": -77.036243, "rental_uris": {"ios": "https://dc.lft.to/lastmile_qr_scan", "android": "https://dc.lft.to/lastmile_qr_scan"}}, {"name": "85a28421c129a1c34df80a2019509987", "fusion_lat": 0.0, "type": "electric_bike", "lat": 38.96022333333333, "is_reserved": 0, "is_disabled": 0, "fusion_lon": 0.0, "bike_id": "85a28421c129a1c34df80a2019509987", "lon": -76.99872833333333, "rental_uris": {"ios": "https://dc.lft.to/lastmile_qr_scan", "android": "https://dc.lft.to/lastmile_qr_scan"}}, {"name": "14a813eb953c5a724d4afcbccb7a72a3", "fusion_lat": 0.0, "type": "electric_scooter", "lat": 38.93464616666667, "is_reserved": 0, "is_disabled": 0, "fusion_lon": 0.0, "bike_id": "14a813eb953c5a724d4afcbccb7a72a3", "lon": -77.035249, "rental_uris": {"ios": "https://dc.lft.to/lastmile_qr_scan", "android": "https://dc.lft.to/lastmile_qr_scan"}}, {"name": "9edde72d3a1391ab1c31bde89ac9f266", "fusion_lat": 0.0, "type": "electric_scooter", "lat": 38.92828133333333, "is_reserved": 0, "is_disabled": 0, "fusion_lon": 0.0, "bike_id": "9edde72d3a1391ab1c31bde89ac9f266", "lon": -77.022632, "rental_uris": {"ios": "https://dc.lft.to/lastmile_qr_scan", "android": "https://dc.lft.to/lastmile_qr_scan"}}, {"name": "428caf1f0601a3b5d89f5ebe61879ae8", "fusion_lat": 0.0, "type": "electric_scooter", "lat": 38.92246266666667, "is_reserved": 0, "is_disabled": 0, "fusion_lon": 0.0, "bike_id": "428caf1f0601a3b5d89f5ebe61879ae8", "lon": -77.04711916666666, "rental_uris": {"ios": "https://dc.lft.to/lastmile_qr_scan", "android": "https://dc.lft.to/lastmile_qr_scan"}}, {"name": "d56a2c73068d430ba61bf54e827db281", "fusion_lat": 0.0, "type": "electric_scooter", "lat": 38.9097365, "is_reserved": 0, "is_disabled": 0, "fusion_lon": 0.0, "bike_id": "d56a2c73068d430ba61bf54e827db281", "lon": -77.04876466666667, "rental_uris": {"ios": "https://dc.lft.to/lastmile_qr_scan", "android": "https://dc.lft.to/lastmile_qr_scan"}}, {"name": "785fedbdf171e1422077603330c1f374", "fusion_lat": 0.0, "type": "electric_scooter", "lat": 38.96231916666667, "is_reserved": 0, "is_disabled": 0, "fusion_lon": 0.0, "bike_id": "785fedbdf171e1422077603330c1f374", "lon": -77.02979266666667, "rental_uris": {"ios": "https://dc.lft.to/lastmile_qr_scan", "android": "https://dc.lft.to/lastmile_qr_scan"}}, {"name": "2d790f8aa02dec5d3bebc706e075b352", "fusion_lat": 0.0, "type": "electric_scooter", "lat": 38.882338833333336, "is_reserved": 0, "is_disabled": 0, "fusion_lon": 0.0, "bike_id": "2d790f8aa02dec5d3bebc706e075b352", "lon": -77.02582883333334, "rental_uris": {"ios": "https://dc.lft.to/lastmile_qr_scan", "android": "https://dc.lft.to/lastmile_qr_scan"}}, {"name": "46aef5e67a6e8e67fe04258d35c11272", "fusion_lat": 0.0, "type": "electric_scooter", "lat": 38.9258265, "is_reserved": 0, "is_disabled": 0, "fusion_lon": 0.0, "bike_id": "46aef5e67a6e8e67fe04258d35c11272", "lon": -76.9948975, "rental_uris": {"ios": "https://dc.lft.to/lastmile_qr_scan", "android": "https://dc.lft.to/lastmile_qr_scan"}}, {"name": "6b57be4fca8afba5291cf118aa2e5257", "fusion_lat": 0.0, "type": "electric_scooter", "lat": 38.925519, "is_reserved": 0, "is_disabled": 0, "fusion_lon": 0.0, "bike_id": "6b57be4fca8afba5291cf118aa2e5257", "lon": -77.03224116666667, "rental_uris": {"ios": "https://dc.lft.to/lastmile_qr_scan", "android": "https://dc.lft.to/lastmile_qr_scan"}}, {"name": "40bb338f9ede1563c33760d280d70070", "fusion_lat": 0.0, "type": "electric_scooter", "lat": 38.905725833333335, "is_reserved": 0, "is_disabled": 0, "fusion_lon": 0.0, "bike_id": "40bb338f9ede1563c33760d280d70070", "lon": -77.04885933333334, "rental_uris": {"ios": "https://dc.lft.to/lastmile_qr_scan", "android": "https://dc.lft.to/lastmile_qr_scan"}}, {"name": "ecb1af3b84f7f46abc4c1ce0f11e4482", "fusion_lat": 0.0, "type": "electric_scooter", "lat": 38.91132133333333, "is_reserved": 0, "is_disabled": 0, "fusion_lon": 0.0, "bike_id": "ecb1af3b84f7f46abc4c1ce0f11e4482", "lon": -77.04188133333334, "rental_uris": {"ios": "https://dc.lft.to/lastmile_qr_scan", "android": "https://dc.lft.to/lastmile_qr_scan"}}, {"name": "f9e6f065696f192d7078babcdc65f2de", "fusion_lat": 0.0, "type": "electric_scooter", "lat": 38.861115833333336, "is_reserved": 0, "is_disabled": 0, "fusion_lon": 0.0, "bike_id": "f9e6f065696f192d7078babcdc65f2de", "lon": -76.98890516666667, "rental_uris": {"ios": "https://dc.lft.to/lastmile_qr_scan", "android": "https://dc.lft.to/lastmile_qr_scan"}}, {"name": "ade5e5debdf59184818e3cd6f83de2b8", "fusion_lat": 0.0, "type": "electric_scooter", "lat": 38.93879966666667, "is_reserved": 0, "is_disabled": 0, "fusion_lon": 0.0, "bike_id": "ade5e5debdf59184818e3cd6f83de2b8", "lon": -77.0325565, "rental_uris": {"ios": "https://dc.lft.to/lastmile_qr_scan", "android": "https://dc.lft.to/lastmile_qr_scan"}}, {"name": "0e55f5d35119e6a39c4d56e982881d99", "fusion_lat": 0.0, "type": "electric_scooter", "lat": 38.88033566666667, "is_reserved": 0, "is_disabled": 0, "fusion_lon": 0.0, "bike_id": "0e55f5d35119e6a39c4d56e982881d99", "lon": -77.03082566666667, "rental_uris": {"ios": "https://dc.lft.to/lastmile_qr_scan", "android": "https://dc.lft.to/lastmile_qr_scan"}}, {"name": "75b3c1fec9ac0a83d4fb2d80aa06db1d", "fusion_lat": 0.0, "type": "electric_scooter", "lat": 38.9001875, "is_reserved": 0, "is_disabled": 0, "fusion_lon": 0.0, "bike_id": "75b3c1fec9ac0a83d4fb2d80aa06db1d", "lon": -77.02601533333333, "rental_uris": {"ios": "https://dc.lft.to/lastmile_qr_scan", "android": "https://dc.lft.to/lastmile_qr_scan"}}, {"name": "cdcc5e015df7e929d0375b60ce3a8745", "fusion_lat": 0.0, "type": "electric_bike", "lat": 38.90631466666667, "is_reserved": 0, "is_disabled": 0, "fusion_lon": 0.0, "bike_id": "cdcc5e015df7e929d0375b60ce3a8745", "lon": -76.98614233333333, "rental_uris": {"ios": "https://dc.lft.to/lastmile_qr_scan", "android": "https://dc.lft.to/lastmile_qr_scan"}}, {"name": "e4303b42e66ba997ce7586d6751ff0a9", "fusion_lat": 0.0, "type": "electric_scooter", "lat": 38.91243766666667, "is_reserved": 0, "is_disabled": 0, "fusion_lon": 0.0, "bike_id": "e4303b42e66ba997ce7586d6751ff0a9", "lon": -77.03194366666666, "rental_uris": {"ios": "https://dc.lft.to/lastmile_qr_scan", "android": "https://dc.lft.to/lastmile_qr_scan"}}, {"name": "37b4567c1450848dc958e070bf213bd1", "fusion_lat": 0.0, "type": "electric_scooter", "lat": 38.917019, "is_reserved": 0, "is_disabled": 0, "fusion_lon": 0.0, "bike_id": "37b4567c1450848dc958e070bf213bd1", "lon": -77.0228925, "rental_uris": {"ios": "https://dc.lft.to/lastmile_qr_scan", "android": "https://dc.lft.to/lastmile_qr_scan"}}, {"name": "cf8be7d357241a566ae74c68795b1015", "fusion_lat": 0.0, "type": "electric_scooter", "lat": 38.888234, "is_reserved": 0, "is_disabled": 0, "fusion_lon": 0.0, "bike_id": "cf8be7d357241a566ae74c68795b1015", "lon": -77.04935683333333, "rental_uris": {"ios": "https://dc.lft.to/lastmile_qr_scan", "android": "https://dc.lft.to/lastmile_qr_scan"}}, {"name": "d3548afd92c9dd539e75817d288a38dc", "fusion_lat": 0.0, "type": "electric_bike", "lat": 38.915403833333336, "is_reserved": 0, "is_disabled": 0, "fusion_lon": 0.0, "bike_id": "d3548afd92c9dd539e75817d288a38dc", "lon": -77.0678125, "rental_uris": {"ios": "https://dc.lft.to/lastmile_qr_scan", "android": "https://dc.lft.to/lastmile_qr_scan"}}, {"name": "1f76a7c348a7bea48fb0681574bf1c6e", "fusion_lat": 0.0, "type": "electric_scooter", "lat": 38.910693333333334, "is_reserved": 0, "is_disabled": 0, "fusion_lon": 0.0, "bike_id": "1f76a7c348a7bea48fb0681574bf1c6e", "lon": -77.00851966666667, "rental_uris": {"ios": "https://dc.lft.to/lastmile_qr_scan", "android": "https://dc.lft.to/lastmile_qr_scan"}}, {"name": "cc29458c315e474be645362977a042d1", "fusion_lat": 0.0, "type": "electric_scooter", "lat": 38.92031633333333, "is_reserved": 0, "is_disabled": 0, "fusion_lon": 0.0, "bike_id": "cc29458c315e474be645362977a042d1", "lon": -77.0313275, "rental_uris": {"ios": "https://dc.lft.to/lastmile_qr_scan", "android": "https://dc.lft.to/lastmile_qr_scan"}}, {"name": "ab4716eadae2bf2836857e2568080025", "fusion_lat": 0.0, "type": "electric_bike", "lat": 38.86379316666667, "is_reserved": 0, "is_disabled": 0, "fusion_lon": 0.0, "bike_id": "ab4716eadae2bf2836857e2568080025", "lon": -77.12900633333334, "rental_uris": {"ios": "https://dc.lft.to/lastmile_qr_scan", "android": "https://dc.lft.to/lastmile_qr_scan"}}, {"name": "bb182b5a953ad06b6111a38b6a074ffb", "fusion_lat": 0.0, "type": "electric_bike", "lat": 38.9270255, "is_reserved": 0, "is_disabled": 0, "fusion_lon": 0.0, "bike_id": "bb182b5a953ad06b6111a38b6a074ffb", "lon": -77.02285566666667, "rental_uris": {"ios": "https://dc.lft.to/lastmile_qr_scan", "android": "https://dc.lft.to/lastmile_qr_scan"}}, {"name": "6a72c1b1ce9e79fa665531e54059615b", "fusion_lat": 0.0, "type": "electric_bike", "lat": 38.970921833333335, "is_reserved": 0, "is_disabled": 0, "fusion_lon": 0.0, "bike_id": "6a72c1b1ce9e79fa665531e54059615b", "lon": -77.06967766666666, "rental_uris": {"ios": "https://dc.lft.to/lastmile_qr_scan", "android": "https://dc.lft.to/lastmile_qr_scan"}}, {"name": "4ffc627ef6a040f541ba8e5c936cf0cc", "fusion_lat": 0.0, "type": "electric_scooter", "lat": 38.92636, "is_reserved": 0, "is_disabled": 0, "fusion_lon": 0.0, "bike_id": "4ffc627ef6a040f541ba8e5c936cf0cc", "lon": -77.037865, "rental_uris": {"ios": "https://dc.lft.to/lastmile_qr_scan", "android": "https://dc.lft.to/lastmile_qr_scan"}}, {"name": "de13ba73f1219559693664c09478bc02", "fusion_lat": 0.0, "type": "electric_scooter", "lat": 38.892506833333336, "is_reserved": 0, "is_disabled": 0, "fusion_lon": 0.0, "bike_id": "de13ba73f1219559693664c09478bc02", "lon": -77.0151445, "rental_uris": {"ios": "https://dc.lft.to/lastmile_qr_scan", "android": "https://dc.lft.to/lastmile_qr_scan"}}, {"name": "ec44d4782c4d8fa161e5375e1f8463ba", "fusion_lat": 0.0, "type": "electric_scooter", "lat": 38.9276775, "is_reserved": 0, "is_disabled": 0, "fusion_lon": 0.0, "bike_id": "ec44d4782c4d8fa161e5375e1f8463ba", "lon": -77.0305155, "rental_uris": {"ios": "https://dc.lft.to/lastmile_qr_scan", "android": "https://dc.lft.to/lastmile_qr_scan"}}, {"name": "e4e4ef3598b019123e0b566ecdd55380", "fusion_lat": 0.0, "type": "electric_scooter", "lat": 38.878881, "is_reserved": 0, "is_disabled": 0, "fusion_lon": 0.0, "bike_id": "e4e4ef3598b019123e0b566ecdd55380", "lon": -77.00548083333334, "rental_uris": {"ios": "https://dc.lft.to/lastmile_qr_scan", "android": "https://dc.lft.to/lastmile_qr_scan"}}, {"name": "c2d9990acb804d6ebbd89f2579d35a47", "fusion_lat": 0.0, "type": "electric_scooter", "lat": 38.878013833333334, "is_reserved": 0, "is_disabled": 0, "fusion_lon": 0.0, "bike_id": "c2d9990acb804d6ebbd89f2579d35a47", "lon": -77.0059395, "rental_uris": {"ios": "https://dc.lft.to/lastmile_qr_scan", "android": "https://dc.lft.to/lastmile_qr_scan"}}, {"name": "386ad1bf26f34756e3b20f91c3ebd660", "fusion_lat": 0.0, "type": "electric_scooter", "lat": 38.909071, "is_reserved": 0, "is_disabled": 0, "fusion_lon": 0.0, "bike_id": "386ad1bf26f34756e3b20f91c3ebd660", "lon": -77.02720266666667, "rental_uris": {"ios": "https://dc.lft.to/lastmile_qr_scan", "android": "https://dc.lft.to/lastmile_qr_scan"}}, {"name": "fabfb57f0e68b995e98f052be12bb63f", "fusion_lat": 0.0, "type": "electric_scooter", "lat": 38.922314166666666, "is_reserved": 0, "is_disabled": 0, "fusion_lon": 0.0, "bike_id": "fabfb57f0e68b995e98f052be12bb63f", "lon": -77.04710066666667, "rental_uris": {"ios": "https://dc.lft.to/lastmile_qr_scan", "android": "https://dc.lft.to/lastmile_qr_scan"}}, {"name": "f30d150f7b6060e76653da024780ea80", "fusion_lat": 0.0, "type": "electric_scooter", "lat": 38.93397316666667, "is_reserved": 0, "is_disabled": 0, "fusion_lon": 0.0, "bike_id": "f30d150f7b6060e76653da024780ea80", "lon": -77.035806, "rental_uris": {"ios": "https://dc.lft.to/lastmile_qr_scan", "android": "https://dc.lft.to/lastmile_qr_scan"}}, {"name": "8aca6bf5a4391986ebc8cf29cb5a7e18", "fusion_lat": 0.0, "type": "electric_bike", "lat": 38.845741333333336, "is_reserved": 0, "is_disabled": 0, "fusion_lon": 0.0, "bike_id": "8aca6bf5a4391986ebc8cf29cb5a7e18", "lon": -77.09621183333333, "rental_uris": {"ios": "https://dc.lft.to/lastmile_qr_scan", "android": "https://dc.lft.to/lastmile_qr_scan"}}, {"name": "8b27f9bf352fb7dbaee7a91cc58fb604", "fusion_lat": 0.0, "type": "electric_bike", "lat": 38.973834333333336, "is_reserved": 0, "is_disabled": 0, "fusion_lon": 0.0, "bike_id": "8b27f9bf352fb7dbaee7a91cc58fb604", "lon": -77.06468616666666, "rental_uris": {"ios": "https://dc.lft.to/lastmile_qr_scan", "android": "https://dc.lft.to/lastmile_qr_scan"}}, {"name": "efec1b0631a2e57df38b4a15bbb5f499", "fusion_lat": 0.0, "type": "electric_bike", "lat": 38.99909983333333, "is_reserved": 0, "is_disabled": 0, "fusion_lon": 0.0, "bike_id": "efec1b0631a2e57df38b4a15bbb5f499", "lon": -77.04617766666667, "rental_uris": {"ios": "https://dc.lft.to/lastmile_qr_scan", "android": "https://dc.lft.to/lastmile_qr_scan"}}, {"name": "7d2c8a4cbd80defad4cb68cc54a021b9", "fusion_lat": 0.0, "type": "electric_scooter", "lat": 38.937058, "is_reserved": 0, "is_disabled": 0, "fusion_lon": 0.0, "bike_id": "7d2c8a4cbd80defad4cb68cc54a021b9", "lon": -77.06105116666667, "rental_uris": {"ios": "https://dc.lft.to/lastmile_qr_scan", "android": "https://dc.lft.to/lastmile_qr_scan"}}, {"name": "b525334340e18d688e7a905456ed8cf0", "fusion_lat": 0.0, "type": "electric_scooter", "lat": 38.89604816666667, "is_reserved": 0, "is_disabled": 0, "fusion_lon": 0.0, "bike_id": "b525334340e18d688e7a905456ed8cf0", "lon": -77.026963, "rental_uris": {"ios": "https://dc.lft.to/lastmile_qr_scan", "android": "https://dc.lft.to/lastmile_qr_scan"}}, {"name": "ccbc97ef6d8ba14d55db9baf95d6c148", "fusion_lat": 0.0, "type": "electric_scooter", "lat": 38.9148705, "is_reserved": 0, "is_disabled": 0, "fusion_lon": 0.0, "bike_id": "ccbc97ef6d8ba14d55db9baf95d6c148", "lon": -77.07491216666666, "rental_uris": {"ios": "https://dc.lft.to/lastmile_qr_scan", "android": "https://dc.lft.to/lastmile_qr_scan"}}, {"name": "1a7044fecd6b0812777c7cebc8eb4039", "fusion_lat": 0.0, "type": "electric_scooter", "lat": 38.922252666666665, "is_reserved": 0, "is_disabled": 0, "fusion_lon": 0.0, "bike_id": "1a7044fecd6b0812777c7cebc8eb4039", "lon": -77.02110866666666, "rental_uris": {"ios": "https://dc.lft.to/lastmile_qr_scan", "android": "https://dc.lft.to/lastmile_qr_scan"}}, {"name": "fcb3c6437aa54ddb039ac18abb362e0c", "fusion_lat": 0.0, "type": "electric_scooter", "lat": 38.911813, "is_reserved": 0, "is_disabled": 0, "fusion_lon": 0.0, "bike_id": "fcb3c6437aa54ddb039ac18abb362e0c", "lon": -77.03215933333334, "rental_uris": {"ios": "https://dc.lft.to/lastmile_qr_scan", "android": "https://dc.lft.to/lastmile_qr_scan"}}, {"name": "a4abf74ecc82ceaf61c914d103dfbe8e", "fusion_lat": 0.0, "type": "electric_scooter", "lat": 38.906446833333334, "is_reserved": 0, "is_disabled": 0, "fusion_lon": 0.0, "bike_id": "a4abf74ecc82ceaf61c914d103dfbe8e", "lon": -77.0098495, "rental_uris": {"ios": "https://dc.lft.to/lastmile_qr_scan", "android": "https://dc.lft.to/lastmile_qr_scan"}}, {"name": "f7de296af0e39a5fb50337390a6e7dd7", "fusion_lat": 0.0, "type": "electric_scooter", "lat": 38.91803183333333, "is_reserved": 0, "is_disabled": 0, "fusion_lon": 0.0, "bike_id": "f7de296af0e39a5fb50337390a6e7dd7", "lon": -77.04016533333333, "rental_uris": {"ios": "https://dc.lft.to/lastmile_qr_scan", "android": "https://dc.lft.to/lastmile_qr_scan"}}, {"name": "f7813ebd1590fdf7445b9e2c399ff8ef", "fusion_lat": 0.0, "type": "electric_scooter", "lat": 38.905506, "is_reserved": 0, "is_disabled": 0, "fusion_lon": 0.0, "bike_id": "f7813ebd1590fdf7445b9e2c399ff8ef", "lon": -77.006042, "rental_uris": {"ios": "https://dc.lft.to/lastmile_qr_scan", "android": "https://dc.lft.to/lastmile_qr_scan"}}, {"name": "33290c9ba928241d08fdb8b63056779c", "fusion_lat": 0.0, "type": "electric_scooter", "lat": 38.86145283333333, "is_reserved": 0, "is_disabled": 0, "fusion_lon": 0.0, "bike_id": "33290c9ba928241d08fdb8b63056779c", "lon": -76.96785683333333, "rental_uris": {"ios": "https://dc.lft.to/lastmile_qr_scan", "android": "https://dc.lft.to/lastmile_qr_scan"}}, {"name": "cfd4cb62c8e7bbf50fcb4c93d50846d7", "fusion_lat": 0.0, "type": "electric_scooter", "lat": 38.8922105, "is_reserved": 0, "is_disabled": 0, "fusion_lon": 0.0, "bike_id": "cfd4cb62c8e7bbf50fcb4c93d50846d7", "lon": -77.02229666666666, "rental_uris": {"ios": "https://dc.lft.to/lastmile_qr_scan", "android": "https://dc.lft.to/lastmile_qr_scan"}}, {"name": "10f21432cd1ae3bb0d9d02f679a3c941", "fusion_lat": 0.0, "type": "electric_scooter", "lat": 38.91823133333333, "is_reserved": 0, "is_disabled": 0, "fusion_lon": 0.0, "bike_id": "10f21432cd1ae3bb0d9d02f679a3c941", "lon": -77.0321665, "rental_uris": {"ios": "https://dc.lft.to/lastmile_qr_scan", "android": "https://dc.lft.to/lastmile_qr_scan"}}, {"name": "69fcd5a023a32ac1e1ea1bc8e7bb311f", "fusion_lat": 0.0, "type": "electric_scooter", "lat": 38.905163, "is_reserved": 0, "is_disabled": 0, "fusion_lon": 0.0, "bike_id": "69fcd5a023a32ac1e1ea1bc8e7bb311f", "lon": -77.02948766666667, "rental_uris": {"ios": "https://dc.lft.to/lastmile_qr_scan", "android": "https://dc.lft.to/lastmile_qr_scan"}}, {"name": "d90d4ae9180df5188968e4f701ab0d60", "fusion_lat": 0.0, "type": "electric_scooter", "lat": 38.921466833333334, "is_reserved": 0, "is_disabled": 0, "fusion_lon": 0.0, "bike_id": "d90d4ae9180df5188968e4f701ab0d60", "lon": -77.04500383333334, "rental_uris": {"ios": "https://dc.lft.to/lastmile_qr_scan", "android": "https://dc.lft.to/lastmile_qr_scan"}}, {"name": "9680aae684df892621f2ff73b19deb0f", "fusion_lat": 0.0, "type": "electric_scooter", "lat": 38.923807333333336, "is_reserved": 0, "is_disabled": 0, "fusion_lon": 0.0, "bike_id": "9680aae684df892621f2ff73b19deb0f", "lon": -76.990203, "rental_uris": {"ios": "https://dc.lft.to/lastmile_qr_scan", "android": "https://dc.lft.to/lastmile_qr_scan"}}, {"name": "3f96360e4acdccc04944354c58cffe2c", "fusion_lat": 0.0, "type": "electric_scooter", "lat": 38.92241166666667, "is_reserved": 0, "is_disabled": 0, "fusion_lon": 0.0, "bike_id": "3f96360e4acdccc04944354c58cffe2c", "lon": -77.028023, "rental_uris": {"ios": "https://dc.lft.to/lastmile_qr_scan", "android": "https://dc.lft.to/lastmile_qr_scan"}}, {"name": "e2e0311738536a24a02a925e558991b0", "fusion_lat": 0.0, "type": "electric_scooter", "lat": 38.912635333333334, "is_reserved": 0, "is_disabled": 0, "fusion_lon": 0.0, "bike_id": "e2e0311738536a24a02a925e558991b0", "lon": -77.03867183333334, "rental_uris": {"ios": "https://dc.lft.to/lastmile_qr_scan", "android": "https://dc.lft.to/lastmile_qr_scan"}}, {"name": "81aee05ddce066044b7c9cf92a1fca2d", "fusion_lat": 0.0, "type": "electric_bike", "lat": 38.85248833333333, "is_reserved": 0, "is_disabled": 0, "fusion_lon": 0.0, "bike_id": "81aee05ddce066044b7c9cf92a1fca2d", "lon": -77.11431083333333, "rental_uris": {"ios": "https://dc.lft.to/lastmile_qr_scan", "android": "https://dc.lft.to/lastmile_qr_scan"}}, {"name": "0229454a5bacbc57811416bbfc374171", "fusion_lat": 0.0, "type": "electric_scooter", "lat": 38.917027166666664, "is_reserved": 0, "is_disabled": 0, "fusion_lon": 0.0, "bike_id": "0229454a5bacbc57811416bbfc374171", "lon": -77.0314175, "rental_uris": {"ios": "https://dc.lft.to/lastmile_qr_scan", "android": "https://dc.lft.to/lastmile_qr_scan"}}, {"name": "a0eba92a9b24061828876cc97460f1ef", "fusion_lat": 0.0, "type": "electric_scooter", "lat": 38.88389433333333, "is_reserved": 0, "is_disabled": 0, "fusion_lon": 0.0, "bike_id": "a0eba92a9b24061828876cc97460f1ef", "lon": -76.98553983333333, "rental_uris": {"ios": "https://dc.lft.to/lastmile_qr_scan", "android": "https://dc.lft.to/lastmile_qr_scan"}}, {"name": "6e7890f3d7408ccd06f2ba82d12b8902", "fusion_lat": 0.0, "type": "electric_scooter", "lat": 38.892997333333334, "is_reserved": 0, "is_disabled": 0, "fusion_lon": 0.0, "bike_id": "6e7890f3d7408ccd06f2ba82d12b8902", "lon": -76.939276, "rental_uris": {"ios": "https://dc.lft.to/lastmile_qr_scan", "android": "https://dc.lft.to/lastmile_qr_scan"}}, {"name": "6ced02c5034fc004cf9ce05b5d041dfa", "fusion_lat": 0.0, "type": "electric_scooter", "lat": 38.933363666666665, "is_reserved": 0, "is_disabled": 0, "fusion_lon": 0.0, "bike_id": "6ced02c5034fc004cf9ce05b5d041dfa", "lon": -77.04364933333333, "rental_uris": {"ios": "https://dc.lft.to/lastmile_qr_scan", "android": "https://dc.lft.to/lastmile_qr_scan"}}, {"name": "7c21e029b4a966586a1c262f1c97c46f", "fusion_lat": 0.0, "type": "electric_bike", "lat": 38.8323785, "is_reserved": 0, "is_disabled": 0, "fusion_lon": 0.0, "bike_id": "7c21e029b4a966586a1c262f1c97c46f", "lon": -76.94621416666666, "rental_uris": {"ios": "https://dc.lft.to/lastmile_qr_scan", "android": "https://dc.lft.to/lastmile_qr_scan"}}, {"name": "f3e9688ab9b68c1e27dbdbabefe87466", "fusion_lat": 0.0, "type": "electric_bike", "lat": 38.95267283333333, "is_reserved": 0, "is_disabled": 0, "fusion_lon": 0.0, "bike_id": "f3e9688ab9b68c1e27dbdbabefe87466", "lon": -77.06987633333334, "rental_uris": {"ios": "https://dc.lft.to/lastmile_qr_scan", "android": "https://dc.lft.to/lastmile_qr_scan"}}, {"name": "aad32fe2c05addb6d4f89aacdc430802", "fusion_lat": 0.0, "type": "electric_scooter", "lat": 38.905771333333334, "is_reserved": 0, "is_disabled": 0, "fusion_lon": 0.0, "bike_id": "aad32fe2c05addb6d4f89aacdc430802", "lon": -77.03409733333334, "rental_uris": {"ios": "https://dc.lft.to/lastmile_qr_scan", "android": "https://dc.lft.to/lastmile_qr_scan"}}, {"name": "825d8cc23c6e26966f939b2464b63cda", "fusion_lat": 0.0, "type": "electric_scooter", "lat": 38.918295666666666, "is_reserved": 0, "is_disabled": 0, "fusion_lon": 0.0, "bike_id": "825d8cc23c6e26966f939b2464b63cda", "lon": -77.04007066666667, "rental_uris": {"ios": "https://dc.lft.to/lastmile_qr_scan", "android": "https://dc.lft.to/lastmile_qr_scan"}}, {"name": "6c24f2d2fb3cdbf873428337900fc856", "fusion_lat": 0.0, "type": "electric_scooter", "lat": 38.90910366666667, "is_reserved": 0, "is_disabled": 0, "fusion_lon": 0.0, "bike_id": "6c24f2d2fb3cdbf873428337900fc856", "lon": -77.0344585, "rental_uris": {"ios": "https://dc.lft.to/lastmile_qr_scan", "android": "https://dc.lft.to/lastmile_qr_scan"}}, {"name": "20c3006f47a5ec651229e44b281ba089", "fusion_lat": 0.0, "type": "electric_scooter", "lat": 38.89902283333333, "is_reserved": 0, "is_disabled": 0, "fusion_lon": 0.0, "bike_id": "20c3006f47a5ec651229e44b281ba089", "lon": -77.03928466666666, "rental_uris": {"ios": "https://dc.lft.to/lastmile_qr_scan", "android": "https://dc.lft.to/lastmile_qr_scan"}}, {"name": "21e1e2c9c5e8852cd4bbd7456ab30dd2", "fusion_lat": 0.0, "type": "electric_bike", "lat": 38.92878616666667, "is_reserved": 0, "is_disabled": 0, "fusion_lon": 0.0, "bike_id": "21e1e2c9c5e8852cd4bbd7456ab30dd2", "lon": -77.0426225, "rental_uris": {"ios": "https://dc.lft.to/lastmile_qr_scan", "android": "https://dc.lft.to/lastmile_qr_scan"}}, {"name": "07ff8335082b2d54a2bc86ebd3cf5c76", "fusion_lat": 0.0, "type": "electric_scooter", "lat": 38.939663333333336, "is_reserved": 0, "is_disabled": 0, "fusion_lon": 0.0, "bike_id": "07ff8335082b2d54a2bc86ebd3cf5c76", "lon": -77.02751033333334, "rental_uris": {"ios": "https://dc.lft.to/lastmile_qr_scan", "android": "https://dc.lft.to/lastmile_qr_scan"}}, {"name": "aba2bc295944c18f571109929b0442c7", "fusion_lat": 0.0, "type": "electric_scooter", "lat": 38.92601366666667, "is_reserved": 0, "is_disabled": 0, "fusion_lon": 0.0, "bike_id": "aba2bc295944c18f571109929b0442c7", "lon": -77.02492833333334, "rental_uris": {"ios": "https://dc.lft.to/lastmile_qr_scan", "android": "https://dc.lft.to/lastmile_qr_scan"}}, {"name": "82e5e5ee5aa40d60701df0d993acc73d", "fusion_lat": 0.0, "type": "electric_scooter", "lat": 38.86372333333333, "is_reserved": 0, "is_disabled": 0, "fusion_lon": 0.0, "bike_id": "82e5e5ee5aa40d60701df0d993acc73d", "lon": -77.01363883333333, "rental_uris": {"ios": "https://dc.lft.to/lastmile_qr_scan", "android": "https://dc.lft.to/lastmile_qr_scan"}}, {"name": "d0d11a1743bd8dc5ce6c83fb3ea426c9", "fusion_lat": 0.0, "type": "electric_scooter", "lat": 38.93603683333333, "is_reserved": 0, "is_disabled": 0, "fusion_lon": 0.0, "bike_id": "d0d11a1743bd8dc5ce6c83fb3ea426c9", "lon": -77.05589266666667, "rental_uris": {"ios": "https://dc.lft.to/lastmile_qr_scan", "android": "https://dc.lft.to/lastmile_qr_scan"}}, {"name": "3ba5ab5ec7b41da31c678718c5ba2697", "fusion_lat": 0.0, "type": "electric_scooter", "lat": 38.901056, "is_reserved": 0, "is_disabled": 0, "fusion_lon": 0.0, "bike_id": "3ba5ab5ec7b41da31c678718c5ba2697", "lon": -77.01776566666666, "rental_uris": {"ios": "https://dc.lft.to/lastmile_qr_scan", "android": "https://dc.lft.to/lastmile_qr_scan"}}, {"name": "504a65998f31f098482368423c2f5f8a", "fusion_lat": 0.0, "type": "electric_scooter", "lat": 38.90647883333333, "is_reserved": 0, "is_disabled": 0, "fusion_lon": 0.0, "bike_id": "504a65998f31f098482368423c2f5f8a", "lon": -77.0139705, "rental_uris": {"ios": "https://dc.lft.to/lastmile_qr_scan", "android": "https://dc.lft.to/lastmile_qr_scan"}}, {"name": "394c0b38aaaaca1e98e924c3b58c577d", "fusion_lat": 0.0, "type": "electric_scooter", "lat": 38.91196766666667, "is_reserved": 0, "is_disabled": 0, "fusion_lon": 0.0, "bike_id": "394c0b38aaaaca1e98e924c3b58c577d", "lon": -77.002043, "rental_uris": {"ios": "https://dc.lft.to/lastmile_qr_scan", "android": "https://dc.lft.to/lastmile_qr_scan"}}, {"name": "d5f94793637eae3cc271e0fcbd05346c", "fusion_lat": 0.0, "type": "electric_scooter", "lat": 38.9050685, "is_reserved": 0, "is_disabled": 0, "fusion_lon": 0.0, "bike_id": "d5f94793637eae3cc271e0fcbd05346c", "lon": -77.06891983333334, "rental_uris": {"ios": "https://dc.lft.to/lastmile_qr_scan", "android": "https://dc.lft.to/lastmile_qr_scan"}}, {"name": "7e5667826cb6be273f353e0ab05a0291", "fusion_lat": 0.0, "type": "electric_scooter", "lat": 38.93814966666667, "is_reserved": 0, "is_disabled": 0, "fusion_lon": 0.0, "bike_id": "7e5667826cb6be273f353e0ab05a0291", "lon": -77.02482116666667, "rental_uris": {"ios": "https://dc.lft.to/lastmile_qr_scan", "android": "https://dc.lft.to/lastmile_qr_scan"}}, {"name": "37a3cc6ee08204e9adec8fbcb521f2c6", "fusion_lat": 0.0, "type": "electric_scooter", "lat": 38.8747285, "is_reserved": 0, "is_disabled": 0, "fusion_lon": 0.0, "bike_id": "37a3cc6ee08204e9adec8fbcb521f2c6", "lon": -77.006176, "rental_uris": {"ios": "https://dc.lft.to/lastmile_qr_scan", "android": "https://dc.lft.to/lastmile_qr_scan"}}, {"name": "e414c11ac1731248d8fd45f391750732", "fusion_lat": 0.0, "type": "electric_bike", "lat": 38.8879675, "is_reserved": 0, "is_disabled": 0, "fusion_lon": 0.0, "bike_id": "e414c11ac1731248d8fd45f391750732", "lon": -76.92997066666666, "rental_uris": {"ios": "https://dc.lft.to/lastmile_qr_scan", "android": "https://dc.lft.to/lastmile_qr_scan"}}, {"name": "f6e6d181b499c5a61127296424891a1c", "fusion_lat": 0.0, "type": "electric_scooter", "lat": 38.87114016666666, "is_reserved": 0, "is_disabled": 0, "fusion_lon": 0.0, "bike_id": "f6e6d181b499c5a61127296424891a1c", "lon": -76.9658925, "rental_uris": {"ios": "https://dc.lft.to/lastmile_qr_scan", "android": "https://dc.lft.to/lastmile_qr_scan"}}, {"name": "1fc4ca4dc674db21572dda71738f361a", "fusion_lat": 0.0, "type": "electric_scooter", "lat": 38.894193, "is_reserved": 0, "is_disabled": 0, "fusion_lon": 0.0, "bike_id": "1fc4ca4dc674db21572dda71738f361a", "lon": -76.93966616666667, "rental_uris": {"ios": "https://dc.lft.to/lastmile_qr_scan", "android": "https://dc.lft.to/lastmile_qr_scan"}}, {"name": "820d534dfbea38dbaad7456ceda67588", "fusion_lat": 0.0, "type": "electric_bike", "lat": 38.95692416666667, "is_reserved": 0, "is_disabled": 0, "fusion_lon": 0.0, "bike_id": "820d534dfbea38dbaad7456ceda67588", "lon": -77.02222566666667, "rental_uris": {"ios": "https://dc.lft.to/lastmile_qr_scan", "android": "https://dc.lft.to/lastmile_qr_scan"}}, {"name": "3f60b03a5bf67d58c5ad6992cf8a420a", "fusion_lat": 0.0, "type": "electric_scooter", "lat": 38.903158, "is_reserved": 0, "is_disabled": 0, "fusion_lon": 0.0, "bike_id": "3f60b03a5bf67d58c5ad6992cf8a420a", "lon": -77.02886133333334, "rental_uris": {"ios": "https://dc.lft.to/lastmile_qr_scan", "android": "https://dc.lft.to/lastmile_qr_scan"}}, {"name": "15569398994e9546c8058c9f80e4fc21", "fusion_lat": 0.0, "type": "electric_bike", "lat": 38.936734666666666, "is_reserved": 0, "is_disabled": 0, "fusion_lon": 0.0, "bike_id": "15569398994e9546c8058c9f80e4fc21", "lon": -76.9520755, "rental_uris": {"ios": "https://dc.lft.to/lastmile_qr_scan", "android": "https://dc.lft.to/lastmile_qr_scan"}}, {"name": "02195806d5336d0f7cd539f450f93fb1", "fusion_lat": 0.0, "type": "electric_scooter", "lat": 38.901559666666664, "is_reserved": 0, "is_disabled": 0, "fusion_lon": 0.0, "bike_id": "02195806d5336d0f7cd539f450f93fb1", "lon": -77.01603233333333, "rental_uris": {"ios": "https://dc.lft.to/lastmile_qr_scan", "android": "https://dc.lft.to/lastmile_qr_scan"}}, {"name": "baa741a3a292419cff51a213c9139c58", "fusion_lat": 0.0, "type": "electric_scooter", "lat": 38.9148495, "is_reserved": 0, "is_disabled": 0, "fusion_lon": 0.0, "bike_id": "baa741a3a292419cff51a213c9139c58", "lon": -77.02181266666666, "rental_uris": {"ios": "https://dc.lft.to/lastmile_qr_scan", "android": "https://dc.lft.to/lastmile_qr_scan"}}, {"name": "dddd9ae7cd09c80a2f7700e2c7c662d8", "fusion_lat": 0.0, "type": "electric_scooter", "lat": 38.918049833333335, "is_reserved": 0, "is_disabled": 0, "fusion_lon": 0.0, "bike_id": "dddd9ae7cd09c80a2f7700e2c7c662d8", "lon": -77.02310083333333, "rental_uris": {"ios": "https://dc.lft.to/lastmile_qr_scan", "android": "https://dc.lft.to/lastmile_qr_scan"}}, {"name": "b0095fc5447bef01e6145aaa7e3068b8", "fusion_lat": 0.0, "type": "electric_scooter", "lat": 38.8965045, "is_reserved": 0, "is_disabled": 0, "fusion_lon": 0.0, "bike_id": "b0095fc5447bef01e6145aaa7e3068b8", "lon": -77.0091985, "rental_uris": {"ios": "https://dc.lft.to/lastmile_qr_scan", "android": "https://dc.lft.to/lastmile_qr_scan"}}, {"name": "d9b118fdf39fb3d2397d1b4ab5779729", "fusion_lat": 0.0, "type": "electric_scooter", "lat": 38.8696, "is_reserved": 0, "is_disabled": 0, "fusion_lon": 0.0, "bike_id": "d9b118fdf39fb3d2397d1b4ab5779729", "lon": -77.01372716666667, "rental_uris": {"ios": "https://dc.lft.to/lastmile_qr_scan", "android": "https://dc.lft.to/lastmile_qr_scan"}}, {"name": "c5f0dfa80a53a0fe7f5f086d788f2632", "fusion_lat": 0.0, "type": "electric_scooter", "lat": 38.919919, "is_reserved": 0, "is_disabled": 0, "fusion_lon": 0.0, "bike_id": "c5f0dfa80a53a0fe7f5f086d788f2632", "lon": -77.02394166666667, "rental_uris": {"ios": "https://dc.lft.to/lastmile_qr_scan", "android": "https://dc.lft.to/lastmile_qr_scan"}}, {"name": "0408c5cea1c93f59b8d5d9b8e0b61df3", "fusion_lat": 0.0, "type": "electric_scooter", "lat": 38.91123233333333, "is_reserved": 0, "is_disabled": 0, "fusion_lon": 0.0, "bike_id": "0408c5cea1c93f59b8d5d9b8e0b61df3", "lon": -77.02196083333334, "rental_uris": {"ios": "https://dc.lft.to/lastmile_qr_scan", "android": "https://dc.lft.to/lastmile_qr_scan"}}, {"name": "bd178d9414301050c67f73cf76980e8b", "fusion_lat": 0.0, "type": "electric_bike", "lat": 38.90082233333333, "is_reserved": 0, "is_disabled": 0, "fusion_lon": 0.0, "bike_id": "bd178d9414301050c67f73cf76980e8b", "lon": -77.01298433333334, "rental_uris": {"ios": "https://dc.lft.to/lastmile_qr_scan", "android": "https://dc.lft.to/lastmile_qr_scan"}}, {"name": "3b51fbc5c9216eb1b844772f9623d438", "fusion_lat": 0.0, "type": "electric_scooter", "lat": 38.929758166666666, "is_reserved": 0, "is_disabled": 0, "fusion_lon": 0.0, "bike_id": "3b51fbc5c9216eb1b844772f9623d438", "lon": -77.01817266666667, "rental_uris": {"ios": "https://dc.lft.to/lastmile_qr_scan", "android": "https://dc.lft.to/lastmile_qr_scan"}}, {"name": "e820bed3ea5efbbf8ee0625ae5749c06", "fusion_lat": 0.0, "type": "electric_scooter", "lat": 38.8765255, "is_reserved": 0, "is_disabled": 0, "fusion_lon": 0.0, "bike_id": "e820bed3ea5efbbf8ee0625ae5749c06", "lon": -77.015633, "rental_uris": {"ios": "https://dc.lft.to/lastmile_qr_scan", "android": "https://dc.lft.to/lastmile_qr_scan"}}, {"name": "c3207a31fbe8368c515220e4591d923a", "fusion_lat": 0.0, "type": "electric_scooter", "lat": 38.8650425, "is_reserved": 0, "is_disabled": 0, "fusion_lon": 0.0, "bike_id": "c3207a31fbe8368c515220e4591d923a", "lon": -76.99003466666667, "rental_uris": {"ios": "https://dc.lft.to/lastmile_qr_scan", "android": "https://dc.lft.to/lastmile_qr_scan"}}, {"name": "62f42da3a05cf71a76730492116480c5", "fusion_lat": 0.0, "type": "electric_scooter", "lat": 38.894874, "is_reserved": 0, "is_disabled": 0, "fusion_lon": 0.0, "bike_id": "62f42da3a05cf71a76730492116480c5", "lon": -77.03066866666667, "rental_uris": {"ios": "https://dc.lft.to/lastmile_qr_scan", "android": "https://dc.lft.to/lastmile_qr_scan"}}, {"name": "1669c27881c6e39f32d5f4c680cb4dbd", "fusion_lat": 0.0, "type": "electric_scooter", "lat": 38.905741666666664, "is_reserved": 0, "is_disabled": 0, "fusion_lon": 0.0, "bike_id": "1669c27881c6e39f32d5f4c680cb4dbd", "lon": -77.02216166666666, "rental_uris": {"ios": "https://dc.lft.to/lastmile_qr_scan", "android": "https://dc.lft.to/lastmile_qr_scan"}}, {"name": "f265037535c46a8f3e17e2349494caae", "fusion_lat": 0.0, "type": "electric_scooter", "lat": 38.8975765, "is_reserved": 0, "is_disabled": 0, "fusion_lon": 0.0, "bike_id": "f265037535c46a8f3e17e2349494caae", "lon": -77.0199315, "rental_uris": {"ios": "https://dc.lft.to/lastmile_qr_scan", "android": "https://dc.lft.to/lastmile_qr_scan"}}, {"name": "cea7d3a20feeee7d5ac996d96b109117", "fusion_lat": 0.0, "type": "electric_bike", "lat": 38.98823466666666, "is_reserved": 0, "is_disabled": 0, "fusion_lon": 0.0, "bike_id": "cea7d3a20feeee7d5ac996d96b109117", "lon": -77.02653333333333, "rental_uris": {"ios": "https://dc.lft.to/lastmile_qr_scan", "android": "https://dc.lft.to/lastmile_qr_scan"}}, {"name": "e6e007f4c4f001da60a816239e2a9cde", "fusion_lat": 0.0, "type": "electric_scooter", "lat": 38.91937633333333, "is_reserved": 0, "is_disabled": 0, "fusion_lon": 0.0, "bike_id": "e6e007f4c4f001da60a816239e2a9cde", "lon": -77.02399383333334, "rental_uris": {"ios": "https://dc.lft.to/lastmile_qr_scan", "android": "https://dc.lft.to/lastmile_qr_scan"}}, {"name": "1df0a31f439ae4d6d83e1a23e0b41dab", "fusion_lat": 0.0, "type": "electric_scooter", "lat": 38.907162, "is_reserved": 0, "is_disabled": 0, "fusion_lon": 0.0, "bike_id": "1df0a31f439ae4d6d83e1a23e0b41dab", "lon": -77.03451733333333, "rental_uris": {"ios": "https://dc.lft.to/lastmile_qr_scan", "android": "https://dc.lft.to/lastmile_qr_scan"}}, {"name": "513e136b2bef039ac414a4006ae69a78", "fusion_lat": 0.0, "type": "electric_scooter", "lat": 38.93406316666667, "is_reserved": 0, "is_disabled": 0, "fusion_lon": 0.0, "bike_id": "513e136b2bef039ac414a4006ae69a78", "lon": -77.02723133333333, "rental_uris": {"ios": "https://dc.lft.to/lastmile_qr_scan", "android": "https://dc.lft.to/lastmile_qr_scan"}}, {"name": "b28b025796fbce32ea03e8f4555ce61f", "fusion_lat": 0.0, "type": "electric_scooter", "lat": 38.88041533333333, "is_reserved": 0, "is_disabled": 0, "fusion_lon": 0.0, "bike_id": "b28b025796fbce32ea03e8f4555ce61f", "lon": -76.92724816666667, "rental_uris": {"ios": "https://dc.lft.to/lastmile_qr_scan", "android": "https://dc.lft.to/lastmile_qr_scan"}}, {"name": "c4ca91c37dfc9f8d1aeaf295a90fd589", "fusion_lat": 0.0, "type": "electric_bike", "lat": 38.852321, "is_reserved": 0, "is_disabled": 0, "fusion_lon": 0.0, "bike_id": "c4ca91c37dfc9f8d1aeaf295a90fd589", "lon": -77.10336833333334, "rental_uris": {"ios": "https://dc.lft.to/lastmile_qr_scan", "android": "https://dc.lft.to/lastmile_qr_scan"}}, {"name": "31c0eb09639856afd2ceef5705fd215b", "fusion_lat": 0.0, "type": "electric_scooter", "lat": 38.90411833333334, "is_reserved": 0, "is_disabled": 0, "fusion_lon": 0.0, "bike_id": "31c0eb09639856afd2ceef5705fd215b", "lon": -77.00136283333333, "rental_uris": {"ios": "https://dc.lft.to/lastmile_qr_scan", "android": "https://dc.lft.to/lastmile_qr_scan"}}, {"name": "de9b3cb933736b4c2d52220c52bbfb44", "fusion_lat": 0.0, "type": "electric_bike", "lat": 38.88046283333333, "is_reserved": 0, "is_disabled": 0, "fusion_lon": 0.0, "bike_id": "de9b3cb933736b4c2d52220c52bbfb44", "lon": -77.01324416666667, "rental_uris": {"ios": "https://dc.lft.to/lastmile_qr_scan", "android": "https://dc.lft.to/lastmile_qr_scan"}}, {"name": "6200f1c0a19bfc6a81541c0d685f0601", "fusion_lat": 0.0, "type": "electric_scooter", "lat": 38.90639433333333, "is_reserved": 0, "is_disabled": 0, "fusion_lon": 0.0, "bike_id": "6200f1c0a19bfc6a81541c0d685f0601", "lon": -77.034439, "rental_uris": {"ios": "https://dc.lft.to/lastmile_qr_scan", "android": "https://dc.lft.to/lastmile_qr_scan"}}, {"name": "8284ebee78484b178443da05ed772c9b", "fusion_lat": 0.0, "type": "electric_scooter", "lat": 38.87650466666667, "is_reserved": 0, "is_disabled": 0, "fusion_lon": 0.0, "bike_id": "8284ebee78484b178443da05ed772c9b", "lon": -76.96507516666667, "rental_uris": {"ios": "https://dc.lft.to/lastmile_qr_scan", "android": "https://dc.lft.to/lastmile_qr_scan"}}, {"name": "d1a6d373a29b58ea5ffa068ae7f38b07", "fusion_lat": 0.0, "type": "electric_scooter", "lat": 38.93400183333333, "is_reserved": 0, "is_disabled": 0, "fusion_lon": 0.0, "bike_id": "d1a6d373a29b58ea5ffa068ae7f38b07", "lon": -77.03153933333333, "rental_uris": {"ios": "https://dc.lft.to/lastmile_qr_scan", "android": "https://dc.lft.to/lastmile_qr_scan"}}, {"name": "b369ded986575ff23b8ec479ef917627", "fusion_lat": 0.0, "type": "electric_scooter", "lat": 38.92656383333333, "is_reserved": 0, "is_disabled": 0, "fusion_lon": 0.0, "bike_id": "b369ded986575ff23b8ec479ef917627", "lon": -77.0243345, "rental_uris": {"ios": "https://dc.lft.to/lastmile_qr_scan", "android": "https://dc.lft.to/lastmile_qr_scan"}}, {"name": "9fd0ddc03c043d8f400677d08691a061", "fusion_lat": 0.0, "type": "electric_scooter", "lat": 38.92039916666667, "is_reserved": 0, "is_disabled": 0, "fusion_lon": 0.0, "bike_id": "9fd0ddc03c043d8f400677d08691a061", "lon": -77.025865, "rental_uris": {"ios": "https://dc.lft.to/lastmile_qr_scan", "android": "https://dc.lft.to/lastmile_qr_scan"}}, {"name": "0533bcfc15fa1aa8183fa01673b2c2bf", "fusion_lat": 0.0, "type": "electric_scooter", "lat": 38.90583783333334, "is_reserved": 0, "is_disabled": 0, "fusion_lon": 0.0, "bike_id": "0533bcfc15fa1aa8183fa01673b2c2bf", "lon": -77.02213366666666, "rental_uris": {"ios": "https://dc.lft.to/lastmile_qr_scan", "android": "https://dc.lft.to/lastmile_qr_scan"}}, {"name": "d03cb9b549bb5f753387450e76d197ee", "fusion_lat": 0.0, "type": "electric_scooter", "lat": 38.918044, "is_reserved": 0, "is_disabled": 0, "fusion_lon": 0.0, "bike_id": "d03cb9b549bb5f753387450e76d197ee", "lon": -77.02816066666666, "rental_uris": {"ios": "https://dc.lft.to/lastmile_qr_scan", "android": "https://dc.lft.to/lastmile_qr_scan"}}, {"name": "03dacc03cdf0f3cca5e302f5e540964b", "fusion_lat": 0.0, "type": "electric_scooter", "lat": 38.915455666666666, "is_reserved": 0, "is_disabled": 0, "fusion_lon": 0.0, "bike_id": "03dacc03cdf0f3cca5e302f5e540964b", "lon": -77.01965716666666, "rental_uris": {"ios": "https://dc.lft.to/lastmile_qr_scan", "android": "https://dc.lft.to/lastmile_qr_scan"}}, {"name": "9ec2b5d467fc78590930f96f61d236dc", "fusion_lat": 0.0, "type": "electric_scooter", "lat": 38.8989045, "is_reserved": 0, "is_disabled": 0, "fusion_lon": 0.0, "bike_id": "9ec2b5d467fc78590930f96f61d236dc", "lon": -76.93176866666667, "rental_uris": {"ios": "https://dc.lft.to/lastmile_qr_scan", "android": "https://dc.lft.to/lastmile_qr_scan"}}, {"name": "a2d2bec8881c3b7b8f43b91b66d74e89", "fusion_lat": 0.0, "type": "electric_scooter", "lat": 38.905210333333336, "is_reserved": 0, "is_disabled": 0, "fusion_lon": 0.0, "bike_id": "a2d2bec8881c3b7b8f43b91b66d74e89", "lon": -77.05016416666666, "rental_uris": {"ios": "https://dc.lft.to/lastmile_qr_scan", "android": "https://dc.lft.to/lastmile_qr_scan"}}, {"name": "ae396a9209ac79c4ba66234796e34080", "fusion_lat": 0.0, "type": "electric_scooter", "lat": 38.91465483333333, "is_reserved": 0, "is_disabled": 0, "fusion_lon": 0.0, "bike_id": "ae396a9209ac79c4ba66234796e34080", "lon": -77.03856, "rental_uris": {"ios": "https://dc.lft.to/lastmile_qr_scan", "android": "https://dc.lft.to/lastmile_qr_scan"}}, {"name": "fcc96fcaf16cfbb8c90cc30dbbe44d2b", "fusion_lat": 0.0, "type": "electric_scooter", "lat": 38.90403716666667, "is_reserved": 0, "is_disabled": 0, "fusion_lon": 0.0, "bike_id": "fcc96fcaf16cfbb8c90cc30dbbe44d2b", "lon": -77.06397, "rental_uris": {"ios": "https://dc.lft.to/lastmile_qr_scan", "android": "https://dc.lft.to/lastmile_qr_scan"}}, {"name": "5e9e50483c7a89e5fa99bc2ff89dcd20", "fusion_lat": 0.0, "type": "electric_scooter", "lat": 38.931012333333335, "is_reserved": 0, "is_disabled": 0, "fusion_lon": 0.0, "bike_id": "5e9e50483c7a89e5fa99bc2ff89dcd20", "lon": -77.0239625, "rental_uris": {"ios": "https://dc.lft.to/lastmile_qr_scan", "android": "https://dc.lft.to/lastmile_qr_scan"}}, {"name": "0057eade84a79dae33f8d35689f6c9be", "fusion_lat": 0.0, "type": "electric_scooter", "lat": 38.90325266666667, "is_reserved": 0, "is_disabled": 0, "fusion_lon": 0.0, "bike_id": "0057eade84a79dae33f8d35689f6c9be", "lon": -76.981562, "rental_uris": {"ios": "https://dc.lft.to/lastmile_qr_scan", "android": "https://dc.lft.to/lastmile_qr_scan"}}, {"name": "08d27f5a672b7a573e846ed2724a36e4", "fusion_lat": 0.0, "type": "electric_scooter", "lat": 38.933324666666664, "is_reserved": 0, "is_disabled": 0, "fusion_lon": 0.0, "bike_id": "08d27f5a672b7a573e846ed2724a36e4", "lon": -77.027401, "rental_uris": {"ios": "https://dc.lft.to/lastmile_qr_scan", "android": "https://dc.lft.to/lastmile_qr_scan"}}, {"name": "51d2e1690dc19e6b8f427307e73521b4", "fusion_lat": 0.0, "type": "electric_scooter", "lat": 38.91802466666667, "is_reserved": 0, "is_disabled": 0, "fusion_lon": 0.0, "bike_id": "51d2e1690dc19e6b8f427307e73521b4", "lon": -77.03444316666666, "rental_uris": {"ios": "https://dc.lft.to/lastmile_qr_scan", "android": "https://dc.lft.to/lastmile_qr_scan"}}, {"name": "275f012439ffeb5ca40ce037d8335cc1", "fusion_lat": 0.0, "type": "electric_scooter", "lat": 38.90211633333333, "is_reserved": 0, "is_disabled": 0, "fusion_lon": 0.0, "bike_id": "275f012439ffeb5ca40ce037d8335cc1", "lon": -77.02177133333333, "rental_uris": {"ios": "https://dc.lft.to/lastmile_qr_scan", "android": "https://dc.lft.to/lastmile_qr_scan"}}, {"name": "30275041488eb62080bcb985e6b2e7f6", "fusion_lat": 0.0, "type": "electric_scooter", "lat": 38.86120283333333, "is_reserved": 0, "is_disabled": 0, "fusion_lon": 0.0, "bike_id": "30275041488eb62080bcb985e6b2e7f6", "lon": -76.9889215, "rental_uris": {"ios": "https://dc.lft.to/lastmile_qr_scan", "android": "https://dc.lft.to/lastmile_qr_scan"}}, {"name": "39c1c8335389c9177cc59a42f7b71639", "fusion_lat": 0.0, "type": "electric_scooter", "lat": 38.90027966666667, "is_reserved": 0, "is_disabled": 0, "fusion_lon": 0.0, "bike_id": "39c1c8335389c9177cc59a42f7b71639", "lon": -76.99063616666666, "rental_uris": {"ios": "https://dc.lft.to/lastmile_qr_scan", "android": "https://dc.lft.to/lastmile_qr_scan"}}, {"name": "eaddb91885cdc009ca39d5e4666ef5bc", "fusion_lat": 0.0, "type": "electric_scooter", "lat": 38.9181005, "is_reserved": 0, "is_disabled": 0, "fusion_lon": 0.0, "bike_id": "eaddb91885cdc009ca39d5e4666ef5bc", "lon": -77.03998166666666, "rental_uris": {"ios": "https://dc.lft.to/lastmile_qr_scan", "android": "https://dc.lft.to/lastmile_qr_scan"}}, {"name": "014bd3dd84bc337c400e857a95922291", "fusion_lat": 0.0, "type": "electric_scooter", "lat": 38.920269166666664, "is_reserved": 0, "is_disabled": 0, "fusion_lon": 0.0, "bike_id": "014bd3dd84bc337c400e857a95922291", "lon": -77.0385145, "rental_uris": {"ios": "https://dc.lft.to/lastmile_qr_scan", "android": "https://dc.lft.to/lastmile_qr_scan"}}, {"name": "0b2f07cabb8f6a2f2b12401e1a76d975", "fusion_lat": 0.0, "type": "electric_scooter", "lat": 38.937012333333335, "is_reserved": 0, "is_disabled": 0, "fusion_lon": 0.0, "bike_id": "0b2f07cabb8f6a2f2b12401e1a76d975", "lon": -77.05599716666667, "rental_uris": {"ios": "https://dc.lft.to/lastmile_qr_scan", "android": "https://dc.lft.to/lastmile_qr_scan"}}, {"name": "a2636380ba4b4d843d77f84c05ffb293", "fusion_lat": 0.0, "type": "electric_scooter", "lat": 38.90885016666667, "is_reserved": 0, "is_disabled": 0, "fusion_lon": 0.0, "bike_id": "a2636380ba4b4d843d77f84c05ffb293", "lon": -77.005708, "rental_uris": {"ios": "https://dc.lft.to/lastmile_qr_scan", "android": "https://dc.lft.to/lastmile_qr_scan"}}, {"name": "cd83f25981b441d91ac08582697a230e", "fusion_lat": 0.0, "type": "electric_scooter", "lat": 38.9045475, "is_reserved": 0, "is_disabled": 0, "fusion_lon": 0.0, "bike_id": "cd83f25981b441d91ac08582697a230e", "lon": -76.985278, "rental_uris": {"ios": "https://dc.lft.to/lastmile_qr_scan", "android": "https://dc.lft.to/lastmile_qr_scan"}}, {"name": "6aff0de1845cdca0f9496ce926c7e816", "fusion_lat": 0.0, "type": "electric_scooter", "lat": 38.87670133333334, "is_reserved": 0, "is_disabled": 0, "fusion_lon": 0.0, "bike_id": "6aff0de1845cdca0f9496ce926c7e816", "lon": -77.00724783333334, "rental_uris": {"ios": "https://dc.lft.to/lastmile_qr_scan", "android": "https://dc.lft.to/lastmile_qr_scan"}}, {"name": "92eec6e81c4a808eebd34a0fc5dafc9d", "fusion_lat": 0.0, "type": "electric_scooter", "lat": 38.921828833333336, "is_reserved": 0, "is_disabled": 0, "fusion_lon": 0.0, "bike_id": "92eec6e81c4a808eebd34a0fc5dafc9d", "lon": -77.02417233333334, "rental_uris": {"ios": "https://dc.lft.to/lastmile_qr_scan", "android": "https://dc.lft.to/lastmile_qr_scan"}}, {"name": "9cc5efef58a8e4c318fffa824a427b03", "fusion_lat": 0.0, "type": "electric_scooter", "lat": 38.915661166666666, "is_reserved": 0, "is_disabled": 0, "fusion_lon": 0.0, "bike_id": "9cc5efef58a8e4c318fffa824a427b03", "lon": -77.03165366666667, "rental_uris": {"ios": "https://dc.lft.to/lastmile_qr_scan", "android": "https://dc.lft.to/lastmile_qr_scan"}}, {"name": "185d1150ddee8b5ed13471173fb9fb30", "fusion_lat": 0.0, "type": "electric_scooter", "lat": 38.908503833333334, "is_reserved": 0, "is_disabled": 0, "fusion_lon": 0.0, "bike_id": "185d1150ddee8b5ed13471173fb9fb30", "lon": -77.02094283333334, "rental_uris": {"ios": "https://dc.lft.to/lastmile_qr_scan", "android": "https://dc.lft.to/lastmile_qr_scan"}}, {"name": "9978f0ffdf4e800eb976afea1de41f54", "fusion_lat": 0.0, "type": "electric_scooter", "lat": 38.9417715, "is_reserved": 0, "is_disabled": 0, "fusion_lon": 0.0, "bike_id": "9978f0ffdf4e800eb976afea1de41f54", "lon": -77.02513616666667, "rental_uris": {"ios": "https://dc.lft.to/lastmile_qr_scan", "android": "https://dc.lft.to/lastmile_qr_scan"}}, {"name": "abde9828a3f3c5748ca35ed104048744", "fusion_lat": 0.0, "type": "electric_scooter", "lat": 38.899091, "is_reserved": 0, "is_disabled": 0, "fusion_lon": 0.0, "bike_id": "abde9828a3f3c5748ca35ed104048744", "lon": -77.07091983333333, "rental_uris": {"ios": "https://dc.lft.to/lastmile_qr_scan", "android": "https://dc.lft.to/lastmile_qr_scan"}}, {"name": "287f6983e9c5a10616bbe489856d75ef", "fusion_lat": 0.0, "type": "electric_scooter", "lat": 38.897250166666666, "is_reserved": 0, "is_disabled": 0, "fusion_lon": 0.0, "bike_id": "287f6983e9c5a10616bbe489856d75ef", "lon": -77.00208233333333, "rental_uris": {"ios": "https://dc.lft.to/lastmile_qr_scan", "android": "https://dc.lft.to/lastmile_qr_scan"}}, {"name": "3cfa992c05cb2ae4e2976bd0838fab64", "fusion_lat": 0.0, "type": "electric_scooter", "lat": 38.90620166666667, "is_reserved": 0, "is_disabled": 0, "fusion_lon": 0.0, "bike_id": "3cfa992c05cb2ae4e2976bd0838fab64", "lon": -77.05159683333333, "rental_uris": {"ios": "https://dc.lft.to/lastmile_qr_scan", "android": "https://dc.lft.to/lastmile_qr_scan"}}, {"name": "a0da8f662c9489f8539332c8aca717a2", "fusion_lat": 0.0, "type": "electric_bike", "lat": 38.854941833333335, "is_reserved": 0, "is_disabled": 0, "fusion_lon": 0.0, "bike_id": "a0da8f662c9489f8539332c8aca717a2", "lon": -77.115259, "rental_uris": {"ios": "https://dc.lft.to/lastmile_qr_scan", "android": "https://dc.lft.to/lastmile_qr_scan"}}, {"name": "a48c149ecd3d09590a8e7dc4a531efe0", "fusion_lat": 0.0, "type": "electric_scooter", "lat": 38.916983333333334, "is_reserved": 0, "is_disabled": 0, "fusion_lon": 0.0, "bike_id": "a48c149ecd3d09590a8e7dc4a531efe0", "lon": -77.030868, "rental_uris": {"ios": "https://dc.lft.to/lastmile_qr_scan", "android": "https://dc.lft.to/lastmile_qr_scan"}}, {"name": "4aebdc2e16e0c865e6c686a25ce9e2f7", "fusion_lat": 0.0, "type": "electric_scooter", "lat": 38.919009333333335, "is_reserved": 0, "is_disabled": 0, "fusion_lon": 0.0, "bike_id": "4aebdc2e16e0c865e6c686a25ce9e2f7", "lon": -77.00046566666667, "rental_uris": {"ios": "https://dc.lft.to/lastmile_qr_scan", "android": "https://dc.lft.to/lastmile_qr_scan"}}, {"name": "56f9c671bb4503a10f23fa9e302ee53f", "fusion_lat": 0.0, "type": "electric_scooter", "lat": 38.86659983333333, "is_reserved": 0, "is_disabled": 0, "fusion_lon": 0.0, "bike_id": "56f9c671bb4503a10f23fa9e302ee53f", "lon": -76.98881883333334, "rental_uris": {"ios": "https://dc.lft.to/lastmile_qr_scan", "android": "https://dc.lft.to/lastmile_qr_scan"}}, {"name": "4d7b7431e4d82d4f1c411a14d216bcc8", "fusion_lat": 0.0, "type": "electric_bike", "lat": 38.92863966666667, "is_reserved": 0, "is_disabled": 0, "fusion_lon": 0.0, "bike_id": "4d7b7431e4d82d4f1c411a14d216bcc8", "lon": -77.032509, "rental_uris": {"ios": "https://dc.lft.to/lastmile_qr_scan", "android": "https://dc.lft.to/lastmile_qr_scan"}}, {"name": "6576a31c0c762c1c7ff6e41e5c59e5a7", "fusion_lat": 0.0, "type": "electric_scooter", "lat": 38.9003525, "is_reserved": 0, "is_disabled": 0, "fusion_lon": 0.0, "bike_id": "6576a31c0c762c1c7ff6e41e5c59e5a7", "lon": -77.00207833333333, "rental_uris": {"ios": "https://dc.lft.to/lastmile_qr_scan", "android": "https://dc.lft.to/lastmile_qr_scan"}}, {"name": "9093aee4cf0f18a786aae87ddddecede", "fusion_lat": 0.0, "type": "electric_scooter", "lat": 38.917333, "is_reserved": 0, "is_disabled": 0, "fusion_lon": 0.0, "bike_id": "9093aee4cf0f18a786aae87ddddecede", "lon": -77.02356616666667, "rental_uris": {"ios": "https://dc.lft.to/lastmile_qr_scan", "android": "https://dc.lft.to/lastmile_qr_scan"}}, {"name": "b34aa296ec3b833881c61c31f74d07e0", "fusion_lat": 0.0, "type": "electric_scooter", "lat": 38.92425633333333, "is_reserved": 0, "is_disabled": 0, "fusion_lon": 0.0, "bike_id": "b34aa296ec3b833881c61c31f74d07e0", "lon": -77.04241116666667, "rental_uris": {"ios": "https://dc.lft.to/lastmile_qr_scan", "android": "https://dc.lft.to/lastmile_qr_scan"}}, {"name": "4fac08f795bd07183cfb066ec7c18003", "fusion_lat": 0.0, "type": "electric_bike", "lat": 38.91183066666667, "is_reserved": 0, "is_disabled": 0, "fusion_lon": 0.0, "bike_id": "4fac08f795bd07183cfb066ec7c18003", "lon": -77.01150383333334, "rental_uris": {"ios": "https://dc.lft.to/lastmile_qr_scan", "android": "https://dc.lft.to/lastmile_qr_scan"}}, {"name": "d05b1ebc472dae6f52fbfde2d7bb343b", "fusion_lat": 0.0, "type": "electric_scooter", "lat": 38.924414666666664, "is_reserved": 0, "is_disabled": 0, "fusion_lon": 0.0, "bike_id": "d05b1ebc472dae6f52fbfde2d7bb343b", "lon": -77.0422695, "rental_uris": {"ios": "https://dc.lft.to/lastmile_qr_scan", "android": "https://dc.lft.to/lastmile_qr_scan"}}, {"name": "231f8c175812d5f5ca661e6a3fc71f10", "fusion_lat": 0.0, "type": "electric_scooter", "lat": 38.903563166666665, "is_reserved": 0, "is_disabled": 0, "fusion_lon": 0.0, "bike_id": "231f8c175812d5f5ca661e6a3fc71f10", "lon": -77.0110775, "rental_uris": {"ios": "https://dc.lft.to/lastmile_qr_scan", "android": "https://dc.lft.to/lastmile_qr_scan"}}, {"name": "62ed7515214e057cd3ca3b81e23ed287", "fusion_lat": 0.0, "type": "electric_scooter", "lat": 38.90055566666667, "is_reserved": 0, "is_disabled": 0, "fusion_lon": 0.0, "bike_id": "62ed7515214e057cd3ca3b81e23ed287", "lon": -76.94757233333333, "rental_uris": {"ios": "https://dc.lft.to/lastmile_qr_scan", "android": "https://dc.lft.to/lastmile_qr_scan"}}, {"name": "22154bdd91fb1487c5d0b9528c81a555", "fusion_lat": 0.0, "type": "electric_scooter", "lat": 38.919928666666664, "is_reserved": 0, "is_disabled": 0, "fusion_lon": 0.0, "bike_id": "22154bdd91fb1487c5d0b9528c81a555", "lon": -77.03327183333333, "rental_uris": {"ios": "https://dc.lft.to/lastmile_qr_scan", "android": "https://dc.lft.to/lastmile_qr_scan"}}, {"name": "784ce02235597422870c7ff215bee3aa", "fusion_lat": 0.0, "type": "electric_scooter", "lat": 38.91843133333333, "is_reserved": 0, "is_disabled": 0, "fusion_lon": 0.0, "bike_id": "784ce02235597422870c7ff215bee3aa", "lon": -77.02597616666667, "rental_uris": {"ios": "https://dc.lft.to/lastmile_qr_scan", "android": "https://dc.lft.to/lastmile_qr_scan"}}, {"name": "5b3ca380ad1d572a6992bdd23a91bdd7", "fusion_lat": 0.0, "type": "electric_bike", "lat": 38.86391283333333, "is_reserved": 0, "is_disabled": 0, "fusion_lon": 0.0, "bike_id": "5b3ca380ad1d572a6992bdd23a91bdd7", "lon": -76.98991683333334, "rental_uris": {"ios": "https://dc.lft.to/lastmile_qr_scan", "android": "https://dc.lft.to/lastmile_qr_scan"}}, {"name": "2e6e1c17cc9870f66ab263424085d007", "fusion_lat": 0.0, "type": "electric_scooter", "lat": 38.88406366666667, "is_reserved": 0, "is_disabled": 0, "fusion_lon": 0.0, "bike_id": "2e6e1c17cc9870f66ab263424085d007", "lon": -77.0194155, "rental_uris": {"ios": "https://dc.lft.to/lastmile_qr_scan", "android": "https://dc.lft.to/lastmile_qr_scan"}}, {"name": "54df85d41a86f9ee5b97e40148b2c438", "fusion_lat": 0.0, "type": "electric_scooter", "lat": 38.921572, "is_reserved": 0, "is_disabled": 0, "fusion_lon": 0.0, "bike_id": "54df85d41a86f9ee5b97e40148b2c438", "lon": -77.03378083333334, "rental_uris": {"ios": "https://dc.lft.to/lastmile_qr_scan", "android": "https://dc.lft.to/lastmile_qr_scan"}}, {"name": "0d2c6a3b3cd9d9a1ea68996cd5504970", "fusion_lat": 0.0, "type": "electric_scooter", "lat": 38.90572916666667, "is_reserved": 0, "is_disabled": 0, "fusion_lon": 0.0, "bike_id": "0d2c6a3b3cd9d9a1ea68996cd5504970", "lon": -77.04512916666667, "rental_uris": {"ios": "https://dc.lft.to/lastmile_qr_scan", "android": "https://dc.lft.to/lastmile_qr_scan"}}, {"name": "a19588bf98e97269f87351a6ae343aa8", "fusion_lat": 0.0, "type": "electric_scooter", "lat": 38.876307, "is_reserved": 0, "is_disabled": 0, "fusion_lon": 0.0, "bike_id": "a19588bf98e97269f87351a6ae343aa8", "lon": -76.96526933333334, "rental_uris": {"ios": "https://dc.lft.to/lastmile_qr_scan", "android": "https://dc.lft.to/lastmile_qr_scan"}}, {"name": "dd9081e8a24750cae6d673c01832d315", "fusion_lat": 0.0, "type": "electric_scooter", "lat": 38.94175116666667, "is_reserved": 0, "is_disabled": 0, "fusion_lon": 0.0, "bike_id": "dd9081e8a24750cae6d673c01832d315", "lon": -77.04136383333334, "rental_uris": {"ios": "https://dc.lft.to/lastmile_qr_scan", "android": "https://dc.lft.to/lastmile_qr_scan"}}, {"name": "4f5948c2513b649270bcf43540ca1d4f", "fusion_lat": 0.0, "type": "electric_bike", "lat": 38.948978333333336, "is_reserved": 0, "is_disabled": 0, "fusion_lon": 0.0, "bike_id": "4f5948c2513b649270bcf43540ca1d4f", "lon": -76.96375066666667, "rental_uris": {"ios": "https://dc.lft.to/lastmile_qr_scan", "android": "https://dc.lft.to/lastmile_qr_scan"}}, {"name": "7ebadfbd145ea52373591979fb990c07", "fusion_lat": 0.0, "type": "electric_scooter", "lat": 38.91488966666667, "is_reserved": 0, "is_disabled": 0, "fusion_lon": 0.0, "bike_id": "7ebadfbd145ea52373591979fb990c07", "lon": -77.03257716666667, "rental_uris": {"ios": "https://dc.lft.to/lastmile_qr_scan", "android": "https://dc.lft.to/lastmile_qr_scan"}}, {"name": "67429f7788a137cb60c48c9cba7eca9d", "fusion_lat": 0.0, "type": "electric_scooter", "lat": 38.90906416666667, "is_reserved": 0, "is_disabled": 0, "fusion_lon": 0.0, "bike_id": "67429f7788a137cb60c48c9cba7eca9d", "lon": -77.02709966666667, "rental_uris": {"ios": "https://dc.lft.to/lastmile_qr_scan", "android": "https://dc.lft.to/lastmile_qr_scan"}}, {"name": "9f0454a29205adeb6c980517141ea3f3", "fusion_lat": 0.0, "type": "electric_scooter", "lat": 38.897359, "is_reserved": 0, "is_disabled": 0, "fusion_lon": 0.0, "bike_id": "9f0454a29205adeb6c980517141ea3f3", "lon": -77.04652966666667, "rental_uris": {"ios": "https://dc.lft.to/lastmile_qr_scan", "android": "https://dc.lft.to/lastmile_qr_scan"}}, {"name": "ff630788cb9d57d7bfd48bbb12c30890", "fusion_lat": 0.0, "type": "electric_scooter", "lat": 38.9429445, "is_reserved": 0, "is_disabled": 0, "fusion_lon": 0.0, "bike_id": "ff630788cb9d57d7bfd48bbb12c30890", "lon": -77.0217235, "rental_uris": {"ios": "https://dc.lft.to/lastmile_qr_scan", "android": "https://dc.lft.to/lastmile_qr_scan"}}, {"name": "c1ed0871df5f0a8b82d64c9ad4630511", "fusion_lat": 0.0, "type": "electric_scooter", "lat": 38.886599, "is_reserved": 0, "is_disabled": 0, "fusion_lon": 0.0, "bike_id": "c1ed0871df5f0a8b82d64c9ad4630511", "lon": -77.02551083333333, "rental_uris": {"ios": "https://dc.lft.to/lastmile_qr_scan", "android": "https://dc.lft.to/lastmile_qr_scan"}}, {"name": "1d1e15c5dd8c7971e75d5153d59a45ba", "fusion_lat": 0.0, "type": "electric_scooter", "lat": 38.93326783333333, "is_reserved": 0, "is_disabled": 0, "fusion_lon": 0.0, "bike_id": "1d1e15c5dd8c7971e75d5153d59a45ba", "lon": -77.0508155, "rental_uris": {"ios": "https://dc.lft.to/lastmile_qr_scan", "android": "https://dc.lft.to/lastmile_qr_scan"}}, {"name": "91b0b8f54da017415523908dec690e6a", "fusion_lat": 0.0, "type": "electric_scooter", "lat": 38.882751999999996, "is_reserved": 0, "is_disabled": 0, "fusion_lon": 0.0, "bike_id": "91b0b8f54da017415523908dec690e6a", "lon": -76.98615616666666, "rental_uris": {"ios": "https://dc.lft.to/lastmile_qr_scan", "android": "https://dc.lft.to/lastmile_qr_scan"}}, {"name": "3e4dc3ee5cc940d8810c604aaf15b1a7", "fusion_lat": 0.0, "type": "electric_bike", "lat": 38.927845, "is_reserved": 0, "is_disabled": 0, "fusion_lon": 0.0, "bike_id": "3e4dc3ee5cc940d8810c604aaf15b1a7", "lon": -77.05258083333334, "rental_uris": {"ios": "https://dc.lft.to/lastmile_qr_scan", "android": "https://dc.lft.to/lastmile_qr_scan"}}, {"name": "5c97e3c332c3b4248025a724b019bc33", "fusion_lat": 0.0, "type": "electric_scooter", "lat": 38.8742225, "is_reserved": 0, "is_disabled": 0, "fusion_lon": 0.0, "bike_id": "5c97e3c332c3b4248025a724b019bc33", "lon": -76.96089083333334, "rental_uris": {"ios": "https://dc.lft.to/lastmile_qr_scan", "android": "https://dc.lft.to/lastmile_qr_scan"}}, {"name": "f9afac07e3a6b18bed160284e136bf7e", "fusion_lat": 0.0, "type": "electric_scooter", "lat": 38.91928816666667, "is_reserved": 0, "is_disabled": 0, "fusion_lon": 0.0, "bike_id": "f9afac07e3a6b18bed160284e136bf7e", "lon": -77.03184383333334, "rental_uris": {"ios": "https://dc.lft.to/lastmile_qr_scan", "android": "https://dc.lft.to/lastmile_qr_scan"}}, {"name": "0bd036e58629dc26c5899a30d1c5f22a", "fusion_lat": 0.0, "type": "electric_scooter", "lat": 38.901656833333334, "is_reserved": 0, "is_disabled": 0, "fusion_lon": 0.0, "bike_id": "0bd036e58629dc26c5899a30d1c5f22a", "lon": -77.01609416666666, "rental_uris": {"ios": "https://dc.lft.to/lastmile_qr_scan", "android": "https://dc.lft.to/lastmile_qr_scan"}}, {"name": "40d6c730d52d5d11336a1b4ed8f8311b", "fusion_lat": 0.0, "type": "electric_scooter", "lat": 38.858427, "is_reserved": 0, "is_disabled": 0, "fusion_lon": 0.0, "bike_id": "40d6c730d52d5d11336a1b4ed8f8311b", "lon": -76.98893433333333, "rental_uris": {"ios": "https://dc.lft.to/lastmile_qr_scan", "android": "https://dc.lft.to/lastmile_qr_scan"}}, {"name": "1ac681e4ee8fe6fad8fb7eb9ba87c555", "fusion_lat": 0.0, "type": "electric_scooter", "lat": 38.91274966666667, "is_reserved": 0, "is_disabled": 0, "fusion_lon": 0.0, "bike_id": "1ac681e4ee8fe6fad8fb7eb9ba87c555", "lon": -77.0269005, "rental_uris": {"ios": "https://dc.lft.to/lastmile_qr_scan", "android": "https://dc.lft.to/lastmile_qr_scan"}}, {"name": "2c4fbcbcce3324b49915a6bf6ac41b42", "fusion_lat": 0.0, "type": "electric_scooter", "lat": 38.89374983333333, "is_reserved": 0, "is_disabled": 0, "fusion_lon": 0.0, "bike_id": "2c4fbcbcce3324b49915a6bf6ac41b42", "lon": -76.95001833333333, "rental_uris": {"ios": "https://dc.lft.to/lastmile_qr_scan", "android": "https://dc.lft.to/lastmile_qr_scan"}}, {"name": "6a6d5f36e3b8ad3579008e7690bc5126", "fusion_lat": 0.0, "type": "electric_scooter", "lat": 38.937293, "is_reserved": 0, "is_disabled": 0, "fusion_lon": 0.0, "bike_id": "6a6d5f36e3b8ad3579008e7690bc5126", "lon": -77.02013966666667, "rental_uris": {"ios": "https://dc.lft.to/lastmile_qr_scan", "android": "https://dc.lft.to/lastmile_qr_scan"}}, {"name": "165be3d5c0865d6a34ef99d0e2abce42", "fusion_lat": 0.0, "type": "electric_scooter", "lat": 38.909788, "is_reserved": 0, "is_disabled": 0, "fusion_lon": 0.0, "bike_id": "165be3d5c0865d6a34ef99d0e2abce42", "lon": -77.0671055, "rental_uris": {"ios": "https://dc.lft.to/lastmile_qr_scan", "android": "https://dc.lft.to/lastmile_qr_scan"}}, {"name": "36ed861725ef1cd29e553b4e50c2aecd", "fusion_lat": 0.0, "type": "electric_scooter", "lat": 38.9184895, "is_reserved": 0, "is_disabled": 0, "fusion_lon": 0.0, "bike_id": "36ed861725ef1cd29e553b4e50c2aecd", "lon": -76.9655265, "rental_uris": {"ios": "https://dc.lft.to/lastmile_qr_scan", "android": "https://dc.lft.to/lastmile_qr_scan"}}, {"name": "6b91968a7e8481ab8189b06ac0b41bfc", "fusion_lat": 0.0, "type": "electric_scooter", "lat": 38.91403866666667, "is_reserved": 0, "is_disabled": 0, "fusion_lon": 0.0, "bike_id": "6b91968a7e8481ab8189b06ac0b41bfc", "lon": -77.03949566666667, "rental_uris": {"ios": "https://dc.lft.to/lastmile_qr_scan", "android": "https://dc.lft.to/lastmile_qr_scan"}}, {"name": "ca62aed94b270bd95ae1d47f38047afa", "fusion_lat": 0.0, "type": "electric_scooter", "lat": 38.88685483333333, "is_reserved": 0, "is_disabled": 0, "fusion_lon": 0.0, "bike_id": "ca62aed94b270bd95ae1d47f38047afa", "lon": -76.95760483333333, "rental_uris": {"ios": "https://dc.lft.to/lastmile_qr_scan", "android": "https://dc.lft.to/lastmile_qr_scan"}}, {"name": "6c2a0c958fbd03df3fe92b5510f0948f", "fusion_lat": 0.0, "type": "electric_scooter", "lat": 38.88281666666666, "is_reserved": 0, "is_disabled": 0, "fusion_lon": 0.0, "bike_id": "6c2a0c958fbd03df3fe92b5510f0948f", "lon": -76.99830883333334, "rental_uris": {"ios": "https://dc.lft.to/lastmile_qr_scan", "android": "https://dc.lft.to/lastmile_qr_scan"}}, {"name": "dded8846ac24b3011c1da3c8b7287fdb", "fusion_lat": 0.0, "type": "electric_scooter", "lat": 38.94177066666666, "is_reserved": 0, "is_disabled": 0, "fusion_lon": 0.0, "bike_id": "dded8846ac24b3011c1da3c8b7287fdb", "lon": -77.02511066666666, "rental_uris": {"ios": "https://dc.lft.to/lastmile_qr_scan", "android": "https://dc.lft.to/lastmile_qr_scan"}}, {"name": "47582c948eae33f4dd6aeeeeacdcf174", "fusion_lat": 0.0, "type": "electric_scooter", "lat": 38.868945, "is_reserved": 0, "is_disabled": 0, "fusion_lon": 0.0, "bike_id": "47582c948eae33f4dd6aeeeeacdcf174", "lon": -76.9830925, "rental_uris": {"ios": "https://dc.lft.to/lastmile_qr_scan", "android": "https://dc.lft.to/lastmile_qr_scan"}}, {"name": "76e9c612f4428cf13f6c28b2c755736e", "fusion_lat": 0.0, "type": "electric_scooter", "lat": 38.920368833333335, "is_reserved": 0, "is_disabled": 0, "fusion_lon": 0.0, "bike_id": "76e9c612f4428cf13f6c28b2c755736e", "lon": -77.0258845, "rental_uris": {"ios": "https://dc.lft.to/lastmile_qr_scan", "android": "https://dc.lft.to/lastmile_qr_scan"}}, {"name": "edd7024765b858b4323cc75c818ee56f", "fusion_lat": 0.0, "type": "electric_scooter", "lat": 38.858457, "is_reserved": 0, "is_disabled": 0, "fusion_lon": 0.0, "bike_id": "edd7024765b858b4323cc75c818ee56f", "lon": -76.9588285, "rental_uris": {"ios": "https://dc.lft.to/lastmile_qr_scan", "android": "https://dc.lft.to/lastmile_qr_scan"}}, {"name": "14773e83b144335cb5432c577ca852ce", "fusion_lat": 0.0, "type": "electric_bike", "lat": 38.94195883333333, "is_reserved": 0, "is_disabled": 0, "fusion_lon": 0.0, "bike_id": "14773e83b144335cb5432c577ca852ce", "lon": -77.03281416666667, "rental_uris": {"ios": "https://dc.lft.to/lastmile_qr_scan", "android": "https://dc.lft.to/lastmile_qr_scan"}}, {"name": "af410eb3829b0360f38d920a136af4d0", "fusion_lat": 0.0, "type": "electric_scooter", "lat": 38.91705433333333, "is_reserved": 0, "is_disabled": 0, "fusion_lon": 0.0, "bike_id": "af410eb3829b0360f38d920a136af4d0", "lon": -77.02781316666666, "rental_uris": {"ios": "https://dc.lft.to/lastmile_qr_scan", "android": "https://dc.lft.to/lastmile_qr_scan"}}, {"name": "6748e2bf154217c9a9e714961913d250", "fusion_lat": 0.0, "type": "electric_scooter", "lat": 38.90489066666667, "is_reserved": 0, "is_disabled": 0, "fusion_lon": 0.0, "bike_id": "6748e2bf154217c9a9e714961913d250", "lon": -77.065413, "rental_uris": {"ios": "https://dc.lft.to/lastmile_qr_scan", "android": "https://dc.lft.to/lastmile_qr_scan"}}, {"name": "cae1a059a7a7c929b650510a860d028a", "fusion_lat": 0.0, "type": "electric_scooter", "lat": 38.90963216666667, "is_reserved": 0, "is_disabled": 0, "fusion_lon": 0.0, "bike_id": "cae1a059a7a7c929b650510a860d028a", "lon": -77.0459555, "rental_uris": {"ios": "https://dc.lft.to/lastmile_qr_scan", "android": "https://dc.lft.to/lastmile_qr_scan"}}, {"name": "42faf1254910be74b20108ff4209aaf7", "fusion_lat": 0.0, "type": "electric_scooter", "lat": 38.90577533333333, "is_reserved": 0, "is_disabled": 0, "fusion_lon": 0.0, "bike_id": "42faf1254910be74b20108ff4209aaf7", "lon": -77.04871416666667, "rental_uris": {"ios": "https://dc.lft.to/lastmile_qr_scan", "android": "https://dc.lft.to/lastmile_qr_scan"}}, {"name": "abf6b10bf4504454e1745531f56c628b", "fusion_lat": 0.0, "type": "electric_scooter", "lat": 38.87375, "is_reserved": 0, "is_disabled": 0, "fusion_lon": 0.0, "bike_id": "abf6b10bf4504454e1745531f56c628b", "lon": -77.00031833333334, "rental_uris": {"ios": "https://dc.lft.to/lastmile_qr_scan", "android": "https://dc.lft.to/lastmile_qr_scan"}}, {"name": "f50be6cb5373a1469d5195dc224734a5", "fusion_lat": 0.0, "type": "electric_scooter", "lat": 38.880550666666664, "is_reserved": 0, "is_disabled": 0, "fusion_lon": 0.0, "bike_id": "f50be6cb5373a1469d5195dc224734a5", "lon": -77.02482683333334, "rental_uris": {"ios": "https://dc.lft.to/lastmile_qr_scan", "android": "https://dc.lft.to/lastmile_qr_scan"}}, {"name": "6708146ef453e72b80f3c150dd0a0075", "fusion_lat": 0.0, "type": "electric_bike", "lat": 38.88126033333333, "is_reserved": 0, "is_disabled": 0, "fusion_lon": 0.0, "bike_id": "6708146ef453e72b80f3c150dd0a0075", "lon": -77.0129415, "rental_uris": {"ios": "https://dc.lft.to/lastmile_qr_scan", "android": "https://dc.lft.to/lastmile_qr_scan"}}, {"name": "9b93b757dd904012bb9cf87a2bf3e625", "fusion_lat": 0.0, "type": "electric_scooter", "lat": 38.911931, "is_reserved": 0, "is_disabled": 0, "fusion_lon": 0.0, "bike_id": "9b93b757dd904012bb9cf87a2bf3e625", "lon": -77.018893, "rental_uris": {"ios": "https://dc.lft.to/lastmile_qr_scan", "android": "https://dc.lft.to/lastmile_qr_scan"}}, {"name": "9355b4a20181e5ea136813a165dcf41c", "fusion_lat": 0.0, "type": "electric_scooter", "lat": 38.89350016666667, "is_reserved": 0, "is_disabled": 0, "fusion_lon": 0.0, "bike_id": "9355b4a20181e5ea136813a165dcf41c", "lon": -77.046575, "rental_uris": {"ios": "https://dc.lft.to/lastmile_qr_scan", "android": "https://dc.lft.to/lastmile_qr_scan"}}, {"name": "484ff57cbdd41d9b5c521c0eafcb1c05", "fusion_lat": 0.0, "type": "electric_scooter", "lat": 38.9105495, "is_reserved": 0, "is_disabled": 0, "fusion_lon": 0.0, "bike_id": "484ff57cbdd41d9b5c521c0eafcb1c05", "lon": -77.04573116666667, "rental_uris": {"ios": "https://dc.lft.to/lastmile_qr_scan", "android": "https://dc.lft.to/lastmile_qr_scan"}}, {"name": "2a6a127fe326655e08196127e779020f", "fusion_lat": 0.0, "type": "electric_scooter", "lat": 38.91712783333333, "is_reserved": 0, "is_disabled": 0, "fusion_lon": 0.0, "bike_id": "2a6a127fe326655e08196127e779020f", "lon": -77.03140883333333, "rental_uris": {"ios": "https://dc.lft.to/lastmile_qr_scan", "android": "https://dc.lft.to/lastmile_qr_scan"}}, {"name": "f8301277a8ad396886ef0757806ae374", "fusion_lat": 0.0, "type": "electric_scooter", "lat": 38.8968065, "is_reserved": 0, "is_disabled": 0, "fusion_lon": 0.0, "bike_id": "f8301277a8ad396886ef0757806ae374", "lon": -76.935372, "rental_uris": {"ios": "https://dc.lft.to/lastmile_qr_scan", "android": "https://dc.lft.to/lastmile_qr_scan"}}, {"name": "c77a8ee482806d584028e1a2362faa0b", "fusion_lat": 0.0, "type": "electric_scooter", "lat": 38.91884666666667, "is_reserved": 0, "is_disabled": 0, "fusion_lon": 0.0, "bike_id": "c77a8ee482806d584028e1a2362faa0b", "lon": -77.04316483333334, "rental_uris": {"ios": "https://dc.lft.to/lastmile_qr_scan", "android": "https://dc.lft.to/lastmile_qr_scan"}}, {"name": "1e31ee3b8563fc99ed631917c173b341", "fusion_lat": 0.0, "type": "electric_scooter", "lat": 38.912749833333336, "is_reserved": 0, "is_disabled": 0, "fusion_lon": 0.0, "bike_id": "1e31ee3b8563fc99ed631917c173b341", "lon": -77.02950316666667, "rental_uris": {"ios": "https://dc.lft.to/lastmile_qr_scan", "android": "https://dc.lft.to/lastmile_qr_scan"}}, {"name": "f99d84457b006e1b567309417bfd7c46", "fusion_lat": 0.0, "type": "electric_scooter", "lat": 38.906942666666666, "is_reserved": 0, "is_disabled": 0, "fusion_lon": 0.0, "bike_id": "f99d84457b006e1b567309417bfd7c46", "lon": -77.03493566666667, "rental_uris": {"ios": "https://dc.lft.to/lastmile_qr_scan", "android": "https://dc.lft.to/lastmile_qr_scan"}}, {"name": "77e5804469d04ef66e09eea0b03f0e94", "fusion_lat": 0.0, "type": "electric_scooter", "lat": 38.9361465, "is_reserved": 0, "is_disabled": 0, "fusion_lon": 0.0, "bike_id": "77e5804469d04ef66e09eea0b03f0e94", "lon": -77.03217066666667, "rental_uris": {"ios": "https://dc.lft.to/lastmile_qr_scan", "android": "https://dc.lft.to/lastmile_qr_scan"}}, {"name": "f315c731e333a2b767b3b8b14fce408f", "fusion_lat": 0.0, "type": "electric_scooter", "lat": 38.911833, "is_reserved": 0, "is_disabled": 0, "fusion_lon": 0.0, "bike_id": "f315c731e333a2b767b3b8b14fce408f", "lon": -77.01124683333333, "rental_uris": {"ios": "https://dc.lft.to/lastmile_qr_scan", "android": "https://dc.lft.to/lastmile_qr_scan"}}, {"name": "cdfde663bad34cf76dbb05d5e6a39f62", "fusion_lat": 0.0, "type": "electric_scooter", "lat": 38.887647333333334, "is_reserved": 0, "is_disabled": 0, "fusion_lon": 0.0, "bike_id": "cdfde663bad34cf76dbb05d5e6a39f62", "lon": -76.95600016666667, "rental_uris": {"ios": "https://dc.lft.to/lastmile_qr_scan", "android": "https://dc.lft.to/lastmile_qr_scan"}}, {"name": "105aa24a804beeca26c060d9093b35ab", "fusion_lat": 0.0, "type": "electric_scooter", "lat": 38.93117083333333, "is_reserved": 0, "is_disabled": 0, "fusion_lon": 0.0, "bike_id": "105aa24a804beeca26c060d9093b35ab", "lon": -77.03844016666666, "rental_uris": {"ios": "https://dc.lft.to/lastmile_qr_scan", "android": "https://dc.lft.to/lastmile_qr_scan"}}, {"name": "422f87786cba6748aca8d4cfcf74e9d8", "fusion_lat": 0.0, "type": "electric_scooter", "lat": 38.91820583333333, "is_reserved": 0, "is_disabled": 0, "fusion_lon": 0.0, "bike_id": "422f87786cba6748aca8d4cfcf74e9d8", "lon": -77.03204533333333, "rental_uris": {"ios": "https://dc.lft.to/lastmile_qr_scan", "android": "https://dc.lft.to/lastmile_qr_scan"}}, {"name": "40d38981674bee2b5a3cd0df1285ea84", "fusion_lat": 0.0, "type": "electric_scooter", "lat": 38.90691783333333, "is_reserved": 0, "is_disabled": 0, "fusion_lon": 0.0, "bike_id": "40d38981674bee2b5a3cd0df1285ea84", "lon": -77.0240775, "rental_uris": {"ios": "https://dc.lft.to/lastmile_qr_scan", "android": "https://dc.lft.to/lastmile_qr_scan"}}, {"name": "c4162e73b5a061867238c67c9481aff0", "fusion_lat": 0.0, "type": "electric_scooter", "lat": 38.87808116666667, "is_reserved": 0, "is_disabled": 0, "fusion_lon": 0.0, "bike_id": "c4162e73b5a061867238c67c9481aff0", "lon": -77.01769266666666, "rental_uris": {"ios": "https://dc.lft.to/lastmile_qr_scan", "android": "https://dc.lft.to/lastmile_qr_scan"}}, {"name": "b9f679276748321d89df758fab795dcf", "fusion_lat": 0.0, "type": "electric_scooter", "lat": 38.903635, "is_reserved": 0, "is_disabled": 0, "fusion_lon": 0.0, "bike_id": "b9f679276748321d89df758fab795dcf", "lon": -77.00344166666666, "rental_uris": {"ios": "https://dc.lft.to/lastmile_qr_scan", "android": "https://dc.lft.to/lastmile_qr_scan"}}, {"name": "20cd3998721e2c32c8f7f98d642c744a", "fusion_lat": 0.0, "type": "electric_scooter", "lat": 38.91265033333333, "is_reserved": 0, "is_disabled": 0, "fusion_lon": 0.0, "bike_id": "20cd3998721e2c32c8f7f98d642c744a", "lon": -77.03866216666667, "rental_uris": {"ios": "https://dc.lft.to/lastmile_qr_scan", "android": "https://dc.lft.to/lastmile_qr_scan"}}, {"name": "1bd54fdfcd817a4f76933496e0ccd581", "fusion_lat": 0.0, "type": "electric_scooter", "lat": 38.9040735, "is_reserved": 0, "is_disabled": 0, "fusion_lon": 0.0, "bike_id": "1bd54fdfcd817a4f76933496e0ccd581", "lon": -77.06431066666667, "rental_uris": {"ios": "https://dc.lft.to/lastmile_qr_scan", "android": "https://dc.lft.to/lastmile_qr_scan"}}, {"name": "fc4b9c0140cbc727cdd790227f237b9f", "fusion_lat": 0.0, "type": "electric_scooter", "lat": 38.9326855, "is_reserved": 0, "is_disabled": 0, "fusion_lon": 0.0, "bike_id": "fc4b9c0140cbc727cdd790227f237b9f", "lon": -77.03897066666667, "rental_uris": {"ios": "https://dc.lft.to/lastmile_qr_scan", "android": "https://dc.lft.to/lastmile_qr_scan"}}, {"name": "ba34419383fef2d7f779ae05a2056d5c", "fusion_lat": 0.0, "type": "electric_scooter", "lat": 38.9167205, "is_reserved": 0, "is_disabled": 0, "fusion_lon": 0.0, "bike_id": "ba34419383fef2d7f779ae05a2056d5c", "lon": -77.0296815, "rental_uris": {"ios": "https://dc.lft.to/lastmile_qr_scan", "android": "https://dc.lft.to/lastmile_qr_scan"}}, {"name": "26bed96744b2f84df33b6bda45b61174", "fusion_lat": 0.0, "type": "electric_bike", "lat": 38.96622883333333, "is_reserved": 0, "is_disabled": 0, "fusion_lon": 0.0, "bike_id": "26bed96744b2f84df33b6bda45b61174", "lon": -76.97665966666666, "rental_uris": {"ios": "https://dc.lft.to/lastmile_qr_scan", "android": "https://dc.lft.to/lastmile_qr_scan"}}, {"name": "cee94218a9b6ed7e041cbe16d81711fa", "fusion_lat": 0.0, "type": "electric_scooter", "lat": 38.912635, "is_reserved": 0, "is_disabled": 0, "fusion_lon": 0.0, "bike_id": "cee94218a9b6ed7e041cbe16d81711fa", "lon": -77.0095485, "rental_uris": {"ios": "https://dc.lft.to/lastmile_qr_scan", "android": "https://dc.lft.to/lastmile_qr_scan"}}, {"name": "eeba21533db0253192670e78bb7a4b79", "fusion_lat": 0.0, "type": "electric_scooter", "lat": 38.91981333333333, "is_reserved": 0, "is_disabled": 0, "fusion_lon": 0.0, "bike_id": "eeba21533db0253192670e78bb7a4b79", "lon": -77.0397255, "rental_uris": {"ios": "https://dc.lft.to/lastmile_qr_scan", "android": "https://dc.lft.to/lastmile_qr_scan"}}, {"name": "c0d24dca05eab69b6afeb285732a3835", "fusion_lat": 0.0, "type": "electric_scooter", "lat": 38.936375166666664, "is_reserved": 0, "is_disabled": 0, "fusion_lon": 0.0, "bike_id": "c0d24dca05eab69b6afeb285732a3835", "lon": -77.0366575, "rental_uris": {"ios": "https://dc.lft.to/lastmile_qr_scan", "android": "https://dc.lft.to/lastmile_qr_scan"}}, {"name": "bc452eddfff73d5b7876aa06a54747d7", "fusion_lat": 0.0, "type": "electric_scooter", "lat": 38.900338166666664, "is_reserved": 0, "is_disabled": 0, "fusion_lon": 0.0, "bike_id": "bc452eddfff73d5b7876aa06a54747d7", "lon": -77.0324755, "rental_uris": {"ios": "https://dc.lft.to/lastmile_qr_scan", "android": "https://dc.lft.to/lastmile_qr_scan"}}, {"name": "4fbbbaebb3959488d9f79711afb46de1", "fusion_lat": 0.0, "type": "electric_scooter", "lat": 38.934719333333334, "is_reserved": 0, "is_disabled": 0, "fusion_lon": 0.0, "bike_id": "4fbbbaebb3959488d9f79711afb46de1", "lon": -77.032602, "rental_uris": {"ios": "https://dc.lft.to/lastmile_qr_scan", "android": "https://dc.lft.to/lastmile_qr_scan"}}, {"name": "ac16311107be7455a1455bd9bacf37ba", "fusion_lat": 0.0, "type": "electric_scooter", "lat": 38.90028916666667, "is_reserved": 0, "is_disabled": 0, "fusion_lon": 0.0, "bike_id": "ac16311107be7455a1455bd9bacf37ba", "lon": -77.02968583333333, "rental_uris": {"ios": "https://dc.lft.to/lastmile_qr_scan", "android": "https://dc.lft.to/lastmile_qr_scan"}}, {"name": "febbe926c851f893a7e7c82247f3fbdd", "fusion_lat": 0.0, "type": "electric_scooter", "lat": 38.92024583333333, "is_reserved": 0, "is_disabled": 0, "fusion_lon": 0.0, "bike_id": "febbe926c851f893a7e7c82247f3fbdd", "lon": -77.01415566666667, "rental_uris": {"ios": "https://dc.lft.to/lastmile_qr_scan", "android": "https://dc.lft.to/lastmile_qr_scan"}}, {"name": "20698216f8ad0cef49a1d84df48b5a51", "fusion_lat": 0.0, "type": "electric_scooter", "lat": 38.883633833333334, "is_reserved": 0, "is_disabled": 0, "fusion_lon": 0.0, "bike_id": "20698216f8ad0cef49a1d84df48b5a51", "lon": -77.03172933333333, "rental_uris": {"ios": "https://dc.lft.to/lastmile_qr_scan", "android": "https://dc.lft.to/lastmile_qr_scan"}}, {"name": "34551e12c37151c3c7d90a96d6c44379", "fusion_lat": 0.0, "type": "electric_scooter", "lat": 38.904718, "is_reserved": 0, "is_disabled": 0, "fusion_lon": 0.0, "bike_id": "34551e12c37151c3c7d90a96d6c44379", "lon": -77.04156283333333, "rental_uris": {"ios": "https://dc.lft.to/lastmile_qr_scan", "android": "https://dc.lft.to/lastmile_qr_scan"}}, {"name": "cd215799a90f75f07e0a5e3aad16529b", "fusion_lat": 0.0, "type": "electric_scooter", "lat": 38.9251605, "is_reserved": 0, "is_disabled": 0, "fusion_lon": 0.0, "bike_id": "cd215799a90f75f07e0a5e3aad16529b", "lon": -77.02395183333333, "rental_uris": {"ios": "https://dc.lft.to/lastmile_qr_scan", "android": "https://dc.lft.to/lastmile_qr_scan"}}, {"name": "b3908b6d2137a9b51b5261cdb3883363", "fusion_lat": 0.0, "type": "electric_scooter", "lat": 38.8954235, "is_reserved": 0, "is_disabled": 0, "fusion_lon": 0.0, "bike_id": "b3908b6d2137a9b51b5261cdb3883363", "lon": -77.03097733333334, "rental_uris": {"ios": "https://dc.lft.to/lastmile_qr_scan", "android": "https://dc.lft.to/lastmile_qr_scan"}}, {"name": "4ff303fb7be25a7ab3274c66232117db", "fusion_lat": 0.0, "type": "electric_scooter", "lat": 38.90959616666667, "is_reserved": 0, "is_disabled": 0, "fusion_lon": 0.0, "bike_id": "4ff303fb7be25a7ab3274c66232117db", "lon": -77.04486966666667, "rental_uris": {"ios": "https://dc.lft.to/lastmile_qr_scan", "android": "https://dc.lft.to/lastmile_qr_scan"}}, {"name": "a31722a8a10b2e49af9f74498dda11c0", "fusion_lat": 0.0, "type": "electric_bike", "lat": 38.953694166666665, "is_reserved": 0, "is_disabled": 0, "fusion_lon": 0.0, "bike_id": "a31722a8a10b2e49af9f74498dda11c0", "lon": -77.08854466666666, "rental_uris": {"ios": "https://dc.lft.to/lastmile_qr_scan", "android": "https://dc.lft.to/lastmile_qr_scan"}}, {"name": "1e32fbe3c7540f5026fe03d43d21c357", "fusion_lat": 0.0, "type": "electric_scooter", "lat": 38.91940833333334, "is_reserved": 0, "is_disabled": 0, "fusion_lon": 0.0, "bike_id": "1e32fbe3c7540f5026fe03d43d21c357", "lon": -77.023969, "rental_uris": {"ios": "https://dc.lft.to/lastmile_qr_scan", "android": "https://dc.lft.to/lastmile_qr_scan"}}, {"name": "dd8fafc4ce82cc86bde2f5cb5eed6d3b", "fusion_lat": 0.0, "type": "electric_scooter", "lat": 38.902713, "is_reserved": 0, "is_disabled": 0, "fusion_lon": 0.0, "bike_id": "dd8fafc4ce82cc86bde2f5cb5eed6d3b", "lon": -77.03213316666667, "rental_uris": {"ios": "https://dc.lft.to/lastmile_qr_scan", "android": "https://dc.lft.to/lastmile_qr_scan"}}, {"name": "7f1d4896b07d119ac48ef9f823bd4c50", "fusion_lat": 0.0, "type": "electric_scooter", "lat": 38.91817916666667, "is_reserved": 0, "is_disabled": 0, "fusion_lon": 0.0, "bike_id": "7f1d4896b07d119ac48ef9f823bd4c50", "lon": -77.0114245, "rental_uris": {"ios": "https://dc.lft.to/lastmile_qr_scan", "android": "https://dc.lft.to/lastmile_qr_scan"}}, {"name": "75b084824cc1feb54f3d5f8b337a46e5", "fusion_lat": 0.0, "type": "electric_scooter", "lat": 38.89734883333333, "is_reserved": 0, "is_disabled": 0, "fusion_lon": 0.0, "bike_id": "75b084824cc1feb54f3d5f8b337a46e5", "lon": -77.04655633333333, "rental_uris": {"ios": "https://dc.lft.to/lastmile_qr_scan", "android": "https://dc.lft.to/lastmile_qr_scan"}}, {"name": "07977b5165a5d5e4bf27f47d748270c5", "fusion_lat": 0.0, "type": "electric_scooter", "lat": 38.9046015, "is_reserved": 0, "is_disabled": 0, "fusion_lon": 0.0, "bike_id": "07977b5165a5d5e4bf27f47d748270c5", "lon": -77.04149033333333, "rental_uris": {"ios": "https://dc.lft.to/lastmile_qr_scan", "android": "https://dc.lft.to/lastmile_qr_scan"}}, {"name": "6886a34025892df582c6278f4b76c1dd", "fusion_lat": 0.0, "type": "electric_scooter", "lat": 38.8967035, "is_reserved": 0, "is_disabled": 0, "fusion_lon": 0.0, "bike_id": "6886a34025892df582c6278f4b76c1dd", "lon": -77.04900966666666, "rental_uris": {"ios": "https://dc.lft.to/lastmile_qr_scan", "android": "https://dc.lft.to/lastmile_qr_scan"}}, {"name": "edfdc18db3f70b47db748d45c301f59b", "fusion_lat": 0.0, "type": "electric_scooter", "lat": 38.92432616666667, "is_reserved": 0, "is_disabled": 0, "fusion_lon": 0.0, "bike_id": "edfdc18db3f70b47db748d45c301f59b", "lon": -77.051759, "rental_uris": {"ios": "https://dc.lft.to/lastmile_qr_scan", "android": "https://dc.lft.to/lastmile_qr_scan"}}, {"name": "50dd30a90daf67f743deefd66af5ed51", "fusion_lat": 0.0, "type": "electric_scooter", "lat": 38.89227133333333, "is_reserved": 0, "is_disabled": 0, "fusion_lon": 0.0, "bike_id": "50dd30a90daf67f743deefd66af5ed51", "lon": -77.04502483333333, "rental_uris": {"ios": "https://dc.lft.to/lastmile_qr_scan", "android": "https://dc.lft.to/lastmile_qr_scan"}}, {"name": "7de750f37b55d80ee772652409f68246", "fusion_lat": 0.0, "type": "electric_scooter", "lat": 38.94977333333333, "is_reserved": 0, "is_disabled": 0, "fusion_lon": 0.0, "bike_id": "7de750f37b55d80ee772652409f68246", "lon": -77.03499383333333, "rental_uris": {"ios": "https://dc.lft.to/lastmile_qr_scan", "android": "https://dc.lft.to/lastmile_qr_scan"}}, {"name": "3790f4b24beecc0ebf492f9cd3600408", "fusion_lat": 0.0, "type": "electric_scooter", "lat": 38.93535266666667, "is_reserved": 0, "is_disabled": 0, "fusion_lon": 0.0, "bike_id": "3790f4b24beecc0ebf492f9cd3600408", "lon": -77.03262733333334, "rental_uris": {"ios": "https://dc.lft.to/lastmile_qr_scan", "android": "https://dc.lft.to/lastmile_qr_scan"}}, {"name": "2666427e8d0d9113f07a9e8ef6855b2b", "fusion_lat": 0.0, "type": "electric_scooter", "lat": 38.925802166666664, "is_reserved": 0, "is_disabled": 0, "fusion_lon": 0.0, "bike_id": "2666427e8d0d9113f07a9e8ef6855b2b", "lon": -77.02603683333334, "rental_uris": {"ios": "https://dc.lft.to/lastmile_qr_scan", "android": "https://dc.lft.to/lastmile_qr_scan"}}, {"name": "532698a7c0dd12b5eaf7ce8f0cc33b45", "fusion_lat": 0.0, "type": "electric_scooter", "lat": 38.96560383333333, "is_reserved": 0, "is_disabled": 0, "fusion_lon": 0.0, "bike_id": "532698a7c0dd12b5eaf7ce8f0cc33b45", "lon": -77.01624383333333, "rental_uris": {"ios": "https://dc.lft.to/lastmile_qr_scan", "android": "https://dc.lft.to/lastmile_qr_scan"}}, {"name": "6270702628b100ffc4e7ab5e80eb03fb", "fusion_lat": 0.0, "type": "electric_scooter", "lat": 38.9097995, "is_reserved": 0, "is_disabled": 0, "fusion_lon": 0.0, "bike_id": "6270702628b100ffc4e7ab5e80eb03fb", "lon": -77.01712016666667, "rental_uris": {"ios": "https://dc.lft.to/lastmile_qr_scan", "android": "https://dc.lft.to/lastmile_qr_scan"}}, {"name": "b17afd2fd07152b331f4dc673cc53b13", "fusion_lat": 0.0, "type": "electric_scooter", "lat": 38.90581, "is_reserved": 0, "is_disabled": 0, "fusion_lon": 0.0, "bike_id": "b17afd2fd07152b331f4dc673cc53b13", "lon": -77.04863733333333, "rental_uris": {"ios": "https://dc.lft.to/lastmile_qr_scan", "android": "https://dc.lft.to/lastmile_qr_scan"}}, {"name": "ff8109f089e32226da2da983eb6153c4", "fusion_lat": 0.0, "type": "electric_bike", "lat": 38.91310516666667, "is_reserved": 0, "is_disabled": 0, "fusion_lon": 0.0, "bike_id": "ff8109f089e32226da2da983eb6153c4", "lon": -76.97613166666666, "rental_uris": {"ios": "https://dc.lft.to/lastmile_qr_scan", "android": "https://dc.lft.to/lastmile_qr_scan"}}, {"name": "906831c97080c497c0ec391eb736cf2e", "fusion_lat": 0.0, "type": "electric_scooter", "lat": 38.9387565, "is_reserved": 0, "is_disabled": 0, "fusion_lon": 0.0, "bike_id": "906831c97080c497c0ec391eb736cf2e", "lon": -77.0325655, "rental_uris": {"ios": "https://dc.lft.to/lastmile_qr_scan", "android": "https://dc.lft.to/lastmile_qr_scan"}}, {"name": "11c99e19d2a9c3b092985dfe143ec73f", "fusion_lat": 0.0, "type": "electric_scooter", "lat": 38.9301735, "is_reserved": 0, "is_disabled": 0, "fusion_lon": 0.0, "bike_id": "11c99e19d2a9c3b092985dfe143ec73f", "lon": -77.037865, "rental_uris": {"ios": "https://dc.lft.to/lastmile_qr_scan", "android": "https://dc.lft.to/lastmile_qr_scan"}}, {"name": "556959ce4fa21ce8e1e0d9d3b44676b1", "fusion_lat": 0.0, "type": "electric_scooter", "lat": 38.8984215, "is_reserved": 0, "is_disabled": 0, "fusion_lon": 0.0, "bike_id": "556959ce4fa21ce8e1e0d9d3b44676b1", "lon": -77.02003533333334, "rental_uris": {"ios": "https://dc.lft.to/lastmile_qr_scan", "android": "https://dc.lft.to/lastmile_qr_scan"}}, {"name": "6a5a9fee57ccb47c4630bf0a5d1e5d03", "fusion_lat": 0.0, "type": "electric_scooter", "lat": 38.899895, "is_reserved": 0, "is_disabled": 0, "fusion_lon": 0.0, "bike_id": "6a5a9fee57ccb47c4630bf0a5d1e5d03", "lon": -77.0111785, "rental_uris": {"ios": "https://dc.lft.to/lastmile_qr_scan", "android": "https://dc.lft.to/lastmile_qr_scan"}}, {"name": "a784afb8cab6b2670cf9935f23c294c8", "fusion_lat": 0.0, "type": "electric_scooter", "lat": 38.913483666666664, "is_reserved": 0, "is_disabled": 0, "fusion_lon": 0.0, "bike_id": "a784afb8cab6b2670cf9935f23c294c8", "lon": -77.00340583333333, "rental_uris": {"ios": "https://dc.lft.to/lastmile_qr_scan", "android": "https://dc.lft.to/lastmile_qr_scan"}}, {"name": "5f78839c29d74573fe37d0b267570ee3", "fusion_lat": 0.0, "type": "electric_bike", "lat": 38.875525833333334, "is_reserved": 0, "is_disabled": 0, "fusion_lon": 0.0, "bike_id": "5f78839c29d74573fe37d0b267570ee3", "lon": -76.96759366666667, "rental_uris": {"ios": "https://dc.lft.to/lastmile_qr_scan", "android": "https://dc.lft.to/lastmile_qr_scan"}}, {"name": "57ec9da4abd5f9aacacc4ffb16692988", "fusion_lat": 0.0, "type": "electric_scooter", "lat": 38.900135166666665, "is_reserved": 0, "is_disabled": 0, "fusion_lon": 0.0, "bike_id": "57ec9da4abd5f9aacacc4ffb16692988", "lon": -76.9971135, "rental_uris": {"ios": "https://dc.lft.to/lastmile_qr_scan", "android": "https://dc.lft.to/lastmile_qr_scan"}}, {"name": "aea63e718f68b76d86db5571477005d4", "fusion_lat": 0.0, "type": "electric_scooter", "lat": 38.9096115, "is_reserved": 0, "is_disabled": 0, "fusion_lon": 0.0, "bike_id": "aea63e718f68b76d86db5571477005d4", "lon": -77.0405855, "rental_uris": {"ios": "https://dc.lft.to/lastmile_qr_scan", "android": "https://dc.lft.to/lastmile_qr_scan"}}, {"name": "8ab27627aa1eea27c1727cb963a69353", "fusion_lat": 0.0, "type": "electric_scooter", "lat": 38.92972016666667, "is_reserved": 0, "is_disabled": 0, "fusion_lon": 0.0, "bike_id": "8ab27627aa1eea27c1727cb963a69353", "lon": -77.019665, "rental_uris": {"ios": "https://dc.lft.to/lastmile_qr_scan", "android": "https://dc.lft.to/lastmile_qr_scan"}}, {"name": "7f3b59839229ea719f9784c2391e9afa", "fusion_lat": 0.0, "type": "electric_scooter", "lat": 38.90263566666667, "is_reserved": 0, "is_disabled": 0, "fusion_lon": 0.0, "bike_id": "7f3b59839229ea719f9784c2391e9afa", "lon": -77.017845, "rental_uris": {"ios": "https://dc.lft.to/lastmile_qr_scan", "android": "https://dc.lft.to/lastmile_qr_scan"}}, {"name": "9053d0922dd209c3f81d939113256fbf", "fusion_lat": 0.0, "type": "electric_scooter", "lat": 38.93253, "is_reserved": 0, "is_disabled": 0, "fusion_lon": 0.0, "bike_id": "9053d0922dd209c3f81d939113256fbf", "lon": -77.04010683333334, "rental_uris": {"ios": "https://dc.lft.to/lastmile_qr_scan", "android": "https://dc.lft.to/lastmile_qr_scan"}}, {"name": "f4ea7160c8f31764315d6d0f9e11c7eb", "fusion_lat": 0.0, "type": "electric_bike", "lat": 38.94976783333333, "is_reserved": 0, "is_disabled": 0, "fusion_lon": 0.0, "bike_id": "f4ea7160c8f31764315d6d0f9e11c7eb", "lon": -76.97279166666667, "rental_uris": {"ios": "https://dc.lft.to/lastmile_qr_scan", "android": "https://dc.lft.to/lastmile_qr_scan"}}, {"name": "943791197f73eb0087a83aa877ef8a0f", "fusion_lat": 0.0, "type": "electric_scooter", "lat": 38.884082166666666, "is_reserved": 0, "is_disabled": 0, "fusion_lon": 0.0, "bike_id": "943791197f73eb0087a83aa877ef8a0f", "lon": -77.01934733333333, "rental_uris": {"ios": "https://dc.lft.to/lastmile_qr_scan", "android": "https://dc.lft.to/lastmile_qr_scan"}}, {"name": "cc97015ec1261b8a69429f01c87cc059", "fusion_lat": 0.0, "type": "electric_scooter", "lat": 38.925070833333336, "is_reserved": 0, "is_disabled": 0, "fusion_lon": 0.0, "bike_id": "cc97015ec1261b8a69429f01c87cc059", "lon": -77.02165216666667, "rental_uris": {"ios": "https://dc.lft.to/lastmile_qr_scan", "android": "https://dc.lft.to/lastmile_qr_scan"}}, {"name": "463db93afa0f4abbbac303b8b4c400d0", "fusion_lat": 0.0, "type": "electric_scooter", "lat": 38.899703, "is_reserved": 0, "is_disabled": 0, "fusion_lon": 0.0, "bike_id": "463db93afa0f4abbbac303b8b4c400d0", "lon": -77.05703066666666, "rental_uris": {"ios": "https://dc.lft.to/lastmile_qr_scan", "android": "https://dc.lft.to/lastmile_qr_scan"}}, {"name": "c1e65a07e25901fc2ab3c603a97e2fc6", "fusion_lat": 0.0, "type": "electric_scooter", "lat": 38.918017666666664, "is_reserved": 0, "is_disabled": 0, "fusion_lon": 0.0, "bike_id": "c1e65a07e25901fc2ab3c603a97e2fc6", "lon": -77.03443433333334, "rental_uris": {"ios": "https://dc.lft.to/lastmile_qr_scan", "android": "https://dc.lft.to/lastmile_qr_scan"}}, {"name": "515ce5aaea34997fdc390906aa71245d", "fusion_lat": 0.0, "type": "electric_scooter", "lat": 38.87641266666667, "is_reserved": 0, "is_disabled": 0, "fusion_lon": 0.0, "bike_id": "515ce5aaea34997fdc390906aa71245d", "lon": -77.0074485, "rental_uris": {"ios": "https://dc.lft.to/lastmile_qr_scan", "android": "https://dc.lft.to/lastmile_qr_scan"}}, {"name": "7d7732fae9cc3273e53d360446e3ef92", "fusion_lat": 0.0, "type": "electric_scooter", "lat": 38.896043166666665, "is_reserved": 0, "is_disabled": 0, "fusion_lon": 0.0, "bike_id": "7d7732fae9cc3273e53d360446e3ef92", "lon": -77.04749133333334, "rental_uris": {"ios": "https://dc.lft.to/lastmile_qr_scan", "android": "https://dc.lft.to/lastmile_qr_scan"}}, {"name": "7b5dac9aa08c9bed49c909ed4e04549e", "fusion_lat": 0.0, "type": "electric_scooter", "lat": 38.918127166666665, "is_reserved": 0, "is_disabled": 0, "fusion_lon": 0.0, "bike_id": "7b5dac9aa08c9bed49c909ed4e04549e", "lon": -77.04004733333333, "rental_uris": {"ios": "https://dc.lft.to/lastmile_qr_scan", "android": "https://dc.lft.to/lastmile_qr_scan"}}, {"name": "95708bad880866ce35c2b29b25d67117", "fusion_lat": 0.0, "type": "electric_bike", "lat": 38.828788833333334, "is_reserved": 0, "is_disabled": 0, "fusion_lon": 0.0, "bike_id": "95708bad880866ce35c2b29b25d67117", "lon": -77.11222766666667, "rental_uris": {"ios": "https://dc.lft.to/lastmile_qr_scan", "android": "https://dc.lft.to/lastmile_qr_scan"}}, {"name": "b9b3e2bbfaee30ef55d79e5e06990558", "fusion_lat": 0.0, "type": "electric_bike", "lat": 38.990916166666665, "is_reserved": 0, "is_disabled": 0, "fusion_lon": 0.0, "bike_id": "b9b3e2bbfaee30ef55d79e5e06990558", "lon": -76.87494033333333, "rental_uris": {"ios": "https://dc.lft.to/lastmile_qr_scan", "android": "https://dc.lft.to/lastmile_qr_scan"}}, {"name": "2948a7e7bfb454ec521f4a31ca7aabb0", "fusion_lat": 0.0, "type": "electric_scooter", "lat": 38.93092516666667, "is_reserved": 0, "is_disabled": 0, "fusion_lon": 0.0, "bike_id": "2948a7e7bfb454ec521f4a31ca7aabb0", "lon": -77.0345275, "rental_uris": {"ios": "https://dc.lft.to/lastmile_qr_scan", "android": "https://dc.lft.to/lastmile_qr_scan"}}, {"name": "a2446ee0de9549712a8fd04fde012e0a", "fusion_lat": 0.0, "type": "electric_scooter", "lat": 38.909674, "is_reserved": 0, "is_disabled": 0, "fusion_lon": 0.0, "bike_id": "a2446ee0de9549712a8fd04fde012e0a", "lon": -77.02747683333334, "rental_uris": {"ios": "https://dc.lft.to/lastmile_qr_scan", "android": "https://dc.lft.to/lastmile_qr_scan"}}, {"name": "85d562d57441e46ce9fa45b8e00267e3", "fusion_lat": 0.0, "type": "electric_scooter", "lat": 38.876347, "is_reserved": 0, "is_disabled": 0, "fusion_lon": 0.0, "bike_id": "85d562d57441e46ce9fa45b8e00267e3", "lon": -77.00829383333334, "rental_uris": {"ios": "https://dc.lft.to/lastmile_qr_scan", "android": "https://dc.lft.to/lastmile_qr_scan"}},