{"data": {"bikes": [{"is_disabled": 0, "lon": -77.04518983333334, "lat": 38.923171833333335, "name": "e551317437ab01da14c1844f7c82c907", "fusion_lon": 0.0, "fusion_lat": 0.0, "is_reserved": 0, "type": "electric_scooter", "bike_id": "e551317437ab01da14c1844f7c82c907", "rental_uris": {"android": "https://dc.lft.to/lastmile_qr_scan", "ios": "https://dc.lft.to/lastmile_qr_scan"}}, {"is_disabled": 0, "lon": -76.98989266666666, "lat": 38.8643975, "name": "05513b42ce0ec873bb6a8ec4eab4c970", "fusion_lon": 0.0, "fusion_lat": 0.0, "is_reserved": 0, "type": "electric_scooter", "bike_id": "05513b42ce0ec873bb6a8ec4eab4c970", "rental_uris": {"android": "https://dc.lft.to/lastmile_qr_scan", "ios": "https://dc.lft.to/lastmile_qr_scan"}}, {"is_disabled": 0, "lon": -76.96527, "lat": 38.8763295, "name": "b1d9cf26587ba352365da21fd5b6789f", "fusion_lon": 0.0, "fusion_lat": 0.0, "is_reserved": 0, "type": "electric_scooter", "bike_id": "b1d9cf26587ba352365da21fd5b6789f", "rental_uris": {"android": "https://dc.lft.to/lastmile_qr_scan", "ios": "https://dc.lft.to/lastmile_qr_scan"}}, {"is_disabled": 0, "lon": -77.0486475, "lat": 38.8997285, "name": "5432bc1495ec782805fbc60aba8290e7", "fusion_lon": 0.0, "fusion_lat": 0.0, "is_reserved": 0, "type": "electric_scooter", "bike_id": "5432bc1495ec782805fbc60aba8290e7", "rental_uris": {"android": "https://dc.lft.to/lastmile_qr_scan", "ios": "https://dc.lft.to/lastmile_qr_scan"}}, {"is_disabled": 0, "lon": -76.98312633333333, "lat": 38.868894166666664, "name": "7c0ef9ebc857dde2c391b5984015f1b0", "fusion_lon": 0.0, "fusion_lat": 0.0, "is_reserved": 0, "type": "electric_scooter", "bike_id": "7c0ef9ebc857dde2c391b5984015f1b0", "rental_uris": {"android": "https://dc.lft.to/lastmile_qr_scan", "ios": "https://dc.lft.to/lastmile_qr_scan"}}, {"is_disabled": 0, "lon": -77.016113, "lat": 38.906048, "name": "8ec864492afee3b34f065220e3288a24", "fusion_lon": 0.0, "fusion_lat": 0.0, "is_reserved": 0, "type": "electric_scooter", "bike_id": "8ec864492afee3b34f065220e3288a24", "rental_uris": {"android": "https://dc.lft.to/lastmile_qr_scan", "ios": "https://dc.lft.to/lastmile_qr_scan"}}, {"is_disabled": 0, "lon": -77.038593, "lat": 38.9112645, "name": "3fe8e3fec5586481f6ce743cfa98dace", "fusion_lon": 0.0, "fusion_lat": 0.0, "is_reserved": 0, "type": "electric_scooter", "bike_id": "3fe8e3fec5586481f6ce743cfa98dace", "rental_uris": {"android": "https://dc.lft.to/lastmile_qr_scan", "ios": "https://dc.lft.to/lastmile_qr_scan"}}, {"is_disabled": 0, "lon": -77.03147966666667, "lat": 38.9170405, "name": "0ca1ce869ac1c46293e728be091ae129", "fusion_lon": 0.0, "fusion_lat": 0.0, "is_reserved": 0, "type": "electric_scooter", "bike_id": "0ca1ce869ac1c46293e728be091ae129", "rental_uris": {"android": "https://dc.lft.to/lastmile_qr_scan", "ios": "https://dc.lft.to/lastmile_qr_scan"}}, {"is_disabled": 0, "lon": -77.03949633333333, "lat": 38.90835633333333, "name": "ec2183c684f3da307371bad8531ce001", "fusion_lon": 0.0, "fusion_lat": 0.0, "is_reserved": 0, "type": "electric_scooter", "bike_id": "ec2183c684f3da307371bad8531ce001", "rental_uris": {"android": "https://dc.lft.to/lastmile_qr_scan", "ios": "https://dc.lft.to/lastmile_qr_scan"}}, {"is_disabled": 0, "lon": -76.99509483333334, "lat": 38.88789716666667, "name": "5c8f67544f244d46b200b9acd1e7f3ff", "fusion_lon": 0.0, "fusion_lat": 0.0, "is_reserved": 0, "type": "electric_scooter", "bike_id": "5c8f67544f244d46b200b9acd1e7f3ff", "rental_uris": {"android": "https://dc.lft.to/lastmile_qr_scan", "ios": "https://dc.lft.to/lastmile_qr_scan"}}, {"is_disabled": 0, "lon": -77.043414, "lat": 38.905145833333336, "name": "3b7eeeb0ac14503d154ceb3724af6088", "fusion_lon": 0.0, "fusion_lat": 0.0, "is_reserved": 0, "type": "electric_scooter", "bike_id": "3b7eeeb0ac14503d154ceb3724af6088", "rental_uris": {"android": "https://dc.lft.to/lastmile_qr_scan", "ios": "https://dc.lft.to/lastmile_qr_scan"}}, {"is_disabled": 0, "lon": -77.04140483333333, "lat": 38.92258283333334, "name": "9eac1f368615c054bd6ae1586f7f03e8", "fusion_lon": 0.0, "fusion_lat": 0.0, "is_reserved": 0, "type": "electric_scooter", "bike_id": "9eac1f368615c054bd6ae1586f7f03e8", "rental_uris": {"android": "https://dc.lft.to/lastmile_qr_scan", "ios": "https://dc.lft.to/lastmile_qr_scan"}}, {"is_disabled": 0, "lon": -77.01204733333333, "lat": 38.915574, "name": "9d7fe81f24dfca8016b31a9d91bee085", "fusion_lon": 0.0, "fusion_lat": 0.0, "is_reserved": 0, "type": "electric_scooter", "bike_id": "9d7fe81f24dfca8016b31a9d91bee085", "rental_uris": {"android": "https://dc.lft.to/lastmile_qr_scan", "ios": "https://dc.lft.to/lastmile_qr_scan"}}, {"is_disabled": 0, "lon": -77.05009183333334, "lat": 38.905285166666665, "name": "4e8f40e4a888f9466d6a3f1ab50322e6", "fusion_lon": 0.0, "fusion_lat": 0.0, "is_reserved": 0, "type": "electric_scooter", "bike_id": "4e8f40e4a888f9466d6a3f1ab50322e6", "rental_uris": {"android": "https://dc.lft.to/lastmile_qr_scan", "ios": "https://dc.lft.to/lastmile_qr_scan"}}, {"is_disabled": 0, "lon": -77.02690216666667, "lat": 38.9086835, "name": "6744c5299cea68e98d3900f5260e2129", "fusion_lon": 0.0, "fusion_lat": 0.0, "is_reserved": 0, "type": "electric_scooter", "bike_id": "6744c5299cea68e98d3900f5260e2129", "rental_uris": {"android": "https://dc.lft.to/lastmile_qr_scan", "ios": "https://dc.lft.to/lastmile_qr_scan"}}, {"is_disabled": 0, "lon": -77.01172216666667, "lat": 38.90030483333334, "name": "d849277eceeef50e02a49be41c895294", "fusion_lon": 0.0, "fusion_lat": 0.0, "is_reserved": 0, "type": "electric_scooter", "bike_id": "d849277eceeef50e02a49be41c895294", "rental_uris": {"android": "https://dc.lft.to/lastmile_qr_scan", "ios": "https://dc.lft.to/lastmile_qr_scan"}}, {"is_disabled": 0, "lon": -76.99728716666667, "lat": 38.92037283333333, "name": "1359c6df3266e2491995ef99dd6775ea", "fusion_lon": 0.0, "fusion_lat": 0.0, "is_reserved": 0, "type": "electric_scooter", "bike_id": "1359c6df3266e2491995ef99dd6775ea", "rental_uris": {"android": "https://dc.lft.to/lastmile_qr_scan", "ios": "https://dc.lft.to/lastmile_qr_scan"}}, {"is_disabled": 0, "lon": -76.93519783333333, "lat": 38.8789635, "name": "88cc326e204d868c9d4b0026e25855ad", "fusion_lon": 0.0, "fusion_lat": 0.0, "is_reserved": 0, "type": "electric_scooter", "bike_id": "88cc326e204d868c9d4b0026e25855ad", "rental_uris": {"android": "https://dc.lft.to/lastmile_qr_scan", "ios": "https://dc.lft.to/lastmile_qr_scan"}}, {"is_disabled": 0, "lon": -77.02848666666667, "lat": 38.93062833333333, "name": "a153d4fbf3ebd6b900afdc9d3a13dffa", "fusion_lon": 0.0, "fusion_lat": 0.0, "is_reserved": 0, "type": "electric_scooter", "bike_id": "a153d4fbf3ebd6b900afdc9d3a13dffa", "rental_uris": {"android": "https://dc.lft.to/lastmile_qr_scan", "ios": "https://dc.lft.to/lastmile_qr_scan"}}, {"is_disabled": 0, "lon": -77.08317983333333, "lat": 38.85443516666667, "name": "a3fd7e54ef15a24c2a259a69d8681090", "fusion_lon": 0.0, "fusion_lat": 0.0, "is_reserved": 0, "type": "electric_bike", "bike_id": "a3fd7e54ef15a24c2a259a69d8681090", "rental_uris": {"android": "https://dc.lft.to/lastmile_qr_scan", "ios": "https://dc.lft.to/lastmile_qr_scan"}}, {"is_disabled": 0, "lon": -77.035338, "lat": 38.9077385, "name": "00336376649adaaa78e5e600d45a4a07", "fusion_lon": 0.0, "fusion_lat": 0.0, "is_reserved": 0, "type": "electric_scooter", "bike_id": "00336376649adaaa78e5e600d45a4a07", "rental_uris": {"android": "https://dc.lft.to/lastmile_qr_scan", "ios": "https://dc.lft.to/lastmile_qr_scan"}}, {"is_disabled": 0, "lon": -76.9769845, "lat": 38.82205733333333, "name": "ff1a8bd0fbb9c432d5e2e7370a914831", "fusion_lon": 0.0, "fusion_lat": 0.0, "is_reserved": 0, "type": "electric_bike", "bike_id": "ff1a8bd0fbb9c432d5e2e7370a914831", "rental_uris": {"android": "https://dc.lft.to/lastmile_qr_scan", "ios": "https://dc.lft.to/lastmile_qr_scan"}}, {"is_disabled": 0, "lon": -77.04017416666667, "lat": 38.90728216666667, "name": "78b00b388b404c3366ddda8e4d22eafd", "fusion_lon": 0.0, "fusion_lat": 0.0, "is_reserved": 0, "type": "electric_scooter", "bike_id": "78b00b388b404c3366ddda8e4d22eafd", "rental_uris": {"android": "https://dc.lft.to/lastmile_qr_scan", "ios": "https://dc.lft.to/lastmile_qr_scan"}}, {"is_disabled": 0, "lon": -77.0358115, "lat": 38.908150666666664, "name": "7712c62c1b5bdc5e6dec8221775b045a", "fusion_lon": 0.0, "fusion_lat": 0.0, "is_reserved": 0, "type": "electric_scooter", "bike_id": "7712c62c1b5bdc5e6dec8221775b045a", "rental_uris": {"android": "https://dc.lft.to/lastmile_qr_scan", "ios": "https://dc.lft.to/lastmile_qr_scan"}}, {"is_disabled": 0, "lon": -77.01196933333334, "lat": 38.900261, "name": "2169c0e0eaa8d1cf42daf59df51d97ab", "fusion_lon": 0.0, "fusion_lat": 0.0, "is_reserved": 0, "type": "electric_scooter", "bike_id": "2169c0e0eaa8d1cf42daf59df51d97ab", "rental_uris": {"android": "https://dc.lft.to/lastmile_qr_scan", "ios": "https://dc.lft.to/lastmile_qr_scan"}}, {"is_disabled": 0, "lon": -77.07913666666667, "lat": 38.838265666666665, "name": "47a9675cf0d771422a8240c0f316df68", "fusion_lon": 0.0, "fusion_lat": 0.0, "is_reserved": 0, "type": "electric_bike", "bike_id": "47a9675cf0d771422a8240c0f316df68", "rental_uris": {"android": "https://dc.lft.to/lastmile_qr_scan", "ios": "https://dc.lft.to/lastmile_qr_scan"}}, {"is_disabled": 0, "lon": -77.00045216666666, "lat": 38.900272666666666, "name": "ce86d49299ea71dda7c06cda2f437c95", "fusion_lon": 0.0, "fusion_lat": 0.0, "is_reserved": 0, "type": "electric_scooter", "bike_id": "ce86d49299ea71dda7c06cda2f437c95", "rental_uris": {"android": "https://dc.lft.to/lastmile_qr_scan", "ios": "https://dc.lft.to/lastmile_qr_scan"}}, {"is_disabled": 0, "lon": -77.02446716666667, "lat": 38.94975216666667, "name": "d95e037d4ee493af308ac6aee7e848be", "fusion_lon": 0.0, "fusion_lat": 0.0, "is_reserved": 0, "type": "electric_scooter", "bike_id": "d95e037d4ee493af308ac6aee7e848be", "rental_uris": {"android": "https://dc.lft.to/lastmile_qr_scan", "ios": "https://dc.lft.to/lastmile_qr_scan"}}, {"is_disabled": 0, "lon": -77.01209983333334, "lat": 38.91502233333333, "name": "297f125ad8ea63ec7726c60ea94ab6c6", "fusion_lon": 0.0, "fusion_lat": 0.0, "is_reserved": 0, "type": "electric_scooter", "bike_id": "297f125ad8ea63ec7726c60ea94ab6c6", "rental_uris": {"android": "https://dc.lft.to/lastmile_qr_scan", "ios": "https://dc.lft.to/lastmile_qr_scan"}}, {"is_disabled": 0, "lon": -76.93754433333334, "lat": 38.890469, "name": "f18087948cbff15babcc421d3b5baaa6", "fusion_lon": 0.0, "fusion_lat": 0.0, "is_reserved": 0, "type": "electric_scooter", "bike_id": "f18087948cbff15babcc421d3b5baaa6", "rental_uris": {"android": "https://dc.lft.to/lastmile_qr_scan", "ios": "https://dc.lft.to/lastmile_qr_scan"}}, {"is_disabled": 0, "lon": -77.03243266666666, "lat": 38.92857883333333, "name": "b8c79f3fc1abc51ad2925af3b311f989", "fusion_lon": 0.0, "fusion_lat": 0.0, "is_reserved": 0, "type": "electric_scooter", "bike_id": "b8c79f3fc1abc51ad2925af3b311f989", "rental_uris": {"android": "https://dc.lft.to/lastmile_qr_scan", "ios": "https://dc.lft.to/lastmile_qr_scan"}}, {"is_disabled": 0, "lon": -77.06376083333333, "lat": 38.905244, "name": "30cd67dd56f10b6e82e0d241368535fa", "fusion_lon": 0.0, "fusion_lat": 0.0, "is_reserved": 0, "type": "electric_scooter", "bike_id": "30cd67dd56f10b6e82e0d241368535fa", "rental_uris": {"android": "https://dc.lft.to/lastmile_qr_scan", "ios": "https://dc.lft.to/lastmile_qr_scan"}}, {"is_disabled": 0, "lon": -77.10289933333334, "lat": 38.852549833333335, "name": "78e088a9b28f4c7a183a204dc2afe0d7", "fusion_lon": 0.0, "fusion_lat": 0.0, "is_reserved": 0, "type": "electric_bike", "bike_id": "78e088a9b28f4c7a183a204dc2afe0d7", "rental_uris": {"android": "https://dc.lft.to/lastmile_qr_scan", "ios": "https://dc.lft.to/lastmile_qr_scan"}}, {"is_disabled": 0, "lon": -77.0357725, "lat": 38.932397, "name": "9290aac5ce8482ecbe39635c68a5a894", "fusion_lon": 0.0, "fusion_lat": 0.0, "is_reserved": 0, "type": "electric_scooter", "bike_id": "9290aac5ce8482ecbe39635c68a5a894", "rental_uris": {"android": "https://dc.lft.to/lastmile_qr_scan", "ios": "https://dc.lft.to/lastmile_qr_scan"}}, {"is_disabled": 0, "lon": -77.032391, "lat": 38.920026166666666, "name": "b65504e3df5b1b8117c5397a899b9591", "fusion_lon": 0.0, "fusion_lat": 0.0, "is_reserved": 0, "type": "electric_scooter", "bike_id": "b65504e3df5b1b8117c5397a899b9591", "rental_uris": {"android": "https://dc.lft.to/lastmile_qr_scan", "ios": "https://dc.lft.to/lastmile_qr_scan"}}, {"is_disabled": 0, "lon": -77.01952983333334, "lat": 38.92331766666667, "name": "0955c8deeb9f36467ccce2e01f3d8507", "fusion_lon": 0.0, "fusion_lat": 0.0, "is_reserved": 0, "type": "electric_scooter", "bike_id": "0955c8deeb9f36467ccce2e01f3d8507", "rental_uris": {"android": "https://dc.lft.to/lastmile_qr_scan", "ios": "https://dc.lft.to/lastmile_qr_scan"}}, {"is_disabled": 0, "lon": -77.03400133333334, "lat": 38.90148116666667, "name": "ecd9123f4716d99d69f388b8c9dda04b", "fusion_lon": 0.0, "fusion_lat": 0.0, "is_reserved": 0, "type": "electric_scooter", "bike_id": "ecd9123f4716d99d69f388b8c9dda04b", "rental_uris": {"android": "https://dc.lft.to/lastmile_qr_scan", "ios": "https://dc.lft.to/lastmile_qr_scan"}}, {"is_disabled": 0, "lon": -77.23177266666667, "lat": 38.928955, "name": "9990243f83906926b578e84376c4c384", "fusion_lon": 0.0, "fusion_lat": 0.0, "is_reserved": 0, "type": "electric_bike", "bike_id": "9990243f83906926b578e84376c4c384", "rental_uris": {"android": "https://dc.lft.to/lastmile_qr_scan", "ios": "https://dc.lft.to/lastmile_qr_scan"}}, {"is_disabled": 0, "lon": -77.044868, "lat": 38.913577, "name": "5d08d94892ce4f2a631b3f41a801be3f", "fusion_lon": 0.0, "fusion_lat": 0.0, "is_reserved": 0, "type": "electric_scooter", "bike_id": "5d08d94892ce4f2a631b3f41a801be3f", "rental_uris": {"android": "https://dc.lft.to/lastmile_qr_scan", "ios": "https://dc.lft.to/lastmile_qr_scan"}}, {"is_disabled": 0, "lon": -76.98359683333334, "lat": 38.887329333333334, "name": "0c02c30c09c06dd4447d1ce8ad169467", "fusion_lon": 0.0, "fusion_lat": 0.0, "is_reserved": 0, "type": "electric_scooter", "bike_id": "0c02c30c09c06dd4447d1ce8ad169467", "rental_uris": {"android": "https://dc.lft.to/lastmile_qr_scan", "ios": "https://dc.lft.to/lastmile_qr_scan"}}, {"is_disabled": 0, "lon": -77.02403816666667, "lat": 38.921001, "name": "3fc88838b7be50478a95be371d7996d3", "fusion_lon": 0.0, "fusion_lat": 0.0, "is_reserved": 0, "type": "electric_scooter", "bike_id": "3fc88838b7be50478a95be371d7996d3", "rental_uris": {"android": "https://dc.lft.to/lastmile_qr_scan", "ios": "https://dc.lft.to/lastmile_qr_scan"}}, {"is_disabled": 0, "lon": -77.025739, "lat": 38.948493166666665, "name": "a9224821262ced53a64341c143a78061", "fusion_lon": 0.0, "fusion_lat": 0.0, "is_reserved": 0, "type": "electric_scooter", "bike_id": "a9224821262ced53a64341c143a78061", "rental_uris": {"android": "https://dc.lft.to/lastmile_qr_scan", "ios": "https://dc.lft.to/lastmile_qr_scan"}}, {"is_disabled": 0, "lon": -77.00606266666666, "lat": 38.91123433333333, "name": "3eeb3dc4e3f7d952bb4369f70a233d9d", "fusion_lon": 0.0, "fusion_lat": 0.0, "is_reserved": 0, "type": "electric_scooter", "bike_id": "3eeb3dc4e3f7d952bb4369f70a233d9d", "rental_uris": {"android": "https://dc.lft.to/lastmile_qr_scan", "ios": "https://dc.lft.to/lastmile_qr_scan"}}, {"is_disabled": 0, "lon": -76.98344333333333, "lat": 38.900898166666664, "name": "b4c245ce1ccb02cb60adcd8160e812ef", "fusion_lon": 0.0, "fusion_lat": 0.0, "is_reserved": 0, "type": "electric_scooter", "bike_id": "b4c245ce1ccb02cb60adcd8160e812ef", "rental_uris": {"android": "https://dc.lft.to/lastmile_qr_scan", "ios": "https://dc.lft.to/lastmile_qr_scan"}}, {"is_disabled": 0, "lon": -76.98336083333334, "lat": 38.8954315, "name": "e589851f01c7790de169f974cc1ff034", "fusion_lon": 0.0, "fusion_lat": 0.0, "is_reserved": 0, "type": "electric_scooter", "bike_id": "e589851f01c7790de169f974cc1ff034", "rental_uris": {"android": "https://dc.lft.to/lastmile_qr_scan", "ios": "https://dc.lft.to/lastmile_qr_scan"}}, {"is_disabled": 0, "lon": -77.04481733333333, "lat": 38.897475666666665, "name": "fb8ab0892a7477730b14a337f7a1eb20", "fusion_lon": 0.0, "fusion_lat": 0.0, "is_reserved": 0, "type": "electric_scooter", "bike_id": "fb8ab0892a7477730b14a337f7a1eb20", "rental_uris": {"android": "https://dc.lft.to/lastmile_qr_scan", "ios": "https://dc.lft.to/lastmile_qr_scan"}}, {"is_disabled": 0, "lon": -77.026038, "lat": 38.9034865, "name": "f28712f019bdfd9813dacda7ce73eb18", "fusion_lon": 0.0, "fusion_lat": 0.0, "is_reserved": 0, "type": "electric_scooter", "bike_id": "f28712f019bdfd9813dacda7ce73eb18", "rental_uris": {"android": "https://dc.lft.to/lastmile_qr_scan", "ios": "https://dc.lft.to/lastmile_qr_scan"}}, {"is_disabled": 0, "lon": -77.04877666666667, "lat": 38.9016135, "name": "d13a2c5135f9a23e19517463cccb05ee", "fusion_lon": 0.0, "fusion_lat": 0.0, "is_reserved": 0, "type": "electric_scooter", "bike_id": "d13a2c5135f9a23e19517463cccb05ee", "rental_uris": {"android": "https://dc.lft.to/lastmile_qr_scan", "ios": "https://dc.lft.to/lastmile_qr_scan"}}, {"is_disabled": 0, "lon": -77.049269, "lat": 38.895454, "name": "899ee3945ed4f66d928bc92b72ea9f3c", "fusion_lon": 0.0, "fusion_lat": 0.0, "is_reserved": 0, "type": "electric_scooter", "bike_id": "899ee3945ed4f66d928bc92b72ea9f3c", "rental_uris": {"android": "https://dc.lft.to/lastmile_qr_scan", "ios": "https://dc.lft.to/lastmile_qr_scan"}}, {"is_disabled": 0, "lon": -77.02213883333333, "lat": 38.896196333333336, "name": "d9c48f38ba860f8ca94b4059a64487fd", "fusion_lon": 0.0, "fusion_lat": 0.0, "is_reserved": 0, "type": "electric_scooter", "bike_id": "d9c48f38ba860f8ca94b4059a64487fd", "rental_uris": {"android": "https://dc.lft.to/lastmile_qr_scan", "ios": "https://dc.lft.to/lastmile_qr_scan"}}, {"is_disabled": 0, "lon": -77.04033366666667, "lat": 38.899281, "name": "ab229fedcc91aee81484d5d4a59772b4", "fusion_lon": 0.0, "fusion_lat": 0.0, "is_reserved": 0, "type": "electric_scooter", "bike_id": "ab229fedcc91aee81484d5d4a59772b4", "rental_uris": {"android": "https://dc.lft.to/lastmile_qr_scan", "ios": "https://dc.lft.to/lastmile_qr_scan"}}, {"is_disabled": 0, "lon": -77.01556716666667, "lat": 38.8722245, "name": "fde893a9b885a7f58cbd6b1106553ef9", "fusion_lon": 0.0, "fusion_lat": 0.0, "is_reserved": 0, "type": "electric_scooter", "bike_id": "fde893a9b885a7f58cbd6b1106553ef9", "rental_uris": {"android": "https://dc.lft.to/lastmile_qr_scan", "ios": "https://dc.lft.to/lastmile_qr_scan"}}, {"is_disabled": 0, "lon": -77.0390255, "lat": 38.92209033333334, "name": "5aea6106dc576413e53b89bdd9c818ae", "fusion_lon": 0.0, "fusion_lat": 0.0, "is_reserved": 0, "type": "electric_scooter", "bike_id": "5aea6106dc576413e53b89bdd9c818ae", "rental_uris": {"android": "https://dc.lft.to/lastmile_qr_scan", "ios": "https://dc.lft.to/lastmile_qr_scan"}}, {"is_disabled": 0, "lon": -77.03895233333333, "lat": 38.902624333333335, "name": "30a12d64236d096b5f5e99f469081627", "fusion_lon": 0.0, "fusion_lat": 0.0, "is_reserved": 0, "type": "electric_bike", "bike_id": "30a12d64236d096b5f5e99f469081627", "rental_uris": {"android": "https://dc.lft.to/lastmile_qr_scan", "ios": "https://dc.lft.to/lastmile_qr_scan"}}, {"is_disabled": 0, "lon": -77.01071033333334, "lat": 38.918230333333334, "name": "d95a2795ee9c5fda1418c4060b67eec3", "fusion_lon": 0.0, "fusion_lat": 0.0, "is_reserved": 0, "type": "electric_scooter", "bike_id": "d95a2795ee9c5fda1418c4060b67eec3", "rental_uris": {"android": "https://dc.lft.to/lastmile_qr_scan", "ios": "https://dc.lft.to/lastmile_qr_scan"}}, {"is_disabled": 0, "lon": -77.04566066666666, "lat": 38.90397516666667, "name": "a47fc70c7d19fc4d6e1600742dd3b2a3", "fusion_lon": 0.0, "fusion_lat": 0.0, "is_reserved": 0, "type": "electric_scooter", "bike_id": "a47fc70c7d19fc4d6e1600742dd3b2a3", "rental_uris": {"android": "https://dc.lft.to/lastmile_qr_scan", "ios": "https://dc.lft.to/lastmile_qr_scan"}}, {"is_disabled": 0, "lon": -77.0121195, "lat": 38.921228166666666, "name": "d1436b86c4147d722b7fd4303d1909ed", "fusion_lon": 0.0, "fusion_lat": 0.0, "is_reserved": 0, "type": "electric_scooter", "bike_id": "d1436b86c4147d722b7fd4303d1909ed", "rental_uris": {"android": "https://dc.lft.to/lastmile_qr_scan", "ios": "https://dc.lft.to/lastmile_qr_scan"}}, {"is_disabled": 0, "lon": -77.029427, "lat": 38.898383333333335, "name": "b1591906b8eb88870f345379a5bab8fb", "fusion_lon": 0.0, "fusion_lat": 0.0, "is_reserved": 0, "type": "electric_scooter", "bike_id": "b1591906b8eb88870f345379a5bab8fb", "rental_uris": {"android": "https://dc.lft.to/lastmile_qr_scan", "ios": "https://dc.lft.to/lastmile_qr_scan"}}, {"is_disabled": 0, "lon": -77.065758, "lat": 38.9039675, "name": "c2879691c7c93cc6e5f1cc23fc58e845", "fusion_lon": 0.0, "fusion_lat": 0.0, "is_reserved": 0, "type": "electric_scooter", "bike_id": "c2879691c7c93cc6e5f1cc23fc58e845", "rental_uris": {"android": "https://dc.lft.to/lastmile_qr_scan", "ios": "https://dc.lft.to/lastmile_qr_scan"}}, {"is_disabled": 0, "lon": -77.0636125, "lat": 38.920215, "name": "fc5d55779cf444c28e8b8351a80c898b", "fusion_lon": 0.0, "fusion_lat": 0.0, "is_reserved": 0, "type": "electric_scooter", "bike_id": "fc5d55779cf444c28e8b8351a80c898b", "rental_uris": {"android": "https://dc.lft.to/lastmile_qr_scan", "ios": "https://dc.lft.to/lastmile_qr_scan"}}, {"is_disabled": 0, "lon": -77.044847, "lat": 38.8995655, "name": "58d66ac7d7f6a137dc408dbd6f2bb543", "fusion_lon": 0.0, "fusion_lat": 0.0, "is_reserved": 0, "type": "electric_scooter", "bike_id": "58d66ac7d7f6a137dc408dbd6f2bb543", "rental_uris": {"android": "https://dc.lft.to/lastmile_qr_scan", "ios": "https://dc.lft.to/lastmile_qr_scan"}}, {"is_disabled": 0, "lon": -76.98372783333333, "lat": 38.8926535, "name": "02cbdfcb687664c0821dcfb5b3ea2293", "fusion_lon": 0.0, "fusion_lat": 0.0, "is_reserved": 0, "type": "electric_scooter", "bike_id": "02cbdfcb687664c0821dcfb5b3ea2293", "rental_uris": {"android": "https://dc.lft.to/lastmile_qr_scan", "ios": "https://dc.lft.to/lastmile_qr_scan"}}, {"is_disabled": 0, "lon": -77.03958016666667, "lat": 38.8985245, "name": "494c922e786a415ff77ae2534b8083bc", "fusion_lon": 0.0, "fusion_lat": 0.0, "is_reserved": 0, "type": "electric_scooter", "bike_id": "494c922e786a415ff77ae2534b8083bc", "rental_uris": {"android": "https://dc.lft.to/lastmile_qr_scan", "ios": "https://dc.lft.to/lastmile_qr_scan"}}, {"is_disabled": 0, "lon": -76.998426, "lat": 38.90058716666667, "name": "54db3f84f852fb96fa46d6551014344c", "fusion_lon": 0.0, "fusion_lat": 0.0, "is_reserved": 0, "type": "electric_scooter", "bike_id": "54db3f84f852fb96fa46d6551014344c", "rental_uris": {"android": "https://dc.lft.to/lastmile_qr_scan", "ios": "https://dc.lft.to/lastmile_qr_scan"}}, {"is_disabled": 0, "lon": -77.00057833333334, "lat": 38.87366933333333, "name": "89f024e3c8d1ae41594f429daeab2ab3", "fusion_lon": 0.0, "fusion_lat": 0.0, "is_reserved": 0, "type": "electric_scooter", "bike_id": "89f024e3c8d1ae41594f429daeab2ab3", "rental_uris": {"android": "https://dc.lft.to/lastmile_qr_scan", "ios": "https://dc.lft.to/lastmile_qr_scan"}}, {"is_disabled": 0, "lon": -76.96059766666667, "lat": 38.8839895, "name": "933b213677fe580e87e556fc62653aba", "fusion_lon": 0.0, "fusion_lat": 0.0, "is_reserved": 0, "type": "electric_bike", "bike_id": "933b213677fe580e87e556fc62653aba", "rental_uris": {"android": "https://dc.lft.to/lastmile_qr_scan", "ios": "https://dc.lft.to/lastmile_qr_scan"}}, {"is_disabled": 0, "lon": -77.02343883333333, "lat": 38.941987166666664, "name": "333bcc329b4c7cb88ca6698ded69aa1a", "fusion_lon": 0.0, "fusion_lat": 0.0, "is_reserved": 0, "type": "electric_scooter", "bike_id": "333bcc329b4c7cb88ca6698ded69aa1a", "rental_uris": {"android": "https://dc.lft.to/lastmile_qr_scan", "ios": "https://dc.lft.to/lastmile_qr_scan"}}, {"is_disabled": 0, "lon": -77.04210916666666, "lat": 38.909246833333334, "name": "ecc885edda6b51a1230282a33482052e", "fusion_lon": 0.0, "fusion_lat": 0.0, "is_reserved": 0, "type": "electric_scooter", "bike_id": "ecc885edda6b51a1230282a33482052e", "rental_uris": {"android": "https://dc.lft.to/lastmile_qr_scan", "ios": "https://dc.lft.to/lastmile_qr_scan"}}, {"is_disabled": 0, "lon": -77.00518033333333, "lat": 38.896771333333334, "name": "f1fc8169b90fe4a7a0d7577b35c9d9f1", "fusion_lon": 0.0, "fusion_lat": 0.0, "is_reserved": 0, "type": "electric_scooter", "bike_id": "f1fc8169b90fe4a7a0d7577b35c9d9f1", "rental_uris": {"android": "https://dc.lft.to/lastmile_qr_scan", "ios": "https://dc.lft.to/lastmile_qr_scan"}}, {"is_disabled": 0, "lon": -77.00047583333334, "lat": 38.900205, "name": "9ea0d155f0a204913c529a8ce6957e22", "fusion_lon": 0.0, "fusion_lat": 0.0, "is_reserved": 0, "type": "electric_scooter", "bike_id": "9ea0d155f0a204913c529a8ce6957e22", "rental_uris": {"android": "https://dc.lft.to/lastmile_qr_scan", "ios": "https://dc.lft.to/lastmile_qr_scan"}}, {"is_disabled": 0, "lon": -77.066152, "lat": 38.913678, "name": "7c52421e4abae8955d6965e18d7632a6", "fusion_lon": 0.0, "fusion_lat": 0.0, "is_reserved": 0, "type": "electric_scooter", "bike_id": "7c52421e4abae8955d6965e18d7632a6", "rental_uris": {"android": "https://dc.lft.to/lastmile_qr_scan", "ios": "https://dc.lft.to/lastmile_qr_scan"}}, {"is_disabled": 0, "lon": -76.9289755, "lat": 38.87941466666667, "name": "4225a60cc0679d0c1477a362589cca14", "fusion_lon": 0.0, "fusion_lat": 0.0, "is_reserved": 0, "type": "electric_scooter", "bike_id": "4225a60cc0679d0c1477a362589cca14", "rental_uris": {"android": "https://dc.lft.to/lastmile_qr_scan", "ios": "https://dc.lft.to/lastmile_qr_scan"}}, {"is_disabled": 0, "lon": -77.03202, "lat": 38.9146185, "name": "92309b91fdbf1808b651ecd40ee5f501", "fusion_lon": 0.0, "fusion_lat": 0.0, "is_reserved": 0, "type": "electric_scooter", "bike_id": "92309b91fdbf1808b651ecd40ee5f501", "rental_uris": {"android": "https://dc.lft.to/lastmile_qr_scan", "ios": "https://dc.lft.to/lastmile_qr_scan"}}, {"is_disabled": 0, "lon": -77.00354583333333, "lat": 38.89273466666667, "name": "2c01aa6e212e2e7da03ea84c1c21a00f", "fusion_lon": 0.0, "fusion_lat": 0.0, "is_reserved": 0, "type": "electric_scooter", "bike_id": "2c01aa6e212e2e7da03ea84c1c21a00f", "rental_uris": {"android": "https://dc.lft.to/lastmile_qr_scan", "ios": "https://dc.lft.to/lastmile_qr_scan"}}, {"is_disabled": 0, "lon": -77.04161133333334, "lat": 38.90932016666667, "name": "2ac8eebb47f12ec47253db093f0db414", "fusion_lon": 0.0, "fusion_lat": 0.0, "is_reserved": 0, "type": "electric_scooter", "bike_id": "2ac8eebb47f12ec47253db093f0db414", "rental_uris": {"android": "https://dc.lft.to/lastmile_qr_scan", "ios": "https://dc.lft.to/lastmile_qr_scan"}}, {"is_disabled": 0, "lon": -77.0072755, "lat": 38.91194, "name": "e6624003f94203c86aa48426172dd47c", "fusion_lon": 0.0, "fusion_lat": 0.0, "is_reserved": 0, "type": "electric_scooter", "bike_id": "e6624003f94203c86aa48426172dd47c", "rental_uris": {"android": "https://dc.lft.to/lastmile_qr_scan", "ios": "https://dc.lft.to/lastmile_qr_scan"}}, {"is_disabled": 0, "lon": -77.049963, "lat": 38.899180333333334, "name": "8b3b684eb860e56231cbb54bb11fc7f6", "fusion_lon": 0.0, "fusion_lat": 0.0, "is_reserved": 0, "type": "electric_scooter", "bike_id": "8b3b684eb860e56231cbb54bb11fc7f6", "rental_uris": {"android": "https://dc.lft.to/lastmile_qr_scan", "ios": "https://dc.lft.to/lastmile_qr_scan"}}, {"is_disabled": 0, "lon": -76.98277366666667, "lat": 38.90342483333333, "name": "0e50ccf4dc1564a70be02b3e1dd17399", "fusion_lon": 0.0, "fusion_lat": 0.0, "is_reserved": 0, "type": "electric_scooter", "bike_id": "0e50ccf4dc1564a70be02b3e1dd17399", "rental_uris": {"android": "https://dc.lft.to/lastmile_qr_scan", "ios": "https://dc.lft.to/lastmile_qr_scan"}}, {"is_disabled": 0, "lon": -77.019926, "lat": 38.914924166666665, "name": "b713696909575c320ac5b8a5b5d87adb", "fusion_lon": 0.0, "fusion_lat": 0.0, "is_reserved": 0, "type": "electric_scooter", "bike_id": "b713696909575c320ac5b8a5b5d87adb", "rental_uris": {"android": "https://dc.lft.to/lastmile_qr_scan", "ios": "https://dc.lft.to/lastmile_qr_scan"}}, {"is_disabled": 0, "lon": -77.0294705, "lat": 38.89757016666667, "name": "212c59bae68ddb06edf4ec5cdf07673b", "fusion_lon": 0.0, "fusion_lat": 0.0, "is_reserved": 0, "type": "electric_scooter", "bike_id": "212c59bae68ddb06edf4ec5cdf07673b", "rental_uris": {"android": "https://dc.lft.to/lastmile_qr_scan", "ios": "https://dc.lft.to/lastmile_qr_scan"}}, {"is_disabled": 0, "lon": -77.03985, "lat": 38.895478, "name": "984f20b2dc925d64d2925370fadd9cbe", "fusion_lon": 0.0, "fusion_lat": 0.0, "is_reserved": 0, "type": "electric_scooter", "bike_id": "984f20b2dc925d64d2925370fadd9cbe", "rental_uris": {"android": "https://dc.lft.to/lastmile_qr_scan", "ios": "https://dc.lft.to/lastmile_qr_scan"}}, {"is_disabled": 0, "lon": -76.96157, "lat": 38.8561855, "name": "39a1f977e4d11ac0f43b3d09d261db60", "fusion_lon": 0.0, "fusion_lat": 0.0, "is_reserved": 0, "type": "electric_bike", "bike_id": "39a1f977e4d11ac0f43b3d09d261db60", "rental_uris": {"android": "https://dc.lft.to/lastmile_qr_scan", "ios": "https://dc.lft.to/lastmile_qr_scan"}}, {"is_disabled": 0, "lon": -77.029144, "lat": 38.89735983333333, "name": "f37c83406a0cfeecfec6b5c4ed92993e", "fusion_lon": 0.0, "fusion_lat": 0.0, "is_reserved": 0, "type": "electric_scooter", "bike_id": "f37c83406a0cfeecfec6b5c4ed92993e", "rental_uris": {"android": "https://dc.lft.to/lastmile_qr_scan", "ios": "https://dc.lft.to/lastmile_qr_scan"}}, {"is_disabled": 0, "lon": -77.00929833333333, "lat": 38.916575, "name": "91689ce9fee1cdc3e5d2077c586b610c", "fusion_lon": 0.0, "fusion_lat": 0.0, "is_reserved": 0, "type": "electric_scooter", "bike_id": "91689ce9fee1cdc3e5d2077c586b610c", "rental_uris": {"android": "https://dc.lft.to/lastmile_qr_scan", "ios": "https://dc.lft.to/lastmile_qr_scan"}}, {"is_disabled": 0, "lon": -76.9979105, "lat": 38.874983666666665, "name": "768fa796516ce331e82b9d2bab2569ef", "fusion_lon": 0.0, "fusion_lat": 0.0, "is_reserved": 0, "type": "electric_scooter", "bike_id": "768fa796516ce331e82b9d2bab2569ef", "rental_uris": {"android": "https://dc.lft.to/lastmile_qr_scan", "ios": "https://dc.lft.to/lastmile_qr_scan"}}, {"is_disabled": 0, "lon": -76.99753583333333, "lat": 38.88505166666667, "name": "aba1bdeada794832e58999acf3d10202", "fusion_lon": 0.0, "fusion_lat": 0.0, "is_reserved": 0, "type": "electric_scooter", "bike_id": "aba1bdeada794832e58999acf3d10202", "rental_uris": {"android": "https://dc.lft.to/lastmile_qr_scan", "ios": "https://dc.lft.to/lastmile_qr_scan"}}, {"is_disabled": 0, "lon": -77.02718416666667, "lat": 38.896708333333336, "name": "b4b0bd8c631bad1bc1f792a1ac991699", "fusion_lon": 0.0, "fusion_lat": 0.0, "is_reserved": 0, "type": "electric_scooter", "bike_id": "b4b0bd8c631bad1bc1f792a1ac991699", "rental_uris": {"android": "https://dc.lft.to/lastmile_qr_scan", "ios": "https://dc.lft.to/lastmile_qr_scan"}}, {"is_disabled": 0, "lon": -77.04458616666666, "lat": 38.90304616666667, "name": "09b252984657b100db99e708292ab8e3", "fusion_lon": 0.0, "fusion_lat": 0.0, "is_reserved": 0, "type": "electric_scooter", "bike_id": "09b252984657b100db99e708292ab8e3", "rental_uris": {"android": "https://dc.lft.to/lastmile_qr_scan", "ios": "https://dc.lft.to/lastmile_qr_scan"}}, {"is_disabled": 0, "lon": -77.0259635, "lat": 38.982747333333336, "name": "fc5a765ea715268d20bceff0e249887d", "fusion_lon": 0.0, "fusion_lat": 0.0, "is_reserved": 0, "type": "electric_scooter", "bike_id": "fc5a765ea715268d20bceff0e249887d", "rental_uris": {"android": "https://dc.lft.to/lastmile_qr_scan", "ios": "https://dc.lft.to/lastmile_qr_scan"}}, {"is_disabled": 0, "lon": -77.03853783333334, "lat": 38.91660783333333, "name": "c7fe77ea8ffc821c8be411b2b2221e79", "fusion_lon": 0.0, "fusion_lat": 0.0, "is_reserved": 0, "type": "electric_scooter", "bike_id": "c7fe77ea8ffc821c8be411b2b2221e79", "rental_uris": {"android": "https://dc.lft.to/lastmile_qr_scan", "ios": "https://dc.lft.to/lastmile_qr_scan"}}, {"is_disabled": 0, "lon": -77.0385395, "lat": 38.91720266666667, "name": "73e33bc9201da21eff57500fb0d7be7f", "fusion_lon": 0.0, "fusion_lat": 0.0, "is_reserved": 0, "type": "electric_scooter", "bike_id": "73e33bc9201da21eff57500fb0d7be7f", "rental_uris": {"android": "https://dc.lft.to/lastmile_qr_scan", "ios": "https://dc.lft.to/lastmile_qr_scan"}}, {"is_disabled": 0, "lon": -77.02358866666667, "lat": 38.90332866666667, "name": "7701e8323b6007bdf8014a3766895e75", "fusion_lon": 0.0, "fusion_lat": 0.0, "is_reserved": 0, "type": "electric_scooter", "bike_id": "7701e8323b6007bdf8014a3766895e75", "rental_uris": {"android": "https://dc.lft.to/lastmile_qr_scan", "ios": "https://dc.lft.to/lastmile_qr_scan"}}, {"is_disabled": 0, "lon": -77.02548183333333, "lat": 38.97002166666667, "name": "63e172c0398fca6bd7c0d35bfab725b3", "fusion_lon": 0.0, "fusion_lat": 0.0, "is_reserved": 0, "type": "electric_scooter", "bike_id": "63e172c0398fca6bd7c0d35bfab725b3", "rental_uris": {"android": "https://dc.lft.to/lastmile_qr_scan", "ios": "https://dc.lft.to/lastmile_qr_scan"}}, {"is_disabled": 0, "lon": -77.04567833333333, "lat": 38.903801333333334, "name": "2b4e140ec62a462766a26f8ee5849034", "fusion_lon": 0.0, "fusion_lat": 0.0, "is_reserved": 0, "type": "electric_scooter", "bike_id": "2b4e140ec62a462766a26f8ee5849034", "rental_uris": {"android": "https://dc.lft.to/lastmile_qr_scan", "ios": "https://dc.lft.to/lastmile_qr_scan"}}, {"is_disabled": 0, "lon": -76.94379333333333, "lat": 38.89111783333333, "name": "c7cc3eb4244f6c7ae2a1b21908916edf", "fusion_lon": 0.0, "fusion_lat": 0.0, "is_reserved": 0, "type": "electric_scooter", "bike_id": "c7cc3eb4244f6c7ae2a1b21908916edf", "rental_uris": {"android": "https://dc.lft.to/lastmile_qr_scan", "ios": "https://dc.lft.to/lastmile_qr_scan"}}, {"is_disabled": 0, "lon": -76.93006616666666, "lat": 38.907148666666664, "name": "12fd9bc5b3be07e99b4380125dba05a9", "fusion_lon": 0.0, "fusion_lat": 0.0, "is_reserved": 0, "type": "electric_scooter", "bike_id": "12fd9bc5b3be07e99b4380125dba05a9", "rental_uris": {"android": "https://dc.lft.to/lastmile_qr_scan", "ios": "https://dc.lft.to/lastmile_qr_scan"}}, {"is_disabled": 0, "lon": -77.09519866666666, "lat": 38.838103, "name": "3e8bf23abd4a73a183509399439bf00b", "fusion_lon": 0.0, "fusion_lat": 0.0, "is_reserved": 0, "type": "electric_bike", "bike_id": "3e8bf23abd4a73a183509399439bf00b", "rental_uris": {"android": "https://dc.lft.to/lastmile_qr_scan", "ios": "https://dc.lft.to/lastmile_qr_scan"}}, {"is_disabled": 0, "lon": -77.04627683333334, "lat": 38.90666433333333, "name": "c570030b39ccad1b33efc871db10e4d0", "fusion_lon": 0.0, "fusion_lat": 0.0, "is_reserved": 0, "type": "electric_scooter", "bike_id": "c570030b39ccad1b33efc871db10e4d0", "rental_uris": {"android": "https://dc.lft.to/lastmile_qr_scan", "ios": "https://dc.lft.to/lastmile_qr_scan"}}, {"is_disabled": 0, "lon": -77.02871766666667, "lat": 38.9024285, "name": "4c903eec1dada4c6668d383bfba56a77", "fusion_lon": 0.0, "fusion_lat": 0.0, "is_reserved": 0, "type": "electric_scooter", "bike_id": "4c903eec1dada4c6668d383bfba56a77", "rental_uris": {"android": "https://dc.lft.to/lastmile_qr_scan", "ios": "https://dc.lft.to/lastmile_qr_scan"}}, {"is_disabled": 0, "lon": -77.02818233333333, "lat": 38.8936215, "name": "7233bcb4a12187408e11f1a85dd12295", "fusion_lon": 0.0, "fusion_lat": 0.0, "is_reserved": 0, "type": "electric_scooter", "bike_id": "7233bcb4a12187408e11f1a85dd12295", "rental_uris": {"android": "https://dc.lft.to/lastmile_qr_scan", "ios": "https://dc.lft.to/lastmile_qr_scan"}}, {"is_disabled": 0, "lon": -76.97549733333334, "lat": 38.87577683333333, "name": "c9e64a8c575d32a1c871a820cde5d437", "fusion_lon": 0.0, "fusion_lat": 0.0, "is_reserved": 0, "type": "electric_scooter", "bike_id": "c9e64a8c575d32a1c871a820cde5d437", "rental_uris": {"android": "https://dc.lft.to/lastmile_qr_scan", "ios": "https://dc.lft.to/lastmile_qr_scan"}}, {"is_disabled": 0, "lon": -77.04037516666666, "lat": 38.911869833333334, "name": "205f1d14e7ba769c8cfaf71d31e5b9c7", "fusion_lon": 0.0, "fusion_lat": 0.0, "is_reserved": 0, "type": "electric_scooter", "bike_id": "205f1d14e7ba769c8cfaf71d31e5b9c7", "rental_uris": {"android": "https://dc.lft.to/lastmile_qr_scan", "ios": "https://dc.lft.to/lastmile_qr_scan"}}, {"is_disabled": 0, "lon": -76.96055716666666, "lat": 38.883316, "name": "ccecf19951c9617d431dfd514053c5c4", "fusion_lon": 0.0, "fusion_lat": 0.0, "is_reserved": 0, "type": "electric_bike", "bike_id": "ccecf19951c9617d431dfd514053c5c4", "rental_uris": {"android": "https://dc.lft.to/lastmile_qr_scan", "ios": "https://dc.lft.to/lastmile_qr_scan"}}, {"is_disabled": 0, "lon": -77.05015016666667, "lat": 38.905245666666666, "name": "22b69a179b4042cfd0307735befa888e", "fusion_lon": 0.0, "fusion_lat": 0.0, "is_reserved": 0, "type": "electric_scooter", "bike_id": "22b69a179b4042cfd0307735befa888e", "rental_uris": {"android": "https://dc.lft.to/lastmile_qr_scan", "ios": "https://dc.lft.to/lastmile_qr_scan"}}, {"is_disabled": 0, "lon": -77.04331216666667, "lat": 38.89741316666667, "name": "1b7a25b4951aa52c31168037624e8ef0", "fusion_lon": 0.0, "fusion_lat": 0.0, "is_reserved": 0, "type": "electric_scooter", "bike_id": "1b7a25b4951aa52c31168037624e8ef0", "rental_uris": {"android": "https://dc.lft.to/lastmile_qr_scan", "ios": "https://dc.lft.to/lastmile_qr_scan"}}, {"is_disabled": 0, "lon": -77.01899883333333, "lat": 38.923395666666664, "name": "422301c25e2cf22b1c3b2199c289c022", "fusion_lon": 0.0, "fusion_lat": 0.0, "is_reserved": 0, "type": "electric_scooter", "bike_id": "422301c25e2cf22b1c3b2199c289c022", "rental_uris": {"android": "https://dc.lft.to/lastmile_qr_scan", "ios": "https://dc.lft.to/lastmile_qr_scan"}}, {"is_disabled": 0, "lon": -76.99776983333334, "lat": 38.92290716666667, "name": "9ceffdc498db16c6df5e091221bb758b", "fusion_lon": 0.0, "fusion_lat": 0.0, "is_reserved": 0, "type": "electric_scooter", "bike_id": "9ceffdc498db16c6df5e091221bb758b", "rental_uris": {"android": "https://dc.lft.to/lastmile_qr_scan", "ios": "https://dc.lft.to/lastmile_qr_scan"}}, {"is_disabled": 0, "lon": -77.007834, "lat": 38.875862833333336, "name": "6be17380451c17dca5a653d33bd91752", "fusion_lon": 0.0, "fusion_lat": 0.0, "is_reserved": 0, "type": "electric_scooter", "bike_id": "6be17380451c17dca5a653d33bd91752", "rental_uris": {"android": "https://dc.lft.to/lastmile_qr_scan", "ios": "https://dc.lft.to/lastmile_qr_scan"}}, {"is_disabled": 0, "lon": -76.94230716666667, "lat": 38.89053233333333, "name": "e89f358a9794321ef41b2f4f8b8d4242", "fusion_lon": 0.0, "fusion_lat": 0.0, "is_reserved": 0, "type": "electric_bike", "bike_id": "e89f358a9794321ef41b2f4f8b8d4242", "rental_uris": {"android": "https://dc.lft.to/lastmile_qr_scan", "ios": "https://dc.lft.to/lastmile_qr_scan"}}, {"is_disabled": 0, "lon": -77.04183566666667, "lat": 38.92048416666667, "name": "c48f330ecb406e12e21e235e2119d98d", "fusion_lon": 0.0, "fusion_lat": 0.0, "is_reserved": 0, "type": "electric_scooter", "bike_id": "c48f330ecb406e12e21e235e2119d98d", "rental_uris": {"android": "https://dc.lft.to/lastmile_qr_scan", "ios": "https://dc.lft.to/lastmile_qr_scan"}}, {"is_disabled": 0, "lon": -76.9362955, "lat": 38.88348766666667, "name": "3ea6c22f795d5344b659392e20b42b44", "fusion_lon": 0.0, "fusion_lat": 0.0, "is_reserved": 0, "type": "electric_scooter", "bike_id": "3ea6c22f795d5344b659392e20b42b44", "rental_uris": {"android": "https://dc.lft.to/lastmile_qr_scan", "ios": "https://dc.lft.to/lastmile_qr_scan"}}, {"is_disabled": 0, "lon": -77.066905, "lat": 38.83170333333333, "name": "0ee6b0240cb3fa6501ed0adc90263f57", "fusion_lon": 0.0, "fusion_lat": 0.0, "is_reserved": 0, "type": "electric_bike", "bike_id": "0ee6b0240cb3fa6501ed0adc90263f57", "rental_uris": {"android": "https://dc.lft.to/lastmile_qr_scan", "ios": "https://dc.lft.to/lastmile_qr_scan"}}, {"is_disabled": 0, "lon": -77.03840783333334, "lat": 38.90260333333333, "name": "dfc55634f66ec2ca7327defe6baac35b", "fusion_lon": 0.0, "fusion_lat": 0.0, "is_reserved": 0, "type": "electric_scooter", "bike_id": "dfc55634f66ec2ca7327defe6baac35b", "rental_uris": {"android": "https://dc.lft.to/lastmile_qr_scan", "ios": "https://dc.lft.to/lastmile_qr_scan"}}, {"is_disabled": 0, "lon": -77.03636416666667, "lat": 38.93056816666667, "name": "f77f7360667c7b432b0c72597188467f", "fusion_lon": 0.0, "fusion_lat": 0.0, "is_reserved": 0, "type": "electric_scooter", "bike_id": "f77f7360667c7b432b0c72597188467f", "rental_uris": {"android": "https://dc.lft.to/lastmile_qr_scan", "ios": "https://dc.lft.to/lastmile_qr_scan"}}, {"is_disabled": 0, "lon": -77.03248716666667, "lat": 38.9287275, "name": "5b9186ca1e355c6037f65f0d4add2802", "fusion_lon": 0.0, "fusion_lat": 0.0, "is_reserved": 0, "type": "electric_scooter", "bike_id": "5b9186ca1e355c6037f65f0d4add2802", "rental_uris": {"android": "https://dc.lft.to/lastmile_qr_scan", "ios": "https://dc.lft.to/lastmile_qr_scan"}}, {"is_disabled": 0, "lon": -77.01441583333333, "lat": 38.909639, "name": "371765e4bec14e4e9c1b92f7b7bd7ac0", "fusion_lon": 0.0, "fusion_lat": 0.0, "is_reserved": 0, "type": "electric_scooter", "bike_id": "371765e4bec14e4e9c1b92f7b7bd7ac0", "rental_uris": {"android": "https://dc.lft.to/lastmile_qr_scan", "ios": "https://dc.lft.to/lastmile_qr_scan"}}, {"is_disabled": 0, "lon": -76.9703785, "lat": 38.8731555, "name": "0ab9f91e360f8c1e63d88fce0cb51bd2", "fusion_lon": 0.0, "fusion_lat": 0.0, "is_reserved": 0, "type": "electric_scooter", "bike_id": "0ab9f91e360f8c1e63d88fce0cb51bd2", "rental_uris": {"android": "https://dc.lft.to/lastmile_qr_scan", "ios": "https://dc.lft.to/lastmile_qr_scan"}}, {"is_disabled": 0, "lon": -77.003451, "lat": 38.877728, "name": "dec854b67c63216ff4fe1b6e8ae9a4a2", "fusion_lon": 0.0, "fusion_lat": 0.0, "is_reserved": 0, "type": "electric_scooter", "bike_id": "dec854b67c63216ff4fe1b6e8ae9a4a2", "rental_uris": {"android": "https://dc.lft.to/lastmile_qr_scan", "ios": "https://dc.lft.to/lastmile_qr_scan"}}, {"is_disabled": 0, "lon": -77.0216645, "lat": 38.897478666666665, "name": "0b126a29cbfacde8765f3a25b711de29", "fusion_lon": 0.0, "fusion_lat": 0.0, "is_reserved": 0, "type": "electric_scooter", "bike_id": "0b126a29cbfacde8765f3a25b711de29", "rental_uris": {"android": "https://dc.lft.to/lastmile_qr_scan", "ios": "https://dc.lft.to/lastmile_qr_scan"}}, {"is_disabled": 0, "lon": -77.02300533333333, "lat": 38.9208515, "name": "91dfeb3781557eb4bdcacdbbe1763730", "fusion_lon": 0.0, "fusion_lat": 0.0, "is_reserved": 0, "type": "electric_scooter", "bike_id": "91dfeb3781557eb4bdcacdbbe1763730", "rental_uris": {"android": "https://dc.lft.to/lastmile_qr_scan", "ios": "https://dc.lft.to/lastmile_qr_scan"}}, {"is_disabled": 0, "lon": -76.9936745, "lat": 38.99095033333333, "name": "addfcf43067e2979f7ec7dcd99594c32", "fusion_lon": 0.0, "fusion_lat": 0.0, "is_reserved": 0, "type": "electric_bike", "bike_id": "addfcf43067e2979f7ec7dcd99594c32", "rental_uris": {"android": "https://dc.lft.to/lastmile_qr_scan", "ios": "https://dc.lft.to/lastmile_qr_scan"}}, {"is_disabled": 0, "lon": -77.02780916666667, "lat": 38.961895166666665, "name": "a3bb3c14460419ec77c902f84d9ead14", "fusion_lon": 0.0, "fusion_lat": 0.0, "is_reserved": 0, "type": "electric_scooter", "bike_id": "a3bb3c14460419ec77c902f84d9ead14", "rental_uris": {"android": "https://dc.lft.to/lastmile_qr_scan", "ios": "https://dc.lft.to/lastmile_qr_scan"}}, {"is_disabled": 0, "lon": -77.02082233333333, "lat": 38.8818745, "name": "58d99d71593cc01d3cd2b9f82af589b5", "fusion_lon": 0.0, "fusion_lat": 0.0, "is_reserved": 0, "type": "electric_scooter", "bike_id": "58d99d71593cc01d3cd2b9f82af589b5", "rental_uris": {"android": "https://dc.lft.to/lastmile_qr_scan", "ios": "https://dc.lft.to/lastmile_qr_scan"}}, {"is_disabled": 0, "lon": -77.00311783333333, "lat": 38.89487416666667, "name": "0a5b2ee2aebd4e2134233b588d08cafe", "fusion_lon": 0.0, "fusion_lat": 0.0, "is_reserved": 0, "type": "electric_scooter", "bike_id": "0a5b2ee2aebd4e2134233b588d08cafe", "rental_uris": {"android": "https://dc.lft.to/lastmile_qr_scan", "ios": "https://dc.lft.to/lastmile_qr_scan"}}, {"is_disabled": 0, "lon": -77.02811566666666, "lat": 38.90469483333333, "name": "e99cc18b6c76af32e2a164c1647dc409", "fusion_lon": 0.0, "fusion_lat": 0.0, "is_reserved": 0, "type": "electric_scooter", "bike_id": "e99cc18b6c76af32e2a164c1647dc409", "rental_uris": {"android": "https://dc.lft.to/lastmile_qr_scan", "ios": "https://dc.lft.to/lastmile_qr_scan"}}, {"is_disabled": 0, "lon": -77.021324, "lat": 38.926973333333336, "name": "72ad794b72a5488a81d46b9bd8a069a3", "fusion_lon": 0.0, "fusion_lat": 0.0, "is_reserved": 0, "type": "electric_scooter", "bike_id": "72ad794b72a5488a81d46b9bd8a069a3", "rental_uris": {"android": "https://dc.lft.to/lastmile_qr_scan", "ios": "https://dc.lft.to/lastmile_qr_scan"}}, {"is_disabled": 0, "lon": -77.02281816666667, "lat": 38.92681833333333, "name": "714160ffb0f24097f38c5d94022637d0", "fusion_lon": 0.0, "fusion_lat": 0.0, "is_reserved": 0, "type": "electric_scooter", "bike_id": "714160ffb0f24097f38c5d94022637d0", "rental_uris": {"android": "https://dc.lft.to/lastmile_qr_scan", "ios": "https://dc.lft.to/lastmile_qr_scan"}}, {"is_disabled": 0, "lon": -77.015478, "lat": 38.927971, "name": "429c8236afb0f46e61c57a54f4cbfe8d", "fusion_lon": 0.0, "fusion_lat": 0.0, "is_reserved": 0, "type": "electric_scooter", "bike_id": "429c8236afb0f46e61c57a54f4cbfe8d", "rental_uris": {"android": "https://dc.lft.to/lastmile_qr_scan", "ios": "https://dc.lft.to/lastmile_qr_scan"}}, {"is_disabled": 0, "lon": -77.099545, "lat": 38.857928333333334, "name": "86dbde7f4ac2141c4449c291d02f84cd", "fusion_lon": 0.0, "fusion_lat": 0.0, "is_reserved": 0, "type": "electric_bike", "bike_id": "86dbde7f4ac2141c4449c291d02f84cd", "rental_uris": {"android": "https://dc.lft.to/lastmile_qr_scan", "ios": "https://dc.lft.to/lastmile_qr_scan"}}, {"is_disabled": 0, "lon": -77.02892366666667, "lat": 38.916903833333336, "name": "1e9fa26020bde0ff7315c019c2343041", "fusion_lon": 0.0, "fusion_lat": 0.0, "is_reserved": 0, "type": "electric_scooter", "bike_id": "1e9fa26020bde0ff7315c019c2343041", "rental_uris": {"android": "https://dc.lft.to/lastmile_qr_scan", "ios": "https://dc.lft.to/lastmile_qr_scan"}}, {"is_disabled": 0, "lon": -77.0356635, "lat": 38.924807, "name": "38b49757b41216be468518f1329380e6", "fusion_lon": 0.0, "fusion_lat": 0.0, "is_reserved": 0, "type": "electric_scooter", "bike_id": "38b49757b41216be468518f1329380e6", "rental_uris": {"android": "https://dc.lft.to/lastmile_qr_scan", "ios": "https://dc.lft.to/lastmile_qr_scan"}}, {"is_disabled": 0, "lon": -77.03432033333333, "lat": 38.9026185, "name": "2498a7068ed9b0c5a0aa1b5c6e14f296", "fusion_lon": 0.0, "fusion_lat": 0.0, "is_reserved": 0, "type": "electric_scooter", "bike_id": "2498a7068ed9b0c5a0aa1b5c6e14f296", "rental_uris": {"android": "https://dc.lft.to/lastmile_qr_scan", "ios": "https://dc.lft.to/lastmile_qr_scan"}}, {"is_disabled": 0, "lon": -77.03354366666667, "lat": 38.90047083333333, "name": "3aa775878d725f6163ba8f4676c3b973", "fusion_lon": 0.0, "fusion_lat": 0.0, "is_reserved": 0, "type": "electric_scooter", "bike_id": "3aa775878d725f6163ba8f4676c3b973", "rental_uris": {"android": "https://dc.lft.to/lastmile_qr_scan", "ios": "https://dc.lft.to/lastmile_qr_scan"}}, {"is_disabled": 0, "lon": -77.03905766666666, "lat": 38.906636666666664, "name": "cf9fa466984ca8399dd9f8cfee6cd7b7", "fusion_lon": 0.0, "fusion_lat": 0.0, "is_reserved": 0, "type": "electric_scooter", "bike_id": "cf9fa466984ca8399dd9f8cfee6cd7b7", "rental_uris": {"android": "https://dc.lft.to/lastmile_qr_scan", "ios": "https://dc.lft.to/lastmile_qr_scan"}}, {"is_disabled": 0, "lon": -76.98701916666667, "lat": 38.88839816666667, "name": "ad0209ddbcb508b6d61dadbc2493bf01", "fusion_lon": 0.0, "fusion_lat": 0.0, "is_reserved": 0, "type": "electric_scooter", "bike_id": "ad0209ddbcb508b6d61dadbc2493bf01", "rental_uris": {"android": "https://dc.lft.to/lastmile_qr_scan", "ios": "https://dc.lft.to/lastmile_qr_scan"}}, {"is_disabled": 0, "lon": -76.967113, "lat": 38.85969766666667, "name": "b000318b05be47af8a42b01975989c75", "fusion_lon": 0.0, "fusion_lat": 0.0, "is_reserved": 0, "type": "electric_scooter", "bike_id": "b000318b05be47af8a42b01975989c75", "rental_uris": {"android": "https://dc.lft.to/lastmile_qr_scan", "ios": "https://dc.lft.to/lastmile_qr_scan"}}, {"is_disabled": 0, "lon": -77.025097, "lat": 38.92085183333333, "name": "efe79db63ee4a802a5879ebaa13898e3", "fusion_lon": 0.0, "fusion_lat": 0.0, "is_reserved": 0, "type": "electric_scooter", "bike_id": "efe79db63ee4a802a5879ebaa13898e3", "rental_uris": {"android": "https://dc.lft.to/lastmile_qr_scan", "ios": "https://dc.lft.to/lastmile_qr_scan"}}, {"is_disabled": 0, "lon": -77.02166983333333, "lat": 38.9428605, "name": "09141897fa35b7d9eeb5f25589cc4b75", "fusion_lon": 0.0, "fusion_lat": 0.0, "is_reserved": 0, "type": "electric_scooter", "bike_id": "09141897fa35b7d9eeb5f25589cc4b75", "rental_uris": {"android": "https://dc.lft.to/lastmile_qr_scan", "ios": "https://dc.lft.to/lastmile_qr_scan"}}, {"is_disabled": 0, "lon": -77.03090516666667, "lat": 38.89542316666667, "name": "0aeb1a028f37e6ef1678656a18205abf", "fusion_lon": 0.0, "fusion_lat": 0.0, "is_reserved": 0, "type": "electric_scooter", "bike_id": "0aeb1a028f37e6ef1678656a18205abf", "rental_uris": {"android": "https://dc.lft.to/lastmile_qr_scan", "ios": "https://dc.lft.to/lastmile_qr_scan"}}, {"is_disabled": 0, "lon": -77.01948166666666, "lat": 38.92416566666667, "name": "58661fcc8c24bec44b788bb6fa0f7eda", "fusion_lon": 0.0, "fusion_lat": 0.0, "is_reserved": 0, "type": "electric_scooter", "bike_id": "58661fcc8c24bec44b788bb6fa0f7eda", "rental_uris": {"android": "https://dc.lft.to/lastmile_qr_scan", "ios": "https://dc.lft.to/lastmile_qr_scan"}}, {"is_disabled": 0, "lon": -77.05510516666666, "lat": 38.928381333333334, "name": "91fc5a99f88eba96bc16d83fe1918cf8", "fusion_lon": 0.0, "fusion_lat": 0.0, "is_reserved": 0, "type": "electric_scooter", "bike_id": "91fc5a99f88eba96bc16d83fe1918cf8", "rental_uris": {"android": "https://dc.lft.to/lastmile_qr_scan", "ios": "https://dc.lft.to/lastmile_qr_scan"}}, {"is_disabled": 0, "lon": -77.0314625, "lat": 38.94178933333333, "name": "a1a2215a1e8232c2dcbfe3934f3bb28e", "fusion_lon": 0.0, "fusion_lat": 0.0, "is_reserved": 0, "type": "electric_scooter", "bike_id": "a1a2215a1e8232c2dcbfe3934f3bb28e", "rental_uris": {"android": "https://dc.lft.to/lastmile_qr_scan", "ios": "https://dc.lft.to/lastmile_qr_scan"}}, {"is_disabled": 0, "lon": -77.02571316666666, "lat": 38.9125765, "name": "f2a71a8b59025a4d62b74d0d9346db31", "fusion_lon": 0.0, "fusion_lat": 0.0, "is_reserved": 0, "type": "electric_scooter", "bike_id": "f2a71a8b59025a4d62b74d0d9346db31", "rental_uris": {"android": "https://dc.lft.to/lastmile_qr_scan", "ios": "https://dc.lft.to/lastmile_qr_scan"}}, {"is_disabled": 0, "lon": -77.02993233333333, "lat": 38.90276316666667, "name": "b268876111fd7fda22994a6ab59d44f3", "fusion_lon": 0.0, "fusion_lat": 0.0, "is_reserved": 0, "type": "electric_scooter", "bike_id": "b268876111fd7fda22994a6ab59d44f3", "rental_uris": {"android": "https://dc.lft.to/lastmile_qr_scan", "ios": "https://dc.lft.to/lastmile_qr_scan"}}, {"is_disabled": 0, "lon": -77.0043495, "lat": 38.9294835, "name": "815255ce77784de4adeaca4872343c71", "fusion_lon": 0.0, "fusion_lat": 0.0, "is_reserved": 0, "type": "electric_scooter", "bike_id": "815255ce77784de4adeaca4872343c71", "rental_uris": {"android": "https://dc.lft.to/lastmile_qr_scan", "ios": "https://dc.lft.to/lastmile_qr_scan"}}, {"is_disabled": 0, "lon": -77.03809583333333, "lat": 38.93103, "name": "fb5fca946eeac24420eb06332792bdac", "fusion_lon": 0.0, "fusion_lat": 0.0, "is_reserved": 0, "type": "electric_scooter", "bike_id": "fb5fca946eeac24420eb06332792bdac", "rental_uris": {"android": "https://dc.lft.to/lastmile_qr_scan", "ios": "https://dc.lft.to/lastmile_qr_scan"}}, {"is_disabled": 0, "lon": -77.11066416666667, "lat": 38.876045833333336, "name": "9dc8d2a4870a459606f5b0872547f5e0", "fusion_lon": 0.0, "fusion_lat": 0.0, "is_reserved": 0, "type": "electric_scooter", "bike_id": "9dc8d2a4870a459606f5b0872547f5e0", "rental_uris": {"android": "https://dc.lft.to/lastmile_qr_scan", "ios": "https://dc.lft.to/lastmile_qr_scan"}}, {"is_disabled": 0, "lon": -77.0328845, "lat": 38.914137, "name": "e839d1f954576aac7bd1fc4957d6681d", "fusion_lon": 0.0, "fusion_lat": 0.0, "is_reserved": 0, "type": "electric_scooter", "bike_id": "e839d1f954576aac7bd1fc4957d6681d", "rental_uris": {"android": "https://dc.lft.to/lastmile_qr_scan", "ios": "https://dc.lft.to/lastmile_qr_scan"}}, {"is_disabled": 0, "lon": -76.9722335, "lat": 38.900319, "name": "d34b0f6feddad6019adcb5eb4bdc8f64", "fusion_lon": 0.0, "fusion_lat": 0.0, "is_reserved": 0, "type": "electric_bike", "bike_id": "d34b0f6feddad6019adcb5eb4bdc8f64", "rental_uris": {"android": "https://dc.lft.to/lastmile_qr_scan", "ios": "https://dc.lft.to/lastmile_qr_scan"}}, {"is_disabled": 0, "lon": -77.03446433333333, "lat": 38.91394716666667, "name": "c8dea20a60edb3c8b5223e768aa315c2", "fusion_lon": 0.0, "fusion_lat": 0.0, "is_reserved": 0, "type": "electric_scooter", "bike_id": "c8dea20a60edb3c8b5223e768aa315c2", "rental_uris": {"android": "https://dc.lft.to/lastmile_qr_scan", "ios": "https://dc.lft.to/lastmile_qr_scan"}}, {"is_disabled": 0, "lon": -77.02570483333334, "lat": 38.887454, "name": "d9584f5c5970dc1fa40644e934302ab8", "fusion_lon": 0.0, "fusion_lat": 0.0, "is_reserved": 0, "type": "electric_scooter", "bike_id": "d9584f5c5970dc1fa40644e934302ab8", "rental_uris": {"android": "https://dc.lft.to/lastmile_qr_scan", "ios": "https://dc.lft.to/lastmile_qr_scan"}}, {"is_disabled": 0, "lon": -76.990258, "lat": 38.8358085, "name": "9ae7e559a515cf199db8ddcda18bd400", "fusion_lon": 0.0, "fusion_lat": 0.0, "is_reserved": 0, "type": "electric_bike", "bike_id": "9ae7e559a515cf199db8ddcda18bd400", "rental_uris": {"android": "https://dc.lft.to/lastmile_qr_scan", "ios": "https://dc.lft.to/lastmile_qr_scan"}}, {"is_disabled": 0, "lon": -76.96091216666667, "lat": 38.918682, "name": "669e99e8701cd66dea6d848320b8da25", "fusion_lon": 0.0, "fusion_lat": 0.0, "is_reserved": 0, "type": "electric_bike", "bike_id": "669e99e8701cd66dea6d848320b8da25", "rental_uris": {"android": "https://dc.lft.to/lastmile_qr_scan", "ios": "https://dc.lft.to/lastmile_qr_scan"}}, {"is_disabled": 0, "lon": -76.98858416666667, "lat": 38.84421183333333, "name": "3cf108780cf5c3fee430d06cd530b966", "fusion_lon": 0.0, "fusion_lat": 0.0, "is_reserved": 0, "type": "electric_scooter", "bike_id": "3cf108780cf5c3fee430d06cd530b966", "rental_uris": {"android": "https://dc.lft.to/lastmile_qr_scan", "ios": "https://dc.lft.to/lastmile_qr_scan"}}, {"is_disabled": 0, "lon": -77.02406533333334, "lat": 38.9250395, "name": "33210f387f87ba6cb171c38903bb3a82", "fusion_lon": 0.0, "fusion_lat": 0.0, "is_reserved": 0, "type": "electric_scooter", "bike_id": "33210f387f87ba6cb171c38903bb3a82", "rental_uris": {"android": "https://dc.lft.to/lastmile_qr_scan", "ios": "https://dc.lft.to/lastmile_qr_scan"}}, {"is_disabled": 0, "lon": -77.06650766666667, "lat": 38.9051525, "name": "020b6964f14c4d9acfdbe5a444d7886c", "fusion_lon": 0.0, "fusion_lat": 0.0, "is_reserved": 0, "type": "electric_bike", "bike_id": "020b6964f14c4d9acfdbe5a444d7886c", "rental_uris": {"android": "https://dc.lft.to/lastmile_qr_scan", "ios": "https://dc.lft.to/lastmile_qr_scan"}}, {"is_disabled": 0, "lon": -77.0176185, "lat": 38.92121216666666, "name": "9378ab5e55e9e42655aad12176b290cd", "fusion_lon": 0.0, "fusion_lat": 0.0, "is_reserved": 0, "type": "electric_scooter", "bike_id": "9378ab5e55e9e42655aad12176b290cd", "rental_uris": {"android": "https://dc.lft.to/lastmile_qr_scan", "ios": "https://dc.lft.to/lastmile_qr_scan"}}, {"is_disabled": 0, "lon": -77.03782933333333, "lat": 38.907082, "name": "eedb1e659f293eada27025421ee7c87c", "fusion_lon": 0.0, "fusion_lat": 0.0, "is_reserved": 0, "type": "electric_bike", "bike_id": "eedb1e659f293eada27025421ee7c87c", "rental_uris": {"android": "https://dc.lft.to/lastmile_qr_scan", "ios": "https://dc.lft.to/lastmile_qr_scan"}}, {"is_disabled": 0, "lon": -77.0342745, "lat": 38.91924866666667, "name": "0c00f986ba1564739434464a651fccbb", "fusion_lon": 0.0, "fusion_lat": 0.0, "is_reserved": 0, "type": "electric_scooter", "bike_id": "0c00f986ba1564739434464a651fccbb", "rental_uris": {"android": "https://dc.lft.to/lastmile_qr_scan", "ios": "https://dc.lft.to/lastmile_qr_scan"}}, {"is_disabled": 0, "lon": -77.0170275, "lat": 38.90478733333333, "name": "e887a6d9e6841c6eff924442cc725714", "fusion_lon": 0.0, "fusion_lat": 0.0, "is_reserved": 0, "type": "electric_scooter", "bike_id": "e887a6d9e6841c6eff924442cc725714", "rental_uris": {"android": "https://dc.lft.to/lastmile_qr_scan", "ios": "https://dc.lft.to/lastmile_qr_scan"}}, {"is_disabled": 0, "lon": -77.03372233333333, "lat": 38.89958933333333, "name": "addde86af4b1ca65895f2bb448ea1b72", "fusion_lon": 0.0, "fusion_lat": 0.0, "is_reserved": 0, "type": "electric_scooter", "bike_id": "addde86af4b1ca65895f2bb448ea1b72", "rental_uris": {"android": "https://dc.lft.to/lastmile_qr_scan", "ios": "https://dc.lft.to/lastmile_qr_scan"}}, {"is_disabled": 0, "lon": -77.04306066666666, "lat": 38.898846, "name": "56d26e0731ba9396119c20863207eeea", "fusion_lon": 0.0, "fusion_lat": 0.0, "is_reserved": 0, "type": "electric_scooter", "bike_id": "56d26e0731ba9396119c20863207eeea", "rental_uris": {"android": "https://dc.lft.to/lastmile_qr_scan", "ios": "https://dc.lft.to/lastmile_qr_scan"}}, {"is_disabled": 0, "lon": -77.09804466666667, "lat": 38.85015333333333, "name": "39810f28c4767be01e897604eea87e77", "fusion_lon": 0.0, "fusion_lat": 0.0, "is_reserved": 0, "type": "electric_bike", "bike_id": "39810f28c4767be01e897604eea87e77", "rental_uris": {"android": "https://dc.lft.to/lastmile_qr_scan", "ios": "https://dc.lft.to/lastmile_qr_scan"}}, {"is_disabled": 0, "lon": -77.05132, "lat": 38.923694166666664, "name": "b0cd7b1d66858ff93e35b2cd4fc4b6cf", "fusion_lon": 0.0, "fusion_lat": 0.0, "is_reserved": 0, "type": "electric_scooter", "bike_id": "b0cd7b1d66858ff93e35b2cd4fc4b6cf", "rental_uris": {"android": "https://dc.lft.to/lastmile_qr_scan", "ios": "https://dc.lft.to/lastmile_qr_scan"}}, {"is_disabled": 0, "lon": -76.938156, "lat": 38.89845, "name": "fe1c14adf92f5d0cfd5cd593b456a422", "fusion_lon": 0.0, "fusion_lat": 0.0, "is_reserved": 0, "type": "electric_scooter", "bike_id": "fe1c14adf92f5d0cfd5cd593b456a422", "rental_uris": {"android": "https://dc.lft.to/lastmile_qr_scan", "ios": "https://dc.lft.to/lastmile_qr_scan"}}, {"is_disabled": 0, "lon": -76.99937783333333, "lat": 38.8917205, "name": "99b0e0c0309728707c11058479aa58fe", "fusion_lon": 0.0, "fusion_lat": 0.0, "is_reserved": 0, "type": "electric_scooter", "bike_id": "99b0e0c0309728707c11058479aa58fe", "rental_uris": {"android": "https://dc.lft.to/lastmile_qr_scan", "ios": "https://dc.lft.to/lastmile_qr_scan"}}, {"is_disabled": 0, "lon": -77.017417, "lat": 38.902638, "name": "90ef2bb2b41e7cde667415b0aa827fd0", "fusion_lon": 0.0, "fusion_lat": 0.0, "is_reserved": 0, "type": "electric_scooter", "bike_id": "90ef2bb2b41e7cde667415b0aa827fd0", "rental_uris": {"android": "https://dc.lft.to/lastmile_qr_scan", "ios": "https://dc.lft.to/lastmile_qr_scan"}}, {"is_disabled": 0, "lon": -77.03862983333333, "lat": 38.9252955, "name": "92be3fbdefa606b679c39587f7455d7c", "fusion_lon": 0.0, "fusion_lat": 0.0, "is_reserved": 0, "type": "electric_scooter", "bike_id": "92be3fbdefa606b679c39587f7455d7c", "rental_uris": {"android": "https://dc.lft.to/lastmile_qr_scan", "ios": "https://dc.lft.to/lastmile_qr_scan"}}, {"is_disabled": 0, "lon": -77.03378533333333, "lat": 38.921549666666664, "name": "b73baf1e7f85a885fefea2c13ee9bdc5", "fusion_lon": 0.0, "fusion_lat": 0.0, "is_reserved": 0, "type": "electric_scooter", "bike_id": "b73baf1e7f85a885fefea2c13ee9bdc5", "rental_uris": {"android": "https://dc.lft.to/lastmile_qr_scan", "ios": "https://dc.lft.to/lastmile_qr_scan"}}, {"is_disabled": 0, "lon": -77.00401933333333, "lat": 38.985442, "name": "beaa3403b1d4141c1a96c7cee26d5c39", "fusion_lon": 0.0, "fusion_lat": 0.0, "is_reserved": 0, "type": "electric_bike", "bike_id": "beaa3403b1d4141c1a96c7cee26d5c39", "rental_uris": {"android": "https://dc.lft.to/lastmile_qr_scan", "ios": "https://dc.lft.to/lastmile_qr_scan"}}, {"is_disabled": 0, "lon": -77.04506116666667, "lat": 38.899661333333334, "name": "8177be93e4057376de7b977d9e993cf1", "fusion_lon": 0.0, "fusion_lat": 0.0, "is_reserved": 0, "type": "electric_scooter", "bike_id": "8177be93e4057376de7b977d9e993cf1", "rental_uris": {"android": "https://dc.lft.to/lastmile_qr_scan", "ios": "https://dc.lft.to/lastmile_qr_scan"}}, {"is_disabled": 0, "lon": -77.03432616666667, "lat": 38.96621616666667, "name": "9a6c5bf4bf8758e368c5b9f51d971a58", "fusion_lon": 0.0, "fusion_lat": 0.0, "is_reserved": 0, "type": "electric_bike", "bike_id": "9a6c5bf4bf8758e368c5b9f51d971a58", "rental_uris": {"android": "https://dc.lft.to/lastmile_qr_scan", "ios": "https://dc.lft.to/lastmile_qr_scan"}}, {"is_disabled": 0, "lon": -77.0133315, "lat": 38.89617833333333, "name": "e5123917d216cc2d8d1009ecb1b0f51a", "fusion_lon": 0.0, "fusion_lat": 0.0, "is_reserved": 0, "type": "electric_scooter", "bike_id": "e5123917d216cc2d8d1009ecb1b0f51a", "rental_uris": {"android": "https://dc.lft.to/lastmile_qr_scan", "ios": "https://dc.lft.to/lastmile_qr_scan"}}, {"is_disabled": 0, "lon": -77.0188755, "lat": 38.90613483333333, "name": "d1640c0ce04932f796d027826738f5d1", "fusion_lon": 0.0, "fusion_lat": 0.0, "is_reserved": 0, "type": "electric_scooter", "bike_id": "d1640c0ce04932f796d027826738f5d1", "rental_uris": {"android": "https://dc.lft.to/lastmile_qr_scan", "ios": "https://dc.lft.to/lastmile_qr_scan"}}, {"is_disabled": 0, "lon": -77.00769616666666, "lat": 38.89894683333333, "name": "9d028d47e53bd1c4a3f88c175bbcfcee", "fusion_lon": 0.0, "fusion_lat": 0.0, "is_reserved": 0, "type": "electric_scooter", "bike_id": "9d028d47e53bd1c4a3f88c175bbcfcee", "rental_uris": {"android": "https://dc.lft.to/lastmile_qr_scan", "ios": "https://dc.lft.to/lastmile_qr_scan"}}, {"is_disabled": 0, "lon": -77.07166766666667, "lat": 38.90776533333333, "name": "9ca76f8da504ae3a76147a20c1cac45f", "fusion_lon": 0.0, "fusion_lat": 0.0, "is_reserved": 0, "type": "electric_scooter", "bike_id": "9ca76f8da504ae3a76147a20c1cac45f", "rental_uris": {"android": "https://dc.lft.to/lastmile_qr_scan", "ios": "https://dc.lft.to/lastmile_qr_scan"}}, {"is_disabled": 0, "lon": -77.00326233333334, "lat": 38.87713333333333, "name": "007b18a8ece486aab139ab14da637010", "fusion_lon": 0.0, "fusion_lat": 0.0, "is_reserved": 0, "type": "electric_scooter", "bike_id": "007b18a8ece486aab139ab14da637010", "rental_uris": {"android": "https://dc.lft.to/lastmile_qr_scan", "ios": "https://dc.lft.to/lastmile_qr_scan"}}, {"is_disabled": 0, "lon": -77.0366235, "lat": 38.9238165, "name": "3ab937da8e149cbc30b27fb7d51747d1", "fusion_lon": 0.0, "fusion_lat": 0.0, "is_reserved": 0, "type": "electric_scooter", "bike_id": "3ab937da8e149cbc30b27fb7d51747d1", "rental_uris": {"android": "https://dc.lft.to/lastmile_qr_scan", "ios": "https://dc.lft.to/lastmile_qr_scan"}}, {"is_disabled": 0, "lon": -77.04078933333334, "lat": 38.830658, "name": "8bee05e8fb6c3e771a5c5855756aee0d", "fusion_lon": 0.0, "fusion_lat": 0.0, "is_reserved": 0, "type": "electric_bike", "bike_id": "8bee05e8fb6c3e771a5c5855756aee0d", "rental_uris": {"android": "https://dc.lft.to/lastmile_qr_scan", "ios": "https://dc.lft.to/lastmile_qr_scan"}}, {"is_disabled": 0, "lon": -77.03416733333333, "lat": 38.90279866666667, "name": "ad6984477c0a8b3b7867f94265cc804f", "fusion_lon": 0.0, "fusion_lat": 0.0, "is_reserved": 0, "type": "electric_scooter", "bike_id": "ad6984477c0a8b3b7867f94265cc804f", "rental_uris": {"android": "https://dc.lft.to/lastmile_qr_scan", "ios": "https://dc.lft.to/lastmile_qr_scan"}}, {"is_disabled": 0, "lon": -76.99722583333333, "lat": 38.845505, "name": "ccae57ecee8c120b405ace20a11b1e27", "fusion_lon": 0.0, "fusion_lat": 0.0, "is_reserved": 0, "type": "electric_scooter", "bike_id": "ccae57ecee8c120b405ace20a11b1e27", "rental_uris": {"android": "https://dc.lft.to/lastmile_qr_scan", "ios": "https://dc.lft.to/lastmile_qr_scan"}}, {"is_disabled": 0, "lon": -77.01186716666666, "lat": 38.900127, "name": "c0093bc328857b2792fcf8a6329122fe", "fusion_lon": 0.0, "fusion_lat": 0.0, "is_reserved": 0, "type": "electric_scooter", "bike_id": "c0093bc328857b2792fcf8a6329122fe", "rental_uris": {"android": "https://dc.lft.to/lastmile_qr_scan", "ios": "https://dc.lft.to/lastmile_qr_scan"}}, {"is_disabled": 0, "lon": -77.03445833333333, "lat": 38.909802666666664, "name": "27510edbaf930cc787e0c72f48fb8efc", "fusion_lon": 0.0, "fusion_lat": 0.0, "is_reserved": 0, "type": "electric_scooter", "bike_id": "27510edbaf930cc787e0c72f48fb8efc", "rental_uris": {"android": "https://dc.lft.to/lastmile_qr_scan", "ios": "https://dc.lft.to/lastmile_qr_scan"}}, {"is_disabled": 0, "lon": -77.03150833333333, "lat": 38.9171, "name": "c1d69a303eff933983837230c2865bb3", "fusion_lon": 0.0, "fusion_lat": 0.0, "is_reserved": 0, "type": "electric_scooter", "bike_id": "c1d69a303eff933983837230c2865bb3", "rental_uris": {"android": "https://dc.lft.to/lastmile_qr_scan", "ios": "https://dc.lft.to/lastmile_qr_scan"}}, {"is_disabled": 0, "lon": -77.031821, "lat": 38.91172516666666, "name": "214f8f4c81e6b3a085edc713611bba89", "fusion_lon": 0.0, "fusion_lat": 0.0, "is_reserved": 0, "type": "electric_scooter", "bike_id": "214f8f4c81e6b3a085edc713611bba89", "rental_uris": {"android": "https://dc.lft.to/lastmile_qr_scan", "ios": "https://dc.lft.to/lastmile_qr_scan"}}, {"is_disabled": 0, "lon": -77.01297033333333, "lat": 38.87775516666667, "name": "38055622dbdd879b1d37f37fa8e9d067", "fusion_lon": 0.0, "fusion_lat": 0.0, "is_reserved": 0, "type": "electric_scooter", "bike_id": "38055622dbdd879b1d37f37fa8e9d067", "rental_uris": {"android": "https://dc.lft.to/lastmile_qr_scan", "ios": "https://dc.lft.to/lastmile_qr_scan"}}, {"is_disabled": 0, "lon": -77.01885816666666, "lat": 38.897449, "name": "55a9e9d89e0c904a7f2aa53bc55ffb4c", "fusion_lon": 0.0, "fusion_lat": 0.0, "is_reserved": 0, "type": "electric_scooter", "bike_id": "55a9e9d89e0c904a7f2aa53bc55ffb4c", "rental_uris": {"android": "https://dc.lft.to/lastmile_qr_scan", "ios": "https://dc.lft.to/lastmile_qr_scan"}}, {"is_disabled": 0, "lon": -77.036671, "lat": 38.9361335, "name": "facdbb3c452711f580cd02889b82210e", "fusion_lon": 0.0, "fusion_lat": 0.0, "is_reserved": 0, "type": "electric_scooter", "bike_id": "facdbb3c452711f580cd02889b82210e", "rental_uris": {"android": "https://dc.lft.to/lastmile_qr_scan", "ios": "https://dc.lft.to/lastmile_qr_scan"}}, {"is_disabled": 0, "lon": -77.05809916666666, "lat": 38.929066166666665, "name": "1271cf68f614b058df6c19ea8e3f6451", "fusion_lon": 0.0, "fusion_lat": 0.0, "is_reserved": 0, "type": "electric_scooter", "bike_id": "1271cf68f614b058df6c19ea8e3f6451", "rental_uris": {"android": "https://dc.lft.to/lastmile_qr_scan", "ios": "https://dc.lft.to/lastmile_qr_scan"}}, {"is_disabled": 0, "lon": -77.01776366666667, "lat": 38.90040716666667, "name": "c24d9de0f0f594974efefaaf7232a084", "fusion_lon": 0.0, "fusion_lat": 0.0, "is_reserved": 0, "type": "electric_scooter", "bike_id": "c24d9de0f0f594974efefaaf7232a084", "rental_uris": {"android": "https://dc.lft.to/lastmile_qr_scan", "ios": "https://dc.lft.to/lastmile_qr_scan"}}, {"is_disabled": 0, "lon": -77.02106583333334, "lat": 38.9270945, "name": "91c1628c7a47d2741a266d69d4c9a090", "fusion_lon": 0.0, "fusion_lat": 0.0, "is_reserved": 0, "type": "electric_scooter", "bike_id": "91c1628c7a47d2741a266d69d4c9a090", "rental_uris": {"android": "https://dc.lft.to/lastmile_qr_scan", "ios": "https://dc.lft.to/lastmile_qr_scan"}}, {"is_disabled": 0, "lon": -77.01034233333333, "lat": 38.911394, "name": "84db833e3eaf7ed077ba9b1e54ed91f2", "fusion_lon": 0.0, "fusion_lat": 0.0, "is_reserved": 0, "type": "electric_scooter", "bike_id": "84db833e3eaf7ed077ba9b1e54ed91f2", "rental_uris": {"android": "https://dc.lft.to/lastmile_qr_scan", "ios": "https://dc.lft.to/lastmile_qr_scan"}}, {"is_disabled": 0, "lon": -77.01333916666667, "lat": 38.8812525, "name": "0684fb9ae29c6beaf37c8c6b647b5361", "fusion_lon": 0.0, "fusion_lat": 0.0, "is_reserved": 0, "type": "electric_scooter", "bike_id": "0684fb9ae29c6beaf37c8c6b647b5361", "rental_uris": {"android": "https://dc.lft.to/lastmile_qr_scan", "ios": "https://dc.lft.to/lastmile_qr_scan"}}, {"is_disabled": 0, "lon": -77.05326633333334, "lat": 38.92339283333333, "name": "7241a8ff8ea343209bfc1a05da0a308b", "fusion_lon": 0.0, "fusion_lat": 0.0, "is_reserved": 0, "type": "electric_scooter", "bike_id": "7241a8ff8ea343209bfc1a05da0a308b", "rental_uris": {"android": "https://dc.lft.to/lastmile_qr_scan", "ios": "https://dc.lft.to/lastmile_qr_scan"}}, {"is_disabled": 0, "lon": -76.97898216666667, "lat": 38.926979333333335, "name": "024dd81d5ed372520cb7337412afbbd7", "fusion_lon": 0.0, "fusion_lat": 0.0, "is_reserved": 0, "type": "electric_bike", "bike_id": "024dd81d5ed372520cb7337412afbbd7", "rental_uris": {"android": "https://dc.lft.to/lastmile_qr_scan", "ios": "https://dc.lft.to/lastmile_qr_scan"}}, {"is_disabled": 0, "lon": -77.020913, "lat": 38.9073145, "name": "ae9d4de9b0c3ce8fcfed941873cbbbe4", "fusion_lon": 0.0, "fusion_lat": 0.0, "is_reserved": 0, "type": "electric_scooter", "bike_id": "ae9d4de9b0c3ce8fcfed941873cbbbe4", "rental_uris": {"android": "https://dc.lft.to/lastmile_qr_scan", "ios": "https://dc.lft.to/lastmile_qr_scan"}}, {"is_disabled": 0, "lon": -77.05091133333333, "lat": 38.9017645, "name": "30a9bd033fa0aa459b4e91356c8e8451", "fusion_lon": 0.0, "fusion_lat": 0.0, "is_reserved": 0, "type": "electric_bike", "bike_id": "30a9bd033fa0aa459b4e91356c8e8451", "rental_uris": {"android": "https://dc.lft.to/lastmile_qr_scan", "ios": "https://dc.lft.to/lastmile_qr_scan"}}, {"is_disabled": 0, "lon": -77.04306833333334, "lat": 38.9058195, "name": "61d8d9dfc3179e77e928eaa509d57e9b", "fusion_lon": 0.0, "fusion_lat": 0.0, "is_reserved": 0, "type": "electric_scooter", "bike_id": "61d8d9dfc3179e77e928eaa509d57e9b", "rental_uris": {"android": "https://dc.lft.to/lastmile_qr_scan", "ios": "https://dc.lft.to/lastmile_qr_scan"}}, {"is_disabled": 0, "lon": -77.0179645, "lat": 38.921138, "name": "4ec693dd94a2eb193bfdcd6efe9b2f5b", "fusion_lon": 0.0, "fusion_lat": 0.0, "is_reserved": 0, "type": "electric_scooter", "bike_id": "4ec693dd94a2eb193bfdcd6efe9b2f5b", "rental_uris": {"android": "https://dc.lft.to/lastmile_qr_scan", "ios": "https://dc.lft.to/lastmile_qr_scan"}}, {"is_disabled": 0, "lon": -77.03789383333333, "lat": 38.933196333333335, "name": "82dad16ea352e44aa1870ff838dcf6ab", "fusion_lon": 0.0, "fusion_lat": 0.0, "is_reserved": 0, "type": "electric_scooter", "bike_id": "82dad16ea352e44aa1870ff838dcf6ab", "rental_uris": {"android": "https://dc.lft.to/lastmile_qr_scan", "ios": "https://dc.lft.to/lastmile_qr_scan"}}, {"is_disabled": 0, "lon": -77.01678316666667, "lat": 38.90131216666666, "name": "b707027ae5ce104b68fb59b718db3c21", "fusion_lon": 0.0, "fusion_lat": 0.0, "is_reserved": 0, "type": "electric_scooter", "bike_id": "b707027ae5ce104b68fb59b718db3c21", "rental_uris": {"android": "https://dc.lft.to/lastmile_qr_scan", "ios": "https://dc.lft.to/lastmile_qr_scan"}}, {"is_disabled": 0, "lon": -77.0325085, "lat": 38.897373333333334, "name": "f4e595f0af12b2b7134128644276f0c7", "fusion_lon": 0.0, "fusion_lat": 0.0, "is_reserved": 0, "type": "electric_scooter", "bike_id": "f4e595f0af12b2b7134128644276f0c7", "rental_uris": {"android": "https://dc.lft.to/lastmile_qr_scan", "ios": "https://dc.lft.to/lastmile_qr_scan"}}, {"is_disabled": 0, "lon": -77.032766, "lat": 38.898996833333335, "name": "46684ba64d4c4ec74b27c61903745cb9", "fusion_lon": 0.0, "fusion_lat": 0.0, "is_reserved": 0, "type": "electric_scooter", "bike_id": "46684ba64d4c4ec74b27c61903745cb9", "rental_uris": {"android": "https://dc.lft.to/lastmile_qr_scan", "ios": "https://dc.lft.to/lastmile_qr_scan"}}, {"is_disabled": 0, "lon": -77.02605966666667, "lat": 38.918517666666666, "name": "f9bb131c5301664c8a9ea6e8e3ff7477", "fusion_lon": 0.0, "fusion_lat": 0.0, "is_reserved": 0, "type": "electric_scooter", "bike_id": "f9bb131c5301664c8a9ea6e8e3ff7477", "rental_uris": {"android": "https://dc.lft.to/lastmile_qr_scan", "ios": "https://dc.lft.to/lastmile_qr_scan"}}, {"is_disabled": 0, "lon": -77.0228885, "lat": 38.92082716666667, "name": "a12bfe498c53adaf5bcda34bacaf9248", "fusion_lon": 0.0, "fusion_lat": 0.0, "is_reserved": 0, "type": "electric_scooter", "bike_id": "a12bfe498c53adaf5bcda34bacaf9248", "rental_uris": {"android": "https://dc.lft.to/lastmile_qr_scan", "ios": "https://dc.lft.to/lastmile_qr_scan"}}, {"is_disabled": 0, "lon": -77.0215885, "lat": 38.89989216666667, "name": "c1beb9ecda026241831665f45c5b8e59", "fusion_lon": 0.0, "fusion_lat": 0.0, "is_reserved": 0, "type": "electric_scooter", "bike_id": "c1beb9ecda026241831665f45c5b8e59", "rental_uris": {"android": "https://dc.lft.to/lastmile_qr_scan", "ios": "https://dc.lft.to/lastmile_qr_scan"}}, {"is_disabled": 0, "lon": -77.01948616666667, "lat": 38.92255083333333, "name": "13a91e38fd7f37c36cfd882831d18b12", "fusion_lon": 0.0, "fusion_lat": 0.0, "is_reserved": 0, "type": "electric_scooter", "bike_id": "13a91e38fd7f37c36cfd882831d18b12", "rental_uris": {"android": "https://dc.lft.to/lastmile_qr_scan", "ios": "https://dc.lft.to/lastmile_qr_scan"}}, {"is_disabled": 0, "lon": -76.98602233333334, "lat": 38.90657, "name": "3949a972d69f841191ff449e69a23949", "fusion_lon": 0.0, "fusion_lat": 0.0, "is_reserved": 0, "type": "electric_scooter", "bike_id": "3949a972d69f841191ff449e69a23949", "rental_uris": {"android": "https://dc.lft.to/lastmile_qr_scan", "ios": "https://dc.lft.to/lastmile_qr_scan"}}, {"is_disabled": 0, "lon": -77.017899, "lat": 38.919998, "name": "07313a1dc5433fb7b10984fa73c99bca", "fusion_lon": 0.0, "fusion_lat": 0.0, "is_reserved": 0, "type": "electric_scooter", "bike_id": "07313a1dc5433fb7b10984fa73c99bca", "rental_uris": {"android": "https://dc.lft.to/lastmile_qr_scan", "ios": "https://dc.lft.to/lastmile_qr_scan"}}, {"is_disabled": 0, "lon": -77.02611466666667, "lat": 38.904106, "name": "2f6a3e030556c46dbc1c56e91f35400c", "fusion_lon": 0.0, "fusion_lat": 0.0, "is_reserved": 0, "type": "electric_scooter", "bike_id": "2f6a3e030556c46dbc1c56e91f35400c", "rental_uris": {"android": "https://dc.lft.to/lastmile_qr_scan", "ios": "https://dc.lft.to/lastmile_qr_scan"}}, {"is_disabled": 0, "lon": -77.0200825, "lat": 38.924185333333334, "name": "108c121716e7f453325025a004e37a6b", "fusion_lon": 0.0, "fusion_lat": 0.0, "is_reserved": 0, "type": "electric_scooter", "bike_id": "108c121716e7f453325025a004e37a6b", "rental_uris": {"android": "https://dc.lft.to/lastmile_qr_scan", "ios": "https://dc.lft.to/lastmile_qr_scan"}}, {"is_disabled": 0, "lon": -76.997121, "lat": 38.99853933333333, "name": "5f353385ba05b7bbed67f3354f302f43", "fusion_lon": 0.0, "fusion_lat": 0.0, "is_reserved": 0, "type": "electric_bike", "bike_id": "5f353385ba05b7bbed67f3354f302f43", "rental_uris": {"android": "https://dc.lft.to/lastmile_qr_scan", "ios": "https://dc.lft.to/lastmile_qr_scan"}}, {"is_disabled": 0, "lon": -77.017567, "lat": 38.921128333333336, "name": "677f84b9213c5e605ef3134d26e7c505", "fusion_lon": 0.0, "fusion_lat": 0.0, "is_reserved": 0, "type": "electric_scooter", "bike_id": "677f84b9213c5e605ef3134d26e7c505", "rental_uris": {"android": "https://dc.lft.to/lastmile_qr_scan", "ios": "https://dc.lft.to/lastmile_qr_scan"}}, {"is_disabled": 0, "lon": -77.067114, "lat": 38.9500445, "name": "96ae47254fe7c0cf8fb848b82dab9924", "fusion_lon": 0.0, "fusion_lat": 0.0, "is_reserved": 0, "type": "electric_scooter", "bike_id": "96ae47254fe7c0cf8fb848b82dab9924", "rental_uris": {"android": "https://dc.lft.to/lastmile_qr_scan", "ios": "https://dc.lft.to/lastmile_qr_scan"}}, {"is_disabled": 0, "lon": -77.04872483333334, "lat": 38.909692666666665, "name": "6c4a1d3a6e5d15e67d4af4e0731993f8", "fusion_lon": 0.0, "fusion_lat": 0.0, "is_reserved": 0, "type": "electric_scooter", "bike_id": "6c4a1d3a6e5d15e67d4af4e0731993f8", "rental_uris": {"android": "https://dc.lft.to/lastmile_qr_scan", "ios": "https://dc.lft.to/lastmile_qr_scan"}}, {"is_disabled": 0, "lon": -77.04863183333333, "lat": 38.9126545, "name": "df195c3e6a67fc7dd6cb28ad6dba18c1", "fusion_lon": 0.0, "fusion_lat": 0.0, "is_reserved": 0, "type": "electric_scooter", "bike_id": "df195c3e6a67fc7dd6cb28ad6dba18c1", "rental_uris": {"android": "https://dc.lft.to/lastmile_qr_scan", "ios": "https://dc.lft.to/lastmile_qr_scan"}}, {"is_disabled": 0, "lon": -77.0334825, "lat": 38.923524, "name": "09971edf6627682693128f33c0ee2174", "fusion_lon": 0.0, "fusion_lat": 0.0, "is_reserved": 0, "type": "electric_scooter", "bike_id": "09971edf6627682693128f33c0ee2174", "rental_uris": {"android": "https://dc.lft.to/lastmile_qr_scan", "ios": "https://dc.lft.to/lastmile_qr_scan"}}, {"is_disabled": 0, "lon": -76.98419066666666, "lat": 38.85515733333333, "name": "9458733b398e4e78a8cfa7b022c536b5", "fusion_lon": 0.0, "fusion_lat": 0.0, "is_reserved": 0, "type": "electric_bike", "bike_id": "9458733b398e4e78a8cfa7b022c536b5", "rental_uris": {"android": "https://dc.lft.to/lastmile_qr_scan", "ios": "https://dc.lft.to/lastmile_qr_scan"}}, {"is_disabled": 0, "lon": -77.019601, "lat": 38.92327866666667, "name": "76180dfe90d5006ec10ff84ecd59f6f7", "fusion_lon": 0.0, "fusion_lat": 0.0, "is_reserved": 0, "type": "electric_scooter", "bike_id": "76180dfe90d5006ec10ff84ecd59f6f7", "rental_uris": {"android": "https://dc.lft.to/lastmile_qr_scan", "ios": "https://dc.lft.to/lastmile_qr_scan"}}, {"is_disabled": 0, "lon": -77.1141595, "lat": 38.87319683333333, "name": "35ca24979f5db47fd3b9469cf5f8895d", "fusion_lon": 0.0, "fusion_lat": 0.0, "is_reserved": 0, "type": "electric_bike", "bike_id": "35ca24979f5db47fd3b9469cf5f8895d", "rental_uris": {"android": "https://dc.lft.to/lastmile_qr_scan", "ios": "https://dc.lft.to/lastmile_qr_scan"}}, {"is_disabled": 0, "lon": -77.021818, "lat": 38.90543233333333, "name": "2340990650dfcd001de81854a5ab3ee1", "fusion_lon": 0.0, "fusion_lat": 0.0, "is_reserved": 0, "type": "electric_scooter", "bike_id": "2340990650dfcd001de81854a5ab3ee1", "rental_uris": {"android": "https://dc.lft.to/lastmile_qr_scan", "ios": "https://dc.lft.to/lastmile_qr_scan"}}, {"is_disabled": 0, "lon": -76.98334533333333, "lat": 38.895442333333335, "name": "6a823b663a3e5c3b9c3f59248de86604", "fusion_lon": 0.0, "fusion_lat": 0.0, "is_reserved": 0, "type": "electric_scooter", "bike_id": "6a823b663a3e5c3b9c3f59248de86604", "rental_uris": {"android": "https://dc.lft.to/lastmile_qr_scan", "ios": "https://dc.lft.to/lastmile_qr_scan"}}, {"is_disabled": 0, "lon": -77.007548, "lat": 38.8713155, "name": "d0c4f9e0d620e2941f1abe4cd01110f2", "fusion_lon": 0.0, "fusion_lat": 0.0, "is_reserved": 0, "type": "electric_scooter", "bike_id": "d0c4f9e0d620e2941f1abe4cd01110f2", "rental_uris": {"android": "https://dc.lft.to/lastmile_qr_scan", "ios": "https://dc.lft.to/lastmile_qr_scan"}}, {"is_disabled": 0, "lon": -77.03635766666666, "lat": 38.9028235, "name": "c60ee51241acdb4dfc6eddeb4b586a67", "fusion_lon": 0.0, "fusion_lat": 0.0, "is_reserved": 0, "type": "electric_scooter", "bike_id": "c60ee51241acdb4dfc6eddeb4b586a67", "rental_uris": {"android": "https://dc.lft.to/lastmile_qr_scan", "ios": "https://dc.lft.to/lastmile_qr_scan"}}, {"is_disabled": 0, "lon": -77.04987733333333, "lat": 38.906185666666666, "name": "8fb78824780ad31ee06a2f3f5ed6273e", "fusion_lon": 0.0, "fusion_lat": 0.0, "is_reserved": 0, "type": "electric_scooter", "bike_id": "8fb78824780ad31ee06a2f3f5ed6273e", "rental_uris": {"android": "https://dc.lft.to/lastmile_qr_scan", "ios": "https://dc.lft.to/lastmile_qr_scan"}}, {"is_disabled": 0, "lon": -77.03206116666667, "lat": 38.914613333333335, "name": "852d28cd98c6c1dd26b2e2fe69a20b13", "fusion_lon": 0.0, "fusion_lat": 0.0, "is_reserved": 0, "type": "electric_scooter", "bike_id": "852d28cd98c6c1dd26b2e2fe69a20b13", "rental_uris": {"android": "https://dc.lft.to/lastmile_qr_scan", "ios": "https://dc.lft.to/lastmile_qr_scan"}}, {"is_disabled": 0, "lon": -77.01842533333334, "lat": 38.915321666666664, "name": "9eaf11187f7e3aa2b6f63b73a00b9057", "fusion_lon": 0.0, "fusion_lat": 0.0, "is_reserved": 0, "type": "electric_scooter", "bike_id": "9eaf11187f7e3aa2b6f63b73a00b9057", "rental_uris": {"android": "https://dc.lft.to/lastmile_qr_scan", "ios": "https://dc.lft.to/lastmile_qr_scan"}}, {"is_disabled": 0, "lon": -76.98370233333333, "lat": 38.89136216666667, "name": "583a3808da53e92810c4665a0b8e2ff8", "fusion_lon": 0.0, "fusion_lat": 0.0, "is_reserved": 0, "type": "electric_scooter", "bike_id": "583a3808da53e92810c4665a0b8e2ff8", "rental_uris": {"android": "https://dc.lft.to/lastmile_qr_scan", "ios": "https://dc.lft.to/lastmile_qr_scan"}}, {"is_disabled": 0, "lon": -77.0179235, "lat": 38.919435, "name": "ed97be687cdfd936b21bbdbfb68fe90d", "fusion_lon": 0.0, "fusion_lat": 0.0, "is_reserved": 0, "type": "electric_scooter", "bike_id": "ed97be687cdfd936b21bbdbfb68fe90d", "rental_uris": {"android": "https://dc.lft.to/lastmile_qr_scan", "ios": "https://dc.lft.to/lastmile_qr_scan"}}, {"is_disabled": 0, "lon": -77.04331616666667, "lat": 38.9342035, "name": "5ef6778de36332e6862eabf93e0a605b", "fusion_lon": 0.0, "fusion_lat": 0.0, "is_reserved": 0, "type": "electric_scooter", "bike_id": "5ef6778de36332e6862eabf93e0a605b", "rental_uris": {"android": "https://dc.lft.to/lastmile_qr_scan", "ios": "https://dc.lft.to/lastmile_qr_scan"}}, {"is_disabled": 0, "lon": -77.00347233333333, "lat": 38.91624083333333, "name": "37c25b5c95fea0306124de46ad4771e8", "fusion_lon": 0.0, "fusion_lat": 0.0, "is_reserved": 0, "type": "electric_scooter", "bike_id": "37c25b5c95fea0306124de46ad4771e8", "rental_uris": {"android": "https://dc.lft.to/lastmile_qr_scan", "ios": "https://dc.lft.to/lastmile_qr_scan"}}, {"is_disabled": 0, "lon": -77.05308933333333, "lat": 38.90149066666667, "name": "7fab85a5a3bd07b2bf8c440a3895f28d", "fusion_lon": 0.0, "fusion_lat": 0.0, "is_reserved": 0, "type": "electric_scooter", "bike_id": "7fab85a5a3bd07b2bf8c440a3895f28d", "rental_uris": {"android": "https://dc.lft.to/lastmile_qr_scan", "ios": "https://dc.lft.to/lastmile_qr_scan"}}, {"is_disabled": 0, "lon": -77.039268, "lat": 38.92477433333333, "name": "87dee888679e5abf3af77564c9981b1c", "fusion_lon": 0.0, "fusion_lat": 0.0, "is_reserved": 0, "type": "electric_scooter", "bike_id": "87dee888679e5abf3af77564c9981b1c", "rental_uris": {"android": "https://dc.lft.to/lastmile_qr_scan", "ios": "https://dc.lft.to/lastmile_qr_scan"}}, {"is_disabled": 0, "lon": -77.05207033333333, "lat": 38.902707166666666, "name": "d9ca2295b85ca500ef3726dbf32fad5d", "fusion_lon": 0.0, "fusion_lat": 0.0, "is_reserved": 0, "type": "electric_scooter", "bike_id": "d9ca2295b85ca500ef3726dbf32fad5d", "rental_uris": {"android": "https://dc.lft.to/lastmile_qr_scan", "ios": "https://dc.lft.to/lastmile_qr_scan"}}, {"is_disabled": 0, "lon": -77.02599683333334, "lat": 38.918364333333336, "name": "1bbf3daa9ad7ff536e7df586f762fd42", "fusion_lon": 0.0, "fusion_lat": 0.0, "is_reserved": 0, "type": "electric_scooter", "bike_id": "1bbf3daa9ad7ff536e7df586f762fd42", "rental_uris": {"android": "https://dc.lft.to/lastmile_qr_scan", "ios": "https://dc.lft.to/lastmile_qr_scan"}}, {"is_disabled": 0, "lon": -77.01979516666667, "lat": 38.8760695, "name": "bff9cd377bcb952dab870cd5208dd5a4", "fusion_lon": 0.0, "fusion_lat": 0.0, "is_reserved": 0, "type": "electric_scooter", "bike_id": "bff9cd377bcb952dab870cd5208dd5a4", "rental_uris": {"android": "https://dc.lft.to/lastmile_qr_scan", "ios": "https://dc.lft.to/lastmile_qr_scan"}}, {"is_disabled": 0, "lon": -77.06818883333334, "lat": 38.91661366666666, "name": "abe571715893a0d1987cad59c6fc169d", "fusion_lon": 0.0, "fusion_lat": 0.0, "is_reserved": 0, "type": "electric_scooter", "bike_id": "abe571715893a0d1987cad59c6fc169d", "rental_uris": {"android": "https://dc.lft.to/lastmile_qr_scan", "ios": "https://dc.lft.to/lastmile_qr_scan"}}, {"is_disabled": 0, "lon": -77.03453283333333, "lat": 38.908110666666666, "name": "1c0502715e7dbbace65e4c8e519d9ceb", "fusion_lon": 0.0, "fusion_lat": 0.0, "is_reserved": 0, "type": "electric_scooter", "bike_id": "1c0502715e7dbbace65e4c8e519d9ceb", "rental_uris": {"android": "https://dc.lft.to/lastmile_qr_scan", "ios": "https://dc.lft.to/lastmile_qr_scan"}}, {"is_disabled": 0, "lon": -77.04875283333334, "lat": 38.8923725, "name": "4a33494081c5f4832814d3479ad964c5", "fusion_lon": 0.0, "fusion_lat": 0.0, "is_reserved": 0, "type": "electric_scooter", "bike_id": "4a33494081c5f4832814d3479ad964c5", "rental_uris": {"android": "https://dc.lft.to/lastmile_qr_scan", "ios": "https://dc.lft.to/lastmile_qr_scan"}}, {"is_disabled": 0, "lon": -76.998455, "lat": 38.896236, "name": "7345949daaf0c7dc20bda67cc5374b83", "fusion_lon": 0.0, "fusion_lat": 0.0, "is_reserved": 0, "type": "electric_scooter", "bike_id": "7345949daaf0c7dc20bda67cc5374b83", "rental_uris": {"android": "https://dc.lft.to/lastmile_qr_scan", "ios": "https://dc.lft.to/lastmile_qr_scan"}}, {"is_disabled": 0, "lon": -77.0318575, "lat": 38.9135105, "name": "f9da084184a12c9d3e0f997338747933", "fusion_lon": 0.0, "fusion_lat": 0.0, "is_reserved": 0, "type": "electric_scooter", "bike_id": "f9da084184a12c9d3e0f997338747933", "rental_uris": {"android": "https://dc.lft.to/lastmile_qr_scan", "ios": "https://dc.lft.to/lastmile_qr_scan"}}, {"is_disabled": 0, "lon": -77.03840833333334, "lat": 38.90263566666667, "name": "c6f3596834ef215501474072084cbbc5", "fusion_lon": 0.0, "fusion_lat": 0.0, "is_reserved": 0, "type": "electric_scooter", "bike_id": "c6f3596834ef215501474072084cbbc5", "rental_uris": {"android": "https://dc.lft.to/lastmile_qr_scan", "ios": "https://dc.lft.to/lastmile_qr_scan"}}, {"is_disabled": 0, "lon": -77.02019083333333, "lat": 38.903739333333334, "name": "d3e3ea961d60f91f222c77020ecbb607", "fusion_lon": 0.0, "fusion_lat": 0.0, "is_reserved": 0, "type": "electric_scooter", "bike_id": "d3e3ea961d60f91f222c77020ecbb607", "rental_uris": {"android": "https://dc.lft.to/lastmile_qr_scan", "ios": "https://dc.lft.to/lastmile_qr_scan"}}, {"is_disabled": 0, "lon": -77.0244015, "lat": 38.956359166666665, "name": "8db49a216a3870d9059a4bb75f40998c", "fusion_lon": 0.0, "fusion_lat": 0.0, "is_reserved": 0, "type": "electric_scooter", "bike_id": "8db49a216a3870d9059a4bb75f40998c", "rental_uris": {"android": "https://dc.lft.to/lastmile_qr_scan", "ios": "https://dc.lft.to/lastmile_qr_scan"}}, {"is_disabled": 0, "lon": -77.06567883333334, "lat": 38.932609666666664, "name": "277fd74ec22b7fe99296398d31418043", "fusion_lon": 0.0, "fusion_lat": 0.0, "is_reserved": 0, "type": "electric_bike", "bike_id": "277fd74ec22b7fe99296398d31418043", "rental_uris": {"android": "https://dc.lft.to/lastmile_qr_scan", "ios": "https://dc.lft.to/lastmile_qr_scan"}}, {"is_disabled": 0, "lon": -77.03879233333333, "lat": 39.02623666666667, "name": "2c0394f4a073cf0f83bcff935fd7c245", "fusion_lon": 0.0, "fusion_lat": 0.0, "is_reserved": 0, "type": "electric_bike", "bike_id": "2c0394f4a073cf0f83bcff935fd7c245", "rental_uris": {"android": "https://dc.lft.to/lastmile_qr_scan", "ios": "https://dc.lft.to/lastmile_qr_scan"}}, {"is_disabled": 0, "lon": -77.02533933333333, "lat": 38.920891, "name": "764ebc7bcfd15b4bdd44361aff0d7cb1", "fusion_lon": 0.0, "fusion_lat": 0.0, "is_reserved": 0, "type": "electric_scooter", "bike_id": "764ebc7bcfd15b4bdd44361aff0d7cb1", "rental_uris": {"android": "https://dc.lft.to/lastmile_qr_scan", "ios": "https://dc.lft.to/lastmile_qr_scan"}}, {"is_disabled": 0, "lon": -76.94575966666666, "lat": 38.899241833333335, "name": "1bbcc6b4d8e6b6707208915f09193d5d", "fusion_lon": 0.0, "fusion_lat": 0.0, "is_reserved": 0, "type": "electric_scooter", "bike_id": "1bbcc6b4d8e6b6707208915f09193d5d", "rental_uris": {"android": "https://dc.lft.to/lastmile_qr_scan", "ios": "https://dc.lft.to/lastmile_qr_scan"}}, {"is_disabled": 0, "lon": -77.02260333333334, "lat": 38.89980766666667, "name": "eb5ec0545dbca9559bf6f45eaca1e874", "fusion_lon": 0.0, "fusion_lat": 0.0, "is_reserved": 0, "type": "electric_scooter", "bike_id": "eb5ec0545dbca9559bf6f45eaca1e874", "rental_uris": {"android": "https://dc.lft.to/lastmile_qr_scan", "ios": "https://dc.lft.to/lastmile_qr_scan"}}, {"is_disabled": 0, "lon": -77.040999, "lat": 38.918411166666665, "name": "15d9f4e2c12dc5ec833375d7d9d8641a", "fusion_lon": 0.0, "fusion_lat": 0.0, "is_reserved": 0, "type": "electric_scooter", "bike_id": "15d9f4e2c12dc5ec833375d7d9d8641a", "rental_uris": {"android": "https://dc.lft.to/lastmile_qr_scan", "ios": "https://dc.lft.to/lastmile_qr_scan"}}, {"is_disabled": 0, "lon": -77.12735616666667, "lat": 38.895650333333336, "name": "a36796e7f205029ba12cbb6450314111", "fusion_lon": 0.0, "fusion_lat": 0.0, "is_reserved": 0, "type": "electric_bike", "bike_id": "a36796e7f205029ba12cbb6450314111", "rental_uris": {"android": "https://dc.lft.to/lastmile_qr_scan", "ios": "https://dc.lft.to/lastmile_qr_scan"}}, {"is_disabled": 0, "lon": -77.0034885, "lat": 38.90753333333333, "name": "fcb59873be68a5b5cfd56e1d991954cc", "fusion_lon": 0.0, "fusion_lat": 0.0, "is_reserved": 0, "type": "electric_scooter", "bike_id": "fcb59873be68a5b5cfd56e1d991954cc", "rental_uris": {"android": "https://dc.lft.to/lastmile_qr_scan", "ios": "https://dc.lft.to/lastmile_qr_scan"}}, {"is_disabled": 0, "lon": -77.0328735, "lat": 38.895631, "name": "a96cc1c7cfec5ed6b74e8c7a65f3b607", "fusion_lon": 0.0, "fusion_lat": 0.0, "is_reserved": 0, "type": "electric_scooter", "bike_id": "a96cc1c7cfec5ed6b74e8c7a65f3b607", "rental_uris": {"android": "https://dc.lft.to/lastmile_qr_scan", "ios": "https://dc.lft.to/lastmile_qr_scan"}}, {"is_disabled": 0, "lon": -77.01163483333333, "lat": 38.89649933333333, "name": "38dd13e3a530776caaa0901408879754", "fusion_lon": 0.0, "fusion_lat": 0.0, "is_reserved": 0, "type": "electric_scooter", "bike_id": "38dd13e3a530776caaa0901408879754", "rental_uris": {"android": "https://dc.lft.to/lastmile_qr_scan", "ios": "https://dc.lft.to/lastmile_qr_scan"}}, {"is_disabled": 0, "lon": -77.02380116666667, "lat": 38.891951666666664, "name": "5a208d853f1760a7325dbb4dfbbc7bc6", "fusion_lon": 0.0, "fusion_lat": 0.0, "is_reserved": 0, "type": "electric_scooter", "bike_id": "5a208d853f1760a7325dbb4dfbbc7bc6", "rental_uris": {"android": "https://dc.lft.to/lastmile_qr_scan", "ios": "https://dc.lft.to/lastmile_qr_scan"}}, {"is_disabled": 0, "lon": -77.03650866666666, "lat": 38.90372133333334, "name": "aa5ec1b12fbdaca8dc258a5245af7f43", "fusion_lon": 0.0, "fusion_lat": 0.0, "is_reserved": 0, "type": "electric_scooter", "bike_id": "aa5ec1b12fbdaca8dc258a5245af7f43", "rental_uris": {"android": "https://dc.lft.to/lastmile_qr_scan", "ios": "https://dc.lft.to/lastmile_qr_scan"}}, {"is_disabled": 0, "lon": -77.015174, "lat": 38.872755166666664, "name": "a2f07a1473af3f07e3fc346de808fb32", "fusion_lon": 0.0, "fusion_lat": 0.0, "is_reserved": 0, "type": "electric_scooter", "bike_id": "a2f07a1473af3f07e3fc346de808fb32", "rental_uris": {"android": "https://dc.lft.to/lastmile_qr_scan", "ios": "https://dc.lft.to/lastmile_qr_scan"}}, {"is_disabled": 0, "lon": -77.06170216666666, "lat": 38.941271, "name": "5bffc09b87a06aa7a75f32e66eaf4e8a", "fusion_lon": 0.0, "fusion_lat": 0.0, "is_reserved": 0, "type": "electric_scooter", "bike_id": "5bffc09b87a06aa7a75f32e66eaf4e8a", "rental_uris": {"android": "https://dc.lft.to/lastmile_qr_scan", "ios": "https://dc.lft.to/lastmile_qr_scan"}}, {"is_disabled": 0, "lon": -77.013165, "lat": 38.921083833333334, "name": "d79e9fa733fc36e6eecabd247c890a60", "fusion_lon": 0.0, "fusion_lat": 0.0, "is_reserved": 0, "type": "electric_scooter", "bike_id": "d79e9fa733fc36e6eecabd247c890a60", "rental_uris": {"android": "https://dc.lft.to/lastmile_qr_scan", "ios": "https://dc.lft.to/lastmile_qr_scan"}}, {"is_disabled": 0, "lon": -76.99491133333333, "lat": 38.882294, "name": "082a4425ee01f36bd5e6e18d1aa531ff", "fusion_lon": 0.0, "fusion_lat": 0.0, "is_reserved": 0, "type": "electric_scooter", "bike_id": "082a4425ee01f36bd5e6e18d1aa531ff", "rental_uris": {"android": "https://dc.lft.to/lastmile_qr_scan", "ios": "https://dc.lft.to/lastmile_qr_scan"}}, {"is_disabled": 0, "lon": -77.02580116666667, "lat": 38.925167, "name": "a78bce2804c2ffe085571878a8452a27", "fusion_lon": 0.0, "fusion_lat": 0.0, "is_reserved": 0, "type": "electric_scooter", "bike_id": "a78bce2804c2ffe085571878a8452a27", "rental_uris": {"android": "https://dc.lft.to/lastmile_qr_scan", "ios": "https://dc.lft.to/lastmile_qr_scan"}}, {"is_disabled": 0, "lon": -77.02644633333334, "lat": 38.9309965, "name": "19f2d01f095a24f2eb36c6a737fd33e5", "fusion_lon": 0.0, "fusion_lat": 0.0, "is_reserved": 0, "type": "electric_scooter", "bike_id": "19f2d01f095a24f2eb36c6a737fd33e5", "rental_uris": {"android": "https://dc.lft.to/lastmile_qr_scan", "ios": "https://dc.lft.to/lastmile_qr_scan"}}, {"is_disabled": 0, "lon": -77.04012966666667, "lat": 38.9058625, "name": "cc3e1732e1d95cdb4a0a2cc961ad3a04", "fusion_lon": 0.0, "fusion_lat": 0.0, "is_reserved": 0, "type": "electric_scooter", "bike_id": "cc3e1732e1d95cdb4a0a2cc961ad3a04", "rental_uris": {"android": "https://dc.lft.to/lastmile_qr_scan", "ios": "https://dc.lft.to/lastmile_qr_scan"}}, {"is_disabled": 0, "lon": -77.0445285, "lat": 38.923338333333334, "name": "b8bf8e73495b4584f43e5140d05df06b", "fusion_lon": 0.0, "fusion_lat": 0.0, "is_reserved": 0, "type": "electric_scooter", "bike_id": "b8bf8e73495b4584f43e5140d05df06b", "rental_uris": {"android": "https://dc.lft.to/lastmile_qr_scan", "ios": "https://dc.lft.to/lastmile_qr_scan"}}, {"is_disabled": 0, "lon": -76.91064983333334, "lat": 39.0107655, "name": "3159e893c483fdfd0fcc5e97593d4a94", "fusion_lon": 0.0, "fusion_lat": 0.0, "is_reserved": 0, "type": "electric_bike", "bike_id": "3159e893c483fdfd0fcc5e97593d4a94", "rental_uris": {"android": "https://dc.lft.to/lastmile_qr_scan", "ios": "https://dc.lft.to/lastmile_qr_scan"}}, {"is_disabled": 0, "lon": -77.04359533333333, "lat": 38.922486666666664, "name": "b888533f1dcddfb6df0bd1d051d0caa1", "fusion_lon": 0.0, "fusion_lat": 0.0, "is_reserved": 0, "type": "electric_scooter", "bike_id": "b888533f1dcddfb6df0bd1d051d0caa1", "rental_uris": {"android": "https://dc.lft.to/lastmile_qr_scan", "ios": "https://dc.lft.to/lastmile_qr_scan"}}, {"is_disabled": 0, "lon": -76.988558, "lat": 38.900305833333334, "name": "2a74c5c3ab20a6e744e1680077617040", "fusion_lon": 0.0, "fusion_lat": 0.0, "is_reserved": 0, "type": "electric_scooter", "bike_id": "2a74c5c3ab20a6e744e1680077617040", "rental_uris": {"android": "https://dc.lft.to/lastmile_qr_scan", "ios": "https://dc.lft.to/lastmile_qr_scan"}}, {"is_disabled": 0, "lon": -77.02134033333333, "lat": 38.8997665, "name": "516b827711a77983174ec61de6d11eac", "fusion_lon": 0.0, "fusion_lat": 0.0, "is_reserved": 0, "type": "electric_scooter", "bike_id": "516b827711a77983174ec61de6d11eac", "rental_uris": {"android": "https://dc.lft.to/lastmile_qr_scan", "ios": "https://dc.lft.to/lastmile_qr_scan"}}, {"is_disabled": 0, "lon": -77.02571583333334, "lat": 38.9041805, "name": "ebcb6174817c8db9a52e456a7cca21e6", "fusion_lon": 0.0, "fusion_lat": 0.0, "is_reserved": 0, "type": "electric_scooter", "bike_id": "ebcb6174817c8db9a52e456a7cca21e6", "rental_uris": {"android": "https://dc.lft.to/lastmile_qr_scan", "ios": "https://dc.lft.to/lastmile_qr_scan"}}, {"is_disabled": 0, "lon": -76.93631383333333, "lat": 38.902727166666665, "name": "ec327d15d476d83086c2aef6608f5b1a", "fusion_lon": 0.0, "fusion_lat": 0.0, "is_reserved": 0, "type": "electric_scooter", "bike_id": "ec327d15d476d83086c2aef6608f5b1a", "rental_uris": {"android": "https://dc.lft.to/lastmile_qr_scan", "ios": "https://dc.lft.to/lastmile_qr_scan"}}, {"is_disabled": 0, "lon": -77.02371283333333, "lat": 38.8948135, "name": "11af287fc8629b247c987ac462cb5967", "fusion_lon": 0.0, "fusion_lat": 0.0, "is_reserved": 0, "type": "electric_scooter", "bike_id": "11af287fc8629b247c987ac462cb5967", "rental_uris": {"android": "https://dc.lft.to/lastmile_qr_scan", "ios": "https://dc.lft.to/lastmile_qr_scan"}}, {"is_disabled": 0, "lon": -77.004128, "lat": 38.985282833333336, "name": "d975ef978cb776fdfded97840a9bcf89", "fusion_lon": 0.0, "fusion_lat": 0.0, "is_reserved": 0, "type": "electric_bike", "bike_id": "d975ef978cb776fdfded97840a9bcf89", "rental_uris": {"android": "https://dc.lft.to/lastmile_qr_scan", "ios": "https://dc.lft.to/lastmile_qr_scan"}}, {"is_disabled": 0, "lon": -77.05965633333334, "lat": 38.92831616666667, "name": "35a4bebb75f9591dc8de78c3757f8050", "fusion_lon": 0.0, "fusion_lat": 0.0, "is_reserved": 0, "type": "electric_scooter", "bike_id": "35a4bebb75f9591dc8de78c3757f8050", "rental_uris": {"android": "https://dc.lft.to/lastmile_qr_scan", "ios": "https://dc.lft.to/lastmile_qr_scan"}}, {"is_disabled": 0, "lon": -77.03169583333333, "lat": 38.928685, "name": "8871772f6364626d96e7f44a3783788e", "fusion_lon": 0.0, "fusion_lat": 0.0, "is_reserved": 0, "type": "electric_scooter", "bike_id": "8871772f6364626d96e7f44a3783788e", "rental_uris": {"android": "https://dc.lft.to/lastmile_qr_scan", "ios": "https://dc.lft.to/lastmile_qr_scan"}}, {"is_disabled": 0, "lon": -77.0418265, "lat": 38.905651166666665, "name": "88b33f2133918de83f2479a7ddb8b253", "fusion_lon": 0.0, "fusion_lat": 0.0, "is_reserved": 0, "type": "electric_scooter", "bike_id": "88b33f2133918de83f2479a7ddb8b253", "rental_uris": {"android": "https://dc.lft.to/lastmile_qr_scan", "ios": "https://dc.lft.to/lastmile_qr_scan"}}, {"is_disabled": 0, "lon": -77.00019283333333, "lat": 38.90035266666667, "name": "287a866eb0c74ad39b0052e3f5f54cb8", "fusion_lon": 0.0, "fusion_lat": 0.0, "is_reserved": 0, "type": "electric_scooter", "bike_id": "287a866eb0c74ad39b0052e3f5f54cb8", "rental_uris": {"android": "https://dc.lft.to/lastmile_qr_scan", "ios": "https://dc.lft.to/lastmile_qr_scan"}}, {"is_disabled": 0, "lon": -77.020244, "lat": 38.93413616666667, "name": "4868b0218fa24db3d4d02310b5e1e4e9", "fusion_lon": 0.0, "fusion_lat": 0.0, "is_reserved": 0, "type": "electric_scooter", "bike_id": "4868b0218fa24db3d4d02310b5e1e4e9", "rental_uris": {"android": "https://dc.lft.to/lastmile_qr_scan", "ios": "https://dc.lft.to/lastmile_qr_scan"}}, {"is_disabled": 0, "lon": -77.01675, "lat": 38.920473, "name": "93a03214d2968c26c59376c3cf6625e8", "fusion_lon": 0.0, "fusion_lat": 0.0, "is_reserved": 0, "type": "electric_scooter", "bike_id": "93a03214d2968c26c59376c3cf6625e8", "rental_uris": {"android": "https://dc.lft.to/lastmile_qr_scan", "ios": "https://dc.lft.to/lastmile_qr_scan"}}, {"is_disabled": 0, "lon": -77.06234733333334, "lat": 38.9115525, "name": "d252ace3735ab4b150c6ebe00a3d86ae", "fusion_lon": 0.0, "fusion_lat": 0.0, "is_reserved": 0, "type": "electric_scooter", "bike_id": "d252ace3735ab4b150c6ebe00a3d86ae", "rental_uris": {"android": "https://dc.lft.to/lastmile_qr_scan", "ios": "https://dc.lft.to/lastmile_qr_scan"}}, {"is_disabled": 0, "lon": -76.99912983333333, "lat": 38.86447166666667, "name": "216fa2a33390965f900c4fb7cdb1798c", "fusion_lon": 0.0, "fusion_lat": 0.0, "is_reserved": 0, "type": "electric_bike", "bike_id": "216fa2a33390965f900c4fb7cdb1798c", "rental_uris": {"android": "https://dc.lft.to/lastmile_qr_scan", "ios": "https://dc.lft.to/lastmile_qr_scan"}}, {"is_disabled": 0, "lon": -76.907516, "lat": 38.896206666666664, "name": "a97a3892b77d849104282d0091fe6bca", "fusion_lon": 0.0, "fusion_lat": 0.0, "is_reserved": 0, "type": "electric_bike", "bike_id": "a97a3892b77d849104282d0091fe6bca", "rental_uris": {"android": "https://dc.lft.to/lastmile_qr_scan", "ios": "https://dc.lft.to/lastmile_qr_scan"}}, {"is_disabled": 0, "lon": -77.03188233333333, "lat": 38.884659666666664, "name": "435ff434719fb86390ebbaf889853a91", "fusion_lon": 0.0, "fusion_lat": 0.0, "is_reserved": 0, "type": "electric_scooter", "bike_id": "435ff434719fb86390ebbaf889853a91", "rental_uris": {"android": "https://dc.lft.to/lastmile_qr_scan", "ios": "https://dc.lft.to/lastmile_qr_scan"}},