{"data": {"bikes": [{"rental_uris": {"android": "https://dc.lft.to/lastmile_qr_scan", "ios": "https://dc.lft.to/lastmile_qr_scan"}, "type": "electric_scooter", "lon": -77.00497916666667, "name": "b2931f1a762d8dd569e82262bcfac31f", "bike_id": "b2931f1a762d8dd569e82262bcfac31f", "fusion_lat": 0.0, "is_reserved": 0, "lat": 38.896864666666666, "fusion_lon": 0.0, "is_disabled": 0}, {"rental_uris": {"android": "https://dc.lft.to/lastmile_qr_scan", "ios": "https://dc.lft.to/lastmile_qr_scan"}, "type": "electric_scooter", "lon": -77.06848833333333, "name": "a6e30c4890c565c9be6946f0d35a0526", "bike_id": "a6e30c4890c565c9be6946f0d35a0526", "fusion_lat": 0.0, "is_reserved": 0, "lat": 38.952036166666666, "fusion_lon": 0.0, "is_disabled": 0}, {"rental_uris": {"android": "https://dc.lft.to/lastmile_qr_scan", "ios": "https://dc.lft.to/lastmile_qr_scan"}, "type": "electric_scooter", "lon": -77.0217925, "name": "4be098e3ada5655bc3e8ca32321557bb", "bike_id": "4be098e3ada5655bc3e8ca32321557bb", "fusion_lat": 0.0, "is_reserved": 0, "lat": 38.9188485, "fusion_lon": 0.0, "is_disabled": 0}, {"rental_uris": {"android": "https://dc.lft.to/lastmile_qr_scan", "ios": "https://dc.lft.to/lastmile_qr_scan"}, "type": "electric_scooter", "lon": -77.0382485, "name": "a48bbe13b8e341b741e3081be49d942b", "bike_id": "a48bbe13b8e341b741e3081be49d942b", "fusion_lat": 0.0, "is_reserved": 0, "lat": 38.90280716666667, "fusion_lon": 0.0, "is_disabled": 0}, {"rental_uris": {"android": "https://dc.lft.to/lastmile_qr_scan", "ios": "https://dc.lft.to/lastmile_qr_scan"}, "type": "electric_scooter", "lon": -77.03401433333333, "name": "2ae512fe9d2e29af131af1d08490e506", "bike_id": "2ae512fe9d2e29af131af1d08490e506", "fusion_lat": 0.0, "is_reserved": 0, "lat": 38.92440833333333, "fusion_lon": 0.0, "is_disabled": 0}, {"rental_uris": {"android": "https://dc.lft.to/lastmile_qr_scan", "ios": "https://dc.lft.to/lastmile_qr_scan"}, "type": "electric_scooter", "lon": -76.94631683333333, "name": "b60dbaeea3ce2da62d94a29e1a7c4782", "bike_id": "b60dbaeea3ce2da62d94a29e1a7c4782", "fusion_lat": 0.0, "is_reserved": 0, "lat": 38.89841533333333, "fusion_lon": 0.0, "is_disabled": 0}, {"rental_uris": {"android": "https://dc.lft.to/lastmile_qr_scan", "ios": "https://dc.lft.to/lastmile_qr_scan"}, "type": "electric_scooter", "lon": -76.96416383333333, "name": "e5a4189b1166ff7812812ea7cacb9f14", "bike_id": "e5a4189b1166ff7812812ea7cacb9f14", "fusion_lat": 0.0, "is_reserved": 0, "lat": 38.93451866666667, "fusion_lon": 0.0, "is_disabled": 0}, {"rental_uris": {"android": "https://dc.lft.to/lastmile_qr_scan", "ios": "https://dc.lft.to/lastmile_qr_scan"}, "type": "electric_scooter", "lon": -77.00753433333334, "name": "34c9e0a4a6f9f48ef3259e42df8af1aa", "bike_id": "34c9e0a4a6f9f48ef3259e42df8af1aa", "fusion_lat": 0.0, "is_reserved": 0, "lat": 38.92677166666667, "fusion_lon": 0.0, "is_disabled": 0}, {"rental_uris": {"android": "https://dc.lft.to/lastmile_qr_scan", "ios": "https://dc.lft.to/lastmile_qr_scan"}, "type": "electric_scooter", "lon": -77.02340133333334, "name": "f827153a38a1c8024ff59e52e09613c8", "bike_id": "f827153a38a1c8024ff59e52e09613c8", "fusion_lat": 0.0, "is_reserved": 0, "lat": 38.962068, "fusion_lon": 0.0, "is_disabled": 0}, {"rental_uris": {"android": "https://dc.lft.to/lastmile_qr_scan", "ios": "https://dc.lft.to/lastmile_qr_scan"}, "type": "electric_scooter", "lon": -77.03471816666666, "name": "f4afa1e4bc8a8a440f16698b16896abc", "bike_id": "f4afa1e4bc8a8a440f16698b16896abc", "fusion_lat": 0.0, "is_reserved": 0, "lat": 38.90319483333333, "fusion_lon": 0.0, "is_disabled": 0}, {"rental_uris": {"android": "https://dc.lft.to/lastmile_qr_scan", "ios": "https://dc.lft.to/lastmile_qr_scan"}, "type": "electric_scooter", "lon": -77.05732683333333, "name": "ea7a98cc8d916a241e753de050489521", "bike_id": "ea7a98cc8d916a241e753de050489521", "fusion_lat": 0.0, "is_reserved": 0, "lat": 38.933650166666666, "fusion_lon": 0.0, "is_disabled": 0}, {"rental_uris": {"android": "https://dc.lft.to/lastmile_qr_scan", "ios": "https://dc.lft.to/lastmile_qr_scan"}, "type": "electric_scooter", "lon": -77.00568233333334, "name": "3d9dc770c23af01f0642c5996cea66de", "bike_id": "3d9dc770c23af01f0642c5996cea66de", "fusion_lat": 0.0, "is_reserved": 0, "lat": 38.905676, "fusion_lon": 0.0, "is_disabled": 0}, {"rental_uris": {"android": "https://dc.lft.to/lastmile_qr_scan", "ios": "https://dc.lft.to/lastmile_qr_scan"}, "type": "electric_scooter", "lon": -77.02348966666666, "name": "5c53111d7955206c2c18c54c91b65f19", "bike_id": "5c53111d7955206c2c18c54c91b65f19", "fusion_lat": 0.0, "is_reserved": 0, "lat": 38.89220616666667, "fusion_lon": 0.0, "is_disabled": 0}, {"rental_uris": {"android": "https://dc.lft.to/lastmile_qr_scan", "ios": "https://dc.lft.to/lastmile_qr_scan"}, "type": "electric_scooter", "lon": -76.99628333333334, "name": "98350871c26d60636b0ec88303eb4ad1", "bike_id": "98350871c26d60636b0ec88303eb4ad1", "fusion_lat": 0.0, "is_reserved": 0, "lat": 38.90035733333333, "fusion_lon": 0.0, "is_disabled": 0}, {"rental_uris": {"android": "https://dc.lft.to/lastmile_qr_scan", "ios": "https://dc.lft.to/lastmile_qr_scan"}, "type": "electric_scooter", "lon": -77.04499266666667, "name": "e5d0304fd56083daddd81d38ec6553fa", "bike_id": "e5d0304fd56083daddd81d38ec6553fa", "fusion_lat": 0.0, "is_reserved": 0, "lat": 38.91191716666667, "fusion_lon": 0.0, "is_disabled": 0}, {"rental_uris": {"android": "https://dc.lft.to/lastmile_qr_scan", "ios": "https://dc.lft.to/lastmile_qr_scan"}, "type": "electric_scooter", "lon": -77.03862116666667, "name": "de91cb4dca26da9de1bac8fcf91a595e", "bike_id": "de91cb4dca26da9de1bac8fcf91a595e", "fusion_lat": 0.0, "is_reserved": 0, "lat": 38.9125455, "fusion_lon": 0.0, "is_disabled": 0}, {"rental_uris": {"android": "https://dc.lft.to/lastmile_qr_scan", "ios": "https://dc.lft.to/lastmile_qr_scan"}, "type": "electric_bike", "lon": -77.10998016666667, "name": "20b71ec19615623297b67aaa38b1ee76", "bike_id": "20b71ec19615623297b67aaa38b1ee76", "fusion_lat": 0.0, "is_reserved": 0, "lat": 38.870571, "fusion_lon": 0.0, "is_disabled": 0}, {"rental_uris": {"android": "https://dc.lft.to/lastmile_qr_scan", "ios": "https://dc.lft.to/lastmile_qr_scan"}, "type": "electric_scooter", "lon": -76.99477016666667, "name": "7ad7d0037c0c72da635f4f6308dbf707", "bike_id": "7ad7d0037c0c72da635f4f6308dbf707", "fusion_lat": 0.0, "is_reserved": 0, "lat": 38.8772975, "fusion_lon": 0.0, "is_disabled": 0}, {"rental_uris": {"android": "https://dc.lft.to/lastmile_qr_scan", "ios": "https://dc.lft.to/lastmile_qr_scan"}, "type": "electric_scooter", "lon": -77.02169533333333, "name": "b049088e55b74d9e4ec82bf7b35a7759", "bike_id": "b049088e55b74d9e4ec82bf7b35a7759", "fusion_lat": 0.0, "is_reserved": 0, "lat": 38.88497, "fusion_lon": 0.0, "is_disabled": 0}, {"rental_uris": {"android": "https://dc.lft.to/lastmile_qr_scan", "ios": "https://dc.lft.to/lastmile_qr_scan"}, "type": "electric_scooter", "lon": -77.04297766666667, "name": "6b90479545a258e38f9d7b6c2c106205", "bike_id": "6b90479545a258e38f9d7b6c2c106205", "fusion_lat": 0.0, "is_reserved": 0, "lat": 38.92254116666667, "fusion_lon": 0.0, "is_disabled": 0}, {"rental_uris": {"android": "https://dc.lft.to/lastmile_qr_scan", "ios": "https://dc.lft.to/lastmile_qr_scan"}, "type": "electric_scooter", "lon": -77.051342, "name": "307087feaade126abe77f82894013f2e", "bike_id": "307087feaade126abe77f82894013f2e", "fusion_lat": 0.0, "is_reserved": 0, "lat": 38.90665933333333, "fusion_lon": 0.0, "is_disabled": 0}, {"rental_uris": {"android": "https://dc.lft.to/lastmile_qr_scan", "ios": "https://dc.lft.to/lastmile_qr_scan"}, "type": "electric_scooter", "lon": -77.0379025, "name": "95e45203ecc1591b0242d01caa268a59", "bike_id": "95e45203ecc1591b0242d01caa268a59", "fusion_lat": 0.0, "is_reserved": 0, "lat": 38.93100583333333, "fusion_lon": 0.0, "is_disabled": 0}, {"rental_uris": {"android": "https://dc.lft.to/lastmile_qr_scan", "ios": "https://dc.lft.to/lastmile_qr_scan"}, "type": "electric_scooter", "lon": -77.04168883333334, "name": "2f22ee675c4853fd57559b90a2cedd13", "bike_id": "2f22ee675c4853fd57559b90a2cedd13", "fusion_lat": 0.0, "is_reserved": 0, "lat": 38.913406333333334, "fusion_lon": 0.0, "is_disabled": 0}, {"rental_uris": {"android": "https://dc.lft.to/lastmile_qr_scan", "ios": "https://dc.lft.to/lastmile_qr_scan"}, "type": "electric_scooter", "lon": -77.02514683333334, "name": "015cea29006061397b2e76fed88bebbc", "bike_id": "015cea29006061397b2e76fed88bebbc", "fusion_lat": 0.0, "is_reserved": 0, "lat": 38.901581, "fusion_lon": 0.0, "is_disabled": 0}, {"rental_uris": {"android": "https://dc.lft.to/lastmile_qr_scan", "ios": "https://dc.lft.to/lastmile_qr_scan"}, "type": "electric_scooter", "lon": -77.01928566666666, "name": "687b3ec566b853e912d4c17c2bb667c0", "bike_id": "687b3ec566b853e912d4c17c2bb667c0", "fusion_lat": 0.0, "is_reserved": 0, "lat": 38.935743333333335, "fusion_lon": 0.0, "is_disabled": 0}, {"rental_uris": {"android": "https://dc.lft.to/lastmile_qr_scan", "ios": "https://dc.lft.to/lastmile_qr_scan"}, "type": "electric_scooter", "lon": -76.989917, "name": "bb19289dc1496342ed1612e3222fd466", "bike_id": "bb19289dc1496342ed1612e3222fd466", "fusion_lat": 0.0, "is_reserved": 0, "lat": 38.8644385, "fusion_lon": 0.0, "is_disabled": 0}, {"rental_uris": {"android": "https://dc.lft.to/lastmile_qr_scan", "ios": "https://dc.lft.to/lastmile_qr_scan"}, "type": "electric_scooter", "lon": -77.04819666666667, "name": "a93170d06f6e330f8efbf747db21e447", "bike_id": "a93170d06f6e330f8efbf747db21e447", "fusion_lat": 0.0, "is_reserved": 0, "lat": 38.91480716666667, "fusion_lon": 0.0, "is_disabled": 0}, {"rental_uris": {"android": "https://dc.lft.to/lastmile_qr_scan", "ios": "https://dc.lft.to/lastmile_qr_scan"}, "type": "electric_scooter", "lon": -77.02959433333334, "name": "99082f46bb8a1a70eaf6801588ed8130", "bike_id": "99082f46bb8a1a70eaf6801588ed8130", "fusion_lat": 0.0, "is_reserved": 0, "lat": 38.921420499999996, "fusion_lon": 0.0, "is_disabled": 0}, {"rental_uris": {"android": "https://dc.lft.to/lastmile_qr_scan", "ios": "https://dc.lft.to/lastmile_qr_scan"}, "type": "electric_scooter", "lon": -77.03280966666667, "name": "2e30447d24517a543c7222760172d733", "bike_id": "2e30447d24517a543c7222760172d733", "fusion_lat": 0.0, "is_reserved": 0, "lat": 38.9398685, "fusion_lon": 0.0, "is_disabled": 0}, {"rental_uris": {"android": "https://dc.lft.to/lastmile_qr_scan", "ios": "https://dc.lft.to/lastmile_qr_scan"}, "type": "electric_scooter", "lon": -77.0280395, "name": "a0093217cd4d9e5efa5ea7b9b568b142", "bike_id": "a0093217cd4d9e5efa5ea7b9b568b142", "fusion_lat": 0.0, "is_reserved": 0, "lat": 38.96141716666666, "fusion_lon": 0.0, "is_disabled": 0}, {"rental_uris": {"android": "https://dc.lft.to/lastmile_qr_scan", "ios": "https://dc.lft.to/lastmile_qr_scan"}, "type": "electric_scooter", "lon": -76.990029, "name": "aaa46867b19774fb5afe5bfc4bbf7698", "bike_id": "aaa46867b19774fb5afe5bfc4bbf7698", "fusion_lat": 0.0, "is_reserved": 0, "lat": 38.9038805, "fusion_lon": 0.0, "is_disabled": 0}, {"rental_uris": {"android": "https://dc.lft.to/lastmile_qr_scan", "ios": "https://dc.lft.to/lastmile_qr_scan"}, "type": "electric_scooter", "lon": -77.00676533333333, "name": "58bb4395f01a516a9a7b56d494a34a39", "bike_id": "58bb4395f01a516a9a7b56d494a34a39", "fusion_lat": 0.0, "is_reserved": 0, "lat": 38.949923, "fusion_lon": 0.0, "is_disabled": 0}, {"rental_uris": {"android": "https://dc.lft.to/lastmile_qr_scan", "ios": "https://dc.lft.to/lastmile_qr_scan"}, "type": "electric_scooter", "lon": -76.986796, "name": "9e9686d24558d83e4310d49a857d4959", "bike_id": "9e9686d24558d83e4310d49a857d4959", "fusion_lat": 0.0, "is_reserved": 0, "lat": 38.882107833333336, "fusion_lon": 0.0, "is_disabled": 0}, {"rental_uris": {"android": "https://dc.lft.to/lastmile_qr_scan", "ios": "https://dc.lft.to/lastmile_qr_scan"}, "type": "electric_scooter", "lon": -77.03184133333333, "name": "a2e951e1508bfdab45dc8bd27e6b4fed", "bike_id": "a2e951e1508bfdab45dc8bd27e6b4fed", "fusion_lat": 0.0, "is_reserved": 0, "lat": 38.907215, "fusion_lon": 0.0, "is_disabled": 0}, {"rental_uris": {"android": "https://dc.lft.to/lastmile_qr_scan", "ios": "https://dc.lft.to/lastmile_qr_scan"}, "type": "electric_scooter", "lon": -77.03279416666666, "name": "abdbf5e325c3346cb33fe7c6a0694914", "bike_id": "abdbf5e325c3346cb33fe7c6a0694914", "fusion_lat": 0.0, "is_reserved": 0, "lat": 38.910272166666665, "fusion_lon": 0.0, "is_disabled": 0}, {"rental_uris": {"android": "https://dc.lft.to/lastmile_qr_scan", "ios": "https://dc.lft.to/lastmile_qr_scan"}, "type": "electric_scooter", "lon": -77.0325365, "name": "b30a45bf5d9650f9ad9938831e9f4d35", "bike_id": "b30a45bf5d9650f9ad9938831e9f4d35", "fusion_lat": 0.0, "is_reserved": 0, "lat": 38.904278833333336, "fusion_lon": 0.0, "is_disabled": 0}, {"rental_uris": {"android": "https://dc.lft.to/lastmile_qr_scan", "ios": "https://dc.lft.to/lastmile_qr_scan"}, "type": "electric_scooter", "lon": -77.0255885, "name": "dbddf61c74b3fdb3c8cb3a0adb7b5a09", "bike_id": "dbddf61c74b3fdb3c8cb3a0adb7b5a09", "fusion_lat": 0.0, "is_reserved": 0, "lat": 38.941633833333334, "fusion_lon": 0.0, "is_disabled": 0}, {"rental_uris": {"android": "https://dc.lft.to/lastmile_qr_scan", "ios": "https://dc.lft.to/lastmile_qr_scan"}, "type": "electric_scooter", "lon": -77.04659, "name": "b063e2c07e1fab5a175c86f10545c3cf", "bike_id": "b063e2c07e1fab5a175c86f10545c3cf", "fusion_lat": 0.0, "is_reserved": 0, "lat": 38.893332, "fusion_lon": 0.0, "is_disabled": 0}, {"rental_uris": {"android": "https://dc.lft.to/lastmile_qr_scan", "ios": "https://dc.lft.to/lastmile_qr_scan"}, "type": "electric_scooter", "lon": -77.0317925, "name": "464ac546b347120d8b8e1bf79d3075d8", "bike_id": "464ac546b347120d8b8e1bf79d3075d8", "fusion_lat": 0.0, "is_reserved": 0, "lat": 38.88626583333333, "fusion_lon": 0.0, "is_disabled": 0}, {"rental_uris": {"android": "https://dc.lft.to/lastmile_qr_scan", "ios": "https://dc.lft.to/lastmile_qr_scan"}, "type": "electric_scooter", "lon": -77.03153283333333, "name": "4f0ed5efd1483febc6a00b763b43eb0a", "bike_id": "4f0ed5efd1483febc6a00b763b43eb0a", "fusion_lat": 0.0, "is_reserved": 0, "lat": 38.89725466666667, "fusion_lon": 0.0, "is_disabled": 0}, {"rental_uris": {"android": "https://dc.lft.to/lastmile_qr_scan", "ios": "https://dc.lft.to/lastmile_qr_scan"}, "type": "electric_scooter", "lon": -77.0382225, "name": "03420d66149ac1f08d35418b35d66081", "bike_id": "03420d66149ac1f08d35418b35d66081", "fusion_lat": 0.0, "is_reserved": 0, "lat": 38.907183833333335, "fusion_lon": 0.0, "is_disabled": 0}, {"rental_uris": {"android": "https://dc.lft.to/lastmile_qr_scan", "ios": "https://dc.lft.to/lastmile_qr_scan"}, "type": "electric_scooter", "lon": -77.00331266666667, "name": "6719b0ebc64f6750d879ea40762116bd", "bike_id": "6719b0ebc64f6750d879ea40762116bd", "fusion_lat": 0.0, "is_reserved": 0, "lat": 38.8935795, "fusion_lon": 0.0, "is_disabled": 0}, {"rental_uris": {"android": "https://dc.lft.to/lastmile_qr_scan", "ios": "https://dc.lft.to/lastmile_qr_scan"}, "type": "electric_scooter", "lon": -77.00111016666666, "name": "81d87f231ea63a460e2707fe584b7178", "bike_id": "81d87f231ea63a460e2707fe584b7178", "fusion_lat": 0.0, "is_reserved": 0, "lat": 38.899998, "fusion_lon": 0.0, "is_disabled": 0}, {"rental_uris": {"android": "https://dc.lft.to/lastmile_qr_scan", "ios": "https://dc.lft.to/lastmile_qr_scan"}, "type": "electric_scooter", "lon": -77.01555866666666, "name": "d6729350b9986ded8fe097a7cbdc3169", "bike_id": "d6729350b9986ded8fe097a7cbdc3169", "fusion_lat": 0.0, "is_reserved": 0, "lat": 38.914646166666664, "fusion_lon": 0.0, "is_disabled": 0}, {"rental_uris": {"android": "https://dc.lft.to/lastmile_qr_scan", "ios": "https://dc.lft.to/lastmile_qr_scan"}, "type": "electric_bike", "lon": -76.987386, "name": "994563c4b9758220f6675c3e1bddcfc4", "bike_id": "994563c4b9758220f6675c3e1bddcfc4", "fusion_lat": 0.0, "is_reserved": 0, "lat": 38.94435266666667, "fusion_lon": 0.0, "is_disabled": 0}, {"rental_uris": {"android": "https://dc.lft.to/lastmile_qr_scan", "ios": "https://dc.lft.to/lastmile_qr_scan"}, "type": "electric_scooter", "lon": -77.02813466666667, "name": "26f4f0412a8cacb9985cf966ad3d1e9b", "bike_id": "26f4f0412a8cacb9985cf966ad3d1e9b", "fusion_lat": 0.0, "is_reserved": 0, "lat": 38.9561005, "fusion_lon": 0.0, "is_disabled": 0}, {"rental_uris": {"android": "https://dc.lft.to/lastmile_qr_scan", "ios": "https://dc.lft.to/lastmile_qr_scan"}, "type": "electric_scooter", "lon": -77.05635, "name": "30e5584873ee505773720e3df7e53ada", "bike_id": "30e5584873ee505773720e3df7e53ada", "fusion_lat": 0.0, "is_reserved": 0, "lat": 38.92434983333333, "fusion_lon": 0.0, "is_disabled": 0}, {"rental_uris": {"android": "https://dc.lft.to/lastmile_qr_scan", "ios": "https://dc.lft.to/lastmile_qr_scan"}, "type": "electric_bike", "lon": -77.07682466666667, "name": "14ed6252cbf8bf18ff4371ece7b606ec", "bike_id": "14ed6252cbf8bf18ff4371ece7b606ec", "fusion_lat": 0.0, "is_reserved": 0, "lat": 38.83192316666667, "fusion_lon": 0.0, "is_disabled": 0}, {"rental_uris": {"android": "https://dc.lft.to/lastmile_qr_scan", "ios": "https://dc.lft.to/lastmile_qr_scan"}, "type": "electric_scooter", "lon": -77.06762233333333, "name": "82f73fd0341da0ffe9aaf2061ec9287f", "bike_id": "82f73fd0341da0ffe9aaf2061ec9287f", "fusion_lat": 0.0, "is_reserved": 0, "lat": 38.9035865, "fusion_lon": 0.0, "is_disabled": 0}, {"rental_uris": {"android": "https://dc.lft.to/lastmile_qr_scan", "ios": "https://dc.lft.to/lastmile_qr_scan"}, "type": "electric_bike", "lon": -77.12262383333334, "name": "8d3a25c4a6a57c279f4d5ce57ae3dd09", "bike_id": "8d3a25c4a6a57c279f4d5ce57ae3dd09", "fusion_lat": 0.0, "is_reserved": 0, "lat": 38.891886666666664, "fusion_lon": 0.0, "is_disabled": 0}, {"rental_uris": {"android": "https://dc.lft.to/lastmile_qr_scan", "ios": "https://dc.lft.to/lastmile_qr_scan"}, "type": "electric_scooter", "lon": -77.0448425, "name": "41035a9c78188e9cc64cecb9bd46ee3d", "bike_id": "41035a9c78188e9cc64cecb9bd46ee3d", "fusion_lat": 0.0, "is_reserved": 0, "lat": 38.90131916666667, "fusion_lon": 0.0, "is_disabled": 0}, {"rental_uris": {"android": "https://dc.lft.to/lastmile_qr_scan", "ios": "https://dc.lft.to/lastmile_qr_scan"}, "type": "electric_scooter", "lon": -76.99158383333334, "name": "cd1b7c38ac1ef06727dfdf74d0a59e7f", "bike_id": "cd1b7c38ac1ef06727dfdf74d0a59e7f", "fusion_lat": 0.0, "is_reserved": 0, "lat": 38.8791745, "fusion_lon": 0.0, "is_disabled": 0}, {"rental_uris": {"android": "https://dc.lft.to/lastmile_qr_scan", "ios": "https://dc.lft.to/lastmile_qr_scan"}, "type": "electric_scooter", "lon": -77.04756533333334, "name": "47610ea68dd50197356bb2fa4d5e12ca", "bike_id": "47610ea68dd50197356bb2fa4d5e12ca", "fusion_lat": 0.0, "is_reserved": 0, "lat": 38.902103, "fusion_lon": 0.0, "is_disabled": 0}, {"rental_uris": {"android": "https://dc.lft.to/lastmile_qr_scan", "ios": "https://dc.lft.to/lastmile_qr_scan"}, "type": "electric_scooter", "lon": -77.03235466666666, "name": "20fd0a09fe30586832a289c03bca8650", "bike_id": "20fd0a09fe30586832a289c03bca8650", "fusion_lat": 0.0, "is_reserved": 0, "lat": 38.92869983333333, "fusion_lon": 0.0, "is_disabled": 0}, {"rental_uris": {"android": "https://dc.lft.to/lastmile_qr_scan", "ios": "https://dc.lft.to/lastmile_qr_scan"}, "type": "electric_scooter", "lon": -77.00216083333333, "name": "4ce94c4d52bbf691d33109c2c083ea30", "bike_id": "4ce94c4d52bbf691d33109c2c083ea30", "fusion_lat": 0.0, "is_reserved": 0, "lat": 38.877434666666666, "fusion_lon": 0.0, "is_disabled": 0}, {"rental_uris": {"android": "https://dc.lft.to/lastmile_qr_scan", "ios": "https://dc.lft.to/lastmile_qr_scan"}, "type": "electric_scooter", "lon": -77.02423816666666, "name": "12734125f0380410fceded835d48e161", "bike_id": "12734125f0380410fceded835d48e161", "fusion_lat": 0.0, "is_reserved": 0, "lat": 38.89221033333333, "fusion_lon": 0.0, "is_disabled": 0}, {"rental_uris": {"android": "https://dc.lft.to/lastmile_qr_scan", "ios": "https://dc.lft.to/lastmile_qr_scan"}, "type": "electric_scooter", "lon": -77.03454016666667, "name": "31c936ba367c2be7f89ca20215a890d3", "bike_id": "31c936ba367c2be7f89ca20215a890d3", "fusion_lat": 0.0, "is_reserved": 0, "lat": 38.90299683333333, "fusion_lon": 0.0, "is_disabled": 0}, {"rental_uris": {"android": "https://dc.lft.to/lastmile_qr_scan", "ios": "https://dc.lft.to/lastmile_qr_scan"}, "type": "electric_scooter", "lon": -77.047375, "name": "b90375f081e8737c37574c774d1ad206", "bike_id": "b90375f081e8737c37574c774d1ad206", "fusion_lat": 0.0, "is_reserved": 0, "lat": 38.902309, "fusion_lon": 0.0, "is_disabled": 0}, {"rental_uris": {"android": "https://dc.lft.to/lastmile_qr_scan", "ios": "https://dc.lft.to/lastmile_qr_scan"}, "type": "electric_bike", "lon": -76.935434, "name": "e0942135769cf209064dec86cd3c3f86", "bike_id": "e0942135769cf209064dec86cd3c3f86", "fusion_lat": 0.0, "is_reserved": 0, "lat": 38.955509666666664, "fusion_lon": 0.0, "is_disabled": 0}, {"rental_uris": {"android": "https://dc.lft.to/lastmile_qr_scan", "ios": "https://dc.lft.to/lastmile_qr_scan"}, "type": "electric_scooter", "lon": -77.06987383333333, "name": "28ad6c1411aa359e0c371b4acd848640", "bike_id": "28ad6c1411aa359e0c371b4acd848640", "fusion_lat": 0.0, "is_reserved": 0, "lat": 38.9469055, "fusion_lon": 0.0, "is_disabled": 0}, {"rental_uris": {"android": "https://dc.lft.to/lastmile_qr_scan", "ios": "https://dc.lft.to/lastmile_qr_scan"}, "type": "electric_scooter", "lon": -77.0218295, "name": "fbef0dcc231dc0632a065a4cbd1e903f", "bike_id": "fbef0dcc231dc0632a065a4cbd1e903f", "fusion_lat": 0.0, "is_reserved": 0, "lat": 38.91121733333333, "fusion_lon": 0.0, "is_disabled": 0}, {"rental_uris": {"android": "https://dc.lft.to/lastmile_qr_scan", "ios": "https://dc.lft.to/lastmile_qr_scan"}, "type": "electric_scooter", "lon": -77.01104383333333, "name": "809f472b891c85888d553156ec9a528f", "bike_id": "809f472b891c85888d553156ec9a528f", "fusion_lat": 0.0, "is_reserved": 0, "lat": 38.905609166666665, "fusion_lon": 0.0, "is_disabled": 0}, {"rental_uris": {"android": "https://dc.lft.to/lastmile_qr_scan", "ios": "https://dc.lft.to/lastmile_qr_scan"}, "type": "electric_scooter", "lon": -77.02982516666667, "name": "fbd3fecc5320ff230a6d5e781db272bb", "bike_id": "fbd3fecc5320ff230a6d5e781db272bb", "fusion_lat": 0.0, "is_reserved": 0, "lat": 38.907124833333334, "fusion_lon": 0.0, "is_disabled": 0}, {"rental_uris": {"android": "https://dc.lft.to/lastmile_qr_scan", "ios": "https://dc.lft.to/lastmile_qr_scan"}, "type": "electric_bike", "lon": -77.11233, "name": "353e5c90a44daf901de25d88d5f93bc1", "bike_id": "353e5c90a44daf901de25d88d5f93bc1", "fusion_lat": 0.0, "is_reserved": 0, "lat": 38.8286335, "fusion_lon": 0.0, "is_disabled": 0}, {"rental_uris": {"android": "https://dc.lft.to/lastmile_qr_scan", "ios": "https://dc.lft.to/lastmile_qr_scan"}, "type": "electric_scooter", "lon": -77.03276466666667, "name": "829446fa1ddc1b568608fb5a53da54ee", "bike_id": "829446fa1ddc1b568608fb5a53da54ee", "fusion_lat": 0.0, "is_reserved": 0, "lat": 38.93676933333333, "fusion_lon": 0.0, "is_disabled": 0}, {"rental_uris": {"android": "https://dc.lft.to/lastmile_qr_scan", "ios": "https://dc.lft.to/lastmile_qr_scan"}, "type": "electric_scooter", "lon": -76.98340483333334, "name": "0e562abfa36f7b279ad7f29448bcbe6a", "bike_id": "0e562abfa36f7b279ad7f29448bcbe6a", "fusion_lat": 0.0, "is_reserved": 0, "lat": 38.86257916666667, "fusion_lon": 0.0, "is_disabled": 0}, {"rental_uris": {"android": "https://dc.lft.to/lastmile_qr_scan", "ios": "https://dc.lft.to/lastmile_qr_scan"}, "type": "electric_bike", "lon": -77.07793, "name": "d0a8835b6bbad72dc80250cfcf81c68e", "bike_id": "d0a8835b6bbad72dc80250cfcf81c68e", "fusion_lat": 0.0, "is_reserved": 0, "lat": 38.84515283333333, "fusion_lon": 0.0, "is_disabled": 0}, {"rental_uris": {"android": "https://dc.lft.to/lastmile_qr_scan", "ios": "https://dc.lft.to/lastmile_qr_scan"}, "type": "electric_scooter", "lon": -77.024019, "name": "ea5545376e27949cb9f332e301ea841d", "bike_id": "ea5545376e27949cb9f332e301ea841d", "fusion_lat": 0.0, "is_reserved": 0, "lat": 38.95730433333333, "fusion_lon": 0.0, "is_disabled": 0}, {"rental_uris": {"android": "https://dc.lft.to/lastmile_qr_scan", "ios": "https://dc.lft.to/lastmile_qr_scan"}, "type": "electric_scooter", "lon": -77.03753483333334, "name": "00d54b488f7b961048b883f66c1a7c91", "bike_id": "00d54b488f7b961048b883f66c1a7c91", "fusion_lat": 0.0, "is_reserved": 0, "lat": 38.906736333333335, "fusion_lon": 0.0, "is_disabled": 0}, {"rental_uris": {"android": "https://dc.lft.to/lastmile_qr_scan", "ios": "https://dc.lft.to/lastmile_qr_scan"}, "type": "electric_scooter", "lon": -76.99603683333333, "name": "21507d4d61fdc6dadaf7c874907d57e2", "bike_id": "21507d4d61fdc6dadaf7c874907d57e2", "fusion_lat": 0.0, "is_reserved": 0, "lat": 38.89087683333333, "fusion_lon": 0.0, "is_disabled": 0}, {"rental_uris": {"android": "https://dc.lft.to/lastmile_qr_scan", "ios": "https://dc.lft.to/lastmile_qr_scan"}, "type": "electric_scooter", "lon": -76.999483, "name": "80bc290891fb8e0c59668643815d8100", "bike_id": "80bc290891fb8e0c59668643815d8100", "fusion_lat": 0.0, "is_reserved": 0, "lat": 38.84288866666667, "fusion_lon": 0.0, "is_disabled": 0}, {"rental_uris": {"android": "https://dc.lft.to/lastmile_qr_scan", "ios": "https://dc.lft.to/lastmile_qr_scan"}, "type": "electric_scooter", "lon": -77.03635033333333, "name": "f3b78ad69d86bd73e121dfaadc7ce96d", "bike_id": "f3b78ad69d86bd73e121dfaadc7ce96d", "fusion_lat": 0.0, "is_reserved": 0, "lat": 38.90315666666667, "fusion_lon": 0.0, "is_disabled": 0}, {"rental_uris": {"android": "https://dc.lft.to/lastmile_qr_scan", "ios": "https://dc.lft.to/lastmile_qr_scan"}, "type": "electric_bike", "lon": -77.011051, "name": "2e8399667b2b78df30d23f2a8d305ee5", "bike_id": "2e8399667b2b78df30d23f2a8d305ee5", "fusion_lat": 0.0, "is_reserved": 0, "lat": 38.963052, "fusion_lon": 0.0, "is_disabled": 0}, {"rental_uris": {"android": "https://dc.lft.to/lastmile_qr_scan", "ios": "https://dc.lft.to/lastmile_qr_scan"}, "type": "electric_scooter", "lon": -77.017314, "name": "274d81d00ad2233a2e1faf50f39899f3", "bike_id": "274d81d00ad2233a2e1faf50f39899f3", "fusion_lat": 0.0, "is_reserved": 0, "lat": 38.877030500000004, "fusion_lon": 0.0, "is_disabled": 0}, {"rental_uris": {"android": "https://dc.lft.to/lastmile_qr_scan", "ios": "https://dc.lft.to/lastmile_qr_scan"}, "type": "electric_scooter", "lon": -76.9868815, "name": "2d1939583c584801d1e9f569cf291733", "bike_id": "2d1939583c584801d1e9f569cf291733", "fusion_lat": 0.0, "is_reserved": 0, "lat": 38.90491516666667, "fusion_lon": 0.0, "is_disabled": 0}, {"rental_uris": {"android": "https://dc.lft.to/lastmile_qr_scan", "ios": "https://dc.lft.to/lastmile_qr_scan"}, "type": "electric_scooter", "lon": -77.0709785, "name": "3ed7562ce67761a263b5401e485249fb", "bike_id": "3ed7562ce67761a263b5401e485249fb", "fusion_lat": 0.0, "is_reserved": 0, "lat": 38.91971733333333, "fusion_lon": 0.0, "is_disabled": 0}, {"rental_uris": {"android": "https://dc.lft.to/lastmile_qr_scan", "ios": "https://dc.lft.to/lastmile_qr_scan"}, "type": "electric_scooter", "lon": -76.973275, "name": "dca2777895066f1c0037afd7e02d4025", "bike_id": "dca2777895066f1c0037afd7e02d4025", "fusion_lat": 0.0, "is_reserved": 0, "lat": 38.90476983333333, "fusion_lon": 0.0, "is_disabled": 0}, {"rental_uris": {"android": "https://dc.lft.to/lastmile_qr_scan", "ios": "https://dc.lft.to/lastmile_qr_scan"}, "type": "electric_scooter", "lon": -77.02894, "name": "df116dad5d8860fcd9224ba9d2b9f1ec", "bike_id": "df116dad5d8860fcd9224ba9d2b9f1ec", "fusion_lat": 0.0, "is_reserved": 0, "lat": 38.89989466666667, "fusion_lon": 0.0, "is_disabled": 0}, {"rental_uris": {"android": "https://dc.lft.to/lastmile_qr_scan", "ios": "https://dc.lft.to/lastmile_qr_scan"}, "type": "electric_scooter", "lon": -77.0499795, "name": "0ac98d9a9605be039aa92122436d04d0", "bike_id": "0ac98d9a9605be039aa92122436d04d0", "fusion_lat": 0.0, "is_reserved": 0, "lat": 38.9050985, "fusion_lon": 0.0, "is_disabled": 0}, {"rental_uris": {"android": "https://dc.lft.to/lastmile_qr_scan", "ios": "https://dc.lft.to/lastmile_qr_scan"}, "type": "electric_bike", "lon": -76.95029866666667, "name": "8313d1d385eaa5df4db7ecdec6a6b422", "bike_id": "8313d1d385eaa5df4db7ecdec6a6b422", "fusion_lat": 0.0, "is_reserved": 0, "lat": 38.8917885, "fusion_lon": 0.0, "is_disabled": 0}, {"rental_uris": {"android": "https://dc.lft.to/lastmile_qr_scan", "ios": "https://dc.lft.to/lastmile_qr_scan"}, "type": "electric_scooter", "lon": -77.0415975, "name": "62142bb1a76e78377b4165926386fc24", "bike_id": "62142bb1a76e78377b4165926386fc24", "fusion_lat": 0.0, "is_reserved": 0, "lat": 38.91028683333333, "fusion_lon": 0.0, "is_disabled": 0}, {"rental_uris": {"android": "https://dc.lft.to/lastmile_qr_scan", "ios": "https://dc.lft.to/lastmile_qr_scan"}, "type": "electric_scooter", "lon": -77.0013295, "name": "05c8886a12fac9ca3b319549f5d49471", "bike_id": "05c8886a12fac9ca3b319549f5d49471", "fusion_lat": 0.0, "is_reserved": 0, "lat": 38.904056, "fusion_lon": 0.0, "is_disabled": 0}, {"rental_uris": {"android": "https://dc.lft.to/lastmile_qr_scan", "ios": "https://dc.lft.to/lastmile_qr_scan"}, "type": "electric_scooter", "lon": -77.01629833333334, "name": "52b5fd65f904ada9f2d28a0fc7181393", "bike_id": "52b5fd65f904ada9f2d28a0fc7181393", "fusion_lat": 0.0, "is_reserved": 0, "lat": 38.88311383333333, "fusion_lon": 0.0, "is_disabled": 0}, {"rental_uris": {"android": "https://dc.lft.to/lastmile_qr_scan", "ios": "https://dc.lft.to/lastmile_qr_scan"}, "type": "electric_scooter", "lon": -77.00367733333333, "name": "9da26934929b53297734023f0fd29aa8", "bike_id": "9da26934929b53297734023f0fd29aa8", "fusion_lat": 0.0, "is_reserved": 0, "lat": 38.90722933333333, "fusion_lon": 0.0, "is_disabled": 0}, {"rental_uris": {"android": "https://dc.lft.to/lastmile_qr_scan", "ios": "https://dc.lft.to/lastmile_qr_scan"}, "type": "electric_scooter", "lon": -77.02721983333333, "name": "0865aa98a9e8c2f1cb4362b7096df555", "bike_id": "0865aa98a9e8c2f1cb4362b7096df555", "fusion_lat": 0.0, "is_reserved": 0, "lat": 38.951325833333335, "fusion_lon": 0.0, "is_disabled": 0}, {"rental_uris": {"android": "https://dc.lft.to/lastmile_qr_scan", "ios": "https://dc.lft.to/lastmile_qr_scan"}, "type": "electric_scooter", "lon": -77.054277, "name": "52e72edcba32b96557d44c91e895ecfe", "bike_id": "52e72edcba32b96557d44c91e895ecfe", "fusion_lat": 0.0, "is_reserved": 0, "lat": 38.92315683333333, "fusion_lon": 0.0, "is_disabled": 0}, {"rental_uris": {"android": "https://dc.lft.to/lastmile_qr_scan", "ios": "https://dc.lft.to/lastmile_qr_scan"}, "type": "electric_scooter", "lon": -77.04237583333334, "name": "0edd89019bac4cf9f21461a9163bed7f", "bike_id": "0edd89019bac4cf9f21461a9163bed7f", "fusion_lat": 0.0, "is_reserved": 0, "lat": 38.92190816666667, "fusion_lon": 0.0, "is_disabled": 0}, {"rental_uris": {"android": "https://dc.lft.to/lastmile_qr_scan", "ios": "https://dc.lft.to/lastmile_qr_scan"}, "type": "electric_scooter", "lon": -77.03453666666667, "name": "9b1c3995523bc4ca92e9132f77e7728e", "bike_id": "9b1c3995523bc4ca92e9132f77e7728e", "fusion_lat": 0.0, "is_reserved": 0, "lat": 38.902687, "fusion_lon": 0.0, "is_disabled": 0}, {"rental_uris": {"android": "https://dc.lft.to/lastmile_qr_scan", "ios": "https://dc.lft.to/lastmile_qr_scan"}, "type": "electric_bike", "lon": -77.3530785, "name": "71603b76a11fad1ff6f4810033f864d6", "bike_id": "71603b76a11fad1ff6f4810033f864d6", "fusion_lat": 0.0, "is_reserved": 0, "lat": 38.9499835, "fusion_lon": 0.0, "is_disabled": 0}, {"rental_uris": {"android": "https://dc.lft.to/lastmile_qr_scan", "ios": "https://dc.lft.to/lastmile_qr_scan"}, "type": "electric_scooter", "lon": -77.009274, "name": "401b34f65b81b69cfbf077124e860cde", "bike_id": "401b34f65b81b69cfbf077124e860cde", "fusion_lat": 0.0, "is_reserved": 0, "lat": 38.896088166666665, "fusion_lon": 0.0, "is_disabled": 0}, {"rental_uris": {"android": "https://dc.lft.to/lastmile_qr_scan", "ios": "https://dc.lft.to/lastmile_qr_scan"}, "type": "electric_bike", "lon": -77.01993033333333, "name": "ce240ca00d83cbaaa5252376fe3ace5f", "bike_id": "ce240ca00d83cbaaa5252376fe3ace5f", "fusion_lat": 0.0, "is_reserved": 0, "lat": 38.9601925, "fusion_lon": 0.0, "is_disabled": 0}, {"rental_uris": {"android": "https://dc.lft.to/lastmile_qr_scan", "ios": "https://dc.lft.to/lastmile_qr_scan"}, "type": "electric_scooter", "lon": -76.99730066666666, "name": "49e67fd1cffd272787dc2a183d00604c", "bike_id": "49e67fd1cffd272787dc2a183d00604c", "fusion_lat": 0.0, "is_reserved": 0, "lat": 38.90791316666667, "fusion_lon": 0.0, "is_disabled": 0}, {"rental_uris": {"android": "https://dc.lft.to/lastmile_qr_scan", "ios": "https://dc.lft.to/lastmile_qr_scan"}, "type": "electric_scooter", "lon": -77.04037416666667, "name": "34424a2acc59b05b8214100473f60669", "bike_id": "34424a2acc59b05b8214100473f60669", "fusion_lat": 0.0, "is_reserved": 0, "lat": 38.92380683333333, "fusion_lon": 0.0, "is_disabled": 0}, {"rental_uris": {"android": "https://dc.lft.to/lastmile_qr_scan", "ios": "https://dc.lft.to/lastmile_qr_scan"}, "type": "electric_scooter", "lon": -77.04097716666666, "name": "21f19c6ea459053818fbe152cb7faa63", "bike_id": "21f19c6ea459053818fbe152cb7faa63", "fusion_lat": 0.0, "is_reserved": 0, "lat": 38.905057666666664, "fusion_lon": 0.0, "is_disabled": 0}, {"rental_uris": {"android": "https://dc.lft.to/lastmile_qr_scan", "ios": "https://dc.lft.to/lastmile_qr_scan"}, "type": "electric_scooter", "lon": -77.03394833333333, "name": "acbf7e35865a4097262ab886faf91aa3", "bike_id": "acbf7e35865a4097262ab886faf91aa3", "fusion_lat": 0.0, "is_reserved": 0, "lat": 38.909572833333335, "fusion_lon": 0.0, "is_disabled": 0}, {"rental_uris": {"android": "https://dc.lft.to/lastmile_qr_scan", "ios": "https://dc.lft.to/lastmile_qr_scan"}, "type": "electric_scooter", "lon": -76.983604, "name": "acc1767eb85dbdbe0570b6b970d65508", "bike_id": "acc1767eb85dbdbe0570b6b970d65508", "fusion_lat": 0.0, "is_reserved": 0, "lat": 38.864790166666666, "fusion_lon": 0.0, "is_disabled": 0}, {"rental_uris": {"android": "https://dc.lft.to/lastmile_qr_scan", "ios": "https://dc.lft.to/lastmile_qr_scan"}, "type": "electric_scooter", "lon": -76.99335816666667, "name": "3aefe5a620b2afa4a629ec86e479e1ac", "bike_id": "3aefe5a620b2afa4a629ec86e479e1ac", "fusion_lat": 0.0, "is_reserved": 0, "lat": 38.876525, "fusion_lon": 0.0, "is_disabled": 0}, {"rental_uris": {"android": "https://dc.lft.to/lastmile_qr_scan", "ios": "https://dc.lft.to/lastmile_qr_scan"}, "type": "electric_scooter", "lon": -77.036372, "name": "784bbffec31d88bb2c1626fbdc7b5790", "bike_id": "784bbffec31d88bb2c1626fbdc7b5790", "fusion_lat": 0.0, "is_reserved": 0, "lat": 38.916349833333335, "fusion_lon": 0.0, "is_disabled": 0}, {"rental_uris": {"android": "https://dc.lft.to/lastmile_qr_scan", "ios": "https://dc.lft.to/lastmile_qr_scan"}, "type": "electric_bike", "lon": -77.11427816666667, "name": "2ccdfca027c2302a5f5195dbbd57fa8b", "bike_id": "2ccdfca027c2302a5f5195dbbd57fa8b", "fusion_lat": 0.0, "is_reserved": 0, "lat": 38.852443, "fusion_lon": 0.0, "is_disabled": 0}, {"rental_uris": {"android": "https://dc.lft.to/lastmile_qr_scan", "ios": "https://dc.lft.to/lastmile_qr_scan"}, "type": "electric_scooter", "lon": -77.03348316666667, "name": "eb9891a54607b92a6d783faf54b95a91", "bike_id": "eb9891a54607b92a6d783faf54b95a91", "fusion_lat": 0.0, "is_reserved": 0, "lat": 38.916974333333336, "fusion_lon": 0.0, "is_disabled": 0}, {"rental_uris": {"android": "https://dc.lft.to/lastmile_qr_scan", "ios": "https://dc.lft.to/lastmile_qr_scan"}, "type": "electric_scooter", "lon": -77.02034283333333, "name": "8e1cb4d30e6f726ffe392643604006eb", "bike_id": "8e1cb4d30e6f726ffe392643604006eb", "fusion_lat": 0.0, "is_reserved": 0, "lat": 38.892701333333335, "fusion_lon": 0.0, "is_disabled": 0}, {"rental_uris": {"android": "https://dc.lft.to/lastmile_qr_scan", "ios": "https://dc.lft.to/lastmile_qr_scan"}, "type": "electric_scooter", "lon": -76.99757083333333, "name": "1693e00cbabde0ebe91dee3e0c229a0b", "bike_id": "1693e00cbabde0ebe91dee3e0c229a0b", "fusion_lat": 0.0, "is_reserved": 0, "lat": 38.92268933333333, "fusion_lon": 0.0, "is_disabled": 0}, {"rental_uris": {"android": "https://dc.lft.to/lastmile_qr_scan", "ios": "https://dc.lft.to/lastmile_qr_scan"}, "type": "electric_scooter", "lon": -77.021692, "name": "8e819f987317bd08e0b7def2bbecff3a", "bike_id": "8e819f987317bd08e0b7def2bbecff3a", "fusion_lat": 0.0, "is_reserved": 0, "lat": 38.940835666666665, "fusion_lon": 0.0, "is_disabled": 0}, {"rental_uris": {"android": "https://dc.lft.to/lastmile_qr_scan", "ios": "https://dc.lft.to/lastmile_qr_scan"}, "type": "electric_scooter", "lon": -77.029412, "name": "32f4477064471d9e8651f442b8bafbb8", "bike_id": "32f4477064471d9e8651f442b8bafbb8", "fusion_lat": 0.0, "is_reserved": 0, "lat": 38.904825833333334, "fusion_lon": 0.0, "is_disabled": 0}, {"rental_uris": {"android": "https://dc.lft.to/lastmile_qr_scan", "ios": "https://dc.lft.to/lastmile_qr_scan"}, "type": "electric_scooter", "lon": -77.02804966666666, "name": "feae602a03ae60ee2e822285dbc8d7cd", "bike_id": "feae602a03ae60ee2e822285dbc8d7cd", "fusion_lat": 0.0, "is_reserved": 0, "lat": 38.93057566666667, "fusion_lon": 0.0, "is_disabled": 0}, {"rental_uris": {"android": "https://dc.lft.to/lastmile_qr_scan", "ios": "https://dc.lft.to/lastmile_qr_scan"}, "type": "electric_scooter", "lon": -77.04993566666667, "name": "828640d50941037371748a5a3224ee52", "bike_id": "828640d50941037371748a5a3224ee52", "fusion_lat": 0.0, "is_reserved": 0, "lat": 38.905079666666666, "fusion_lon": 0.0, "is_disabled": 0}, {"rental_uris": {"android": "https://dc.lft.to/lastmile_qr_scan", "ios": "https://dc.lft.to/lastmile_qr_scan"}, "type": "electric_scooter", "lon": -77.04967716666667, "name": "b33f62ec5513d1da47070cd3f60432bf", "bike_id": "b33f62ec5513d1da47070cd3f60432bf", "fusion_lat": 0.0, "is_reserved": 0, "lat": 38.90080016666667, "fusion_lon": 0.0, "is_disabled": 0}, {"rental_uris": {"android": "https://dc.lft.to/lastmile_qr_scan", "ios": "https://dc.lft.to/lastmile_qr_scan"}, "type": "electric_scooter", "lon": -77.03209333333334, "name": "42344a75ade5a3d936610f0255e29c97", "bike_id": "42344a75ade5a3d936610f0255e29c97", "fusion_lat": 0.0, "is_reserved": 0, "lat": 38.907661166666664, "fusion_lon": 0.0, "is_disabled": 0}, {"rental_uris": {"android": "https://dc.lft.to/lastmile_qr_scan", "ios": "https://dc.lft.to/lastmile_qr_scan"}, "type": "electric_scooter", "lon": -76.99630783333333, "name": "e2faa5301fe13950659e5741f6aff88c", "bike_id": "e2faa5301fe13950659e5741f6aff88c", "fusion_lat": 0.0, "is_reserved": 0, "lat": 38.846199666666664, "fusion_lon": 0.0, "is_disabled": 0}, {"rental_uris": {"android": "https://dc.lft.to/lastmile_qr_scan", "ios": "https://dc.lft.to/lastmile_qr_scan"}, "type": "electric_scooter", "lon": -77.032038, "name": "43fe6860cb7e0803a778d9faec425d12", "bike_id": "43fe6860cb7e0803a778d9faec425d12", "fusion_lat": 0.0, "is_reserved": 0, "lat": 38.9168185, "fusion_lon": 0.0, "is_disabled": 0}, {"rental_uris": {"android": "https://dc.lft.to/lastmile_qr_scan", "ios": "https://dc.lft.to/lastmile_qr_scan"}, "type": "electric_scooter", "lon": -77.044153, "name": "fe191a0f4d295e36dcd4c57a70435421", "bike_id": "fe191a0f4d295e36dcd4c57a70435421", "fusion_lat": 0.0, "is_reserved": 0, "lat": 38.905753833333335, "fusion_lon": 0.0, "is_disabled": 0}, {"rental_uris": {"android": "https://dc.lft.to/lastmile_qr_scan", "ios": "https://dc.lft.to/lastmile_qr_scan"}, "type": "electric_bike", "lon": -77.12401633333333, "name": "38bab83bc0713a6a5e9678d28d8d47a5", "bike_id": "38bab83bc0713a6a5e9678d28d8d47a5", "fusion_lat": 0.0, "is_reserved": 0, "lat": 38.893333166666665, "fusion_lon": 0.0, "is_disabled": 0}, {"rental_uris": {"android": "https://dc.lft.to/lastmile_qr_scan", "ios": "https://dc.lft.to/lastmile_qr_scan"}, "type": "electric_scooter", "lon": -76.93672383333333, "name": "a4edbf7186306902179aab2353e14ac9", "bike_id": "a4edbf7186306902179aab2353e14ac9", "fusion_lat": 0.0, "is_reserved": 0, "lat": 38.887526, "fusion_lon": 0.0, "is_disabled": 0}, {"rental_uris": {"android": "https://dc.lft.to/lastmile_qr_scan", "ios": "https://dc.lft.to/lastmile_qr_scan"}, "type": "electric_scooter", "lon": -77.00226716666667, "name": "58cc677abd37e93982ca59c678c49c99", "bike_id": "58cc677abd37e93982ca59c678c49c99", "fusion_lat": 0.0, "is_reserved": 0, "lat": 38.90248016666666, "fusion_lon": 0.0, "is_disabled": 0}, {"rental_uris": {"android": "https://dc.lft.to/lastmile_qr_scan", "ios": "https://dc.lft.to/lastmile_qr_scan"}, "type": "electric_scooter", "lon": -77.05884333333333, "name": "327fdb913b8a732e0902b535d5e77366", "bike_id": "327fdb913b8a732e0902b535d5e77366", "fusion_lat": 0.0, "is_reserved": 0, "lat": 38.936354333333334, "fusion_lon": 0.0, "is_disabled": 0}, {"rental_uris": {"android": "https://dc.lft.to/lastmile_qr_scan", "ios": "https://dc.lft.to/lastmile_qr_scan"}, "type": "electric_scooter", "lon": -77.0294955, "name": "6ac648ba50a5bc79c48bfa1f41cb0343", "bike_id": "6ac648ba50a5bc79c48bfa1f41cb0343", "fusion_lat": 0.0, "is_reserved": 0, "lat": 38.9168535, "fusion_lon": 0.0, "is_disabled": 0}, {"rental_uris": {"android": "https://dc.lft.to/lastmile_qr_scan", "ios": "https://dc.lft.to/lastmile_qr_scan"}, "type": "electric_scooter", "lon": -76.96507383333334, "name": "7991ec0596de6a0f210d790a40ec8abb", "bike_id": "7991ec0596de6a0f210d790a40ec8abb", "fusion_lat": 0.0, "is_reserved": 0, "lat": 38.8764545, "fusion_lon": 0.0, "is_disabled": 0}, {"rental_uris": {"android": "https://dc.lft.to/lastmile_qr_scan", "ios": "https://dc.lft.to/lastmile_qr_scan"}, "type": "electric_scooter", "lon": -77.03887066666667, "name": "2ebd8cc3f4447a79316c59992f350430", "bike_id": "2ebd8cc3f4447a79316c59992f350430", "fusion_lat": 0.0, "is_reserved": 0, "lat": 38.93368483333333, "fusion_lon": 0.0, "is_disabled": 0}, {"rental_uris": {"android": "https://dc.lft.to/lastmile_qr_scan", "ios": "https://dc.lft.to/lastmile_qr_scan"}, "type": "electric_scooter", "lon": -77.027025, "name": "4b804483bb583f11fe50dcfff3af34ae", "bike_id": "4b804483bb583f11fe50dcfff3af34ae", "fusion_lat": 0.0, "is_reserved": 0, "lat": 38.91820033333333, "fusion_lon": 0.0, "is_disabled": 0}, {"rental_uris": {"android": "https://dc.lft.to/lastmile_qr_scan", "ios": "https://dc.lft.to/lastmile_qr_scan"}, "type": "electric_scooter", "lon": -77.03532383333334, "name": "1dd011a1be2c309a621472de9c56f780", "bike_id": "1dd011a1be2c309a621472de9c56f780", "fusion_lat": 0.0, "is_reserved": 0, "lat": 38.92347616666667, "fusion_lon": 0.0, "is_disabled": 0}, {"rental_uris": {"android": "https://dc.lft.to/lastmile_qr_scan", "ios": "https://dc.lft.to/lastmile_qr_scan"}, "type": "electric_scooter", "lon": -77.04500933333334, "name": "c8ba661dad488d0699548193241e21b9", "bike_id": "c8ba661dad488d0699548193241e21b9", "fusion_lat": 0.0, "is_reserved": 0, "lat": 38.90369416666667, "fusion_lon": 0.0, "is_disabled": 0}, {"rental_uris": {"android": "https://dc.lft.to/lastmile_qr_scan", "ios": "https://dc.lft.to/lastmile_qr_scan"}, "type": "electric_scooter", "lon": -77.05293783333333, "name": "3e1773717184d9c874f6e05b55f467aa", "bike_id": "3e1773717184d9c874f6e05b55f467aa", "fusion_lat": 0.0, "is_reserved": 0, "lat": 38.898836, "fusion_lon": 0.0, "is_disabled": 0}, {"rental_uris": {"android": "https://dc.lft.to/lastmile_qr_scan", "ios": "https://dc.lft.to/lastmile_qr_scan"}, "type": "electric_scooter", "lon": -76.99410283333333, "name": "df387f653b61df7682472ef0f9d30039", "bike_id": "df387f653b61df7682472ef0f9d30039", "fusion_lat": 0.0, "is_reserved": 0, "lat": 38.877828, "fusion_lon": 0.0, "is_disabled": 0}, {"rental_uris": {"android": "https://dc.lft.to/lastmile_qr_scan", "ios": "https://dc.lft.to/lastmile_qr_scan"}, "type": "electric_scooter", "lon": -76.98603466666667, "name": "066c88617efda8194991bb5927a584a0", "bike_id": "066c88617efda8194991bb5927a584a0", "fusion_lat": 0.0, "is_reserved": 0, "lat": 38.89918933333333, "fusion_lon": 0.0, "is_disabled": 0}, {"rental_uris": {"android": "https://dc.lft.to/lastmile_qr_scan", "ios": "https://dc.lft.to/lastmile_qr_scan"}, "type": "electric_scooter", "lon": -77.050506, "name": "a3ab9d33d7a50b447a8bd80bc3b5dcf0", "bike_id": "a3ab9d33d7a50b447a8bd80bc3b5dcf0", "fusion_lat": 0.0, "is_reserved": 0, "lat": 38.92363533333334, "fusion_lon": 0.0, "is_disabled": 0}, {"rental_uris": {"android": "https://dc.lft.to/lastmile_qr_scan", "ios": "https://dc.lft.to/lastmile_qr_scan"}, "type": "electric_scooter", "lon": -77.02258483333334, "name": "aabf75d96cf66978163b76c2fbf2b0e8", "bike_id": "aabf75d96cf66978163b76c2fbf2b0e8", "fusion_lat": 0.0, "is_reserved": 0, "lat": 38.9282245, "fusion_lon": 0.0, "is_disabled": 0}, {"rental_uris": {"android": "https://dc.lft.to/lastmile_qr_scan", "ios": "https://dc.lft.to/lastmile_qr_scan"}, "type": "electric_scooter", "lon": -76.99448266666667, "name": "d696ceb2693698cbb860c009735fedd3", "bike_id": "d696ceb2693698cbb860c009735fedd3", "fusion_lat": 0.0, "is_reserved": 0, "lat": 38.905008333333335, "fusion_lon": 0.0, "is_disabled": 0}, {"rental_uris": {"android": "https://dc.lft.to/lastmile_qr_scan", "ios": "https://dc.lft.to/lastmile_qr_scan"}, "type": "electric_bike", "lon": -77.12980833333333, "name": "cb5e5fb69ceaa6950f19c374958498b8", "bike_id": "cb5e5fb69ceaa6950f19c374958498b8", "fusion_lat": 0.0, "is_reserved": 0, "lat": 38.799927, "fusion_lon": 0.0, "is_disabled": 0}, {"rental_uris": {"android": "https://dc.lft.to/lastmile_qr_scan", "ios": "https://dc.lft.to/lastmile_qr_scan"}, "type": "electric_scooter", "lon": -76.987064, "name": "dc51a6de068840d5f5f6fae5e0ac8d70", "bike_id": "dc51a6de068840d5f5f6fae5e0ac8d70", "fusion_lat": 0.0, "is_reserved": 0, "lat": 38.86534016666667, "fusion_lon": 0.0, "is_disabled": 0}, {"rental_uris": {"android": "https://dc.lft.to/lastmile_qr_scan", "ios": "https://dc.lft.to/lastmile_qr_scan"}, "type": "electric_scooter", "lon": -77.02512783333333, "name": "a77c6af22edf65b1a2ad2ddfe329c7bc", "bike_id": "a77c6af22edf65b1a2ad2ddfe329c7bc", "fusion_lat": 0.0, "is_reserved": 0, "lat": 38.921583166666665, "fusion_lon": 0.0, "is_disabled": 0}, {"rental_uris": {"android": "https://dc.lft.to/lastmile_qr_scan", "ios": "https://dc.lft.to/lastmile_qr_scan"}, "type": "electric_scooter", "lon": -77.03350433333334, "name": "146a5c02fd83f10f3b8830a14f576183", "bike_id": "146a5c02fd83f10f3b8830a14f576183", "fusion_lat": 0.0, "is_reserved": 0, "lat": 38.90258683333333, "fusion_lon": 0.0, "is_disabled": 0}, {"rental_uris": {"android": "https://dc.lft.to/lastmile_qr_scan", "ios": "https://dc.lft.to/lastmile_qr_scan"}, "type": "electric_scooter", "lon": -77.06391183333334, "name": "305e322ef3be48c489b8664ba042051f", "bike_id": "305e322ef3be48c489b8664ba042051f", "fusion_lat": 0.0, "is_reserved": 0, "lat": 38.92900916666667, "fusion_lon": 0.0, "is_disabled": 0}, {"rental_uris": {"android": "https://dc.lft.to/lastmile_qr_scan", "ios": "https://dc.lft.to/lastmile_qr_scan"}, "type": "electric_scooter", "lon": -77.039938, "name": "c0d641a43ee07a554b0b436722f22ccc", "bike_id": "c0d641a43ee07a554b0b436722f22ccc", "fusion_lat": 0.0, "is_reserved": 0, "lat": 38.905624, "fusion_lon": 0.0, "is_disabled": 0}, {"rental_uris": {"android": "https://dc.lft.to/lastmile_qr_scan", "ios": "https://dc.lft.to/lastmile_qr_scan"}, "type": "electric_scooter", "lon": -77.03259033333333, "name": "3d8529046e7270ee8a629f905636eed5", "bike_id": "3d8529046e7270ee8a629f905636eed5", "fusion_lat": 0.0, "is_reserved": 0, "lat": 38.9284715, "fusion_lon": 0.0, "is_disabled": 0}, {"rental_uris": {"android": "https://dc.lft.to/lastmile_qr_scan", "ios": "https://dc.lft.to/lastmile_qr_scan"}, "type": "electric_bike", "lon": -77.128106, "name": "8a1136441ebd4aeed2002ec7310a2334", "bike_id": "8a1136441ebd4aeed2002ec7310a2334", "fusion_lat": 0.0, "is_reserved": 0, "lat": 38.86520816666667, "fusion_lon": 0.0, "is_disabled": 0}, {"rental_uris": {"android": "https://dc.lft.to/lastmile_qr_scan", "ios": "https://dc.lft.to/lastmile_qr_scan"}, "type": "electric_bike", "lon": -77.07044016666667, "name": "b583c903f28c11f007ef3355b3b62db4", "bike_id": "b583c903f28c11f007ef3355b3b62db4", "fusion_lat": 0.0, "is_reserved": 0, "lat": 38.82443216666667, "fusion_lon": 0.0, "is_disabled": 0}, {"rental_uris": {"android": "https://dc.lft.to/lastmile_qr_scan", "ios": "https://dc.lft.to/lastmile_qr_scan"}, "type": "electric_scooter", "lon": -76.9471475, "name": "feb6c082743dacd013a29c7aae1f75ff", "bike_id": "feb6c082743dacd013a29c7aae1f75ff", "fusion_lat": 0.0, "is_reserved": 0, "lat": 38.8967815, "fusion_lon": 0.0, "is_disabled": 0}, {"rental_uris": {"android": "https://dc.lft.to/lastmile_qr_scan", "ios": "https://dc.lft.to/lastmile_qr_scan"}, "type": "electric_scooter", "lon": -76.99701616666667, "name": "5f6813d8de164cda3cfb47b8e3ae0258", "bike_id": "5f6813d8de164cda3cfb47b8e3ae0258", "fusion_lat": 0.0, "is_reserved": 0, "lat": 38.9079105, "fusion_lon": 0.0, "is_disabled": 0}, {"rental_uris": {"android": "https://dc.lft.to/lastmile_qr_scan", "ios": "https://dc.lft.to/lastmile_qr_scan"}, "type": "electric_scooter", "lon": -77.0320675, "name": "1eeae9a9fb465e806a88a10ebbf4add7", "bike_id": "1eeae9a9fb465e806a88a10ebbf4add7", "fusion_lat": 0.0, "is_reserved": 0, "lat": 38.90372633333333, "fusion_lon": 0.0, "is_disabled": 0}, {"rental_uris": {"android": "https://dc.lft.to/lastmile_qr_scan", "ios": "https://dc.lft.to/lastmile_qr_scan"}, "type": "electric_scooter", "lon": -77.03290933333334, "name": "fc6a0806d2c363ad8af3c1ddc9cce17f", "bike_id": "fc6a0806d2c363ad8af3c1ddc9cce17f", "fusion_lat": 0.0, "is_reserved": 0, "lat": 38.95648683333334, "fusion_lon": 0.0, "is_disabled": 0}, {"rental_uris": {"android": "https://dc.lft.to/lastmile_qr_scan", "ios": "https://dc.lft.to/lastmile_qr_scan"}, "type": "electric_scooter", "lon": -77.04095566666666, "name": "ae8311fa328d01b939719e1d705996df", "bike_id": "ae8311fa328d01b939719e1d705996df", "fusion_lat": 0.0, "is_reserved": 0, "lat": 38.92530166666667, "fusion_lon": 0.0, "is_disabled": 0}, {"rental_uris": {"android": "https://dc.lft.to/lastmile_qr_scan", "ios": "https://dc.lft.to/lastmile_qr_scan"}, "type": "electric_scooter", "lon": -77.0328055, "name": "b9f2758341b7864774d99441ebda2197", "bike_id": "b9f2758341b7864774d99441ebda2197", "fusion_lat": 0.0, "is_reserved": 0, "lat": 38.93682883333334, "fusion_lon": 0.0, "is_disabled": 0}, {"rental_uris": {"android": "https://dc.lft.to/lastmile_qr_scan", "ios": "https://dc.lft.to/lastmile_qr_scan"}, "type": "electric_scooter", "lon": -77.04616783333333, "name": "2ad89bd2db5e3380984fd836c80ad774", "bike_id": "2ad89bd2db5e3380984fd836c80ad774", "fusion_lat": 0.0, "is_reserved": 0, "lat": 38.91517733333333, "fusion_lon": 0.0, "is_disabled": 0}, {"rental_uris": {"android": "https://dc.lft.to/lastmile_qr_scan", "ios": "https://dc.lft.to/lastmile_qr_scan"}, "type": "electric_scooter", "lon": -77.02623466666667, "name": "face2e11f8006850b9b4b1077a3ec054", "bike_id": "face2e11f8006850b9b4b1077a3ec054", "fusion_lat": 0.0, "is_reserved": 0, "lat": 38.88733783333333, "fusion_lon": 0.0, "is_disabled": 0}, {"rental_uris": {"android": "https://dc.lft.to/lastmile_qr_scan", "ios": "https://dc.lft.to/lastmile_qr_scan"}, "type": "electric_bike", "lon": -77.040696, "name": "de72d0be4082673def6503ed2e5bd14b", "bike_id": "de72d0be4082673def6503ed2e5bd14b", "fusion_lat": 0.0, "is_reserved": 0, "lat": 38.812363166666664, "fusion_lon": 0.0, "is_disabled": 0}, {"rental_uris": {"android": "https://dc.lft.to/lastmile_qr_scan", "ios": "https://dc.lft.to/lastmile_qr_scan"}, "type": "electric_scooter", "lon": -76.9861955, "name": "a462cfe5c9f52708665f4d3884441a07", "bike_id": "a462cfe5c9f52708665f4d3884441a07", "fusion_lat": 0.0, "is_reserved": 0, "lat": 38.90584166666667, "fusion_lon": 0.0, "is_disabled": 0}, {"rental_uris": {"android": "https://dc.lft.to/lastmile_qr_scan", "ios": "https://dc.lft.to/lastmile_qr_scan"}, "type": "electric_scooter", "lon": -77.026791, "name": "dd3167312a50a09a2f2cb2ee36b0fb50", "bike_id": "dd3167312a50a09a2f2cb2ee36b0fb50", "fusion_lat": 0.0, "is_reserved": 0, "lat": 38.898318, "fusion_lon": 0.0, "is_disabled": 0}, {"rental_uris": {"android": "https://dc.lft.to/lastmile_qr_scan", "ios": "https://dc.lft.to/lastmile_qr_scan"}, "type": "electric_scooter", "lon": -77.041539, "name": "9658957a8ff6c638dcbaf0be112d0f9e", "bike_id": "9658957a8ff6c638dcbaf0be112d0f9e", "fusion_lat": 0.0, "is_reserved": 0, "lat": 38.91484633333334, "fusion_lon": 0.0, "is_disabled": 0}, {"rental_uris": {"android": "https://dc.lft.to/lastmile_qr_scan", "ios": "https://dc.lft.to/lastmile_qr_scan"}, "type": "electric_scooter", "lon": -77.03313516666667, "name": "8b0b4032d81ebfd58272241f463e0998", "bike_id": "8b0b4032d81ebfd58272241f463e0998", "fusion_lat": 0.0, "is_reserved": 0, "lat": 38.91991066666667, "fusion_lon": 0.0, "is_disabled": 0}, {"rental_uris": {"android": "https://dc.lft.to/lastmile_qr_scan", "ios": "https://dc.lft.to/lastmile_qr_scan"}, "type": "electric_scooter", "lon": -77.027016, "name": "b66866820e8a5bfe2017021f153aafef", "bike_id": "b66866820e8a5bfe2017021f153aafef", "fusion_lat": 0.0, "is_reserved": 0, "lat": 38.95001533333333, "fusion_lon": 0.0, "is_disabled": 0}, {"rental_uris": {"android": "https://dc.lft.to/lastmile_qr_scan", "ios": "https://dc.lft.to/lastmile_qr_scan"}, "type": "electric_scooter", "lon": -77.02602716666667, "name": "3b551058b61d67be1b9aa78f03ecc396", "bike_id": "3b551058b61d67be1b9aa78f03ecc396", "fusion_lat": 0.0, "is_reserved": 0, "lat": 38.916152333333336, "fusion_lon": 0.0, "is_disabled": 0}, {"rental_uris": {"android": "https://dc.lft.to/lastmile_qr_scan", "ios": "https://dc.lft.to/lastmile_qr_scan"}, "type": "electric_scooter", "lon": -77.02991133333333, "name": "b8eb450956b1e9fbdbf42ef13b1ac1ef", "bike_id": "b8eb450956b1e9fbdbf42ef13b1ac1ef", "fusion_lat": 0.0, "is_reserved": 0, "lat": 38.9562635, "fusion_lon": 0.0, "is_disabled": 0}, {"rental_uris": {"android": "https://dc.lft.to/lastmile_qr_scan", "ios": "https://dc.lft.to/lastmile_qr_scan"}, "type": "electric_scooter", "lon": -77.02397633333334, "name": "2ebca6233a67609395ca71e624da19ca", "bike_id": "2ebca6233a67609395ca71e624da19ca", "fusion_lat": 0.0, "is_reserved": 0, "lat": 38.91689133333333, "fusion_lon": 0.0, "is_disabled": 0}, {"rental_uris": {"android": "https://dc.lft.to/lastmile_qr_scan", "ios": "https://dc.lft.to/lastmile_qr_scan"}, "type": "electric_scooter", "lon": -77.04342933333334, "name": "d933f1c69c3cf3e0f12ba71b09d22844", "bike_id": "d933f1c69c3cf3e0f12ba71b09d22844", "fusion_lat": 0.0, "is_reserved": 0, "lat": 38.905090666666666, "fusion_lon": 0.0, "is_disabled": 0}, {"rental_uris": {"android": "https://dc.lft.to/lastmile_qr_scan", "ios": "https://dc.lft.to/lastmile_qr_scan"}, "type": "electric_bike", "lon": -76.93205566666667, "name": "9f60fe45b98c677f98c73936603b231a", "bike_id": "9f60fe45b98c677f98c73936603b231a", "fusion_lat": 0.0, "is_reserved": 0, "lat": 38.87234483333334, "fusion_lon": 0.0, "is_disabled": 0}, {"rental_uris": {"android": "https://dc.lft.to/lastmile_qr_scan", "ios": "https://dc.lft.to/lastmile_qr_scan"}, "type": "electric_scooter", "lon": -76.952186, "name": "1f5af83fe1f69be6d518eb82f35f99a8", "bike_id": "1f5af83fe1f69be6d518eb82f35f99a8", "fusion_lat": 0.0, "is_reserved": 0, "lat": 38.886738666666666, "fusion_lon": 0.0, "is_disabled": 0}, {"rental_uris": {"android": "https://dc.lft.to/lastmile_qr_scan", "ios": "https://dc.lft.to/lastmile_qr_scan"}, "type": "electric_scooter", "lon": -77.02198366666667, "name": "3e8898487793cb8ab8044d3cca1463db", "bike_id": "3e8898487793cb8ab8044d3cca1463db", "fusion_lat": 0.0, "is_reserved": 0, "lat": 38.921138166666665, "fusion_lon": 0.0, "is_disabled": 0}, {"rental_uris": {"android": "https://dc.lft.to/lastmile_qr_scan", "ios": "https://dc.lft.to/lastmile_qr_scan"}, "type": "electric_scooter", "lon": -77.02795683333333, "name": "3075ffb402390cee11f9acc3c27ee505", "bike_id": "3075ffb402390cee11f9acc3c27ee505", "fusion_lat": 0.0, "is_reserved": 0, "lat": 38.904309833333336, "fusion_lon": 0.0, "is_disabled": 0}, {"rental_uris": {"android": "https://dc.lft.to/lastmile_qr_scan", "ios": "https://dc.lft.to/lastmile_qr_scan"}, "type": "electric_scooter", "lon": -77.01720516666667, "name": "664edcf4eddc7297f0f8f6da9bb3121f", "bike_id": "664edcf4eddc7297f0f8f6da9bb3121f", "fusion_lat": 0.0, "is_reserved": 0, "lat": 38.8859435, "fusion_lon": 0.0, "is_disabled": 0}, {"rental_uris": {"android": "https://dc.lft.to/lastmile_qr_scan", "ios": "https://dc.lft.to/lastmile_qr_scan"}, "type": "electric_scooter", "lon": -76.94841533333333, "name": "068ec01e6a09fcb099fc5f2500e351a1", "bike_id": "068ec01e6a09fcb099fc5f2500e351a1", "fusion_lat": 0.0, "is_reserved": 0, "lat": 38.89484066666667, "fusion_lon": 0.0, "is_disabled": 0}, {"rental_uris": {"android": "https://dc.lft.to/lastmile_qr_scan", "ios": "https://dc.lft.to/lastmile_qr_scan"}, "type": "electric_scooter", "lon": -77.06316333333334, "name": "bce4ba55dcf1e63605b7b73823e0fcb9", "bike_id": "bce4ba55dcf1e63605b7b73823e0fcb9", "fusion_lat": 0.0, "is_reserved": 0, "lat": 38.92172583333333, "fusion_lon": 0.0, "is_disabled": 0}, {"rental_uris": {"android": "https://dc.lft.to/lastmile_qr_scan", "ios": "https://dc.lft.to/lastmile_qr_scan"}, "type": "electric_scooter", "lon": -77.01102166666666, "name": "be383f968ee7a8a1715506838f557425", "bike_id": "be383f968ee7a8a1715506838f557425", "fusion_lat": 0.0, "is_reserved": 0, "lat": 38.9034995, "fusion_lon": 0.0, "is_disabled": 0}, {"rental_uris": {"android": "https://dc.lft.to/lastmile_qr_scan", "ios": "https://dc.lft.to/lastmile_qr_scan"}, "type": "electric_scooter", "lon": -77.0034815, "name": "2022ca6d1d71c7d5117d4d79441481bc", "bike_id": "2022ca6d1d71c7d5117d4d79441481bc", "fusion_lat": 0.0, "is_reserved": 0, "lat": 38.89532366666667, "fusion_lon": 0.0, "is_disabled": 0}, {"rental_uris": {"android": "https://dc.lft.to/lastmile_qr_scan", "ios": "https://dc.lft.to/lastmile_qr_scan"}, "type": "electric_bike", "lon": -77.01292733333334, "name": "033a9f3d74277c10bfd1538015470941", "bike_id": "033a9f3d74277c10bfd1538015470941", "fusion_lat": 0.0, "is_reserved": 0, "lat": 39.00373416666667, "fusion_lon": 0.0, "is_disabled": 0}, {"rental_uris": {"android": "https://dc.lft.to/lastmile_qr_scan", "ios": "https://dc.lft.to/lastmile_qr_scan"}, "type": "electric_scooter", "lon": -77.0483795, "name": "063c155faafbc3f113cfdaf54b612686", "bike_id": "063c155faafbc3f113cfdaf54b612686", "fusion_lat": 0.0, "is_reserved": 0, "lat": 38.9133135, "fusion_lon": 0.0, "is_disabled": 0}, {"rental_uris": {"android": "https://dc.lft.to/lastmile_qr_scan", "ios": "https://dc.lft.to/lastmile_qr_scan"}, "type": "electric_bike", "lon": -77.08529433333334, "name": "fb6a4db47d67c8e503e6fbfc3e7064b2", "bike_id": "fb6a4db47d67c8e503e6fbfc3e7064b2", "fusion_lat": 0.0, "is_reserved": 0, "lat": 38.85644766666667, "fusion_lon": 0.0, "is_disabled": 0}, {"rental_uris": {"android": "https://dc.lft.to/lastmile_qr_scan", "ios": "https://dc.lft.to/lastmile_qr_scan"}, "type": "electric_scooter", "lon": -77.04762816666667, "name": "03e4684dc7ae2146535dd5c2a3d256a4", "bike_id": "03e4684dc7ae2146535dd5c2a3d256a4", "fusion_lat": 0.0, "is_reserved": 0, "lat": 38.91266783333333, "fusion_lon": 0.0, "is_disabled": 0}, {"rental_uris": {"android": "https://dc.lft.to/lastmile_qr_scan", "ios": "https://dc.lft.to/lastmile_qr_scan"}, "type": "electric_scooter", "lon": -77.02544783333333, "name": "0bbc8c237dafd1ada9155d27786176ef", "bike_id": "0bbc8c237dafd1ada9155d27786176ef", "fusion_lat": 0.0, "is_reserved": 0, "lat": 38.89233466666667, "fusion_lon": 0.0, "is_disabled": 0}, {"rental_uris": {"android": "https://dc.lft.to/lastmile_qr_scan", "ios": "https://dc.lft.to/lastmile_qr_scan"}, "type": "electric_scooter", "lon": -77.02904516666666, "name": "175393fb659527f0a8075cae5e4c223a", "bike_id": "175393fb659527f0a8075cae5e4c223a", "fusion_lat": 0.0, "is_reserved": 0, "lat": 38.898406666666666, "fusion_lon": 0.0, "is_disabled": 0}, {"rental_uris": {"android": "https://dc.lft.to/lastmile_qr_scan", "ios": "https://dc.lft.to/lastmile_qr_scan"}, "type": "electric_scooter", "lon": -77.0344635, "name": "c50cae4ea4f4ed19c066da79fbf315d8", "bike_id": "c50cae4ea4f4ed19c066da79fbf315d8", "fusion_lat": 0.0, "is_reserved": 0, "lat": 38.9026035, "fusion_lon": 0.0, "is_disabled": 0}, {"rental_uris": {"android": "https://dc.lft.to/lastmile_qr_scan", "ios": "https://dc.lft.to/lastmile_qr_scan"}, "type": "electric_scooter", "lon": -76.94722583333333, "name": "d4cd9b788d8ebed1452907692cbac94d", "bike_id": "d4cd9b788d8ebed1452907692cbac94d", "fusion_lat": 0.0, "is_reserved": 0, "lat": 38.89739133333333, "fusion_lon": 0.0, "is_disabled": 0}, {"rental_uris": {"android": "https://dc.lft.to/lastmile_qr_scan", "ios": "https://dc.lft.to/lastmile_qr_scan"}, "type": "electric_scooter", "lon": -76.97463116666667, "name": "e43807f7fdf8ed08c06c5a5bdf8b0ad4", "bike_id": "e43807f7fdf8ed08c06c5a5bdf8b0ad4", "fusion_lat": 0.0, "is_reserved": 0, "lat": 38.8839735, "fusion_lon": 0.0, "is_disabled": 0}, {"rental_uris": {"android": "https://dc.lft.to/lastmile_qr_scan", "ios": "https://dc.lft.to/lastmile_qr_scan"}, "type": "electric_scooter", "lon": -77.03218083333333, "name": "e85b2ede52c320ebe0b30b9158d0568a", "bike_id": "e85b2ede52c320ebe0b30b9158d0568a", "fusion_lat": 0.0, "is_reserved": 0, "lat": 38.91855016666667, "fusion_lon": 0.0, "is_disabled": 0}, {"rental_uris": {"android": "https://dc.lft.to/lastmile_qr_scan", "ios": "https://dc.lft.to/lastmile_qr_scan"}, "type": "electric_scooter", "lon": -77.03851266666666, "name": "17d9ff0716e3aa1de5e320c0d3816a64", "bike_id": "17d9ff0716e3aa1de5e320c0d3816a64", "fusion_lat": 0.0, "is_reserved": 0, "lat": 38.9030975, "fusion_lon": 0.0, "is_disabled": 0}, {"rental_uris": {"android": "https://dc.lft.to/lastmile_qr_scan", "ios": "https://dc.lft.to/lastmile_qr_scan"}, "type": "electric_scooter", "lon": -77.0412225, "name": "fbd66719229bd92e79923471763d43b9", "bike_id": "fbd66719229bd92e79923471763d43b9", "fusion_lat": 0.0, "is_reserved": 0, "lat": 38.92264183333333, "fusion_lon": 0.0, "is_disabled": 0}, {"rental_uris": {"android": "https://dc.lft.to/lastmile_qr_scan", "ios": "https://dc.lft.to/lastmile_qr_scan"}, "type": "electric_scooter", "lon": -77.00331466666667, "name": "ce68bb82c927b1ad8aaa024da072d34c", "bike_id": "ce68bb82c927b1ad8aaa024da072d34c", "fusion_lat": 0.0, "is_reserved": 0, "lat": 38.89352683333333, "fusion_lon": 0.0, "is_disabled": 0}, {"rental_uris": {"android": "https://dc.lft.to/lastmile_qr_scan", "ios": "https://dc.lft.to/lastmile_qr_scan"}, "type": "electric_scooter", "lon": -77.03856683333333, "name": "20389629ce09cb6f467529691288541f", "bike_id": "20389629ce09cb6f467529691288541f", "fusion_lat": 0.0, "is_reserved": 0, "lat": 38.903543666666664, "fusion_lon": 0.0, "is_disabled": 0}, {"rental_uris": {"android": "https://dc.lft.to/lastmile_qr_scan", "ios": "https://dc.lft.to/lastmile_qr_scan"}, "type": "electric_scooter", "lon": -77.04675566666667, "name": "012d369f064c47e067c9a8abdc0f1ce4", "bike_id": "012d369f064c47e067c9a8abdc0f1ce4", "fusion_lat": 0.0, "is_reserved": 0, "lat": 38.89556833333333, "fusion_lon": 0.0, "is_disabled": 0}, {"rental_uris": {"android": "https://dc.lft.to/lastmile_qr_scan", "ios": "https://dc.lft.to/lastmile_qr_scan"}, "type": "electric_scooter", "lon": -76.9378635, "name": "ef2960e81be74cc8c28302164ae81b5e", "bike_id": "ef2960e81be74cc8c28302164ae81b5e", "fusion_lat": 0.0, "is_reserved": 0, "lat": 38.89968183333333, "fusion_lon": 0.0, "is_disabled": 0}, {"rental_uris": {"android": "https://dc.lft.to/lastmile_qr_scan", "ios": "https://dc.lft.to/lastmile_qr_scan"}, "type": "electric_bike", "lon": -76.931916, "name": "82eaa70f90e232416d8640f8f96541ff", "bike_id": "82eaa70f90e232416d8640f8f96541ff", "fusion_lat": 0.0, "is_reserved": 0, "lat": 38.89850583333333, "fusion_lon": 0.0, "is_disabled": 0}, {"rental_uris": {"android": "https://dc.lft.to/lastmile_qr_scan", "ios": "https://dc.lft.to/lastmile_qr_scan"}, "type": "electric_scooter", "lon": -77.02513916666666, "name": "3d5bbb639c8f0ed5c2a296f35d70a36d", "bike_id": "3d5bbb639c8f0ed5c2a296f35d70a36d", "fusion_lat": 0.0, "is_reserved": 0, "lat": 38.92637, "fusion_lon": 0.0, "is_disabled": 0}, {"rental_uris": {"android": "https://dc.lft.to/lastmile_qr_scan", "ios": "https://dc.lft.to/lastmile_qr_scan"}, "type": "electric_scooter", "lon": -77.03446416666667, "name": "9d12ee58d1798f8aff367ca543efb30e", "bike_id": "9d12ee58d1798f8aff367ca543efb30e", "fusion_lat": 0.0, "is_reserved": 0, "lat": 38.928617, "fusion_lon": 0.0, "is_disabled": 0}, {"rental_uris": {"android": "https://dc.lft.to/lastmile_qr_scan", "ios": "https://dc.lft.to/lastmile_qr_scan"}, "type": "electric_bike", "lon": -77.06949366666667, "name": "f27ab771be0cc926a7ae3d1d4c350983", "bike_id": "f27ab771be0cc926a7ae3d1d4c350983", "fusion_lat": 0.0, "is_reserved": 0, "lat": 38.99038016666667, "fusion_lon": 0.0, "is_disabled": 0}, {"rental_uris": {"android": "https://dc.lft.to/lastmile_qr_scan", "ios": "https://dc.lft.to/lastmile_qr_scan"}, "type": "electric_scooter", "lon": -77.04494983333333, "name": "eb4049c40eb31e302764bf132092c6e4", "bike_id": "eb4049c40eb31e302764bf132092c6e4", "fusion_lat": 0.0, "is_reserved": 0, "lat": 38.900132666666664, "fusion_lon": 0.0, "is_disabled": 0}, {"rental_uris": {"android": "https://dc.lft.to/lastmile_qr_scan", "ios": "https://dc.lft.to/lastmile_qr_scan"}, "type": "electric_scooter", "lon": -77.0189475, "name": "69eeb9c9a3c3d00b05e1eb3994911b47", "bike_id": "69eeb9c9a3c3d00b05e1eb3994911b47", "fusion_lat": 0.0, "is_reserved": 0, "lat": 38.876582666666664, "fusion_lon": 0.0, "is_disabled": 0}, {"rental_uris": {"android": "https://dc.lft.to/lastmile_qr_scan", "ios": "https://dc.lft.to/lastmile_qr_scan"}, "type": "electric_scooter", "lon": -77.01674383333334, "name": "c9be76ce1c15590866edaf2a55908dd6", "bike_id": "c9be76ce1c15590866edaf2a55908dd6", "fusion_lat": 0.0, "is_reserved": 0, "lat": 38.88313216666667, "fusion_lon": 0.0, "is_disabled": 0}, {"rental_uris": {"android": "https://dc.lft.to/lastmile_qr_scan", "ios": "https://dc.lft.to/lastmile_qr_scan"}, "type": "electric_scooter", "lon": -76.99027283333334, "name": "23b6448960b6d90bf6615f5269135d24", "bike_id": "23b6448960b6d90bf6615f5269135d24", "fusion_lat": 0.0, "is_reserved": 0, "lat": 38.864055, "fusion_lon": 0.0, "is_disabled": 0}, {"rental_uris": {"android": "https://dc.lft.to/lastmile_qr_scan", "ios": "https://dc.lft.to/lastmile_qr_scan"}, "type": "electric_scooter", "lon": -77.02189483333333, "name": "692dddacb3c20a5b05d3caa2f38208a4", "bike_id": "692dddacb3c20a5b05d3caa2f38208a4", "fusion_lat": 0.0, "is_reserved": 0, "lat": 38.911206, "fusion_lon": 0.0, "is_disabled": 0}, {"rental_uris": {"android": "https://dc.lft.to/lastmile_qr_scan", "ios": "https://dc.lft.to/lastmile_qr_scan"}, "type": "electric_scooter", "lon": -76.98241083333333, "name": "406640ba16f8b6cb8b7e4207e3ebea92", "bike_id": "406640ba16f8b6cb8b7e4207e3ebea92", "fusion_lat": 0.0, "is_reserved": 0, "lat": 38.903108833333334, "fusion_lon": 0.0, "is_disabled": 0}, {"rental_uris": {"android": "https://dc.lft.to/lastmile_qr_scan", "ios": "https://dc.lft.to/lastmile_qr_scan"}, "type": "electric_scooter", "lon": -77.02698466666666, "name": "fc85a2b9384a789618098fb101e91720", "bike_id": "fc85a2b9384a789618098fb101e91720", "fusion_lat": 0.0, "is_reserved": 0, "lat": 38.91720933333333, "fusion_lon": 0.0, "is_disabled": 0}, {"rental_uris": {"android": "https://dc.lft.to/lastmile_qr_scan", "ios": "https://dc.lft.to/lastmile_qr_scan"}, "type": "electric_scooter", "lon": -76.9902545, "name": "9eed08922c3a579ee94eab7a5fe89934", "bike_id": "9eed08922c3a579ee94eab7a5fe89934", "fusion_lat": 0.0, "is_reserved": 0, "lat": 38.8640515, "fusion_lon": 0.0, "is_disabled": 0}, {"rental_uris": {"android": "https://dc.lft.to/lastmile_qr_scan", "ios": "https://dc.lft.to/lastmile_qr_scan"}, "type": "electric_scooter", "lon": -77.0424195, "name": "5e66e315206c077b85f76de06ea291b5", "bike_id": "5e66e315206c077b85f76de06ea291b5", "fusion_lat": 0.0, "is_reserved": 0, "lat": 38.92232716666667, "fusion_lon": 0.0, "is_disabled": 0}, {"rental_uris": {"android": "https://dc.lft.to/lastmile_qr_scan", "ios": "https://dc.lft.to/lastmile_qr_scan"}, "type": "electric_scooter", "lon": -77.049656, "name": "6897f5974a485710b6b36f95c87cb35e", "bike_id": "6897f5974a485710b6b36f95c87cb35e", "fusion_lat": 0.0, "is_reserved": 0, "lat": 38.9125565, "fusion_lon": 0.0, "is_disabled": 0}, {"rental_uris": {"android": "https://dc.lft.to/lastmile_qr_scan", "ios": "https://dc.lft.to/lastmile_qr_scan"}, "type": "electric_bike", "lon": -77.00459833333333, "name": "a6fdb2b470eae9274c9bb016b0eaeb13", "bike_id": "a6fdb2b470eae9274c9bb016b0eaeb13", "fusion_lat": 0.0, "is_reserved": 0, "lat": 38.91437916666667, "fusion_lon": 0.0, "is_disabled": 0}, {"rental_uris": {"android": "https://dc.lft.to/lastmile_qr_scan", "ios": "https://dc.lft.to/lastmile_qr_scan"}, "type": "electric_scooter", "lon": -76.98778116666666, "name": "1f0d526bddb0cfad4ae4e689416c3530", "bike_id": "1f0d526bddb0cfad4ae4e689416c3530", "fusion_lat": 0.0, "is_reserved": 0, "lat": 38.9002735, "fusion_lon": 0.0, "is_disabled": 0}, {"rental_uris": {"android": "https://dc.lft.to/lastmile_qr_scan", "ios": "https://dc.lft.to/lastmile_qr_scan"}, "type": "electric_bike", "lon": -76.92340833333333, "name": "375eea336ea0579cda09bd4d86c0a97a", "bike_id": "375eea336ea0579cda09bd4d86c0a97a", "fusion_lat": 0.0, "is_reserved": 0, "lat": 38.88789116666667, "fusion_lon": 0.0, "is_disabled": 0}, {"rental_uris": {"android": "https://dc.lft.to/lastmile_qr_scan", "ios": "https://dc.lft.to/lastmile_qr_scan"}, "type": "electric_scooter", "lon": -77.0236715, "name": "a18706fd12690e6bae998a26cc6a1e31", "bike_id": "a18706fd12690e6bae998a26cc6a1e31", "fusion_lat": 0.0, "is_reserved": 0, "lat": 38.931375833333334, "fusion_lon": 0.0, "is_disabled": 0}, {"rental_uris": {"android": "https://dc.lft.to/lastmile_qr_scan", "ios": "https://dc.lft.to/lastmile_qr_scan"}, "type": "electric_scooter", "lon": -77.07263516666667, "name": "fb0cd6f5c5e86649e036e854f22e8c6b", "bike_id": "fb0cd6f5c5e86649e036e854f22e8c6b", "fusion_lat": 0.0, "is_reserved": 0, "lat": 38.934770666666665, "fusion_lon": 0.0, "is_disabled": 0}, {"rental_uris": {"android": "https://dc.lft.to/lastmile_qr_scan", "ios": "https://dc.lft.to/lastmile_qr_scan"}, "type": "electric_scooter", "lon": -77.0423155, "name": "d4c5e15529c3227039f6023a3ef3fedb", "bike_id": "d4c5e15529c3227039f6023a3ef3fedb", "fusion_lat": 0.0, "is_reserved": 0, "lat": 38.92173983333333, "fusion_lon": 0.0, "is_disabled": 0}, {"rental_uris": {"android": "https://dc.lft.to/lastmile_qr_scan", "ios": "https://dc.lft.to/lastmile_qr_scan"}, "type": "electric_scooter", "lon": -77.03083366666667, "name": "050c8d478ea9bcbceb19e5240f27b1eb", "bike_id": "050c8d478ea9bcbceb19e5240f27b1eb", "fusion_lat": 0.0, "is_reserved": 0, "lat": 38.927265166666665, "fusion_lon": 0.0, "is_disabled": 0}, {"rental_uris": {"android": "https://dc.lft.to/lastmile_qr_scan", "ios": "https://dc.lft.to/lastmile_qr_scan"}, "type": "electric_scooter", "lon": -77.02371033333333, "name": "9f6e243c924760fb0b19af538dc0f94d", "bike_id": "9f6e243c924760fb0b19af538dc0f94d", "fusion_lat": 0.0, "is_reserved": 0, "lat": 38.89398466666667, "fusion_lon": 0.0, "is_disabled": 0}, {"rental_uris": {"android": "https://dc.lft.to/lastmile_qr_scan", "ios": "https://dc.lft.to/lastmile_qr_scan"}, "type": "electric_scooter", "lon": -77.02391033333333, "name": "14aa7fea7c76f44348aa7cf15a4aa982", "bike_id": "14aa7fea7c76f44348aa7cf15a4aa982", "fusion_lat": 0.0, "is_reserved": 0, "lat": 38.907129166666664, "fusion_lon": 0.0, "is_disabled": 0}, {"rental_uris": {"android": "https://dc.lft.to/lastmile_qr_scan", "ios": "https://dc.lft.to/lastmile_qr_scan"}, "type": "electric_scooter", "lon": -77.06117633333334, "name": "3dfd9b38fd33e6796748919f74998173", "bike_id": "3dfd9b38fd33e6796748919f74998173", "fusion_lat": 0.0, "is_reserved": 0, "lat": 38.9044255, "fusion_lon": 0.0, "is_disabled": 0}, {"rental_uris": {"android": "https://dc.lft.to/lastmile_qr_scan", "ios": "https://dc.lft.to/lastmile_qr_scan"}, "type": "electric_scooter", "lon": -77.021686, "name": "b42e88164c5e5f2c384272d14b58fce4", "bike_id": "b42e88164c5e5f2c384272d14b58fce4", "fusion_lat": 0.0, "is_reserved": 0, "lat": 38.887443166666664, "fusion_lon": 0.0, "is_disabled": 0}, {"rental_uris": {"android": "https://dc.lft.to/lastmile_qr_scan", "ios": "https://dc.lft.to/lastmile_qr_scan"}, "type": "electric_bike", "lon": -76.94573616666666, "name": "4124fceab48a8592a5757d34aeba2032", "bike_id": "4124fceab48a8592a5757d34aeba2032", "fusion_lat": 0.0, "is_reserved": 0, "lat": 38.8661835, "fusion_lon": 0.0, "is_disabled": 0}, {"rental_uris": {"android": "https://dc.lft.to/lastmile_qr_scan", "ios": "https://dc.lft.to/lastmile_qr_scan"}, "type": "electric_scooter", "lon": -77.06888483333333, "name": "4021e5dc3629b4735c6766b31126dd68", "bike_id": "4021e5dc3629b4735c6766b31126dd68", "fusion_lat": 0.0, "is_reserved": 0, "lat": 38.90507733333333, "fusion_lon": 0.0, "is_disabled": 0}, {"rental_uris": {"android": "https://dc.lft.to/lastmile_qr_scan", "ios": "https://dc.lft.to/lastmile_qr_scan"}, "type": "electric_scooter", "lon": -77.04322333333333, "name": "bb580bcc1dfb94c40be595cf84a34cea", "bike_id": "bb580bcc1dfb94c40be595cf84a34cea", "fusion_lat": 0.0, "is_reserved": 0, "lat": 38.8922025, "fusion_lon": 0.0, "is_disabled": 0}, {"rental_uris": {"android": "https://dc.lft.to/lastmile_qr_scan", "ios": "https://dc.lft.to/lastmile_qr_scan"}, "type": "electric_scooter", "lon": -77.014213, "name": "44170ce736c2bc553bd6b2dfb3e33b7d", "bike_id": "44170ce736c2bc553bd6b2dfb3e33b7d", "fusion_lat": 0.0, "is_reserved": 0, "lat": 38.91802916666666, "fusion_lon": 0.0, "is_disabled": 0}, {"rental_uris": {"android": "https://dc.lft.to/lastmile_qr_scan", "ios": "https://dc.lft.to/lastmile_qr_scan"}, "type": "electric_bike", "lon": -77.00507816666666, "name": "7a1272234c168e8b13fd708b2376678b", "bike_id": "7a1272234c168e8b13fd708b2376678b", "fusion_lat": 0.0, "is_reserved": 0, "lat": 38.875303333333335, "fusion_lon": 0.0, "is_disabled": 0}, {"rental_uris": {"android": "https://dc.lft.to/lastmile_qr_scan", "ios": "https://dc.lft.to/lastmile_qr_scan"}, "type": "electric_scooter", "lon": -77.02275616666667, "name": "4835dbe200936d8e244cd3d475a17de2", "bike_id": "4835dbe200936d8e244cd3d475a17de2", "fusion_lat": 0.0, "is_reserved": 0, "lat": 38.8950535, "fusion_lon": 0.0, "is_disabled": 0}, {"rental_uris": {"android": "https://dc.lft.to/lastmile_qr_scan", "ios": "https://dc.lft.to/lastmile_qr_scan"}, "type": "electric_bike", "lon": -77.0472265, "name": "2b128c17d9d154014c44e89dd3d6d8a9", "bike_id": "2b128c17d9d154014c44e89dd3d6d8a9", "fusion_lat": 0.0, "is_reserved": 0, "lat": 38.9058855, "fusion_lon": 0.0, "is_disabled": 0}, {"rental_uris": {"android": "https://dc.lft.to/lastmile_qr_scan", "ios": "https://dc.lft.to/lastmile_qr_scan"}, "type": "electric_scooter", "lon": -77.031782, "name": "815c7468a5fce5b00a1c3d92c7096ad3", "bike_id": "815c7468a5fce5b00a1c3d92c7096ad3", "fusion_lat": 0.0, "is_reserved": 0, "lat": 38.90758983333333, "fusion_lon": 0.0, "is_disabled": 0}, {"rental_uris": {"android": "https://dc.lft.to/lastmile_qr_scan", "ios": "https://dc.lft.to/lastmile_qr_scan"}, "type": "electric_scooter", "lon": -77.04553, "name": "32323f55787d4d24c556ca8345406502", "bike_id": "32323f55787d4d24c556ca8345406502", "fusion_lat": 0.0, "is_reserved": 0, "lat": 38.91359883333333, "fusion_lon": 0.0, "is_disabled": 0}, {"rental_uris": {"android": "https://dc.lft.to/lastmile_qr_scan", "ios": "https://dc.lft.to/lastmile_qr_scan"}, "type": "electric_bike", "lon": -77.04992983333334, "name": "9c6a965861498f16a7b7d466601ff1bd", "bike_id": "9c6a965861498f16a7b7d466601ff1bd", "fusion_lat": 0.0, "is_reserved": 0, "lat": 38.901243666666666, "fusion_lon": 0.0, "is_disabled": 0}, {"rental_uris": {"android": "https://dc.lft.to/lastmile_qr_scan", "ios": "https://dc.lft.to/lastmile_qr_scan"}, "type": "electric_scooter", "lon": -77.006458, "name": "893ad3f27eb8e66a0d9e162f37c79ea5", "bike_id": "893ad3f27eb8e66a0d9e162f37c79ea5", "fusion_lat": 0.0, "is_reserved": 0, "lat": 38.883301833333334, "fusion_lon": 0.0, "is_disabled": 0}, {"rental_uris": {"android": "https://dc.lft.to/lastmile_qr_scan", "ios": "https://dc.lft.to/lastmile_qr_scan"}, "type": "electric_scooter", "lon": -77.011031, "name": "14adec841a3f3befb158981c73cd8231", "bike_id": "14adec841a3f3befb158981c73cd8231", "fusion_lat": 0.0, "is_reserved": 0, "lat": 38.903522333333335, "fusion_lon": 0.0, "is_disabled": 0}, {"rental_uris": {"android": "https://dc.lft.to/lastmile_qr_scan", "ios": "https://dc.lft.to/lastmile_qr_scan"}, "type": "electric_scooter", "lon": -77.03206083333333, "name": "cd62cb6fed07d4e346b49d9e895e79a1", "bike_id": "cd62cb6fed07d4e346b49d9e895e79a1", "fusion_lat": 0.0, "is_reserved": 0, "lat": 38.90764466666667, "fusion_lon": 0.0, "is_disabled": 0}, {"rental_uris": {"android": "https://dc.lft.to/lastmile_qr_scan", "ios": "https://dc.lft.to/lastmile_qr_scan"}, "type": "electric_scooter", "lon": -77.018708, "name": "6ff48f8a5e721b59931d5a0e698ab8bd", "bike_id": "6ff48f8a5e721b59931d5a0e698ab8bd", "fusion_lat": 0.0, "is_reserved": 0, "lat": 38.895518333333335, "fusion_lon": 0.0, "is_disabled": 0}, {"rental_uris": {"android": "https://dc.lft.to/lastmile_qr_scan", "ios": "https://dc.lft.to/lastmile_qr_scan"}, "type": "electric_bike", "lon": -76.9495015, "name": "18adfc8750396ac9e28e288e179c3100", "bike_id": "18adfc8750396ac9e28e288e179c3100", "fusion_lat": 0.0, "is_reserved": 0, "lat": 38.934993166666665, "fusion_lon": 0.0, "is_disabled": 0}, {"rental_uris": {"android": "https://dc.lft.to/lastmile_qr_scan", "ios": "https://dc.lft.to/lastmile_qr_scan"}, "type": "electric_scooter", "lon": -77.00599633333333, "name": "572d4460e279d5a108bc7b6cff699411", "bike_id": "572d4460e279d5a108bc7b6cff699411", "fusion_lat": 0.0, "is_reserved": 0, "lat": 38.88371683333333, "fusion_lon": 0.0, "is_disabled": 0}, {"rental_uris": {"android": "https://dc.lft.to/lastmile_qr_scan", "ios": "https://dc.lft.to/lastmile_qr_scan"}, "type": "electric_scooter", "lon": -77.07416383333333, "name": "8a4b1f1a331cbf8a1acbaa6ee7f50de7", "bike_id": "8a4b1f1a331cbf8a1acbaa6ee7f50de7", "fusion_lat": 0.0, "is_reserved": 0, "lat": 38.91090716666667, "fusion_lon": 0.0, "is_disabled": 0}, {"rental_uris": {"android": "https://dc.lft.to/lastmile_qr_scan", "ios": "https://dc.lft.to/lastmile_qr_scan"}, "type": "electric_scooter", "lon": -77.02932233333334, "name": "3c4b11f240ab253bfc40b89bd8e45f58", "bike_id": "3c4b11f240ab253bfc40b89bd8e45f58", "fusion_lat": 0.0, "is_reserved": 0, "lat": 38.9428155, "fusion_lon": 0.0, "is_disabled": 0}, {"rental_uris": {"android": "https://dc.lft.to/lastmile_qr_scan", "ios": "https://dc.lft.to/lastmile_qr_scan"}, "type": "electric_scooter", "lon": -77.05105733333333, "name": "1505448a5415e4eafbe215646bb52363", "bike_id": "1505448a5415e4eafbe215646bb52363", "fusion_lat": 0.0, "is_reserved": 0, "lat": 38.90517066666666, "fusion_lon": 0.0, "is_disabled": 0}, {"rental_uris": {"android": "https://dc.lft.to/lastmile_qr_scan", "ios": "https://dc.lft.to/lastmile_qr_scan"}, "type": "electric_scooter", "lon": -77.0057755, "name": "2283e10fc53782b4b6bd955b86425f1b", "bike_id": "2283e10fc53782b4b6bd955b86425f1b", "fusion_lat": 0.0, "is_reserved": 0, "lat": 38.88530216666667, "fusion_lon": 0.0, "is_disabled": 0}, {"rental_uris": {"android": "https://dc.lft.to/lastmile_qr_scan", "ios": "https://dc.lft.to/lastmile_qr_scan"}, "type": "electric_scooter", "lon": -77.0464185, "name": "2f024ebac55ecfc63861ad31259e0711", "bike_id": "2f024ebac55ecfc63861ad31259e0711", "fusion_lat": 0.0, "is_reserved": 0, "lat": 38.9222775, "fusion_lon": 0.0, "is_disabled": 0}, {"rental_uris": {"android": "https://dc.lft.to/lastmile_qr_scan", "ios": "https://dc.lft.to/lastmile_qr_scan"}, "type": "electric_scooter", "lon": -77.03967616666667, "name": "3d3677907b75852b72d34fc8e04246b8", "bike_id": "3d3677907b75852b72d34fc8e04246b8", "fusion_lat": 0.0, "is_reserved": 0, "lat": 38.909231, "fusion_lon": 0.0, "is_disabled": 0}, {"rental_uris": {"android": "https://dc.lft.to/lastmile_qr_scan", "ios": "https://dc.lft.to/lastmile_qr_scan"}, "type": "electric_scooter", "lon": -76.99388516666667, "name": "13bfd21cb70e27b52d6cbedc78dfbe14", "bike_id": "13bfd21cb70e27b52d6cbedc78dfbe14", "fusion_lat": 0.0, "is_reserved": 0, "lat": 38.88450383333333, "fusion_lon": 0.0, "is_disabled": 0}, {"rental_uris": {"android": "https://dc.lft.to/lastmile_qr_scan", "ios": "https://dc.lft.to/lastmile_qr_scan"}, "type": "electric_scooter", "lon": -77.04673633333333, "name": "f81c06420c7fa4880c052997dff15fcc", "bike_id": "f81c06420c7fa4880c052997dff15fcc", "fusion_lat": 0.0, "is_reserved": 0, "lat": 38.895561666666666, "fusion_lon": 0.0, "is_disabled": 0}, {"rental_uris": {"android": "https://dc.lft.to/lastmile_qr_scan", "ios": "https://dc.lft.to/lastmile_qr_scan"}, "type": "electric_scooter", "lon": -77.0384855, "name": "a616945c8cebfc90eca22f30f7551eb3", "bike_id": "a616945c8cebfc90eca22f30f7551eb3", "fusion_lat": 0.0, "is_reserved": 0, "lat": 38.9132465, "fusion_lon": 0.0, "is_disabled": 0}, {"rental_uris": {"android": "https://dc.lft.to/lastmile_qr_scan", "ios": "https://dc.lft.to/lastmile_qr_scan"}, "type": "electric_scooter", "lon": -77.03263666666666, "name": "e0480bf2c5c18d085c7e5356107e03c9", "bike_id": "e0480bf2c5c18d085c7e5356107e03c9", "fusion_lat": 0.0, "is_reserved": 0, "lat": 38.936591166666666, "fusion_lon": 0.0, "is_disabled": 0}, {"rental_uris": {"android": "https://dc.lft.to/lastmile_qr_scan", "ios": "https://dc.lft.to/lastmile_qr_scan"}, "type": "electric_scooter", "lon": -77.06037216666667, "name": "d045292c6af7b343e2231da5881bee61", "bike_id": "d045292c6af7b343e2231da5881bee61", "fusion_lat": 0.0, "is_reserved": 0, "lat": 38.939298666666666, "fusion_lon": 0.0, "is_disabled": 0}, {"rental_uris": {"android": "https://dc.lft.to/lastmile_qr_scan", "ios": "https://dc.lft.to/lastmile_qr_scan"}, "type": "electric_scooter", "lon": -77.0425615, "name": "dd999a46a42350fac573ecb09ba15e00", "bike_id": "dd999a46a42350fac573ecb09ba15e00", "fusion_lat": 0.0, "is_reserved": 0, "lat": 38.90983883333333, "fusion_lon": 0.0, "is_disabled": 0}, {"rental_uris": {"android": "https://dc.lft.to/lastmile_qr_scan", "ios": "https://dc.lft.to/lastmile_qr_scan"}, "type": "electric_bike", "lon": -77.02104833333334, "name": "351693adb50e4fa61a01371ccf614705", "bike_id": "351693adb50e4fa61a01371ccf614705", "fusion_lat": 0.0, "is_reserved": 0, "lat": 39.022959166666666, "fusion_lon": 0.0, "is_disabled": 0}, {"rental_uris": {"android": "https://dc.lft.to/lastmile_qr_scan", "ios": "https://dc.lft.to/lastmile_qr_scan"}, "type": "electric_bike", "lon": -77.12899716666666, "name": "add3f6e41aff72889c61cc34fa8878b1", "bike_id": "add3f6e41aff72889c61cc34fa8878b1", "fusion_lat": 0.0, "is_reserved": 0, "lat": 38.8637605, "fusion_lon": 0.0, "is_disabled": 0}, {"rental_uris": {"android": "https://dc.lft.to/lastmile_qr_scan", "ios": "https://dc.lft.to/lastmile_qr_scan"}, "type": "electric_scooter", "lon": -77.02306966666667, "name": "b728170c6ec54cb7696985c2dd985afa", "bike_id": "b728170c6ec54cb7696985c2dd985afa", "fusion_lat": 0.0, "is_reserved": 0, "lat": 38.928839333333336, "fusion_lon": 0.0, "is_disabled": 0}, {"rental_uris": {"android": "https://dc.lft.to/lastmile_qr_scan", "ios": "https://dc.lft.to/lastmile_qr_scan"}, "type": "electric_scooter", "lon": -76.9733985, "name": "60600534a1a8b4f28985d8260eeb3898", "bike_id": "60600534a1a8b4f28985d8260eeb3898", "fusion_lat": 0.0, "is_reserved": 0, "lat": 38.865010166666664, "fusion_lon": 0.0, "is_disabled": 0}, {"rental_uris": {"android": "https://dc.lft.to/lastmile_qr_scan", "ios": "https://dc.lft.to/lastmile_qr_scan"}, "type": "electric_scooter", "lon": -77.0401935, "name": "a05ed2d1640bbf03dbbf0eba92260589", "bike_id": "a05ed2d1640bbf03dbbf0eba92260589", "fusion_lat": 0.0, "is_reserved": 0, "lat": 38.90008783333333, "fusion_lon": 0.0, "is_disabled": 0}, {"rental_uris": {"android": "https://dc.lft.to/lastmile_qr_scan", "ios": "https://dc.lft.to/lastmile_qr_scan"}, "type": "electric_bike", "lon": -76.93410433333334, "name": "901553cacb747d88eefd743af1006a23", "bike_id": "901553cacb747d88eefd743af1006a23", "fusion_lat": 0.0, "is_reserved": 0, "lat": 38.9462295, "fusion_lon": 0.0, "is_disabled": 0}, {"rental_uris": {"android": "https://dc.lft.to/lastmile_qr_scan", "ios": "https://dc.lft.to/lastmile_qr_scan"}, "type": "electric_scooter", "lon": -77.0296445, "name": "7ed626ced16033a634c2aa15ed5cd100", "bike_id": "7ed626ced16033a634c2aa15ed5cd100", "fusion_lat": 0.0, "is_reserved": 0, "lat": 38.8931535, "fusion_lon": 0.0, "is_disabled": 0}, {"rental_uris": {"android": "https://dc.lft.to/lastmile_qr_scan", "ios": "https://dc.lft.to/lastmile_qr_scan"}, "type": "electric_scooter", "lon": -76.92404816666667, "name": "6d600fe63db754579ef62a6ee928214a", "bike_id": "6d600fe63db754579ef62a6ee928214a", "fusion_lat": 0.0, "is_reserved": 0, "lat": 38.88987566666667, "fusion_lon": 0.0, "is_disabled": 0}, {"rental_uris": {"android": "https://dc.lft.to/lastmile_qr_scan", "ios": "https://dc.lft.to/lastmile_qr_scan"}, "type": "electric_scooter", "lon": -77.02209916666666, "name": "1e9481c51384ba4d2872c7f2a6450d40", "bike_id": "1e9481c51384ba4d2872c7f2a6450d40", "fusion_lat": 0.0, "is_reserved": 0, "lat": 38.90571883333333, "fusion_lon": 0.0, "is_disabled": 0}, {"rental_uris": {"android": "https://dc.lft.to/lastmile_qr_scan", "ios": "https://dc.lft.to/lastmile_qr_scan"}, "type": "electric_scooter", "lon": -76.99160683333334, "name": "54baef184c4c5d2744c42b86454e6b15", "bike_id": "54baef184c4c5d2744c42b86454e6b15", "fusion_lat": 0.0, "is_reserved": 0, "lat": 38.87922583333334, "fusion_lon": 0.0, "is_disabled": 0}, {"rental_uris": {"android": "https://dc.lft.to/lastmile_qr_scan", "ios": "https://dc.lft.to/lastmile_qr_scan"}, "type": "electric_scooter", "lon": -77.08441416666666, "name": "f3870d1db22931f5d2f91be6d2180bcc", "bike_id": "f3870d1db22931f5d2f91be6d2180bcc", "fusion_lat": 0.0, "is_reserved": 0, "lat": 38.911742833333335, "fusion_lon": 0.0, "is_disabled": 0}, {"rental_uris": {"android": "https://dc.lft.to/lastmile_qr_scan", "ios": "https://dc.lft.to/lastmile_qr_scan"}, "type": "electric_scooter", "lon": -77.0129345, "name": "57e5bd8fb05d38b4ee24c5160ab4ddb5", "bike_id": "57e5bd8fb05d38b4ee24c5160ab4ddb5", "fusion_lat": 0.0, "is_reserved": 0, "lat": 38.9302335, "fusion_lon": 0.0, "is_disabled": 0}, {"rental_uris": {"android": "https://dc.lft.to/lastmile_qr_scan", "ios": "https://dc.lft.to/lastmile_qr_scan"}, "type": "electric_scooter", "lon": -77.041753, "name": "74e26be2e97f78c40bf5720a5f80f901", "bike_id": "74e26be2e97f78c40bf5720a5f80f901", "fusion_lat": 0.0, "is_reserved": 0, "lat": 38.9088015, "fusion_lon": 0.0, "is_disabled": 0}, {"rental_uris": {"android": "https://dc.lft.to/lastmile_qr_scan", "ios": "https://dc.lft.to/lastmile_qr_scan"}, "type": "electric_scooter", "lon": -77.033109, "name": "87d3c211de2f82c1e1ccc03b99e4889f", "bike_id": "87d3c211de2f82c1e1ccc03b99e4889f", "fusion_lat": 0.0, "is_reserved": 0, "lat": 38.9159995, "fusion_lon": 0.0, "is_disabled": 0}, {"rental_uris": {"android": "https://dc.lft.to/lastmile_qr_scan", "ios": "https://dc.lft.to/lastmile_qr_scan"}, "type": "electric_scooter", "lon": -77.0389835, "name": "b972f02398f04fcfb94a9ad61531435b", "bike_id": "b972f02398f04fcfb94a9ad61531435b", "fusion_lat": 0.0, "is_reserved": 0, "lat": 38.92171366666667, "fusion_lon": 0.0, "is_disabled": 0}, {"rental_uris": {"android": "https://dc.lft.to/lastmile_qr_scan", "ios": "https://dc.lft.to/lastmile_qr_scan"}, "type": "electric_scooter", "lon": -77.05004133333334, "name": "429480297631547b18225969a60f33c4", "bike_id": "429480297631547b18225969a60f33c4", "fusion_lat": 0.0, "is_reserved": 0, "lat": 38.892304333333335, "fusion_lon": 0.0, "is_disabled": 0}, {"rental_uris": {"android": "https://dc.lft.to/lastmile_qr_scan", "ios": "https://dc.lft.to/lastmile_qr_scan"}, "type": "electric_scooter", "lon": -77.00022633333333, "name": "5a504ea982d0173e62f75ea4cecfb45e", "bike_id": "5a504ea982d0173e62f75ea4cecfb45e", "fusion_lat": 0.0, "is_reserved": 0, "lat": 38.900032333333336, "fusion_lon": 0.0, "is_disabled": 0}, {"rental_uris": {"android": "https://dc.lft.to/lastmile_qr_scan", "ios": "https://dc.lft.to/lastmile_qr_scan"}, "type": "electric_scooter", "lon": -77.01698316666666, "name": "e1bc1c0acc15006cdbb7a051dd1286a3", "bike_id": "e1bc1c0acc15006cdbb7a051dd1286a3", "fusion_lat": 0.0, "is_reserved": 0, "lat": 38.920105166666666, "fusion_lon": 0.0, "is_disabled": 0}, {"rental_uris": {"android": "https://dc.lft.to/lastmile_qr_scan", "ios": "https://dc.lft.to/lastmile_qr_scan"}, "type": "electric_scooter", "lon": -77.03408933333333, "name": "f8c9d4227502b62be6a8ed7a22f9f621", "bike_id": "f8c9d4227502b62be6a8ed7a22f9f621", "fusion_lat": 0.0, "is_reserved": 0, "lat": 38.931757166666664, "fusion_lon": 0.0, "is_disabled": 0}, {"rental_uris": {"android": "https://dc.lft.to/lastmile_qr_scan", "ios": "https://dc.lft.to/lastmile_qr_scan"}, "type": "electric_scooter", "lon": -77.04989166666667, "name": "9b934d1d2bc127a94e0434ea2eece39c", "bike_id": "9b934d1d2bc127a94e0434ea2eece39c", "fusion_lat": 0.0, "is_reserved": 0, "lat": 38.90125966666667, "fusion_lon": 0.0, "is_disabled": 0}, {"rental_uris": {"android": "https://dc.lft.to/lastmile_qr_scan", "ios": "https://dc.lft.to/lastmile_qr_scan"}, "type": "electric_scooter", "lon": -77.00345183333333, "name": "1f0519d6f37f1c89fa68d796be6f4b3c", "bike_id": "1f0519d6f37f1c89fa68d796be6f4b3c", "fusion_lat": 0.0, "is_reserved": 0, "lat": 38.91347666666667, "fusion_lon": 0.0, "is_disabled": 0}, {"rental_uris": {"android": "https://dc.lft.to/lastmile_qr_scan", "ios": "https://dc.lft.to/lastmile_qr_scan"}, "type": "electric_scooter", "lon": -77.0090875, "name": "f945fca8eac01917391fd8a1d24de08a", "bike_id": "f945fca8eac01917391fd8a1d24de08a", "fusion_lat": 0.0, "is_reserved": 0, "lat": 38.910505, "fusion_lon": 0.0, "is_disabled": 0}, {"rental_uris": {"android": "https://dc.lft.to/lastmile_qr_scan", "ios": "https://dc.lft.to/lastmile_qr_scan"}, "type": "electric_scooter", "lon": -77.04326916666666, "name": "2d48abba77f033274b4155bbf8f45cdb", "bike_id": "2d48abba77f033274b4155bbf8f45cdb", "fusion_lat": 0.0, "is_reserved": 0, "lat": 38.900364833333335, "fusion_lon": 0.0, "is_disabled": 0}, {"rental_uris": {"android": "https://dc.lft.to/lastmile_qr_scan", "ios": "https://dc.lft.to/lastmile_qr_scan"}, "type": "electric_scooter", "lon": -77.0305975, "name": "1ddebc50ee9b0aa80df26e081071c7eb", "bike_id": "1ddebc50ee9b0aa80df26e081071c7eb", "fusion_lat": 0.0, "is_reserved": 0, "lat": 38.91910433333334, "fusion_lon": 0.0, "is_disabled": 0}, {"rental_uris": {"android": "https://dc.lft.to/lastmile_qr_scan", "ios": "https://dc.lft.to/lastmile_qr_scan"}, "type": "electric_scooter", "lon": -76.93832983333333, "name": "30ce12ae830d8e68c210d7a53e86853d", "bike_id": "30ce12ae830d8e68c210d7a53e86853d", "fusion_lat": 0.0, "is_reserved": 0, "lat": 38.897596166666666, "fusion_lon": 0.0, "is_disabled": 0}, {"rental_uris": {"android": "https://dc.lft.to/lastmile_qr_scan", "ios": "https://dc.lft.to/lastmile_qr_scan"}, "type": "electric_scooter", "lon": -77.02806333333334, "name": "0f029862fb102857b87047801ee47822", "bike_id": "0f029862fb102857b87047801ee47822", "fusion_lat": 0.0, "is_reserved": 0, "lat": 38.944541, "fusion_lon": 0.0, "is_disabled": 0}, {"rental_uris": {"android": "https://dc.lft.to/lastmile_qr_scan", "ios": "https://dc.lft.to/lastmile_qr_scan"}, "type": "electric_scooter", "lon": -76.99215366666667, "name": "04f7b2883c31444bc614a6092f359b24", "bike_id": "04f7b2883c31444bc614a6092f359b24", "fusion_lat": 0.0, "is_reserved": 0, "lat": 38.904692, "fusion_lon": 0.0, "is_disabled": 0}, {"rental_uris": {"android": "https://dc.lft.to/lastmile_qr_scan", "ios": "https://dc.lft.to/lastmile_qr_scan"}, "type": "electric_scooter", "lon": -76.948417, "name": "084396a62cccfd2797ea96c694458a9c", "bike_id": "084396a62cccfd2797ea96c694458a9c", "fusion_lat": 0.0, "is_reserved": 0, "lat": 38.89484916666667, "fusion_lon": 0.0, "is_disabled": 0}, {"rental_uris": {"android": "https://dc.lft.to/lastmile_qr_scan", "ios": "https://dc.lft.to/lastmile_qr_scan"}, "type": "electric_scooter", "lon": -76.9842255, "name": "833c24f6f33d0b24548e296e717fb89c", "bike_id": "833c24f6f33d0b24548e296e717fb89c", "fusion_lat": 0.0, "is_reserved": 0, "lat": 38.91384216666667, "fusion_lon": 0.0, "is_disabled": 0}, {"rental_uris": {"android": "https://dc.lft.to/lastmile_qr_scan", "ios": "https://dc.lft.to/lastmile_qr_scan"}, "type": "electric_scooter", "lon": -77.08212533333334, "name": "02a730507c39a389c66f19c266533997", "bike_id": "02a730507c39a389c66f19c266533997", "fusion_lat": 0.0, "is_reserved": 0, "lat": 38.9355495, "fusion_lon": 0.0, "is_disabled": 0}, {"rental_uris": {"android": "https://dc.lft.to/lastmile_qr_scan", "ios": "https://dc.lft.to/lastmile_qr_scan"}, "type": "electric_scooter", "lon": -77.00290683333333, "name": "c2e4cd26bfa24a62ed89b6b46da76ed2", "bike_id": "c2e4cd26bfa24a62ed89b6b46da76ed2", "fusion_lat": 0.0, "is_reserved": 0, "lat": 38.889867, "fusion_lon": 0.0, "is_disabled": 0}, {"rental_uris": {"android": "https://dc.lft.to/lastmile_qr_scan", "ios": "https://dc.lft.to/lastmile_qr_scan"}, "type": "electric_scooter", "lon": -77.027941, "name": "340e4bc376e7a7e685dee721dc4bc7d5", "bike_id": "340e4bc376e7a7e685dee721dc4bc7d5", "fusion_lat": 0.0, "is_reserved": 0, "lat": 38.961458, "fusion_lon": 0.0, "is_disabled": 0}, {"rental_uris": {"android": "https://dc.lft.to/lastmile_qr_scan", "ios": "https://dc.lft.to/lastmile_qr_scan"}, "type": "electric_scooter", "lon": -77.03697283333334, "name": "f288653e0b8719b4954bb9e5808cc640", "bike_id": "f288653e0b8719b4954bb9e5808cc640", "fusion_lat": 0.0, "is_reserved": 0, "lat": 38.9264205, "fusion_lon": 0.0, "is_disabled": 0}, {"rental_uris": {"android": "https://dc.lft.to/lastmile_qr_scan", "ios": "https://dc.lft.to/lastmile_qr_scan"}, "type": "electric_scooter", "lon": -77.067764, "name": "00c40b0f3caabc37cf2f4567176da322", "bike_id": "00c40b0f3caabc37cf2f4567176da322", "fusion_lat": 0.0, "is_reserved": 0, "lat": 38.95208783333333, "fusion_lon": 0.0, "is_disabled": 0}, {"rental_uris": {"android": "https://dc.lft.to/lastmile_qr_scan", "ios": "https://dc.lft.to/lastmile_qr_scan"}, "type": "electric_scooter", "lon": -77.03244833333333, "name": "325451693123be4fb98e3879f3cd04a1", "bike_id": "325451693123be4fb98e3879f3cd04a1", "fusion_lat": 0.0, "is_reserved": 0, "lat": 38.928885666666666, "fusion_lon": 0.0, "is_disabled": 0}, {"rental_uris": {"android": "https://dc.lft.to/lastmile_qr_scan", "ios": "https://dc.lft.to/lastmile_qr_scan"}, "type": "electric_scooter", "lon": -77.00741, "name": "70f573df1d6cd1bad34080fda6cd4f76", "bike_id": "70f573df1d6cd1bad34080fda6cd4f76", "fusion_lat": 0.0, "is_reserved": 0, "lat": 38.9552185, "fusion_lon": 0.0, "is_disabled": 0}, {"rental_uris": {"android": "https://dc.lft.to/lastmile_qr_scan", "ios": "https://dc.lft.to/lastmile_qr_scan"}, "type": "electric_scooter", "lon": -77.02007566666667, "name": "8c12ac9879f8fd89f13f0fe640968a42", "bike_id": "8c12ac9879f8fd89f13f0fe640968a42", "fusion_lat": 0.0, "is_reserved": 0, "lat": 38.924116166666664, "fusion_lon": 0.0, "is_disabled": 0}, {"rental_uris": {"android": "https://dc.lft.to/lastmile_qr_scan", "ios": "https://dc.lft.to/lastmile_qr_scan"}, "type": "electric_scooter", "lon": -77.00964966666666, "name": "307eb49cb07d1ebcdd442047b53e6285", "bike_id": "307eb49cb07d1ebcdd442047b53e6285", "fusion_lat": 0.0, "is_reserved": 0, "lat": 38.8812865, "fusion_lon": 0.0, "is_disabled": 0}, {"rental_uris": {"android": "https://dc.lft.to/lastmile_qr_scan", "ios": "https://dc.lft.to/lastmile_qr_scan"}, "type": "electric_scooter", "lon": -77.018454, "name": "f6b776569944600f1ac611f8891ff3ba", "bike_id": "f6b776569944600f1ac611f8891ff3ba", "fusion_lat": 0.0, "is_reserved": 0, "lat": 38.94995983333333, "fusion_lon": 0.0, "is_disabled": 0}, {"rental_uris": {"android": "https://dc.lft.to/lastmile_qr_scan", "ios": "https://dc.lft.to/lastmile_qr_scan"}, "type": "electric_scooter", "lon": -77.033439, "name": "88bfe2859b706897087847635b26e21d", "bike_id": "88bfe2859b706897087847635b26e21d", "fusion_lat": 0.0, "is_reserved": 0, "lat": 38.90241316666667, "fusion_lon": 0.0, "is_disabled": 0}, {"rental_uris": {"android": "https://dc.lft.to/lastmile_qr_scan", "ios": "https://dc.lft.to/lastmile_qr_scan"}, "type": "electric_scooter", "lon": -77.04354033333334, "name": "ddc64ffdee2b6b630e6f516e1cc0f46e", "bike_id": "ddc64ffdee2b6b630e6f516e1cc0f46e", "fusion_lat": 0.0, "is_reserved": 0, "lat": 38.902649833333335, "fusion_lon": 0.0, "is_disabled": 0}, {"rental_uris": {"android": "https://dc.lft.to/lastmile_qr_scan", "ios": "https://dc.lft.to/lastmile_qr_scan"}, "type": "electric_scooter", "lon": -76.99068833333334, "name": "c5b5ef72691daab6e270fc1905d0dd47", "bike_id": "c5b5ef72691daab6e270fc1905d0dd47", "fusion_lat": 0.0, "is_reserved": 0, "lat": 38.92942816666667, "fusion_lon": 0.0, "is_disabled": 0}, {"rental_uris": {"android": "https://dc.lft.to/lastmile_qr_scan", "ios": "https://dc.lft.to/lastmile_qr_scan"}, "type": "electric_scooter", "lon": -77.04328366666667, "name": "f98bd27e4794bb399b6738e448cd3d80", "bike_id": "f98bd27e4794bb399b6738e448cd3d80", "fusion_lat": 0.0, "is_reserved": 0, "lat": 38.908765333333335, "fusion_lon": 0.0, "is_disabled": 0}, {"rental_uris": {"android": "https://dc.lft.to/lastmile_qr_scan", "ios": "https://dc.lft.to/lastmile_qr_scan"}, "type": "electric_scooter", "lon": -77.02710966666666, "name": "a4d25be6335d01b3e6324766def5efa3", "bike_id": "a4d25be6335d01b3e6324766def5efa3", "fusion_lat": 0.0, "is_reserved": 0, "lat": 38.89777766666667, "fusion_lon": 0.0, "is_disabled": 0}, {"rental_uris": {"android": "https://dc.lft.to/lastmile_qr_scan", "ios": "https://dc.lft.to/lastmile_qr_scan"}, "type": "electric_bike", "lon": -76.90533183333334, "name": "54f06381f6225f7be361b4e1fe3aaa5f", "bike_id": "54f06381f6225f7be361b4e1fe3aaa5f", "fusion_lat": 0.0, "is_reserved": 0, "lat": 38.8973235, "fusion_lon": 0.0, "is_disabled": 0}, {"rental_uris": {"android": "https://dc.lft.to/lastmile_qr_scan", "ios": "https://dc.lft.to/lastmile_qr_scan"}, "type": "electric_scooter", "lon": -77.02392833333333, "name": "9a6f0aa04e888d3438b93d1614ec3191", "bike_id": "9a6f0aa04e888d3438b93d1614ec3191", "fusion_lat": 0.0, "is_reserved": 0, "lat": 38.937018333333334, "fusion_lon": 0.0, "is_disabled": 0}, {"rental_uris": {"android": "https://dc.lft.to/lastmile_qr_scan", "ios": "https://dc.lft.to/lastmile_qr_scan"}, "type": "electric_scooter", "lon": -77.02693666666667, "name": "24e9da3ea65c83bd3832501673f61746", "bike_id": "24e9da3ea65c83bd3832501673f61746", "fusion_lat": 0.0, "is_reserved": 0, "lat": 38.9068535, "fusion_lon": 0.0, "is_disabled": 0}, {"rental_uris": {"android": "https://dc.lft.to/lastmile_qr_scan", "ios": "https://dc.lft.to/lastmile_qr_scan"}, "type": "electric_scooter", "lon": -77.04057666666667, "name": "631ab03a7c6906fa661e3142d2499790", "bike_id": "631ab03a7c6906fa661e3142d2499790", "fusion_lat": 0.0, "is_reserved": 0, "lat": 38.926465, "fusion_lon": 0.0, "is_disabled": 0}, {"rental_uris": {"android": "https://dc.lft.to/lastmile_qr_scan", "ios": "https://dc.lft.to/lastmile_qr_scan"}, "type": "electric_scooter", "lon": -77.032645, "name": "54953fe906361d2f12ba2c8aeb047e99", "bike_id": "54953fe906361d2f12ba2c8aeb047e99", "fusion_lat": 0.0, "is_reserved": 0, "lat": 38.90228066666667, "fusion_lon": 0.0, "is_disabled": 0}, {"rental_uris": {"android": "https://dc.lft.to/lastmile_qr_scan", "ios": "https://dc.lft.to/lastmile_qr_scan"}, "type": "electric_scooter", "lon": -77.0216725, "name": "4ae04685622b0e5d8ed724dff9297465", "bike_id": "4ae04685622b0e5d8ed724dff9297465", "fusion_lat": 0.0, "is_reserved": 0, "lat": 38.887465, "fusion_lon": 0.0, "is_disabled": 0}, {"rental_uris": {"android": "https://dc.lft.to/lastmile_qr_scan", "ios": "https://dc.lft.to/lastmile_qr_scan"},