{"data": {"bikes": [{"name": "b18440ae1aecfb8c013ced7a0b6c5dfe", "fusion_lat": 0.0, "type": "electric_scooter", "lat": 38.85724783333333, "is_reserved": 0, "is_disabled": 0, "fusion_lon": 0.0, "bike_id": "b18440ae1aecfb8c013ced7a0b6c5dfe", "lon": -76.980983, "rental_uris": {"ios": "https://dc.lft.to/lastmile_qr_scan", "android": "https://dc.lft.to/lastmile_qr_scan"}}, {"name": "61c62a992d90e119d2deb2852a441ec5", "fusion_lat": 0.0, "type": "electric_scooter", "lat": 38.936678, "is_reserved": 0, "is_disabled": 0, "fusion_lon": 0.0, "bike_id": "61c62a992d90e119d2deb2852a441ec5", "lon": -77.03634783333334, "rental_uris": {"ios": "https://dc.lft.to/lastmile_qr_scan", "android": "https://dc.lft.to/lastmile_qr_scan"}}, {"name": "defb7b1551d00c93018fc825dc3473ec", "fusion_lat": 0.0, "type": "electric_scooter", "lat": 38.90801166666667, "is_reserved": 0, "is_disabled": 0, "fusion_lon": 0.0, "bike_id": "defb7b1551d00c93018fc825dc3473ec", "lon": -77.04166983333333, "rental_uris": {"ios": "https://dc.lft.to/lastmile_qr_scan", "android": "https://dc.lft.to/lastmile_qr_scan"}}, {"name": "3c545e55b6b53adcf04639a8d2e187fb", "fusion_lat": 0.0, "type": "electric_scooter", "lat": 38.90019783333334, "is_reserved": 0, "is_disabled": 0, "fusion_lon": 0.0, "bike_id": "3c545e55b6b53adcf04639a8d2e187fb", "lon": -77.02379516666667, "rental_uris": {"ios": "https://dc.lft.to/lastmile_qr_scan", "android": "https://dc.lft.to/lastmile_qr_scan"}}, {"name": "f30585f1ce6bd65cc2be0fbd8f603efb", "fusion_lat": 0.0, "type": "electric_scooter", "lat": 38.883244833333336, "is_reserved": 0, "is_disabled": 0, "fusion_lon": 0.0, "bike_id": "f30585f1ce6bd65cc2be0fbd8f603efb", "lon": -77.01661516666667, "rental_uris": {"ios": "https://dc.lft.to/lastmile_qr_scan", "android": "https://dc.lft.to/lastmile_qr_scan"}}, {"name": "400f6e9abf707ac67fac1bd677a98f81", "fusion_lat": 0.0, "type": "electric_scooter", "lat": 38.8985175, "is_reserved": 0, "is_disabled": 0, "fusion_lon": 0.0, "bike_id": "400f6e9abf707ac67fac1bd677a98f81", "lon": -76.97657633333333, "rental_uris": {"ios": "https://dc.lft.to/lastmile_qr_scan", "android": "https://dc.lft.to/lastmile_qr_scan"}}, {"name": "cdd52e61a7a9e8a6dfe77298163c8ad4", "fusion_lat": 0.0, "type": "electric_bike", "lat": 38.88156983333333, "is_reserved": 0, "is_disabled": 0, "fusion_lon": 0.0, "bike_id": "cdd52e61a7a9e8a6dfe77298163c8ad4", "lon": -77.02752966666667, "rental_uris": {"ios": "https://dc.lft.to/lastmile_qr_scan", "android": "https://dc.lft.to/lastmile_qr_scan"}}, {"name": "0dc9cc3832a3b75790a85ab896b6d221", "fusion_lat": 0.0, "type": "electric_scooter", "lat": 38.92023666666667, "is_reserved": 0, "is_disabled": 0, "fusion_lon": 0.0, "bike_id": "0dc9cc3832a3b75790a85ab896b6d221", "lon": -77.0318165, "rental_uris": {"ios": "https://dc.lft.to/lastmile_qr_scan", "android": "https://dc.lft.to/lastmile_qr_scan"}}, {"name": "d0ff3367a0ee1451ba95c2c78e936428", "fusion_lat": 0.0, "type": "electric_scooter", "lat": 38.906006, "is_reserved": 0, "is_disabled": 0, "fusion_lon": 0.0, "bike_id": "d0ff3367a0ee1451ba95c2c78e936428", "lon": -77.016132, "rental_uris": {"ios": "https://dc.lft.to/lastmile_qr_scan", "android": "https://dc.lft.to/lastmile_qr_scan"}}, {"name": "f923cb004914c80bf46c64fa2e397811", "fusion_lat": 0.0, "type": "electric_scooter", "lat": 38.88495983333333, "is_reserved": 0, "is_disabled": 0, "fusion_lon": 0.0, "bike_id": "f923cb004914c80bf46c64fa2e397811", "lon": -77.01587083333334, "rental_uris": {"ios": "https://dc.lft.to/lastmile_qr_scan", "android": "https://dc.lft.to/lastmile_qr_scan"}}, {"name": "d7a727bdff8d2a962a3d2f4f1f48e058", "fusion_lat": 0.0, "type": "electric_scooter", "lat": 38.93268183333333, "is_reserved": 0, "is_disabled": 0, "fusion_lon": 0.0, "bike_id": "d7a727bdff8d2a962a3d2f4f1f48e058", "lon": -77.03896333333333, "rental_uris": {"ios": "https://dc.lft.to/lastmile_qr_scan", "android": "https://dc.lft.to/lastmile_qr_scan"}}, {"name": "50861df593eef806fab45f093a6bd742", "fusion_lat": 0.0, "type": "electric_scooter", "lat": 38.85806266666667, "is_reserved": 0, "is_disabled": 0, "fusion_lon": 0.0, "bike_id": "50861df593eef806fab45f093a6bd742", "lon": -76.98656466666667, "rental_uris": {"ios": "https://dc.lft.to/lastmile_qr_scan", "android": "https://dc.lft.to/lastmile_qr_scan"}}, {"name": "2a9859da6debc4b7f5de3aad7a213136", "fusion_lat": 0.0, "type": "electric_scooter", "lat": 38.84685433333333, "is_reserved": 0, "is_disabled": 0, "fusion_lon": 0.0, "bike_id": "2a9859da6debc4b7f5de3aad7a213136", "lon": -76.99204016666667, "rental_uris": {"ios": "https://dc.lft.to/lastmile_qr_scan", "android": "https://dc.lft.to/lastmile_qr_scan"}}, {"name": "dd9ab64408bc25267781e06fb5bbf4e0", "fusion_lat": 0.0, "type": "electric_scooter", "lat": 38.851642, "is_reserved": 0, "is_disabled": 0, "fusion_lon": 0.0, "bike_id": "dd9ab64408bc25267781e06fb5bbf4e0", "lon": -76.98802266666667, "rental_uris": {"ios": "https://dc.lft.to/lastmile_qr_scan", "android": "https://dc.lft.to/lastmile_qr_scan"}}, {"name": "dcef86a43cdaf4ad856fad3d5d12a126", "fusion_lat": 0.0, "type": "electric_bike", "lat": 38.99061566666666, "is_reserved": 0, "is_disabled": 0, "fusion_lon": 0.0, "bike_id": "dcef86a43cdaf4ad856fad3d5d12a126", "lon": -77.10030516666667, "rental_uris": {"ios": "https://dc.lft.to/lastmile_qr_scan", "android": "https://dc.lft.to/lastmile_qr_scan"}}, {"name": "f60166354c3c2c72f9f2306bcef20cb1", "fusion_lat": 0.0, "type": "electric_scooter", "lat": 38.9382185, "is_reserved": 0, "is_disabled": 0, "fusion_lon": 0.0, "bike_id": "f60166354c3c2c72f9f2306bcef20cb1", "lon": -77.0245685, "rental_uris": {"ios": "https://dc.lft.to/lastmile_qr_scan", "android": "https://dc.lft.to/lastmile_qr_scan"}}, {"name": "d1fe9852ac70e5558f8ec595258f080f", "fusion_lat": 0.0, "type": "electric_scooter", "lat": 38.9180825, "is_reserved": 0, "is_disabled": 0, "fusion_lon": 0.0, "bike_id": "d1fe9852ac70e5558f8ec595258f080f", "lon": -77.04003433333334, "rental_uris": {"ios": "https://dc.lft.to/lastmile_qr_scan", "android": "https://dc.lft.to/lastmile_qr_scan"}}, {"name": "6339beff89fd6b20e8d3e4a0625c76a3", "fusion_lat": 0.0, "type": "electric_scooter", "lat": 38.93089783333333, "is_reserved": 0, "is_disabled": 0, "fusion_lon": 0.0, "bike_id": "6339beff89fd6b20e8d3e4a0625c76a3", "lon": -77.03442883333334, "rental_uris": {"ios": "https://dc.lft.to/lastmile_qr_scan", "android": "https://dc.lft.to/lastmile_qr_scan"}}, {"name": "bb843d2df832ec4afbddf2957bba68ee", "fusion_lat": 0.0, "type": "electric_scooter", "lat": 38.913964666666665, "is_reserved": 0, "is_disabled": 0, "fusion_lon": 0.0, "bike_id": "bb843d2df832ec4afbddf2957bba68ee", "lon": -77.04176283333334, "rental_uris": {"ios": "https://dc.lft.to/lastmile_qr_scan", "android": "https://dc.lft.to/lastmile_qr_scan"}}, {"name": "2098c3e9bf48a767ddc5ef8dddd7e58d", "fusion_lat": 0.0, "type": "electric_bike", "lat": 38.82878, "is_reserved": 0, "is_disabled": 0, "fusion_lon": 0.0, "bike_id": "2098c3e9bf48a767ddc5ef8dddd7e58d", "lon": -77.11220616666667, "rental_uris": {"ios": "https://dc.lft.to/lastmile_qr_scan", "android": "https://dc.lft.to/lastmile_qr_scan"}}, {"name": "d13897f82ef8096dd3644b229500e7fc", "fusion_lat": 0.0, "type": "electric_bike", "lat": 38.99091466666667, "is_reserved": 0, "is_disabled": 0, "fusion_lon": 0.0, "bike_id": "d13897f82ef8096dd3644b229500e7fc", "lon": -76.87492966666667, "rental_uris": {"ios": "https://dc.lft.to/lastmile_qr_scan", "android": "https://dc.lft.to/lastmile_qr_scan"}}, {"name": "40cf45b3025fda126e681c74e3c9dba1", "fusion_lat": 0.0, "type": "electric_scooter", "lat": 38.90963583333333, "is_reserved": 0, "is_disabled": 0, "fusion_lon": 0.0, "bike_id": "40cf45b3025fda126e681c74e3c9dba1", "lon": -77.027465, "rental_uris": {"ios": "https://dc.lft.to/lastmile_qr_scan", "android": "https://dc.lft.to/lastmile_qr_scan"}}, {"name": "92c1fac39cade13c54c6aac2f30a8acf", "fusion_lat": 0.0, "type": "electric_scooter", "lat": 38.876327333333336, "is_reserved": 0, "is_disabled": 0, "fusion_lon": 0.0, "bike_id": "92c1fac39cade13c54c6aac2f30a8acf", "lon": -77.00820033333333, "rental_uris": {"ios": "https://dc.lft.to/lastmile_qr_scan", "android": "https://dc.lft.to/lastmile_qr_scan"}}, {"name": "c1d58aee0902f84798010ef14f9e88fe", "fusion_lat": 0.0, "type": "electric_scooter", "lat": 38.92502783333333, "is_reserved": 0, "is_disabled": 0, "fusion_lon": 0.0, "bike_id": "c1d58aee0902f84798010ef14f9e88fe", "lon": -77.0216885, "rental_uris": {"ios": "https://dc.lft.to/lastmile_qr_scan", "android": "https://dc.lft.to/lastmile_qr_scan"}}, {"name": "6afb720223e4d69a5e98a654b46baa7b", "fusion_lat": 0.0, "type": "electric_scooter", "lat": 38.899729666666666, "is_reserved": 0, "is_disabled": 0, "fusion_lon": 0.0, "bike_id": "6afb720223e4d69a5e98a654b46baa7b", "lon": -77.0570305, "rental_uris": {"ios": "https://dc.lft.to/lastmile_qr_scan", "android": "https://dc.lft.to/lastmile_qr_scan"}}, {"name": "59f6e86a4af83965fc48265b5b3cf125", "fusion_lat": 0.0, "type": "electric_scooter", "lat": 38.876629666666666, "is_reserved": 0, "is_disabled": 0, "fusion_lon": 0.0, "bike_id": "59f6e86a4af83965fc48265b5b3cf125", "lon": -77.00763, "rental_uris": {"ios": "https://dc.lft.to/lastmile_qr_scan", "android": "https://dc.lft.to/lastmile_qr_scan"}}, {"name": "1ba214e5340c6324c2bcb89dd1c9dcd2", "fusion_lat": 0.0, "type": "electric_scooter", "lat": 38.884074166666664, "is_reserved": 0, "is_disabled": 0, "fusion_lon": 0.0, "bike_id": "1ba214e5340c6324c2bcb89dd1c9dcd2", "lon": -77.0195055, "rental_uris": {"ios": "https://dc.lft.to/lastmile_qr_scan", "android": "https://dc.lft.to/lastmile_qr_scan"}}, {"name": "1fec47f9dc63896e50d9015229a98534", "fusion_lat": 0.0, "type": "electric_scooter", "lat": 38.91801616666667, "is_reserved": 0, "is_disabled": 0, "fusion_lon": 0.0, "bike_id": "1fec47f9dc63896e50d9015229a98534", "lon": -77.03442883333334, "rental_uris": {"ios": "https://dc.lft.to/lastmile_qr_scan", "android": "https://dc.lft.to/lastmile_qr_scan"}}, {"name": "adecd0c901900f2803a809ab9b219b8a", "fusion_lat": 0.0, "type": "electric_scooter", "lat": 38.8960635, "is_reserved": 0, "is_disabled": 0, "fusion_lon": 0.0, "bike_id": "adecd0c901900f2803a809ab9b219b8a", "lon": -77.04753383333333, "rental_uris": {"ios": "https://dc.lft.to/lastmile_qr_scan", "android": "https://dc.lft.to/lastmile_qr_scan"}}, {"name": "78e5fe99e79b182631f997fc7c56e677", "fusion_lat": 0.0, "type": "electric_scooter", "lat": 38.92641183333333, "is_reserved": 0, "is_disabled": 0, "fusion_lon": 0.0, "bike_id": "78e5fe99e79b182631f997fc7c56e677", "lon": -77.03699233333333, "rental_uris": {"ios": "https://dc.lft.to/lastmile_qr_scan", "android": "https://dc.lft.to/lastmile_qr_scan"}}, {"name": "712af5ef603b39c4608288b027686192", "fusion_lat": 0.0, "type": "electric_scooter", "lat": 38.9301705, "is_reserved": 0, "is_disabled": 0, "fusion_lon": 0.0, "bike_id": "712af5ef603b39c4608288b027686192", "lon": -77.0378155, "rental_uris": {"ios": "https://dc.lft.to/lastmile_qr_scan", "android": "https://dc.lft.to/lastmile_qr_scan"}}, {"name": "ffc83f6b69192481ccbca3777262bbd5", "fusion_lat": 0.0, "type": "electric_scooter", "lat": 38.92693516666667, "is_reserved": 0, "is_disabled": 0, "fusion_lon": 0.0, "bike_id": "ffc83f6b69192481ccbca3777262bbd5", "lon": -77.027884, "rental_uris": {"ios": "https://dc.lft.to/lastmile_qr_scan", "android": "https://dc.lft.to/lastmile_qr_scan"}}, {"name": "3596cac27bd541da359e9648e7688cb9", "fusion_lat": 0.0, "type": "electric_bike", "lat": 38.92866316666667, "is_reserved": 0, "is_disabled": 0, "fusion_lon": 0.0, "bike_id": "3596cac27bd541da359e9648e7688cb9", "lon": -76.9610905, "rental_uris": {"ios": "https://dc.lft.to/lastmile_qr_scan", "android": "https://dc.lft.to/lastmile_qr_scan"}}, {"name": "b32191fa1b41a546fec7d67f3a330fd2", "fusion_lat": 0.0, "type": "electric_scooter", "lat": 38.90430116666667, "is_reserved": 0, "is_disabled": 0, "fusion_lon": 0.0, "bike_id": "b32191fa1b41a546fec7d67f3a330fd2", "lon": -77.02598, "rental_uris": {"ios": "https://dc.lft.to/lastmile_qr_scan", "android": "https://dc.lft.to/lastmile_qr_scan"}}, {"name": "4ce0e0f3838d3fd6066eed8a37748b08", "fusion_lat": 0.0, "type": "electric_scooter", "lat": 38.96563733333333, "is_reserved": 0, "is_disabled": 0, "fusion_lon": 0.0, "bike_id": "4ce0e0f3838d3fd6066eed8a37748b08", "lon": -77.01632166666667, "rental_uris": {"ios": "https://dc.lft.to/lastmile_qr_scan", "android": "https://dc.lft.to/lastmile_qr_scan"}}, {"name": "1e58ee4a0f8b9817bbfd693c181ec167", "fusion_lat": 0.0, "type": "electric_scooter", "lat": 38.9387255, "is_reserved": 0, "is_disabled": 0, "fusion_lon": 0.0, "bike_id": "1e58ee4a0f8b9817bbfd693c181ec167", "lon": -77.03257983333333, "rental_uris": {"ios": "https://dc.lft.to/lastmile_qr_scan", "android": "https://dc.lft.to/lastmile_qr_scan"}}, {"name": "d5937e37c792b51ab43f252d788a27bd", "fusion_lat": 0.0, "type": "electric_scooter", "lat": 38.9056945, "is_reserved": 0, "is_disabled": 0, "fusion_lon": 0.0, "bike_id": "d5937e37c792b51ab43f252d788a27bd", "lon": -77.04879266666667, "rental_uris": {"ios": "https://dc.lft.to/lastmile_qr_scan", "android": "https://dc.lft.to/lastmile_qr_scan"}}, {"name": "019d1085c04d3481c6792e9dff711533", "fusion_lat": 0.0, "type": "electric_scooter", "lat": 38.89861916666667, "is_reserved": 0, "is_disabled": 0, "fusion_lon": 0.0, "bike_id": "019d1085c04d3481c6792e9dff711533", "lon": -77.01985083333334, "rental_uris": {"ios": "https://dc.lft.to/lastmile_qr_scan", "android": "https://dc.lft.to/lastmile_qr_scan"}}, {"name": "832c6c8f335ee7a4c028833fea807ae2", "fusion_lat": 0.0, "type": "electric_scooter", "lat": 38.909689, "is_reserved": 0, "is_disabled": 0, "fusion_lon": 0.0, "bike_id": "832c6c8f335ee7a4c028833fea807ae2", "lon": -77.01711016666667, "rental_uris": {"ios": "https://dc.lft.to/lastmile_qr_scan", "android": "https://dc.lft.to/lastmile_qr_scan"}}, {"name": "42a39c468de0c971c37daf95ac68f498", "fusion_lat": 0.0, "type": "electric_scooter", "lat": 38.9232085, "is_reserved": 0, "is_disabled": 0, "fusion_lon": 0.0, "bike_id": "42a39c468de0c971c37daf95ac68f498", "lon": -77.05464733333334, "rental_uris": {"ios": "https://dc.lft.to/lastmile_qr_scan", "android": "https://dc.lft.to/lastmile_qr_scan"}}, {"name": "e274e009f91048cb6c90f40c9cfc016f", "fusion_lat": 0.0, "type": "electric_scooter", "lat": 38.901597833333334, "is_reserved": 0, "is_disabled": 0, "fusion_lon": 0.0, "bike_id": "e274e009f91048cb6c90f40c9cfc016f", "lon": -77.0540195, "rental_uris": {"ios": "https://dc.lft.to/lastmile_qr_scan", "android": "https://dc.lft.to/lastmile_qr_scan"}}, {"name": "34c8b5153a6846ca1da5f6e746184681", "fusion_lat": 0.0, "type": "electric_scooter", "lat": 38.938911833333336, "is_reserved": 0, "is_disabled": 0, "fusion_lon": 0.0, "bike_id": "34c8b5153a6846ca1da5f6e746184681", "lon": -77.03263716666666, "rental_uris": {"ios": "https://dc.lft.to/lastmile_qr_scan", "android": "https://dc.lft.to/lastmile_qr_scan"}}, {"name": "352757080a492839f3c052a1600c9648", "fusion_lat": 0.0, "type": "electric_scooter", "lat": 38.93903533333334, "is_reserved": 0, "is_disabled": 0, "fusion_lon": 0.0, "bike_id": "352757080a492839f3c052a1600c9648", "lon": -77.06039, "rental_uris": {"ios": "https://dc.lft.to/lastmile_qr_scan", "android": "https://dc.lft.to/lastmile_qr_scan"}}, {"name": "64edd6ae28cf13cc0a0c818767a3ba45", "fusion_lat": 0.0, "type": "electric_scooter", "lat": 38.905407, "is_reserved": 0, "is_disabled": 0, "fusion_lon": 0.0, "bike_id": "64edd6ae28cf13cc0a0c818767a3ba45", "lon": -77.06259433333334, "rental_uris": {"ios": "https://dc.lft.to/lastmile_qr_scan", "android": "https://dc.lft.to/lastmile_qr_scan"}}, {"name": "aabda864a3b8a07916c676b8860a723b", "fusion_lat": 0.0, "type": "electric_scooter", "lat": 38.918077833333335, "is_reserved": 0, "is_disabled": 0, "fusion_lon": 0.0, "bike_id": "aabda864a3b8a07916c676b8860a723b", "lon": -77.0101935, "rental_uris": {"ios": "https://dc.lft.to/lastmile_qr_scan", "android": "https://dc.lft.to/lastmile_qr_scan"}}, {"name": "15131d41536451a60828bfb5f97456e4", "fusion_lat": 0.0, "type": "electric_scooter", "lat": 38.90938716666667, "is_reserved": 0, "is_disabled": 0, "fusion_lon": 0.0, "bike_id": "15131d41536451a60828bfb5f97456e4", "lon": -77.038509, "rental_uris": {"ios": "https://dc.lft.to/lastmile_qr_scan", "android": "https://dc.lft.to/lastmile_qr_scan"}}, {"name": "23ad3cef1b2db8d2c1049e27a13dfa99", "fusion_lat": 0.0, "type": "electric_scooter", "lat": 38.90185683333333, "is_reserved": 0, "is_disabled": 0, "fusion_lon": 0.0, "bike_id": "23ad3cef1b2db8d2c1049e27a13dfa99", "lon": -77.02200366666666, "rental_uris": {"ios": "https://dc.lft.to/lastmile_qr_scan", "android": "https://dc.lft.to/lastmile_qr_scan"}}, {"name": "f07245dbbee3a39cf37d21a59990c9b9", "fusion_lat": 0.0, "type": "electric_bike", "lat": 39.03347016666667, "is_reserved": 0, "is_disabled": 0, "fusion_lon": 0.0, "bike_id": "f07245dbbee3a39cf37d21a59990c9b9", "lon": -77.04909366666666, "rental_uris": {"ios": "https://dc.lft.to/lastmile_qr_scan", "android": "https://dc.lft.to/lastmile_qr_scan"}}, {"name": "c11c9a943212a21ba7169ad7d891bb4a", "fusion_lat": 0.0, "type": "electric_scooter", "lat": 38.902730166666665, "is_reserved": 0, "is_disabled": 0, "fusion_lon": 0.0, "bike_id": "c11c9a943212a21ba7169ad7d891bb4a", "lon": -77.05388333333333, "rental_uris": {"ios": "https://dc.lft.to/lastmile_qr_scan", "android": "https://dc.lft.to/lastmile_qr_scan"}}, {"name": "d319a6d3f6587051fe8b7578213b8e56", "fusion_lat": 0.0, "type": "electric_scooter", "lat": 38.92467233333333, "is_reserved": 0, "is_disabled": 0, "fusion_lon": 0.0, "bike_id": "d319a6d3f6587051fe8b7578213b8e56", "lon": -77.02714833333333, "rental_uris": {"ios": "https://dc.lft.to/lastmile_qr_scan", "android": "https://dc.lft.to/lastmile_qr_scan"}}, {"name": "2602b7ce950f82ac4daeab376cf4a840", "fusion_lat": 0.0, "type": "electric_bike", "lat": 38.84347966666667, "is_reserved": 0, "is_disabled": 0, "fusion_lon": 0.0, "bike_id": "2602b7ce950f82ac4daeab376cf4a840", "lon": -77.06404633333334, "rental_uris": {"ios": "https://dc.lft.to/lastmile_qr_scan", "android": "https://dc.lft.to/lastmile_qr_scan"}}, {"name": "28578801a621de04c1db6275321aaa67", "fusion_lat": 0.0, "type": "electric_bike", "lat": 38.97520316666667, "is_reserved": 0, "is_disabled": 0, "fusion_lon": 0.0, "bike_id": "28578801a621de04c1db6275321aaa67", "lon": -77.01685283333333, "rental_uris": {"ios": "https://dc.lft.to/lastmile_qr_scan", "android": "https://dc.lft.to/lastmile_qr_scan"}}, {"name": "090ea5e94b8234d777f07bfd637f01a4", "fusion_lat": 0.0, "type": "electric_scooter", "lat": 38.89587433333333, "is_reserved": 0, "is_disabled": 0, "fusion_lon": 0.0, "bike_id": "090ea5e94b8234d777f07bfd637f01a4", "lon": -77.04266933333334, "rental_uris": {"ios": "https://dc.lft.to/lastmile_qr_scan", "android": "https://dc.lft.to/lastmile_qr_scan"}}, {"name": "6afa2137577c0641df69b98eb6bfa01a", "fusion_lat": 0.0, "type": "electric_scooter", "lat": 38.8323235, "is_reserved": 0, "is_disabled": 0, "fusion_lon": 0.0, "bike_id": "6afa2137577c0641df69b98eb6bfa01a", "lon": -76.9888895, "rental_uris": {"ios": "https://dc.lft.to/lastmile_qr_scan", "android": "https://dc.lft.to/lastmile_qr_scan"}}, {"name": "f8ba3ac64e4381c96e8250510a2a1575", "fusion_lat": 0.0, "type": "electric_scooter", "lat": 38.92751583333333, "is_reserved": 0, "is_disabled": 0, "fusion_lon": 0.0, "bike_id": "f8ba3ac64e4381c96e8250510a2a1575", "lon": -77.02423666666667, "rental_uris": {"ios": "https://dc.lft.to/lastmile_qr_scan", "android": "https://dc.lft.to/lastmile_qr_scan"}}, {"name": "32b176cb34860334368a50bb5ed01aba", "fusion_lat": 0.0, "type": "electric_scooter", "lat": 38.90272216666666, "is_reserved": 0, "is_disabled": 0, "fusion_lon": 0.0, "bike_id": "32b176cb34860334368a50bb5ed01aba", "lon": -77.02996233333333, "rental_uris": {"ios": "https://dc.lft.to/lastmile_qr_scan", "android": "https://dc.lft.to/lastmile_qr_scan"}}, {"name": "753a6804b50212b9939d64466591fe8c", "fusion_lat": 0.0, "type": "electric_scooter", "lat": 38.9028415, "is_reserved": 0, "is_disabled": 0, "fusion_lon": 0.0, "bike_id": "753a6804b50212b9939d64466591fe8c", "lon": -77.0321635, "rental_uris": {"ios": "https://dc.lft.to/lastmile_qr_scan", "android": "https://dc.lft.to/lastmile_qr_scan"}}, {"name": "bf006af2724abdb8786c88adbd871140", "fusion_lat": 0.0, "type": "electric_scooter", "lat": 38.904628833333334, "is_reserved": 0, "is_disabled": 0, "fusion_lon": 0.0, "bike_id": "bf006af2724abdb8786c88adbd871140", "lon": -77.0415315, "rental_uris": {"ios": "https://dc.lft.to/lastmile_qr_scan", "android": "https://dc.lft.to/lastmile_qr_scan"}}, {"name": "61181d9c4d848f339763ab96c64b0605", "fusion_lat": 0.0, "type": "electric_scooter", "lat": 38.91811366666667, "is_reserved": 0, "is_disabled": 0, "fusion_lon": 0.0, "bike_id": "61181d9c4d848f339763ab96c64b0605", "lon": -77.01151016666667, "rental_uris": {"ios": "https://dc.lft.to/lastmile_qr_scan", "android": "https://dc.lft.to/lastmile_qr_scan"}}, {"name": "d46b8db74a16641b6ab5cc4025083d37", "fusion_lat": 0.0, "type": "electric_scooter", "lat": 38.92511666666667, "is_reserved": 0, "is_disabled": 0, "fusion_lon": 0.0, "bike_id": "d46b8db74a16641b6ab5cc4025083d37", "lon": -77.02391316666667, "rental_uris": {"ios": "https://dc.lft.to/lastmile_qr_scan", "android": "https://dc.lft.to/lastmile_qr_scan"}}, {"name": "17f6bfcecefad8da430877c2679e5cf3", "fusion_lat": 0.0, "type": "electric_scooter", "lat": 38.897318, "is_reserved": 0, "is_disabled": 0, "fusion_lon": 0.0, "bike_id": "17f6bfcecefad8da430877c2679e5cf3", "lon": -77.04656416666667, "rental_uris": {"ios": "https://dc.lft.to/lastmile_qr_scan", "android": "https://dc.lft.to/lastmile_qr_scan"}}, {"name": "2952a9aa6bcf539e1a2ecfdfdce3790d", "fusion_lat": 0.0, "type": "electric_scooter", "lat": 38.89651033333333, "is_reserved": 0, "is_disabled": 0, "fusion_lon": 0.0, "bike_id": "2952a9aa6bcf539e1a2ecfdfdce3790d", "lon": -77.04910766666667, "rental_uris": {"ios": "https://dc.lft.to/lastmile_qr_scan", "android": "https://dc.lft.to/lastmile_qr_scan"}}, {"name": "154da8daa835410dd33241c752fe3d4d", "fusion_lat": 0.0, "type": "electric_scooter", "lat": 38.892274666666665, "is_reserved": 0, "is_disabled": 0, "fusion_lon": 0.0, "bike_id": "154da8daa835410dd33241c752fe3d4d", "lon": -77.04509166666666, "rental_uris": {"ios": "https://dc.lft.to/lastmile_qr_scan", "android": "https://dc.lft.to/lastmile_qr_scan"}}, {"name": "b9bbadb2bcd474d18e8f37c30ac2c73e", "fusion_lat": 0.0, "type": "electric_scooter", "lat": 38.94978716666667, "is_reserved": 0, "is_disabled": 0, "fusion_lon": 0.0, "bike_id": "b9bbadb2bcd474d18e8f37c30ac2c73e", "lon": -77.03497533333334, "rental_uris": {"ios": "https://dc.lft.to/lastmile_qr_scan", "android": "https://dc.lft.to/lastmile_qr_scan"}}, {"name": "08f02292a26c3cedb5553594b1eff681", "fusion_lat": 0.0, "type": "electric_scooter", "lat": 38.9243065, "is_reserved": 0, "is_disabled": 0, "fusion_lon": 0.0, "bike_id": "08f02292a26c3cedb5553594b1eff681", "lon": -77.05176783333333, "rental_uris": {"ios": "https://dc.lft.to/lastmile_qr_scan", "android": "https://dc.lft.to/lastmile_qr_scan"}}, {"name": "e2d409c51f9508a62bd46a0eb8223066", "fusion_lat": 0.0, "type": "electric_bike", "lat": 38.953615, "is_reserved": 0, "is_disabled": 0, "fusion_lon": 0.0, "bike_id": "e2d409c51f9508a62bd46a0eb8223066", "lon": -77.08861033333334, "rental_uris": {"ios": "https://dc.lft.to/lastmile_qr_scan", "android": "https://dc.lft.to/lastmile_qr_scan"}}, {"name": "cd654dfe5b71344ec094875da5e84d47", "fusion_lat": 0.0, "type": "electric_scooter", "lat": 38.90469516666667, "is_reserved": 0, "is_disabled": 0, "fusion_lon": 0.0, "bike_id": "cd654dfe5b71344ec094875da5e84d47", "lon": -77.04151716666667, "rental_uris": {"ios": "https://dc.lft.to/lastmile_qr_scan", "android": "https://dc.lft.to/lastmile_qr_scan"}}, {"name": "7a29f034c137728be62be863b1cbbe36", "fusion_lat": 0.0, "type": "electric_scooter", "lat": 38.89539, "is_reserved": 0, "is_disabled": 0, "fusion_lon": 0.0, "bike_id": "7a29f034c137728be62be863b1cbbe36", "lon": -77.03100033333334, "rental_uris": {"ios": "https://dc.lft.to/lastmile_qr_scan", "android": "https://dc.lft.to/lastmile_qr_scan"}}, {"name": "b00a929d992d697f4021839f29d14098", "fusion_lat": 0.0, "type": "electric_scooter", "lat": 38.90957566666667, "is_reserved": 0, "is_disabled": 0, "fusion_lon": 0.0, "bike_id": "b00a929d992d697f4021839f29d14098", "lon": -77.04476516666666, "rental_uris": {"ios": "https://dc.lft.to/lastmile_qr_scan", "android": "https://dc.lft.to/lastmile_qr_scan"}}, {"name": "69b4912bc388600c0365d7639f7301c5", "fusion_lat": 0.0, "type": "electric_scooter", "lat": 38.91921583333333, "is_reserved": 0, "is_disabled": 0, "fusion_lon": 0.0, "bike_id": "69b4912bc388600c0365d7639f7301c5", "lon": -77.02355266666666, "rental_uris": {"ios": "https://dc.lft.to/lastmile_qr_scan", "android": "https://dc.lft.to/lastmile_qr_scan"}}, {"name": "0c03c94754d42571c7a3059b75b09c24", "fusion_lat": 0.0, "type": "electric_scooter", "lat": 38.91695166666667, "is_reserved": 0, "is_disabled": 0, "fusion_lon": 0.0, "bike_id": "0c03c94754d42571c7a3059b75b09c24", "lon": -77.03941366666666, "rental_uris": {"ios": "https://dc.lft.to/lastmile_qr_scan", "android": "https://dc.lft.to/lastmile_qr_scan"}}, {"name": "9832a604e2b21a07d519945bcdede42b", "fusion_lat": 0.0, "type": "electric_scooter", "lat": 38.91411816666667, "is_reserved": 0, "is_disabled": 0, "fusion_lon": 0.0, "bike_id": "9832a604e2b21a07d519945bcdede42b", "lon": -77.00974366666667, "rental_uris": {"ios": "https://dc.lft.to/lastmile_qr_scan", "android": "https://dc.lft.to/lastmile_qr_scan"}}, {"name": "082c3b91336702e4f38b6d81cd55cd06", "fusion_lat": 0.0, "type": "electric_scooter", "lat": 38.9187255, "is_reserved": 0, "is_disabled": 0, "fusion_lon": 0.0, "bike_id": "082c3b91336702e4f38b6d81cd55cd06", "lon": -77.0350525, "rental_uris": {"ios": "https://dc.lft.to/lastmile_qr_scan", "android": "https://dc.lft.to/lastmile_qr_scan"}}, {"name": "54b39e915bd809466056666f9ab8b3a8", "fusion_lat": 0.0, "type": "electric_bike", "lat": 38.896491833333336, "is_reserved": 0, "is_disabled": 0, "fusion_lon": 0.0, "bike_id": "54b39e915bd809466056666f9ab8b3a8", "lon": -77.10456166666667, "rental_uris": {"ios": "https://dc.lft.to/lastmile_qr_scan", "android": "https://dc.lft.to/lastmile_qr_scan"}}, {"name": "dd6d36ded631bb0ea9f2ba4a02f43e43", "fusion_lat": 0.0, "type": "electric_scooter", "lat": 38.8959155, "is_reserved": 0, "is_disabled": 0, "fusion_lon": 0.0, "bike_id": "dd6d36ded631bb0ea9f2ba4a02f43e43", "lon": -76.94861533333334, "rental_uris": {"ios": "https://dc.lft.to/lastmile_qr_scan", "android": "https://dc.lft.to/lastmile_qr_scan"}}, {"name": "dcf778565719a13677ef5ef11ef067ea", "fusion_lat": 0.0, "type": "electric_bike", "lat": 38.86873283333333, "is_reserved": 0, "is_disabled": 0, "fusion_lon": 0.0, "bike_id": "dcf778565719a13677ef5ef11ef067ea", "lon": -76.916653, "rental_uris": {"ios": "https://dc.lft.to/lastmile_qr_scan", "android": "https://dc.lft.to/lastmile_qr_scan"}}, {"name": "d167d83ae8e640d34b454e2ec5d043f6", "fusion_lat": 0.0, "type": "electric_scooter", "lat": 38.92360133333333, "is_reserved": 0, "is_disabled": 0, "fusion_lon": 0.0, "bike_id": "d167d83ae8e640d34b454e2ec5d043f6", "lon": -77.05062766666667, "rental_uris": {"ios": "https://dc.lft.to/lastmile_qr_scan", "android": "https://dc.lft.to/lastmile_qr_scan"}}, {"name": "4da175abd53d26f1b4ef217d5db3db68", "fusion_lat": 0.0, "type": "electric_scooter", "lat": 38.87475933333333, "is_reserved": 0, "is_disabled": 0, "fusion_lon": 0.0, "bike_id": "4da175abd53d26f1b4ef217d5db3db68", "lon": -77.01064316666667, "rental_uris": {"ios": "https://dc.lft.to/lastmile_qr_scan", "android": "https://dc.lft.to/lastmile_qr_scan"}}, {"name": "595420212f171108e41b427a7b81a93b", "fusion_lat": 0.0, "type": "electric_scooter", "lat": 38.92184366666667, "is_reserved": 0, "is_disabled": 0, "fusion_lon": 0.0, "bike_id": "595420212f171108e41b427a7b81a93b", "lon": -77.02414166666667, "rental_uris": {"ios": "https://dc.lft.to/lastmile_qr_scan", "android": "https://dc.lft.to/lastmile_qr_scan"}}, {"name": "078877025d726d192d0f7630ea2f1338", "fusion_lat": 0.0, "type": "electric_scooter", "lat": 38.908062666666666, "is_reserved": 0, "is_disabled": 0, "fusion_lon": 0.0, "bike_id": "078877025d726d192d0f7630ea2f1338", "lon": -77.03823116666666, "rental_uris": {"ios": "https://dc.lft.to/lastmile_qr_scan", "android": "https://dc.lft.to/lastmile_qr_scan"}}, {"name": "1245c8f7f67bd68d773449150085542e", "fusion_lat": 0.0, "type": "electric_scooter", "lat": 38.9154365, "is_reserved": 0, "is_disabled": 0, "fusion_lon": 0.0, "bike_id": "1245c8f7f67bd68d773449150085542e", "lon": -77.03863766666667, "rental_uris": {"ios": "https://dc.lft.to/lastmile_qr_scan", "android": "https://dc.lft.to/lastmile_qr_scan"}}, {"name": "c170620d32a58037f9f2dc7f3860c580", "fusion_lat": 0.0, "type": "electric_scooter", "lat": 38.90586583333334, "is_reserved": 0, "is_disabled": 0, "fusion_lon": 0.0, "bike_id": "c170620d32a58037f9f2dc7f3860c580", "lon": -77.00260983333334, "rental_uris": {"ios": "https://dc.lft.to/lastmile_qr_scan", "android": "https://dc.lft.to/lastmile_qr_scan"}}, {"name": "5336ef02591eb54e83f73bef6e886575", "fusion_lat": 0.0, "type": "electric_scooter", "lat": 38.91195333333334, "is_reserved": 0, "is_disabled": 0, "fusion_lon": 0.0, "bike_id": "5336ef02591eb54e83f73bef6e886575", "lon": -77.01891583333334, "rental_uris": {"ios": "https://dc.lft.to/lastmile_qr_scan", "android": "https://dc.lft.to/lastmile_qr_scan"}}, {"name": "a523b3f1170fe2550bb3275ac24accc1", "fusion_lat": 0.0, "type": "electric_scooter", "lat": 38.893625666666665, "is_reserved": 0, "is_disabled": 0, "fusion_lon": 0.0, "bike_id": "a523b3f1170fe2550bb3275ac24accc1", "lon": -77.04663433333333, "rental_uris": {"ios": "https://dc.lft.to/lastmile_qr_scan", "android": "https://dc.lft.to/lastmile_qr_scan"}}, {"name": "c897ae46ac9c9f5d4f77c4b9f9a36cdf", "fusion_lat": 0.0, "type": "electric_scooter", "lat": 38.910531, "is_reserved": 0, "is_disabled": 0, "fusion_lon": 0.0, "bike_id": "c897ae46ac9c9f5d4f77c4b9f9a36cdf", "lon": -77.04581016666667, "rental_uris": {"ios": "https://dc.lft.to/lastmile_qr_scan", "android": "https://dc.lft.to/lastmile_qr_scan"}}, {"name": "8e683c9dfa5ee633cdd186baaaa4ba33", "fusion_lat": 0.0, "type": "electric_scooter", "lat": 38.91706033333333, "is_reserved": 0, "is_disabled": 0, "fusion_lon": 0.0, "bike_id": "8e683c9dfa5ee633cdd186baaaa4ba33", "lon": -77.03141116666667, "rental_uris": {"ios": "https://dc.lft.to/lastmile_qr_scan", "android": "https://dc.lft.to/lastmile_qr_scan"}}, {"name": "575251376de347333dfc2dc5c9ac9cac", "fusion_lat": 0.0, "type": "electric_bike", "lat": 38.881244, "is_reserved": 0, "is_disabled": 0, "fusion_lon": 0.0, "bike_id": "575251376de347333dfc2dc5c9ac9cac", "lon": -77.01297816666667, "rental_uris": {"ios": "https://dc.lft.to/lastmile_qr_scan", "android": "https://dc.lft.to/lastmile_qr_scan"}}, {"name": "04d1ca1570ea4709072d7107e95886c3", "fusion_lat": 0.0, "type": "electric_scooter", "lat": 38.918805666666664, "is_reserved": 0, "is_disabled": 0, "fusion_lon": 0.0, "bike_id": "04d1ca1570ea4709072d7107e95886c3", "lon": -77.04315466666667, "rental_uris": {"ios": "https://dc.lft.to/lastmile_qr_scan", "android": "https://dc.lft.to/lastmile_qr_scan"}}, {"name": "2ff68f51b3f176b023d2b18b5bb478b9", "fusion_lat": 0.0, "type": "electric_scooter", "lat": 38.912711333333334, "is_reserved": 0, "is_disabled": 0, "fusion_lon": 0.0, "bike_id": "2ff68f51b3f176b023d2b18b5bb478b9", "lon": -77.029535, "rental_uris": {"ios": "https://dc.lft.to/lastmile_qr_scan", "android": "https://dc.lft.to/lastmile_qr_scan"}}, {"name": "2d537d49c18bdd0481b1dd4e2ef1a28f", "fusion_lat": 0.0, "type": "electric_scooter", "lat": 38.90680783333333, "is_reserved": 0, "is_disabled": 0, "fusion_lon": 0.0, "bike_id": "2d537d49c18bdd0481b1dd4e2ef1a28f", "lon": -77.03477683333334, "rental_uris": {"ios": "https://dc.lft.to/lastmile_qr_scan", "android": "https://dc.lft.to/lastmile_qr_scan"}}, {"name": "d45dd5788133f2e37f750d712641bbff", "fusion_lat": 0.0, "type": "electric_scooter", "lat": 38.87376283333333, "is_reserved": 0, "is_disabled": 0, "fusion_lon": 0.0, "bike_id": "d45dd5788133f2e37f750d712641bbff", "lon": -77.00033833333333, "rental_uris": {"ios": "https://dc.lft.to/lastmile_qr_scan", "android": "https://dc.lft.to/lastmile_qr_scan"}}, {"name": "1a149128e81690928c99c520c399a551", "fusion_lat": 0.0, "type": "electric_scooter", "lat": 38.880532333333335, "is_reserved": 0, "is_disabled": 0, "fusion_lon": 0.0, "bike_id": "1a149128e81690928c99c520c399a551", "lon": -77.0248515, "rental_uris": {"ios": "https://dc.lft.to/lastmile_qr_scan", "android": "https://dc.lft.to/lastmile_qr_scan"}}, {"name": "c0e76e3d93c252157f09c0f0e50ea6b9", "fusion_lat": 0.0, "type": "electric_scooter", "lat": 38.916182666666664, "is_reserved": 0, "is_disabled": 0, "fusion_lon": 0.0, "bike_id": "c0e76e3d93c252157f09c0f0e50ea6b9", "lon": -77.03206766666666, "rental_uris": {"ios": "https://dc.lft.to/lastmile_qr_scan", "android": "https://dc.lft.to/lastmile_qr_scan"}}, {"name": "76b46f753c3754f0b0d033cb8f28d4e5", "fusion_lat": 0.0, "type": "electric_bike", "lat": 38.8808175, "is_reserved": 0, "is_disabled": 0, "fusion_lon": 0.0, "bike_id": "76b46f753c3754f0b0d033cb8f28d4e5", "lon": -76.9853405, "rental_uris": {"ios": "https://dc.lft.to/lastmile_qr_scan", "android": "https://dc.lft.to/lastmile_qr_scan"}}, {"name": "3db87ed78b4f7f553dc0887d0cb2e23c", "fusion_lat": 0.0, "type": "electric_scooter", "lat": 38.90422083333333, "is_reserved": 0, "is_disabled": 0, "fusion_lon": 0.0, "bike_id": "3db87ed78b4f7f553dc0887d0cb2e23c", "lon": -77.0342635, "rental_uris": {"ios": "https://dc.lft.to/lastmile_qr_scan", "android": "https://dc.lft.to/lastmile_qr_scan"}}, {"name": "9263f75a21b5c91bf611493d177dd73b", "fusion_lat": 0.0, "type": "electric_scooter", "lat": 38.909482, "is_reserved": 0, "is_disabled": 0, "fusion_lon": 0.0, "bike_id": "9263f75a21b5c91bf611493d177dd73b", "lon": -77.02765233333334, "rental_uris": {"ios": "https://dc.lft.to/lastmile_qr_scan", "android": "https://dc.lft.to/lastmile_qr_scan"}}, {"name": "e8ea30da06b5e5fdd8fc88acaa8d6114", "fusion_lat": 0.0, "type": "electric_scooter", "lat": 38.90577483333333, "is_reserved": 0, "is_disabled": 0, "fusion_lon": 0.0, "bike_id": "e8ea30da06b5e5fdd8fc88acaa8d6114", "lon": -77.02606583333333, "rental_uris": {"ios": "https://dc.lft.to/lastmile_qr_scan", "android": "https://dc.lft.to/lastmile_qr_scan"}}, {"name": "b1ba35c5c840e28ab28e4e227ce32586", "fusion_lat": 0.0, "type": "electric_bike", "lat": 39.038625, "is_reserved": 0, "is_disabled": 0, "fusion_lon": 0.0, "bike_id": "b1ba35c5c840e28ab28e4e227ce32586", "lon": -76.9903475, "rental_uris": {"ios": "https://dc.lft.to/lastmile_qr_scan", "android": "https://dc.lft.to/lastmile_qr_scan"}}, {"name": "b59a5b39ef068548cd16ce4a5644a3e0", "fusion_lat": 0.0, "type": "electric_scooter", "lat": 38.903593666666666, "is_reserved": 0, "is_disabled": 0, "fusion_lon": 0.0, "bike_id": "b59a5b39ef068548cd16ce4a5644a3e0", "lon": -77.05339266666667, "rental_uris": {"ios": "https://dc.lft.to/lastmile_qr_scan", "android": "https://dc.lft.to/lastmile_qr_scan"}}, {"name": "1cd02906df21fb913a5a4e83e0982a1f", "fusion_lat": 0.0, "type": "electric_scooter", "lat": 38.92432633333333, "is_reserved": 0, "is_disabled": 0, "fusion_lon": 0.0, "bike_id": "1cd02906df21fb913a5a4e83e0982a1f", "lon": -77.04127466666667, "rental_uris": {"ios": "https://dc.lft.to/lastmile_qr_scan", "android": "https://dc.lft.to/lastmile_qr_scan"}}, {"name": "bb6a5b3bd13728497b8d0451882430f5", "fusion_lat": 0.0, "type": "electric_scooter", "lat": 38.9206025, "is_reserved": 0, "is_disabled": 0, "fusion_lon": 0.0, "bike_id": "bb6a5b3bd13728497b8d0451882430f5", "lon": -77.04706766666666, "rental_uris": {"ios": "https://dc.lft.to/lastmile_qr_scan", "android": "https://dc.lft.to/lastmile_qr_scan"}}, {"name": "2aaaaccd15d461650ed78fa66c3fa84e", "fusion_lat": 0.0, "type": "electric_bike", "lat": 38.965490333333335, "is_reserved": 0, "is_disabled": 0, "fusion_lon": 0.0, "bike_id": "2aaaaccd15d461650ed78fa66c3fa84e", "lon": -77.035157, "rental_uris": {"ios": "https://dc.lft.to/lastmile_qr_scan", "android": "https://dc.lft.to/lastmile_qr_scan"}}, {"name": "5e9a7cf2928c0a0fe818a69e8e37cdb1", "fusion_lat": 0.0, "type": "electric_scooter", "lat": 38.9198895, "is_reserved": 0, "is_disabled": 0, "fusion_lon": 0.0, "bike_id": "5e9a7cf2928c0a0fe818a69e8e37cdb1", "lon": -77.033164, "rental_uris": {"ios": "https://dc.lft.to/lastmile_qr_scan", "android": "https://dc.lft.to/lastmile_qr_scan"}}, {"name": "6dec566861628bcad7c4f025e821a4ea", "fusion_lat": 0.0, "type": "electric_scooter", "lat": 38.93177466666667, "is_reserved": 0, "is_disabled": 0, "fusion_lon": 0.0, "bike_id": "6dec566861628bcad7c4f025e821a4ea", "lon": -77.056139, "rental_uris": {"ios": "https://dc.lft.to/lastmile_qr_scan", "android": "https://dc.lft.to/lastmile_qr_scan"}}, {"name": "efe52a0c84ca05db14b6774a4cba7398", "fusion_lat": 0.0, "type": "electric_scooter", "lat": 38.92758666666667, "is_reserved": 0, "is_disabled": 0, "fusion_lon": 0.0, "bike_id": "efe52a0c84ca05db14b6774a4cba7398", "lon": -77.0327185, "rental_uris": {"ios": "https://dc.lft.to/lastmile_qr_scan", "android": "https://dc.lft.to/lastmile_qr_scan"}}, {"name": "f9d343c1682306a8b9605a34d4be02ac", "fusion_lat": 0.0, "type": "electric_scooter", "lat": 38.862162833333336, "is_reserved": 0, "is_disabled": 0, "fusion_lon": 0.0, "bike_id": "f9d343c1682306a8b9605a34d4be02ac", "lon": -76.97370766666667, "rental_uris": {"ios": "https://dc.lft.to/lastmile_qr_scan", "android": "https://dc.lft.to/lastmile_qr_scan"}}, {"name": "8c8b2b334784b0a2910494716d02c18d", "fusion_lat": 0.0, "type": "electric_scooter", "lat": 38.9086885, "is_reserved": 0, "is_disabled": 0, "fusion_lon": 0.0, "bike_id": "8c8b2b334784b0a2910494716d02c18d", "lon": -77.0450725, "rental_uris": {"ios": "https://dc.lft.to/lastmile_qr_scan", "android": "https://dc.lft.to/lastmile_qr_scan"}}, {"name": "b15bfd05775368ed1c342cdf6f8d0707", "fusion_lat": 0.0, "type": "electric_scooter", "lat": 38.8908675, "is_reserved": 0, "is_disabled": 0, "fusion_lon": 0.0, "bike_id": "b15bfd05775368ed1c342cdf6f8d0707", "lon": -76.99785866666667, "rental_uris": {"ios": "https://dc.lft.to/lastmile_qr_scan", "android": "https://dc.lft.to/lastmile_qr_scan"}}, {"name": "760d87eb578fdd68913072d5075de8e5", "fusion_lat": 0.0, "type": "electric_scooter", "lat": 38.90031666666667, "is_reserved": 0, "is_disabled": 0, "fusion_lon": 0.0, "bike_id": "760d87eb578fdd68913072d5075de8e5", "lon": -77.029839, "rental_uris": {"ios": "https://dc.lft.to/lastmile_qr_scan", "android": "https://dc.lft.to/lastmile_qr_scan"}}, {"name": "79fd4e481242f40e25befcecc8b35869", "fusion_lat": 0.0, "type": "electric_scooter", "lat": 38.89735016666667, "is_reserved": 0, "is_disabled": 0, "fusion_lon": 0.0, "bike_id": "79fd4e481242f40e25befcecc8b35869", "lon": -77.04728366666667, "rental_uris": {"ios": "https://dc.lft.to/lastmile_qr_scan", "android": "https://dc.lft.to/lastmile_qr_scan"}}, {"name": "1a240ddf233592b9292a21d581a563b0", "fusion_lat": 0.0, "type": "electric_scooter", "lat": 38.9084345, "is_reserved": 0, "is_disabled": 0, "fusion_lon": 0.0, "bike_id": "1a240ddf233592b9292a21d581a563b0", "lon": -77.03281983333333, "rental_uris": {"ios": "https://dc.lft.to/lastmile_qr_scan", "android": "https://dc.lft.to/lastmile_qr_scan"}}, {"name": "2eaa81de25b3d80b20b41d45657a5d12", "fusion_lat": 0.0, "type": "electric_bike", "lat": 38.928449666666666, "is_reserved": 0, "is_disabled": 0, "fusion_lon": 0.0, "bike_id": "2eaa81de25b3d80b20b41d45657a5d12", "lon": -77.10510083333334, "rental_uris": {"ios": "https://dc.lft.to/lastmile_qr_scan", "android": "https://dc.lft.to/lastmile_qr_scan"}}, {"name": "97b5cc128ef3736a1c1b96c2ad691601", "fusion_lat": 0.0, "type": "electric_scooter", "lat": 38.905620166666665, "is_reserved": 0, "is_disabled": 0, "fusion_lon": 0.0, "bike_id": "97b5cc128ef3736a1c1b96c2ad691601", "lon": -77.02219066666666, "rental_uris": {"ios": "https://dc.lft.to/lastmile_qr_scan", "android": "https://dc.lft.to/lastmile_qr_scan"}}, {"name": "1a3c46c3da7f7108139b21d58accf056", "fusion_lat": 0.0, "type": "electric_scooter", "lat": 38.9085025, "is_reserved": 0, "is_disabled": 0, "fusion_lon": 0.0, "bike_id": "1a3c46c3da7f7108139b21d58accf056", "lon": -77.04346816666667, "rental_uris": {"ios": "https://dc.lft.to/lastmile_qr_scan", "android": "https://dc.lft.to/lastmile_qr_scan"}}, {"name": "e1587dd13f5ecda5ffc96288f24431df", "fusion_lat": 0.0, "type": "electric_scooter", "lat": 38.925972, "is_reserved": 0, "is_disabled": 0, "fusion_lon": 0.0, "bike_id": "e1587dd13f5ecda5ffc96288f24431df", "lon": -77.00855783333333, "rental_uris": {"ios": "https://dc.lft.to/lastmile_qr_scan", "android": "https://dc.lft.to/lastmile_qr_scan"}}, {"name": "5f2bf095074d40e5e77fd01eb911244c", "fusion_lat": 0.0, "type": "electric_scooter", "lat": 38.93029633333333, "is_reserved": 0, "is_disabled": 0, "fusion_lon": 0.0, "bike_id": "5f2bf095074d40e5e77fd01eb911244c", "lon": -77.08365, "rental_uris": {"ios": "https://dc.lft.to/lastmile_qr_scan", "android": "https://dc.lft.to/lastmile_qr_scan"}}, {"name": "978be6b1acefde47bb1d18a49cc0fc5e", "fusion_lat": 0.0, "type": "electric_scooter", "lat": 38.918170833333335, "is_reserved": 0, "is_disabled": 0, "fusion_lon": 0.0, "bike_id": "978be6b1acefde47bb1d18a49cc0fc5e", "lon": -77.0321305, "rental_uris": {"ios": "https://dc.lft.to/lastmile_qr_scan", "android": "https://dc.lft.to/lastmile_qr_scan"}}, {"name": "4cdb711d5238dc6a03e07e8d14b475f9", "fusion_lat": 0.0, "type": "electric_scooter", "lat": 38.90231816666667, "is_reserved": 0, "is_disabled": 0, "fusion_lon": 0.0, "bike_id": "4cdb711d5238dc6a03e07e8d14b475f9", "lon": -77.05146, "rental_uris": {"ios": "https://dc.lft.to/lastmile_qr_scan", "android": "https://dc.lft.to/lastmile_qr_scan"}}, {"name": "9a051be4d19282dbf347a396fcabc66b", "fusion_lat": 0.0, "type": "electric_scooter", "lat": 38.924849, "is_reserved": 0, "is_disabled": 0, "fusion_lon": 0.0, "bike_id": "9a051be4d19282dbf347a396fcabc66b", "lon": -77.02997916666666, "rental_uris": {"ios": "https://dc.lft.to/lastmile_qr_scan", "android": "https://dc.lft.to/lastmile_qr_scan"}}, {"name": "07b0cf0474f32dd25030ebe099d188d8", "fusion_lat": 0.0, "type": "electric_scooter", "lat": 38.897599166666666, "is_reserved": 0, "is_disabled": 0, "fusion_lon": 0.0, "bike_id": "07b0cf0474f32dd25030ebe099d188d8", "lon": -77.05154666666667, "rental_uris": {"ios": "https://dc.lft.to/lastmile_qr_scan", "android": "https://dc.lft.to/lastmile_qr_scan"}}, {"name": "01b28df69b2159e1eef3172217f181b0", "fusion_lat": 0.0, "type": "electric_scooter", "lat": 38.91174266666667, "is_reserved": 0, "is_disabled": 0, "fusion_lon": 0.0, "bike_id": "01b28df69b2159e1eef3172217f181b0", "lon": -76.98774483333334, "rental_uris": {"ios": "https://dc.lft.to/lastmile_qr_scan", "android": "https://dc.lft.to/lastmile_qr_scan"}}, {"name": "aef3e3bd0adf6b38692e4e6849c1fc35", "fusion_lat": 0.0, "type": "electric_bike", "lat": 38.8882255, "is_reserved": 0, "is_disabled": 0, "fusion_lon": 0.0, "bike_id": "aef3e3bd0adf6b38692e4e6849c1fc35", "lon": -77.12739366666666, "rental_uris": {"ios": "https://dc.lft.to/lastmile_qr_scan", "android": "https://dc.lft.to/lastmile_qr_scan"}}, {"name": "30b60293045f3d143d51993038971c18", "fusion_lat": 0.0, "type": "electric_scooter", "lat": 38.915538833333336, "is_reserved": 0, "is_disabled": 0, "fusion_lon": 0.0, "bike_id": "30b60293045f3d143d51993038971c18", "lon": -77.03240233333334, "rental_uris": {"ios": "https://dc.lft.to/lastmile_qr_scan", "android": "https://dc.lft.to/lastmile_qr_scan"}}, {"name": "52d03dbc2377360341ce96a7459e691f", "fusion_lat": 0.0, "type": "electric_scooter", "lat": 38.89221033333333, "is_reserved": 0, "is_disabled": 0, "fusion_lon": 0.0, "bike_id": "52d03dbc2377360341ce96a7459e691f", "lon": -77.0223045, "rental_uris": {"ios": "https://dc.lft.to/lastmile_qr_scan", "android": "https://dc.lft.to/lastmile_qr_scan"}}, {"name": "416a1cb7dedf311afa14ac4a779fd91d", "fusion_lat": 0.0, "type": "electric_scooter", "lat": 38.91281566666667, "is_reserved": 0, "is_disabled": 0, "fusion_lon": 0.0, "bike_id": "416a1cb7dedf311afa14ac4a779fd91d", "lon": -76.93800083333333, "rental_uris": {"ios": "https://dc.lft.to/lastmile_qr_scan", "android": "https://dc.lft.to/lastmile_qr_scan"}}, {"name": "39a755789d08ffc0fb8c0b2ceacf72cc", "fusion_lat": 0.0, "type": "electric_scooter", "lat": 38.938941666666665, "is_reserved": 0, "is_disabled": 0, "fusion_lon": 0.0, "bike_id": "39a755789d08ffc0fb8c0b2ceacf72cc", "lon": -77.017611, "rental_uris": {"ios": "https://dc.lft.to/lastmile_qr_scan", "android": "https://dc.lft.to/lastmile_qr_scan"}}, {"name": "29a6dbcf44990c91cb7e487fda082b67", "fusion_lat": 0.0, "type": "electric_scooter", "lat": 38.89966783333333, "is_reserved": 0, "is_disabled": 0, "fusion_lon": 0.0, "bike_id": "29a6dbcf44990c91cb7e487fda082b67", "lon": -77.03971183333333, "rental_uris": {"ios": "https://dc.lft.to/lastmile_qr_scan", "android": "https://dc.lft.to/lastmile_qr_scan"}}, {"name": "428358ea286dd5ddf51da57fa1e37a03", "fusion_lat": 0.0, "type": "electric_scooter", "lat": 38.926680833333336, "is_reserved": 0, "is_disabled": 0, "fusion_lon": 0.0, "bike_id": "428358ea286dd5ddf51da57fa1e37a03", "lon": -76.99531483333334, "rental_uris": {"ios": "https://dc.lft.to/lastmile_qr_scan", "android": "https://dc.lft.to/lastmile_qr_scan"}}, {"name": "df5f26c85e8b0fd8002b4d51aa2f1563", "fusion_lat": 0.0, "type": "electric_scooter", "lat": 38.9209075, "is_reserved": 0, "is_disabled": 0, "fusion_lon": 0.0, "bike_id": "df5f26c85e8b0fd8002b4d51aa2f1563", "lon": -77.075614, "rental_uris": {"ios": "https://dc.lft.to/lastmile_qr_scan", "android": "https://dc.lft.to/lastmile_qr_scan"}}, {"name": "0b56b2342606f4602feba4f963930aee", "fusion_lat": 0.0, "type": "electric_scooter", "lat": 38.901337833333336, "is_reserved": 0, "is_disabled": 0, "fusion_lon": 0.0, "bike_id": "0b56b2342606f4602feba4f963930aee", "lon": -77.03211066666667, "rental_uris": {"ios": "https://dc.lft.to/lastmile_qr_scan", "android": "https://dc.lft.to/lastmile_qr_scan"}}, {"name": "0e577a749e94c5436b5b80f6c05787e4", "fusion_lat": 0.0, "type": "electric_scooter", "lat": 38.9272405, "is_reserved": 0, "is_disabled": 0, "fusion_lon": 0.0, "bike_id": "0e577a749e94c5436b5b80f6c05787e4", "lon": -77.03520133333333, "rental_uris": {"ios": "https://dc.lft.to/lastmile_qr_scan", "android": "https://dc.lft.to/lastmile_qr_scan"}}, {"name": "db1a117607a2bce32b7f912a813b61d0", "fusion_lat": 0.0, "type": "electric_scooter", "lat": 38.91138766666667, "is_reserved": 0, "is_disabled": 0, "fusion_lon": 0.0, "bike_id": "db1a117607a2bce32b7f912a813b61d0", "lon": -77.01680833333333, "rental_uris": {"ios": "https://dc.lft.to/lastmile_qr_scan", "android": "https://dc.lft.to/lastmile_qr_scan"}}, {"name": "683e1f4d239ebc2dcdbb380997015962", "fusion_lat": 0.0, "type": "electric_scooter", "lat": 38.8840975, "is_reserved": 0, "is_disabled": 0, "fusion_lon": 0.0, "bike_id": "683e1f4d239ebc2dcdbb380997015962", "lon": -77.01739516666666, "rental_uris": {"ios": "https://dc.lft.to/lastmile_qr_scan", "android": "https://dc.lft.to/lastmile_qr_scan"}}, {"name": "8685ab801e04b75a9a04f87b7307685d", "fusion_lat": 0.0, "type": "electric_scooter", "lat": 38.92932533333333, "is_reserved": 0, "is_disabled": 0, "fusion_lon": 0.0, "bike_id": "8685ab801e04b75a9a04f87b7307685d", "lon": -77.0367055, "rental_uris": {"ios": "https://dc.lft.to/lastmile_qr_scan", "android": "https://dc.lft.to/lastmile_qr_scan"}}, {"name": "a092d4ce2ab755e3e0e37e19fa9a23b5", "fusion_lat": 0.0, "type": "electric_scooter", "lat": 38.9026225, "is_reserved": 0, "is_disabled": 0, "fusion_lon": 0.0, "bike_id": "a092d4ce2ab755e3e0e37e19fa9a23b5", "lon": -77.00209833333334, "rental_uris": {"ios": "https://dc.lft.to/lastmile_qr_scan", "android": "https://dc.lft.to/lastmile_qr_scan"}}, {"name": "553c5f2923af7d320d819c04221a6e10", "fusion_lat": 0.0, "type": "electric_scooter", "lat": 38.92240616666667, "is_reserved": 0, "is_disabled": 0, "fusion_lon": 0.0, "bike_id": "553c5f2923af7d320d819c04221a6e10", "lon": -77.07313016666667, "rental_uris": {"ios": "https://dc.lft.to/lastmile_qr_scan", "android": "https://dc.lft.to/lastmile_qr_scan"}}, {"name": "ceeb10fe813b4eea3ba4851ec4285dd6", "fusion_lat": 0.0, "type": "electric_scooter", "lat": 38.913283166666666, "is_reserved": 0, "is_disabled": 0, "fusion_lon": 0.0, "bike_id": "ceeb10fe813b4eea3ba4851ec4285dd6", "lon": -77.0318385, "rental_uris": {"ios": "https://dc.lft.to/lastmile_qr_scan", "android": "https://dc.lft.to/lastmile_qr_scan"}}, {"name": "d371d96962ca85afcfba712821051f11", "fusion_lat": 0.0, "type": "electric_scooter", "lat": 38.89770383333333, "is_reserved": 0, "is_disabled": 0, "fusion_lon": 0.0, "bike_id": "d371d96962ca85afcfba712821051f11", "lon": -77.051665, "rental_uris": {"ios": "https://dc.lft.to/lastmile_qr_scan", "android": "https://dc.lft.to/lastmile_qr_scan"}}, {"name": "cc8188886859458b103a8713c0950ec6", "fusion_lat": 0.0, "type": "electric_scooter", "lat": 38.8783095, "is_reserved": 0, "is_disabled": 0, "fusion_lon": 0.0, "bike_id": "cc8188886859458b103a8713c0950ec6", "lon": -77.00034866666667, "rental_uris": {"ios": "https://dc.lft.to/lastmile_qr_scan", "android": "https://dc.lft.to/lastmile_qr_scan"}}, {"name": "e20c1882e53e9b841730bcf620e53be8", "fusion_lat": 0.0, "type": "electric_scooter", "lat": 38.902627333333335, "is_reserved": 0, "is_disabled": 0, "fusion_lon": 0.0, "bike_id": "e20c1882e53e9b841730bcf620e53be8", "lon": -77.01762366666667, "rental_uris": {"ios": "https://dc.lft.to/lastmile_qr_scan", "android": "https://dc.lft.to/lastmile_qr_scan"}}, {"name": "5e8e1ad6ec583c8c345ce13e6dd12987", "fusion_lat": 0.0, "type": "electric_scooter", "lat": 38.91699416666667, "is_reserved": 0, "is_disabled": 0, "fusion_lon": 0.0, "bike_id": "5e8e1ad6ec583c8c345ce13e6dd12987", "lon": -77.02906283333333, "rental_uris": {"ios": "https://dc.lft.to/lastmile_qr_scan", "android": "https://dc.lft.to/lastmile_qr_scan"}}, {"name": "3015436c19d8adb1c575fb0534a58d1d", "fusion_lat": 0.0, "type": "electric_bike", "lat": 39.08861666666667, "is_reserved": 0, "is_disabled": 0, "fusion_lon": 0.0, "bike_id": "3015436c19d8adb1c575fb0534a58d1d", "lon": -77.17844216666667, "rental_uris": {"ios": "https://dc.lft.to/lastmile_qr_scan", "android": "https://dc.lft.to/lastmile_qr_scan"}}, {"name": "7fdfb5c34d2b7e7e5f248c3c28db20fe", "fusion_lat": 0.0, "type": "electric_bike", "lat": 38.9352335, "is_reserved": 0, "is_disabled": 0, "fusion_lon": 0.0, "bike_id": "7fdfb5c34d2b7e7e5f248c3c28db20fe", "lon": -76.9506265, "rental_uris": {"ios": "https://dc.lft.to/lastmile_qr_scan", "android": "https://dc.lft.to/lastmile_qr_scan"}}, {"name": "267e201ea7e9df5d20df442e25f12da1", "fusion_lat": 0.0, "type": "electric_scooter", "lat": 38.907027666666664, "is_reserved": 0, "is_disabled": 0, "fusion_lon": 0.0, "bike_id": "267e201ea7e9df5d20df442e25f12da1", "lon": -77.02956316666666, "rental_uris": {"ios": "https://dc.lft.to/lastmile_qr_scan", "android": "https://dc.lft.to/lastmile_qr_scan"}}, {"name": "98e54050f6dfc18ff4f05622f642fa1f", "fusion_lat": 0.0, "type": "electric_scooter", "lat": 38.86696633333333, "is_reserved": 0, "is_disabled": 0, "fusion_lon": 0.0, "bike_id": "98e54050f6dfc18ff4f05622f642fa1f", "lon": -76.98910716666667, "rental_uris": {"ios": "https://dc.lft.to/lastmile_qr_scan", "android": "https://dc.lft.to/lastmile_qr_scan"}}, {"name": "821928ccd97d28feb5d52453316dcd58", "fusion_lat": 0.0, "type": "electric_scooter", "lat": 38.876637333333335, "is_reserved": 0, "is_disabled": 0, "fusion_lon": 0.0, "bike_id": "821928ccd97d28feb5d52453316dcd58", "lon": -77.000692, "rental_uris": {"ios": "https://dc.lft.to/lastmile_qr_scan", "android": "https://dc.lft.to/lastmile_qr_scan"}}, {"name": "4d39d25494480ee92810b26d96fbbec3", "fusion_lat": 0.0, "type": "electric_scooter", "lat": 38.90678333333334, "is_reserved": 0, "is_disabled": 0, "fusion_lon": 0.0, "bike_id": "4d39d25494480ee92810b26d96fbbec3", "lon": -77.03838333333333, "rental_uris": {"ios": "https://dc.lft.to/lastmile_qr_scan", "android": "https://dc.lft.to/lastmile_qr_scan"}}, {"name": "fa94a7ec99e180a505559bbb45971689", "fusion_lat": 0.0, "type": "electric_bike", "lat": 39.05316916666666, "is_reserved": 0, "is_disabled": 0, "fusion_lon": 0.0, "bike_id": "fa94a7ec99e180a505559bbb45971689", "lon": -77.047741, "rental_uris": {"ios": "https://dc.lft.to/lastmile_qr_scan", "android": "https://dc.lft.to/lastmile_qr_scan"}}, {"name": "04b335b3cf446c11eb2086c9ab1e5036", "fusion_lat": 0.0, "type": "electric_scooter", "lat": 38.86537666666667, "is_reserved": 0, "is_disabled": 0, "fusion_lon": 0.0, "bike_id": "04b335b3cf446c11eb2086c9ab1e5036", "lon": -76.987095, "rental_uris": {"ios": "https://dc.lft.to/lastmile_qr_scan", "android": "https://dc.lft.to/lastmile_qr_scan"}}, {"name": "d78aafd0be81dbf1d647c2d5e072048f", "fusion_lat": 0.0, "type": "electric_scooter", "lat": 38.9026985, "is_reserved": 0, "is_disabled": 0, "fusion_lon": 0.0, "bike_id": "d78aafd0be81dbf1d647c2d5e072048f", "lon": -76.98711416666667, "rental_uris": {"ios": "https://dc.lft.to/lastmile_qr_scan", "android": "https://dc.lft.to/lastmile_qr_scan"}}, {"name": "bfbd4a20398a91356b68f67f6aceea39", "fusion_lat": 0.0, "type": "electric_scooter", "lat": 38.900407666666666, "is_reserved": 0, "is_disabled": 0, "fusion_lon": 0.0, "bike_id": "bfbd4a20398a91356b68f67f6aceea39", "lon": -76.9915085, "rental_uris": {"ios": "https://dc.lft.to/lastmile_qr_scan", "android": "https://dc.lft.to/lastmile_qr_scan"}}, {"name": "dc0b194e56322a3378c1eec484c788c2", "fusion_lat": 0.0, "type": "electric_scooter", "lat": 38.923734333333336, "is_reserved": 0, "is_disabled": 0, "fusion_lon": 0.0, "bike_id": "dc0b194e56322a3378c1eec484c788c2", "lon": -77.04100633333333, "rental_uris": {"ios": "https://dc.lft.to/lastmile_qr_scan", "android": "https://dc.lft.to/lastmile_qr_scan"}}, {"name": "80b9bc86b94f1017314bdb225f659437", "fusion_lat": 0.0, "type": "electric_scooter", "lat": 38.918365333333334, "is_reserved": 0, "is_disabled": 0, "fusion_lon": 0.0, "bike_id": "80b9bc86b94f1017314bdb225f659437", "lon": -77.02292583333333, "rental_uris": {"ios": "https://dc.lft.to/lastmile_qr_scan", "android": "https://dc.lft.to/lastmile_qr_scan"}}, {"name": "63347187a5654c701e179f3fb98610c6", "fusion_lat": 0.0, "type": "electric_scooter", "lat": 38.862659, "is_reserved": 0, "is_disabled": 0, "fusion_lon": 0.0, "bike_id": "63347187a5654c701e179f3fb98610c6", "lon": -76.98712866666666, "rental_uris": {"ios": "https://dc.lft.to/lastmile_qr_scan", "android": "https://dc.lft.to/lastmile_qr_scan"}}, {"name": "2b08f2bcd82b8e9767fbe1995ac851b9", "fusion_lat": 0.0, "type": "electric_scooter", "lat": 38.92469916666667, "is_reserved": 0, "is_disabled": 0, "fusion_lon": 0.0, "bike_id": "2b08f2bcd82b8e9767fbe1995ac851b9", "lon": -77.03057133333333, "rental_uris": {"ios": "https://dc.lft.to/lastmile_qr_scan", "android": "https://dc.lft.to/lastmile_qr_scan"}}, {"name": "bc9ceaec544c6eccd51904c9aeefad9f", "fusion_lat": 0.0, "type": "electric_scooter", "lat": 38.90974883333333, "is_reserved": 0, "is_disabled": 0, "fusion_lon": 0.0, "bike_id": "bc9ceaec544c6eccd51904c9aeefad9f", "lon": -77.0466775, "rental_uris": {"ios": "https://dc.lft.to/lastmile_qr_scan", "android": "https://dc.lft.to/lastmile_qr_scan"}}, {"name": "670819a38945bf18ef7f05cc4f97bff2", "fusion_lat": 0.0, "type": "electric_scooter", "lat": 38.91799016666667, "is_reserved": 0, "is_disabled": 0, "fusion_lon": 0.0, "bike_id": "670819a38945bf18ef7f05cc4f97bff2", "lon": -77.02706983333333, "rental_uris": {"ios": "https://dc.lft.to/lastmile_qr_scan", "android": "https://dc.lft.to/lastmile_qr_scan"}}, {"name": "b3cf9881e169ee803857e8f2a8038f7e", "fusion_lat": 0.0, "type": "electric_scooter", "lat": 38.91217, "is_reserved": 0, "is_disabled": 0, "fusion_lon": 0.0, "bike_id": "b3cf9881e169ee803857e8f2a8038f7e", "lon": -77.0384915, "rental_uris": {"ios": "https://dc.lft.to/lastmile_qr_scan", "android": "https://dc.lft.to/lastmile_qr_scan"}}, {"name": "27ade51f713bce266e6571ba6af1628a", "fusion_lat": 0.0, "type": "electric_scooter", "lat": 38.9214375, "is_reserved": 0, "is_disabled": 0, "fusion_lon": 0.0, "bike_id": "27ade51f713bce266e6571ba6af1628a", "lon": -77.04566116666666, "rental_uris": {"ios": "https://dc.lft.to/lastmile_qr_scan", "android": "https://dc.lft.to/lastmile_qr_scan"}}, {"name": "b0e468b8e33223989b55279538510e6a", "fusion_lat": 0.0, "type": "electric_scooter", "lat": 38.8821855, "is_reserved": 0, "is_disabled": 0, "fusion_lon": 0.0, "bike_id": "b0e468b8e33223989b55279538510e6a", "lon": -76.94179516666667, "rental_uris": {"ios": "https://dc.lft.to/lastmile_qr_scan", "android": "https://dc.lft.to/lastmile_qr_scan"}}, {"name": "e4599738f9e675659e0a8087aa38a89c", "fusion_lat": 0.0, "type": "electric_scooter", "lat": 38.92019833333333, "is_reserved": 0, "is_disabled": 0, "fusion_lon": 0.0, "bike_id": "e4599738f9e675659e0a8087aa38a89c", "lon": -77.03186083333334, "rental_uris": {"ios": "https://dc.lft.to/lastmile_qr_scan", "android": "https://dc.lft.to/lastmile_qr_scan"}}, {"name": "d5d925c0d81893ce019b224cfa1a11e1", "fusion_lat": 0.0, "type": "electric_scooter", "lat": 38.92101366666667, "is_reserved": 0, "is_disabled": 0, "fusion_lon": 0.0, "bike_id": "d5d925c0d81893ce019b224cfa1a11e1", "lon": -77.05479216666667, "rental_uris": {"ios": "https://dc.lft.to/lastmile_qr_scan", "android": "https://dc.lft.to/lastmile_qr_scan"}}, {"name": "a50d4818e988e7496a501f00eea209d4", "fusion_lat": 0.0, "type": "electric_scooter", "lat": 38.905598833333336, "is_reserved": 0, "is_disabled": 0, "fusion_lon": 0.0, "bike_id": "a50d4818e988e7496a501f00eea209d4", "lon": -77.02216083333333, "rental_uris": {"ios": "https://dc.lft.to/lastmile_qr_scan", "android": "https://dc.lft.to/lastmile_qr_scan"}}, {"name": "1809f75d7c8704720513bba824215b74", "fusion_lat": 0.0, "type": "electric_scooter", "lat": 38.87358183333333, "is_reserved": 0, "is_disabled": 0, "fusion_lon": 0.0, "bike_id": "1809f75d7c8704720513bba824215b74", "lon": -77.0009595, "rental_uris": {"ios": "https://dc.lft.to/lastmile_qr_scan", "android": "https://dc.lft.to/lastmile_qr_scan"}}, {"name": "e706dd2c812da796ef9c5cfffe94cdcb", "fusion_lat": 0.0, "type": "electric_scooter", "lat": 38.910698833333335, "is_reserved": 0, "is_disabled": 0, "fusion_lon": 0.0, "bike_id": "e706dd2c812da796ef9c5cfffe94cdcb", "lon": -77.008516, "rental_uris": {"ios": "https://dc.lft.to/lastmile_qr_scan", "android": "https://dc.lft.to/lastmile_qr_scan"}}, {"name": "a5062022c839761a1d4f9fee66ae038f", "fusion_lat": 0.0, "type": "electric_scooter", "lat": 38.888252666666666, "is_reserved": 0, "is_disabled": 0, "fusion_lon": 0.0, "bike_id": "a5062022c839761a1d4f9fee66ae038f", "lon": -77.04937366666667, "rental_uris": {"ios": "https://dc.lft.to/lastmile_qr_scan", "android": "https://dc.lft.to/lastmile_qr_scan"}}, {"name": "fe9b3a30ad3222924320bb34c0a8b31b", "fusion_lat": 0.0, "type": "electric_bike", "lat": 38.91548816666667, "is_reserved": 0, "is_disabled": 0, "fusion_lon": 0.0, "bike_id": "fe9b3a30ad3222924320bb34c0a8b31b", "lon": -77.0677255, "rental_uris": {"ios": "https://dc.lft.to/lastmile_qr_scan", "android": "https://dc.lft.to/lastmile_qr_scan"}}, {"name": "328035713325ed4ff4ab4caac05da41e", "fusion_lat": 0.0, "type": "electric_scooter", "lat": 38.92019583333333, "is_reserved": 0, "is_disabled": 0, "fusion_lon": 0.0, "bike_id": "328035713325ed4ff4ab4caac05da41e", "lon": -77.03119033333333, "rental_uris": {"ios": "https://dc.lft.to/lastmile_qr_scan", "android": "https://dc.lft.to/lastmile_qr_scan"}}, {"name": "9992218522452e974108ca57ee693283", "fusion_lat": 0.0, "type": "electric_scooter", "lat": 38.926316, "is_reserved": 0, "is_disabled": 0, "fusion_lon": 0.0, "bike_id": "9992218522452e974108ca57ee693283", "lon": -77.0379375, "rental_uris": {"ios": "https://dc.lft.to/lastmile_qr_scan", "android": "https://dc.lft.to/lastmile_qr_scan"}}, {"name": "5685f0397f2c8691deb81772d21601d4", "fusion_lat": 0.0, "type": "electric_scooter", "lat": 38.89249866666667, "is_reserved": 0, "is_disabled": 0, "fusion_lon": 0.0, "bike_id": "5685f0397f2c8691deb81772d21601d4", "lon": -77.01510516666667, "rental_uris": {"ios": "https://dc.lft.to/lastmile_qr_scan", "android": "https://dc.lft.to/lastmile_qr_scan"}}, {"name": "fa2dc79b99ac74958695e252d7ccba0e", "fusion_lat": 0.0, "type": "electric_bike", "lat": 38.863758833333335, "is_reserved": 0, "is_disabled": 0, "fusion_lon": 0.0, "bike_id": "fa2dc79b99ac74958695e252d7ccba0e", "lon": -77.12901533333333, "rental_uris": {"ios": "https://dc.lft.to/lastmile_qr_scan", "android": "https://dc.lft.to/lastmile_qr_scan"}}, {"name": "c2247fe492482771e9920f3fbda85cca", "fusion_lat": 0.0, "type": "electric_scooter", "lat": 38.899561166666665, "is_reserved": 0, "is_disabled": 0, "fusion_lon": 0.0, "bike_id": "c2247fe492482771e9920f3fbda85cca", "lon": -77.01604316666666, "rental_uris": {"ios": "https://dc.lft.to/lastmile_qr_scan", "android": "https://dc.lft.to/lastmile_qr_scan"}}, {"name": "2b94318d163cc0697bb46d3a657ac7ed", "fusion_lat": 0.0, "type": "electric_bike", "lat": 38.970873833333336, "is_reserved": 0, "is_disabled": 0, "fusion_lon": 0.0, "bike_id": "2b94318d163cc0697bb46d3a657ac7ed", "lon": -77.06966316666667, "rental_uris": {"ios": "https://dc.lft.to/lastmile_qr_scan", "android": "https://dc.lft.to/lastmile_qr_scan"}}, {"name": "8524a7749ca69895ca945ca8721dd089", "fusion_lat": 0.0, "type": "electric_scooter", "lat": 38.91877066666667, "is_reserved": 0, "is_disabled": 0, "fusion_lon": 0.0, "bike_id": "8524a7749ca69895ca945ca8721dd089", "lon": -77.044885, "rental_uris": {"ios": "https://dc.lft.to/lastmile_qr_scan", "android": "https://dc.lft.to/lastmile_qr_scan"}}, {"name": "2620d852212e4e34a985dc436ded685c", "fusion_lat": 0.0, "type": "electric_scooter", "lat": 38.91245833333333, "is_reserved": 0, "is_disabled": 0, "fusion_lon": 0.0, "bike_id": "2620d852212e4e34a985dc436ded685c", "lon": -77.03223883333334, "rental_uris": {"ios": "https://dc.lft.to/lastmile_qr_scan", "android": "https://dc.lft.to/lastmile_qr_scan"}}, {"name": "76fd2c914d5d52d60bad7e1f9f220475", "fusion_lat": 0.0, "type": "electric_scooter", "lat": 38.91695383333333, "is_reserved": 0, "is_disabled": 0, "fusion_lon": 0.0, "bike_id": "76fd2c914d5d52d60bad7e1f9f220475", "lon": -77.03762716666667, "rental_uris": {"ios": "https://dc.lft.to/lastmile_qr_scan", "android": "https://dc.lft.to/lastmile_qr_scan"}}, {"name": "dd015701388a649dbd3aea05a18b0e36", "fusion_lat": 0.0, "type": "electric_scooter", "lat": 38.912719833333334, "is_reserved": 0, "is_disabled": 0, "fusion_lon": 0.0, "bike_id": "dd015701388a649dbd3aea05a18b0e36", "lon": -77.02695533333333, "rental_uris": {"ios": "https://dc.lft.to/lastmile_qr_scan", "android": "https://dc.lft.to/lastmile_qr_scan"}}, {"name": "1e5dbf03c7facc039e199fae5b9c87ac", "fusion_lat": 0.0, "type": "electric_scooter", "lat": 38.93702583333334, "is_reserved": 0, "is_disabled": 0, "fusion_lon": 0.0, "bike_id": "1e5dbf03c7facc039e199fae5b9c87ac", "lon": -77.05687516666667, "rental_uris": {"ios": "https://dc.lft.to/lastmile_qr_scan", "android": "https://dc.lft.to/lastmile_qr_scan"}}, {"name": "c2d2c34fc9c6127c471253471e65fc9f", "fusion_lat": 0.0, "type": "electric_scooter", "lat": 38.9086925, "is_reserved": 0, "is_disabled": 0, "fusion_lon": 0.0, "bike_id": "c2d2c34fc9c6127c471253471e65fc9f", "lon": -77.02380733333334, "rental_uris": {"ios": "https://dc.lft.to/lastmile_qr_scan", "android": "https://dc.lft.to/lastmile_qr_scan"}}, {"name": "6a4f700f77bc3b77937a738ce0340092", "fusion_lat": 0.0, "type": "electric_scooter", "lat": 38.90374533333333, "is_reserved": 0, "is_disabled": 0, "fusion_lon": 0.0, "bike_id": "6a4f700f77bc3b77937a738ce0340092", "lon": -77.048261, "rental_uris": {"ios": "https://dc.lft.to/lastmile_qr_scan", "android": "https://dc.lft.to/lastmile_qr_scan"}}, {"name": "32c246d42013dc183272fa1780d4ef0f", "fusion_lat": 0.0, "type": "electric_scooter", "lat": 38.8732565, "is_reserved": 0, "is_disabled": 0, "fusion_lon": 0.0, "bike_id": "32c246d42013dc183272fa1780d4ef0f", "lon": -77.00106233333334, "rental_uris": {"ios": "https://dc.lft.to/lastmile_qr_scan", "android": "https://dc.lft.to/lastmile_qr_scan"}}, {"name": "baec3d63d77795442c7083a50c449a86", "fusion_lat": 0.0, "type": "electric_scooter", "lat": 38.923733666666664, "is_reserved": 0, "is_disabled": 0, "fusion_lon": 0.0, "bike_id": "baec3d63d77795442c7083a50c449a86", "lon": -77.03135016666667, "rental_uris": {"ios": "https://dc.lft.to/lastmile_qr_scan", "android": "https://dc.lft.to/lastmile_qr_scan"}}, {"name": "4b1d97205c737285e0c58d19d995a018", "fusion_lat": 0.0, "type": "electric_scooter", "lat": 38.904791833333334, "is_reserved": 0, "is_disabled": 0, "fusion_lon": 0.0, "bike_id": "4b1d97205c737285e0c58d19d995a018", "lon": -76.97332633333333, "rental_uris": {"ios": "https://dc.lft.to/lastmile_qr_scan", "android": "https://dc.lft.to/lastmile_qr_scan"}}, {"name": "a3dd55bf9f9f6f701fecb1b2cb61ee55", "fusion_lat": 0.0, "type": "electric_bike", "lat": 38.999922, "is_reserved": 0, "is_disabled": 0, "fusion_lon": 0.0, "bike_id": "a3dd55bf9f9f6f701fecb1b2cb61ee55", "lon": -76.9952315, "rental_uris": {"ios": "https://dc.lft.to/lastmile_qr_scan", "android": "https://dc.lft.to/lastmile_qr_scan"}}, {"name": "1e850a4a85fd7967f54308baaba0f26f", "fusion_lat": 0.0, "type": "electric_bike", "lat": 38.951865833333336, "is_reserved": 0, "is_disabled": 0, "fusion_lon": 0.0, "bike_id": "1e850a4a85fd7967f54308baaba0f26f", "lon": -76.935419, "rental_uris": {"ios": "https://dc.lft.to/lastmile_qr_scan", "android": "https://dc.lft.to/lastmile_qr_scan"}}, {"name": "205a15ca439b176140643050911d11d3", "fusion_lat": 0.0, "type": "electric_scooter", "lat": 38.91269966666667, "is_reserved": 0, "is_disabled": 0, "fusion_lon": 0.0, "bike_id": "205a15ca439b176140643050911d11d3", "lon": -77.0608955, "rental_uris": {"ios": "https://dc.lft.to/lastmile_qr_scan", "android": "https://dc.lft.to/lastmile_qr_scan"}}, {"name": "97f1b6f6cebf425a805184cc64f3b4b1", "fusion_lat": 0.0, "type": "electric_scooter", "lat": 38.91420933333333, "is_reserved": 0, "is_disabled": 0, "fusion_lon": 0.0, "bike_id": "97f1b6f6cebf425a805184cc64f3b4b1", "lon": -77.0089005, "rental_uris": {"ios": "https://dc.lft.to/lastmile_qr_scan", "android": "https://dc.lft.to/lastmile_qr_scan"}}, {"name": "a1c09501ab9c7d13979a8e1b2dc5c9a9", "fusion_lat": 0.0, "type": "electric_scooter", "lat": 38.91570766666667, "is_reserved": 0, "is_disabled": 0, "fusion_lon": 0.0, "bike_id": "a1c09501ab9c7d13979a8e1b2dc5c9a9", "lon": -77.04695933333333, "rental_uris": {"ios": "https://dc.lft.to/lastmile_qr_scan", "android": "https://dc.lft.to/lastmile_qr_scan"}}, {"name": "617116f831a589bf26b0d3f57908fb67", "fusion_lat": 0.0, "type": "electric_scooter", "lat": 38.899635333333336, "is_reserved": 0, "is_disabled": 0, "fusion_lon": 0.0, "bike_id": "617116f831a589bf26b0d3f57908fb67", "lon": -77.016104, "rental_uris": {"ios": "https://dc.lft.to/lastmile_qr_scan", "android": "https://dc.lft.to/lastmile_qr_scan"}}, {"name": "405d7b2007682c2ae104c5c1207f417b", "fusion_lat": 0.0, "type": "electric_scooter", "lat": 38.90246466666667, "is_reserved": 0, "is_disabled": 0, "fusion_lon": 0.0, "bike_id": "405d7b2007682c2ae104c5c1207f417b", "lon": -77.01941666666667, "rental_uris": {"ios": "https://dc.lft.to/lastmile_qr_scan", "android": "https://dc.lft.to/lastmile_qr_scan"}}, {"name": "cf5ed5c1f33b916a894cb983cf722a43", "fusion_lat": 0.0, "type": "electric_scooter", "lat": 38.919170333333334, "is_reserved": 0, "is_disabled": 0, "fusion_lon": 0.0, "bike_id": "cf5ed5c1f33b916a894cb983cf722a43", "lon": -77.03223133333333, "rental_uris": {"ios": "https://dc.lft.to/lastmile_qr_scan", "android": "https://dc.lft.to/lastmile_qr_scan"}}, {"name": "7b8a6d5ee6c678a65286a0cddb5d7f44", "fusion_lat": 0.0, "type": "electric_scooter", "lat": 38.880663166666665, "is_reserved": 0, "is_disabled": 0, "fusion_lon": 0.0, "bike_id": "7b8a6d5ee6c678a65286a0cddb5d7f44", "lon": -76.935339, "rental_uris": {"ios": "https://dc.lft.to/lastmile_qr_scan", "android": "https://dc.lft.to/lastmile_qr_scan"}}, {"name": "1a9fb04cbc4b32d5fe782bd8e1425eac", "fusion_lat": 0.0, "type": "electric_bike", "lat": 38.9272725, "is_reserved": 0, "is_disabled": 0, "fusion_lon": 0.0, "bike_id": "1a9fb04cbc4b32d5fe782bd8e1425eac", "lon": -77.01319716666667, "rental_uris": {"ios": "https://dc.lft.to/lastmile_qr_scan", "android": "https://dc.lft.to/lastmile_qr_scan"}}, {"name": "2988deadae4bed659848558ee813ccf5", "fusion_lat": 0.0, "type": "electric_scooter", "lat": 38.919286, "is_reserved": 0, "is_disabled": 0, "fusion_lon": 0.0, "bike_id": "2988deadae4bed659848558ee813ccf5", "lon": -77.03250766666666, "rental_uris": {"ios": "https://dc.lft.to/lastmile_qr_scan", "android": "https://dc.lft.to/lastmile_qr_scan"}}, {"name": "7f9bb4540ecb019e61350c7e8de96b13", "fusion_lat": 0.0, "type": "electric_bike", "lat": 38.920083166666664, "is_reserved": 0, "is_disabled": 0, "fusion_lon": 0.0, "bike_id": "7f9bb4540ecb019e61350c7e8de96b13", "lon": -76.974943, "rental_uris": {"ios": "https://dc.lft.to/lastmile_qr_scan", "android": "https://dc.lft.to/lastmile_qr_scan"}}, {"name": "e377dacdbe647bdf74c38f5435a597dd", "fusion_lat": 0.0, "type": "electric_scooter", "lat": 38.885025666666664, "is_reserved": 0, "is_disabled": 0, "fusion_lon": 0.0, "bike_id": "e377dacdbe647bdf74c38f5435a597dd", "lon": -77.0219985, "rental_uris": {"ios": "https://dc.lft.to/lastmile_qr_scan", "android": "https://dc.lft.to/lastmile_qr_scan"}}, {"name": "6b9e7ad24833594acc9d609c9c8e0286", "fusion_lat": 0.0, "type": "electric_scooter", "lat": 38.912157, "is_reserved": 0, "is_disabled": 0, "fusion_lon": 0.0, "bike_id": "6b9e7ad24833594acc9d609c9c8e0286", "lon": -77.07594216666666, "rental_uris": {"ios": "https://dc.lft.to/lastmile_qr_scan", "android": "https://dc.lft.to/lastmile_qr_scan"}}, {"name": "e08389d0b9e18ffe1413bcdbdc8815f2", "fusion_lat": 0.0, "type": "electric_scooter", "lat": 38.90034966666666, "is_reserved": 0, "is_disabled": 0, "fusion_lon": 0.0, "bike_id": "e08389d0b9e18ffe1413bcdbdc8815f2", "lon": -77.00199516666666, "rental_uris": {"ios": "https://dc.lft.to/lastmile_qr_scan", "android": "https://dc.lft.to/lastmile_qr_scan"}}, {"name": "9d76fbaf175119cce178d50b67e0f56f", "fusion_lat": 0.0, "type": "electric_scooter", "lat": 38.914053833333334, "is_reserved": 0, "is_disabled": 0, "fusion_lon": 0.0, "bike_id": "9d76fbaf175119cce178d50b67e0f56f", "lon": -77.03218633333333, "rental_uris": {"ios": "https://dc.lft.to/lastmile_qr_scan", "android": "https://dc.lft.to/lastmile_qr_scan"}}, {"name": "bd41e0e9c033deb113ab60c728920954", "fusion_lat": 0.0, "type": "electric_bike", "lat": 38.937208166666665, "is_reserved": 0, "is_disabled": 0, "fusion_lon": 0.0, "bike_id": "bd41e0e9c033deb113ab60c728920954", "lon": -77.032769, "rental_uris": {"ios": "https://dc.lft.to/lastmile_qr_scan", "android": "https://dc.lft.to/lastmile_qr_scan"}}, {"name": "6b774340cf5c4e55bf1364bf4d5f797f", "fusion_lat": 0.0, "type": "electric_scooter", "lat": 38.895889333333336, "is_reserved": 0, "is_disabled": 0, "fusion_lon": 0.0, "bike_id": "6b774340cf5c4e55bf1364bf4d5f797f", "lon": -76.93718333333334, "rental_uris": {"ios": "https://dc.lft.to/lastmile_qr_scan", "android": "https://dc.lft.to/lastmile_qr_scan"}}, {"name": "fc74bf50f602ad7f705332cb7d5d5005", "fusion_lat": 0.0, "type": "electric_scooter", "lat": 38.909080833333334, "is_reserved": 0, "is_disabled": 0, "fusion_lon": 0.0, "bike_id": "fc74bf50f602ad7f705332cb7d5d5005", "lon": -77.02716483333333, "rental_uris": {"ios": "https://dc.lft.to/lastmile_qr_scan", "android": "https://dc.lft.to/lastmile_qr_scan"}}, {"name": "7f780df9f468bb443cc59d6d8ca88722", "fusion_lat": 0.0, "type": "electric_scooter", "lat": 38.93596333333333, "is_reserved": 0, "is_disabled": 0, "fusion_lon": 0.0, "bike_id": "7f780df9f468bb443cc59d6d8ca88722", "lon": -77.0352245, "rental_uris": {"ios": "https://dc.lft.to/lastmile_qr_scan", "android": "https://dc.lft.to/lastmile_qr_scan"}}, {"name": "d1c241547251a07f59bba2053b59f136", "fusion_lat": 0.0, "type": "electric_scooter", "lat": 38.91746716666667, "is_reserved": 0, "is_disabled": 0, "fusion_lon": 0.0, "bike_id": "d1c241547251a07f59bba2053b59f136", "lon": -77.03643483333333, "rental_uris": {"ios": "https://dc.lft.to/lastmile_qr_scan", "android": "https://dc.lft.to/lastmile_qr_scan"}}, {"name": "3fb25b48987d52857f049dedf950029a", "fusion_lat": 0.0, "type": "electric_scooter", "lat": 38.90360116666667, "is_reserved": 0, "is_disabled": 0, "fusion_lon": 0.0, "bike_id": "3fb25b48987d52857f049dedf950029a", "lon": -77.00734966666667, "rental_uris": {"ios": "https://dc.lft.to/lastmile_qr_scan", "android": "https://dc.lft.to/lastmile_qr_scan"}}, {"name": "51e1f5aafcb61cfd2268bea1eec9ed12", "fusion_lat": 0.0, "type": "electric_scooter", "lat": 38.932542166666664, "is_reserved": 0, "is_disabled": 0, "fusion_lon": 0.0, "bike_id": "51e1f5aafcb61cfd2268bea1eec9ed12", "lon": -77.0386155, "rental_uris": {"ios": "https://dc.lft.to/lastmile_qr_scan", "android": "https://dc.lft.to/lastmile_qr_scan"}}, {"name": "c6f5489bf5a794249abdacede7b57616", "fusion_lat": 0.0, "type": "electric_scooter", "lat": 38.90237833333333, "is_reserved": 0, "is_disabled": 0, "fusion_lon": 0.0, "bike_id": "c6f5489bf5a794249abdacede7b57616", "lon": -77.00203383333333, "rental_uris": {"ios": "https://dc.lft.to/lastmile_qr_scan", "android": "https://dc.lft.to/lastmile_qr_scan"}}, {"name": "24615f3703f667cafdde9b700d95fd85", "fusion_lat": 0.0, "type": "electric_scooter", "lat": 38.92019633333334, "is_reserved": 0, "is_disabled": 0, "fusion_lon": 0.0, "bike_id": "24615f3703f667cafdde9b700d95fd85", "lon": -77.03472833333333, "rental_uris": {"ios": "https://dc.lft.to/lastmile_qr_scan", "android": "https://dc.lft.to/lastmile_qr_scan"}}, {"name": "159575edd496c080c5ffade529235180", "fusion_lat": 0.0, "type": "electric_bike", "lat": 38.85067166666666, "is_reserved": 0, "is_disabled": 0, "fusion_lon": 0.0, "bike_id": "159575edd496c080c5ffade529235180", "lon": -76.97332816666666, "rental_uris": {"ios": "https://dc.lft.to/lastmile_qr_scan", "android": "https://dc.lft.to/lastmile_qr_scan"}}, {"name": "4dad550c19515644cd6f0727ab7ebfd6", "fusion_lat": 0.0, "type": "electric_scooter", "lat": 38.922413, "is_reserved": 0, "is_disabled": 0, "fusion_lon": 0.0, "bike_id": "4dad550c19515644cd6f0727ab7ebfd6", "lon": -77.03666683333333, "rental_uris": {"ios": "https://dc.lft.to/lastmile_qr_scan", "android": "https://dc.lft.to/lastmile_qr_scan"}}, {"name": "7d72ad4dc4c0cbf68ed895633c37aaf6", "fusion_lat": 0.0, "type": "electric_scooter", "lat": 38.895996833333335, "is_reserved": 0, "is_disabled": 0, "fusion_lon": 0.0, "bike_id": "7d72ad4dc4c0cbf68ed895633c37aaf6", "lon": -77.0468015, "rental_uris": {"ios": "https://dc.lft.to/lastmile_qr_scan", "android": "https://dc.lft.to/lastmile_qr_scan"}}, {"name": "73b9289d847f1a1a71b9bf539edb0d92", "fusion_lat": 0.0, "type": "electric_scooter", "lat": 38.96177933333333, "is_reserved": 0, "is_disabled": 0, "fusion_lon": 0.0, "bike_id": "73b9289d847f1a1a71b9bf539edb0d92", "lon": -77.03228433333334, "rental_uris": {"ios": "https://dc.lft.to/lastmile_qr_scan", "android": "https://dc.lft.to/lastmile_qr_scan"}}, {"name": "9343517fc959f9a0197a811f7085fdbc", "fusion_lat": 0.0, "type": "electric_scooter", "lat": 38.93186983333333, "is_reserved": 0, "is_disabled": 0, "fusion_lon": 0.0, "bike_id": "9343517fc959f9a0197a811f7085fdbc", "lon": -77.028304, "rental_uris": {"ios": "https://dc.lft.to/lastmile_qr_scan", "android": "https://dc.lft.to/lastmile_qr_scan"}}, {"name": "04f21de4cbb01d26f5d11a8d189da79a", "fusion_lat": 0.0, "type": "electric_scooter", "lat": 38.9023765, "is_reserved": 0, "is_disabled": 0, "fusion_lon": 0.0, "bike_id": "04f21de4cbb01d26f5d11a8d189da79a", "lon": -77.046026, "rental_uris": {"ios": "https://dc.lft.to/lastmile_qr_scan", "android": "https://dc.lft.to/lastmile_qr_scan"}}, {"name": "5aab813d9e9f063ee270989cee42861b", "fusion_lat": 0.0, "type": "electric_scooter", "lat": 38.92527233333333, "is_reserved": 0, "is_disabled": 0, "fusion_lon": 0.0, "bike_id": "5aab813d9e9f063ee270989cee42861b", "lon": -77.03217633333334, "rental_uris": {"ios": "https://dc.lft.to/lastmile_qr_scan", "android": "https://dc.lft.to/lastmile_qr_scan"}}, {"name": "8dd648516d8f7f6a6a7d9891afdf567f", "fusion_lat": 0.0, "type": "electric_scooter", "lat": 38.918159, "is_reserved": 0, "is_disabled": 0, "fusion_lon": 0.0, "bike_id": "8dd648516d8f7f6a6a7d9891afdf567f", "lon": -77.04006733333334, "rental_uris": {"ios": "https://dc.lft.to/lastmile_qr_scan", "android": "https://dc.lft.to/lastmile_qr_scan"}}, {"name": "f8bbba0a673cd2313d2a4fdc5a91cb50", "fusion_lat": 0.0, "type": "electric_scooter", "lat": 38.9368695, "is_reserved": 0, "is_disabled": 0, "fusion_lon": 0.0, "bike_id": "f8bbba0a673cd2313d2a4fdc5a91cb50", "lon": -77.03290216666667, "rental_uris": {"ios": "https://dc.lft.to/lastmile_qr_scan", "android": "https://dc.lft.to/lastmile_qr_scan"}}, {"name": "7eba7582b76a81cdd588a651bad8550d", "fusion_lat": 0.0, "type": "electric_scooter", "lat": 38.896604833333335, "is_reserved": 0, "is_disabled": 0, "fusion_lon": 0.0, "bike_id": "7eba7582b76a81cdd588a651bad8550d", "lon": -77.05037216666666, "rental_uris": {"ios": "https://dc.lft.to/lastmile_qr_scan", "android": "https://dc.lft.to/lastmile_qr_scan"}}, {"name": "692e5f6116fdc598b5f96d64a230670e", "fusion_lat": 0.0, "type": "electric_scooter", "lat": 38.92430233333333, "is_reserved": 0, "is_disabled": 0, "fusion_lon": 0.0, "bike_id": "692e5f6116fdc598b5f96d64a230670e", "lon": -77.04249933333334, "rental_uris": {"ios": "https://dc.lft.to/lastmile_qr_scan", "android": "https://dc.lft.to/lastmile_qr_scan"}}, {"name": "b55d17516239092e3582ae1b6fa8b452", "fusion_lat": 0.0, "type": "electric_scooter", "lat": 38.91710033333333, "is_reserved": 0, "is_disabled": 0, "fusion_lon": 0.0, "bike_id": "b55d17516239092e3582ae1b6fa8b452", "lon": -77.030853, "rental_uris": {"ios": "https://dc.lft.to/lastmile_qr_scan", "android": "https://dc.lft.to/lastmile_qr_scan"}}, {"name": "b088c5de947c3782b51c0d56497c3ec5", "fusion_lat": 0.0, "type": "electric_bike", "lat": 38.911813333333335, "is_reserved": 0, "is_disabled": 0, "fusion_lon": 0.0, "bike_id": "b088c5de947c3782b51c0d56497c3ec5", "lon": -77.01153583333334, "rental_uris": {"ios": "https://dc.lft.to/lastmile_qr_scan", "android": "https://dc.lft.to/lastmile_qr_scan"}}, {"name": "0d17315576a0db489b3b7dc606f7fd79", "fusion_lat": 0.0, "type": "electric_scooter", "lat": 38.91899433333333, "is_reserved": 0, "is_disabled": 0, "fusion_lon": 0.0, "bike_id": "0d17315576a0db489b3b7dc606f7fd79", "lon": -77.0004565, "rental_uris": {"ios": "https://dc.lft.to/lastmile_qr_scan", "android": "https://dc.lft.to/lastmile_qr_scan"}}, {"name": "92bfdc51c889546528236845897e6513", "fusion_lat": 0.0, "type": "electric_scooter", "lat": 38.9106645, "is_reserved": 0, "is_disabled": 0, "fusion_lon": 0.0, "bike_id": "92bfdc51c889546528236845897e6513", "lon": -77.01770933333333, "rental_uris": {"ios": "https://dc.lft.to/lastmile_qr_scan", "android": "https://dc.lft.to/lastmile_qr_scan"}}, {"name": "9a6c98f744e77d8a6f313dac7d6e74ca", "fusion_lat": 0.0, "type": "electric_scooter", "lat": 38.924422, "is_reserved": 0, "is_disabled": 0, "fusion_lon": 0.0, "bike_id": "9a6c98f744e77d8a6f313dac7d6e74ca", "lon": -77.04219333333333, "rental_uris": {"ios": "https://dc.lft.to/lastmile_qr_scan", "android": "https://dc.lft.to/lastmile_qr_scan"}}, {"name": "2a0b7f727181e72ec5459c76826abba3", "fusion_lat": 0.0, "type": "electric_scooter", "lat": 38.9004135, "is_reserved": 0, "is_disabled": 0, "fusion_lon": 0.0, "bike_id": "2a0b7f727181e72ec5459c76826abba3", "lon": -77.00205966666667, "rental_uris": {"ios": "https://dc.lft.to/lastmile_qr_scan", "android": "https://dc.lft.to/lastmile_qr_scan"}}, {"name": "5054d26575398a9f287ac1aaff20ca29", "fusion_lat": 0.0, "type": "electric_scooter", "lat": 38.866605, "is_reserved": 0, "is_disabled": 0, "fusion_lon": 0.0, "bike_id": "5054d26575398a9f287ac1aaff20ca29", "lon": -76.98887066666667, "rental_uris": {"ios": "https://dc.lft.to/lastmile_qr_scan", "android": "https://dc.lft.to/lastmile_qr_scan"}}, {"name": "663a589efd789095a0edb11d3c71657c", "fusion_lat": 0.0, "type": "electric_bike", "lat": 38.80228783333333, "is_reserved": 0, "is_disabled": 0, "fusion_lon": 0.0, "bike_id": "663a589efd789095a0edb11d3c71657c", "lon": -77.07916133333333, "rental_uris": {"ios": "https://dc.lft.to/lastmile_qr_scan", "android": "https://dc.lft.to/lastmile_qr_scan"}}, {"name": "2d2aa71a4dfce9690b1cf8a0c3c7df53", "fusion_lat": 0.0, "type": "electric_bike", "lat": 38.935665166666666, "is_reserved": 0, "is_disabled": 0, "fusion_lon": 0.0, "bike_id": "2d2aa71a4dfce9690b1cf8a0c3c7df53", "lon": -77.10441816666666, "rental_uris": {"ios": "https://dc.lft.to/lastmile_qr_scan", "android": "https://dc.lft.to/lastmile_qr_scan"}}, {"name": "c2c964c16822859b8b399ff15c26c750", "fusion_lat": 0.0, "type": "electric_scooter", "lat": 38.88649316666667, "is_reserved": 0, "is_disabled": 0, "fusion_lon": 0.0, "bike_id": "c2c964c16822859b8b399ff15c26c750", "lon": -77.0136845, "rental_uris": {"ios": "https://dc.lft.to/lastmile_qr_scan", "android": "https://dc.lft.to/lastmile_qr_scan"}}, {"name": "4f9f2cbca0400b01d2dda6b99dda5977", "fusion_lat": 0.0, "type": "electric_scooter", "lat": 38.91868816666667, "is_reserved": 0, "is_disabled": 0, "fusion_lon": 0.0, "bike_id": "4f9f2cbca0400b01d2dda6b99dda5977", "lon": -77.036723, "rental_uris": {"ios": "https://dc.lft.to/lastmile_qr_scan", "android": "https://dc.lft.to/lastmile_qr_scan"}}, {"name": "d4f2dcf21b3ac88176ab3df48a7963c2", "fusion_lat": 0.0, "type": "electric_scooter", "lat": 38.8953145, "is_reserved": 0, "is_disabled": 0, "fusion_lon": 0.0, "bike_id": "d4f2dcf21b3ac88176ab3df48a7963c2", "lon": -77.04289916666667, "rental_uris": {"ios": "https://dc.lft.to/lastmile_qr_scan", "android": "https://dc.lft.to/lastmile_qr_scan"}}, {"name": "44712202bacead1cb39701afa1010be6", "fusion_lat": 0.0, "type": "electric_scooter", "lat": 38.91124833333333, "is_reserved": 0, "is_disabled": 0, "fusion_lon": 0.0, "bike_id": "44712202bacead1cb39701afa1010be6", "lon": -77.021986, "rental_uris": {"ios": "https://dc.lft.to/lastmile_qr_scan", "android": "https://dc.lft.to/lastmile_qr_scan"}}, {"name": "320c570e8344a45f22bdea39643b076a", "fusion_lat": 0.0, "type": "electric_scooter", "lat": 38.91267883333333, "is_reserved": 0, "is_disabled": 0, "fusion_lon": 0.0, "bike_id": "320c570e8344a45f22bdea39643b076a", "lon": -77.03877016666667, "rental_uris": {"ios": "https://dc.lft.to/lastmile_qr_scan", "android": "https://dc.lft.to/lastmile_qr_scan"}}, {"name": "7750b02e0dae0a396857deed5c3243fc", "fusion_lat": 0.0, "type": "electric_scooter", "lat": 38.90956716666667, "is_reserved": 0, "is_disabled": 0, "fusion_lon": 0.0, "bike_id": "7750b02e0dae0a396857deed5c3243fc", "lon": -77.02385, "rental_uris": {"ios": "https://dc.lft.to/lastmile_qr_scan", "android": "https://dc.lft.to/lastmile_qr_scan"}}, {"name": "828d71d399cb814fc418b3b7ee8e52e8", "fusion_lat": 0.0, "type": "electric_scooter", "lat": 38.90152883333333, "is_reserved": 0, "is_disabled": 0, "fusion_lon": 0.0, "bike_id": "828d71d399cb814fc418b3b7ee8e52e8", "lon": -76.9306645, "rental_uris": {"ios": "https://dc.lft.to/lastmile_qr_scan", "android": "https://dc.lft.to/lastmile_qr_scan"}}, {"name": "bdb5949b6d13afe462bd61140e10969f", "fusion_lat": 0.0, "type": "electric_scooter", "lat": 38.9170445, "is_reserved": 0, "is_disabled": 0, "fusion_lon": 0.0, "bike_id": "bdb5949b6d13afe462bd61140e10969f", "lon": -77.03144383333333, "rental_uris": {"ios": "https://dc.lft.to/lastmile_qr_scan", "android": "https://dc.lft.to/lastmile_qr_scan"}}, {"name": "402352b8a1cdb4eb61226b8d6763a657", "fusion_lat": 0.0, "type": "electric_bike", "lat": 38.906863333333334, "is_reserved": 0, "is_disabled": 0, "fusion_lon": 0.0, "bike_id": "402352b8a1cdb4eb61226b8d6763a657", "lon": -76.95186966666667, "rental_uris": {"ios": "https://dc.lft.to/lastmile_qr_scan", "android": "https://dc.lft.to/lastmile_qr_scan"}}, {"name": "89f1a8a6b76aba0f8df40e816060ba31", "fusion_lat": 0.0, "type": "electric_scooter", "lat": 38.91256116666667, "is_reserved": 0, "is_disabled": 0, "fusion_lon": 0.0, "bike_id": "89f1a8a6b76aba0f8df40e816060ba31", "lon": -77.03844416666666, "rental_uris": {"ios": "https://dc.lft.to/lastmile_qr_scan", "android": "https://dc.lft.to/lastmile_qr_scan"}}, {"name": "9c5c9f04e3a472698c1a6f660778f11c", "fusion_lat": 0.0, "type": "electric_scooter", "lat": 38.90609533333333, "is_reserved": 0, "is_disabled": 0, "fusion_lon": 0.0, "bike_id": "9c5c9f04e3a472698c1a6f660778f11c", "lon": -77.02415683333334, "rental_uris": {"ios": "https://dc.lft.to/lastmile_qr_scan", "android": "https://dc.lft.to/lastmile_qr_scan"}}, {"name": "a277643407dd696437dd318136108428", "fusion_lat": 0.0, "type": "electric_scooter", "lat": 38.9527505, "is_reserved": 0, "is_disabled": 0, "fusion_lon": 0.0, "bike_id": "a277643407dd696437dd318136108428", "lon": -77.071527, "rental_uris": {"ios": "https://dc.lft.to/lastmile_qr_scan", "android": "https://dc.lft.to/lastmile_qr_scan"}}, {"name": "b77ee2f138a3197934162fb01376561b", "fusion_lat": 0.0, "type": "electric_scooter", "lat": 38.9035355, "is_reserved": 0, "is_disabled": 0, "fusion_lon": 0.0, "bike_id": "b77ee2f138a3197934162fb01376561b", "lon": -77.011132, "rental_uris": {"ios": "https://dc.lft.to/lastmile_qr_scan", "android": "https://dc.lft.to/lastmile_qr_scan"}}, {"name": "87ef9ed04f3ffee7d0697ec5dccf34a1", "fusion_lat": 0.0, "type": "electric_scooter", "lat": 38.9026965, "is_reserved": 0, "is_disabled": 0, "fusion_lon": 0.0, "bike_id": "87ef9ed04f3ffee7d0697ec5dccf34a1", "lon": -76.99856633333333, "rental_uris": {"ios": "https://dc.lft.to/lastmile_qr_scan", "android": "https://dc.lft.to/lastmile_qr_scan"}}, {"name": "f475a6a17e758baf3cdc49cc52c1145c", "fusion_lat": 0.0, "type": "electric_scooter", "lat": 38.9064195, "is_reserved": 0, "is_disabled": 0, "fusion_lon": 0.0, "bike_id": "f475a6a17e758baf3cdc49cc52c1145c", "lon": -77.013985, "rental_uris": {"ios": "https://dc.lft.to/lastmile_qr_scan", "android": "https://dc.lft.to/lastmile_qr_scan"}}, {"name": "f27b9dfa591bd43e5d2639c35b4cd9a0", "fusion_lat": 0.0, "type": "electric_scooter", "lat": 38.90242116666667, "is_reserved": 0, "is_disabled": 0, "fusion_lon": 0.0, "bike_id": "f27b9dfa591bd43e5d2639c35b4cd9a0", "lon": -77.00201883333334, "rental_uris": {"ios": "https://dc.lft.to/lastmile_qr_scan", "android": "https://dc.lft.to/lastmile_qr_scan"}}, {"name": "dbc80bc2a6b10d6203e0c72833779187", "fusion_lat": 0.0, "type": "electric_scooter", "lat": 38.90518683333333, "is_reserved": 0, "is_disabled": 0, "fusion_lon": 0.0, "bike_id": "dbc80bc2a6b10d6203e0c72833779187", "lon": -77.06892233333333, "rental_uris": {"ios": "https://dc.lft.to/lastmile_qr_scan", "android": "https://dc.lft.to/lastmile_qr_scan"}}, {"name": "a4fdc9dc51548c528da8999a6abc91e8", "fusion_lat": 0.0, "type": "electric_scooter", "lat": 38.9381325, "is_reserved": 0, "is_disabled": 0, "fusion_lon": 0.0, "bike_id": "a4fdc9dc51548c528da8999a6abc91e8", "lon": -77.02463783333333, "rental_uris": {"ios": "https://dc.lft.to/lastmile_qr_scan", "android": "https://dc.lft.to/lastmile_qr_scan"}}, {"name": "f7d34d9a2c2bc411876730a4f21702ce", "fusion_lat": 0.0, "type": "electric_scooter", "lat": 38.925981666666665, "is_reserved": 0, "is_disabled": 0, "fusion_lon": 0.0, "bike_id": "f7d34d9a2c2bc411876730a4f21702ce", "lon": -77.0249275, "rental_uris": {"ios": "https://dc.lft.to/lastmile_qr_scan", "android": "https://dc.lft.to/lastmile_qr_scan"}}, {"name": "28b0a0daf417bea085eae03a1d65d6bd", "fusion_lat": 0.0, "type": "electric_scooter", "lat": 38.90727416666667, "is_reserved": 0, "is_disabled": 0, "fusion_lon": 0.0, "bike_id": "28b0a0daf417bea085eae03a1d65d6bd", "lon": -77.03203883333333, "rental_uris": {"ios": "https://dc.lft.to/lastmile_qr_scan", "android": "https://dc.lft.to/lastmile_qr_scan"}}, {"name": "1be9e18b2adc57489a2034cd1e58ce94", "fusion_lat": 0.0, "type": "electric_scooter", "lat": 38.93606033333333, "is_reserved": 0, "is_disabled": 0, "fusion_lon": 0.0, "bike_id": "1be9e18b2adc57489a2034cd1e58ce94", "lon": -77.05591116666666, "rental_uris": {"ios": "https://dc.lft.to/lastmile_qr_scan", "android": "https://dc.lft.to/lastmile_qr_scan"}}, {"name": "90ee78cbefc39c34cbb2dcee299312f4", "fusion_lat": 0.0, "type": "electric_scooter", "lat": 38.900817333333336, "is_reserved": 0, "is_disabled": 0, "fusion_lon": 0.0, "bike_id": "90ee78cbefc39c34cbb2dcee299312f4", "lon": -77.01776966666667, "rental_uris": {"ios": "https://dc.lft.to/lastmile_qr_scan", "android": "https://dc.lft.to/lastmile_qr_scan"}}, {"name": "f939df184f464b2cf3d4d9a650439a8c", "fusion_lat": 0.0, "type": "electric_scooter", "lat": 38.8642585, "is_reserved": 0, "is_disabled": 0, "fusion_lon": 0.0, "bike_id": "f939df184f464b2cf3d4d9a650439a8c", "lon": -76.98044616666667, "rental_uris": {"ios": "https://dc.lft.to/lastmile_qr_scan", "android": "https://dc.lft.to/lastmile_qr_scan"}}, {"name": "5d6d40c13d25a1ac3987baa05ddd42f1", "fusion_lat": 0.0, "type": "electric_scooter", "lat": 38.941786666666665, "is_reserved": 0, "is_disabled": 0, "fusion_lon": 0.0, "bike_id": "5d6d40c13d25a1ac3987baa05ddd42f1", "lon": -77.02512883333333, "rental_uris": {"ios": "https://dc.lft.to/lastmile_qr_scan", "android": "https://dc.lft.to/lastmile_qr_scan"}}, {"name": "bcb5ebbcad43627be9dfa664cf00f77e", "fusion_lat": 0.0, "type": "electric_scooter", "lat": 38.923884, "is_reserved": 0, "is_disabled": 0, "fusion_lon": 0.0, "bike_id": "bcb5ebbcad43627be9dfa664cf00f77e", "lon": -77.029784, "rental_uris": {"ios": "https://dc.lft.to/lastmile_qr_scan", "android": "https://dc.lft.to/lastmile_qr_scan"}}, {"name": "7f3fcb044463487ee105077e05c049e1", "fusion_lat": 0.0, "type": "electric_scooter", "lat": 38.90749516666666, "is_reserved": 0, "is_disabled": 0, "fusion_lon": 0.0, "bike_id": "7f3fcb044463487ee105077e05c049e1", "lon": -76.98343616666666, "rental_uris": {"ios": "https://dc.lft.to/lastmile_qr_scan", "android": "https://dc.lft.to/lastmile_qr_scan"}}, {"name": "94e0d266943a565996c94cd8a0592b6a", "fusion_lat": 0.0, "type": "electric_scooter", "lat": 38.88514983333334, "is_reserved": 0, "is_disabled": 0, "fusion_lon": 0.0, "bike_id": "94e0d266943a565996c94cd8a0592b6a", "lon": -77.00341083333333, "rental_uris": {"ios": "https://dc.lft.to/lastmile_qr_scan", "android": "https://dc.lft.to/lastmile_qr_scan"}}, {"name": "31a404cde379ae0744892aa7c71a9271", "fusion_lat": 0.0, "type": "electric_scooter", "lat": 38.868202333333336, "is_reserved": 0, "is_disabled": 0, "fusion_lon": 0.0, "bike_id": "31a404cde379ae0744892aa7c71a9271", "lon": -76.98620066666666, "rental_uris": {"ios": "https://dc.lft.to/lastmile_qr_scan", "android": "https://dc.lft.to/lastmile_qr_scan"}}, {"name": "5902590c6ba39625a4470228403a25c4", "fusion_lat": 0.0, "type": "electric_bike", "lat": 38.89638466666667, "is_reserved": 0, "is_disabled": 0, "fusion_lon": 0.0, "bike_id": "5902590c6ba39625a4470228403a25c4", "lon": -77.10457883333333, "rental_uris": {"ios": "https://dc.lft.to/lastmile_qr_scan", "android": "https://dc.lft.to/lastmile_qr_scan"}}, {"name": "b85c156b67636a67ecf2f3bccb93608e", "fusion_lat": 0.0, "type": "electric_scooter", "lat": 38.9300525, "is_reserved": 0, "is_disabled": 0, "fusion_lon": 0.0, "bike_id": "b85c156b67636a67ecf2f3bccb93608e", "lon": -77.0230685, "rental_uris": {"ios": "https://dc.lft.to/lastmile_qr_scan", "android": "https://dc.lft.to/lastmile_qr_scan"}}, {"name": "7c897da5e32a583bf190649ef65659c9", "fusion_lat": 0.0, "type": "electric_scooter", "lat": 38.900361333333336, "is_reserved": 0, "is_disabled": 0, "fusion_lon": 0.0, "bike_id": "7c897da5e32a583bf190649ef65659c9", "lon": -77.00205533333333, "rental_uris": {"ios": "https://dc.lft.to/lastmile_qr_scan", "android": "https://dc.lft.to/lastmile_qr_scan"}}, {"name": "0dea9b662a6cd7d5cf7fb8476dcb4fa1", "fusion_lat": 0.0, "type": "electric_scooter", "lat": 38.91209883333333, "is_reserved": 0, "is_disabled": 0, "fusion_lon": 0.0, "bike_id": "0dea9b662a6cd7d5cf7fb8476dcb4fa1", "lon": -77.0384575, "rental_uris": {"ios": "https://dc.lft.to/lastmile_qr_scan", "android": "https://dc.lft.to/lastmile_qr_scan"}}, {"name": "af3d97317dabb2a443556911f7d14fed", "fusion_lat": 0.0, "type": "electric_scooter", "lat": 38.8981425, "is_reserved": 0, "is_disabled": 0, "fusion_lon": 0.0, "bike_id": "af3d97317dabb2a443556911f7d14fed", "lon": -77.02929416666667, "rental_uris": {"ios": "https://dc.lft.to/lastmile_qr_scan", "android": "https://dc.lft.to/lastmile_qr_scan"}}, {"name": "c9690ea3ed7f3f06a303335d6213223d", "fusion_lat": 0.0, "type": "electric_scooter", "lat": 38.909624, "is_reserved": 0, "is_disabled": 0, "fusion_lon": 0.0, "bike_id": "c9690ea3ed7f3f06a303335d6213223d", "lon": -77.0235875, "rental_uris": {"ios": "https://dc.lft.to/lastmile_qr_scan", "android": "https://dc.lft.to/lastmile_qr_scan"}}, {"name": "6f9a3c57fa2c90ec7f5e8f194fa5197f", "fusion_lat": 0.0, "type": "electric_scooter", "lat": 38.890429166666664, "is_reserved": 0, "is_disabled": 0, "fusion_lon": 0.0, "bike_id": "6f9a3c57fa2c90ec7f5e8f194fa5197f", "lon": -76.93751416666667, "rental_uris": {"ios": "https://dc.lft.to/lastmile_qr_scan", "android": "https://dc.lft.to/lastmile_qr_scan"}}, {"name": "4fad69780980b6a1d994ece163e39933", "fusion_lat": 0.0, "type": "electric_bike", "lat": 38.89609683333333, "is_reserved": 0, "is_disabled": 0, "fusion_lon": 0.0, "bike_id": "4fad69780980b6a1d994ece163e39933", "lon": -76.988487, "rental_uris": {"ios": "https://dc.lft.to/lastmile_qr_scan", "android": "https://dc.lft.to/lastmile_qr_scan"}}, {"name": "7ca524af0910c83787f03e720b81886b", "fusion_lat": 0.0, "type": "electric_scooter", "lat": 38.923493666666666, "is_reserved": 0, "is_disabled": 0, "fusion_lon": 0.0, "bike_id": "7ca524af0910c83787f03e720b81886b", "lon": -77.03227333333334, "rental_uris": {"ios": "https://dc.lft.to/lastmile_qr_scan", "android": "https://dc.lft.to/lastmile_qr_scan"}}, {"name": "68e5d9b46278e207d9cc0ba19bec069c", "fusion_lat": 0.0, "type": "electric_scooter", "lat": 38.90981333333333, "is_reserved": 0, "is_disabled": 0, "fusion_lon": 0.0, "bike_id": "68e5d9b46278e207d9cc0ba19bec069c", "lon": -77.038486, "rental_uris": {"ios": "https://dc.lft.to/lastmile_qr_scan", "android": "https://dc.lft.to/lastmile_qr_scan"}}, {"name": "fc545b41fb48b7ba077fb1ff9b243ec3", "fusion_lat": 0.0, "type": "electric_scooter", "lat": 38.904262333333335, "is_reserved": 0, "is_disabled": 0, "fusion_lon": 0.0, "bike_id": "fc545b41fb48b7ba077fb1ff9b243ec3", "lon": -77.03108016666667, "rental_uris": {"ios": "https://dc.lft.to/lastmile_qr_scan", "android": "https://dc.lft.to/lastmile_qr_scan"}}, {"name": "c8837f1284f009a03303b14e3bed6373", "fusion_lat": 0.0, "type": "electric_bike", "lat": 38.8443165, "is_reserved": 0, "is_disabled": 0, "fusion_lon": 0.0, "bike_id": "c8837f1284f009a03303b14e3bed6373", "lon": -77.1126405, "rental_uris": {"ios": "https://dc.lft.to/lastmile_qr_scan", "android": "https://dc.lft.to/lastmile_qr_scan"}}, {"name": "d4bfb2f6b01649a5e1b89eb9c3bd04bb", "fusion_lat": 0.0, "type": "electric_scooter", "lat": 38.91710466666667, "is_reserved": 0, "is_disabled": 0, "fusion_lon": 0.0, "bike_id": "d4bfb2f6b01649a5e1b89eb9c3bd04bb", "lon": -77.038656, "rental_uris": {"ios": "https://dc.lft.to/lastmile_qr_scan", "android": "https://dc.lft.to/lastmile_qr_scan"}}, {"name": "9893d1641d7291b486bc33ce2611150e", "fusion_lat": 0.0, "type": "electric_scooter", "lat": 38.90846166666667, "is_reserved": 0, "is_disabled": 0, "fusion_lon": 0.0, "bike_id": "9893d1641d7291b486bc33ce2611150e", "lon": -77.02596333333334, "rental_uris": {"ios": "https://dc.lft.to/lastmile_qr_scan", "android": "https://dc.lft.to/lastmile_qr_scan"}}, {"name": "2cf11cb1fd2a90c58a992d6af85d2872", "fusion_lat": 0.0, "type": "electric_scooter", "lat": 38.9338815, "is_reserved": 0, "is_disabled": 0, "fusion_lon": 0.0, "bike_id": "2cf11cb1fd2a90c58a992d6af85d2872", "lon": -77.07381283333333, "rental_uris": {"ios": "https://dc.lft.to/lastmile_qr_scan", "android": "https://dc.lft.to/lastmile_qr_scan"}}, {"name": "79431ea1cd08fe4505772cc80e696404", "fusion_lat": 0.0, "type": "electric_bike", "lat": 38.88615683333333, "is_reserved": 0, "is_disabled": 0, "fusion_lon": 0.0, "bike_id": "79431ea1cd08fe4505772cc80e696404", "lon": -77.10756216666667, "rental_uris": {"ios": "https://dc.lft.to/lastmile_qr_scan", "android": "https://dc.lft.to/lastmile_qr_scan"}}, {"name": "b0f776c8f52e6b724b73be2111cdd7b0", "fusion_lat": 0.0, "type": "electric_bike", "lat": 39.053469166666666, "is_reserved": 0, "is_disabled": 0, "fusion_lon": 0.0, "bike_id": "b0f776c8f52e6b724b73be2111cdd7b0", "lon": -77.13596683333333, "rental_uris": {"ios": "https://dc.lft.to/lastmile_qr_scan", "android": "https://dc.lft.to/lastmile_qr_scan"}}, {"name": "4daf11adebc1a21d592c7d45f76d7827", "fusion_lat": 0.0, "type": "electric_scooter", "lat": 38.9168785, "is_reserved": 0, "is_disabled": 0, "fusion_lon": 0.0, "bike_id": "4daf11adebc1a21d592c7d45f76d7827", "lon": -77.0290215, "rental_uris": {"ios": "https://dc.lft.to/lastmile_qr_scan", "android": "https://dc.lft.to/lastmile_qr_scan"}}, {"name": "eecaef2def4e5dfaed23c049dd5ab4a9", "fusion_lat": 0.0, "type": "electric_scooter", "lat": 38.89496533333333, "is_reserved": 0, "is_disabled": 0, "fusion_lon": 0.0, "bike_id": "eecaef2def4e5dfaed23c049dd5ab4a9", "lon": -77.01012533333333, "rental_uris": {"ios": "https://dc.lft.to/lastmile_qr_scan", "android": "https://dc.lft.to/lastmile_qr_scan"}}, {"name": "9b6337f4a60400f6c7e4456389035521", "fusion_lat": 0.0, "type": "electric_bike", "lat": 38.96627683333333, "is_reserved": 0, "is_disabled": 0, "fusion_lon": 0.0, "bike_id": "9b6337f4a60400f6c7e4456389035521", "lon": -76.9767165, "rental_uris": {"ios": "https://dc.lft.to/lastmile_qr_scan", "android": "https://dc.lft.to/lastmile_qr_scan"}}, {"name": "4670cdf211ec3405aa4e5f5657730767", "fusion_lat": 0.0, "type": "electric_scooter", "lat": 38.919751, "is_reserved": 0, "is_disabled": 0, "fusion_lon": 0.0, "bike_id": "4670cdf211ec3405aa4e5f5657730767", "lon": -77.03972566666667, "rental_uris": {"ios": "https://dc.lft.to/lastmile_qr_scan", "android": "https://dc.lft.to/lastmile_qr_scan"}}, {"name": "f4c0d20e5994cad0b5e7aa85fbd724cf", "fusion_lat": 0.0, "type": "electric_scooter", "lat": 38.92017216666667, "is_reserved": 0, "is_disabled": 0, "fusion_lon": 0.0, "bike_id": "f4c0d20e5994cad0b5e7aa85fbd724cf", "lon": -77.01409433333333, "rental_uris": {"ios": "https://dc.lft.to/lastmile_qr_scan", "android": "https://dc.lft.to/lastmile_qr_scan"}}, {"name": "0f957eb29c8e654bdab8f4d342f9cc76", "fusion_lat": 0.0, "type": "electric_scooter", "lat": 38.900346, "is_reserved": 0, "is_disabled": 0, "fusion_lon": 0.0, "bike_id": "0f957eb29c8e654bdab8f4d342f9cc76", "lon": -77.032527, "rental_uris": {"ios": "https://dc.lft.to/lastmile_qr_scan", "android": "https://dc.lft.to/lastmile_qr_scan"}}, {"name": "e37c3b4cae43f40140a08e775d602005", "fusion_lat": 0.0, "type": "electric_scooter", "lat": 38.9004645, "is_reserved": 0, "is_disabled": 0, "fusion_lon": 0.0, "bike_id": "e37c3b4cae43f40140a08e775d602005", "lon": -77.02986516666667, "rental_uris": {"ios": "https://dc.lft.to/lastmile_qr_scan", "android": "https://dc.lft.to/lastmile_qr_scan"}}, {"name": "f3fb344caf346db3d37e4c14b375f3a6", "fusion_lat": 0.0, "type": "electric_scooter", "lat": 38.934706166666665, "is_reserved": 0, "is_disabled": 0, "fusion_lon": 0.0, "bike_id": "f3fb344caf346db3d37e4c14b375f3a6", "lon": -77.03264283333333, "rental_uris": {"ios": "https://dc.lft.to/lastmile_qr_scan", "android": "https://dc.lft.to/lastmile_qr_scan"}}, {"name": "1f1f50e5f4d30e65e5f866caa0688e91", "fusion_lat": 0.0, "type": "electric_scooter", "lat": 38.8835885, "is_reserved": 0, "is_disabled": 0, "fusion_lon": 0.0, "bike_id": "1f1f50e5f4d30e65e5f866caa0688e91", "lon": -77.03176866666666, "rental_uris": {"ios": "https://dc.lft.to/lastmile_qr_scan", "android": "https://dc.lft.to/lastmile_qr_scan"}},