{"data": {"bikes": [{"fusion_lat": 0.0, "name": "5b802ef51483cfab1aaaceb19a0d741b", "is_disabled": 0, "rental_uris": {"android": "https://dc.lft.to/lastmile_qr_scan", "ios": "https://dc.lft.to/lastmile_qr_scan"}, "fusion_lon": 0.0, "lat": 38.900971, "bike_id": "5b802ef51483cfab1aaaceb19a0d741b", "type": "electric_scooter", "is_reserved": 0, "lon": -77.03375133333333}, {"fusion_lat": 0.0, "name": "a1cc01830c9d4ea52f02ac0ec70d1235", "is_disabled": 0, "rental_uris": {"android": "https://dc.lft.to/lastmile_qr_scan", "ios": "https://dc.lft.to/lastmile_qr_scan"}, "fusion_lon": 0.0, "lat": 38.9643845, "bike_id": "a1cc01830c9d4ea52f02ac0ec70d1235", "type": "electric_scooter", "is_reserved": 0, "lon": -77.0206435}, {"fusion_lat": 0.0, "name": "195861b096e0384478ab97ddcbdd5285", "is_disabled": 0, "rental_uris": {"android": "https://dc.lft.to/lastmile_qr_scan", "ios": "https://dc.lft.to/lastmile_qr_scan"}, "fusion_lon": 0.0, "lat": 38.90889583333333, "bike_id": "195861b096e0384478ab97ddcbdd5285", "type": "electric_scooter", "is_reserved": 0, "lon": -77.043859}, {"fusion_lat": 0.0, "name": "de59200190bd7e05bc66b29b58b91fbe", "is_disabled": 0, "rental_uris": {"android": "https://dc.lft.to/lastmile_qr_scan", "ios": "https://dc.lft.to/lastmile_qr_scan"}, "fusion_lon": 0.0, "lat": 38.90525383333333, "bike_id": "de59200190bd7e05bc66b29b58b91fbe", "type": "electric_scooter", "is_reserved": 0, "lon": -77.05129233333334}, {"fusion_lat": 0.0, "name": "9ad73cf49df1a57f5fa6f944a896fe58", "is_disabled": 0, "rental_uris": {"android": "https://dc.lft.to/lastmile_qr_scan", "ios": "https://dc.lft.to/lastmile_qr_scan"}, "fusion_lon": 0.0, "lat": 38.919268, "bike_id": "9ad73cf49df1a57f5fa6f944a896fe58", "type": "electric_scooter", "is_reserved": 0, "lon": -77.03177166666667}, {"fusion_lat": 0.0, "name": "c47a5776932a25540796bfbbba622550", "is_disabled": 0, "rental_uris": {"android": "https://dc.lft.to/lastmile_qr_scan", "ios": "https://dc.lft.to/lastmile_qr_scan"}, "fusion_lon": 0.0, "lat": 38.921819666666664, "bike_id": "c47a5776932a25540796bfbbba622550", "type": "electric_scooter", "is_reserved": 0, "lon": -77.04231433333334}, {"fusion_lat": 0.0, "name": "e8ad0af528ccb0f758b9a4469ec67611", "is_disabled": 0, "rental_uris": {"android": "https://dc.lft.to/lastmile_qr_scan", "ios": "https://dc.lft.to/lastmile_qr_scan"}, "fusion_lon": 0.0, "lat": 38.93492233333333, "bike_id": "e8ad0af528ccb0f758b9a4469ec67611", "type": "electric_scooter", "is_reserved": 0, "lon": -77.03079666666666}, {"fusion_lat": 0.0, "name": "dffebb786785fc2c8aa8d2c8548da47f", "is_disabled": 0, "rental_uris": {"android": "https://dc.lft.to/lastmile_qr_scan", "ios": "https://dc.lft.to/lastmile_qr_scan"}, "fusion_lon": 0.0, "lat": 38.898544, "bike_id": "dffebb786785fc2c8aa8d2c8548da47f", "type": "electric_scooter", "is_reserved": 0, "lon": -76.99272216666667}, {"fusion_lat": 0.0, "name": "72c1e688ae45cb39ee21ce3fb6881526", "is_disabled": 0, "rental_uris": {"android": "https://dc.lft.to/lastmile_qr_scan", "ios": "https://dc.lft.to/lastmile_qr_scan"}, "fusion_lon": 0.0, "lat": 38.92507966666667, "bike_id": "72c1e688ae45cb39ee21ce3fb6881526", "type": "electric_scooter", "is_reserved": 0, "lon": -77.037765}, {"fusion_lat": 0.0, "name": "cc799eb6783c0fb4db132de5bd197acb", "is_disabled": 0, "rental_uris": {"android": "https://dc.lft.to/lastmile_qr_scan", "ios": "https://dc.lft.to/lastmile_qr_scan"}, "fusion_lon": 0.0, "lat": 38.888908666666666, "bike_id": "cc799eb6783c0fb4db132de5bd197acb", "type": "electric_bike", "is_reserved": 0, "lon": -77.115302}, {"fusion_lat": 0.0, "name": "500a17daf14e1a4a371dd725d78b89ab", "is_disabled": 0, "rental_uris": {"android": "https://dc.lft.to/lastmile_qr_scan", "ios": "https://dc.lft.to/lastmile_qr_scan"}, "fusion_lon": 0.0, "lat": 38.89743216666667, "bike_id": "500a17daf14e1a4a371dd725d78b89ab", "type": "electric_scooter", "is_reserved": 0, "lon": -77.02731066666666}, {"fusion_lat": 0.0, "name": "6965c948601833337e979357643a1323", "is_disabled": 0, "rental_uris": {"android": "https://dc.lft.to/lastmile_qr_scan", "ios": "https://dc.lft.to/lastmile_qr_scan"}, "fusion_lon": 0.0, "lat": 38.91648766666667, "bike_id": "6965c948601833337e979357643a1323", "type": "electric_scooter", "is_reserved": 0, "lon": -77.0240365}, {"fusion_lat": 0.0, "name": "46918d305e1e6cf5e4bc0c6cd273ba3e", "is_disabled": 0, "rental_uris": {"android": "https://dc.lft.to/lastmile_qr_scan", "ios": "https://dc.lft.to/lastmile_qr_scan"}, "fusion_lon": 0.0, "lat": 38.916966, "bike_id": "46918d305e1e6cf5e4bc0c6cd273ba3e", "type": "electric_scooter", "is_reserved": 0, "lon": -77.03222166666667}, {"fusion_lat": 0.0, "name": "773c35420f7f2f2c27cd95479bd05bb8", "is_disabled": 0, "rental_uris": {"android": "https://dc.lft.to/lastmile_qr_scan", "ios": "https://dc.lft.to/lastmile_qr_scan"}, "fusion_lon": 0.0, "lat": 38.99523966666667, "bike_id": "773c35420f7f2f2c27cd95479bd05bb8", "type": "electric_bike", "is_reserved": 0, "lon": -77.02907783333333}, {"fusion_lat": 0.0, "name": "e49d71b1eac088959f8ac149aa701864", "is_disabled": 0, "rental_uris": {"android": "https://dc.lft.to/lastmile_qr_scan", "ios": "https://dc.lft.to/lastmile_qr_scan"}, "fusion_lon": 0.0, "lat": 38.8994575, "bike_id": "e49d71b1eac088959f8ac149aa701864", "type": "electric_scooter", "is_reserved": 0, "lon": -77.04530883333334}, {"fusion_lat": 0.0, "name": "e1c0786a3d77c2e7a91eb6f4310218fa", "is_disabled": 0, "rental_uris": {"android": "https://dc.lft.to/lastmile_qr_scan", "ios": "https://dc.lft.to/lastmile_qr_scan"}, "fusion_lon": 0.0, "lat": 38.90726183333334, "bike_id": "e1c0786a3d77c2e7a91eb6f4310218fa", "type": "electric_scooter", "is_reserved": 0, "lon": -76.9981575}, {"fusion_lat": 0.0, "name": "d2e07b02a08cdea7afbb578761b54e9f", "is_disabled": 0, "rental_uris": {"android": "https://dc.lft.to/lastmile_qr_scan", "ios": "https://dc.lft.to/lastmile_qr_scan"}, "fusion_lon": 0.0, "lat": 38.902928833333334, "bike_id": "d2e07b02a08cdea7afbb578761b54e9f", "type": "electric_scooter", "is_reserved": 0, "lon": -76.99039583333334}, {"fusion_lat": 0.0, "name": "65ff8bc181da49a8a6defcad4ab61348", "is_disabled": 0, "rental_uris": {"android": "https://dc.lft.to/lastmile_qr_scan", "ios": "https://dc.lft.to/lastmile_qr_scan"}, "fusion_lon": 0.0, "lat": 38.9229155, "bike_id": "65ff8bc181da49a8a6defcad4ab61348", "type": "electric_scooter", "is_reserved": 0, "lon": -77.07289016666667}, {"fusion_lat": 0.0, "name": "0d112df26f770a278d37b02c5354b9cf", "is_disabled": 0, "rental_uris": {"android": "https://dc.lft.to/lastmile_qr_scan", "ios": "https://dc.lft.to/lastmile_qr_scan"}, "fusion_lon": 0.0, "lat": 38.84283816666667, "bike_id": "0d112df26f770a278d37b02c5354b9cf", "type": "electric_bike", "is_reserved": 0, "lon": -77.04490283333334}, {"fusion_lat": 0.0, "name": "87feca26a3c950bb3ccaaaf1575ddd69", "is_disabled": 0, "rental_uris": {"android": "https://dc.lft.to/lastmile_qr_scan", "ios": "https://dc.lft.to/lastmile_qr_scan"}, "fusion_lon": 0.0, "lat": 38.9294575, "bike_id": "87feca26a3c950bb3ccaaaf1575ddd69", "type": "electric_scooter", "is_reserved": 0, "lon": -77.034643}, {"fusion_lat": 0.0, "name": "29d6acaac264be2d342fee405bfaad10", "is_disabled": 0, "rental_uris": {"android": "https://dc.lft.to/lastmile_qr_scan", "ios": "https://dc.lft.to/lastmile_qr_scan"}, "fusion_lon": 0.0, "lat": 38.89564033333333, "bike_id": "29d6acaac264be2d342fee405bfaad10", "type": "electric_bike", "is_reserved": 0, "lon": -77.12737583333333}, {"fusion_lat": 0.0, "name": "8a3a21814b62b55b4b7f62fd8b605fe1", "is_disabled": 0, "rental_uris": {"android": "https://dc.lft.to/lastmile_qr_scan", "ios": "https://dc.lft.to/lastmile_qr_scan"}, "fusion_lon": 0.0, "lat": 38.90277783333333, "bike_id": "8a3a21814b62b55b4b7f62fd8b605fe1", "type": "electric_scooter", "is_reserved": 0, "lon": -77.03368666666667}, {"fusion_lat": 0.0, "name": "77ecfd3cef04dc73fadb3d1c0c9f5811", "is_disabled": 0, "rental_uris": {"android": "https://dc.lft.to/lastmile_qr_scan", "ios": "https://dc.lft.to/lastmile_qr_scan"}, "fusion_lon": 0.0, "lat": 38.892915333333335, "bike_id": "77ecfd3cef04dc73fadb3d1c0c9f5811", "type": "electric_scooter", "is_reserved": 0, "lon": -77.04655566666666}, {"fusion_lat": 0.0, "name": "465b15ce118283f07e88e6d614b48d97", "is_disabled": 0, "rental_uris": {"android": "https://dc.lft.to/lastmile_qr_scan", "ios": "https://dc.lft.to/lastmile_qr_scan"}, "fusion_lon": 0.0, "lat": 38.90363516666667, "bike_id": "465b15ce118283f07e88e6d614b48d97", "type": "electric_scooter", "is_reserved": 0, "lon": -77.00346333333333}, {"fusion_lat": 0.0, "name": "86daf2d48cfadb24d681ab851a70a90f", "is_disabled": 0, "rental_uris": {"android": "https://dc.lft.to/lastmile_qr_scan", "ios": "https://dc.lft.to/lastmile_qr_scan"}, "fusion_lon": 0.0, "lat": 38.853102666666665, "bike_id": "86daf2d48cfadb24d681ab851a70a90f", "type": "electric_bike", "is_reserved": 0, "lon": -77.04600333333333}, {"fusion_lat": 0.0, "name": "e17ffae1dd74f7b40aaba30cbdf85d52", "is_disabled": 0, "rental_uris": {"android": "https://dc.lft.to/lastmile_qr_scan", "ios": "https://dc.lft.to/lastmile_qr_scan"}, "fusion_lon": 0.0, "lat": 38.91127633333333, "bike_id": "e17ffae1dd74f7b40aaba30cbdf85d52", "type": "electric_scooter", "is_reserved": 0, "lon": -77.01052783333333}, {"fusion_lat": 0.0, "name": "dae46894a3e1a2d11944f302f3d2539a", "is_disabled": 0, "rental_uris": {"android": "https://dc.lft.to/lastmile_qr_scan", "ios": "https://dc.lft.to/lastmile_qr_scan"}, "fusion_lon": 0.0, "lat": 38.907057, "bike_id": "dae46894a3e1a2d11944f302f3d2539a", "type": "electric_scooter", "is_reserved": 0, "lon": -77.01023366666666}, {"fusion_lat": 0.0, "name": "4de1f067dd269772b1181efffe024db5", "is_disabled": 0, "rental_uris": {"android": "https://dc.lft.to/lastmile_qr_scan", "ios": "https://dc.lft.to/lastmile_qr_scan"}, "fusion_lon": 0.0, "lat": 38.9268565, "bike_id": "4de1f067dd269772b1181efffe024db5", "type": "electric_scooter", "is_reserved": 0, "lon": -77.00775083333333}, {"fusion_lat": 0.0, "name": "816b2eaf7eeedd89f266c728b45b2019", "is_disabled": 0, "rental_uris": {"android": "https://dc.lft.to/lastmile_qr_scan", "ios": "https://dc.lft.to/lastmile_qr_scan"}, "fusion_lon": 0.0, "lat": 38.91041716666667, "bike_id": "816b2eaf7eeedd89f266c728b45b2019", "type": "electric_scooter", "is_reserved": 0, "lon": -77.01283616666667}, {"fusion_lat": 0.0, "name": "a5a1962e90247417aa56030379b1d216", "is_disabled": 0, "rental_uris": {"android": "https://dc.lft.to/lastmile_qr_scan", "ios": "https://dc.lft.to/lastmile_qr_scan"}, "fusion_lon": 0.0, "lat": 38.9045, "bike_id": "a5a1962e90247417aa56030379b1d216", "type": "electric_bike", "is_reserved": 0, "lon": -76.97426383333334}, {"fusion_lat": 0.0, "name": "8736bfe3e5806ea351d1a7945f1fcaa2", "is_disabled": 0, "rental_uris": {"android": "https://dc.lft.to/lastmile_qr_scan", "ios": "https://dc.lft.to/lastmile_qr_scan"}, "fusion_lon": 0.0, "lat": 38.855638, "bike_id": "8736bfe3e5806ea351d1a7945f1fcaa2", "type": "electric_bike", "is_reserved": 0, "lon": -77.11316633333334}, {"fusion_lat": 0.0, "name": "b5c7648ba7c7ef714cb5a621100c1878", "is_disabled": 0, "rental_uris": {"android": "https://dc.lft.to/lastmile_qr_scan", "ios": "https://dc.lft.to/lastmile_qr_scan"}, "fusion_lon": 0.0, "lat": 38.8922165, "bike_id": "b5c7648ba7c7ef714cb5a621100c1878", "type": "electric_scooter", "is_reserved": 0, "lon": -77.03219466666667}, {"fusion_lat": 0.0, "name": "733633530ad8ec761aa2a9c71356ea12", "is_disabled": 0, "rental_uris": {"android": "https://dc.lft.to/lastmile_qr_scan", "ios": "https://dc.lft.to/lastmile_qr_scan"}, "fusion_lon": 0.0, "lat": 38.960666, "bike_id": "733633530ad8ec761aa2a9c71356ea12", "type": "electric_scooter", "is_reserved": 0, "lon": -77.00099433333334}, {"fusion_lat": 0.0, "name": "46a7e1b881e7f9b73c6314dd9bea9875", "is_disabled": 0, "rental_uris": {"android": "https://dc.lft.to/lastmile_qr_scan", "ios": "https://dc.lft.to/lastmile_qr_scan"}, "fusion_lon": 0.0, "lat": 38.897277, "bike_id": "46a7e1b881e7f9b73c6314dd9bea9875", "type": "electric_scooter", "is_reserved": 0, "lon": -76.94702266666667}, {"fusion_lat": 0.0, "name": "888f3c27f3290934ff824b5fce6094f4", "is_disabled": 0, "rental_uris": {"android": "https://dc.lft.to/lastmile_qr_scan", "ios": "https://dc.lft.to/lastmile_qr_scan"}, "fusion_lon": 0.0, "lat": 38.90500816666667, "bike_id": "888f3c27f3290934ff824b5fce6094f4", "type": "electric_scooter", "is_reserved": 0, "lon": -77.02949}, {"fusion_lat": 0.0, "name": "cb5865f364cf57790316ca5ad3f66e34", "is_disabled": 0, "rental_uris": {"android": "https://dc.lft.to/lastmile_qr_scan", "ios": "https://dc.lft.to/lastmile_qr_scan"}, "fusion_lon": 0.0, "lat": 38.952719333333334, "bike_id": "cb5865f364cf57790316ca5ad3f66e34", "type": "electric_scooter", "is_reserved": 0, "lon": -77.06862966666667}, {"fusion_lat": 0.0, "name": "f288451cdb0d08aa875cf24a6ee482d9", "is_disabled": 0, "rental_uris": {"android": "https://dc.lft.to/lastmile_qr_scan", "ios": "https://dc.lft.to/lastmile_qr_scan"}, "fusion_lon": 0.0, "lat": 38.90075916666667, "bike_id": "f288451cdb0d08aa875cf24a6ee482d9", "type": "electric_scooter", "is_reserved": 0, "lon": -76.98334116666666}, {"fusion_lat": 0.0, "name": "19de48fd3149005e9f1f65385ed2015f", "is_disabled": 0, "rental_uris": {"android": "https://dc.lft.to/lastmile_qr_scan", "ios": "https://dc.lft.to/lastmile_qr_scan"}, "fusion_lon": 0.0, "lat": 38.91039516666667, "bike_id": "19de48fd3149005e9f1f65385ed2015f", "type": "electric_scooter", "is_reserved": 0, "lon": -77.0083135}, {"fusion_lat": 0.0, "name": "ffa99c669de0b0ad67528558f3e4eb73", "is_disabled": 0, "rental_uris": {"android": "https://dc.lft.to/lastmile_qr_scan", "ios": "https://dc.lft.to/lastmile_qr_scan"}, "fusion_lon": 0.0, "lat": 38.92894783333333, "bike_id": "ffa99c669de0b0ad67528558f3e4eb73", "type": "electric_bike", "is_reserved": 0, "lon": -77.23177033333333}, {"fusion_lat": 0.0, "name": "8b724c754bb3b0aec15cf6fd59152bb7", "is_disabled": 0, "rental_uris": {"android": "https://dc.lft.to/lastmile_qr_scan", "ios": "https://dc.lft.to/lastmile_qr_scan"}, "fusion_lon": 0.0, "lat": 38.89886633333333, "bike_id": "8b724c754bb3b0aec15cf6fd59152bb7", "type": "electric_scooter", "is_reserved": 0, "lon": -77.01519283333333}, {"fusion_lat": 0.0, "name": "67e3a82ca30e51a832aa25e89d78d63f", "is_disabled": 0, "rental_uris": {"android": "https://dc.lft.to/lastmile_qr_scan", "ios": "https://dc.lft.to/lastmile_qr_scan"}, "fusion_lon": 0.0, "lat": 38.925374166666664, "bike_id": "67e3a82ca30e51a832aa25e89d78d63f", "type": "electric_scooter", "is_reserved": 0, "lon": -77.03829683333333}, {"fusion_lat": 0.0, "name": "23c3884e1f58f785045cae57f9a9e255", "is_disabled": 0, "rental_uris": {"android": "https://dc.lft.to/lastmile_qr_scan", "ios": "https://dc.lft.to/lastmile_qr_scan"}, "fusion_lon": 0.0, "lat": 38.93859916666667, "bike_id": "23c3884e1f58f785045cae57f9a9e255", "type": "electric_scooter", "is_reserved": 0, "lon": -77.02475416666667}, {"fusion_lat": 0.0, "name": "73403265081ad7d166d16de561471632", "is_disabled": 0, "rental_uris": {"android": "https://dc.lft.to/lastmile_qr_scan", "ios": "https://dc.lft.to/lastmile_qr_scan"}, "fusion_lon": 0.0, "lat": 38.897934166666666, "bike_id": "73403265081ad7d166d16de561471632", "type": "electric_scooter", "is_reserved": 0, "lon": -77.01204483333333}, {"fusion_lat": 0.0, "name": "b87f39f5276962383393a0dcf3eeab7e", "is_disabled": 0, "rental_uris": {"android": "https://dc.lft.to/lastmile_qr_scan", "ios": "https://dc.lft.to/lastmile_qr_scan"}, "fusion_lon": 0.0, "lat": 38.924208666666665, "bike_id": "b87f39f5276962383393a0dcf3eeab7e", "type": "electric_scooter", "is_reserved": 0, "lon": -77.02551683333333}, {"fusion_lat": 0.0, "name": "ca2c1b30663ced4ca5471488b4d66bc9", "is_disabled": 0, "rental_uris": {"android": "https://dc.lft.to/lastmile_qr_scan", "ios": "https://dc.lft.to/lastmile_qr_scan"}, "fusion_lon": 0.0, "lat": 38.8542205, "bike_id": "ca2c1b30663ced4ca5471488b4d66bc9", "type": "electric_bike", "is_reserved": 0, "lon": -77.12074066666666}, {"fusion_lat": 0.0, "name": "17e592c4c4e057a2a041443df1cd13cf", "is_disabled": 0, "rental_uris": {"android": "https://dc.lft.to/lastmile_qr_scan", "ios": "https://dc.lft.to/lastmile_qr_scan"}, "fusion_lon": 0.0, "lat": 38.935759166666664, "bike_id": "17e592c4c4e057a2a041443df1cd13cf", "type": "electric_scooter", "is_reserved": 0, "lon": -77.02841333333333}, {"fusion_lat": 0.0, "name": "578f2c68c1bed848448a63398004cb88", "is_disabled": 0, "rental_uris": {"android": "https://dc.lft.to/lastmile_qr_scan", "ios": "https://dc.lft.to/lastmile_qr_scan"}, "fusion_lon": 0.0, "lat": 38.9521705, "bike_id": "578f2c68c1bed848448a63398004cb88", "type": "electric_scooter", "is_reserved": 0, "lon": -77.08217}, {"fusion_lat": 0.0, "name": "552fed4d7305750eee8c0dbab8921550", "is_disabled": 0, "rental_uris": {"android": "https://dc.lft.to/lastmile_qr_scan", "ios": "https://dc.lft.to/lastmile_qr_scan"}, "fusion_lon": 0.0, "lat": 38.93144616666667, "bike_id": "552fed4d7305750eee8c0dbab8921550", "type": "electric_scooter", "is_reserved": 0, "lon": -77.03953816666667}, {"fusion_lat": 0.0, "name": "b9a98743a02fb23bd130ed17a58db4d5", "is_disabled": 0, "rental_uris": {"android": "https://dc.lft.to/lastmile_qr_scan", "ios": "https://dc.lft.to/lastmile_qr_scan"}, "fusion_lon": 0.0, "lat": 38.8821725, "bike_id": "b9a98743a02fb23bd130ed17a58db4d5", "type": "electric_scooter", "is_reserved": 0, "lon": -77.02938983333334}, {"fusion_lat": 0.0, "name": "867ce775745dd7229d34b7ce366f1668", "is_disabled": 0, "rental_uris": {"android": "https://dc.lft.to/lastmile_qr_scan", "ios": "https://dc.lft.to/lastmile_qr_scan"}, "fusion_lon": 0.0, "lat": 38.919909, "bike_id": "867ce775745dd7229d34b7ce366f1668", "type": "electric_scooter", "is_reserved": 0, "lon": -77.07193283333334}, {"fusion_lat": 0.0, "name": "6a04da2601b3e8e7800f7c00db730166", "is_disabled": 0, "rental_uris": {"android": "https://dc.lft.to/lastmile_qr_scan", "ios": "https://dc.lft.to/lastmile_qr_scan"}, "fusion_lon": 0.0, "lat": 38.948554333333334, "bike_id": "6a04da2601b3e8e7800f7c00db730166", "type": "electric_scooter", "is_reserved": 0, "lon": -77.02571116666667}, {"fusion_lat": 0.0, "name": "943f5f6a550af47bc140e37c0eb8c30e", "is_disabled": 0, "rental_uris": {"android": "https://dc.lft.to/lastmile_qr_scan", "ios": "https://dc.lft.to/lastmile_qr_scan"}, "fusion_lon": 0.0, "lat": 38.882989333333335, "bike_id": "943f5f6a550af47bc140e37c0eb8c30e", "type": "electric_scooter", "is_reserved": 0, "lon": -76.94854666666667}, {"fusion_lat": 0.0, "name": "9316d7d7a2cab506699fa2f94c56fe40", "is_disabled": 0, "rental_uris": {"android": "https://dc.lft.to/lastmile_qr_scan", "ios": "https://dc.lft.to/lastmile_qr_scan"}, "fusion_lon": 0.0, "lat": 38.9125535, "bike_id": "9316d7d7a2cab506699fa2f94c56fe40", "type": "electric_scooter", "is_reserved": 0, "lon": -77.0062725}, {"fusion_lat": 0.0, "name": "3fd4a197a40f2e3242f0731ce59d0721", "is_disabled": 0, "rental_uris": {"android": "https://dc.lft.to/lastmile_qr_scan", "ios": "https://dc.lft.to/lastmile_qr_scan"}, "fusion_lon": 0.0, "lat": 38.92083616666667, "bike_id": "3fd4a197a40f2e3242f0731ce59d0721", "type": "electric_scooter", "is_reserved": 0, "lon": -76.99450283333333}, {"fusion_lat": 0.0, "name": "3efe3a7d55360ee5b347119ee329aee4", "is_disabled": 0, "rental_uris": {"android": "https://dc.lft.to/lastmile_qr_scan", "ios": "https://dc.lft.to/lastmile_qr_scan"}, "fusion_lon": 0.0, "lat": 38.89611416666666, "bike_id": "3efe3a7d55360ee5b347119ee329aee4", "type": "electric_scooter", "is_reserved": 0, "lon": -77.0497445}, {"fusion_lat": 0.0, "name": "2ce75eaad6d953c11dc8bc800aea2f01", "is_disabled": 0, "rental_uris": {"android": "https://dc.lft.to/lastmile_qr_scan", "ios": "https://dc.lft.to/lastmile_qr_scan"}, "fusion_lon": 0.0, "lat": 38.907358333333335, "bike_id": "2ce75eaad6d953c11dc8bc800aea2f01", "type": "electric_scooter", "is_reserved": 0, "lon": -77.000886}, {"fusion_lat": 0.0, "name": "14576a46afbf36d440fb3d3594f8de32", "is_disabled": 0, "rental_uris": {"android": "https://dc.lft.to/lastmile_qr_scan", "ios": "https://dc.lft.to/lastmile_qr_scan"}, "fusion_lon": 0.0, "lat": 38.90465833333333, "bike_id": "14576a46afbf36d440fb3d3594f8de32", "type": "electric_scooter", "is_reserved": 0, "lon": -77.050642}, {"fusion_lat": 0.0, "name": "71d8510860a3aff02318474b5801b6e6", "is_disabled": 0, "rental_uris": {"android": "https://dc.lft.to/lastmile_qr_scan", "ios": "https://dc.lft.to/lastmile_qr_scan"}, "fusion_lon": 0.0, "lat": 38.924742333333334, "bike_id": "71d8510860a3aff02318474b5801b6e6", "type": "electric_bike", "is_reserved": 0, "lon": -77.233578}, {"fusion_lat": 0.0, "name": "809374fbf2cd02178332330bef6a0f29", "is_disabled": 0, "rental_uris": {"android": "https://dc.lft.to/lastmile_qr_scan", "ios": "https://dc.lft.to/lastmile_qr_scan"}, "fusion_lon": 0.0, "lat": 38.903025, "bike_id": "809374fbf2cd02178332330bef6a0f29", "type": "electric_scooter", "is_reserved": 0, "lon": -76.97510166666666}, {"fusion_lat": 0.0, "name": "138f1a140d6ed06d9c86aca4b7a71a44", "is_disabled": 0, "rental_uris": {"android": "https://dc.lft.to/lastmile_qr_scan", "ios": "https://dc.lft.to/lastmile_qr_scan"}, "fusion_lon": 0.0, "lat": 38.91520533333333, "bike_id": "138f1a140d6ed06d9c86aca4b7a71a44", "type": "electric_scooter", "is_reserved": 0, "lon": -77.07276283333333}, {"fusion_lat": 0.0, "name": "1e21b8964a385fdbd6933d0482e7ff81", "is_disabled": 0, "rental_uris": {"android": "https://dc.lft.to/lastmile_qr_scan", "ios": "https://dc.lft.to/lastmile_qr_scan"}, "fusion_lon": 0.0, "lat": 38.905072833333335, "bike_id": "1e21b8964a385fdbd6933d0482e7ff81", "type": "electric_scooter", "is_reserved": 0, "lon": -77.06433333333334}, {"fusion_lat": 0.0, "name": "84b23993a13f3ae1cff3c32a18edf7f6", "is_disabled": 0, "rental_uris": {"android": "https://dc.lft.to/lastmile_qr_scan", "ios": "https://dc.lft.to/lastmile_qr_scan"}, "fusion_lon": 0.0, "lat": 38.932636333333335, "bike_id": "84b23993a13f3ae1cff3c32a18edf7f6", "type": "electric_scooter", "is_reserved": 0, "lon": -77.01916033333333}, {"fusion_lat": 0.0, "name": "523b0fca7042621601456a0f00866e91", "is_disabled": 0, "rental_uris": {"android": "https://dc.lft.to/lastmile_qr_scan", "ios": "https://dc.lft.to/lastmile_qr_scan"}, "fusion_lon": 0.0, "lat": 38.9396145, "bike_id": "523b0fca7042621601456a0f00866e91", "type": "electric_scooter", "is_reserved": 0, "lon": -77.032879}, {"fusion_lat": 0.0, "name": "34ec94a6ccac48602aa1707d0f763406", "is_disabled": 0, "rental_uris": {"android": "https://dc.lft.to/lastmile_qr_scan", "ios": "https://dc.lft.to/lastmile_qr_scan"}, "fusion_lon": 0.0, "lat": 38.8966235, "bike_id": "34ec94a6ccac48602aa1707d0f763406", "type": "electric_scooter", "is_reserved": 0, "lon": -76.93207966666667}, {"fusion_lat": 0.0, "name": "f279ee54d20dbd48ff916d2085aac51f", "is_disabled": 0, "rental_uris": {"android": "https://dc.lft.to/lastmile_qr_scan", "ios": "https://dc.lft.to/lastmile_qr_scan"}, "fusion_lon": 0.0, "lat": 38.90923566666667, "bike_id": "f279ee54d20dbd48ff916d2085aac51f", "type": "electric_scooter", "is_reserved": 0, "lon": -77.0626835}, {"fusion_lat": 0.0, "name": "efc3ec24927eb9c84dd2d84f1c721d02", "is_disabled": 0, "rental_uris": {"android": "https://dc.lft.to/lastmile_qr_scan", "ios": "https://dc.lft.to/lastmile_qr_scan"}, "fusion_lon": 0.0, "lat": 38.93484683333333, "bike_id": "efc3ec24927eb9c84dd2d84f1c721d02", "type": "electric_scooter", "is_reserved": 0, "lon": -77.0453205}, {"fusion_lat": 0.0, "name": "b5b07784e80256c2c6c447bc35ca2af0", "is_disabled": 0, "rental_uris": {"android": "https://dc.lft.to/lastmile_qr_scan", "ios": "https://dc.lft.to/lastmile_qr_scan"}, "fusion_lon": 0.0, "lat": 38.920717, "bike_id": "b5b07784e80256c2c6c447bc35ca2af0", "type": "electric_scooter", "is_reserved": 0, "lon": -77.02318433333333}, {"fusion_lat": 0.0, "name": "1ccd0d8ffcc028b19bf4951a8e367a58", "is_disabled": 0, "rental_uris": {"android": "https://dc.lft.to/lastmile_qr_scan", "ios": "https://dc.lft.to/lastmile_qr_scan"}, "fusion_lon": 0.0, "lat": 38.931173333333334, "bike_id": "1ccd0d8ffcc028b19bf4951a8e367a58", "type": "electric_scooter", "is_reserved": 0, "lon": -77.020868}, {"fusion_lat": 0.0, "name": "a98a612412c1daed10278f3376a474ad", "is_disabled": 0, "rental_uris": {"android": "https://dc.lft.to/lastmile_qr_scan", "ios": "https://dc.lft.to/lastmile_qr_scan"}, "fusion_lon": 0.0, "lat": 38.93651633333333, "bike_id": "a98a612412c1daed10278f3376a474ad", "type": "electric_scooter", "is_reserved": 0, "lon": -77.03651583333334}, {"fusion_lat": 0.0, "name": "0f56927301532a6ffca7151a1da39ee6", "is_disabled": 0, "rental_uris": {"android": "https://dc.lft.to/lastmile_qr_scan", "ios": "https://dc.lft.to/lastmile_qr_scan"}, "fusion_lon": 0.0, "lat": 38.92153716666667, "bike_id": "0f56927301532a6ffca7151a1da39ee6", "type": "electric_scooter", "is_reserved": 0, "lon": -77.03360033333334}, {"fusion_lat": 0.0, "name": "81534867ceba8e0813b82f79302240f9", "is_disabled": 0, "rental_uris": {"android": "https://dc.lft.to/lastmile_qr_scan", "ios": "https://dc.lft.to/lastmile_qr_scan"}, "fusion_lon": 0.0, "lat": 38.907127833333334, "bike_id": "81534867ceba8e0813b82f79302240f9", "type": "electric_scooter", "is_reserved": 0, "lon": -77.0288975}, {"fusion_lat": 0.0, "name": "138d93d011324234e276d89e8ef1fad3", "is_disabled": 0, "rental_uris": {"android": "https://dc.lft.to/lastmile_qr_scan", "ios": "https://dc.lft.to/lastmile_qr_scan"}, "fusion_lon": 0.0, "lat": 38.95231016666666, "bike_id": "138d93d011324234e276d89e8ef1fad3", "type": "electric_scooter", "is_reserved": 0, "lon": -76.99004483333333}, {"fusion_lat": 0.0, "name": "8478246b78c5dc8ccc472b326a700d07", "is_disabled": 0, "rental_uris": {"android": "https://dc.lft.to/lastmile_qr_scan", "ios": "https://dc.lft.to/lastmile_qr_scan"}, "fusion_lon": 0.0, "lat": 38.903892666666664, "bike_id": "8478246b78c5dc8ccc472b326a700d07", "type": "electric_scooter", "is_reserved": 0, "lon": -76.99008666666667}, {"fusion_lat": 0.0, "name": "93b38c88765023fbd38464923b6537cb", "is_disabled": 0, "rental_uris": {"android": "https://dc.lft.to/lastmile_qr_scan", "ios": "https://dc.lft.to/lastmile_qr_scan"}, "fusion_lon": 0.0, "lat": 38.907302333333334, "bike_id": "93b38c88765023fbd38464923b6537cb", "type": "electric_scooter", "is_reserved": 0, "lon": -77.01228516666667}, {"fusion_lat": 0.0, "name": "b31f2da1a01f8c086e4de3fb252474f9", "is_disabled": 0, "rental_uris": {"android": "https://dc.lft.to/lastmile_qr_scan", "ios": "https://dc.lft.to/lastmile_qr_scan"}, "fusion_lon": 0.0, "lat": 38.935229666666665, "bike_id": "b31f2da1a01f8c086e4de3fb252474f9", "type": "electric_scooter", "is_reserved": 0, "lon": -77.03262083333334}, {"fusion_lat": 0.0, "name": "70a934ca5ee3d2d6ce0946b53ada2910", "is_disabled": 0, "rental_uris": {"android": "https://dc.lft.to/lastmile_qr_scan", "ios": "https://dc.lft.to/lastmile_qr_scan"}, "fusion_lon": 0.0, "lat": 38.9040585, "bike_id": "70a934ca5ee3d2d6ce0946b53ada2910", "type": "electric_scooter", "is_reserved": 0, "lon": -76.973316}, {"fusion_lat": 0.0, "name": "a1f60709689f4ae1e1739c0c63a0aded", "is_disabled": 0, "rental_uris": {"android": "https://dc.lft.to/lastmile_qr_scan", "ios": "https://dc.lft.to/lastmile_qr_scan"}, "fusion_lon": 0.0, "lat": 38.86017966666667, "bike_id": "a1f60709689f4ae1e1739c0c63a0aded", "type": "electric_bike", "is_reserved": 0, "lon": -77.12807333333333}, {"fusion_lat": 0.0, "name": "d08950210a36f0b98bd02505cb47dd09", "is_disabled": 0, "rental_uris": {"android": "https://dc.lft.to/lastmile_qr_scan", "ios": "https://dc.lft.to/lastmile_qr_scan"}, "fusion_lon": 0.0, "lat": 38.902598, "bike_id": "d08950210a36f0b98bd02505cb47dd09", "type": "electric_scooter", "is_reserved": 0, "lon": -76.9745505}, {"fusion_lat": 0.0, "name": "be492db330de872260f7e620007b1293", "is_disabled": 0, "rental_uris": {"android": "https://dc.lft.to/lastmile_qr_scan", "ios": "https://dc.lft.to/lastmile_qr_scan"}, "fusion_lon": 0.0, "lat": 38.9206975, "bike_id": "be492db330de872260f7e620007b1293", "type": "electric_scooter", "is_reserved": 0, "lon": -77.0241125}, {"fusion_lat": 0.0, "name": "ab872183e5b4c1706b998661f08dc2a9", "is_disabled": 0, "rental_uris": {"android": "https://dc.lft.to/lastmile_qr_scan", "ios": "https://dc.lft.to/lastmile_qr_scan"}, "fusion_lon": 0.0, "lat": 38.918163666666665, "bike_id": "ab872183e5b4c1706b998661f08dc2a9", "type": "electric_scooter", "is_reserved": 0, "lon": -77.02484716666666}, {"fusion_lat": 0.0, "name": "492d00e6a5edfea8c6d79245896c69c1", "is_disabled": 0, "rental_uris": {"android": "https://dc.lft.to/lastmile_qr_scan", "ios": "https://dc.lft.to/lastmile_qr_scan"}, "fusion_lon": 0.0, "lat": 38.929281333333336, "bike_id": "492d00e6a5edfea8c6d79245896c69c1", "type": "electric_scooter", "is_reserved": 0, "lon": -77.02342716666666}, {"fusion_lat": 0.0, "name": "bdc4f48724817b86edddbfa17ed62132", "is_disabled": 0, "rental_uris": {"android": "https://dc.lft.to/lastmile_qr_scan", "ios": "https://dc.lft.to/lastmile_qr_scan"}, "fusion_lon": 0.0, "lat": 38.923155, "bike_id": "bdc4f48724817b86edddbfa17ed62132", "type": "electric_scooter", "is_reserved": 0, "lon": -77.02037016666667}, {"fusion_lat": 0.0, "name": "dd84e1beaada66f5ee08246ad28dbaf5", "is_disabled": 0, "rental_uris": {"android": "https://dc.lft.to/lastmile_qr_scan", "ios": "https://dc.lft.to/lastmile_qr_scan"}, "fusion_lon": 0.0, "lat": 38.930755833333336, "bike_id": "dd84e1beaada66f5ee08246ad28dbaf5", "type": "electric_scooter", "is_reserved": 0, "lon": -77.077623}, {"fusion_lat": 0.0, "name": "9d62985bed280fd8e35b2cf36b0df32c", "is_disabled": 0, "rental_uris": {"android": "https://dc.lft.to/lastmile_qr_scan", "ios": "https://dc.lft.to/lastmile_qr_scan"}, "fusion_lon": 0.0, "lat": 38.905609, "bike_id": "9d62985bed280fd8e35b2cf36b0df32c", "type": "electric_scooter", "is_reserved": 0, "lon": -77.02933733333333}, {"fusion_lat": 0.0, "name": "8244f9e29232c066a97338c014915a47", "is_disabled": 0, "rental_uris": {"android": "https://dc.lft.to/lastmile_qr_scan", "ios": "https://dc.lft.to/lastmile_qr_scan"}, "fusion_lon": 0.0, "lat": 38.86367383333334, "bike_id": "8244f9e29232c066a97338c014915a47", "type": "electric_bike", "is_reserved": 0, "lon": -76.97010766666666}, {"fusion_lat": 0.0, "name": "3d2266e55cbb6c81e9911e9c7b2f6d5c", "is_disabled": 0, "rental_uris": {"android": "https://dc.lft.to/lastmile_qr_scan", "ios": "https://dc.lft.to/lastmile_qr_scan"}, "fusion_lon": 0.0, "lat": 38.88763766666667, "bike_id": "3d2266e55cbb6c81e9911e9c7b2f6d5c", "type": "electric_scooter", "is_reserved": 0, "lon": -76.97746016666666}, {"fusion_lat": 0.0, "name": "28f57b6d82a1a8aad5882a1d9a20c3ec", "is_disabled": 0, "rental_uris": {"android": "https://dc.lft.to/lastmile_qr_scan", "ios": "https://dc.lft.to/lastmile_qr_scan"}, "fusion_lon": 0.0, "lat": 38.9183, "bike_id": "28f57b6d82a1a8aad5882a1d9a20c3ec", "type": "electric_scooter", "is_reserved": 0, "lon": -77.03186366666667}, {"fusion_lat": 0.0, "name": "a13cdbd8a675d9d3dc92341f7569cfeb", "is_disabled": 0, "rental_uris": {"android": "https://dc.lft.to/lastmile_qr_scan", "ios": "https://dc.lft.to/lastmile_qr_scan"}, "fusion_lon": 0.0, "lat": 38.901506499999996, "bike_id": "a13cdbd8a675d9d3dc92341f7569cfeb", "type": "electric_scooter", "is_reserved": 0, "lon": -76.93074616666667}, {"fusion_lat": 0.0, "name": "2a85ec908ca76bc94fd2c78e9719e0ac", "is_disabled": 0, "rental_uris": {"android": "https://dc.lft.to/lastmile_qr_scan", "ios": "https://dc.lft.to/lastmile_qr_scan"}, "fusion_lon": 0.0, "lat": 38.93766866666667, "bike_id": "2a85ec908ca76bc94fd2c78e9719e0ac", "type": "electric_scooter", "is_reserved": 0, "lon": -77.03284866666667}, {"fusion_lat": 0.0, "name": "d1cfd032ae1d1f168885ecd14e0ff7d4", "is_disabled": 0, "rental_uris": {"android": "https://dc.lft.to/lastmile_qr_scan", "ios": "https://dc.lft.to/lastmile_qr_scan"}, "fusion_lon": 0.0, "lat": 38.89748316666667, "bike_id": "d1cfd032ae1d1f168885ecd14e0ff7d4", "type": "electric_scooter", "is_reserved": 0, "lon": -77.02507683333333}, {"fusion_lat": 0.0, "name": "b964698ec555cf796176f81f5c95291d", "is_disabled": 0, "rental_uris": {"android": "https://dc.lft.to/lastmile_qr_scan", "ios": "https://dc.lft.to/lastmile_qr_scan"}, "fusion_lon": 0.0, "lat": 38.920765333333335, "bike_id": "b964698ec555cf796176f81f5c95291d", "type": "electric_scooter", "is_reserved": 0, "lon": -77.02300333333334}, {"fusion_lat": 0.0, "name": "4ef2c0350837d00854ddaa6efbe0d8b3", "is_disabled": 0, "rental_uris": {"android": "https://dc.lft.to/lastmile_qr_scan", "ios": "https://dc.lft.to/lastmile_qr_scan"}, "fusion_lon": 0.0, "lat": 38.909338, "bike_id": "4ef2c0350837d00854ddaa6efbe0d8b3", "type": "electric_scooter", "is_reserved": 0, "lon": -77.0184425}, {"fusion_lat": 0.0, "name": "e8052b4cc3b456e8e854b6bb172350a3", "is_disabled": 0, "rental_uris": {"android": "https://dc.lft.to/lastmile_qr_scan", "ios": "https://dc.lft.to/lastmile_qr_scan"}, "fusion_lon": 0.0, "lat": 38.93140616666667, "bike_id": "e8052b4cc3b456e8e854b6bb172350a3", "type": "electric_bike", "is_reserved": 0, "lon": -77.038335}, {"fusion_lat": 0.0, "name": "788b75fd3037efb21bbd26af406d783e", "is_disabled": 0, "rental_uris": {"android": "https://dc.lft.to/lastmile_qr_scan", "ios": "https://dc.lft.to/lastmile_qr_scan"}, "fusion_lon": 0.0, "lat": 38.90682366666667, "bike_id": "788b75fd3037efb21bbd26af406d783e", "type": "electric_bike", "is_reserved": 0, "lon": -76.9449095}, {"fusion_lat": 0.0, "name": "d2fd6aa9c7cb7d2ecb2f15cf33fcb6f3", "is_disabled": 0, "rental_uris": {"android": "https://dc.lft.to/lastmile_qr_scan", "ios": "https://dc.lft.to/lastmile_qr_scan"}, "fusion_lon": 0.0, "lat": 38.91486783333333, "bike_id": "d2fd6aa9c7cb7d2ecb2f15cf33fcb6f3", "type": "electric_scooter", "is_reserved": 0, "lon": -76.98356483333333}, {"fusion_lat": 0.0, "name": "96e4ed41775857d3d200a0bddbb1a2c0", "is_disabled": 0, "rental_uris": {"android": "https://dc.lft.to/lastmile_qr_scan", "ios": "https://dc.lft.to/lastmile_qr_scan"}, "fusion_lon": 0.0, "lat": 38.93395233333333, "bike_id": "96e4ed41775857d3d200a0bddbb1a2c0", "type": "electric_scooter", "is_reserved": 0, "lon": -77.057451}, {"fusion_lat": 0.0, "name": "007df8b32fbe24f38d22a6843f1cb40d", "is_disabled": 0, "rental_uris": {"android": "https://dc.lft.to/lastmile_qr_scan", "ios": "https://dc.lft.to/lastmile_qr_scan"}, "fusion_lon": 0.0, "lat": 38.90555116666667, "bike_id": "007df8b32fbe24f38d22a6843f1cb40d", "type": "electric_scooter", "is_reserved": 0, "lon": -76.99792316666667}, {"fusion_lat": 0.0, "name": "8a3f8ede2ced5ba218f37dd398835f0f", "is_disabled": 0, "rental_uris": {"android": "https://dc.lft.to/lastmile_qr_scan", "ios": "https://dc.lft.to/lastmile_qr_scan"}, "fusion_lon": 0.0, "lat": 38.907910666666666, "bike_id": "8a3f8ede2ced5ba218f37dd398835f0f", "type": "electric_scooter", "is_reserved": 0, "lon": -76.99428366666666}, {"fusion_lat": 0.0, "name": "7a022519ab6093f1a00aefda9e6863ab", "is_disabled": 0, "rental_uris": {"android": "https://dc.lft.to/lastmile_qr_scan", "ios": "https://dc.lft.to/lastmile_qr_scan"}, "fusion_lon": 0.0, "lat": 38.90558933333333, "bike_id": "7a022519ab6093f1a00aefda9e6863ab", "type": "electric_scooter", "is_reserved": 0, "lon": -76.98198133333334}, {"fusion_lat": 0.0, "name": "42e204ee05960403cb0a2ad2cea93f53", "is_disabled": 0, "rental_uris": {"android": "https://dc.lft.to/lastmile_qr_scan", "ios": "https://dc.lft.to/lastmile_qr_scan"}, "fusion_lon": 0.0, "lat": 38.888228833333336, "bike_id": "42e204ee05960403cb0a2ad2cea93f53", "type": "electric_scooter", "is_reserved": 0, "lon": -76.98660916666667}, {"fusion_lat": 0.0, "name": "45ec0c560b9c99cbb65df3dee552fa74", "is_disabled": 0, "rental_uris": {"android": "https://dc.lft.to/lastmile_qr_scan", "ios": "https://dc.lft.to/lastmile_qr_scan"}, "fusion_lon": 0.0, "lat": 38.90551766666667, "bike_id": "45ec0c560b9c99cbb65df3dee552fa74", "type": "electric_scooter", "is_reserved": 0, "lon": -77.06512683333334}, {"fusion_lat": 0.0, "name": "4c7878c728a25b72a047f52bbab46693", "is_disabled": 0, "rental_uris": {"android": "https://dc.lft.to/lastmile_qr_scan", "ios": "https://dc.lft.to/lastmile_qr_scan"}, "fusion_lon": 0.0, "lat": 38.92249616666667, "bike_id": "4c7878c728a25b72a047f52bbab46693", "type": "electric_scooter", "is_reserved": 0, "lon": -77.074527}, {"fusion_lat": 0.0, "name": "add5954208488d7a6f8a632886a06f72", "is_disabled": 0, "rental_uris": {"android": "https://dc.lft.to/lastmile_qr_scan", "ios": "https://dc.lft.to/lastmile_qr_scan"}, "fusion_lon": 0.0, "lat": 38.93895766666667, "bike_id": "add5954208488d7a6f8a632886a06f72", "type": "electric_scooter", "is_reserved": 0, "lon": -77.03266066666667}, {"fusion_lat": 0.0, "name": "0f7584000eea51ee9e8fe80f6ae4edbe", "is_disabled": 0, "rental_uris": {"android": "https://dc.lft.to/lastmile_qr_scan", "ios": "https://dc.lft.to/lastmile_qr_scan"}, "fusion_lon": 0.0, "lat": 38.92849433333333, "bike_id": "0f7584000eea51ee9e8fe80f6ae4edbe", "type": "electric_scooter", "is_reserved": 0, "lon": -77.03637283333333}, {"fusion_lat": 0.0, "name": "35b09e3a850e957c11ad667a8abdda55", "is_disabled": 0, "rental_uris": {"android": "https://dc.lft.to/lastmile_qr_scan", "ios": "https://dc.lft.to/lastmile_qr_scan"}, "fusion_lon": 0.0, "lat": 38.89218666666667, "bike_id": "35b09e3a850e957c11ad667a8abdda55", "type": "electric_scooter", "is_reserved": 0, "lon": -77.0321945}, {"fusion_lat": 0.0, "name": "4e32856116e68111f96b6fecce7d331e", "is_disabled": 0, "rental_uris": {"android": "https://dc.lft.to/lastmile_qr_scan", "ios": "https://dc.lft.to/lastmile_qr_scan"}, "fusion_lon": 0.0, "lat": 38.90076233333333, "bike_id": "4e32856116e68111f96b6fecce7d331e", "type": "electric_scooter", "is_reserved": 0, "lon": -77.049631}, {"fusion_lat": 0.0, "name": "52240b5ae5ea833c4b36e28257f13b4d", "is_disabled": 0, "rental_uris": {"android": "https://dc.lft.to/lastmile_qr_scan", "ios": "https://dc.lft.to/lastmile_qr_scan"}, "fusion_lon": 0.0, "lat": 38.924662166666664, "bike_id": "52240b5ae5ea833c4b36e28257f13b4d", "type": "electric_scooter", "is_reserved": 0, "lon": -77.02072383333334}, {"fusion_lat": 0.0, "name": "61c2d97b6ae4388f8a0779e2be2e1a03", "is_disabled": 0, "rental_uris": {"android": "https://dc.lft.to/lastmile_qr_scan", "ios": "https://dc.lft.to/lastmile_qr_scan"}, "fusion_lon": 0.0, "lat": 38.92072366666667, "bike_id": "61c2d97b6ae4388f8a0779e2be2e1a03", "type": "electric_scooter", "is_reserved": 0, "lon": -77.02417266666667}, {"fusion_lat": 0.0, "name": "9731d1bfcaef23b66f67f0a3b4cf92b3", "is_disabled": 0, "rental_uris": {"android": "https://dc.lft.to/lastmile_qr_scan", "ios": "https://dc.lft.to/lastmile_qr_scan"}, "fusion_lon": 0.0, "lat": 38.907272166666665, "bike_id": "9731d1bfcaef23b66f67f0a3b4cf92b3", "type": "electric_scooter", "is_reserved": 0, "lon": -77.04764366666667}, {"fusion_lat": 0.0, "name": "3c56fb112cd46aaf3ca8e7312693b95a", "is_disabled": 0, "rental_uris": {"android": "https://dc.lft.to/lastmile_qr_scan", "ios": "https://dc.lft.to/lastmile_qr_scan"}, "fusion_lon": 0.0, "lat": 38.93522566666667, "bike_id": "3c56fb112cd46aaf3ca8e7312693b95a", "type": "electric_scooter", "is_reserved": 0, "lon": -77.0286155}, {"fusion_lat": 0.0, "name": "e36f78f4756e460b14d3fa328a03c0a1", "is_disabled": 0, "rental_uris": {"android": "https://dc.lft.to/lastmile_qr_scan", "ios": "https://dc.lft.to/lastmile_qr_scan"}, "fusion_lon": 0.0, "lat": 38.8987375, "bike_id": "e36f78f4756e460b14d3fa328a03c0a1", "type": "electric_scooter", "is_reserved": 0, "lon": -76.93181133333333}, {"fusion_lat": 0.0, "name": "451fa10f22ea303cd88595178e3c1ae8", "is_disabled": 0, "rental_uris": {"android": "https://dc.lft.to/lastmile_qr_scan", "ios": "https://dc.lft.to/lastmile_qr_scan"}, "fusion_lon": 0.0, "lat": 38.891932, "bike_id": "451fa10f22ea303cd88595178e3c1ae8", "type": "electric_scooter", "is_reserved": 0, "lon": -77.02228883333333}, {"fusion_lat": 0.0, "name": "d3806fc3312a5692b12d6aca2717e624", "is_disabled": 0, "rental_uris": {"android": "https://dc.lft.to/lastmile_qr_scan", "ios": "https://dc.lft.to/lastmile_qr_scan"}, "fusion_lon": 0.0, "lat": 38.906741333333336, "bike_id": "d3806fc3312a5692b12d6aca2717e624", "type": "electric_scooter", "is_reserved": 0, "lon": -77.02177733333333}, {"fusion_lat": 0.0, "name": "0ac662a74089e1e5893c8c71f68f64fc", "is_disabled": 0, "rental_uris": {"android": "https://dc.lft.to/lastmile_qr_scan", "ios": "https://dc.lft.to/lastmile_qr_scan"}, "fusion_lon": 0.0, "lat": 38.9287135, "bike_id": "0ac662a74089e1e5893c8c71f68f64fc", "type": "electric_scooter", "is_reserved": 0, "lon": -77.03486416666667}, {"fusion_lat": 0.0, "name": "be100cfcf826c7a1353e91823db18012", "is_disabled": 0, "rental_uris": {"android": "https://dc.lft.to/lastmile_qr_scan", "ios": "https://dc.lft.to/lastmile_qr_scan"}, "fusion_lon": 0.0, "lat": 38.9055175, "bike_id": "be100cfcf826c7a1353e91823db18012", "type": "electric_scooter", "is_reserved": 0, "lon": -77.0049865}, {"fusion_lat": 0.0, "name": "f47e13c73b7871032408f51658b5a3d7", "is_disabled": 0, "rental_uris": {"android": "https://dc.lft.to/lastmile_qr_scan", "ios": "https://dc.lft.to/lastmile_qr_scan"}, "fusion_lon": 0.0, "lat": 38.924597166666665, "bike_id": "f47e13c73b7871032408f51658b5a3d7", "type": "electric_scooter", "is_reserved": 0, "lon": -77.03629966666666}, {"fusion_lat": 0.0, "name": "779923ea00170252404856ed15584618", "is_disabled": 0, "rental_uris": {"android": "https://dc.lft.to/lastmile_qr_scan", "ios": "https://dc.lft.to/lastmile_qr_scan"}, "fusion_lon": 0.0, "lat": 38.90136566666666, "bike_id": "779923ea00170252404856ed15584618", "type": "electric_scooter", "is_reserved": 0, "lon": -76.99848833333333}, {"fusion_lat": 0.0, "name": "b419b8192e1adce11de1cd6b8c150fb2", "is_disabled": 0, "rental_uris": {"android": "https://dc.lft.to/lastmile_qr_scan", "ios": "https://dc.lft.to/lastmile_qr_scan"}, "fusion_lon": 0.0, "lat": 38.847553833333336, "bike_id": "b419b8192e1adce11de1cd6b8c150fb2", "type": "electric_scooter", "is_reserved": 0, "lon": -76.99504766666666}, {"fusion_lat": 0.0, "name": "7b120f4650781212b21425ed92f4466e", "is_disabled": 0, "rental_uris": {"android": "https://dc.lft.to/lastmile_qr_scan", "ios": "https://dc.lft.to/lastmile_qr_scan"}, "fusion_lon": 0.0, "lat": 38.853502, "bike_id": "7b120f4650781212b21425ed92f4466e", "type": "electric_bike", "is_reserved": 0, "lon": -77.13468666666667}, {"fusion_lat": 0.0, "name": "b6519ede5f172dfff980b13a3135d88b", "is_disabled": 0, "rental_uris": {"android": "https://dc.lft.to/lastmile_qr_scan", "ios": "https://dc.lft.to/lastmile_qr_scan"}, "fusion_lon": 0.0, "lat": 38.92145216666667, "bike_id": "b6519ede5f172dfff980b13a3135d88b", "type": "electric_scooter", "is_reserved": 0, "lon": -77.03390983333334}, {"fusion_lat": 0.0, "name": "48a96a24d24477c2430785c0063378c4", "is_disabled": 0, "rental_uris": {"android": "https://dc.lft.to/lastmile_qr_scan", "ios": "https://dc.lft.to/lastmile_qr_scan"}, "fusion_lon": 0.0, "lat": 38.9095585, "bike_id": "48a96a24d24477c2430785c0063378c4", "type": "electric_scooter", "is_reserved": 0, "lon": -77.0325285}, {"fusion_lat": 0.0, "name": "97fa94eaa104e0072cbcf21131e20e0f", "is_disabled": 0, "rental_uris": {"android": "https://dc.lft.to/lastmile_qr_scan", "ios": "https://dc.lft.to/lastmile_qr_scan"}, "fusion_lon": 0.0, "lat": 38.90962833333333, "bike_id": "97fa94eaa104e0072cbcf21131e20e0f", "type": "electric_scooter", "is_reserved": 0, "lon": -77.03249883333334}, {"fusion_lat": 0.0, "name": "d967cb0901df4c46c06ca713383f3cb1", "is_disabled": 0, "rental_uris": {"android": "https://dc.lft.to/lastmile_qr_scan", "ios": "https://dc.lft.to/lastmile_qr_scan"}, "fusion_lon": 0.0, "lat": 38.9069425, "bike_id": "d967cb0901df4c46c06ca713383f3cb1", "type": "electric_scooter", "is_reserved": 0, "lon": -77.037191}, {"fusion_lat": 0.0, "name": "e3060b84f5f6431576cb489849986505", "is_disabled": 0, "rental_uris": {"android": "https://dc.lft.to/lastmile_qr_scan", "ios": "https://dc.lft.to/lastmile_qr_scan"}, "fusion_lon": 0.0, "lat": 38.922707, "bike_id": "e3060b84f5f6431576cb489849986505", "type": "electric_scooter", "is_reserved": 0, "lon": -77.04236233333333}, {"fusion_lat": 0.0, "name": "c76d6e28584101431d4b876edff1dc30", "is_disabled": 0, "rental_uris": {"android": "https://dc.lft.to/lastmile_qr_scan", "ios": "https://dc.lft.to/lastmile_qr_scan"}, "fusion_lon": 0.0, "lat": 38.92399, "bike_id": "c76d6e28584101431d4b876edff1dc30", "type": "electric_scooter", "is_reserved": 0, "lon": -77.0252645}, {"fusion_lat": 0.0, "name": "e34737515d1fc3ed51faa052c88d52ad", "is_disabled": 0, "rental_uris": {"android": "https://dc.lft.to/lastmile_qr_scan", "ios": "https://dc.lft.to/lastmile_qr_scan"}, "fusion_lon": 0.0, "lat": 38.90519483333333, "bike_id": "e34737515d1fc3ed51faa052c88d52ad", "type": "electric_scooter", "is_reserved": 0, "lon": -77.06455383333333}, {"fusion_lat": 0.0, "name": "3195d6969e23343393bf9ef9b24c4ce2", "is_disabled": 0, "rental_uris": {"android": "https://dc.lft.to/lastmile_qr_scan", "ios": "https://dc.lft.to/lastmile_qr_scan"}, "fusion_lon": 0.0, "lat": 38.91484116666667, "bike_id": "3195d6969e23343393bf9ef9b24c4ce2", "type": "electric_scooter", "is_reserved": 0, "lon": -77.013352}, {"fusion_lat": 0.0, "name": "6e09e5aa3b99b3340b45ea7d6fcc86bd", "is_disabled": 0, "rental_uris": {"android": "https://dc.lft.to/lastmile_qr_scan", "ios": "https://dc.lft.to/lastmile_qr_scan"}, "fusion_lon": 0.0, "lat": 38.89221783333333, "bike_id": "6e09e5aa3b99b3340b45ea7d6fcc86bd", "type": "electric_scooter", "is_reserved": 0, "lon": -77.05037883333334}, {"fusion_lat": 0.0, "name": "978c9b3cafdd5d412d032d13a9b49c46", "is_disabled": 0, "rental_uris": {"android": "https://dc.lft.to/lastmile_qr_scan", "ios": "https://dc.lft.to/lastmile_qr_scan"}, "fusion_lon": 0.0, "lat": 38.9497045, "bike_id": "978c9b3cafdd5d412d032d13a9b49c46", "type": "electric_scooter", "is_reserved": 0, "lon": -77.02446266666666}, {"fusion_lat": 0.0, "name": "4f3cce845cd9ba65a8b0ea544bffa774", "is_disabled": 0, "rental_uris": {"android": "https://dc.lft.to/lastmile_qr_scan", "ios": "https://dc.lft.to/lastmile_qr_scan"}, "fusion_lon": 0.0, "lat": 38.927504666666664, "bike_id": "4f3cce845cd9ba65a8b0ea544bffa774", "type": "electric_scooter", "is_reserved": 0, "lon": -77.03300416666667}, {"fusion_lat": 0.0, "name": "a23af01bb7940116bd86828a5da0a28f", "is_disabled": 0, "rental_uris": {"android": "https://dc.lft.to/lastmile_qr_scan", "ios": "https://dc.lft.to/lastmile_qr_scan"}, "fusion_lon": 0.0, "lat": 38.930959666666666, "bike_id": "a23af01bb7940116bd86828a5da0a28f", "type": "electric_scooter", "is_reserved": 0, "lon": -77.02476983333334}, {"fusion_lat": 0.0, "name": "177c8ce2c9d6db50c36c2327dc525c6b", "is_disabled": 0, "rental_uris": {"android": "https://dc.lft.to/lastmile_qr_scan", "ios": "https://dc.lft.to/lastmile_qr_scan"}, "fusion_lon": 0.0, "lat": 38.8870745, "bike_id": "177c8ce2c9d6db50c36c2327dc525c6b", "type": "electric_scooter", "is_reserved": 0, "lon": -76.9967505}, {"fusion_lat": 0.0, "name": "154e717f34a348281f5138ec003940bf", "is_disabled": 0, "rental_uris": {"android": "https://dc.lft.to/lastmile_qr_scan", "ios": "https://dc.lft.to/lastmile_qr_scan"}, "fusion_lon": 0.0, "lat": 38.909515999999996, "bike_id": "154e717f34a348281f5138ec003940bf", "type": "electric_scooter", "is_reserved": 0, "lon": -77.027141}, {"fusion_lat": 0.0, "name": "ae319284540b4deb773d8632209da48c", "is_disabled": 0, "rental_uris": {"android": "https://dc.lft.to/lastmile_qr_scan", "ios": "https://dc.lft.to/lastmile_qr_scan"}, "fusion_lon": 0.0, "lat": 38.9460315, "bike_id": "ae319284540b4deb773d8632209da48c", "type": "electric_bike", "is_reserved": 0, "lon": -77.0287155}, {"fusion_lat": 0.0, "name": "b529f9d69ef670b788795ab083d3e206", "is_disabled": 0, "rental_uris": {"android": "https://dc.lft.to/lastmile_qr_scan", "ios": "https://dc.lft.to/lastmile_qr_scan"}, "fusion_lon": 0.0, "lat": 38.9222645, "bike_id": "b529f9d69ef670b788795ab083d3e206", "type": "electric_scooter", "is_reserved": 0, "lon": -77.04256983333333}, {"fusion_lat": 0.0, "name": "abe08390b7944045bd9735a66c420ec9", "is_disabled": 0, "rental_uris": {"android": "https://dc.lft.to/lastmile_qr_scan", "ios": "https://dc.lft.to/lastmile_qr_scan"}, "fusion_lon": 0.0, "lat": 38.904646666666665, "bike_id": "abe08390b7944045bd9735a66c420ec9", "type": "electric_scooter", "is_reserved": 0, "lon": -77.01704433333333}, {"fusion_lat": 0.0, "name": "016fc5eb2c47a0fa7e694192a3c4e3e1", "is_disabled": 0, "rental_uris": {"android": "https://dc.lft.to/lastmile_qr_scan", "ios": "https://dc.lft.to/lastmile_qr_scan"}, "fusion_lon": 0.0, "lat": 38.883148, "bike_id": "016fc5eb2c47a0fa7e694192a3c4e3e1", "type": "electric_scooter", "is_reserved": 0, "lon": -77.01386566666666}, {"fusion_lat": 0.0, "name": "3f5fadf1cec56f06e571274106be126c", "is_disabled": 0, "rental_uris": {"android": "https://dc.lft.to/lastmile_qr_scan", "ios": "https://dc.lft.to/lastmile_qr_scan"}, "fusion_lon": 0.0, "lat": 38.896498333333334, "bike_id": "3f5fadf1cec56f06e571274106be126c", "type": "electric_scooter", "is_reserved": 0, "lon": -77.05120533333333}, {"fusion_lat": 0.0, "name": "385b23de85c58af672ec04e14a810eed", "is_disabled": 0, "rental_uris": {"android": "https://dc.lft.to/lastmile_qr_scan", "ios": "https://dc.lft.to/lastmile_qr_scan"}, "fusion_lon": 0.0, "lat": 38.92081816666666, "bike_id": "385b23de85c58af672ec04e14a810eed", "type": "electric_scooter", "is_reserved": 0, "lon": -77.02521916666667}, {"fusion_lat": 0.0, "name": "5b658c638d42108ffdeeb85da2cb10ee", "is_disabled": 0, "rental_uris": {"android": "https://dc.lft.to/lastmile_qr_scan", "ios": "https://dc.lft.to/lastmile_qr_scan"}, "fusion_lon": 0.0, "lat": 38.92448566666667, "bike_id": "5b658c638d42108ffdeeb85da2cb10ee", "type": "electric_scooter", "is_reserved": 0, "lon": -77.00877416666667}, {"fusion_lat": 0.0, "name": "f6694c49ed25be62ce13feb565853d00", "is_disabled": 0, "rental_uris": {"android": "https://dc.lft.to/lastmile_qr_scan", "ios": "https://dc.lft.to/lastmile_qr_scan"}, "fusion_lon": 0.0, "lat": 38.8994865, "bike_id": "f6694c49ed25be62ce13feb565853d00", "type": "electric_scooter", "is_reserved": 0, "lon": -76.99730383333333}, {"fusion_lat": 0.0, "name": "9ae79bb38239bfa3b47808eaba0f9a53", "is_disabled": 0, "rental_uris": {"android": "https://dc.lft.to/lastmile_qr_scan", "ios": "https://dc.lft.to/lastmile_qr_scan"}, "fusion_lon": 0.0, "lat": 38.935830333333335, "bike_id": "9ae79bb38239bfa3b47808eaba0f9a53", "type": "electric_scooter", "is_reserved": 0, "lon": -77.03356883333333}, {"fusion_lat": 0.0, "name": "bad4b0a2ba16921f30bd8f3825ae0524", "is_disabled": 0, "rental_uris": {"android": "https://dc.lft.to/lastmile_qr_scan", "ios": "https://dc.lft.to/lastmile_qr_scan"}, "fusion_lon": 0.0, "lat": 38.928747333333334, "bike_id": "bad4b0a2ba16921f30bd8f3825ae0524", "type": "electric_scooter", "is_reserved": 0, "lon": -77.03350233333333}, {"fusion_lat": 0.0, "name": "7b298c9b6106c53b7d350a00bac124d0", "is_disabled": 0, "rental_uris": {"android": "https://dc.lft.to/lastmile_qr_scan", "ios": "https://dc.lft.to/lastmile_qr_scan"}, "fusion_lon": 0.0, "lat": 38.898559166666665, "bike_id": "7b298c9b6106c53b7d350a00bac124d0", "type": "electric_scooter", "is_reserved": 0, "lon": -77.02722933333334}, {"fusion_lat": 0.0, "name": "4852bfef183375c6c5782fa0ceaa3fbe", "is_disabled": 0, "rental_uris": {"android": "https://dc.lft.to/lastmile_qr_scan", "ios": "https://dc.lft.to/lastmile_qr_scan"}, "fusion_lon": 0.0, "lat": 38.99747683333333, "bike_id": "4852bfef183375c6c5782fa0ceaa3fbe", "type": "electric_bike", "is_reserved": 0, "lon": -77.0269215}, {"fusion_lat": 0.0, "name": "a7516390047b6b590b997c1808bfc87f", "is_disabled": 0, "rental_uris": {"android": "https://dc.lft.to/lastmile_qr_scan", "ios": "https://dc.lft.to/lastmile_qr_scan"}, "fusion_lon": 0.0, "lat": 38.928426, "bike_id": "a7516390047b6b590b997c1808bfc87f", "type": "electric_scooter", "is_reserved": 0, "lon": -77.0330305}, {"fusion_lat": 0.0, "name": "dc910c8a390a5acbafb784a812732584", "is_disabled": 0, "rental_uris": {"android": "https://dc.lft.to/lastmile_qr_scan", "ios": "https://dc.lft.to/lastmile_qr_scan"}, "fusion_lon": 0.0, "lat": 38.902624, "bike_id": "dc910c8a390a5acbafb784a812732584", "type": "electric_scooter", "is_reserved": 0, "lon": -77.04374866666667}, {"fusion_lat": 0.0, "name": "412d40f9582b709437366940e9f42039", "is_disabled": 0, "rental_uris": {"android": "https://dc.lft.to/lastmile_qr_scan", "ios": "https://dc.lft.to/lastmile_qr_scan"}, "fusion_lon": 0.0, "lat": 38.922874166666666, "bike_id": "412d40f9582b709437366940e9f42039", "type": "electric_scooter", "is_reserved": 0, "lon": -77.0233905}, {"fusion_lat": 0.0, "name": "4403e063ac0dfb6e05fe654078c6d7db", "is_disabled": 0, "rental_uris": {"android": "https://dc.lft.to/lastmile_qr_scan", "ios": "https://dc.lft.to/lastmile_qr_scan"}, "fusion_lon": 0.0, "lat": 38.9039095, "bike_id": "4403e063ac0dfb6e05fe654078c6d7db", "type": "electric_scooter", "is_reserved": 0, "lon": -77.0500995}, {"fusion_lat": 0.0, "name": "e8c3f1c0bf7e96d60b54cae6a022e5c8", "is_disabled": 0, "rental_uris": {"android": "https://dc.lft.to/lastmile_qr_scan", "ios": "https://dc.lft.to/lastmile_qr_scan"}, "fusion_lon": 0.0, "lat": 38.93930183333333, "bike_id": "e8c3f1c0bf7e96d60b54cae6a022e5c8", "type": "electric_scooter", "is_reserved": 0, "lon": -77.07477}, {"fusion_lat": 0.0, "name": "0c7354e4b85d440e537b76d861c3871d", "is_disabled": 0, "rental_uris": {"android": "https://dc.lft.to/lastmile_qr_scan", "ios": "https://dc.lft.to/lastmile_qr_scan"}, "fusion_lon": 0.0, "lat": 38.896826, "bike_id": "0c7354e4b85d440e537b76d861c3871d", "type": "electric_scooter", "is_reserved": 0, "lon": -76.93713533333333}, {"fusion_lat": 0.0, "name": "5ab097f4b93394a60f436be2687bbf59", "is_disabled": 0, "rental_uris": {"android": "https://dc.lft.to/lastmile_qr_scan", "ios": "https://dc.lft.to/lastmile_qr_scan"}, "fusion_lon": 0.0, "lat": 38.9273365, "bike_id": "5ab097f4b93394a60f436be2687bbf59", "type": "electric_scooter", "is_reserved": 0, "lon": -77.04222116666666}, {"fusion_lat": 0.0, "name": "040f442fe3a53d05a080fa3405eff22c", "is_disabled": 0, "rental_uris": {"android": "https://dc.lft.to/lastmile_qr_scan", "ios": "https://dc.lft.to/lastmile_qr_scan"}, "fusion_lon": 0.0, "lat": 38.802925, "bike_id": "040f442fe3a53d05a080fa3405eff22c", "type": "electric_bike", "is_reserved": 0, "lon": -77.05936183333333}, {"fusion_lat": 0.0, "name": "e4a34d70e1a3a517398001c30ee872d6", "is_disabled": 0, "rental_uris": {"android": "https://dc.lft.to/lastmile_qr_scan", "ios": "https://dc.lft.to/lastmile_qr_scan"}, "fusion_lon": 0.0, "lat": 38.96124116666667, "bike_id": "e4a34d70e1a3a517398001c30ee872d6", "type": "electric_bike", "is_reserved": 0, "lon": -77.03274416666666}, {"fusion_lat": 0.0, "name": "db88c1a732e19c10f60c34f623f52d69", "is_disabled": 0, "rental_uris": {"android": "https://dc.lft.to/lastmile_qr_scan", "ios": "https://dc.lft.to/lastmile_qr_scan"}, "fusion_lon": 0.0, "lat": 38.9270825, "bike_id": "db88c1a732e19c10f60c34f623f52d69", "type": "electric_scooter", "is_reserved": 0, "lon": -77.03765}, {"fusion_lat": 0.0, "name": "d8773de40f9dcddb6124a23be4e76109", "is_disabled": 0, "rental_uris": {"android": "https://dc.lft.to/lastmile_qr_scan", "ios": "https://dc.lft.to/lastmile_qr_scan"}, "fusion_lon": 0.0, "lat": 38.927875, "bike_id": "d8773de40f9dcddb6124a23be4e76109", "type": "electric_scooter", "is_reserved": 0, "lon": -77.02728766666667}, {"fusion_lat": 0.0, "name": "5932715b67f26106502ead3e98de61d6", "is_disabled": 0, "rental_uris": {"android": "https://dc.lft.to/lastmile_qr_scan", "ios": "https://dc.lft.to/lastmile_qr_scan"}, "fusion_lon": 0.0, "lat": 38.906105, "bike_id": "5932715b67f26106502ead3e98de61d6", "type": "electric_scooter", "is_reserved": 0, "lon": -77.00903866666667}, {"fusion_lat": 0.0, "name": "084b02c0d59996effbbccfdc05c3c3c5", "is_disabled": 0, "rental_uris": {"android": "https://dc.lft.to/lastmile_qr_scan", "ios": "https://dc.lft.to/lastmile_qr_scan"}, "fusion_lon": 0.0, "lat": 38.906102, "bike_id": "084b02c0d59996effbbccfdc05c3c3c5", "type": "electric_scooter", "is_reserved": 0, "lon": -77.02406466666666}, {"fusion_lat": 0.0, "name": "2a142664c9c0dfe4576656c3f8b1f89f", "is_disabled": 0, "rental_uris": {"android": "https://dc.lft.to/lastmile_qr_scan", "ios": "https://dc.lft.to/lastmile_qr_scan"}, "fusion_lon": 0.0, "lat": 38.900242666666664, "bike_id": "2a142664c9c0dfe4576656c3f8b1f89f", "type": "electric_scooter", "is_reserved": 0, "lon": -76.98857983333333}, {"fusion_lat": 0.0, "name": "ba521fe8d3b7a319b61a0ca1533e4800", "is_disabled": 0, "rental_uris": {"android": "https://dc.lft.to/lastmile_qr_scan", "ios": "https://dc.lft.to/lastmile_qr_scan"}, "fusion_lon": 0.0, "lat": 38.923388, "bike_id": "ba521fe8d3b7a319b61a0ca1533e4800", "type": "electric_scooter", "is_reserved": 0, "lon": -77.05624533333334}, {"fusion_lat": 0.0, "name": "96b6faa0c54fc9507d21502f87106b54", "is_disabled": 0, "rental_uris": {"android": "https://dc.lft.to/lastmile_qr_scan", "ios": "https://dc.lft.to/lastmile_qr_scan"}, "fusion_lon": 0.0, "lat": 38.884482, "bike_id": "96b6faa0c54fc9507d21502f87106b54", "type": "electric_scooter", "is_reserved": 0, "lon": -76.99848783333333}, {"fusion_lat": 0.0, "name": "206ddb1f1573ba8b88fc2dab63c8ec89", "is_disabled": 0, "rental_uris": {"android": "https://dc.lft.to/lastmile_qr_scan", "ios": "https://dc.lft.to/lastmile_qr_scan"}, "fusion_lon": 0.0, "lat": 38.90016933333333, "bike_id": "206ddb1f1573ba8b88fc2dab63c8ec89", "type": "electric_scooter", "is_reserved": 0, "lon": -77.01221833333334}, {"fusion_lat": 0.0, "name": "795d9627d098d064e8c48f433355922a", "is_disabled": 0, "rental_uris": {"android": "https://dc.lft.to/lastmile_qr_scan", "ios": "https://dc.lft.to/lastmile_qr_scan"}, "fusion_lon": 0.0, "lat": 38.879365666666665, "bike_id": "795d9627d098d064e8c48f433355922a", "type": "electric_scooter", "is_reserved": 0, "lon": -77.00417016666667}, {"fusion_lat": 0.0, "name": "39baa8f461dba4739d0cb5d83362ea14", "is_disabled": 0, "rental_uris": {"android": "https://dc.lft.to/lastmile_qr_scan", "ios": "https://dc.lft.to/lastmile_qr_scan"}, "fusion_lon": 0.0, "lat": 38.8850355, "bike_id": "39baa8f461dba4739d0cb5d83362ea14", "type": "electric_scooter", "is_reserved": 0, "lon": -76.99762216666667}, {"fusion_lat": 0.0, "name": "6dc5913e6e22c53730921c40de3047f0", "is_disabled": 0, "rental_uris": {"android": "https://dc.lft.to/lastmile_qr_scan", "ios": "https://dc.lft.to/lastmile_qr_scan"}, "fusion_lon": 0.0, "lat": 38.9268265, "bike_id": "6dc5913e6e22c53730921c40de3047f0", "type": "electric_scooter", "is_reserved": 0, "lon": -77.03088916666667}, {"fusion_lat": 0.0, "name": "0ec5aa64c25cd6b47d4708a4eae80557", "is_disabled": 0, "rental_uris": {"android": "https://dc.lft.to/lastmile_qr_scan", "ios": "https://dc.lft.to/lastmile_qr_scan"}, "fusion_lon": 0.0, "lat": 38.931926833333335, "bike_id": "0ec5aa64c25cd6b47d4708a4eae80557", "type": "electric_scooter", "is_reserved": 0, "lon": -77.01967466666666}, {"fusion_lat": 0.0, "name": "d7de323075b971d48a122918cabd612d", "is_disabled": 0, "rental_uris": {"android": "https://dc.lft.to/lastmile_qr_scan", "ios": "https://dc.lft.to/lastmile_qr_scan"}, "fusion_lon": 0.0, "lat": 38.91907233333333, "bike_id": "d7de323075b971d48a122918cabd612d", "type": "electric_scooter", "is_reserved": 0, "lon": -77.02617066666667}, {"fusion_lat": 0.0, "name": "9ab2cf57f0a5875d97abf4f8c7d6d15e", "is_disabled": 0, "rental_uris": {"android": "https://dc.lft.to/lastmile_qr_scan", "ios": "https://dc.lft.to/lastmile_qr_scan"}, "fusion_lon": 0.0, "lat": 38.91377833333333, "bike_id": "9ab2cf57f0a5875d97abf4f8c7d6d15e", "type": "electric_scooter", "is_reserved": 0, "lon": -77.01799483333333}, {"fusion_lat": 0.0, "name": "464ae34313e69ab0429618b0c7f8d25c", "is_disabled": 0, "rental_uris": {"android": "https://dc.lft.to/lastmile_qr_scan", "ios": "https://dc.lft.to/lastmile_qr_scan"}, "fusion_lon": 0.0, "lat": 38.89255516666667, "bike_id": "464ae34313e69ab0429618b0c7f8d25c", "type": "electric_bike", "is_reserved": 0, "lon": -76.951194}, {"fusion_lat": 0.0, "name": "c41527db6e688ad022af20987869350e", "is_disabled": 0, "rental_uris": {"android": "https://dc.lft.to/lastmile_qr_scan", "ios": "https://dc.lft.to/lastmile_qr_scan"}, "fusion_lon": 0.0, "lat": 38.929761166666665, "bike_id": "c41527db6e688ad022af20987869350e", "type": "electric_scooter", "is_reserved": 0, "lon": -77.04190066666666}, {"fusion_lat": 0.0, "name": "24fea19c13a9690f27b3cdb0a8f7e4ec", "is_disabled": 0, "rental_uris": {"android": "https://dc.lft.to/lastmile_qr_scan", "ios": "https://dc.lft.to/lastmile_qr_scan"}, "fusion_lon": 0.0, "lat": 38.923797666666665, "bike_id": "24fea19c13a9690f27b3cdb0a8f7e4ec", "type": "electric_scooter", "is_reserved": 0, "lon": -77.0305745}, {"fusion_lat": 0.0, "name": "cf36a029f2022c1d4946da30ef32d533", "is_disabled": 0, "rental_uris": {"android": "https://dc.lft.to/lastmile_qr_scan", "ios": "https://dc.lft.to/lastmile_qr_scan"}, "fusion_lon": 0.0, "lat": 38.92459233333334, "bike_id": "cf36a029f2022c1d4946da30ef32d533", "type": "electric_scooter", "is_reserved": 0, "lon": -77.0802815}, {"fusion_lat": 0.0, "name": "ea86512ac0613eb0cd9ca5602edc84fc", "is_disabled": 0, "rental_uris": {"android": "https://dc.lft.to/lastmile_qr_scan", "ios": "https://dc.lft.to/lastmile_qr_scan"}, "fusion_lon": 0.0, "lat": 38.907297, "bike_id": "ea86512ac0613eb0cd9ca5602edc84fc", "type": "electric_scooter", "is_reserved": 0, "lon": -77.01103266666667}, {"fusion_lat": 0.0, "name": "4f00f5a2aa128a1588ca9c32ed6ebd50", "is_disabled": 0, "rental_uris": {"android": "https://dc.lft.to/lastmile_qr_scan", "ios": "https://dc.lft.to/lastmile_qr_scan"}, "fusion_lon": 0.0, "lat": 38.89585966666667, "bike_id": "4f00f5a2aa128a1588ca9c32ed6ebd50", "type": "electric_scooter", "is_reserved": 0, "lon": -77.0297985}, {"fusion_lat": 0.0, "name": "1f9ade1c93deb8f7f81d0e3560aae833", "is_disabled": 0, "rental_uris": {"android": "https://dc.lft.to/lastmile_qr_scan", "ios": "https://dc.lft.to/lastmile_qr_scan"}, "fusion_lon": 0.0, "lat": 38.88005583333333, "bike_id": "1f9ade1c93deb8f7f81d0e3560aae833", "type": "electric_scooter", "is_reserved": 0, "lon": -76.9850785}, {"fusion_lat": 0.0, "name": "e5d64099c9cba66822138bea5a699248", "is_disabled": 0, "rental_uris": {"android": "https://dc.lft.to/lastmile_qr_scan", "ios": "https://dc.lft.to/lastmile_qr_scan"}, "fusion_lon": 0.0, "lat": 38.90528283333333, "bike_id": "e5d64099c9cba66822138bea5a699248", "type": "electric_scooter", "is_reserved": 0, "lon": -77.06102583333333}, {"fusion_lat": 0.0, "name": "8e3a2a9981dbf9d5fd03eb4fc8cca4e1", "is_disabled": 0, "rental_uris": {"android": "https://dc.lft.to/lastmile_qr_scan", "ios": "https://dc.lft.to/lastmile_qr_scan"}, "fusion_lon": 0.0, "lat": 38.952451333333336, "bike_id": "8e3a2a9981dbf9d5fd03eb4fc8cca4e1", "type": "electric_scooter", "is_reserved": 0, "lon": -77.023811}, {"fusion_lat": 0.0, "name": "c311f10124c58b65a1a582c75feec444", "is_disabled": 0, "rental_uris": {"android": "https://dc.lft.to/lastmile_qr_scan", "ios": "https://dc.lft.to/lastmile_qr_scan"}, "fusion_lon": 0.0, "lat": 38.95264916666667, "bike_id": "c311f10124c58b65a1a582c75feec444", "type": "electric_bike", "is_reserved": 0, "lon": -77.06863566666667}, {"fusion_lat": 0.0, "name": "f25d1d6b81eb579eec128dfffc8ca875", "is_disabled": 0, "rental_uris": {"android": "https://dc.lft.to/lastmile_qr_scan", "ios": "https://dc.lft.to/lastmile_qr_scan"}, "fusion_lon": 0.0, "lat": 38.912674, "bike_id": "f25d1d6b81eb579eec128dfffc8ca875", "type": "electric_scooter", "is_reserved": 0, "lon": -77.02255266666667}, {"fusion_lat": 0.0, "name": "882a984c754ccc8617fa0336e6a429f5", "is_disabled": 0, "rental_uris": {"android": "https://dc.lft.to/lastmile_qr_scan", "ios": "https://dc.lft.to/lastmile_qr_scan"}, "fusion_lon": 0.0, "lat": 38.920801833333336, "bike_id": "882a984c754ccc8617fa0336e6a429f5", "type": "electric_scooter", "is_reserved": 0, "lon": -77.02404316666667}, {"fusion_lat": 0.0, "name": "98ec902fac666752ffc2ea90d7812891", "is_disabled": 0, "rental_uris": {"android": "https://dc.lft.to/lastmile_qr_scan", "ios": "https://dc.lft.to/lastmile_qr_scan"}, "fusion_lon": 0.0, "lat": 38.949092, "bike_id": "98ec902fac666752ffc2ea90d7812891", "type": "electric_bike", "is_reserved": 0, "lon": -77.03804883333333}, {"fusion_lat": 0.0, "name": "69a650a0da72c39764f6dd820d7aa011", "is_disabled": 0, "rental_uris": {"android": "https://dc.lft.to/lastmile_qr_scan", "ios": "https://dc.lft.to/lastmile_qr_scan"}, "fusion_lon": 0.0, "lat": 38.90645466666667, "bike_id": "69a650a0da72c39764f6dd820d7aa011", "type": "electric_scooter", "is_reserved": 0, "lon": -77.04285666666667}, {"fusion_lat": 0.0, "name": "f9dfbfd7dfac7304ae8f35eb68fadd9e", "is_disabled": 0, "rental_uris": {"android": "https://dc.lft.to/lastmile_qr_scan", "ios": "https://dc.lft.to/lastmile_qr_scan"}, "fusion_lon": 0.0, "lat": 38.89867566666667, "bike_id": "f9dfbfd7dfac7304ae8f35eb68fadd9e", "type": "electric_scooter", "is_reserved": 0, "lon": -76.946286}, {"fusion_lat": 0.0, "name": "67627622002ab05e623d90b7d182a7aa", "is_disabled": 0, "rental_uris": {"android": "https://dc.lft.to/lastmile_qr_scan", "ios": "https://dc.lft.to/lastmile_qr_scan"}, "fusion_lon": 0.0, "lat": 38.87373683333333, "bike_id": "67627622002ab05e623d90b7d182a7aa", "type": "electric_scooter", "is_reserved": 0, "lon": -77.001638}, {"fusion_lat": 0.0, "name": "0f4f7bbf438488db8566d2252e582ae3", "is_disabled": 0, "rental_uris": {"android": "https://dc.lft.to/lastmile_qr_scan", "ios": "https://dc.lft.to/lastmile_qr_scan"}, "fusion_lon": 0.0, "lat": 38.90669783333333, "bike_id": "0f4f7bbf438488db8566d2252e582ae3", "type": "electric_scooter", "is_reserved": 0, "lon": -77.027119}, {"fusion_lat": 0.0, "name": "40ff1d928062efa2deee0ca5e7f90c03", "is_disabled": 0, "rental_uris": {"android": "https://dc.lft.to/lastmile_qr_scan", "ios": "https://dc.lft.to/lastmile_qr_scan"}, "fusion_lon": 0.0, "lat": 38.92868416666666, "bike_id": "40ff1d928062efa2deee0ca5e7f90c03", "type": "electric_scooter", "is_reserved": 0, "lon": -77.03479366666667}, {"fusion_lat": 0.0, "name": "4565b96d42ea13d51fcf7da5603ce2d0", "is_disabled": 0, "rental_uris": {"android": "https://dc.lft.to/lastmile_qr_scan", "ios": "https://dc.lft.to/lastmile_qr_scan"}, "fusion_lon": 0.0, "lat": 38.8999895, "bike_id": "4565b96d42ea13d51fcf7da5603ce2d0", "type": "electric_scooter", "is_reserved": 0, "lon": -77.00370233333334}, {"fusion_lat": 0.0, "name": "b2feba456154a6ec7c9a0dadc6811f9e", "is_disabled": 0, "rental_uris": {"android": "https://dc.lft.to/lastmile_qr_scan", "ios": "https://dc.lft.to/lastmile_qr_scan"}, "fusion_lon": 0.0, "lat": 38.9093935, "bike_id": "b2feba456154a6ec7c9a0dadc6811f9e", "type": "electric_scooter", "is_reserved": 0, "lon": -77.02173666666667}, {"fusion_lat": 0.0, "name": "103bde0691866a08bdcbb44519c63e22", "is_disabled": 0, "rental_uris": {"android": "https://dc.lft.to/lastmile_qr_scan", "ios": "https://dc.lft.to/lastmile_qr_scan"}, "fusion_lon": 0.0, "lat": 38.9146365, "bike_id": "103bde0691866a08bdcbb44519c63e22", "type": "electric_scooter", "is_reserved": 0, "lon": -77.039034}, {"fusion_lat": 0.0, "name": "bea4e77854b94bfa2e6db636c98ff4d1", "is_disabled": 0, "rental_uris": {"android": "https://dc.lft.to/lastmile_qr_scan", "ios": "https://dc.lft.to/lastmile_qr_scan"}, "fusion_lon": 0.0, "lat": 38.915004, "bike_id": "bea4e77854b94bfa2e6db636c98ff4d1", "type": "electric_scooter", "is_reserved": 0, "lon": -77.00915783333333}, {"fusion_lat": 0.0, "name": "968e49c05e6c25b1cb0d39e24dba8710", "is_disabled": 0, "rental_uris": {"android": "https://dc.lft.to/lastmile_qr_scan", "ios": "https://dc.lft.to/lastmile_qr_scan"}, "fusion_lon": 0.0, "lat": 38.921024333333335, "bike_id": "968e49c05e6c25b1cb0d39e24dba8710", "type": "electric_scooter", "is_reserved": 0, "lon": -77.07475}, {"fusion_lat": 0.0, "name": "b307bd7f6a2aca4d19107e81641abec4", "is_disabled": 0, "rental_uris": {"android": "https://dc.lft.to/lastmile_qr_scan", "ios": "https://dc.lft.to/lastmile_qr_scan"}, "fusion_lon": 0.0, "lat": 38.89877216666667, "bike_id": "b307bd7f6a2aca4d19107e81641abec4", "type": "electric_scooter", "is_reserved": 0, "lon": -77.02042666666667}, {"fusion_lat": 0.0, "name": "86a1b4494eef1fa263386e41b2571abc", "is_disabled": 0, "rental_uris": {"android": "https://dc.lft.to/lastmile_qr_scan", "ios": "https://dc.lft.to/lastmile_qr_scan"}, "fusion_lon": 0.0, "lat": 38.93857883333333, "bike_id": "86a1b4494eef1fa263386e41b2571abc", "type": "electric_scooter", "is_reserved": 0, "lon": -77.0244805}, {"fusion_lat": 0.0, "name": "1a45b4923a5177175185a470720d0114", "is_disabled": 0, "rental_uris": {"android": "https://dc.lft.to/lastmile_qr_scan", "ios": "https://dc.lft.to/lastmile_qr_scan"}, "fusion_lon": 0.0, "lat": 38.919321, "bike_id": "1a45b4923a5177175185a470720d0114", "type": "electric_scooter", "is_reserved": 0, "lon": -77.04496966666666}, {"fusion_lat": 0.0, "name": "f8772bb4e65f33611a364bdb304cb69e", "is_disabled": 0, "rental_uris": {"android": "https://dc.lft.to/lastmile_qr_scan", "ios": "https://dc.lft.to/lastmile_qr_scan"}, "fusion_lon": 0.0, "lat": 38.919178333333335, "bike_id": "f8772bb4e65f33611a364bdb304cb69e", "type": "electric_scooter", "is_reserved": 0, "lon": -77.03196333333334}, {"fusion_lat": 0.0, "name": "d709c5431c49474e72f28dae03122430", "is_disabled": 0, "rental_uris": {"android": "https://dc.lft.to/lastmile_qr_scan", "ios": "https://dc.lft.to/lastmile_qr_scan"}, "fusion_lon": 0.0, "lat": 38.948342, "bike_id": "d709c5431c49474e72f28dae03122430", "type": "electric_scooter", "is_reserved": 0, "lon": -77.02572983333333}, {"fusion_lat": 0.0, "name": "252906f159239346b6fd40c868e7f2da", "is_disabled": 0, "rental_uris": {"android": "https://dc.lft.to/lastmile_qr_scan", "ios": "https://dc.lft.to/lastmile_qr_scan"}, "fusion_lon": 0.0, "lat": 38.90416033333333, "bike_id": "252906f159239346b6fd40c868e7f2da", "type": "electric_scooter", "is_reserved": 0, "lon": -77.031609}, {"fusion_lat": 0.0, "name": "1a6dff3ef5e7896258f3cf7e60bb6f21", "is_disabled": 0, "rental_uris": {"android": "https://dc.lft.to/lastmile_qr_scan", "ios": "https://dc.lft.to/lastmile_qr_scan"}, "fusion_lon": 0.0, "lat": 38.9317745, "bike_id": "1a6dff3ef5e7896258f3cf7e60bb6f21", "type": "electric_scooter", "is_reserved": 0, "lon": -77.042901}, {"fusion_lat": 0.0, "name": "c440eced4c4406af6c1ac5e5f4ada22e", "is_disabled": 0, "rental_uris": {"android": "https://dc.lft.to/lastmile_qr_scan", "ios": "https://dc.lft.to/lastmile_qr_scan"}, "fusion_lon": 0.0, "lat": 38.911120833333335, "bike_id": "c440eced4c4406af6c1ac5e5f4ada22e", "type": "electric_scooter", "is_reserved": 0, "lon": -77.01153283333333}, {"fusion_lat": 0.0, "name": "4565c0d71f2d7ef49d51b0bafaf49c1a", "is_disabled": 0, "rental_uris": {"android": "https://dc.lft.to/lastmile_qr_scan", "ios": "https://dc.lft.to/lastmile_qr_scan"}, "fusion_lon": 0.0, "lat": 38.957020666666665, "bike_id": "4565c0d71f2d7ef49d51b0bafaf49c1a", "type": "electric_scooter", "is_reserved": 0, "lon": -77.02400883333334}, {"fusion_lat": 0.0, "name": "10ac1a00aa4532cec073f1fd9f704fb4", "is_disabled": 0, "rental_uris": {"android": "https://dc.lft.to/lastmile_qr_scan", "ios": "https://dc.lft.to/lastmile_qr_scan"}, "fusion_lon": 0.0, "lat": 38.900232333333335, "bike_id": "10ac1a00aa4532cec073f1fd9f704fb4", "type": "electric_scooter", "is_reserved": 0, "lon": -76.9914195}, {"fusion_lat": 0.0, "name": "3bc0482206660d36a9fe1af57e93041b", "is_disabled": 0, "rental_uris": {"android": "https://dc.lft.to/lastmile_qr_scan", "ios": "https://dc.lft.to/lastmile_qr_scan"}, "fusion_lon": 0.0, "lat": 38.920599833333334, "bike_id": "3bc0482206660d36a9fe1af57e93041b", "type": "electric_scooter", "is_reserved": 0, "lon": -77.03205833333334}, {"fusion_lat": 0.0, "name": "221d4851f163f9fd775597eda1a8f247", "is_disabled": 0, "rental_uris": {"android": "https://dc.lft.to/lastmile_qr_scan", "ios": "https://dc.lft.to/lastmile_qr_scan"}, "fusion_lon": 0.0, "lat": 38.88446666666667, "bike_id": "221d4851f163f9fd775597eda1a8f247", "type": "electric_scooter", "is_reserved": 0, "lon": -76.998331}, {"fusion_lat": 0.0, "name": "98515299b5fb75c71cec8eebba24b663", "is_disabled": 0, "rental_uris": {"android": "https://dc.lft.to/lastmile_qr_scan", "ios": "https://dc.lft.to/lastmile_qr_scan"}, "fusion_lon": 0.0, "lat": 38.884756, "bike_id": "98515299b5fb75c71cec8eebba24b663", "type": "electric_scooter", "is_reserved": 0, "lon": -76.9296955}, {"fusion_lat": 0.0, "name": "5e0178f2c3bb4f7c6a9b0275aecbf6a3", "is_disabled": 0, "rental_uris": {"android": "https://dc.lft.to/lastmile_qr_scan", "ios": "https://dc.lft.to/lastmile_qr_scan"}, "fusion_lon": 0.0, "lat": 38.929851166666666, "bike_id": "5e0178f2c3bb4f7c6a9b0275aecbf6a3", "type": "electric_scooter", "is_reserved": 0, "lon": -77.03260933333334}, {"fusion_lat": 0.0, "name": "35cb53cb064ae46feed8d4a3cbf4e263", "is_disabled": 0, "rental_uris": {"android": "https://dc.lft.to/lastmile_qr_scan", "ios": "https://dc.lft.to/lastmile_qr_scan"}, "fusion_lon": 0.0, "lat": 38.94700233333333, "bike_id": "35cb53cb064ae46feed8d4a3cbf4e263", "type": "electric_scooter", "is_reserved": 0, "lon": -77.01947666666666}, {"fusion_lat": 0.0, "name": "3ce41360c04d9554627ae4ab957d60a2", "is_disabled": 0, "rental_uris": {"android": "https://dc.lft.to/lastmile_qr_scan", "ios": "https://dc.lft.to/lastmile_qr_scan"}, "fusion_lon": 0.0, "lat": 38.93580033333333, "bike_id": "3ce41360c04d9554627ae4ab957d60a2", "type": "electric_scooter", "is_reserved": 0, "lon": -77.02361533333334}, {"fusion_lat": 0.0, "name": "b0a74c87f828fa05e12a51a5d6dd0f6a", "is_disabled": 0, "rental_uris": {"android": "https://dc.lft.to/lastmile_qr_scan", "ios": "https://dc.lft.to/lastmile_qr_scan"}, "fusion_lon": 0.0, "lat": 38.9244195, "bike_id": "b0a74c87f828fa05e12a51a5d6dd0f6a", "type": "electric_scooter", "is_reserved": 0, "lon": -77.033574}, {"fusion_lat": 0.0, "name": "9e2bb8561c2e2a913cda09c00c7e56d0", "is_disabled": 0, "rental_uris": {"android": "https://dc.lft.to/lastmile_qr_scan", "ios": "https://dc.lft.to/lastmile_qr_scan"}, "fusion_lon": 0.0, "lat": 38.946724, "bike_id": "9e2bb8561c2e2a913cda09c00c7e56d0", "type": "electric_scooter", "is_reserved": 0, "lon": -77.03089383333334}, {"fusion_lat": 0.0, "name": "da1678e64ef465cfb3813d22332cd7c1", "is_disabled": 0, "rental_uris": {"android": "https://dc.lft.to/lastmile_qr_scan", "ios": "https://dc.lft.to/lastmile_qr_scan"}, "fusion_lon": 0.0, "lat": 38.930990666666666, "bike_id": "da1678e64ef465cfb3813d22332cd7c1", "type": "electric_scooter", "is_reserved": 0, "lon": -77.02658}, {"fusion_lat": 0.0, "name": "ffd2bd964be0537f44b30eb4c64eb8f3", "is_disabled": 0, "rental_uris": {"android": "https://dc.lft.to/lastmile_qr_scan", "ios": "https://dc.lft.to/lastmile_qr_scan"}, "fusion_lon": 0.0, "lat": 38.909259166666665, "bike_id": "ffd2bd964be0537f44b30eb4c64eb8f3", "type": "electric_scooter", "is_reserved": 0, "lon": -77.06255616666667}, {"fusion_lat": 0.0, "name": "e253e9e136b560d50a32280725b0825f", "is_disabled": 0, "rental_uris": {"android": "https://dc.lft.to/lastmile_qr_scan", "ios": "https://dc.lft.to/lastmile_qr_scan"}, "fusion_lon": 0.0, "lat": 38.904626, "bike_id": "e253e9e136b560d50a32280725b0825f", "type": "electric_scooter", "is_reserved": 0, "lon": -77.03552266666667}, {"fusion_lat": 0.0, "name": "9d61f843e482491648a74b3ae79152d6", "is_disabled": 0, "rental_uris": {"android": "https://dc.lft.to/lastmile_qr_scan", "ios": "https://dc.lft.to/lastmile_qr_scan"}, "fusion_lon": 0.0, "lat": 38.90350683333333, "bike_id": "9d61f843e482491648a74b3ae79152d6", "type": "electric_scooter", "is_reserved": 0, "lon": -76.97476883333333}, {"fusion_lat": 0.0, "name": "90a4f097822d4eee486b2cee7e491667", "is_disabled": 0, "rental_uris": {"android": "https://dc.lft.to/lastmile_qr_scan", "ios": "https://dc.lft.to/lastmile_qr_scan"}, "fusion_lon": 0.0, "lat": 38.93526133333334, "bike_id": "90a4f097822d4eee486b2cee7e491667", "type": "electric_scooter", "is_reserved": 0, "lon": -77.045251}, {"fusion_lat": 0.0, "name": "adb2e3ad985bddb0355ecdbded75b16e", "is_disabled": 0, "rental_uris": {"android": "https://dc.lft.to/lastmile_qr_scan", "ios": "https://dc.lft.to/lastmile_qr_scan"}, "fusion_lon": 0.0, "lat": 38.900671833333334, "bike_id": "adb2e3ad985bddb0355ecdbded75b16e", "type": "electric_scooter", "is_reserved": 0, "lon": -77.050908}, {"fusion_lat": 0.0, "name": "0188978d5ddb0368b4b95a8a585fd6e6", "is_disabled": 0, "rental_uris": {"android": "https://dc.lft.to/lastmile_qr_scan", "ios": "https://dc.lft.to/lastmile_qr_scan"}, "fusion_lon": 0.0, "lat": 38.93456116666667, "bike_id": "0188978d5ddb0368b4b95a8a585fd6e6", "type": "electric_scooter", "is_reserved": 0, "lon": -77.03401066666666}, {"fusion_lat": 0.0, "name": "4418a8204d7cc6a92c98fa801c97ad8b", "is_disabled": 0, "rental_uris": {"android": "https://dc.lft.to/lastmile_qr_scan", "ios": "https://dc.lft.to/lastmile_qr_scan"}, "fusion_lon": 0.0, "lat": 38.973736, "bike_id": "4418a8204d7cc6a92c98fa801c97ad8b", "type": "electric_scooter", "is_reserved": 0, "lon": -77.012877}, {"fusion_lat": 0.0, "name": "fb70fe9cfce4a8e1a9768d02fa1f5d84", "is_disabled": 0, "rental_uris": {"android": "https://dc.lft.to/lastmile_qr_scan", "ios": "https://dc.lft.to/lastmile_qr_scan"}, "fusion_lon": 0.0, "lat": 38.93878083333333, "bike_id": "fb70fe9cfce4a8e1a9768d02fa1f5d84", "type": "electric_scooter", "is_reserved": 0, "lon": -77.02469133333334}, {"fusion_lat": 0.0, "name": "b8df8c9556bb9a0ed6744eae813f354c", "is_disabled": 0, "rental_uris": {"android": "https://dc.lft.to/lastmile_qr_scan", "ios": "https://dc.lft.to/lastmile_qr_scan"}, "fusion_lon": 0.0, "lat": 38.892159666666664, "bike_id": "b8df8c9556bb9a0ed6744eae813f354c", "type": "electric_scooter", "is_reserved": 0, "lon": -77.0334325}, {"fusion_lat": 0.0, "name": "73a21f6980febc81caa42e19c0a91ae5", "is_disabled": 0, "rental_uris": {"android": "https://dc.lft.to/lastmile_qr_scan", "ios": "https://dc.lft.to/lastmile_qr_scan"}, "fusion_lon": 0.0, "lat": 38.907303666666664, "bike_id": "73a21f6980febc81caa42e19c0a91ae5", "type": "electric_scooter", "is_reserved": 0, "lon": -77.0095225}, {"fusion_lat": 0.0, "name": "e8429a56e7fcba6ef851b682bf0b80d4", "is_disabled": 0, "rental_uris": {"android": "https://dc.lft.to/lastmile_qr_scan", "ios": "https://dc.lft.to/lastmile_qr_scan"}, "fusion_lon": 0.0, "lat": 38.9008025, "bike_id": "e8429a56e7fcba6ef851b682bf0b80d4", "type": "electric_scooter", "is_reserved": 0, "lon": -77.0494915}, {"fusion_lat": 0.0, "name": "96b3b7197a98ab8f3deca12f0bb3f309", "is_disabled": 0, "rental_uris": {"android": "https://dc.lft.to/lastmile_qr_scan", "ios": "https://dc.lft.to/lastmile_qr_scan"}, "fusion_lon": 0.0, "lat": 38.937714, "bike_id": "96b3b7197a98ab8f3deca12f0bb3f309", "type": "electric_scooter", "is_reserved": 0, "lon": -77.0326325}, {"fusion_lat": 0.0, "name": "36e07b7af25b25b7651b15c661ef4045", "is_disabled": 0, "rental_uris": {"android": "https://dc.lft.to/lastmile_qr_scan", "ios": "https://dc.lft.to/lastmile_qr_scan"}, "fusion_lon": 0.0, "lat": 38.883267333333336, "bike_id": "36e07b7af25b25b7651b15c661ef4045", "type": "electric_scooter", "is_reserved": 0, "lon": -77.0146385}, {"fusion_lat": 0.0, "name": "80b6ce2b7fe4f236f6858e216a80934f", "is_disabled": 0, "rental_uris": {"android": "https://dc.lft.to/lastmile_qr_scan", "ios": "https://dc.lft.to/lastmile_qr_scan"}, "fusion_lon": 0.0, "lat": 38.9210095, "bike_id": "80b6ce2b7fe4f236f6858e216a80934f", "type": "electric_scooter", "is_reserved": 0, "lon": -77.046978}, {"fusion_lat": 0.0, "name": "af30aa83adaec5c82b616805f6e747a1", "is_disabled": 0, "rental_uris": {"android": "https://dc.lft.to/lastmile_qr_scan", "ios": "https://dc.lft.to/lastmile_qr_scan"}, "fusion_lon": 0.0, "lat": 38.925862333333335, "bike_id": "af30aa83adaec5c82b616805f6e747a1", "type": "electric_scooter", "is_reserved": 0, "lon": -77.0247625}, {"fusion_lat": 0.0, "name": "d66aa08f50cecbcedbf94e70e372fba0", "is_disabled": 0, "rental_uris": {"android": "https://dc.lft.to/lastmile_qr_scan", "ios": "https://dc.lft.to/lastmile_qr_scan"}, "fusion_lon": 0.0, "lat": 38.91351083333333, "bike_id": "d66aa08f50cecbcedbf94e70e372fba0", "type": "electric_scooter", "is_reserved": 0, "lon": -77.03332783333333}, {"fusion_lat": 0.0, "name": "572d98fb23e451446c3277dc0627165b", "is_disabled": 0, "rental_uris": {"android": "https://dc.lft.to/lastmile_qr_scan", "ios": "https://dc.lft.to/lastmile_qr_scan"}, "fusion_lon": 0.0, "lat": 38.90140016666667, "bike_id": "572d98fb23e451446c3277dc0627165b", "type": "electric_scooter", "is_reserved": 0, "lon": -77.02562183333333}, {"fusion_lat": 0.0, "name": "2dc18b352cb883a4fce8f732069d2914", "is_disabled": 0, "rental_uris": {"android": "https://dc.lft.to/lastmile_qr_scan", "ios": "https://dc.lft.to/lastmile_qr_scan"}, "fusion_lon": 0.0, "lat": 38.984695, "bike_id": "2dc18b352cb883a4fce8f732069d2914", "type": "electric_scooter", "is_reserved": 0, "lon": -77.02637283333334}, {"fusion_lat": 0.0, "name": "a6e6e23e7d054404047fe2ea3a03689b", "is_disabled": 0, "rental_uris": {"android": "https://dc.lft.to/lastmile_qr_scan", "ios": "https://dc.lft.to/lastmile_qr_scan"}, "fusion_lon": 0.0, "lat": 38.921349, "bike_id": "a6e6e23e7d054404047fe2ea3a03689b", "type": "electric_scooter", "is_reserved": 0, "lon": -77.0180685}, {"fusion_lat": 0.0, "name": "319ccffee91fe00d183704f2e3364e1b", "is_disabled": 0, "rental_uris": {"android": "https://dc.lft.to/lastmile_qr_scan", "ios": "https://dc.lft.to/lastmile_qr_scan"}, "fusion_lon": 0.0, "lat": 38.9165835, "bike_id": "319ccffee91fe00d183704f2e3364e1b", "type": "electric_scooter", "is_reserved": 0, "lon": -77.02807833333334}, {"fusion_lat": 0.0, "name": "9eb0f93d96a9a380e0135870eeeebfde", "is_disabled": 0, "rental_uris": {"android": "https://dc.lft.to/lastmile_qr_scan", "ios": "https://dc.lft.to/lastmile_qr_scan"}, "fusion_lon": 0.0, "lat": 38.921663, "bike_id": "9eb0f93d96a9a380e0135870eeeebfde", "type": "electric_scooter", "is_reserved": 0, "lon": -77.03644016666667}, {"fusion_lat": 0.0, "name": "88e4d6e5ac7c3e3850cd083cd85ecf15", "is_disabled": 0, "rental_uris": {"android": "https://dc.lft.to/lastmile_qr_scan", "ios": "https://dc.lft.to/lastmile_qr_scan"}, "fusion_lon": 0.0, "lat": 38.92649266666667, "bike_id": "88e4d6e5ac7c3e3850cd083cd85ecf15", "type": "electric_scooter", "is_reserved": 0, "lon": -77.03710633333333}, {"fusion_lat": 0.0, "name": "09537fe8152e598ea8b5a9cebb1f804e", "is_disabled": 0, "rental_uris": {"android": "https://dc.lft.to/lastmile_qr_scan", "ios": "https://dc.lft.to/lastmile_qr_scan"}, "fusion_lon": 0.0, "lat": 38.887652833333334, "bike_id": "09537fe8152e598ea8b5a9cebb1f804e", "type": "electric_scooter", "is_reserved": 0, "lon": -76.99467183333333}, {"fusion_lat": 0.0, "name": "e8c8e0a385c32cce80467781d7a048e6", "is_disabled": 0, "rental_uris": {"android": "https://dc.lft.to/lastmile_qr_scan", "ios": "https://dc.lft.to/lastmile_qr_scan"}, "fusion_lon": 0.0, "lat": 38.9025385, "bike_id": "e8c8e0a385c32cce80467781d7a048e6", "type": "electric_scooter", "is_reserved": 0, "lon": -77.0186805}, {"fusion_lat": 0.0, "name": "c012e44eeeffd4ce6fd78bfa81d5f5ce", "is_disabled": 0, "rental_uris": {"android": "https://dc.lft.to/lastmile_qr_scan", "ios": "https://dc.lft.to/lastmile_qr_scan"}, "fusion_lon": 0.0, "lat": 38.9009185, "bike_id": "c012e44eeeffd4ce6fd78bfa81d5f5ce", "type": "electric_scooter", "is_reserved": 0, "lon": -77.02474383333333}, {"fusion_lat": 0.0, "name": "69241e1f074b14d6e3f1c4157a3c8c12", "is_disabled": 0, "rental_uris": {"android": "https://dc.lft.to/lastmile_qr_scan", "ios": "https://dc.lft.to/lastmile_qr_scan"}, "fusion_lon": 0.0, "lat": 38.90003933333333, "bike_id": "69241e1f074b14d6e3f1c4157a3c8c12", "type": "electric_scooter", "is_reserved": 0, "lon": -76.99769016666667}, {"fusion_lat": 0.0, "name": "3ffb335021053dfeef7bedaff125378c", "is_disabled": 0, "rental_uris": {"android": "https://dc.lft.to/lastmile_qr_scan", "ios": "https://dc.lft.to/lastmile_qr_scan"}, "fusion_lon": 0.0, "lat": 38.92481816666667, "bike_id": "3ffb335021053dfeef7bedaff125378c", "type": "electric_scooter", "is_reserved": 0, "lon": -77.02835333333333}, {"fusion_lat": 0.0, "name": "013983062abc22ef6ef5beb9532f8023", "is_disabled": 0, "rental_uris": {"android": "https://dc.lft.to/lastmile_qr_scan", "ios": "https://dc.lft.to/lastmile_qr_scan"}, "fusion_lon": 0.0, "lat": 38.9012625, "bike_id": "013983062abc22ef6ef5beb9532f8023", "type": "electric_scooter", "is_reserved": 0, "lon": -77.002812}, {"fusion_lat": 0.0, "name": "7fb059d6ad522093553173f13fe0cd5d", "is_disabled": 0, "rental_uris": {"android": "https://dc.lft.to/lastmile_qr_scan", "ios": "https://dc.lft.to/lastmile_qr_scan"}, "fusion_lon": 0.0, "lat": 38.93457883333333, "bike_id": "7fb059d6ad522093553173f13fe0cd5d", "type": "electric_scooter", "is_reserved": 0, "lon": -77.023464}, {"fusion_lat": 0.0, "name": "382d0455f16c5b9de10a6f0d50b3cf96", "is_disabled": 0, "rental_uris": {"android": "https://dc.lft.to/lastmile_qr_scan", "ios": "https://dc.lft.to/lastmile_qr_scan"}, "fusion_lon": 0.0, "lat": 38.918429333333336, "bike_id": "382d0455f16c5b9de10a6f0d50b3cf96", "type": "electric_scooter", "is_reserved": 0, "lon": -76.96541333333333}, {"fusion_lat": 0.0, "name": "8c47e54b718768eea46b8e647c6225f5", "is_disabled": 0, "rental_uris": {"android": "https://dc.lft.to/lastmile_qr_scan", "ios": "https://dc.lft.to/lastmile_qr_scan"}, "fusion_lon": 0.0, "lat": 38.92422766666667, "bike_id": "8c47e54b718768eea46b8e647c6225f5", "type": "electric_scooter", "is_reserved": 0, "lon": -76.98591333333333}, {"fusion_lat": 0.0, "name": "1af885d0b7fae56b01d17acd69b4aed2", "is_disabled": 0, "rental_uris": {"android": "https://dc.lft.to/lastmile_qr_scan", "ios": "https://dc.lft.to/lastmile_qr_scan"}, "fusion_lon": 0.0, "lat": 38.888694, "bike_id": "1af885d0b7fae56b01d17acd69b4aed2", "type": "electric_scooter", "is_reserved": 0, "lon": -76.98460016666667}, {"fusion_lat": 0.0, "name": "7409adc8c5773448ff4ca1405ad353fa", "is_disabled": 0, "rental_uris": {"android": "https://dc.lft.to/lastmile_qr_scan", "ios": "https://dc.lft.to/lastmile_qr_scan"}, "fusion_lon": 0.0, "lat": 38.901234, "bike_id": "7409adc8c5773448ff4ca1405ad353fa", "type": "electric_scooter", "is_reserved": 0, "lon": -77.051477}, {"fusion_lat": 0.0, "name": "20e51ec192d03aa5cd1d8bd6f90d3fd1", "is_disabled": 0, "rental_uris": {"android": "https://dc.lft.to/lastmile_qr_scan", "ios": "https://dc.lft.to/lastmile_qr_scan"}, "fusion_lon": 0.0, "lat": 38.89470983333333, "bike_id": "20e51ec192d03aa5cd1d8bd6f90d3fd1", "type": "electric_scooter", "is_reserved": 0, "lon": -76.99735966666667}, {"fusion_lat": 0.0, "name": "940b9a84e03e7cc846913f4034d26609", "is_disabled": 0, "rental_uris": {"android": "https://dc.lft.to/lastmile_qr_scan", "ios": "https://dc.lft.to/lastmile_qr_scan"}, "fusion_lon": 0.0, "lat": 38.90183533333333, "bike_id": "940b9a84e03e7cc846913f4034d26609", "type": "electric_scooter", "is_reserved": 0, "lon": -76.92899416666667}, {"fusion_lat": 0.0, "name": "de9d5b8f1c6367f516021ba43a776801", "is_disabled": 0, "rental_uris": {"android": "https://dc.lft.to/lastmile_qr_scan", "ios": "https://dc.lft.to/lastmile_qr_scan"}, "fusion_lon": 0.0, "lat": 38.905061833333335, "bike_id": "de9d5b8f1c6367f516021ba43a776801", "type": "electric_scooter", "is_reserved": 0, "lon": -77.01708016666667}, {"fusion_lat": 0.0, "name": "71d54628ed94c90d26c844de10243ebd", "is_disabled": 0, "rental_uris": {"android": "https://dc.lft.to/lastmile_qr_scan", "ios": "https://dc.lft.to/lastmile_qr_scan"}, "fusion_lon": 0.0, "lat": 38.85511316666667, "bike_id": "71d54628ed94c90d26c844de10243ebd", "type": "electric_bike", "is_reserved": 0, "lon": -77.10539133333333}, {"fusion_lat": 0.0, "name": "e18a7e9ece88746738f2ef3cd01f3a7b", "is_disabled": 0, "rental_uris": {"android": "https://dc.lft.to/lastmile_qr_scan", "ios": "https://dc.lft.to/lastmile_qr_scan"}, "fusion_lon": 0.0, "lat": 38.88744116666667, "bike_id": "e18a7e9ece88746738f2ef3cd01f3a7b", "type": "electric_scooter", "is_reserved": 0, "lon": -76.996254}, {"fusion_lat": 0.0, "name": "1dfaf7de2f5d7d828223616ee87bb8d4", "is_disabled": 0, "rental_uris": {"android": "https://dc.lft.to/lastmile_qr_scan", "ios": "https://dc.lft.to/lastmile_qr_scan"}, "fusion_lon": 0.0, "lat": 38.91974616666667, "bike_id": "1dfaf7de2f5d7d828223616ee87bb8d4", "type": "electric_scooter", "is_reserved": 0, "lon": -77.021968}, {"fusion_lat": 0.0, "name": "fd21ec1ee3f56667067a718cd70eb5ed", "is_disabled": 0, "rental_uris": {"android": "https://dc.lft.to/lastmile_qr_scan", "ios": "https://dc.lft.to/lastmile_qr_scan"}, "fusion_lon": 0.0, "lat": 38.903153333333336, "bike_id": "fd21ec1ee3f56667067a718cd70eb5ed", "type": "electric_scooter", "is_reserved": 0, "lon": -76.9779725}, {"fusion_lat": 0.0, "name": "a35a681e19a0a2c9024de79f06cf4df0", "is_disabled": 0, "rental_uris": {"android": "https://dc.lft.to/lastmile_qr_scan", "ios": "https://dc.lft.to/lastmile_qr_scan"}, "fusion_lon": 0.0, "lat": 38.93258766666667, "bike_id": "a35a681e19a0a2c9024de79f06cf4df0", "type": "electric_scooter", "is_reserved": 0, "lon": -77.038937}, {"fusion_lat": 0.0, "name": "1b8be8ff7c2d6c824b3a007a506d8b8c", "is_disabled": 0, "rental_uris": {"android": "https://dc.lft.to/lastmile_qr_scan", "ios": "https://dc.lft.to/lastmile_qr_scan"}, "fusion_lon": 0.0, "lat": 38.931049, "bike_id": "1b8be8ff7c2d6c824b3a007a506d8b8c", "type": "electric_scooter", "is_reserved": 0, "lon": -77.02136183333333}, {"fusion_lat": 0.0, "name": "66b10cef863124bb046b0ba4c66532fa", "is_disabled": 0, "rental_uris": {"android": "https://dc.lft.to/lastmile_qr_scan", "ios": "https://dc.lft.to/lastmile_qr_scan"}, "fusion_lon": 0.0, "lat": 38.905756833333335, "bike_id": "66b10cef863124bb046b0ba4c66532fa", "type": "electric_scooter", "is_reserved": 0, "lon": -77.02969866666666}, {"fusion_lat": 0.0, "name": "0291d0fb8763812c25079c24ebf36b04", "is_disabled": 0, "rental_uris": {"android": "https://dc.lft.to/lastmile_qr_scan", "ios": "https://dc.lft.to/lastmile_qr_scan"}, "fusion_lon": 0.0, "lat": 38.9135445, "bike_id": "0291d0fb8763812c25079c24ebf36b04", "type": "electric_scooter", "is_reserved": 0, "lon": -77.04875066666666}, {"fusion_lat": 0.0, "name": "d214f734e04a1faf7d56df83dde07e42", "is_disabled": 0, "rental_uris": {"android": "https://dc.lft.to/lastmile_qr_scan", "ios": "https://dc.lft.to/lastmile_qr_scan"}, "fusion_lon": 0.0, "lat": 38.91263633333333, "bike_id": "d214f734e04a1faf7d56df83dde07e42", "type": "electric_scooter", "is_reserved": 0, "lon": -77.03391083333334}, {"fusion_lat": 0.0, "name": "13a8afa43bab88297bf703a67e08d85a", "is_disabled": 0, "rental_uris": {"android": "https://dc.lft.to/lastmile_qr_scan", "ios": "https://dc.lft.to/lastmile_qr_scan"}, "fusion_lon": 0.0, "lat": 38.91251916666667, "bike_id": "13a8afa43bab88297bf703a67e08d85a", "type": "electric_scooter", "is_reserved": 0, "lon": -77.04926533333334}, {"fusion_lat": 0.0, "name": "dbc876d7d0d3e25f240e40653707746d", "is_disabled": 0, "rental_uris": {"android": "https://dc.lft.to/lastmile_qr_scan", "ios": "https://dc.lft.to/lastmile_qr_scan"}, "fusion_lon": 0.0, "lat": 38.89943233333334, "bike_id": "dbc876d7d0d3e25f240e40653707746d", "type": "electric_scooter", "is_reserved": 0, "lon": -77.04882366666666}, {"fusion_lat": 0.0, "name": "386544edb944907e2279fd774a3dc43f", "is_disabled": 0, "rental_uris": {"android": "https://dc.lft.to/lastmile_qr_scan", "ios": "https://dc.lft.to/lastmile_qr_scan"}, "fusion_lon": 0.0, "lat": 38.92306833333333, "bike_id": "386544edb944907e2279fd774a3dc43f", "type": "electric_scooter", "is_reserved": 0, "lon": -77.0426045}, {"fusion_lat": 0.0, "name": "429f6c3b436b29113271833f2c1a7fd7", "is_disabled": 0, "rental_uris": {"android": "https://dc.lft.to/lastmile_qr_scan", "ios": "https://dc.lft.to/lastmile_qr_scan"}, "fusion_lon": 0.0, "lat": 38.9002805, "bike_id": "429f6c3b436b29113271833f2c1a7fd7", "type": "electric_scooter", "is_reserved": 0, "lon": -76.98858316666667}, {"fusion_lat": 0.0, "name": "b8f3cc780b7ad1cbc0137c9d4cc8e8cb", "is_disabled": 0, "rental_uris": {"android": "https://dc.lft.to/lastmile_qr_scan", "ios": "https://dc.lft.to/lastmile_qr_scan"}, "fusion_lon": 0.0, "lat": 38.876337166666666, "bike_id": "b8f3cc780b7ad1cbc0137c9d4cc8e8cb", "type": "electric_scooter", "is_reserved": 0, "lon": -77.00750333333333}, {"fusion_lat": 0.0, "name": "2432b3e61df03ba8acea7dc5c48167ba", "is_disabled": 0, "rental_uris": {"android": "https://dc.lft.to/lastmile_qr_scan", "ios": "https://dc.lft.to/lastmile_qr_scan"}, "fusion_lon": 0.0, "lat": 38.9045625, "bike_id": "2432b3e61df03ba8acea7dc5c48167ba", "type": "electric_scooter", "is_reserved": 0, "lon": -77.033532}, {"fusion_lat": 0.0, "name": "5e72ef352853cbecefc85025e292c82c", "is_disabled": 0, "rental_uris": {"android": "https://dc.lft.to/lastmile_qr_scan", "ios": "https://dc.lft.to/lastmile_qr_scan"}, "fusion_lon": 0.0, "lat": 38.923649833333336, "bike_id": "5e72ef352853cbecefc85025e292c82c", "type": "electric_scooter", "is_reserved": 0, "lon": -77.02053983333333}, {"fusion_lat": 0.0, "name": "2fe8b038c77d197e82d7e8ce24042721", "is_disabled": 0, "rental_uris": {"android": "https://dc.lft.to/lastmile_qr_scan", "ios": "https://dc.lft.to/lastmile_qr_scan"}, "fusion_lon": 0.0, "lat": 38.90214183333333, "bike_id": "2fe8b038c77d197e82d7e8ce24042721", "type": "electric_scooter", "is_reserved": 0, "lon": -77.051139}, {"fusion_lat": 0.0, "name": "5583f29d3dba1ecd793a24457d8230fc", "is_disabled": 0, "rental_uris": {"android": "https://dc.lft.to/lastmile_qr_scan", "ios": "https://dc.lft.to/lastmile_qr_scan"}, "fusion_lon": 0.0, "lat": 38.9168925, "bike_id": "5583f29d3dba1ecd793a24457d8230fc", "type": "electric_scooter", "is_reserved": 0, "lon": -77.03188933333334}, {"fusion_lat": 0.0, "name": "96bc4ed88231a3284c85dc47cb59a3fb", "is_disabled": 0, "rental_uris": {"android": "https://dc.lft.to/lastmile_qr_scan", "ios": "https://dc.lft.to/lastmile_qr_scan"}, "fusion_lon": 0.0, "lat": 38.9335975, "bike_id": "96bc4ed88231a3284c85dc47cb59a3fb", "type": "electric_scooter", "is_reserved": 0, "lon": -77.03883866666666}, {"fusion_lat": 0.0, "name": "3f7eec62b45ddca2052533d226b57734", "is_disabled": 0, "rental_uris": {"android": "https://dc.lft.to/lastmile_qr_scan", "ios": "https://dc.lft.to/lastmile_qr_scan"}, "fusion_lon": 0.0, "lat": 38.89707033333333, "bike_id": "3f7eec62b45ddca2052533d226b57734", "type": "electric_scooter", "is_reserved": 0, "lon": -77.03226966666666}, {"fusion_lat": 0.0, "name": "81c9b480f0447f3faace32746f7e44cf", "is_disabled": 0, "rental_uris": {"android": "https://dc.lft.to/lastmile_qr_scan", "ios": "https://dc.lft.to/lastmile_qr_scan"}, "fusion_lon": 0.0, "lat": 38.92682933333333, "bike_id": "81c9b480f0447f3faace32746f7e44cf", "type": "electric_scooter", "is_reserved": 0, "lon": -77.02787033333334}, {"fusion_lat": 0.0, "name": "5c1f3a52cd3b8f07455de38564a02d8d", "is_disabled": 0, "rental_uris": {"android": "https://dc.lft.to/lastmile_qr_scan", "ios": "https://dc.lft.to/lastmile_qr_scan"}, "fusion_lon": 0.0, "lat": 38.90355666666667, "bike_id": "5c1f3a52cd3b8f07455de38564a02d8d", "type": "electric_scooter", "is_reserved": 0, "lon": -76.97242216666666}, {"fusion_lat": 0.0, "name": "11934a2f48aac1f4757b03b41737d16e", "is_disabled": 0, "rental_uris": {"android": "https://dc.lft.to/lastmile_qr_scan", "ios": "https://dc.lft.to/lastmile_qr_scan"}, "fusion_lon": 0.0, "lat": 38.90969066666667, "bike_id": "11934a2f48aac1f4757b03b41737d16e", "type": "electric_scooter", "is_reserved": 0, "lon": -77.0089915}, {"fusion_lat": 0.0, "name": "5b43853a64d9ece618cf539dded70d0d", "is_disabled": 0, "rental_uris": {"android": "https://dc.lft.to/lastmile_qr_scan", "ios": "https://dc.lft.to/lastmile_qr_scan"}, "fusion_lon": 0.0, "lat": 38.9011095, "bike_id": "5b43853a64d9ece618cf539dded70d0d", "type": "electric_scooter", "is_reserved": 0, "lon": -77.05163066666667}, {"fusion_lat": 0.0, "name": "57bb4f372fb06b7513e287eade28f7cb", "is_disabled": 0, "rental_uris": {"android": "https://dc.lft.to/lastmile_qr_scan", "ios": "https://dc.lft.to/lastmile_qr_scan"}, "fusion_lon": 0.0, "lat": 38.839325, "bike_id": "57bb4f372fb06b7513e287eade28f7cb", "type": "electric_bike", "is_reserved": 0, "lon": -77.07902933333334}, {"fusion_lat": 0.0, "name": "ea7c6efc95b230f963ad3f79bd609cfb", "is_disabled": 0, "rental_uris": {"android": "https://dc.lft.to/lastmile_qr_scan", "ios": "https://dc.lft.to/lastmile_qr_scan"}, "fusion_lon": 0.0, "lat": 38.905729, "bike_id": "ea7c6efc95b230f963ad3f79bd609cfb", "type": "electric_scooter", "is_reserved": 0, "lon": -77.008921}, {"fusion_lat": 0.0, "name": "28e2c6df77d57dc3252ecaa07b30ba27", "is_disabled": 0, "rental_uris": {"android": "https://dc.lft.to/lastmile_qr_scan", "ios": "https://dc.lft.to/lastmile_qr_scan"}, "fusion_lon": 0.0, "lat": 38.939643, "bike_id": "28e2c6df77d57dc3252ecaa07b30ba27", "type": "electric_bike", "is_reserved": 0, "lon": -76.9938355}, {"fusion_lat": 0.0, "name": "dbce42e2300323d1d7ddb3f4d61eef22", "is_disabled": 0, "rental_uris": {"android": "https://dc.lft.to/lastmile_qr_scan", "ios": "https://dc.lft.to/lastmile_qr_scan"}, "fusion_lon": 0.0, "lat": 38.94131866666667, "bike_id": "dbce42e2300323d1d7ddb3f4d61eef22", "type": "electric_scooter", "is_reserved": 0, "lon": -77.006105}, {"fusion_lat": 0.0, "name": "94f4738a92ff3b6ba0d976b209adc21a", "is_disabled": 0, "rental_uris": {"android": "https://dc.lft.to/lastmile_qr_scan", "ios": "https://dc.lft.to/lastmile_qr_scan"}, "fusion_lon": 0.0, "lat": 38.905767166666664, "bike_id": "94f4738a92ff3b6ba0d976b209adc21a", "type": "electric_scooter", "is_reserved": 0, "lon": -77.02201666666667}, {"fusion_lat": 0.0, "name": "7027524f4bd5adaf152a735aa4143b45", "is_disabled": 0, "rental_uris": {"android": "https://dc.lft.to/lastmile_qr_scan", "ios": "https://dc.lft.to/lastmile_qr_scan"}, "fusion_lon": 0.0, "lat": 38.91338366666667, "bike_id": "7027524f4bd5adaf152a735aa4143b45", "type": "electric_bike", "is_reserved": 0, "lon": -76.98888866666667}, {"fusion_lat": 0.0, "name": "ad1ef443745fd9869e91022304ab5539", "is_disabled": 0, "rental_uris": {"android": "https://dc.lft.to/lastmile_qr_scan", "ios": "https://dc.lft.to/lastmile_qr_scan"}, "fusion_lon": 0.0, "lat": 38.926772, "bike_id": "ad1ef443745fd9869e91022304ab5539", "type": "electric_scooter", "is_reserved": 0, "lon": -77.03148533333334}, {"fusion_lat": 0.0, "name": "1d54433dbc2bb6c91df59aad3e9d485d", "is_disabled": 0, "rental_uris": {"android": "https://dc.lft.to/lastmile_qr_scan", "ios": "https://dc.lft.to/lastmile_qr_scan"}, "fusion_lon": 0.0, "lat": 38.881153833333336, "bike_id": "1d54433dbc2bb6c91df59aad3e9d485d", "type": "electric_bike", "is_reserved": 0, "lon": -77.01648033333333}, {"fusion_lat": 0.0, "name": "6e9a77716d3c0f0c9bf288c788cc0e91", "is_disabled": 0, "rental_uris": {"android": "https://dc.lft.to/lastmile_qr_scan", "ios": "https://dc.lft.to/lastmile_qr_scan"}, "fusion_lon": 0.0, "lat": 38.919572, "bike_id": "6e9a77716d3c0f0c9bf288c788cc0e91", "type": "electric_scooter", "is_reserved": 0, "lon": -77.023444}, {"fusion_lat": 0.0, "name": "34a0d5d5d9dc1faea5ead6ef2434ab44", "is_disabled": 0, "rental_uris": {"android": "https://dc.lft.to/lastmile_qr_scan", "ios": "https://dc.lft.to/lastmile_qr_scan"}, "fusion_lon": 0.0, "lat": 38.908221833333336, "bike_id": "34a0d5d5d9dc1faea5ead6ef2434ab44", "type": "electric_scooter", "is_reserved": 0, "lon": -77.0431235}, {"fusion_lat": 0.0, "name": "7e7b232ba03b36589e6157ae0e9adc53", "is_disabled": 0, "rental_uris": {"android": "https://dc.lft.to/lastmile_qr_scan", "ios": "https://dc.lft.to/lastmile_qr_scan"}, "fusion_lon": 0.0, "lat": 38.94156666666667, "bike_id": "7e7b232ba03b36589e6157ae0e9adc53", "type": "electric_scooter", "is_reserved": 0, "lon": -77.0250495}, {"fusion_lat": 0.0, "name": "91d4a6883bdc1d8b80974259318ef3fc", "is_disabled": 0, "rental_uris": {"android": "https://dc.lft.to/lastmile_qr_scan", "ios": "https://dc.lft.to/lastmile_qr_scan"}, "fusion_lon": 0.0, "lat": 38.89938, "bike_id": "91d4a6883bdc1d8b80974259318ef3fc", "type": "electric_scooter", "is_reserved": 0, "lon": -77.05356466666667}, {"fusion_lat": 0.0, "name": "7b8a1b3659787e79bf89d1913b60fafc", "is_disabled": 0, "rental_uris": {"android": "https://dc.lft.to/lastmile_qr_scan", "ios": "https://dc.lft.to/lastmile_qr_scan"},