{"data": {"bikes": [{"lon": -76.97747483333333, "bike_id": "9606d66717961a46e5a1eab0cf72b7d8", "lat": 38.864869, "fusion_lon": 0.0, "fusion_lat": 0.0, "type": "electric_bike", "name": "9606d66717961a46e5a1eab0cf72b7d8", "is_disabled": 0, "rental_uris": {"ios": "https://dc.lft.to/lastmile_qr_scan", "android": "https://dc.lft.to/lastmile_qr_scan"}, "is_reserved": 0}, {"lon": -77.00657483333333, "bike_id": "782b9b91a5f0256a23c2354d1c858125", "lat": 38.94462633333333, "fusion_lon": 0.0, "fusion_lat": 0.0, "type": "electric_scooter", "name": "782b9b91a5f0256a23c2354d1c858125", "is_disabled": 0, "rental_uris": {"ios": "https://dc.lft.to/lastmile_qr_scan", "android": "https://dc.lft.to/lastmile_qr_scan"}, "is_reserved": 0}, {"lon": -77.03174383333334, "bike_id": "03294b4810c980cb58f76f0b13fc42ba", "lat": 38.936059, "fusion_lon": 0.0, "fusion_lat": 0.0, "type": "electric_scooter", "name": "03294b4810c980cb58f76f0b13fc42ba", "is_disabled": 0, "rental_uris": {"ios": "https://dc.lft.to/lastmile_qr_scan", "android": "https://dc.lft.to/lastmile_qr_scan"}, "is_reserved": 0}, {"lon": -77.034401, "bike_id": "c1c76b8863f3067b3550dff15ae421e1", "lat": 38.910129833333336, "fusion_lon": 0.0, "fusion_lat": 0.0, "type": "electric_scooter", "name": "c1c76b8863f3067b3550dff15ae421e1", "is_disabled": 0, "rental_uris": {"ios": "https://dc.lft.to/lastmile_qr_scan", "android": "https://dc.lft.to/lastmile_qr_scan"}, "is_reserved": 0}, {"lon": -77.1856585, "bike_id": "0a18a72d05b5e983cadc12a9b8fee741", "lat": 39.09975933333333, "fusion_lon": 0.0, "fusion_lat": 0.0, "type": "electric_bike", "name": "0a18a72d05b5e983cadc12a9b8fee741", "is_disabled": 0, "rental_uris": {"ios": "https://dc.lft.to/lastmile_qr_scan", "android": "https://dc.lft.to/lastmile_qr_scan"}, "is_reserved": 0}, {"lon": -76.962605, "bike_id": "2620dc18f4990782db93c4b1fc02b1e2", "lat": 38.882446333333334, "fusion_lon": 0.0, "fusion_lat": 0.0, "type": "electric_bike", "name": "2620dc18f4990782db93c4b1fc02b1e2", "is_disabled": 0, "rental_uris": {"ios": "https://dc.lft.to/lastmile_qr_scan", "android": "https://dc.lft.to/lastmile_qr_scan"}, "is_reserved": 0}, {"lon": -77.02394833333334, "bike_id": "d21d61dd4b216dcb3e3a9a96b5f881f2", "lat": 38.91994433333333, "fusion_lon": 0.0, "fusion_lat": 0.0, "type": "electric_scooter", "name": "d21d61dd4b216dcb3e3a9a96b5f881f2", "is_disabled": 0, "rental_uris": {"ios": "https://dc.lft.to/lastmile_qr_scan", "android": "https://dc.lft.to/lastmile_qr_scan"}, "is_reserved": 0}, {"lon": -77.11160483333333, "bike_id": "cefbc6dec4a3a9910a1d2f7087344029", "lat": 38.855106166666666, "fusion_lon": 0.0, "fusion_lat": 0.0, "type": "electric_bike", "name": "cefbc6dec4a3a9910a1d2f7087344029", "is_disabled": 0, "rental_uris": {"ios": "https://dc.lft.to/lastmile_qr_scan", "android": "https://dc.lft.to/lastmile_qr_scan"}, "is_reserved": 0}, {"lon": -77.05737216666667, "bike_id": "b07f5b15096fc5911e50c8528172ef8c", "lat": 38.9336835, "fusion_lon": 0.0, "fusion_lat": 0.0, "type": "electric_scooter", "name": "b07f5b15096fc5911e50c8528172ef8c", "is_disabled": 0, "rental_uris": {"ios": "https://dc.lft.to/lastmile_qr_scan", "android": "https://dc.lft.to/lastmile_qr_scan"}, "is_reserved": 0}, {"lon": -77.018781, "bike_id": "be12700ba14d59cb5005913b0392fb4d", "lat": 38.9183, "fusion_lon": 0.0, "fusion_lat": 0.0, "type": "electric_scooter", "name": "be12700ba14d59cb5005913b0392fb4d", "is_disabled": 0, "rental_uris": {"ios": "https://dc.lft.to/lastmile_qr_scan", "android": "https://dc.lft.to/lastmile_qr_scan"}, "is_reserved": 0}, {"lon": -76.995287, "bike_id": "3bb0af2e95e3add92cc08c0f647a98c1", "lat": 38.88370416666667, "fusion_lon": 0.0, "fusion_lat": 0.0, "type": "electric_scooter", "name": "3bb0af2e95e3add92cc08c0f647a98c1", "is_disabled": 0, "rental_uris": {"ios": "https://dc.lft.to/lastmile_qr_scan", "android": "https://dc.lft.to/lastmile_qr_scan"}, "is_reserved": 0}, {"lon": -76.98229116666667, "bike_id": "5233ec112c266a16ba6c6cf1ead4b2ab", "lat": 38.88647066666667, "fusion_lon": 0.0, "fusion_lat": 0.0, "type": "electric_scooter", "name": "5233ec112c266a16ba6c6cf1ead4b2ab", "is_disabled": 0, "rental_uris": {"ios": "https://dc.lft.to/lastmile_qr_scan", "android": "https://dc.lft.to/lastmile_qr_scan"}, "is_reserved": 0}, {"lon": -77.0005775, "bike_id": "e44fce58859da98609bf6bbdde90157e", "lat": 38.89488133333333, "fusion_lon": 0.0, "fusion_lat": 0.0, "type": "electric_scooter", "name": "e44fce58859da98609bf6bbdde90157e", "is_disabled": 0, "rental_uris": {"ios": "https://dc.lft.to/lastmile_qr_scan", "android": "https://dc.lft.to/lastmile_qr_scan"}, "is_reserved": 0}, {"lon": -77.0433605, "bike_id": "f8fb00791d27ca7fda3cb59f2c0e5879", "lat": 38.9222075, "fusion_lon": 0.0, "fusion_lat": 0.0, "type": "electric_scooter", "name": "f8fb00791d27ca7fda3cb59f2c0e5879", "is_disabled": 0, "rental_uris": {"ios": "https://dc.lft.to/lastmile_qr_scan", "android": "https://dc.lft.to/lastmile_qr_scan"}, "is_reserved": 0}, {"lon": -77.10490183333333, "bike_id": "a8208f746e43d20f76621395df426a5b", "lat": 38.856057, "fusion_lon": 0.0, "fusion_lat": 0.0, "type": "electric_bike", "name": "a8208f746e43d20f76621395df426a5b", "is_disabled": 0, "rental_uris": {"ios": "https://dc.lft.to/lastmile_qr_scan", "android": "https://dc.lft.to/lastmile_qr_scan"}, "is_reserved": 0}, {"lon": -77.0442615, "bike_id": "c22275a3026b5758ec03a3c84eb8fe74", "lat": 38.921236666666665, "fusion_lon": 0.0, "fusion_lat": 0.0, "type": "electric_scooter", "name": "c22275a3026b5758ec03a3c84eb8fe74", "is_disabled": 0, "rental_uris": {"ios": "https://dc.lft.to/lastmile_qr_scan", "android": "https://dc.lft.to/lastmile_qr_scan"}, "is_reserved": 0}, {"lon": -77.03762883333333, "bike_id": "6a1e5d3e2a789bf9e3e793d1b23efab5", "lat": 38.90778066666667, "fusion_lon": 0.0, "fusion_lat": 0.0, "type": "electric_scooter", "name": "6a1e5d3e2a789bf9e3e793d1b23efab5", "is_disabled": 0, "rental_uris": {"ios": "https://dc.lft.to/lastmile_qr_scan", "android": "https://dc.lft.to/lastmile_qr_scan"}, "is_reserved": 0}, {"lon": -77.0465885, "bike_id": "ad3e47f215e73450fc3090431a8d5998", "lat": 38.905508166666664, "fusion_lon": 0.0, "fusion_lat": 0.0, "type": "electric_scooter", "name": "ad3e47f215e73450fc3090431a8d5998", "is_disabled": 0, "rental_uris": {"ios": "https://dc.lft.to/lastmile_qr_scan", "android": "https://dc.lft.to/lastmile_qr_scan"}, "is_reserved": 0}, {"lon": -77.05160166666667, "bike_id": "abd1d0fe79fd1333209c90b63e0dc2a6", "lat": 39.04302466666667, "fusion_lon": 0.0, "fusion_lat": 0.0, "type": "electric_bike", "name": "abd1d0fe79fd1333209c90b63e0dc2a6", "is_disabled": 0, "rental_uris": {"ios": "https://dc.lft.to/lastmile_qr_scan", "android": "https://dc.lft.to/lastmile_qr_scan"}, "is_reserved": 0}, {"lon": -77.03181583333334, "bike_id": "97b0176d04803c684296e431949ea8d7", "lat": 38.93690216666667, "fusion_lon": 0.0, "fusion_lat": 0.0, "type": "electric_scooter", "name": "97b0176d04803c684296e431949ea8d7", "is_disabled": 0, "rental_uris": {"ios": "https://dc.lft.to/lastmile_qr_scan", "android": "https://dc.lft.to/lastmile_qr_scan"}, "is_reserved": 0}, {"lon": -77.01212183333334, "bike_id": "ffe89927170d3a5fb0bd64a5eb237386", "lat": 38.921226833333336, "fusion_lon": 0.0, "fusion_lat": 0.0, "type": "electric_scooter", "name": "ffe89927170d3a5fb0bd64a5eb237386", "is_disabled": 0, "rental_uris": {"ios": "https://dc.lft.to/lastmile_qr_scan", "android": "https://dc.lft.to/lastmile_qr_scan"}, "is_reserved": 0}, {"lon": -77.05696566666667, "bike_id": "0f8740fd98f4e2c16ec98be6ba8e601c", "lat": 38.93713366666667, "fusion_lon": 0.0, "fusion_lat": 0.0, "type": "electric_scooter", "name": "0f8740fd98f4e2c16ec98be6ba8e601c", "is_disabled": 0, "rental_uris": {"ios": "https://dc.lft.to/lastmile_qr_scan", "android": "https://dc.lft.to/lastmile_qr_scan"}, "is_reserved": 0}, {"lon": -77.00627083333333, "bike_id": "8ab86f9bc88531ed9ba17bf990c4d3ba", "lat": 38.91258416666667, "fusion_lon": 0.0, "fusion_lat": 0.0, "type": "electric_scooter", "name": "8ab86f9bc88531ed9ba17bf990c4d3ba", "is_disabled": 0, "rental_uris": {"ios": "https://dc.lft.to/lastmile_qr_scan", "android": "https://dc.lft.to/lastmile_qr_scan"}, "is_reserved": 0}, {"lon": -76.97537733333333, "bike_id": "6b69255040d4f4958f73253dfb9ea8ae", "lat": 38.864222166666664, "fusion_lon": 0.0, "fusion_lat": 0.0, "type": "electric_scooter", "name": "6b69255040d4f4958f73253dfb9ea8ae", "is_disabled": 0, "rental_uris": {"ios": "https://dc.lft.to/lastmile_qr_scan", "android": "https://dc.lft.to/lastmile_qr_scan"}, "is_reserved": 0}, {"lon": -76.93007983333334, "bike_id": "d0b76d16e1e91ab2b6fd3312b150fe9c", "lat": 38.89192766666667, "fusion_lon": 0.0, "fusion_lat": 0.0, "type": "electric_scooter", "name": "d0b76d16e1e91ab2b6fd3312b150fe9c", "is_disabled": 0, "rental_uris": {"ios": "https://dc.lft.to/lastmile_qr_scan", "android": "https://dc.lft.to/lastmile_qr_scan"}, "is_reserved": 0}, {"lon": -76.98937583333333, "bike_id": "490b1e752263e67c9ba91bba7cd1a41e", "lat": 38.90187133333333, "fusion_lon": 0.0, "fusion_lat": 0.0, "type": "electric_scooter", "name": "490b1e752263e67c9ba91bba7cd1a41e", "is_disabled": 0, "rental_uris": {"ios": "https://dc.lft.to/lastmile_qr_scan", "android": "https://dc.lft.to/lastmile_qr_scan"}, "is_reserved": 0}, {"lon": -77.027171, "bike_id": "686b5262b0c1493478f2abcb3e9b5eee", "lat": 38.89782833333334, "fusion_lon": 0.0, "fusion_lat": 0.0, "type": "electric_scooter", "name": "686b5262b0c1493478f2abcb3e9b5eee", "is_disabled": 0, "rental_uris": {"ios": "https://dc.lft.to/lastmile_qr_scan", "android": "https://dc.lft.to/lastmile_qr_scan"}, "is_reserved": 0}, {"lon": -77.021634, "bike_id": "22cf5c56abff44172d25a47fbb28316c", "lat": 38.897382666666665, "fusion_lon": 0.0, "fusion_lat": 0.0, "type": "electric_scooter", "name": "22cf5c56abff44172d25a47fbb28316c", "is_disabled": 0, "rental_uris": {"ios": "https://dc.lft.to/lastmile_qr_scan", "android": "https://dc.lft.to/lastmile_qr_scan"}, "is_reserved": 0}, {"lon": -77.0415645, "bike_id": "3cc7432d0286a4cf833e67fcdf7439d7", "lat": 38.91244783333333, "fusion_lon": 0.0, "fusion_lat": 0.0, "type": "electric_scooter", "name": "3cc7432d0286a4cf833e67fcdf7439d7", "is_disabled": 0, "rental_uris": {"ios": "https://dc.lft.to/lastmile_qr_scan", "android": "https://dc.lft.to/lastmile_qr_scan"}, "is_reserved": 0}, {"lon": -77.05273216666667, "bike_id": "4c2c9f0c9237eb59f6753be3316e54f7", "lat": 38.92561933333333, "fusion_lon": 0.0, "fusion_lat": 0.0, "type": "electric_scooter", "name": "4c2c9f0c9237eb59f6753be3316e54f7", "is_disabled": 0, "rental_uris": {"ios": "https://dc.lft.to/lastmile_qr_scan", "android": "https://dc.lft.to/lastmile_qr_scan"}, "is_reserved": 0}, {"lon": -76.957543, "bike_id": "73c1fbcbe9f4891d576a11dbfe694cf4", "lat": 38.88425216666667, "fusion_lon": 0.0, "fusion_lat": 0.0, "type": "electric_scooter", "name": "73c1fbcbe9f4891d576a11dbfe694cf4", "is_disabled": 0, "rental_uris": {"ios": "https://dc.lft.to/lastmile_qr_scan", "android": "https://dc.lft.to/lastmile_qr_scan"}, "is_reserved": 0}, {"lon": -77.05688, "bike_id": "24ebddaf9fc379d1e19f8a6d704c4066", "lat": 38.905166666666666, "fusion_lon": 0.0, "fusion_lat": 0.0, "type": "electric_bike", "name": "24ebddaf9fc379d1e19f8a6d704c4066", "is_disabled": 0, "rental_uris": {"ios": "https://dc.lft.to/lastmile_qr_scan", "android": "https://dc.lft.to/lastmile_qr_scan"}, "is_reserved": 0}, {"lon": -76.98556333333333, "bike_id": "b8150e598ef752a9e1e3d092da5c9794", "lat": 38.8961775, "fusion_lon": 0.0, "fusion_lat": 0.0, "type": "electric_scooter", "name": "b8150e598ef752a9e1e3d092da5c9794", "is_disabled": 0, "rental_uris": {"ios": "https://dc.lft.to/lastmile_qr_scan", "android": "https://dc.lft.to/lastmile_qr_scan"}, "is_reserved": 0}, {"lon": -77.05023783333333, "bike_id": "49d74f86b732019170f4773d55bc2f5e", "lat": 38.90155716666666, "fusion_lon": 0.0, "fusion_lat": 0.0, "type": "electric_scooter", "name": "49d74f86b732019170f4773d55bc2f5e", "is_disabled": 0, "rental_uris": {"ios": "https://dc.lft.to/lastmile_qr_scan", "android": "https://dc.lft.to/lastmile_qr_scan"}, "is_reserved": 0}, {"lon": -77.01973366666667, "bike_id": "b6ce8f9dd8288ab0112f186389300163", "lat": 38.9358295, "fusion_lon": 0.0, "fusion_lat": 0.0, "type": "electric_scooter", "name": "b6ce8f9dd8288ab0112f186389300163", "is_disabled": 0, "rental_uris": {"ios": "https://dc.lft.to/lastmile_qr_scan", "android": "https://dc.lft.to/lastmile_qr_scan"}, "is_reserved": 0}, {"lon": -77.02579033333333, "bike_id": "fc818999b9ab1402de57f3f99154a1b9", "lat": 38.8873365, "fusion_lon": 0.0, "fusion_lat": 0.0, "type": "electric_scooter", "name": "fc818999b9ab1402de57f3f99154a1b9", "is_disabled": 0, "rental_uris": {"ios": "https://dc.lft.to/lastmile_qr_scan", "android": "https://dc.lft.to/lastmile_qr_scan"}, "is_reserved": 0}, {"lon": -77.03043483333333, "bike_id": "360bbee25166c67105599c541c8dc624", "lat": 38.878411666666665, "fusion_lon": 0.0, "fusion_lat": 0.0, "type": "electric_scooter", "name": "360bbee25166c67105599c541c8dc624", "is_disabled": 0, "rental_uris": {"ios": "https://dc.lft.to/lastmile_qr_scan", "android": "https://dc.lft.to/lastmile_qr_scan"}, "is_reserved": 0}, {"lon": -77.02444083333333, "bike_id": "fc8ceebe9fecf930a3fef0910fb579eb", "lat": 38.936996, "fusion_lon": 0.0, "fusion_lat": 0.0, "type": "electric_scooter", "name": "fc8ceebe9fecf930a3fef0910fb579eb", "is_disabled": 0, "rental_uris": {"ios": "https://dc.lft.to/lastmile_qr_scan", "android": "https://dc.lft.to/lastmile_qr_scan"}, "is_reserved": 0}, {"lon": -77.03863816666667, "bike_id": "05fcfbfbf318fd041e49d308a2906054", "lat": 38.91257483333333, "fusion_lon": 0.0, "fusion_lat": 0.0, "type": "electric_scooter", "name": "05fcfbfbf318fd041e49d308a2906054", "is_disabled": 0, "rental_uris": {"ios": "https://dc.lft.to/lastmile_qr_scan", "android": "https://dc.lft.to/lastmile_qr_scan"}, "is_reserved": 0}, {"lon": -76.937373, "bike_id": "1ec9e59e1550c0b3aa0666d7acf25f90", "lat": 38.89012366666667, "fusion_lon": 0.0, "fusion_lat": 0.0, "type": "electric_scooter", "name": "1ec9e59e1550c0b3aa0666d7acf25f90", "is_disabled": 0, "rental_uris": {"ios": "https://dc.lft.to/lastmile_qr_scan", "android": "https://dc.lft.to/lastmile_qr_scan"}, "is_reserved": 0}, {"lon": -77.0344275, "bike_id": "cb34be0ed23a81dc5e38ef9afa1a8001", "lat": 38.909800833333335, "fusion_lon": 0.0, "fusion_lat": 0.0, "type": "electric_scooter", "name": "cb34be0ed23a81dc5e38ef9afa1a8001", "is_disabled": 0, "rental_uris": {"ios": "https://dc.lft.to/lastmile_qr_scan", "android": "https://dc.lft.to/lastmile_qr_scan"}, "is_reserved": 0}, {"lon": -76.9900405, "bike_id": "479688fa8e7f440ae4f599fbcef30c7e", "lat": 38.8650505, "fusion_lon": 0.0, "fusion_lat": 0.0, "type": "electric_scooter", "name": "479688fa8e7f440ae4f599fbcef30c7e", "is_disabled": 0, "rental_uris": {"ios": "https://dc.lft.to/lastmile_qr_scan", "android": "https://dc.lft.to/lastmile_qr_scan"}, "is_reserved": 0}, {"lon": -77.0270695, "bike_id": "06854ea257fd72a73e38185ad98dce00", "lat": 38.8972725, "fusion_lon": 0.0, "fusion_lat": 0.0, "type": "electric_scooter", "name": "06854ea257fd72a73e38185ad98dce00", "is_disabled": 0, "rental_uris": {"ios": "https://dc.lft.to/lastmile_qr_scan", "android": "https://dc.lft.to/lastmile_qr_scan"}, "is_reserved": 0}, {"lon": -77.03863733333333, "bike_id": "974d1f64d601e02cba439812038046de", "lat": 38.9096635, "fusion_lon": 0.0, "fusion_lat": 0.0, "type": "electric_scooter", "name": "974d1f64d601e02cba439812038046de", "is_disabled": 0, "rental_uris": {"ios": "https://dc.lft.to/lastmile_qr_scan", "android": "https://dc.lft.to/lastmile_qr_scan"}, "is_reserved": 0}, {"lon": -76.97842416666667, "bike_id": "94b086f4137bcb718673504ddc6f77c3", "lat": 38.86567433333333, "fusion_lon": 0.0, "fusion_lat": 0.0, "type": "electric_scooter", "name": "94b086f4137bcb718673504ddc6f77c3", "is_disabled": 0, "rental_uris": {"ios": "https://dc.lft.to/lastmile_qr_scan", "android": "https://dc.lft.to/lastmile_qr_scan"}, "is_reserved": 0}, {"lon": -77.03807716666667, "bike_id": "61a9aa0c66897f11892b2ea08608d941", "lat": 38.931142666666666, "fusion_lon": 0.0, "fusion_lat": 0.0, "type": "electric_scooter", "name": "61a9aa0c66897f11892b2ea08608d941", "is_disabled": 0, "rental_uris": {"ios": "https://dc.lft.to/lastmile_qr_scan", "android": "https://dc.lft.to/lastmile_qr_scan"}, "is_reserved": 0}, {"lon": -77.0359605, "bike_id": "5bc1d660fa760b75531dd1fa8850a975", "lat": 38.917725, "fusion_lon": 0.0, "fusion_lat": 0.0, "type": "electric_scooter", "name": "5bc1d660fa760b75531dd1fa8850a975", "is_disabled": 0, "rental_uris": {"ios": "https://dc.lft.to/lastmile_qr_scan", "android": "https://dc.lft.to/lastmile_qr_scan"}, "is_reserved": 0}, {"lon": -77.02382733333333, "bike_id": "1d944c1a8b3e2cfc80fa970e10cd5aac", "lat": 38.907299, "fusion_lon": 0.0, "fusion_lat": 0.0, "type": "electric_scooter", "name": "1d944c1a8b3e2cfc80fa970e10cd5aac", "is_disabled": 0, "rental_uris": {"ios": "https://dc.lft.to/lastmile_qr_scan", "android": "https://dc.lft.to/lastmile_qr_scan"}, "is_reserved": 0}, {"lon": -77.03214833333334, "bike_id": "09f25acad3526ff8ab64b179aa6d5b92", "lat": 38.914879166666665, "fusion_lon": 0.0, "fusion_lat": 0.0, "type": "electric_scooter", "name": "09f25acad3526ff8ab64b179aa6d5b92", "is_disabled": 0, "rental_uris": {"ios": "https://dc.lft.to/lastmile_qr_scan", "android": "https://dc.lft.to/lastmile_qr_scan"}, "is_reserved": 0}, {"lon": -76.9489375, "bike_id": "f969e0fa2f8574209c952d417648f41a", "lat": 38.89531183333333, "fusion_lon": 0.0, "fusion_lat": 0.0, "type": "electric_scooter", "name": "f969e0fa2f8574209c952d417648f41a", "is_disabled": 0, "rental_uris": {"ios": "https://dc.lft.to/lastmile_qr_scan", "android": "https://dc.lft.to/lastmile_qr_scan"}, "is_reserved": 0}, {"lon": -77.03889266666667, "bike_id": "82eb7aad781dbb9d225499a80a3cbb5a", "lat": 38.923367, "fusion_lon": 0.0, "fusion_lat": 0.0, "type": "electric_scooter", "name": "82eb7aad781dbb9d225499a80a3cbb5a", "is_disabled": 0, "rental_uris": {"ios": "https://dc.lft.to/lastmile_qr_scan", "android": "https://dc.lft.to/lastmile_qr_scan"}, "is_reserved": 0}, {"lon": -77.03193716666667, "bike_id": "a86c4c7945e7425026aaadf0268ed201", "lat": 38.905146, "fusion_lon": 0.0, "fusion_lat": 0.0, "type": "electric_scooter", "name": "a86c4c7945e7425026aaadf0268ed201", "is_disabled": 0, "rental_uris": {"ios": "https://dc.lft.to/lastmile_qr_scan", "android": "https://dc.lft.to/lastmile_qr_scan"}, "is_reserved": 0}, {"lon": -77.02476016666667, "bike_id": "3bceebd1a49bb9498d7ff955ea39dd9b", "lat": 38.92587866666667, "fusion_lon": 0.0, "fusion_lat": 0.0, "type": "electric_scooter", "name": "3bceebd1a49bb9498d7ff955ea39dd9b", "is_disabled": 0, "rental_uris": {"ios": "https://dc.lft.to/lastmile_qr_scan", "android": "https://dc.lft.to/lastmile_qr_scan"}, "is_reserved": 0}, {"lon": -77.03953916666667, "bike_id": "a50fb8946cde009b167aec8e9fa8baea", "lat": 38.91560883333333, "fusion_lon": 0.0, "fusion_lat": 0.0, "type": "electric_scooter", "name": "a50fb8946cde009b167aec8e9fa8baea", "is_disabled": 0, "rental_uris": {"ios": "https://dc.lft.to/lastmile_qr_scan", "android": "https://dc.lft.to/lastmile_qr_scan"}, "is_reserved": 0}, {"lon": -77.02979583333334, "bike_id": "3dbf27c100682daa9ffe7bb971980373", "lat": 38.93931766666667, "fusion_lon": 0.0, "fusion_lat": 0.0, "type": "electric_scooter", "name": "3dbf27c100682daa9ffe7bb971980373", "is_disabled": 0, "rental_uris": {"ios": "https://dc.lft.to/lastmile_qr_scan", "android": "https://dc.lft.to/lastmile_qr_scan"}, "is_reserved": 0}, {"lon": -76.94156333333333, "bike_id": "d5de5ea89ee0ba208855ecd324af1f46", "lat": 38.90826916666666, "fusion_lon": 0.0, "fusion_lat": 0.0, "type": "electric_bike", "name": "d5de5ea89ee0ba208855ecd324af1f46", "is_disabled": 0, "rental_uris": {"ios": "https://dc.lft.to/lastmile_qr_scan", "android": "https://dc.lft.to/lastmile_qr_scan"}, "is_reserved": 0}, {"lon": -77.06415433333333, "bike_id": "2684896222c2f0f29d691ac63530cb0d", "lat": 38.993309333333336, "fusion_lon": 0.0, "fusion_lat": 0.0, "type": "electric_scooter", "name": "2684896222c2f0f29d691ac63530cb0d", "is_disabled": 0, "rental_uris": {"ios": "https://dc.lft.to/lastmile_qr_scan", "android": "https://dc.lft.to/lastmile_qr_scan"}, "is_reserved": 0}, {"lon": -76.98736016666666, "bike_id": "e0bdf14cd7676ede89cd2dfb92cf5f20", "lat": 38.86579966666667, "fusion_lon": 0.0, "fusion_lat": 0.0, "type": "electric_bike", "name": "e0bdf14cd7676ede89cd2dfb92cf5f20", "is_disabled": 0, "rental_uris": {"ios": "https://dc.lft.to/lastmile_qr_scan", "android": "https://dc.lft.to/lastmile_qr_scan"}, "is_reserved": 0}, {"lon": -77.05546716666667, "bike_id": "12a45735e21e2420f6c79d6217a4fa02", "lat": 38.9300585, "fusion_lon": 0.0, "fusion_lat": 0.0, "type": "electric_scooter", "name": "12a45735e21e2420f6c79d6217a4fa02", "is_disabled": 0, "rental_uris": {"ios": "https://dc.lft.to/lastmile_qr_scan", "android": "https://dc.lft.to/lastmile_qr_scan"}, "is_reserved": 0}, {"lon": -77.02104, "bike_id": "fa63d364fa969dd803d6249186a4eed8", "lat": 38.905555666666665, "fusion_lon": 0.0, "fusion_lat": 0.0, "type": "electric_scooter", "name": "fa63d364fa969dd803d6249186a4eed8", "is_disabled": 0, "rental_uris": {"ios": "https://dc.lft.to/lastmile_qr_scan", "android": "https://dc.lft.to/lastmile_qr_scan"}, "is_reserved": 0}, {"lon": -77.03666633333333, "bike_id": "280d040cae7f14e93074cbe6241f5415", "lat": 38.939271, "fusion_lon": 0.0, "fusion_lat": 0.0, "type": "electric_scooter", "name": "280d040cae7f14e93074cbe6241f5415", "is_disabled": 0, "rental_uris": {"ios": "https://dc.lft.to/lastmile_qr_scan", "android": "https://dc.lft.to/lastmile_qr_scan"}, "is_reserved": 0}, {"lon": -77.036306, "bike_id": "0608d23695de5ef62731e1ef2ed85872", "lat": 38.94494016666667, "fusion_lon": 0.0, "fusion_lat": 0.0, "type": "electric_scooter", "name": "0608d23695de5ef62731e1ef2ed85872", "is_disabled": 0, "rental_uris": {"ios": "https://dc.lft.to/lastmile_qr_scan", "android": "https://dc.lft.to/lastmile_qr_scan"}, "is_reserved": 0}, {"lon": -77.03512766666667, "bike_id": "edc6ae0671d40654139c2878d2beb209", "lat": 38.92719816666666, "fusion_lon": 0.0, "fusion_lat": 0.0, "type": "electric_scooter", "name": "edc6ae0671d40654139c2878d2beb209", "is_disabled": 0, "rental_uris": {"ios": "https://dc.lft.to/lastmile_qr_scan", "android": "https://dc.lft.to/lastmile_qr_scan"}, "is_reserved": 0}, {"lon": -77.02318266666667, "bike_id": "48a7633a8d30c2fc4db9e4cd84697c2a", "lat": 38.9240905, "fusion_lon": 0.0, "fusion_lat": 0.0, "type": "electric_scooter", "name": "48a7633a8d30c2fc4db9e4cd84697c2a", "is_disabled": 0, "rental_uris": {"ios": "https://dc.lft.to/lastmile_qr_scan", "android": "https://dc.lft.to/lastmile_qr_scan"}, "is_reserved": 0}, {"lon": -76.96524883333333, "bike_id": "274bf5d704e328ecc4329a0805467887", "lat": 38.87626366666667, "fusion_lon": 0.0, "fusion_lat": 0.0, "type": "electric_scooter", "name": "274bf5d704e328ecc4329a0805467887", "is_disabled": 0, "rental_uris": {"ios": "https://dc.lft.to/lastmile_qr_scan", "android": "https://dc.lft.to/lastmile_qr_scan"}, "is_reserved": 0}, {"lon": -77.02974666666667, "bike_id": "4ad9bd0bbe29ee5d210a7f8f319c2bd0", "lat": 38.91663033333333, "fusion_lon": 0.0, "fusion_lat": 0.0, "type": "electric_scooter", "name": "4ad9bd0bbe29ee5d210a7f8f319c2bd0", "is_disabled": 0, "rental_uris": {"ios": "https://dc.lft.to/lastmile_qr_scan", "android": "https://dc.lft.to/lastmile_qr_scan"}, "is_reserved": 0}, {"lon": -77.0700645, "bike_id": "dbcc31c5fe389e207dacb8e94892e55a", "lat": 38.95852566666667, "fusion_lon": 0.0, "fusion_lat": 0.0, "type": "electric_scooter", "name": "dbcc31c5fe389e207dacb8e94892e55a", "is_disabled": 0, "rental_uris": {"ios": "https://dc.lft.to/lastmile_qr_scan", "android": "https://dc.lft.to/lastmile_qr_scan"}, "is_reserved": 0}, {"lon": -77.04479416666666, "bike_id": "60e26fffa5610a57914c1e7b97c1c5af", "lat": 38.91703533333333, "fusion_lon": 0.0, "fusion_lat": 0.0, "type": "electric_bike", "name": "60e26fffa5610a57914c1e7b97c1c5af", "is_disabled": 0, "rental_uris": {"ios": "https://dc.lft.to/lastmile_qr_scan", "android": "https://dc.lft.to/lastmile_qr_scan"}, "is_reserved": 0}, {"lon": -77.039286, "bike_id": "4ebb56559db6c32e31e029998a6ab047", "lat": 38.900777, "fusion_lon": 0.0, "fusion_lat": 0.0, "type": "electric_scooter", "name": "4ebb56559db6c32e31e029998a6ab047", "is_disabled": 0, "rental_uris": {"ios": "https://dc.lft.to/lastmile_qr_scan", "android": "https://dc.lft.to/lastmile_qr_scan"}, "is_reserved": 0}, {"lon": -77.013067, "bike_id": "49a648e802353876cbf29c99136fb5c8", "lat": 38.9431945, "fusion_lon": 0.0, "fusion_lat": 0.0, "type": "electric_scooter", "name": "49a648e802353876cbf29c99136fb5c8", "is_disabled": 0, "rental_uris": {"ios": "https://dc.lft.to/lastmile_qr_scan", "android": "https://dc.lft.to/lastmile_qr_scan"}, "is_reserved": 0}, {"lon": -77.04418216666667, "bike_id": "e88c9f7bc5a1888049ab7b8e926ca6f0", "lat": 38.91008083333333, "fusion_lon": 0.0, "fusion_lat": 0.0, "type": "electric_scooter", "name": "e88c9f7bc5a1888049ab7b8e926ca6f0", "is_disabled": 0, "rental_uris": {"ios": "https://dc.lft.to/lastmile_qr_scan", "android": "https://dc.lft.to/lastmile_qr_scan"}, "is_reserved": 0}, {"lon": -76.993794, "bike_id": "b313d0727cfe8bfb00725e1d4fed3997", "lat": 38.97187433333333, "fusion_lon": 0.0, "fusion_lat": 0.0, "type": "electric_bike", "name": "b313d0727cfe8bfb00725e1d4fed3997", "is_disabled": 0, "rental_uris": {"ios": "https://dc.lft.to/lastmile_qr_scan", "android": "https://dc.lft.to/lastmile_qr_scan"}, "is_reserved": 0}, {"lon": -77.0057755, "bike_id": "0f937edfdcfdb3f5478ff0376b97f586", "lat": 38.83589216666667, "fusion_lon": 0.0, "fusion_lat": 0.0, "type": "electric_scooter", "name": "0f937edfdcfdb3f5478ff0376b97f586", "is_disabled": 0, "rental_uris": {"ios": "https://dc.lft.to/lastmile_qr_scan", "android": "https://dc.lft.to/lastmile_qr_scan"}, "is_reserved": 0}, {"lon": -77.02671733333334, "bike_id": "1d0dea6a7f90d12c0b482413d82d5842", "lat": 38.88118166666667, "fusion_lon": 0.0, "fusion_lat": 0.0, "type": "electric_bike", "name": "1d0dea6a7f90d12c0b482413d82d5842", "is_disabled": 0, "rental_uris": {"ios": "https://dc.lft.to/lastmile_qr_scan", "android": "https://dc.lft.to/lastmile_qr_scan"}, "is_reserved": 0}, {"lon": -77.02941816666667, "bike_id": "7bca2cd44caab1ef23948e95f6127c89", "lat": 38.8964895, "fusion_lon": 0.0, "fusion_lat": 0.0, "type": "electric_scooter", "name": "7bca2cd44caab1ef23948e95f6127c89", "is_disabled": 0, "rental_uris": {"ios": "https://dc.lft.to/lastmile_qr_scan", "android": "https://dc.lft.to/lastmile_qr_scan"}, "is_reserved": 0}, {"lon": -77.03435933333333, "bike_id": "0ae5ce58eb3ae189215e091938acd609", "lat": 38.91797483333333, "fusion_lon": 0.0, "fusion_lat": 0.0, "type": "electric_scooter", "name": "0ae5ce58eb3ae189215e091938acd609", "is_disabled": 0, "rental_uris": {"ios": "https://dc.lft.to/lastmile_qr_scan", "android": "https://dc.lft.to/lastmile_qr_scan"}, "is_reserved": 0}, {"lon": -77.0321205, "bike_id": "2ac4235584f807a0fdfdb0b2be544888", "lat": 38.91922916666667, "fusion_lon": 0.0, "fusion_lat": 0.0, "type": "electric_scooter", "name": "2ac4235584f807a0fdfdb0b2be544888", "is_disabled": 0, "rental_uris": {"ios": "https://dc.lft.to/lastmile_qr_scan", "android": "https://dc.lft.to/lastmile_qr_scan"}, "is_reserved": 0}, {"lon": -77.04873466666666, "bike_id": "2c73a6731875f6e1675b57176adc1559", "lat": 38.89230233333333, "fusion_lon": 0.0, "fusion_lat": 0.0, "type": "electric_scooter", "name": "2c73a6731875f6e1675b57176adc1559", "is_disabled": 0, "rental_uris": {"ios": "https://dc.lft.to/lastmile_qr_scan", "android": "https://dc.lft.to/lastmile_qr_scan"}, "is_reserved": 0}, {"lon": -76.9875335, "bike_id": "abdbd1b7f74b1458a0f7c415d742c60a", "lat": 38.90027083333333, "fusion_lon": 0.0, "fusion_lat": 0.0, "type": "electric_scooter", "name": "abdbd1b7f74b1458a0f7c415d742c60a", "is_disabled": 0, "rental_uris": {"ios": "https://dc.lft.to/lastmile_qr_scan", "android": "https://dc.lft.to/lastmile_qr_scan"}, "is_reserved": 0}, {"lon": -77.00368966666667, "bike_id": "a9619df04d11af736189716b79b2c9d6", "lat": 38.89725833333333, "fusion_lon": 0.0, "fusion_lat": 0.0, "type": "electric_scooter", "name": "a9619df04d11af736189716b79b2c9d6", "is_disabled": 0, "rental_uris": {"ios": "https://dc.lft.to/lastmile_qr_scan", "android": "https://dc.lft.to/lastmile_qr_scan"}, "is_reserved": 0}, {"lon": -76.99486916666666, "bike_id": "341ee9e491885c6126288a5a70a40627", "lat": 38.877692333333336, "fusion_lon": 0.0, "fusion_lat": 0.0, "type": "electric_scooter", "name": "341ee9e491885c6126288a5a70a40627", "is_disabled": 0, "rental_uris": {"ios": "https://dc.lft.to/lastmile_qr_scan", "android": "https://dc.lft.to/lastmile_qr_scan"}, "is_reserved": 0}, {"lon": -77.08004733333334, "bike_id": "70cba22f3eec080c1bddeb0afba336aa", "lat": 38.964839166666664, "fusion_lon": 0.0, "fusion_lat": 0.0, "type": "electric_scooter", "name": "70cba22f3eec080c1bddeb0afba336aa", "is_disabled": 0, "rental_uris": {"ios": "https://dc.lft.to/lastmile_qr_scan", "android": "https://dc.lft.to/lastmile_qr_scan"}, "is_reserved": 0}, {"lon": -77.07750516666667, "bike_id": "9cef61eed1f442bd10ea3e3a7e2cdb62", "lat": 38.84188666666667, "fusion_lon": 0.0, "fusion_lat": 0.0, "type": "electric_bike", "name": "9cef61eed1f442bd10ea3e3a7e2cdb62", "is_disabled": 0, "rental_uris": {"ios": "https://dc.lft.to/lastmile_qr_scan", "android": "https://dc.lft.to/lastmile_qr_scan"}, "is_reserved": 0}, {"lon": -77.03638966666666, "bike_id": "608550212122c66ee971198b838e16ed", "lat": 38.927434, "fusion_lon": 0.0, "fusion_lat": 0.0, "type": "electric_scooter", "name": "608550212122c66ee971198b838e16ed", "is_disabled": 0, "rental_uris": {"ios": "https://dc.lft.to/lastmile_qr_scan", "android": "https://dc.lft.to/lastmile_qr_scan"}, "is_reserved": 0}, {"lon": -77.02071316666667, "bike_id": "1fc8e9a6d63899124a9c5f00c4fac59e", "lat": 38.89996166666667, "fusion_lon": 0.0, "fusion_lat": 0.0, "type": "electric_scooter", "name": "1fc8e9a6d63899124a9c5f00c4fac59e", "is_disabled": 0, "rental_uris": {"ios": "https://dc.lft.to/lastmile_qr_scan", "android": "https://dc.lft.to/lastmile_qr_scan"}, "is_reserved": 0}, {"lon": -76.98041516666666, "bike_id": "e42396492e552b4a3e0fc2482c78962e", "lat": 38.88965966666667, "fusion_lon": 0.0, "fusion_lat": 0.0, "type": "electric_scooter", "name": "e42396492e552b4a3e0fc2482c78962e", "is_disabled": 0, "rental_uris": {"ios": "https://dc.lft.to/lastmile_qr_scan", "android": "https://dc.lft.to/lastmile_qr_scan"}, "is_reserved": 0}, {"lon": -77.03440733333333, "bike_id": "80d7f39e6aa74efcc6214ac1bfe749e9", "lat": 38.910099, "fusion_lon": 0.0, "fusion_lat": 0.0, "type": "electric_scooter", "name": "80d7f39e6aa74efcc6214ac1bfe749e9", "is_disabled": 0, "rental_uris": {"ios": "https://dc.lft.to/lastmile_qr_scan", "android": "https://dc.lft.to/lastmile_qr_scan"}, "is_reserved": 0}, {"lon": -77.02577716666667, "bike_id": "1c9da15667c0f06fdf956adf8e8f1d52", "lat": 38.91413, "fusion_lon": 0.0, "fusion_lat": 0.0, "type": "electric_scooter", "name": "1c9da15667c0f06fdf956adf8e8f1d52", "is_disabled": 0, "rental_uris": {"ios": "https://dc.lft.to/lastmile_qr_scan", "android": "https://dc.lft.to/lastmile_qr_scan"}, "is_reserved": 0}, {"lon": -76.98339633333333, "bike_id": "8eff23d4415afe474ea60c5cdb7f8ad8", "lat": 38.866399, "fusion_lon": 0.0, "fusion_lat": 0.0, "type": "electric_scooter", "name": "8eff23d4415afe474ea60c5cdb7f8ad8", "is_disabled": 0, "rental_uris": {"ios": "https://dc.lft.to/lastmile_qr_scan", "android": "https://dc.lft.to/lastmile_qr_scan"}, "is_reserved": 0}, {"lon": -76.93188733333334, "bike_id": "6bde0cfddbe3d5158ffd701784f14107", "lat": 38.89876683333333, "fusion_lon": 0.0, "fusion_lat": 0.0, "type": "electric_scooter", "name": "6bde0cfddbe3d5158ffd701784f14107", "is_disabled": 0, "rental_uris": {"ios": "https://dc.lft.to/lastmile_qr_scan", "android": "https://dc.lft.to/lastmile_qr_scan"}, "is_reserved": 0}, {"lon": -77.01001866666667, "bike_id": "a42451d3d3fa76481592004db3a1528c", "lat": 38.9192265, "fusion_lon": 0.0, "fusion_lat": 0.0, "type": "electric_scooter", "name": "a42451d3d3fa76481592004db3a1528c", "is_disabled": 0, "rental_uris": {"ios": "https://dc.lft.to/lastmile_qr_scan", "android": "https://dc.lft.to/lastmile_qr_scan"}, "is_reserved": 0}, {"lon": -77.03169283333334, "bike_id": "cc3f7931f992489aaef2f1c557db822c", "lat": 38.914137833333335, "fusion_lon": 0.0, "fusion_lat": 0.0, "type": "electric_scooter", "name": "cc3f7931f992489aaef2f1c557db822c", "is_disabled": 0, "rental_uris": {"ios": "https://dc.lft.to/lastmile_qr_scan", "android": "https://dc.lft.to/lastmile_qr_scan"}, "is_reserved": 0}, {"lon": -77.02503866666666, "bike_id": "a5cf959be63b0411897e7cb400b05d5c", "lat": 38.930938166666664, "fusion_lon": 0.0, "fusion_lat": 0.0, "type": "electric_scooter", "name": "a5cf959be63b0411897e7cb400b05d5c", "is_disabled": 0, "rental_uris": {"ios": "https://dc.lft.to/lastmile_qr_scan", "android": "https://dc.lft.to/lastmile_qr_scan"}, "is_reserved": 0}, {"lon": -77.02946716666666, "bike_id": "52d29249f99e492365db2479d9ebb18c", "lat": 38.9237255, "fusion_lon": 0.0, "fusion_lat": 0.0, "type": "electric_scooter", "name": "52d29249f99e492365db2479d9ebb18c", "is_disabled": 0, "rental_uris": {"ios": "https://dc.lft.to/lastmile_qr_scan", "android": "https://dc.lft.to/lastmile_qr_scan"}, "is_reserved": 0}, {"lon": -77.047971, "bike_id": "c65f974d9ac03f4296e78c52b76e91b7", "lat": 38.90973833333334, "fusion_lon": 0.0, "fusion_lat": 0.0, "type": "electric_scooter", "name": "c65f974d9ac03f4296e78c52b76e91b7", "is_disabled": 0, "rental_uris": {"ios": "https://dc.lft.to/lastmile_qr_scan", "android": "https://dc.lft.to/lastmile_qr_scan"}, "is_reserved": 0}, {"lon": -76.9463615, "bike_id": "af9b3e56f53f346c276f373251a377d1", "lat": 38.898312833333335, "fusion_lon": 0.0, "fusion_lat": 0.0, "type": "electric_scooter", "name": "af9b3e56f53f346c276f373251a377d1", "is_disabled": 0, "rental_uris": {"ios": "https://dc.lft.to/lastmile_qr_scan", "android": "https://dc.lft.to/lastmile_qr_scan"}, "is_reserved": 0}, {"lon": -76.93361883333333, "bike_id": "e34dac22c6a744427d49990e9aba6a7c", "lat": 38.887960166666666, "fusion_lon": 0.0, "fusion_lat": 0.0, "type": "electric_scooter", "name": "e34dac22c6a744427d49990e9aba6a7c", "is_disabled": 0, "rental_uris": {"ios": "https://dc.lft.to/lastmile_qr_scan", "android": "https://dc.lft.to/lastmile_qr_scan"}, "is_reserved": 0}, {"lon": -77.0222155, "bike_id": "4ec672f2d76cd2843a86b119a3904fc3", "lat": 38.8921935, "fusion_lon": 0.0, "fusion_lat": 0.0, "type": "electric_scooter", "name": "4ec672f2d76cd2843a86b119a3904fc3", "is_disabled": 0, "rental_uris": {"ios": "https://dc.lft.to/lastmile_qr_scan", "android": "https://dc.lft.to/lastmile_qr_scan"}, "is_reserved": 0}, {"lon": -77.0425975, "bike_id": "5276a44d2f42d963c605e819f8d37f5f", "lat": 38.9074285, "fusion_lon": 0.0, "fusion_lat": 0.0, "type": "electric_scooter", "name": "5276a44d2f42d963c605e819f8d37f5f", "is_disabled": 0, "rental_uris": {"ios": "https://dc.lft.to/lastmile_qr_scan", "android": "https://dc.lft.to/lastmile_qr_scan"}, "is_reserved": 0}, {"lon": -76.94637083333333, "bike_id": "04d3feeeb305e534bb6486c7ddb534c6", "lat": 38.898336666666665, "fusion_lon": 0.0, "fusion_lat": 0.0, "type": "electric_scooter", "name": "04d3feeeb305e534bb6486c7ddb534c6", "is_disabled": 0, "rental_uris": {"ios": "https://dc.lft.to/lastmile_qr_scan", "android": "https://dc.lft.to/lastmile_qr_scan"}, "is_reserved": 0}, {"lon": -76.97551483333334, "bike_id": "6e8d41a03b88be2a8f5e2114dd5faa1f", "lat": 38.9032155, "fusion_lon": 0.0, "fusion_lat": 0.0, "type": "electric_scooter", "name": "6e8d41a03b88be2a8f5e2114dd5faa1f", "is_disabled": 0, "rental_uris": {"ios": "https://dc.lft.to/lastmile_qr_scan", "android": "https://dc.lft.to/lastmile_qr_scan"}, "is_reserved": 0}, {"lon": -77.063439, "bike_id": "7fd659f798fe73f217eba40dcb27cffd", "lat": 38.9068145, "fusion_lon": 0.0, "fusion_lat": 0.0, "type": "electric_scooter", "name": "7fd659f798fe73f217eba40dcb27cffd", "is_disabled": 0, "rental_uris": {"ios": "https://dc.lft.to/lastmile_qr_scan", "android": "https://dc.lft.to/lastmile_qr_scan"}, "is_reserved": 0}, {"lon": -77.03370083333333, "bike_id": "a68f36b8225478dea9ea9b67a6e879e3", "lat": 38.90983, "fusion_lon": 0.0, "fusion_lat": 0.0, "type": "electric_scooter", "name": "a68f36b8225478dea9ea9b67a6e879e3", "is_disabled": 0, "rental_uris": {"ios": "https://dc.lft.to/lastmile_qr_scan", "android": "https://dc.lft.to/lastmile_qr_scan"}, "is_reserved": 0}, {"lon": -77.055347, "bike_id": "b641ab9c0907b0b0dcc9c7c46fdddb4b", "lat": 38.9342815, "fusion_lon": 0.0, "fusion_lat": 0.0, "type": "electric_scooter", "name": "b641ab9c0907b0b0dcc9c7c46fdddb4b", "is_disabled": 0, "rental_uris": {"ios": "https://dc.lft.to/lastmile_qr_scan", "android": "https://dc.lft.to/lastmile_qr_scan"}, "is_reserved": 0}, {"lon": -77.0089075, "bike_id": "a914e05c86c9a382bae7eb8b126b088f", "lat": 38.8976705, "fusion_lon": 0.0, "fusion_lat": 0.0, "type": "electric_scooter", "name": "a914e05c86c9a382bae7eb8b126b088f", "is_disabled": 0, "rental_uris": {"ios": "https://dc.lft.to/lastmile_qr_scan", "android": "https://dc.lft.to/lastmile_qr_scan"}, "is_reserved": 0}, {"lon": -76.97389233333334, "bike_id": "2192f870c0044af93a4d572508e7356e", "lat": 38.905573833333335, "fusion_lon": 0.0, "fusion_lat": 0.0, "type": "electric_scooter", "name": "2192f870c0044af93a4d572508e7356e", "is_disabled": 0, "rental_uris": {"ios": "https://dc.lft.to/lastmile_qr_scan", "android": "https://dc.lft.to/lastmile_qr_scan"}, "is_reserved": 0}, {"lon": -77.02580716666667, "bike_id": "f586ac66378d40d07a190e5ec3045681", "lat": 38.88378616666667, "fusion_lon": 0.0, "fusion_lat": 0.0, "type": "electric_scooter", "name": "f586ac66378d40d07a190e5ec3045681", "is_disabled": 0, "rental_uris": {"ios": "https://dc.lft.to/lastmile_qr_scan", "android": "https://dc.lft.to/lastmile_qr_scan"}, "is_reserved": 0}, {"lon": -77.08457333333334, "bike_id": "0f643d573a880244b196d7c6d212ccc3", "lat": 38.84819783333333, "fusion_lon": 0.0, "fusion_lat": 0.0, "type": "electric_bike", "name": "0f643d573a880244b196d7c6d212ccc3", "is_disabled": 0, "rental_uris": {"ios": "https://dc.lft.to/lastmile_qr_scan", "android": "https://dc.lft.to/lastmile_qr_scan"}, "is_reserved": 0}, {"lon": -77.02684333333333, "bike_id": "356c43ffd35a818f8c35ed1c195e4f3a", "lat": 38.89695566666666, "fusion_lon": 0.0, "fusion_lat": 0.0, "type": "electric_scooter", "name": "356c43ffd35a818f8c35ed1c195e4f3a", "is_disabled": 0, "rental_uris": {"ios": "https://dc.lft.to/lastmile_qr_scan", "android": "https://dc.lft.to/lastmile_qr_scan"}, "is_reserved": 0}, {"lon": -77.03425166666666, "bike_id": "9aebd68f8880069b216e462614b54629", "lat": 38.922424, "fusion_lon": 0.0, "fusion_lat": 0.0, "type": "electric_scooter", "name": "9aebd68f8880069b216e462614b54629", "is_disabled": 0, "rental_uris": {"ios": "https://dc.lft.to/lastmile_qr_scan", "android": "https://dc.lft.to/lastmile_qr_scan"}, "is_reserved": 0}, {"lon": -77.03258833333334, "bike_id": "35eab2e41124d36946a5b8cbf0505aa1", "lat": 38.93401766666667, "fusion_lon": 0.0, "fusion_lat": 0.0, "type": "electric_scooter", "name": "35eab2e41124d36946a5b8cbf0505aa1", "is_disabled": 0, "rental_uris": {"ios": "https://dc.lft.to/lastmile_qr_scan", "android": "https://dc.lft.to/lastmile_qr_scan"}, "is_reserved": 0}, {"lon": -77.03905466666667, "bike_id": "c6de0e168b14aaf06f7a451bc129da97", "lat": 38.9236405, "fusion_lon": 0.0, "fusion_lat": 0.0, "type": "electric_scooter", "name": "c6de0e168b14aaf06f7a451bc129da97", "is_disabled": 0, "rental_uris": {"ios": "https://dc.lft.to/lastmile_qr_scan", "android": "https://dc.lft.to/lastmile_qr_scan"}, "is_reserved": 0}, {"lon": -77.03500683333333, "bike_id": "1f18623a7cbd224b6b8b9040304b47b0", "lat": 38.937504, "fusion_lon": 0.0, "fusion_lat": 0.0, "type": "electric_scooter", "name": "1f18623a7cbd224b6b8b9040304b47b0", "is_disabled": 0, "rental_uris": {"ios": "https://dc.lft.to/lastmile_qr_scan", "android": "https://dc.lft.to/lastmile_qr_scan"}, "is_reserved": 0}, {"lon": -77.0296415, "bike_id": "054ad86e278017d1af55eff5630ca772", "lat": 38.929287333333335, "fusion_lon": 0.0, "fusion_lat": 0.0, "type": "electric_scooter", "name": "054ad86e278017d1af55eff5630ca772", "is_disabled": 0, "rental_uris": {"ios": "https://dc.lft.to/lastmile_qr_scan", "android": "https://dc.lft.to/lastmile_qr_scan"}, "is_reserved": 0}, {"lon": -77.00975366666667, "bike_id": "dd202409dc888ce16cbaa8d2faae0369", "lat": 38.87071516666666, "fusion_lon": 0.0, "fusion_lat": 0.0, "type": "electric_scooter", "name": "dd202409dc888ce16cbaa8d2faae0369", "is_disabled": 0, "rental_uris": {"ios": "https://dc.lft.to/lastmile_qr_scan", "android": "https://dc.lft.to/lastmile_qr_scan"}, "is_reserved": 0}, {"lon": -77.0551075, "bike_id": "0db2d9dad61971e0bd7152905bb99cd0", "lat": 38.92983016666667, "fusion_lon": 0.0, "fusion_lat": 0.0, "type": "electric_scooter", "name": "0db2d9dad61971e0bd7152905bb99cd0", "is_disabled": 0, "rental_uris": {"ios": "https://dc.lft.to/lastmile_qr_scan", "android": "https://dc.lft.to/lastmile_qr_scan"}, "is_reserved": 0}, {"lon": -76.99507216666666, "bike_id": "3fb8bb57a41622c513e9e129f8c13e6c", "lat": 38.8624645, "fusion_lon": 0.0, "fusion_lat": 0.0, "type": "electric_scooter", "name": "3fb8bb57a41622c513e9e129f8c13e6c", "is_disabled": 0, "rental_uris": {"ios": "https://dc.lft.to/lastmile_qr_scan", "android": "https://dc.lft.to/lastmile_qr_scan"}, "is_reserved": 0}, {"lon": -77.05620116666667, "bike_id": "ecce32e4da1dd8dbcd50d4f2209a8239", "lat": 38.92337966666667, "fusion_lon": 0.0, "fusion_lat": 0.0, "type": "electric_scooter", "name": "ecce32e4da1dd8dbcd50d4f2209a8239", "is_disabled": 0, "rental_uris": {"ios": "https://dc.lft.to/lastmile_qr_scan", "android": "https://dc.lft.to/lastmile_qr_scan"}, "is_reserved": 0}, {"lon": -76.98833166666667, "bike_id": "de0734476ae58e6b3944b4ba4db8ca1c", "lat": 38.896617666666664, "fusion_lon": 0.0, "fusion_lat": 0.0, "type": "electric_scooter", "name": "de0734476ae58e6b3944b4ba4db8ca1c", "is_disabled": 0, "rental_uris": {"ios": "https://dc.lft.to/lastmile_qr_scan", "android": "https://dc.lft.to/lastmile_qr_scan"}, "is_reserved": 0}, {"lon": -77.07773083333333, "bike_id": "2eb0ee0e718dacbdf533e66f66b65287", "lat": 38.957666, "fusion_lon": 0.0, "fusion_lat": 0.0, "type": "electric_scooter", "name": "2eb0ee0e718dacbdf533e66f66b65287", "is_disabled": 0, "rental_uris": {"ios": "https://dc.lft.to/lastmile_qr_scan", "android": "https://dc.lft.to/lastmile_qr_scan"}, "is_reserved": 0}, {"lon": -77.13929533333334, "bike_id": "f6d5d0dd0044d8d10f23457ec6a2e8d5", "lat": 38.8729805, "fusion_lon": 0.0, "fusion_lat": 0.0, "type": "electric_bike", "name": "f6d5d0dd0044d8d10f23457ec6a2e8d5", "is_disabled": 0, "rental_uris": {"ios": "https://dc.lft.to/lastmile_qr_scan", "android": "https://dc.lft.to/lastmile_qr_scan"}, "is_reserved": 0}, {"lon": -77.0485955, "bike_id": "a1e94d340c433cfac4c290c3bdd070bd", "lat": 38.90957933333333, "fusion_lon": 0.0, "fusion_lat": 0.0, "type": "electric_scooter", "name": "a1e94d340c433cfac4c290c3bdd070bd", "is_disabled": 0, "rental_uris": {"ios": "https://dc.lft.to/lastmile_qr_scan", "android": "https://dc.lft.to/lastmile_qr_scan"}, "is_reserved": 0}, {"lon": -76.92104116666667, "bike_id": "ee7c9af1d8137e18a99e4293c87f34da", "lat": 38.89107533333333, "fusion_lon": 0.0, "fusion_lat": 0.0, "type": "electric_scooter", "name": "ee7c9af1d8137e18a99e4293c87f34da", "is_disabled": 0, "rental_uris": {"ios": "https://dc.lft.to/lastmile_qr_scan", "android": "https://dc.lft.to/lastmile_qr_scan"}, "is_reserved": 0}, {"lon": -77.02209966666666, "bike_id": "57cc9c006db0bbd28151623eb066a4e8", "lat": 38.89349683333333, "fusion_lon": 0.0, "fusion_lat": 0.0, "type": "electric_scooter", "name": "57cc9c006db0bbd28151623eb066a4e8", "is_disabled": 0, "rental_uris": {"ios": "https://dc.lft.to/lastmile_qr_scan", "android": "https://dc.lft.to/lastmile_qr_scan"}, "is_reserved": 0}, {"lon": -77.008796, "bike_id": "05d6ee4c324195d466a3d3eeef95e58e", "lat": 38.8253545, "fusion_lon": 0.0, "fusion_lat": 0.0, "type": "electric_scooter", "name": "05d6ee4c324195d466a3d3eeef95e58e", "is_disabled": 0, "rental_uris": {"ios": "https://dc.lft.to/lastmile_qr_scan", "android": "https://dc.lft.to/lastmile_qr_scan"}, "is_reserved": 0}, {"lon": -76.97208766666667, "bike_id": "000e688a0014c208aad23b8036f6a761", "lat": 38.8929125, "fusion_lon": 0.0, "fusion_lat": 0.0, "type": "electric_bike", "name": "000e688a0014c208aad23b8036f6a761", "is_disabled": 0, "rental_uris": {"ios": "https://dc.lft.to/lastmile_qr_scan", "android": "https://dc.lft.to/lastmile_qr_scan"}, "is_reserved": 0}, {"lon": -77.00686166666667, "bike_id": "7cde42d1c9631778552d4d516b0fee92", "lat": 38.9002645, "fusion_lon": 0.0, "fusion_lat": 0.0, "type": "electric_scooter", "name": "7cde42d1c9631778552d4d516b0fee92", "is_disabled": 0, "rental_uris": {"ios": "https://dc.lft.to/lastmile_qr_scan", "android": "https://dc.lft.to/lastmile_qr_scan"}, "is_reserved": 0}, {"lon": -77.03915983333333, "bike_id": "99c66aa0fe5990ace21a4a8f01ccc446", "lat": 38.92792766666667, "fusion_lon": 0.0, "fusion_lat": 0.0, "type": "electric_scooter", "name": "99c66aa0fe5990ace21a4a8f01ccc446", "is_disabled": 0, "rental_uris": {"ios": "https://dc.lft.to/lastmile_qr_scan", "android": "https://dc.lft.to/lastmile_qr_scan"}, "is_reserved": 0}, {"lon": -77.01605916666666, "bike_id": "91703eb56d69fead97b7538704f55d68", "lat": 38.90176783333333, "fusion_lon": 0.0, "fusion_lat": 0.0, "type": "electric_scooter", "name": "91703eb56d69fead97b7538704f55d68", "is_disabled": 0, "rental_uris": {"ios": "https://dc.lft.to/lastmile_qr_scan", "android": "https://dc.lft.to/lastmile_qr_scan"}, "is_reserved": 0}, {"lon": -77.056936, "bike_id": "19f827b21bc7748d0e9b1da71f98f312", "lat": 38.905433333333335, "fusion_lon": 0.0, "fusion_lat": 0.0, "type": "electric_scooter", "name": "19f827b21bc7748d0e9b1da71f98f312", "is_disabled": 0, "rental_uris": {"ios": "https://dc.lft.to/lastmile_qr_scan", "android": "https://dc.lft.to/lastmile_qr_scan"}, "is_reserved": 0}, {"lon": -76.95232533333333, "bike_id": "2eab6809a2dca7271e5dda526df39b31", "lat": 38.8909795, "fusion_lon": 0.0, "fusion_lat": 0.0, "type": "electric_scooter", "name": "2eab6809a2dca7271e5dda526df39b31", "is_disabled": 0, "rental_uris": {"ios": "https://dc.lft.to/lastmile_qr_scan", "android": "https://dc.lft.to/lastmile_qr_scan"}, "is_reserved": 0}, {"lon": -77.0317965, "bike_id": "75916015bcc76c2bbc89956dbbe4a86c", "lat": 38.90517366666667, "fusion_lon": 0.0, "fusion_lat": 0.0, "type": "electric_scooter", "name": "75916015bcc76c2bbc89956dbbe4a86c", "is_disabled": 0, "rental_uris": {"ios": "https://dc.lft.to/lastmile_qr_scan", "android": "https://dc.lft.to/lastmile_qr_scan"}, "is_reserved": 0}, {"lon": -76.97616716666667, "bike_id": "734ce94b3f9b62394a1e5c24ceb3db12", "lat": 38.92652016666667, "fusion_lon": 0.0, "fusion_lat": 0.0, "type": "electric_scooter", "name": "734ce94b3f9b62394a1e5c24ceb3db12", "is_disabled": 0, "rental_uris": {"ios": "https://dc.lft.to/lastmile_qr_scan", "android": "https://dc.lft.to/lastmile_qr_scan"}, "is_reserved": 0}, {"lon": -77.08812266666666, "bike_id": "313f2e4b4a13cf7cb3f9ad9be29c9e2d", "lat": 38.9117425, "fusion_lon": 0.0, "fusion_lat": 0.0, "type": "electric_bike", "name": "313f2e4b4a13cf7cb3f9ad9be29c9e2d", "is_disabled": 0, "rental_uris": {"ios": "https://dc.lft.to/lastmile_qr_scan", "android": "https://dc.lft.to/lastmile_qr_scan"}, "is_reserved": 0}, {"lon": -76.99103016666666, "bike_id": "acc8576403db20da54a1c9e3fd892c69", "lat": 38.903199, "fusion_lon": 0.0, "fusion_lat": 0.0, "type": "electric_scooter", "name": "acc8576403db20da54a1c9e3fd892c69", "is_disabled": 0, "rental_uris": {"ios": "https://dc.lft.to/lastmile_qr_scan", "android": "https://dc.lft.to/lastmile_qr_scan"}, "is_reserved": 0}, {"lon": -77.01866383333333, "bike_id": "4d59ff91ee0be7432795f959b2d4c503", "lat": 38.95153766666667, "fusion_lon": 0.0, "fusion_lat": 0.0, "type": "electric_scooter", "name": "4d59ff91ee0be7432795f959b2d4c503", "is_disabled": 0, "rental_uris": {"ios": "https://dc.lft.to/lastmile_qr_scan", "android": "https://dc.lft.to/lastmile_qr_scan"}, "is_reserved": 0}, {"lon": -77.03109266666667, "bike_id": "11859bb06fc08a97301be5606f6a7835", "lat": 38.915600166666664, "fusion_lon": 0.0, "fusion_lat": 0.0, "type": "electric_scooter", "name": "11859bb06fc08a97301be5606f6a7835", "is_disabled": 0, "rental_uris": {"ios": "https://dc.lft.to/lastmile_qr_scan", "android": "https://dc.lft.to/lastmile_qr_scan"}, "is_reserved": 0}, {"lon": -76.98025683333333, "bike_id": "c9d4dbcc32cf2db3f092d0e23f5ea366", "lat": 38.853247333333336, "fusion_lon": 0.0, "fusion_lat": 0.0, "type": "electric_bike", "name": "c9d4dbcc32cf2db3f092d0e23f5ea366", "is_disabled": 0, "rental_uris": {"ios": "https://dc.lft.to/lastmile_qr_scan", "android": "https://dc.lft.to/lastmile_qr_scan"}, "is_reserved": 0}, {"lon": -76.98985583333334, "bike_id": "462745fba495d8df574e19f607de6ee7", "lat": 38.933619666666665, "fusion_lon": 0.0, "fusion_lat": 0.0, "type": "electric_scooter", "name": "462745fba495d8df574e19f607de6ee7", "is_disabled": 0, "rental_uris": {"ios": "https://dc.lft.to/lastmile_qr_scan", "android": "https://dc.lft.to/lastmile_qr_scan"}, "is_reserved": 0}, {"lon": -77.07970116666667, "bike_id": "7428b193b98775ec5a609e764c780075", "lat": 38.85722, "fusion_lon": 0.0, "fusion_lat": 0.0, "type": "electric_bike", "name": "7428b193b98775ec5a609e764c780075", "is_disabled": 0, "rental_uris": {"ios": "https://dc.lft.to/lastmile_qr_scan", "android": "https://dc.lft.to/lastmile_qr_scan"}, "is_reserved": 0}, {"lon": -76.99521916666667, "bike_id": "5ef4be15f15c5d48345a667268bad605", "lat": 38.86261566666667, "fusion_lon": 0.0, "fusion_lat": 0.0, "type": "electric_scooter", "name": "5ef4be15f15c5d48345a667268bad605", "is_disabled": 0, "rental_uris": {"ios": "https://dc.lft.to/lastmile_qr_scan", "android": "https://dc.lft.to/lastmile_qr_scan"}, "is_reserved": 0}, {"lon": -76.9907755, "bike_id": "3403899a98cc5c12aa52fd344623c4da", "lat": 38.89803033333333, "fusion_lon": 0.0, "fusion_lat": 0.0, "type": "electric_bike", "name": "3403899a98cc5c12aa52fd344623c4da", "is_disabled": 0, "rental_uris": {"ios": "https://dc.lft.to/lastmile_qr_scan", "android": "https://dc.lft.to/lastmile_qr_scan"}, "is_reserved": 0}, {"lon": -76.94886916666667, "bike_id": "6275752e8f38de7f2acf772f41fab676", "lat": 38.89509283333334, "fusion_lon": 0.0, "fusion_lat": 0.0, "type": "electric_scooter", "name": "6275752e8f38de7f2acf772f41fab676", "is_disabled": 0, "rental_uris": {"ios": "https://dc.lft.to/lastmile_qr_scan", "android": "https://dc.lft.to/lastmile_qr_scan"}, "is_reserved": 0}, {"lon": -76.996058, "bike_id": "a1dd7e1cc6b8036c6be93c997f15c580", "lat": 38.887018833333336, "fusion_lon": 0.0, "fusion_lat": 0.0, "type": "electric_scooter", "name": "a1dd7e1cc6b8036c6be93c997f15c580", "is_disabled": 0, "rental_uris": {"ios": "https://dc.lft.to/lastmile_qr_scan", "android": "https://dc.lft.to/lastmile_qr_scan"}, "is_reserved": 0}, {"lon": -77.06774733333333, "bike_id": "b15f0ececaec37a8a12557b7cd470979", "lat": 38.9036345, "fusion_lon": 0.0, "fusion_lat": 0.0, "type": "electric_bike", "name": "b15f0ececaec37a8a12557b7cd470979", "is_disabled": 0, "rental_uris": {"ios": "https://dc.lft.to/lastmile_qr_scan", "android": "https://dc.lft.to/lastmile_qr_scan"}, "is_reserved": 0}, {"lon": -77.0200945, "bike_id": "24813027b955f92e33be5f5cc8dd2017", "lat": 38.92416383333333, "fusion_lon": 0.0, "fusion_lat": 0.0, "type": "electric_scooter", "name": "24813027b955f92e33be5f5cc8dd2017", "is_disabled": 0, "rental_uris": {"ios": "https://dc.lft.to/lastmile_qr_scan", "android": "https://dc.lft.to/lastmile_qr_scan"}, "is_reserved": 0}, {"lon": -77.02162466666667, "bike_id": "83c364e3fd7d1bc6e44bd7f37c8a059c", "lat": 38.95075833333333, "fusion_lon": 0.0, "fusion_lat": 0.0, "type": "electric_scooter", "name": "83c364e3fd7d1bc6e44bd7f37c8a059c", "is_disabled": 0, "rental_uris": {"ios": "https://dc.lft.to/lastmile_qr_scan", "android": "https://dc.lft.to/lastmile_qr_scan"}, "is_reserved": 0}, {"lon": -77.03420816666667, "bike_id": "4a3bbe627933fb406982ee25095f0882", "lat": 38.902674, "fusion_lon": 0.0, "fusion_lat": 0.0, "type": "electric_scooter", "name": "4a3bbe627933fb406982ee25095f0882", "is_disabled": 0, "rental_uris": {"ios": "https://dc.lft.to/lastmile_qr_scan", "android": "https://dc.lft.to/lastmile_qr_scan"}, "is_reserved": 0}, {"lon": -77.05235, "bike_id": "82c6f25af4eb66ab3f68f4ace205454a", "lat": 38.92464833333333, "fusion_lon": 0.0, "fusion_lat": 0.0, "type": "electric_scooter", "name": "82c6f25af4eb66ab3f68f4ace205454a", "is_disabled": 0, "rental_uris": {"ios": "https://dc.lft.to/lastmile_qr_scan", "android": "https://dc.lft.to/lastmile_qr_scan"}, "is_reserved": 0}, {"lon": -77.04128816666666, "bike_id": "dc756600d447732e1ab54011ec604e0c", "lat": 38.91969916666667, "fusion_lon": 0.0, "fusion_lat": 0.0, "type": "electric_scooter", "name": "dc756600d447732e1ab54011ec604e0c", "is_disabled": 0, "rental_uris": {"ios": "https://dc.lft.to/lastmile_qr_scan", "android": "https://dc.lft.to/lastmile_qr_scan"}, "is_reserved": 0}, {"lon": -77.03731416666666, "bike_id": "7d649621e8d5da1694a04767e27841c6", "lat": 38.9202415, "fusion_lon": 0.0, "fusion_lat": 0.0, "type": "electric_scooter", "name": "7d649621e8d5da1694a04767e27841c6", "is_disabled": 0, "rental_uris": {"ios": "https://dc.lft.to/lastmile_qr_scan", "android": "https://dc.lft.to/lastmile_qr_scan"}, "is_reserved": 0}, {"lon": -77.03442383333334, "bike_id": "399791a4677bec38532276216979694d", "lat": 38.909827, "fusion_lon": 0.0, "fusion_lat": 0.0, "type": "electric_scooter", "name": "399791a4677bec38532276216979694d", "is_disabled": 0, "rental_uris": {"ios": "https://dc.lft.to/lastmile_qr_scan", "android": "https://dc.lft.to/lastmile_qr_scan"}, "is_reserved": 0}, {"lon": -77.049947, "bike_id": "0fd184f3421e41c06037d639988aa6f8", "lat": 38.904182166666665, "fusion_lon": 0.0, "fusion_lat": 0.0, "type": "electric_scooter", "name": "0fd184f3421e41c06037d639988aa6f8", "is_disabled": 0, "rental_uris": {"ios": "https://dc.lft.to/lastmile_qr_scan", "android": "https://dc.lft.to/lastmile_qr_scan"}, "is_reserved": 0}, {"lon": -76.98246783333333, "bike_id": "1edf2cc7ec38a55c4e871e498225a991", "lat": 38.86459833333333, "fusion_lon": 0.0, "fusion_lat": 0.0, "type": "electric_scooter", "name": "1edf2cc7ec38a55c4e871e498225a991", "is_disabled": 0, "rental_uris": {"ios": "https://dc.lft.to/lastmile_qr_scan", "android": "https://dc.lft.to/lastmile_qr_scan"}, "is_reserved": 0}, {"lon": -77.0366305, "bike_id": "68ea3dcb7e7981cb1950b644400a0cc2", "lat": 38.933397166666666, "fusion_lon": 0.0, "fusion_lat": 0.0, "type": "electric_scooter", "name": "68ea3dcb7e7981cb1950b644400a0cc2", "is_disabled": 0, "rental_uris": {"ios": "https://dc.lft.to/lastmile_qr_scan", "android": "https://dc.lft.to/lastmile_qr_scan"}, "is_reserved": 0}, {"lon": -77.02325783333333, "bike_id": "13c85ec2d8c2236a1b06e9febae86674", "lat": 38.90852733333333, "fusion_lon": 0.0, "fusion_lat": 0.0, "type": "electric_scooter", "name": "13c85ec2d8c2236a1b06e9febae86674", "is_disabled": 0, "rental_uris": {"ios": "https://dc.lft.to/lastmile_qr_scan", "android": "https://dc.lft.to/lastmile_qr_scan"}, "is_reserved": 0}, {"lon": -76.99864916666667, "bike_id": "d057b4f677a080b15dbbecbde540c80c", "lat": 38.90024533333333, "fusion_lon": 0.0, "fusion_lat": 0.0, "type": "electric_scooter", "name": "d057b4f677a080b15dbbecbde540c80c", "is_disabled": 0, "rental_uris": {"ios": "https://dc.lft.to/lastmile_qr_scan", "android": "https://dc.lft.to/lastmile_qr_scan"}, "is_reserved": 0}, {"lon": -77.03269466666667, "bike_id": "a9f2a0e55292f6e63700e9ed77c86543", "lat": 38.932274666666665, "fusion_lon": 0.0, "fusion_lat": 0.0, "type": "electric_scooter", "name": "a9f2a0e55292f6e63700e9ed77c86543", "is_disabled": 0, "rental_uris": {"ios": "https://dc.lft.to/lastmile_qr_scan", "android": "https://dc.lft.to/lastmile_qr_scan"}, "is_reserved": 0}, {"lon": -77.00313616666666, "bike_id": "959ccd1da4abd7090117a687abf86bde", "lat": 38.8951795, "fusion_lon": 0.0, "fusion_lat": 0.0, "type": "electric_scooter", "name": "959ccd1da4abd7090117a687abf86bde", "is_disabled": 0, "rental_uris": {"ios": "https://dc.lft.to/lastmile_qr_scan", "android": "https://dc.lft.to/lastmile_qr_scan"}, "is_reserved": 0}, {"lon": -77.00956416666666, "bike_id": "f0edfadd8403079faa783bcdafa84889", "lat": 38.921383, "fusion_lon": 0.0, "fusion_lat": 0.0, "type": "electric_scooter", "name": "f0edfadd8403079faa783bcdafa84889", "is_disabled": 0, "rental_uris": {"ios": "https://dc.lft.to/lastmile_qr_scan", "android": "https://dc.lft.to/lastmile_qr_scan"}, "is_reserved": 0}, {"lon": -76.99790783333333, "bike_id": "d623708cf6c39fd324423cdf6bee0fd5", "lat": 38.8908665, "fusion_lon": 0.0, "fusion_lat": 0.0, "type": "electric_scooter", "name": "d623708cf6c39fd324423cdf6bee0fd5", "is_disabled": 0, "rental_uris": {"ios": "https://dc.lft.to/lastmile_qr_scan", "android": "https://dc.lft.to/lastmile_qr_scan"}, "is_reserved": 0}, {"lon": -76.98109733333334, "bike_id": "8fef4997fc6503e743873ccd9c8b40bd", "lat": 38.8772835, "fusion_lon": 0.0, "fusion_lat": 0.0, "type": "electric_bike", "name": "8fef4997fc6503e743873ccd9c8b40bd", "is_disabled": 0, "rental_uris": {"ios": "https://dc.lft.to/lastmile_qr_scan", "android": "https://dc.lft.to/lastmile_qr_scan"}, "is_reserved": 0}, {"lon": -76.99926333333333, "bike_id": "26dae2d2481c154aaa629dc52e56be50", "lat": 38.9076015, "fusion_lon": 0.0, "fusion_lat": 0.0, "type": "electric_scooter", "name": "26dae2d2481c154aaa629dc52e56be50", "is_disabled": 0, "rental_uris": {"ios": "https://dc.lft.to/lastmile_qr_scan", "android": "https://dc.lft.to/lastmile_qr_scan"}, "is_reserved": 0}, {"lon": -77.03654783333333, "bike_id": "3f5e0fd23741b00708b9a544e1e12600", "lat": 38.933239666666665, "fusion_lon": 0.0, "fusion_lat": 0.0, "type": "electric_scooter", "name": "3f5e0fd23741b00708b9a544e1e12600", "is_disabled": 0, "rental_uris": {"ios": "https://dc.lft.to/lastmile_qr_scan", "android": "https://dc.lft.to/lastmile_qr_scan"}, "is_reserved": 0}, {"lon": -77.03342316666667, "bike_id": "9d19bfb5ede628c0adeef896eb212d7c", "lat": 38.935113666666666, "fusion_lon": 0.0, "fusion_lat": 0.0, "type": "electric_scooter", "name": "9d19bfb5ede628c0adeef896eb212d7c", "is_disabled": 0, "rental_uris": {"ios": "https://dc.lft.to/lastmile_qr_scan", "android": "https://dc.lft.to/lastmile_qr_scan"}, "is_reserved": 0}, {"lon": -77.02690216666667, "bike_id": "c600e3ced39ca0f632966e692b867eb3", "lat": 38.904021666666665, "fusion_lon": 0.0, "fusion_lat": 0.0, "type": "electric_scooter", "name": "c600e3ced39ca0f632966e692b867eb3", "is_disabled": 0, "rental_uris": {"ios": "https://dc.lft.to/lastmile_qr_scan", "android": "https://dc.lft.to/lastmile_qr_scan"}, "is_reserved": 0}, {"lon": -76.99921016666667, "bike_id": "355b14125248024c2fa5bf036a95156d", "lat": 38.88973933333333, "fusion_lon": 0.0, "fusion_lat": 0.0, "type": "electric_scooter", "name": "355b14125248024c2fa5bf036a95156d", "is_disabled": 0, "rental_uris": {"ios": "https://dc.lft.to/lastmile_qr_scan", "android": "https://dc.lft.to/lastmile_qr_scan"}, "is_reserved": 0}, {"lon": -77.023865, "bike_id": "643b14d5c2a9ebb65c00611f0786f887", "lat": 38.906196333333334, "fusion_lon": 0.0, "fusion_lat": 0.0, "type": "electric_scooter", "name": "643b14d5c2a9ebb65c00611f0786f887", "is_disabled": 0, "rental_uris": {"ios": "https://dc.lft.to/lastmile_qr_scan", "android": "https://dc.lft.to/lastmile_qr_scan"}, "is_reserved": 0}, {"lon": -77.04500466666667, "bike_id": "3e8c702dd45b6a31ba4052855af29d1a", "lat": 38.91107483333333, "fusion_lon": 0.0, "fusion_lat": 0.0, "type": "electric_scooter", "name": "3e8c702dd45b6a31ba4052855af29d1a", "is_disabled": 0, "rental_uris": {"ios": "https://dc.lft.to/lastmile_qr_scan", "android": "https://dc.lft.to/lastmile_qr_scan"}, "is_reserved": 0}, {"lon": -77.03272633333333, "bike_id": "1d45c46924fd2c672b32a173bd591504", "lat": 38.92864633333333, "fusion_lon": 0.0, "fusion_lat": 0.0, "type": "electric_scooter", "name": "1d45c46924fd2c672b32a173bd591504", "is_disabled": 0, "rental_uris": {"ios": "https://dc.lft.to/lastmile_qr_scan", "android": "https://dc.lft.to/lastmile_qr_scan"}, "is_reserved": 0}, {"lon": -77.02092516666667, "bike_id": "edd0fa595e64c37737813f22a31af8db", "lat": 38.92915466666667, "fusion_lon": 0.0, "fusion_lat": 0.0, "type": "electric_scooter", "name": "edd0fa595e64c37737813f22a31af8db", "is_disabled": 0, "rental_uris": {"ios": "https://dc.lft.to/lastmile_qr_scan", "android": "https://dc.lft.to/lastmile_qr_scan"}, "is_reserved": 0}, {"lon": -77.03189116666667, "bike_id": "c4e58e79bccfe8e843eb60dd4248f540", "lat": 38.91562733333333, "fusion_lon": 0.0, "fusion_lat": 0.0, "type": "electric_scooter", "name": "c4e58e79bccfe8e843eb60dd4248f540", "is_disabled": 0, "rental_uris": {"ios": "https://dc.lft.to/lastmile_qr_scan", "android": "https://dc.lft.to/lastmile_qr_scan"}, "is_reserved": 0}, {"lon": -77.06114566666666, "bike_id": "44973dd7d09bdffd400fa9af38923319", "lat": 38.904774833333335, "fusion_lon": 0.0, "fusion_lat": 0.0, "type": "electric_scooter", "name": "44973dd7d09bdffd400fa9af38923319", "is_disabled": 0, "rental_uris": {"ios": "https://dc.lft.to/lastmile_qr_scan", "android": "https://dc.lft.to/lastmile_qr_scan"}, "is_reserved": 0}, {"lon": -77.03214316666667, "bike_id": "3f6f064d22aa08722e74f9deb6218e82", "lat": 38.936171333333334, "fusion_lon": 0.0, "fusion_lat": 0.0, "type": "electric_scooter", "name": "3f6f064d22aa08722e74f9deb6218e82", "is_disabled": 0, "rental_uris": {"ios": "https://dc.lft.to/lastmile_qr_scan", "android": "https://dc.lft.to/lastmile_qr_scan"}, "is_reserved": 0}, {"lon": -77.0560005, "bike_id": "06c5e563e75a4686d41ea41942d7ce55", "lat": 38.9369915, "fusion_lon": 0.0, "fusion_lat": 0.0, "type": "electric_scooter", "name": "06c5e563e75a4686d41ea41942d7ce55", "is_disabled": 0, "rental_uris": {"ios": "https://dc.lft.to/lastmile_qr_scan", "android": "https://dc.lft.to/lastmile_qr_scan"}, "is_reserved": 0}, {"lon": -76.9327915, "bike_id": "1205e5e525a36d847728bbb7fe15b306", "lat": 38.9542325, "fusion_lon": 0.0, "fusion_lat": 0.0, "type": "electric_bike", "name": "1205e5e525a36d847728bbb7fe15b306", "is_disabled": 0, "rental_uris": {"ios": "https://dc.lft.to/lastmile_qr_scan", "android": "https://dc.lft.to/lastmile_qr_scan"}, "is_reserved": 0}, {"lon": -77.02300266666667, "bike_id": "7fd17c31c098778f0c72d618fade470a", "lat": 38.916821, "fusion_lon": 0.0, "fusion_lat": 0.0, "type": "electric_scooter", "name": "7fd17c31c098778f0c72d618fade470a", "is_disabled": 0, "rental_uris": {"ios": "https://dc.lft.to/lastmile_qr_scan", "android": "https://dc.lft.to/lastmile_qr_scan"}, "is_reserved": 0}, {"lon": -77.03635066666666, "bike_id": "40b18772b16f77026e1717191409e1f4", "lat": 38.9155865, "fusion_lon": 0.0, "fusion_lat": 0.0, "type": "electric_scooter", "name": "40b18772b16f77026e1717191409e1f4", "is_disabled": 0, "rental_uris": {"ios": "https://dc.lft.to/lastmile_qr_scan", "android": "https://dc.lft.to/lastmile_qr_scan"}, "is_reserved": 0}, {"lon": -77.01651, "bike_id": "de79f087f5a479095589e01a75eb291d", "lat": 38.899942, "fusion_lon": 0.0, "fusion_lat": 0.0, "type": "electric_scooter", "name": "de79f087f5a479095589e01a75eb291d", "is_disabled": 0, "rental_uris": {"ios": "https://dc.lft.to/lastmile_qr_scan", "android": "https://dc.lft.to/lastmile_qr_scan"}, "is_reserved": 0}, {"lon": -77.02950166666666, "bike_id": "b83294bee3695ea4243345a90de68cc8", "lat": 38.89651116666667, "fusion_lon": 0.0, "fusion_lat": 0.0, "type": "electric_scooter", "name": "b83294bee3695ea4243345a90de68cc8", "is_disabled": 0, "rental_uris": {"ios": "https://dc.lft.to/lastmile_qr_scan", "android": "https://dc.lft.to/lastmile_qr_scan"}, "is_reserved": 0}, {"lon": -77.0013065, "bike_id": "c8726a74d63340fffd55f43d724f3570", "lat": 38.8782455, "fusion_lon": 0.0, "fusion_lat": 0.0, "type": "electric_scooter", "name": "c8726a74d63340fffd55f43d724f3570", "is_disabled": 0, "rental_uris": {"ios": "https://dc.lft.to/lastmile_qr_scan", "android": "https://dc.lft.to/lastmile_qr_scan"}, "is_reserved": 0}, {"lon": -77.00537083333333, "bike_id": "d68b67240bb615a147e9635e939f7139", "lat": 38.875438333333335, "fusion_lon": 0.0, "fusion_lat": 0.0, "type": "electric_scooter", "name": "d68b67240bb615a147e9635e939f7139", "is_disabled": 0, "rental_uris": {"ios": "https://dc.lft.to/lastmile_qr_scan", "android": "https://dc.lft.to/lastmile_qr_scan"}, "is_reserved": 0}, {"lon": -77.03499283333333, "bike_id": "055559de5d91a26283baa640a7d625d3", "lat": 38.91187433333333, "fusion_lon": 0.0, "fusion_lat": 0.0, "type": "electric_scooter", "name": "055559de5d91a26283baa640a7d625d3", "is_disabled": 0, "rental_uris": {"ios": "https://dc.lft.to/lastmile_qr_scan", "android": "https://dc.lft.to/lastmile_qr_scan"}, "is_reserved": 0}, {"lon": -77.02215966666667, "bike_id": "6319a852fb2d05847f6c643b9f2fd647", "lat": 38.900362, "fusion_lon": 0.0, "fusion_lat": 0.0, "type": "electric_scooter", "name": "6319a852fb2d05847f6c643b9f2fd647", "is_disabled": 0, "rental_uris": {"ios": "https://dc.lft.to/lastmile_qr_scan", "android": "https://dc.lft.to/lastmile_qr_scan"}, "is_reserved": 0}, {"lon": -77.07431266666667, "bike_id": "e07f0b94ecb42f0aed7ec8881bcd9925", "lat": 38.999456, "fusion_lon": 0.0, "fusion_lat": 0.0, "type": "electric_bike", "name": "e07f0b94ecb42f0aed7ec8881bcd9925", "is_disabled": 0, "rental_uris": {"ios": "https://dc.lft.to/lastmile_qr_scan", "android": "https://dc.lft.to/lastmile_qr_scan"}, "is_reserved": 0}, {"lon": -77.06401583333333, "bike_id": "62e42748d458cd0b8a68375fc234ea8d", "lat": 38.907757833333335, "fusion_lon": 0.0, "fusion_lat": 0.0, "type": "electric_scooter", "name": "62e42748d458cd0b8a68375fc234ea8d", "is_disabled": 0, "rental_uris": {"ios": "https://dc.lft.to/lastmile_qr_scan", "android": "https://dc.lft.to/lastmile_qr_scan"}, "is_reserved": 0}, {"lon": -77.03185016666667, "bike_id": "0763a8eb282f14515282d4b9052cff98", "lat": 38.913452166666666, "fusion_lon": 0.0, "fusion_lat": 0.0, "type": "electric_scooter", "name": "0763a8eb282f14515282d4b9052cff98", "is_disabled": 0, "rental_uris": {"ios": "https://dc.lft.to/lastmile_qr_scan", "android": "https://dc.lft.to/lastmile_qr_scan"}, "is_reserved": 0}, {"lon": -77.02010866666667, "bike_id": "4e565216d1313f3e73b7da00bff27106", "lat": 38.92414433333333, "fusion_lon": 0.0, "fusion_lat": 0.0, "type": "electric_scooter", "name": "4e565216d1313f3e73b7da00bff27106", "is_disabled": 0, "rental_uris": {"ios": "https://dc.lft.to/lastmile_qr_scan", "android": "https://dc.lft.to/lastmile_qr_scan"}, "is_reserved": 0}, {"lon": -77.0285785, "bike_id": "11fc98ba26b48b039c20aeb7adadc9ee", "lat": 38.93322783333333, "fusion_lon": 0.0, "fusion_lat": 0.0, "type": "electric_scooter", "name": "11fc98ba26b48b039c20aeb7adadc9ee", "is_disabled": 0, "rental_uris": {"ios": "https://dc.lft.to/lastmile_qr_scan", "android": "https://dc.lft.to/lastmile_qr_scan"}, "is_reserved": 0}, {"lon": -77.01372783333333, "bike_id": "5f802f81261d40d9771f0752263100d7", "lat": 38.886726833333334, "fusion_lon": 0.0, "fusion_lat": 0.0, "type": "electric_scooter", "name": "5f802f81261d40d9771f0752263100d7", "is_disabled": 0, "rental_uris": {"ios": "https://dc.lft.to/lastmile_qr_scan", "android": "https://dc.lft.to/lastmile_qr_scan"}, "is_reserved": 0}, {"lon": -77.00021416666667, "bike_id": "65a1a066d086b92b2e88d94e3998b88d", "lat": 38.919801666666665, "fusion_lon": 0.0, "fusion_lat": 0.0, "type": "electric_scooter", "name": "65a1a066d086b92b2e88d94e3998b88d", "is_disabled": 0, "rental_uris": {"ios": "https://dc.lft.to/lastmile_qr_scan", "android": "https://dc.lft.to/lastmile_qr_scan"}, "is_reserved": 0}, {"lon": -76.98348066666667, "bike_id": "d250fe8ee2ae8197c694bdd16e08ad26", "lat": 38.904504, "fusion_lon": 0.0, "fusion_lat": 0.0, "type": "electric_scooter", "name": "d250fe8ee2ae8197c694bdd16e08ad26", "is_disabled": 0, "rental_uris": {"ios": "https://dc.lft.to/lastmile_qr_scan", "android": "https://dc.lft.to/lastmile_qr_scan"}, "is_reserved": 0}, {"lon": -77.00971316666667, "bike_id": "769755b436ed0b9d2765a391f904cb1c", "lat": 38.8948625, "fusion_lon": 0.0, "fusion_lat": 0.0, "type": "electric_scooter", "name": "769755b436ed0b9d2765a391f904cb1c", "is_disabled": 0, "rental_uris": {"ios": "https://dc.lft.to/lastmile_qr_scan", "android": "https://dc.lft.to/lastmile_qr_scan"}, "is_reserved": 0}, {"lon": -77.033274, "bike_id": "8525f8cf8d9af1f03cb4ffc089501e9b", "lat": 38.91975083333333, "fusion_lon": 0.0, "fusion_lat": 0.0, "type": "electric_scooter", "name": "8525f8cf8d9af1f03cb4ffc089501e9b", "is_disabled": 0, "rental_uris": {"ios": "https://dc.lft.to/lastmile_qr_scan", "android": "https://dc.lft.to/lastmile_qr_scan"}, "is_reserved": 0}, {"lon": -77.05860766666666, "bike_id": "2517cb16c0c76dea7d7aaa7ff62224d4", "lat": 38.936111833333335, "fusion_lon": 0.0, "fusion_lat": 0.0, "type": "electric_scooter", "name": "2517cb16c0c76dea7d7aaa7ff62224d4", "is_disabled": 0, "rental_uris": {"ios": "https://dc.lft.to/lastmile_qr_scan", "android": "https://dc.lft.to/lastmile_qr_scan"}, "is_reserved": 0}, {"lon": -77.05811583333333, "bike_id": "95750d263a998fc3a172970b716eeb70", "lat": 38.823944, "fusion_lon": 0.0, "fusion_lat": 0.0, "type": "electric_bike", "name": "95750d263a998fc3a172970b716eeb70", "is_disabled": 0, "rental_uris": {"ios": "https://dc.lft.to/lastmile_qr_scan", "android": "https://dc.lft.to/lastmile_qr_scan"}, "is_reserved": 0}, {"lon": -76.949237, "bike_id": "fc16b9b8835a9934f0e11012ca09797b", "lat": 38.893532666666665, "fusion_lon": 0.0, "fusion_lat": 0.0, "type": "electric_scooter", "name": "fc16b9b8835a9934f0e11012ca09797b", "is_disabled": 0, "rental_uris": {"ios": "https://dc.lft.to/lastmile_qr_scan", "android": "https://dc.lft.to/lastmile_qr_scan"}, "is_reserved": 0}, {"lon": -76.98719083333333, "bike_id": "0066ea2931b2fc4acd13b8720a00f604", "lat": 38.866265166666665, "fusion_lon": 0.0, "fusion_lat": 0.0, "type": "electric_scooter", "name": "0066ea2931b2fc4acd13b8720a00f604", "is_disabled": 0, "rental_uris": {"ios": "https://dc.lft.to/lastmile_qr_scan", "android": "https://dc.lft.to/lastmile_qr_scan"}, "is_reserved": 0}, {"lon": -76.98838416666666, "bike_id": "e958e349d5faa3f51306dff2b3b6b539", "lat": 38.90124133333333, "fusion_lon": 0.0, "fusion_lat": 0.0, "type": "electric_scooter", "name": "e958e349d5faa3f51306dff2b3b6b539", "is_disabled": 0, "rental_uris": {"ios": "https://dc.lft.to/lastmile_qr_scan", "android": "https://dc.lft.to/lastmile_qr_scan"}, "is_reserved": 0}, {"lon": -76.98658983333334, "bike_id": "21119091096cfbc760a56c53831eba4b", "lat": 38.912463333333335, "fusion_lon": 0.0, "fusion_lat": 0.0, "type": "electric_scooter", "name": "21119091096cfbc760a56c53831eba4b", "is_disabled": 0, "rental_uris": {"ios": "https://dc.lft.to/lastmile_qr_scan", "android": "https://dc.lft.to/lastmile_qr_scan"}, "is_reserved": 0}, {"lon": -77.03654766666666, "bike_id": "93efaa4c68458bf84e4cc7d6d21f683e", "lat": 38.90364916666667, "fusion_lon": 0.0, "fusion_lat": 0.0, "type": "electric_scooter", "name": "93efaa4c68458bf84e4cc7d6d21f683e", "is_disabled": 0, "rental_uris": {"ios": "https://dc.lft.to/lastmile_qr_scan", "android": "https://dc.lft.to/lastmile_qr_scan"}, "is_reserved": 0}, {"lon": -77.027972, "bike_id": "14bd51f7db553544f69ff1bff7a4068c", "lat": 38.927701, "fusion_lon": 0.0, "fusion_lat": 0.0, "type": "electric_scooter", "name": "14bd51f7db553544f69ff1bff7a4068c", "is_disabled": 0, "rental_uris": {"ios": "https://dc.lft.to/lastmile_qr_scan", "android": "https://dc.lft.to/lastmile_qr_scan"}, "is_reserved": 0}, {"lon": -77.048767, "bike_id": "0885798022d3127f7633ac4ced2035a5", "lat": 38.892324333333335, "fusion_lon": 0.0, "fusion_lat": 0.0, "type": "electric_scooter", "name": "0885798022d3127f7633ac4ced2035a5", "is_disabled": 0, "rental_uris": {"ios": "https://dc.lft.to/lastmile_qr_scan", "android": "https://dc.lft.to/lastmile_qr_scan"}, "is_reserved": 0}, {"lon": -77.0238215, "bike_id": "bd6873d3972b0e8c83271afdddbd2bad", "lat": 38.9077965, "fusion_lon": 0.0, "fusion_lat": 0.0, "type": "electric_scooter", "name": "bd6873d3972b0e8c83271afdddbd2bad", "is_disabled": 0, "rental_uris": {"ios": "https://dc.lft.to/lastmile_qr_scan", "android": "https://dc.lft.to/lastmile_qr_scan"}, "is_reserved": 0}, {"lon": -77.03205383333334, "bike_id": "2ca0e5fcb1ce4a095ecbae460507b04c", "lat": 38.930392, "fusion_lon": 0.0, "fusion_lat": 0.0, "type": "electric_scooter", "name": "2ca0e5fcb1ce4a095ecbae460507b04c", "is_disabled": 0, "rental_uris": {"ios": "https://dc.lft.to/lastmile_qr_scan", "android": "https://dc.lft.to/lastmile_qr_scan"}, "is_reserved": 0}, {"lon": -77.0450115, "bike_id": "77b97f5a4bb80d2df508de0e14ff4bd6", "lat": 38.91930583333333, "fusion_lon": 0.0, "fusion_lat": 0.0, "type": "electric_scooter", "name": "77b97f5a4bb80d2df508de0e14ff4bd6", "is_disabled": 0, "rental_uris": {"ios": "https://dc.lft.to/lastmile_qr_scan", "android": "https://dc.lft.to/lastmile_qr_scan"}, "is_reserved": 0}, {"lon": -77.02411916666667, "bike_id": "dc80387fa28b9451f0a64a6282ee1df8", "lat": 38.92152466666667, "fusion_lon": 0.0, "fusion_lat": 0.0, "type": "electric_scooter", "name": "dc80387fa28b9451f0a64a6282ee1df8", "is_disabled": 0, "rental_uris": {"ios": "https://dc.lft.to/lastmile_qr_scan", "android": "https://dc.lft.to/lastmile_qr_scan"}, "is_reserved": 0}, {"lon": -77.02713866666667, "bike_id": "a28c43579320973b523a3625a02c9e47", "lat": 38.92467, "fusion_lon": 0.0, "fusion_lat": 0.0, "type": "electric_scooter", "name": "a28c43579320973b523a3625a02c9e47", "is_disabled": 0, "rental_uris": {"ios": "https://dc.lft.to/lastmile_qr_scan", "android": "https://dc.lft.to/lastmile_qr_scan"}, "is_reserved": 0}, {"lon": -77.08488116666666, "bike_id": "1f3a146537c9f558c57bcfdd0afa642e", "lat": 38.848476, "fusion_lon": 0.0, "fusion_lat": 0.0, "type": "electric_bike", "name": "1f3a146537c9f558c57bcfdd0afa642e", "is_disabled": 0, "rental_uris": {"ios": "https://dc.lft.to/lastmile_qr_scan", "android": "https://dc.lft.to/lastmile_qr_scan"}, "is_reserved": 0}, {"lon": -76.94586366666667, "bike_id": "fd98106b1b705e283f4929b06be7ce76", "lat": 38.90144733333333, "fusion_lon": 0.0, "fusion_lat": 0.0, "type": "electric_scooter", "name": "fd98106b1b705e283f4929b06be7ce76", "is_disabled": 0, "rental_uris": {"ios": "https://dc.lft.to/lastmile_qr_scan", "android": "https://dc.lft.to/lastmile_qr_scan"}, "is_reserved": 0}, {"lon": -76.93191316666666, "bike_id": "716b0615d5628ed5adb9f391cef7f762", "lat": 38.898763833333334, "fusion_lon": 0.0, "fusion_lat": 0.0, "type": "electric_scooter", "name": "716b0615d5628ed5adb9f391cef7f762", "is_disabled": 0, "rental_uris": {"ios": "https://dc.lft.to/lastmile_qr_scan", "android": "https://dc.lft.to/lastmile_qr_scan"}, "is_reserved": 0}, {"lon": -77.0270955, "bike_id": "a763475f717f50c0d3687e5bcda2f6e7", "lat": 38.90422683333333, "fusion_lon": 0.0, "fusion_lat": 0.0, "type": "electric_scooter", "name": "a763475f717f50c0d3687e5bcda2f6e7", "is_disabled": 0, "rental_uris": {"ios": "https://dc.lft.to/lastmile_qr_scan", "android": "https://dc.lft.to/lastmile_qr_scan"}, "is_reserved": 0}, {"lon": -77.02165583333333, "bike_id": "103a76be496c69cff6a1a96ccb12521b", "lat": 38.8974575, "fusion_lon": 0.0, "fusion_lat": 0.0, "type": "electric_scooter", "name": "103a76be496c69cff6a1a96ccb12521b", "is_disabled": 0, "rental_uris": {"ios": "https://dc.lft.to/lastmile_qr_scan", "android": "https://dc.lft.to/lastmile_qr_scan"}, "is_reserved": 0}, {"lon": -77.039957, "bike_id": "4efd1f8198d3d6c489bb4ed459156645", "lat": 38.93425083333333, "fusion_lon": 0.0, "fusion_lat": 0.0, "type": "electric_scooter", "name": "4efd1f8198d3d6c489bb4ed459156645", "is_disabled": 0, "rental_uris": {"ios": "https://dc.lft.to/lastmile_qr_scan", "android": "https://dc.lft.to/lastmile_qr_scan"}, "is_reserved": 0}, {"lon": -76.97395933333334, "bike_id": "be4650c5a8051f5cae6ad1a38051e846", "lat": 38.902936833333335, "fusion_lon": 0.0, "fusion_lat": 0.0, "type": "electric_scooter", "name": "be4650c5a8051f5cae6ad1a38051e846", "is_disabled": 0, "rental_uris": {"ios": "https://dc.lft.to/lastmile_qr_scan", "android": "https://dc.lft.to/lastmile_qr_scan"}, "is_reserved": 0}, {"lon": -77.02391466666667, "bike_id": "62c23f3148ca527085f41d1d77a669e1", "lat": 38.91989233333334, "fusion_lon": 0.0, "fusion_lat": 0.0, "type": "electric_scooter", "name": "62c23f3148ca527085f41d1d77a669e1", "is_disabled": 0, "rental_uris": {"ios": "https://dc.lft.to/lastmile_qr_scan", "android": "https://dc.lft.to/lastmile_qr_scan"}, "is_reserved": 0}, {"lon": -77.0421435, "bike_id": "344f7138a4c102fd68be32327d5a7ec1", "lat": 38.911218166666664, "fusion_lon": 0.0, "fusion_lat": 0.0, "type": "electric_scooter", "name": "344f7138a4c102fd68be32327d5a7ec1", "is_disabled": 0, "rental_uris": {"ios": "https://dc.lft.to/lastmile_qr_scan", "android": "https://dc.lft.to/lastmile_qr_scan"}, "is_reserved": 0}, {"lon": -76.98913183333333, "bike_id": "8250a9b1f97d3e3e00adbadcf0d32e46", "lat": 38.8649325, "fusion_lon": 0.0, "fusion_lat": 0.0, "type": "electric_scooter", "name": "8250a9b1f97d3e3e00adbadcf0d32e46", "is_disabled": 0, "rental_uris": {"ios": "https://dc.lft.to/lastmile_qr_scan", "android": "https://dc.lft.to/lastmile_qr_scan"}, "is_reserved": 0}, {"lon": -77.03037766666667, "bike_id": "89576a969aef92ed998aadc31788f42a", "lat": 38.93713283333334, "fusion_lon": 0.0, "fusion_lat": 0.0, "type": "electric_scooter", "name": "89576a969aef92ed998aadc31788f42a", "is_disabled": 0, "rental_uris": {"ios": "https://dc.lft.to/lastmile_qr_scan", "android": "https://dc.lft.to/lastmile_qr_scan"}, "is_reserved": 0}, {"lon": -77.02713833333334, "bike_id": "c5c63af88af55c5783d6517e3a428c0b", "lat": 38.92284633333333, "fusion_lon": 0.0, "fusion_lat": 0.0, "type": "electric_scooter", "name": "c5c63af88af55c5783d6517e3a428c0b", "is_disabled": 0, "rental_uris": {"ios": "https://dc.lft.to/lastmile_qr_scan", "android": "https://dc.lft.to/lastmile_qr_scan"}, "is_reserved": 0}, {"lon": -77.04336083333334, "bike_id": "06a642e5a5382fa74fd26c63ae4cc11a", "lat": 38.92222666666667, "fusion_lon": 0.0, "fusion_lat": 0.0, "type": "electric_scooter", "name": "06a642e5a5382fa74fd26c63ae4cc11a", "is_disabled": 0, "rental_uris": {"ios": "https://dc.lft.to/lastmile_qr_scan", "android": "https://dc.lft.to/lastmile_qr_scan"}, "is_reserved": 0}, {"lon": -77.0382095, "bike_id": "3841e443363638f75873cb68046d35da", "lat": 38.909745, "fusion_lon": 0.0, "fusion_lat": 0.0, "type": "electric_scooter", "name": "3841e443363638f75873cb68046d35da", "is_disabled": 0, "rental_uris": {"ios": "https://dc.lft.to/lastmile_qr_scan", "android": "https://dc.lft.to/lastmile_qr_scan"}, "is_reserved": 0}, {"lon": -77.04715916666666, "bike_id": "9c7ca8c63ce2600ea4dddb0b05f5747e", "lat": 38.903236666666665, "fusion_lon": 0.0, "fusion_lat": 0.0, "type": "electric_scooter", "name": "9c7ca8c63ce2600ea4dddb0b05f5747e", "is_disabled": 0, "rental_uris": {"ios": "https://dc.lft.to/lastmile_qr_scan", "android": "https://dc.lft.to/lastmile_qr_scan"}, "is_reserved": 0}, {"lon": -77.04465466666667, "bike_id": "5f5074c080aabff9b11a690b4ea6e379", "lat": 38.924352166666665, "fusion_lon": 0.0, "fusion_lat": 0.0, "type": "electric_scooter", "name": "5f5074c080aabff9b11a690b4ea6e379", "is_disabled": 0, "rental_uris": {"ios": "https://dc.lft.to/lastmile_qr_scan", "android": "https://dc.lft.to/lastmile_qr_scan"}, "is_reserved": 0}, {"lon": -77.03866433333333, "bike_id": "05f8ee11fbee6f2c7c69c84b1dfbd944", "lat": 38.9155285, "fusion_lon": 0.0, "fusion_lat": 0.0, "type": "electric_scooter", "name": "05f8ee11fbee6f2c7c69c84b1dfbd944", "is_disabled": 0, "rental_uris": {"ios": "https://dc.lft.to/lastmile_qr_scan", "android": "https://dc.lft.to/lastmile_qr_scan"}, "is_reserved": 0}, {"lon": -77.00279633333334, "bike_id": "9ed33266423997dd5c3d565ea3cf79f9", "lat": 38.95218166666667, "fusion_lon": 0.0, "fusion_lat": 0.0, "type": "electric_bike", "name": "9ed33266423997dd5c3d565ea3cf79f9", "is_disabled": 0, "rental_uris": {"ios": "https://dc.lft.to/lastmile_qr_scan", "android": "https://dc.lft.to/lastmile_qr_scan"}, "is_reserved": 0}, {"lon": -77.08823083333333, "bike_id": "1efd03e0377c10f65ec3a183af1ca5c1", "lat": 38.909797166666664, "fusion_lon": 0.0, "fusion_lat": 0.0, "type": "electric_scooter", "name": "1efd03e0377c10f65ec3a183af1ca5c1", "is_disabled": 0, "rental_uris": {"ios": "https://dc.lft.to/lastmile_qr_scan", "android": "https://dc.lft.to/lastmile_qr_scan"}, "is_reserved": 0}, {"lon": -77.01826783333334, "bike_id": "5064f248ed86546b04836751d79acd32", "lat": 38.901473833333334, "fusion_lon": 0.0, "fusion_lat": 0.0, "type": "electric_scooter", "name": "5064f248ed86546b04836751d79acd32", "is_disabled": 0, "rental_uris": {"ios": "https://dc.lft.to/lastmile_qr_scan", "android": "https://dc.lft.to/lastmile_qr_scan"}, "is_reserved": 0}, {"lon": -77.01720933333333, "bike_id": "473db2f7fc5ca4d33eacd7a128196525", "lat": 38.90970033333333, "fusion_lon": 0.0, "fusion_lat": 0.0, "type": "electric_scooter", "name": "473db2f7fc5ca4d33eacd7a128196525", "is_disabled": 0, "rental_uris": {"ios": "https://dc.lft.to/lastmile_qr_scan", "android": "https://dc.lft.to/lastmile_qr_scan"}, "is_reserved": 0}, {"lon": -77.00211766666666, "bike_id": "c20f10477edd14a7d26b75c3af883c2f", "lat": 38.900394166666665, "fusion_lon": 0.0, "fusion_lat": 0.0, "type": "electric_scooter", "name": "c20f10477edd14a7d26b75c3af883c2f", "is_disabled": 0, "rental_uris": {"ios": "https://dc.lft.to/lastmile_qr_scan", "android": "https://dc.lft.to/lastmile_qr_scan"}, "is_reserved": 0}, {"lon": -77.00141766666667, "bike_id": "f71505556901c8cdb6cc154766f27329", "lat": 38.89468133333333, "fusion_lon": 0.0, "fusion_lat": 0.0, "type": "electric_scooter", "name": "f71505556901c8cdb6cc154766f27329", "is_disabled": 0, "rental_uris": {"ios": "https://dc.lft.to/lastmile_qr_scan", "android": "https://dc.lft.to/lastmile_qr_scan"}, "is_reserved": 0}, {"lon": -76.937539, "bike_id": "4093a8295451f4ed6839e8d642dce59d", "lat": 38.89042533333333, "fusion_lon": 0.0, "fusion_lat": 0.0, "type": "electric_scooter", "name": "4093a8295451f4ed6839e8d642dce59d", "is_disabled": 0, "rental_uris": {"ios": "https://dc.lft.to/lastmile_qr_scan", "android": "https://dc.lft.to/lastmile_qr_scan"}, "is_reserved": 0}, {"lon": -77.02174833333333, "bike_id": "e6940ef1692ea00b095d5bde7cde268b", "lat": 38.915601333333335, "fusion_lon": 0.0, "fusion_lat": 0.0, "type": "electric_scooter", "name": "e6940ef1692ea00b095d5bde7cde268b", "is_disabled": 0, "rental_uris": {"ios": "https://dc.lft.to/lastmile_qr_scan", "android": "https://dc.lft.to/lastmile_qr_scan"}, "is_reserved": 0}, {"lon": -76.9926715, "bike_id": "100a7d90967ea69ecc3ce3f7c369987a", "lat": 38.89760966666667, "fusion_lon": 0.0, "fusion_lat": 0.0, "type": "electric_scooter", "name": "100a7d90967ea69ecc3ce3f7c369987a", "is_disabled": 0, "rental_uris": {"ios": "https://dc.lft.to/lastmile_qr_scan", "android": "https://dc.lft.to/lastmile_qr_scan"}, "is_reserved": 0}, {"lon": -76.9833175, "bike_id": "2758cc9b3f0f15ce8f2151efe4ad8290", "lat": 38.90094416666667, "fusion_lon": 0.0, "fusion_lat": 0.0, "type": "electric_scooter", "name": "2758cc9b3f0f15ce8f2151efe4ad8290", "is_disabled": 0, "rental_uris": {"ios": "https://dc.lft.to/lastmile_qr_scan", "android": "https://dc.lft.to/lastmile_qr_scan"}, "is_reserved": 0}, {"lon": -77.04874066666666, "bike_id": "bd001d2ef347df3df7ab6498ace306cc", "lat": 38.8923075, "fusion_lon": 0.0, "fusion_lat": 0.0, "type": "electric_scooter", "name": "bd001d2ef347df3df7ab6498ace306cc", "is_disabled": 0, "rental_uris": {"ios": "https://dc.lft.to/lastmile_qr_scan", "android": "https://dc.lft.to/lastmile_qr_scan"}, "is_reserved": 0}, {"lon": -77.0295925, "bike_id": "13c58b92652ab311846cf8db24f0f1ee", "lat": 38.906452, "fusion_lon": 0.0, "fusion_lat": 0.0, "type": "electric_scooter", "name": "13c58b92652ab311846cf8db24f0f1ee", "is_disabled": 0, "rental_uris": {"ios": "https://dc.lft.to/lastmile_qr_scan", "android": "https://dc.lft.to/lastmile_qr_scan"}, "is_reserved": 0}, {"lon": -77.04426416666666, "bike_id": "d449112e6ffc1a714441dca7f72447ba", "lat": 38.910038, "fusion_lon": 0.0, "fusion_lat": 0.0, "type": "electric_scooter", "name": "d449112e6ffc1a714441dca7f72447ba", "is_disabled": 0, "rental_uris": {"ios": "https://dc.lft.to/lastmile_qr_scan", "android": "https://dc.lft.to/lastmile_qr_scan"}, "is_reserved": 0}, {"lon": -77.02157383333333, "bike_id": "60b0519f1acc0c78302a921b54a84ef2", "lat": 38.897362666666666, "fusion_lon": 0.0, "fusion_lat": 0.0, "type": "electric_scooter", "name": "60b0519f1acc0c78302a921b54a84ef2", "is_disabled": 0, "rental_uris": {"ios": "https://dc.lft.to/lastmile_qr_scan", "android": "https://dc.lft.to/lastmile_qr_scan"}, "is_reserved": 0}, {"lon": -77.02239116666667, "bike_id": "19559cbdec23f2317ed604584afdb964", "lat": 38.96200016666667, "fusion_lon": 0.0, "fusion_lat": 0.0, "type": "electric_scooter", "name": "19559cbdec23f2317ed604584afdb964", "is_disabled": 0, "rental_uris": {"ios": "https://dc.lft.to/lastmile_qr_scan", "android": "https://dc.lft.to/lastmile_qr_scan"}, "is_reserved": 0}, {"lon": -76.992296, "bike_id": "03b69968494d331dfc147eebd9d402dd", "lat": 38.92213433333333, "fusion_lon": 0.0, "fusion_lat": 0.0, "type": "electric_scooter", "name": "03b69968494d331dfc147eebd9d402dd", "is_disabled": 0, "rental_uris": {"ios": "https://dc.lft.to/lastmile_qr_scan", "android": "https://dc.lft.to/lastmile_qr_scan"}, "is_reserved": 0}, {"lon": -77.03835966666666, "bike_id": "a57753f27843df523cfc99a81fa72c99", "lat": 38.903614166666664, "fusion_lon": 0.0, "fusion_lat": 0.0, "type": "electric_scooter", "name": "a57753f27843df523cfc99a81fa72c99", "is_disabled": 0, "rental_uris": {"ios": "https://dc.lft.to/lastmile_qr_scan", "android": "https://dc.lft.to/lastmile_qr_scan"}, "is_reserved": 0}, {"lon": -77.0281375, "bike_id": "fca9efe8626934a1d7705d79296e171f", "lat": 38.89526016666667, "fusion_lon": 0.0, "fusion_lat": 0.0, "type": "electric_scooter", "name": "fca9efe8626934a1d7705d79296e171f", "is_disabled": 0, "rental_uris": {"ios": "https://dc.lft.to/lastmile_qr_scan", "android": "https://dc.lft.to/lastmile_qr_scan"}, "is_reserved": 0}, {"lon": -77.0318285, "bike_id": "0089d3ea60ccc864d7e9b7797904a631", "lat": 38.89571266666667, "fusion_lon": 0.0, "fusion_lat": 0.0, "type": "electric_scooter", "name": "0089d3ea60ccc864d7e9b7797904a631", "is_disabled": 0, "rental_uris": {"ios": "https://dc.lft.to/lastmile_qr_scan", "android": "https://dc.lft.to/lastmile_qr_scan"}, "is_reserved": 0}, {"lon": -77.02212516666667, "bike_id": "b4fd5466402d3400c7f2125e313bccaf", "lat": 38.9141325, "fusion_lon": 0.0, "fusion_lat": 0.0, "type": "electric_scooter", "name": "b4fd5466402d3400c7f2125e313bccaf", "is_disabled": 0, "rental_uris": {"ios": "https://dc.lft.to/lastmile_qr_scan", "android": "https://dc.lft.to/lastmile_qr_scan"}, "is_reserved": 0}, {"lon": -77.02771766666666, "bike_id": "fcbe907fed1bd5cade8c99d1434303f7", "lat": 38.892223, "fusion_lon": 0.0, "fusion_lat": 0.0, "type": "electric_scooter", "name": "fcbe907fed1bd5cade8c99d1434303f7", "is_disabled": 0, "rental_uris": {"ios": "https://dc.lft.to/lastmile_qr_scan", "android": "https://dc.lft.to/lastmile_qr_scan"}, "is_reserved": 0}, {"lon": -77.08183783333334, "bike_id": "e6accf2a89de37e0b7538fc237e9fcb1", "lat": 38.949641166666666, "fusion_lon": 0.0, "fusion_lat": 0.0, "type": "electric_scooter", "name": "e6accf2a89de37e0b7538fc237e9fcb1", "is_disabled": 0, "rental_uris": {"ios": "https://dc.lft.to/lastmile_qr_scan", "android": "https://dc.lft.to/lastmile_qr_scan"}, "is_reserved": 0}, {"lon": -76.9945785, "bike_id": "aadb643167c504524b942b213eb9e2a7", "lat": 38.96621533333333, "fusion_lon": 0.0, "fusion_lat": 0.0, "type": "electric_bike", "name": "aadb643167c504524b942b213eb9e2a7", "is_disabled": 0, "rental_uris": {"ios": "https://dc.lft.to/lastmile_qr_scan", "android": "https://dc.lft.to/lastmile_qr_scan"}, "is_reserved": 0}, {"lon": -76.9903025, "bike_id": "e474de921ac5abb204f3bb74f817d55e", "lat": 38.898499666666666, "fusion_lon": 0.0, "fusion_lat": 0.0, "type": "electric_scooter", "name": "e474de921ac5abb204f3bb74f817d55e", "is_disabled": 0, "rental_uris": {"ios": "https://dc.lft.to/lastmile_qr_scan", "android": "https://dc.lft.to/lastmile_qr_scan"}, "is_reserved": 0}, {"lon": -77.04328266666667, "bike_id": "43d071c5832c855609bbf82a982e15fe", "lat": 38.90719683333333, "fusion_lon": 0.0, "fusion_lat": 0.0, "type": "electric_scooter", "name": "43d071c5832c855609bbf82a982e15fe", "is_disabled": 0, "rental_uris": {"ios": "https://dc.lft.to/lastmile_qr_scan", "android": "https://dc.lft.to/lastmile_qr_scan"}, "is_reserved": 0}, {"lon": -76.97928333333333, "bike_id": "ae082d18262f56b5ee0a6bbe253115d4", "lat": 38.905002, "fusion_lon": 0.0, "fusion_lat": 0.0, "type": "electric_scooter", "name": "ae082d18262f56b5ee0a6bbe253115d4", "is_disabled": 0, "rental_uris": {"ios": "https://dc.lft.to/lastmile_qr_scan", "android": "https://dc.lft.to/lastmile_qr_scan"}, "is_reserved": 0}, {"lon": -76.9937035, "bike_id": "4bfb73d578ff4f8bbf878cbdb96252df", "lat": 38.879726166666664, "fusion_lon": 0.0, "fusion_lat": 0.0, "type": "electric_scooter", "name": "4bfb73d578ff4f8bbf878cbdb96252df", "is_disabled": 0, "rental_uris": {"ios": "https://dc.lft.to/lastmile_qr_scan", "android": "https://dc.lft.to/lastmile_qr_scan"}, "is_reserved": 0}, {"lon": -77.02723883333333, "bike_id": "ce54a8e6ca7c6ca7bb1817ecda737e2a", "lat": 38.913382666666664, "fusion_lon": 0.0, "fusion_lat": 0.0, "type": "electric_scooter", "name": "ce54a8e6ca7c6ca7bb1817ecda737e2a", "is_disabled": 0, "rental_uris": {"ios": "https://dc.lft.to/lastmile_qr_scan", "android": "https://dc.lft.to/lastmile_qr_scan"}, "is_reserved": 0}, {"lon": -76.99001966666667, "bike_id": "c763c8ab0294198be40edbb07dd6773c", "lat": 38.86508033333333, "fusion_lon": 0.0, "fusion_lat": 0.0, "type": "electric_scooter", "name": "c763c8ab0294198be40edbb07dd6773c", "is_disabled": 0, "rental_uris": {"ios": "https://dc.lft.to/lastmile_qr_scan", "android": "https://dc.lft.to/lastmile_qr_scan"}, "is_reserved": 0}, {"lon": -77.03740216666667, "bike_id": "6f7a1b7096bdda66ca771371618c6f5a", "lat": 38.918071, "fusion_lon": 0.0, "fusion_lat": 0.0, "type": "electric_scooter", "name": "6f7a1b7096bdda66ca771371618c6f5a", "is_disabled": 0, "rental_uris": {"ios": "https://dc.lft.to/lastmile_qr_scan", "android": "https://dc.lft.to/lastmile_qr_scan"}, "is_reserved": 0}, {"lon": -77.02725283333334, "bike_id": "30233b126a28dafd0869e44ea38f576e", "lat": 38.897299833333335, "fusion_lon": 0.0, "fusion_lat": 0.0, "type": "electric_scooter", "name": "30233b126a28dafd0869e44ea38f576e", "is_disabled": 0, "rental_uris": {"ios": "https://dc.lft.to/lastmile_qr_scan", "android": "https://dc.lft.to/lastmile_qr_scan"}, "is_reserved": 0}, {"lon": -77.01502933333333, "bike_id": "84a405974369551d177d2638785b5d10", "lat": 38.926799833333334, "fusion_lon": 0.0, "fusion_lat": 0.0, "type": "electric_scooter", "name": "84a405974369551d177d2638785b5d10", "is_disabled": 0, "rental_uris": {"ios": "https://dc.lft.to/lastmile_qr_scan", "android": "https://dc.lft.to/lastmile_qr_scan"}, "is_reserved": 0}, {"lon": -77.04175133333334, "bike_id": "2d5f7ffd18b1d9e12d307ca0509c42a2", "lat": 38.9198675, "fusion_lon": 0.0, "fusion_lat": 0.0, "type": "electric_scooter", "name": "2d5f7ffd18b1d9e12d307ca0509c42a2", "is_disabled": 0, "rental_uris": {"ios": "https://dc.lft.to/lastmile_qr_scan", "android": "https://dc.lft.to/lastmile_qr_scan"}, "is_reserved": 0}, {"lon": -77.0424135, "bike_id": "18d2de037e638d877231f412f68946ba", "lat": 38.909345, "fusion_lon": 0.0, "fusion_lat": 0.0, "type": "electric_scooter", "name": "18d2de037e638d877231f412f68946ba", "is_disabled": 0, "rental_uris": {"ios": "https://dc.lft.to/lastmile_qr_scan", "android": "https://dc.lft.to/lastmile_qr_scan"}, "is_reserved": 0}, {"lon": -77.04730283333333, "bike_id": "1287326adbd56340af14040ace9a4a0c", "lat": 38.90195083333333, "fusion_lon": 0.0, "fusion_lat": 0.0, "type": "electric_scooter", "name": "1287326adbd56340af14040ace9a4a0c", "is_disabled": 0, "rental_uris": {"ios": "https://dc.lft.to/lastmile_qr_scan", "android": "https://dc.lft.to/lastmile_qr_scan"}, "is_reserved": 0}, {"lon": -77.03262083333334, "bike_id": "3135ba7a82bb082a1525c4dd3c74ec03", "lat": 38.9286595, "fusion_lon": 0.0, "fusion_lat": 0.0, "type": "electric_scooter", "name": "3135ba7a82bb082a1525c4dd3c74ec03", "is_disabled": 0, "rental_uris": {"ios": "https://dc.lft.to/lastmile_qr_scan", "android": "https://dc.lft.to/lastmile_qr_scan"}, "is_reserved": 0}, {"lon": -77.02562883333333, "bike_id": "16d99d7f176e32ee8fa633e2d9f145f2", "lat": 38.93353233333333, "fusion_lon": 0.0, "fusion_lat": 0.0, "type": "electric_scooter", "name": "16d99d7f176e32ee8fa633e2d9f145f2", "is_disabled": 0, "rental_uris": {"ios": "https://dc.lft.to/lastmile_qr_scan", "android": "https://dc.lft.to/lastmile_qr_scan"}, "is_reserved": 0}, {"lon": -77.02118866666666, "bike_id": "92748a96522f2f949dadb7595d14862c", "lat": 38.895134, "fusion_lon": 0.0, "fusion_lat": 0.0, "type": "electric_scooter", "name": "92748a96522f2f949dadb7595d14862c", "is_disabled": 0, "rental_uris": {"ios": "https://dc.lft.to/lastmile_qr_scan", "android": "https://dc.lft.to/lastmile_qr_scan"}, "is_reserved": 0}, {"lon": -76.946333, "bike_id": "f2461761527addabb1257f85a0ce2ef0", "lat": 38.89832833333333, "fusion_lon": 0.0, "fusion_lat": 0.0, "type": "electric_scooter", "name": "f2461761527addabb1257f85a0ce2ef0", "is_disabled": 0, "rental_uris": {"ios": "https://dc.lft.to/lastmile_qr_scan", "android": "https://dc.lft.to/lastmile_qr_scan"}, "is_reserved": 0}, {"lon": -77.07223966666666, "bike_id": "48108d239dc066f451906ffb5709d4cb", "lat": 38.92266083333333, "fusion_lon": 0.0, "fusion_lat": 0.0, "type": "electric_scooter", "name": "48108d239dc066f451906ffb5709d4cb", "is_disabled": 0, "rental_uris": {"ios": "https://dc.lft.to/lastmile_qr_scan", "android": "https://dc.lft.to/lastmile_qr_scan"}, "is_reserved": 0}, {"lon": -77.022465, "bike_id": "3801a558b3f6050d90485f9b7b4008a6", "lat": 38.92897333333333, "fusion_lon": 0.0, "fusion_lat": 0.0, "type": "electric_scooter", "name": "3801a558b3f6050d90485f9b7b4008a6", "is_disabled": 0, "rental_uris": {"ios": "https://dc.lft.to/lastmile_qr_scan", "android": "https://dc.lft.to/lastmile_qr_scan"}, "is_reserved": 0}, {"lon": -76.992045, "bike_id": "ba8313106b4d9b8244ab75b831f01258", "lat": 38.898292833333336, "fusion_lon": 0.0, "fusion_lat": 0.0, "type": "electric_scooter", "name": "ba8313106b4d9b8244ab75b831f01258", "is_disabled": 0, "rental_uris": {"ios": "https://dc.lft.to/lastmile_qr_scan", "android": "https://dc.lft.to/lastmile_qr_scan"}, "is_reserved": 0}, {"lon": -77.00737166666667, "bike_id": "4d112f25da5f5ef240c7b8a1ac43fffb", "lat": 38.870979, "fusion_lon": 0.0, "fusion_lat": 0.0, "type": "electric_scooter", "name": "4d112f25da5f5ef240c7b8a1ac43fffb", "is_disabled": 0, "rental_uris": {"ios": "https://dc.lft.to/lastmile_qr_scan", "android": "https://dc.lft.to/lastmile_qr_scan"}, "is_reserved": 0}, {"lon": -77.03852066666667, "bike_id": "959c27ae1f39563c57f5f19bf0c3501b", "lat": 38.911746666666666, "fusion_lon": 0.0, "fusion_lat": 0.0, "type": "electric_scooter", "name": "959c27ae1f39563c57f5f19bf0c3501b", "is_disabled": 0, "rental_uris": {"ios": "https://dc.lft.to/lastmile_qr_scan", "android": "https://dc.lft.to/lastmile_qr_scan"}, "is_reserved": 0}, {"lon": -77.01531566666667, "bike_id": "237f786804de16ca37f53349730eaa27", "lat": 38.88737966666667, "fusion_lon": 0.0, "fusion_lat": 0.0, "type": "electric_scooter", "name": "237f786804de16ca37f53349730eaa27", "is_disabled": 0, "rental_uris": {"ios": "https://dc.lft.to/lastmile_qr_scan", "android": "https://dc.lft.to/lastmile_qr_scan"}, "is_reserved": 0}, {"lon": -77.03216433333333, "bike_id": "f5b76b8d2e6e4292e3e23324b6282ffd", "lat": 38.918384, "fusion_lon": 0.0, "fusion_lat": 0.0, "type": "electric_scooter", "name": "f5b76b8d2e6e4292e3e23324b6282ffd", "is_disabled": 0, "rental_uris": {"ios": "https://dc.lft.to/lastmile_qr_scan", "android": "https://dc.lft.to/lastmile_qr_scan"}, "is_reserved": 0}, {"lon": -76.96528616666667, "bike_id": "ce919cea3b6eced54a936b1bd4d12c65", "lat": 38.8748215, "fusion_lon": 0.0, "fusion_lat": 0.0, "type": "electric_scooter", "name": "ce919cea3b6eced54a936b1bd4d12c65", "is_disabled": 0, "rental_uris": {"ios": "https://dc.lft.to/lastmile_qr_scan", "android": "https://dc.lft.to/lastmile_qr_scan"}, "is_reserved": 0}, {"lon": -77.03336266666666, "bike_id": "21c9ce84ce48f806809552a8ade53c9a", "lat": 38.898245333333335, "fusion_lon": 0.0, "fusion_lat": 0.0, "type": "electric_scooter", "name": "21c9ce84ce48f806809552a8ade53c9a", "is_disabled": 0, "rental_uris": {"ios": "https://dc.lft.to/lastmile_qr_scan", "android": "https://dc.lft.to/lastmile_qr_scan"}, "is_reserved": 0}, {"lon": -77.0034125, "bike_id": "858c00cc7573d26115a262ef36c6c392", "lat": 38.89189533333333, "fusion_lon": 0.0, "fusion_lat": 0.0, "type": "electric_scooter", "name": "858c00cc7573d26115a262ef36c6c392", "is_disabled": 0, "rental_uris": {"ios": "https://dc.lft.to/lastmile_qr_scan", "android": "https://dc.lft.to/lastmile_qr_scan"}, "is_reserved": 0}, {"lon": -76.98078883333334, "bike_id": "ceae86624c684eb3f03ae28327ad534d", "lat": 38.87935516666667, "fusion_lon": 0.0, "fusion_lat": 0.0, "type": "electric_bike", "name": "ceae86624c684eb3f03ae28327ad534d", "is_disabled": 0, "rental_uris": {"ios": "https://dc.lft.to/lastmile_qr_scan", "android": "https://dc.lft.to/lastmile_qr_scan"}, "is_reserved": 0}, {"lon": -77.02362066666667, "bike_id": "360002a972b32563a873c7a472bdec7d", "lat": 38.9222215, "fusion_lon": 0.0, "fusion_lat": 0.0, "type": "electric_scooter", "name": "360002a972b32563a873c7a472bdec7d", "is_disabled": 0, "rental_uris": {"ios": "https://dc.lft.to/lastmile_qr_scan", "android": "https://dc.lft.to/lastmile_qr_scan"}, "is_reserved": 0}, {"lon": -77.00147416666667, "bike_id": "6866a082d913b182ed5b197c8439fcb6", "lat": 38.910775, "fusion_lon": 0.0, "fusion_lat": 0.0, "type": "electric_scooter", "name": "6866a082d913b182ed5b197c8439fcb6", "is_disabled": 0, "rental_uris": {"ios": "https://dc.lft.to/lastmile_qr_scan", "android": "https://dc.lft.to/lastmile_qr_scan"}, "is_reserved": 0}, {"lon": -76.985397, "bike_id": "d207e349d262bc307ac6bb19bddce215", "lat": 38.903151, "fusion_lon": 0.0, "fusion_lat": 0.0, "type": "electric_scooter", "name": "d207e349d262bc307ac6bb19bddce215", "is_disabled": 0, "rental_uris": {"ios": "https://dc.lft.to/lastmile_qr_scan", "android": "https://dc.lft.to/lastmile_qr_scan"}, "is_reserved": 0}, {"lon": -77.03191633333333, "bike_id": "1bd0b359c7bbc72ded10096ff4723289", "lat": 38.897631833333335, "fusion_lon": 0.0, "fusion_lat": 0.0, "type": "electric_scooter", "name": "1bd0b359c7bbc72ded10096ff4723289", "is_disabled": 0, "rental_uris": {"ios": "https://dc.lft.to/lastmile_qr_scan", "android": "https://dc.lft.to/lastmile_qr_scan"}, "is_reserved": 0}, {"lon": -77.11707716666666, "bike_id": "e7528bdfc3e4ceef9acf3549e4f5d93e", "lat": 38.867439833333336, "fusion_lon": 0.0, "fusion_lat": 0.0, "type": "electric_bike", "name": "e7528bdfc3e4ceef9acf3549e4f5d93e", "is_disabled": 0, "rental_uris": {"ios": "https://dc.lft.to/lastmile_qr_scan", "android": "https://dc.lft.to/lastmile_qr_scan"}, "is_reserved": 0}, {"lon": -77.0321975, "bike_id": "59f795a0ca215160ce9ca90d1bbabbcb", "lat": 38.907328, "fusion_lon": 0.0, "fusion_lat": 0.0, "type": "electric_scooter", "name": "59f795a0ca215160ce9ca90d1bbabbcb", "is_disabled": 0, "rental_uris": {"ios": "https://dc.lft.to/lastmile_qr_scan", "android": "https://dc.lft.to/lastmile_qr_scan"}, "is_reserved": 0}, {"lon": -77.04053683333333, "bike_id": "718e42aa505ee4b58bcd437869536552", "lat": 38.92877766666667, "fusion_lon": 0.0, "fusion_lat": 0.0, "type": "electric_scooter", "name": "718e42aa505ee4b58bcd437869536552", "is_disabled": 0, "rental_uris": {"ios": "https://dc.lft.to/lastmile_qr_scan", "android": "https://dc.lft.to/lastmile_qr_scan"}, "is_reserved": 0},