{"data": {"bikes": [{"name": "bfdabd0e901a1ca3c46f0dee38e39e9e", "fusion_lat": 0.0, "fusion_lon": 0.0, "bike_id": "bfdabd0e901a1ca3c46f0dee38e39e9e", "rental_uris": {"ios": "https://dc.lft.to/lastmile_qr_scan", "android": "https://dc.lft.to/lastmile_qr_scan"}, "type": "electric_bike", "lat": 38.91004616666667, "is_disabled": 0, "lon": -76.98422216666667, "is_reserved": 0}, {"name": "a5cb0ec92367137137c384b5eac60c56", "fusion_lat": 0.0, "fusion_lon": 0.0, "bike_id": "a5cb0ec92367137137c384b5eac60c56", "rental_uris": {"ios": "https://dc.lft.to/lastmile_qr_scan", "android": "https://dc.lft.to/lastmile_qr_scan"}, "type": "electric_scooter", "lat": 38.942016, "is_disabled": 0, "lon": -77.02590866666667, "is_reserved": 0}, {"name": "f62fff25defe9a1317f88e9247113cf3", "fusion_lat": 0.0, "fusion_lon": 0.0, "bike_id": "f62fff25defe9a1317f88e9247113cf3", "rental_uris": {"ios": "https://dc.lft.to/lastmile_qr_scan", "android": "https://dc.lft.to/lastmile_qr_scan"}, "type": "electric_scooter", "lat": 38.9131235, "is_disabled": 0, "lon": -76.98658366666666, "is_reserved": 0}, {"name": "6648fdee34a32f1315f8a9e4e097f913", "fusion_lat": 0.0, "fusion_lon": 0.0, "bike_id": "6648fdee34a32f1315f8a9e4e097f913", "rental_uris": {"ios": "https://dc.lft.to/lastmile_qr_scan", "android": "https://dc.lft.to/lastmile_qr_scan"}, "type": "electric_scooter", "lat": 38.90284616666667, "is_disabled": 0, "lon": -77.00205, "is_reserved": 0}, {"name": "dd33cba756ba8f235a74ae9c19fdbe97", "fusion_lat": 0.0, "fusion_lon": 0.0, "bike_id": "dd33cba756ba8f235a74ae9c19fdbe97", "rental_uris": {"ios": "https://dc.lft.to/lastmile_qr_scan", "android": "https://dc.lft.to/lastmile_qr_scan"}, "type": "electric_scooter", "lat": 38.8989865, "is_disabled": 0, "lon": -76.99346016666667, "is_reserved": 0}, {"name": "256712f4c42cde4b8ec737d3ac0868f0", "fusion_lat": 0.0, "fusion_lon": 0.0, "bike_id": "256712f4c42cde4b8ec737d3ac0868f0", "rental_uris": {"ios": "https://dc.lft.to/lastmile_qr_scan", "android": "https://dc.lft.to/lastmile_qr_scan"}, "type": "electric_scooter", "lat": 38.9046395, "is_disabled": 0, "lon": -77.02816283333334, "is_reserved": 0}, {"name": "a95b02b425a0c33eefb303d1a8306146", "fusion_lat": 0.0, "fusion_lon": 0.0, "bike_id": "a95b02b425a0c33eefb303d1a8306146", "rental_uris": {"ios": "https://dc.lft.to/lastmile_qr_scan", "android": "https://dc.lft.to/lastmile_qr_scan"}, "type": "electric_scooter", "lat": 38.87838983333333, "is_disabled": 0, "lon": -77.0228005, "is_reserved": 0}, {"name": "3956db7b2436bc970e75e9aa35949fc8", "fusion_lat": 0.0, "fusion_lon": 0.0, "bike_id": "3956db7b2436bc970e75e9aa35949fc8", "rental_uris": {"ios": "https://dc.lft.to/lastmile_qr_scan", "android": "https://dc.lft.to/lastmile_qr_scan"}, "type": "electric_scooter", "lat": 38.910364666666666, "is_disabled": 0, "lon": -77.03199333333333, "is_reserved": 0}, {"name": "9c1b08427bc80658d87bc280acd13657", "fusion_lat": 0.0, "fusion_lon": 0.0, "bike_id": "9c1b08427bc80658d87bc280acd13657", "rental_uris": {"ios": "https://dc.lft.to/lastmile_qr_scan", "android": "https://dc.lft.to/lastmile_qr_scan"}, "type": "electric_scooter", "lat": 38.918485, "is_disabled": 0, "lon": -77.03533283333333, "is_reserved": 0}, {"name": "b2267ce27bff4c84b44374ad68b23306", "fusion_lat": 0.0, "fusion_lon": 0.0, "bike_id": "b2267ce27bff4c84b44374ad68b23306", "rental_uris": {"ios": "https://dc.lft.to/lastmile_qr_scan", "android": "https://dc.lft.to/lastmile_qr_scan"}, "type": "electric_scooter", "lat": 38.9176835, "is_disabled": 0, "lon": -77.03421283333333, "is_reserved": 0}, {"name": "92a5522cacebd129f786b0c17dc443bf", "fusion_lat": 0.0, "fusion_lon": 0.0, "bike_id": "92a5522cacebd129f786b0c17dc443bf", "rental_uris": {"ios": "https://dc.lft.to/lastmile_qr_scan", "android": "https://dc.lft.to/lastmile_qr_scan"}, "type": "electric_scooter", "lat": 38.909658, "is_disabled": 0, "lon": -77.03091483333333, "is_reserved": 0}, {"name": "7b6014f64ddcea384ece7121a50fe0da", "fusion_lat": 0.0, "fusion_lon": 0.0, "bike_id": "7b6014f64ddcea384ece7121a50fe0da", "rental_uris": {"ios": "https://dc.lft.to/lastmile_qr_scan", "android": "https://dc.lft.to/lastmile_qr_scan"}, "type": "electric_scooter", "lat": 38.9036365, "is_disabled": 0, "lon": -77.03578416666667, "is_reserved": 0}, {"name": "f5ce05d7467335ef5fb43cd7d4880a6e", "fusion_lat": 0.0, "fusion_lon": 0.0, "bike_id": "f5ce05d7467335ef5fb43cd7d4880a6e", "rental_uris": {"ios": "https://dc.lft.to/lastmile_qr_scan", "android": "https://dc.lft.to/lastmile_qr_scan"}, "type": "electric_scooter", "lat": 38.910397333333336, "is_disabled": 0, "lon": -77.04011966666667, "is_reserved": 0}, {"name": "b4733dbd7f73d026f004b671bcd2bdc7", "fusion_lat": 0.0, "fusion_lon": 0.0, "bike_id": "b4733dbd7f73d026f004b671bcd2bdc7", "rental_uris": {"ios": "https://dc.lft.to/lastmile_qr_scan", "android": "https://dc.lft.to/lastmile_qr_scan"}, "type": "electric_scooter", "lat": 38.858062, "is_disabled": 0, "lon": -76.986551, "is_reserved": 0}, {"name": "b83e6970dff9faad267e2b86cb2c3631", "fusion_lat": 0.0, "fusion_lon": 0.0, "bike_id": "b83e6970dff9faad267e2b86cb2c3631", "rental_uris": {"ios": "https://dc.lft.to/lastmile_qr_scan", "android": "https://dc.lft.to/lastmile_qr_scan"}, "type": "electric_scooter", "lat": 38.92836916666667, "is_disabled": 0, "lon": -77.03623616666667, "is_reserved": 0}, {"name": "1db18369b2ec40e76811952022087944", "fusion_lat": 0.0, "fusion_lon": 0.0, "bike_id": "1db18369b2ec40e76811952022087944", "rental_uris": {"ios": "https://dc.lft.to/lastmile_qr_scan", "android": "https://dc.lft.to/lastmile_qr_scan"}, "type": "electric_bike", "lat": 38.9016675, "is_disabled": 0, "lon": -77.043418, "is_reserved": 0}, {"name": "3e0e3e93bcfe172e1513498fefad9840", "fusion_lat": 0.0, "fusion_lon": 0.0, "bike_id": "3e0e3e93bcfe172e1513498fefad9840", "rental_uris": {"ios": "https://dc.lft.to/lastmile_qr_scan", "android": "https://dc.lft.to/lastmile_qr_scan"}, "type": "electric_scooter", "lat": 38.9111715, "is_disabled": 0, "lon": -77.04091216666667, "is_reserved": 0}, {"name": "0e7f96258e7c280882dd87401998da1e", "fusion_lat": 0.0, "fusion_lon": 0.0, "bike_id": "0e7f96258e7c280882dd87401998da1e", "rental_uris": {"ios": "https://dc.lft.to/lastmile_qr_scan", "android": "https://dc.lft.to/lastmile_qr_scan"}, "type": "electric_scooter", "lat": 38.8758585, "is_disabled": 0, "lon": -77.00685116666666, "is_reserved": 0}, {"name": "97458ff6d2a199fec701ae345e390cc7", "fusion_lat": 0.0, "fusion_lon": 0.0, "bike_id": "97458ff6d2a199fec701ae345e390cc7", "rental_uris": {"ios": "https://dc.lft.to/lastmile_qr_scan", "android": "https://dc.lft.to/lastmile_qr_scan"}, "type": "electric_bike", "lat": 38.93670483333333, "is_disabled": 0, "lon": -76.95497616666667, "is_reserved": 0}, {"name": "65b3183dab7d9a88e49120b89b42d5e7", "fusion_lat": 0.0, "fusion_lon": 0.0, "bike_id": "65b3183dab7d9a88e49120b89b42d5e7", "rental_uris": {"ios": "https://dc.lft.to/lastmile_qr_scan", "android": "https://dc.lft.to/lastmile_qr_scan"}, "type": "electric_scooter", "lat": 38.9261465, "is_disabled": 0, "lon": -77.02171666666666, "is_reserved": 0}, {"name": "8182aba59d6d97f3c49c3d68858b6cfd", "fusion_lat": 0.0, "fusion_lon": 0.0, "bike_id": "8182aba59d6d97f3c49c3d68858b6cfd", "rental_uris": {"ios": "https://dc.lft.to/lastmile_qr_scan", "android": "https://dc.lft.to/lastmile_qr_scan"}, "type": "electric_scooter", "lat": 38.91861983333333, "is_disabled": 0, "lon": -77.04160683333333, "is_reserved": 0}, {"name": "936f97a31126910df99674741b599988", "fusion_lat": 0.0, "fusion_lon": 0.0, "bike_id": "936f97a31126910df99674741b599988", "rental_uris": {"ios": "https://dc.lft.to/lastmile_qr_scan", "android": "https://dc.lft.to/lastmile_qr_scan"}, "type": "electric_scooter", "lat": 38.905498333333334, "is_disabled": 0, "lon": -77.04991766666667, "is_reserved": 0}, {"name": "d8bbabd67690f85f72066e4977a8fe24", "fusion_lat": 0.0, "fusion_lon": 0.0, "bike_id": "d8bbabd67690f85f72066e4977a8fe24", "rental_uris": {"ios": "https://dc.lft.to/lastmile_qr_scan", "android": "https://dc.lft.to/lastmile_qr_scan"}, "type": "electric_scooter", "lat": 38.921644666666666, "is_disabled": 0, "lon": -77.0469115, "is_reserved": 0}, {"name": "493e5661bea474cefb10ccd74c5fb917", "fusion_lat": 0.0, "fusion_lon": 0.0, "bike_id": "493e5661bea474cefb10ccd74c5fb917", "rental_uris": {"ios": "https://dc.lft.to/lastmile_qr_scan", "android": "https://dc.lft.to/lastmile_qr_scan"}, "type": "electric_scooter", "lat": 38.90494866666667, "is_disabled": 0, "lon": -77.03580916666667, "is_reserved": 0}, {"name": "9b761f3dbc9788a41f8b9221bd79e829", "fusion_lat": 0.0, "fusion_lon": 0.0, "bike_id": "9b761f3dbc9788a41f8b9221bd79e829", "rental_uris": {"ios": "https://dc.lft.to/lastmile_qr_scan", "android": "https://dc.lft.to/lastmile_qr_scan"}, "type": "electric_scooter", "lat": 38.91585533333333, "is_disabled": 0, "lon": -77.0500305, "is_reserved": 0}, {"name": "0126ead149b97baebbbdecdf98c5a57d", "fusion_lat": 0.0, "fusion_lon": 0.0, "bike_id": "0126ead149b97baebbbdecdf98c5a57d", "rental_uris": {"ios": "https://dc.lft.to/lastmile_qr_scan", "android": "https://dc.lft.to/lastmile_qr_scan"}, "type": "electric_scooter", "lat": 38.93177416666666, "is_disabled": 0, "lon": -77.036436, "is_reserved": 0}, {"name": "ece07afb43343dcf9cbfe23052dd3f39", "fusion_lat": 0.0, "fusion_lon": 0.0, "bike_id": "ece07afb43343dcf9cbfe23052dd3f39", "rental_uris": {"ios": "https://dc.lft.to/lastmile_qr_scan", "android": "https://dc.lft.to/lastmile_qr_scan"}, "type": "electric_scooter", "lat": 38.8849415, "is_disabled": 0, "lon": -77.01610183333334, "is_reserved": 0}, {"name": "5e0ca6ecef74b65428a512f8fd778098", "fusion_lat": 0.0, "fusion_lon": 0.0, "bike_id": "5e0ca6ecef74b65428a512f8fd778098", "rental_uris": {"ios": "https://dc.lft.to/lastmile_qr_scan", "android": "https://dc.lft.to/lastmile_qr_scan"}, "type": "electric_scooter", "lat": 38.880525666666664, "is_disabled": 0, "lon": -77.00539333333333, "is_reserved": 0}, {"name": "476940725427a2f158f941bc21dfbcb6", "fusion_lat": 0.0, "fusion_lon": 0.0, "bike_id": "476940725427a2f158f941bc21dfbcb6", "rental_uris": {"ios": "https://dc.lft.to/lastmile_qr_scan", "android": "https://dc.lft.to/lastmile_qr_scan"}, "type": "electric_scooter", "lat": 38.888063333333335, "is_disabled": 0, "lon": -76.93360883333334, "is_reserved": 0}, {"name": "0200e83fcda4407bbbdca129a8870050", "fusion_lat": 0.0, "fusion_lon": 0.0, "bike_id": "0200e83fcda4407bbbdca129a8870050", "rental_uris": {"ios": "https://dc.lft.to/lastmile_qr_scan", "android": "https://dc.lft.to/lastmile_qr_scan"}, "type": "electric_bike", "lat": 38.94577683333333, "is_disabled": 0, "lon": -76.987754, "is_reserved": 0}, {"name": "9a5eeb4fa98876a1c3b62ac7912054ea", "fusion_lat": 0.0, "fusion_lon": 0.0, "bike_id": "9a5eeb4fa98876a1c3b62ac7912054ea", "rental_uris": {"ios": "https://dc.lft.to/lastmile_qr_scan", "android": "https://dc.lft.to/lastmile_qr_scan"}, "type": "electric_scooter", "lat": 38.8462045, "is_disabled": 0, "lon": -76.9963175, "is_reserved": 0}, {"name": "73962ed15bb614a25ae853f8c1cc5a9a", "fusion_lat": 0.0, "fusion_lon": 0.0, "bike_id": "73962ed15bb614a25ae853f8c1cc5a9a", "rental_uris": {"ios": "https://dc.lft.to/lastmile_qr_scan", "android": "https://dc.lft.to/lastmile_qr_scan"}, "type": "electric_scooter", "lat": 38.9080975, "is_disabled": 0, "lon": -77.03870133333334, "is_reserved": 0}, {"name": "b6ff5552cee20c323dcdb0bba6d30ad6", "fusion_lat": 0.0, "fusion_lon": 0.0, "bike_id": "b6ff5552cee20c323dcdb0bba6d30ad6", "rental_uris": {"ios": "https://dc.lft.to/lastmile_qr_scan", "android": "https://dc.lft.to/lastmile_qr_scan"}, "type": "electric_scooter", "lat": 38.90775766666667, "is_disabled": 0, "lon": -77.02814083333334, "is_reserved": 0}, {"name": "2e81f5c1f674ec015929a0f6cdc8c05b", "fusion_lat": 0.0, "fusion_lon": 0.0, "bike_id": "2e81f5c1f674ec015929a0f6cdc8c05b", "rental_uris": {"ios": "https://dc.lft.to/lastmile_qr_scan", "android": "https://dc.lft.to/lastmile_qr_scan"}, "type": "electric_scooter", "lat": 38.876273166666664, "is_disabled": 0, "lon": -76.96525733333333, "is_reserved": 0}, {"name": "c245bddc274e5a5d422dec32837f2fe1", "fusion_lat": 0.0, "fusion_lon": 0.0, "bike_id": "c245bddc274e5a5d422dec32837f2fe1", "rental_uris": {"ios": "https://dc.lft.to/lastmile_qr_scan", "android": "https://dc.lft.to/lastmile_qr_scan"}, "type": "electric_scooter", "lat": 38.8922945, "is_disabled": 0, "lon": -77.04371783333333, "is_reserved": 0}, {"name": "c7911a01f284c34df06d76bb51327947", "fusion_lat": 0.0, "fusion_lon": 0.0, "bike_id": "c7911a01f284c34df06d76bb51327947", "rental_uris": {"ios": "https://dc.lft.to/lastmile_qr_scan", "android": "https://dc.lft.to/lastmile_qr_scan"}, "type": "electric_scooter", "lat": 38.925787666666665, "is_disabled": 0, "lon": -76.99492866666667, "is_reserved": 0}, {"name": "93e3ee1b3df31d2486e24f9425c790b3", "fusion_lat": 0.0, "fusion_lon": 0.0, "bike_id": "93e3ee1b3df31d2486e24f9425c790b3", "rental_uris": {"ios": "https://dc.lft.to/lastmile_qr_scan", "android": "https://dc.lft.to/lastmile_qr_scan"}, "type": "electric_scooter", "lat": 38.9022055, "is_disabled": 0, "lon": -77.02366866666667, "is_reserved": 0}, {"name": "9afc61484cce41bfbdb712da2188b0e7", "fusion_lat": 0.0, "fusion_lon": 0.0, "bike_id": "9afc61484cce41bfbdb712da2188b0e7", "rental_uris": {"ios": "https://dc.lft.to/lastmile_qr_scan", "android": "https://dc.lft.to/lastmile_qr_scan"}, "type": "electric_scooter", "lat": 38.894757, "is_disabled": 0, "lon": -77.00132366666666, "is_reserved": 0}, {"name": "21bf16be2a04332d580359743162e8b0", "fusion_lat": 0.0, "fusion_lon": 0.0, "bike_id": "21bf16be2a04332d580359743162e8b0", "rental_uris": {"ios": "https://dc.lft.to/lastmile_qr_scan", "android": "https://dc.lft.to/lastmile_qr_scan"}, "type": "electric_scooter", "lat": 38.917302166666666, "is_disabled": 0, "lon": -77.03620833333333, "is_reserved": 0}, {"name": "6bd111ca2fa3e3bbd214cdb1346905a8", "fusion_lat": 0.0, "fusion_lon": 0.0, "bike_id": "6bd111ca2fa3e3bbd214cdb1346905a8", "rental_uris": {"ios": "https://dc.lft.to/lastmile_qr_scan", "android": "https://dc.lft.to/lastmile_qr_scan"}, "type": "electric_scooter", "lat": 38.87862366666667, "is_disabled": 0, "lon": -77.0162265, "is_reserved": 0}, {"name": "791acc944655a3b19025786a5b4609ce", "fusion_lat": 0.0, "fusion_lon": 0.0, "bike_id": "791acc944655a3b19025786a5b4609ce", "rental_uris": {"ios": "https://dc.lft.to/lastmile_qr_scan", "android": "https://dc.lft.to/lastmile_qr_scan"}, "type": "electric_bike", "lat": 38.909828166666664, "is_disabled": 0, "lon": -76.9972435, "is_reserved": 0}, {"name": "413a940e765c00fb4f32c33b7bd1020a", "fusion_lat": 0.0, "fusion_lon": 0.0, "bike_id": "413a940e765c00fb4f32c33b7bd1020a", "rental_uris": {"ios": "https://dc.lft.to/lastmile_qr_scan", "android": "https://dc.lft.to/lastmile_qr_scan"}, "type": "electric_bike", "lat": 38.89050366666667, "is_disabled": 0, "lon": -76.937395, "is_reserved": 0}, {"name": "d07f476ba33ca36df9a4af70651e43e5", "fusion_lat": 0.0, "fusion_lon": 0.0, "bike_id": "d07f476ba33ca36df9a4af70651e43e5", "rental_uris": {"ios": "https://dc.lft.to/lastmile_qr_scan", "android": "https://dc.lft.to/lastmile_qr_scan"}, "type": "electric_scooter", "lat": 38.9199575, "is_disabled": 0, "lon": -77.02543016666667, "is_reserved": 0}, {"name": "20cc31f08f28921b140b2602b35f5804", "fusion_lat": 0.0, "fusion_lon": 0.0, "bike_id": "20cc31f08f28921b140b2602b35f5804", "rental_uris": {"ios": "https://dc.lft.to/lastmile_qr_scan", "android": "https://dc.lft.to/lastmile_qr_scan"}, "type": "electric_scooter", "lat": 38.87916333333333, "is_disabled": 0, "lon": -77.004821, "is_reserved": 0}, {"name": "754a535a1e5e517c3c1a0536d20d1d4e", "fusion_lat": 0.0, "fusion_lon": 0.0, "bike_id": "754a535a1e5e517c3c1a0536d20d1d4e", "rental_uris": {"ios": "https://dc.lft.to/lastmile_qr_scan", "android": "https://dc.lft.to/lastmile_qr_scan"}, "type": "electric_scooter", "lat": 38.8957965, "is_disabled": 0, "lon": -77.02655683333333, "is_reserved": 0}, {"name": "8ef539e67003a9c25e5d3b177a4268d3", "fusion_lat": 0.0, "fusion_lon": 0.0, "bike_id": "8ef539e67003a9c25e5d3b177a4268d3", "rental_uris": {"ios": "https://dc.lft.to/lastmile_qr_scan", "android": "https://dc.lft.to/lastmile_qr_scan"}, "type": "electric_scooter", "lat": 38.917141666666666, "is_disabled": 0, "lon": -77.04025183333333, "is_reserved": 0}, {"name": "7b9e74c4136e1247d47357d63ea754c5", "fusion_lat": 0.0, "fusion_lon": 0.0, "bike_id": "7b9e74c4136e1247d47357d63ea754c5", "rental_uris": {"ios": "https://dc.lft.to/lastmile_qr_scan", "android": "https://dc.lft.to/lastmile_qr_scan"}, "type": "electric_scooter", "lat": 38.92603283333333, "is_disabled": 0, "lon": -77.0215665, "is_reserved": 0}, {"name": "1bf50c66232a6c8c73d74f684cf40ffb", "fusion_lat": 0.0, "fusion_lon": 0.0, "bike_id": "1bf50c66232a6c8c73d74f684cf40ffb", "rental_uris": {"ios": "https://dc.lft.to/lastmile_qr_scan", "android": "https://dc.lft.to/lastmile_qr_scan"}, "type": "electric_scooter", "lat": 38.916911166666665, "is_disabled": 0, "lon": -77.025979, "is_reserved": 0}, {"name": "4d47167d950dae94ef61f2d7fac268ec", "fusion_lat": 0.0, "fusion_lon": 0.0, "bike_id": "4d47167d950dae94ef61f2d7fac268ec", "rental_uris": {"ios": "https://dc.lft.to/lastmile_qr_scan", "android": "https://dc.lft.to/lastmile_qr_scan"}, "type": "electric_bike", "lat": 39.00786566666667, "is_disabled": 0, "lon": -76.99570366666667, "is_reserved": 0}, {"name": "9853ed46059aee71cf7a096d49f76303", "fusion_lat": 0.0, "fusion_lon": 0.0, "bike_id": "9853ed46059aee71cf7a096d49f76303", "rental_uris": {"ios": "https://dc.lft.to/lastmile_qr_scan", "android": "https://dc.lft.to/lastmile_qr_scan"}, "type": "electric_scooter", "lat": 38.90660716666667, "is_disabled": 0, "lon": -77.04533816666667, "is_reserved": 0}, {"name": "b5719d1a06ac2b2f1c9f933ac73546e2", "fusion_lat": 0.0, "fusion_lon": 0.0, "bike_id": "b5719d1a06ac2b2f1c9f933ac73546e2", "rental_uris": {"ios": "https://dc.lft.to/lastmile_qr_scan", "android": "https://dc.lft.to/lastmile_qr_scan"}, "type": "electric_scooter", "lat": 38.86701133333333, "is_disabled": 0, "lon": -76.98710316666667, "is_reserved": 0}, {"name": "a1253c2d38272eb6683e4bdf75daa73d", "fusion_lat": 0.0, "fusion_lon": 0.0, "bike_id": "a1253c2d38272eb6683e4bdf75daa73d", "rental_uris": {"ios": "https://dc.lft.to/lastmile_qr_scan", "android": "https://dc.lft.to/lastmile_qr_scan"}, "type": "electric_scooter", "lat": 38.91957216666667, "is_disabled": 0, "lon": -77.03207766666667, "is_reserved": 0}, {"name": "8c6646f1c4736521bea1a32d4eaad735", "fusion_lat": 0.0, "fusion_lon": 0.0, "bike_id": "8c6646f1c4736521bea1a32d4eaad735", "rental_uris": {"ios": "https://dc.lft.to/lastmile_qr_scan", "android": "https://dc.lft.to/lastmile_qr_scan"}, "type": "electric_scooter", "lat": 38.925814, "is_disabled": 0, "lon": -77.0320775, "is_reserved": 0}, {"name": "ed00d0c0c5a6b9d09b9a1e29248d058c", "fusion_lat": 0.0, "fusion_lon": 0.0, "bike_id": "ed00d0c0c5a6b9d09b9a1e29248d058c", "rental_uris": {"ios": "https://dc.lft.to/lastmile_qr_scan", "android": "https://dc.lft.to/lastmile_qr_scan"}, "type": "electric_scooter", "lat": 38.8921585, "is_disabled": 0, "lon": -76.988703, "is_reserved": 0}, {"name": "6381b5a812672cde14424a83b5eba0a9", "fusion_lat": 0.0, "fusion_lon": 0.0, "bike_id": "6381b5a812672cde14424a83b5eba0a9", "rental_uris": {"ios": "https://dc.lft.to/lastmile_qr_scan", "android": "https://dc.lft.to/lastmile_qr_scan"}, "type": "electric_scooter", "lat": 38.9177045, "is_disabled": 0, "lon": -77.02948816666667, "is_reserved": 0}, {"name": "c0b0833102d9227b0940aba989f576fe", "fusion_lat": 0.0, "fusion_lon": 0.0, "bike_id": "c0b0833102d9227b0940aba989f576fe", "rental_uris": {"ios": "https://dc.lft.to/lastmile_qr_scan", "android": "https://dc.lft.to/lastmile_qr_scan"}, "type": "electric_scooter", "lat": 38.884838, "is_disabled": 0, "lon": -77.01605233333333, "is_reserved": 0}, {"name": "1f3b299d8bf64bcd8492677f1d017e7c", "fusion_lat": 0.0, "fusion_lon": 0.0, "bike_id": "1f3b299d8bf64bcd8492677f1d017e7c", "rental_uris": {"ios": "https://dc.lft.to/lastmile_qr_scan", "android": "https://dc.lft.to/lastmile_qr_scan"}, "type": "electric_scooter", "lat": 38.92057333333333, "is_disabled": 0, "lon": -76.97807883333333, "is_reserved": 0}, {"name": "c3d3e3d821dc43517ac566ea64fbff48", "fusion_lat": 0.0, "fusion_lon": 0.0, "bike_id": "c3d3e3d821dc43517ac566ea64fbff48", "rental_uris": {"ios": "https://dc.lft.to/lastmile_qr_scan", "android": "https://dc.lft.to/lastmile_qr_scan"}, "type": "electric_scooter", "lat": 38.9097165, "is_disabled": 0, "lon": -77.03263266666667, "is_reserved": 0}, {"name": "32ee29bb7c66d7f1a95a951541007ac1", "fusion_lat": 0.0, "fusion_lon": 0.0, "bike_id": "32ee29bb7c66d7f1a95a951541007ac1", "rental_uris": {"ios": "https://dc.lft.to/lastmile_qr_scan", "android": "https://dc.lft.to/lastmile_qr_scan"}, "type": "electric_scooter", "lat": 38.904641, "is_disabled": 0, "lon": -77.02807483333333, "is_reserved": 0}, {"name": "9a89dd88ce65c88ba7c5837dfb4a6edf", "fusion_lat": 0.0, "fusion_lon": 0.0, "bike_id": "9a89dd88ce65c88ba7c5837dfb4a6edf", "rental_uris": {"ios": "https://dc.lft.to/lastmile_qr_scan", "android": "https://dc.lft.to/lastmile_qr_scan"}, "type": "electric_bike", "lat": 38.884081333333334, "is_disabled": 0, "lon": -77.03085983333334, "is_reserved": 0}, {"name": "04e2f13b49861cd6dc8cc2c15f8ff54e", "fusion_lat": 0.0, "fusion_lon": 0.0, "bike_id": "04e2f13b49861cd6dc8cc2c15f8ff54e", "rental_uris": {"ios": "https://dc.lft.to/lastmile_qr_scan", "android": "https://dc.lft.to/lastmile_qr_scan"}, "type": "electric_scooter", "lat": 38.928135, "is_disabled": 0, "lon": -77.01384233333333, "is_reserved": 0}, {"name": "5010348bab65ff94ac9e151063f7536d", "fusion_lat": 0.0, "fusion_lon": 0.0, "bike_id": "5010348bab65ff94ac9e151063f7536d", "rental_uris": {"ios": "https://dc.lft.to/lastmile_qr_scan", "android": "https://dc.lft.to/lastmile_qr_scan"}, "type": "electric_scooter", "lat": 38.88329133333333, "is_disabled": 0, "lon": -77.01763866666667, "is_reserved": 0}, {"name": "477df978b23439160ade81b5d8547fa8", "fusion_lat": 0.0, "fusion_lon": 0.0, "bike_id": "477df978b23439160ade81b5d8547fa8", "rental_uris": {"ios": "https://dc.lft.to/lastmile_qr_scan", "android": "https://dc.lft.to/lastmile_qr_scan"}, "type": "electric_scooter", "lat": 38.886103, "is_disabled": 0, "lon": -76.99655283333334, "is_reserved": 0}, {"name": "1d136e0431ce8f9d31c66b3acf0a9e09", "fusion_lat": 0.0, "fusion_lon": 0.0, "bike_id": "1d136e0431ce8f9d31c66b3acf0a9e09", "rental_uris": {"ios": "https://dc.lft.to/lastmile_qr_scan", "android": "https://dc.lft.to/lastmile_qr_scan"}, "type": "electric_bike", "lat": 38.84605616666666, "is_disabled": 0, "lon": -76.96880066666667, "is_reserved": 0}, {"name": "8b4df77b2f35779d1781aebe68674efc", "fusion_lat": 0.0, "fusion_lon": 0.0, "bike_id": "8b4df77b2f35779d1781aebe68674efc", "rental_uris": {"ios": "https://dc.lft.to/lastmile_qr_scan", "android": "https://dc.lft.to/lastmile_qr_scan"}, "type": "electric_scooter", "lat": 38.918423833333335, "is_disabled": 0, "lon": -76.96558683333333, "is_reserved": 0}, {"name": "77d7234a93bfab5c573c7cf36fdd0b5e", "fusion_lat": 0.0, "fusion_lon": 0.0, "bike_id": "77d7234a93bfab5c573c7cf36fdd0b5e", "rental_uris": {"ios": "https://dc.lft.to/lastmile_qr_scan", "android": "https://dc.lft.to/lastmile_qr_scan"}, "type": "electric_scooter", "lat": 38.920942833333335, "is_disabled": 0, "lon": -77.02206466666667, "is_reserved": 0}, {"name": "3b310932606755ab0d83a61f7f917d23", "fusion_lat": 0.0, "fusion_lon": 0.0, "bike_id": "3b310932606755ab0d83a61f7f917d23", "rental_uris": {"ios": "https://dc.lft.to/lastmile_qr_scan", "android": "https://dc.lft.to/lastmile_qr_scan"}, "type": "electric_scooter", "lat": 38.89457733333333, "is_disabled": 0, "lon": -76.94821383333333, "is_reserved": 0}, {"name": "8ddd63ed478e0e12627ff24673863508", "fusion_lat": 0.0, "fusion_lon": 0.0, "bike_id": "8ddd63ed478e0e12627ff24673863508", "rental_uris": {"ios": "https://dc.lft.to/lastmile_qr_scan", "android": "https://dc.lft.to/lastmile_qr_scan"}, "type": "electric_scooter", "lat": 38.86252566666667, "is_disabled": 0, "lon": -76.9953775, "is_reserved": 0}, {"name": "4a23b4d0dc4efe1cac06b483791601c9", "fusion_lat": 0.0, "fusion_lon": 0.0, "bike_id": "4a23b4d0dc4efe1cac06b483791601c9", "rental_uris": {"ios": "https://dc.lft.to/lastmile_qr_scan", "android": "https://dc.lft.to/lastmile_qr_scan"}, "type": "electric_scooter", "lat": 38.90948216666666, "is_disabled": 0, "lon": -77.03210166666666, "is_reserved": 0}, {"name": "60d2d16b5cdb172aea44e629b53cba0d", "fusion_lat": 0.0, "fusion_lon": 0.0, "bike_id": "60d2d16b5cdb172aea44e629b53cba0d", "rental_uris": {"ios": "https://dc.lft.to/lastmile_qr_scan", "android": "https://dc.lft.to/lastmile_qr_scan"}, "type": "electric_scooter", "lat": 38.92578833333334, "is_disabled": 0, "lon": -77.03212466666666, "is_reserved": 0}, {"name": "c3ae0025f77781769b12c8ec10377308", "fusion_lat": 0.0, "fusion_lon": 0.0, "bike_id": "c3ae0025f77781769b12c8ec10377308", "rental_uris": {"ios": "https://dc.lft.to/lastmile_qr_scan", "android": "https://dc.lft.to/lastmile_qr_scan"}, "type": "electric_scooter", "lat": 38.89837383333333, "is_disabled": 0, "lon": -77.00926983333333, "is_reserved": 0}, {"name": "20ba215022a8185846ffa62cb03ca178", "fusion_lat": 0.0, "fusion_lon": 0.0, "bike_id": "20ba215022a8185846ffa62cb03ca178", "rental_uris": {"ios": "https://dc.lft.to/lastmile_qr_scan", "android": "https://dc.lft.to/lastmile_qr_scan"}, "type": "electric_scooter", "lat": 38.844103833333335, "is_disabled": 0, "lon": -76.98955916666667, "is_reserved": 0}, {"name": "2ca95938f35b99d84d09e48ff2d34784", "fusion_lat": 0.0, "fusion_lon": 0.0, "bike_id": "2ca95938f35b99d84d09e48ff2d34784", "rental_uris": {"ios": "https://dc.lft.to/lastmile_qr_scan", "android": "https://dc.lft.to/lastmile_qr_scan"}, "type": "electric_scooter", "lat": 38.9352835, "is_disabled": 0, "lon": -77.03262233333334, "is_reserved": 0}, {"name": "fed685f2c1522a51a793dda28ee8a190", "fusion_lat": 0.0, "fusion_lon": 0.0, "bike_id": "fed685f2c1522a51a793dda28ee8a190", "rental_uris": {"ios": "https://dc.lft.to/lastmile_qr_scan", "android": "https://dc.lft.to/lastmile_qr_scan"}, "type": "electric_scooter", "lat": 38.90049783333333, "is_disabled": 0, "lon": -77.00209316666667, "is_reserved": 0}, {"name": "ffa46b7122ff154417ff0499a439a6fc", "fusion_lat": 0.0, "fusion_lon": 0.0, "bike_id": "ffa46b7122ff154417ff0499a439a6fc", "rental_uris": {"ios": "https://dc.lft.to/lastmile_qr_scan", "android": "https://dc.lft.to/lastmile_qr_scan"}, "type": "electric_scooter", "lat": 38.87120783333334, "is_disabled": 0, "lon": -77.00931233333333, "is_reserved": 0}, {"name": "f6c88741911038e1b9810ba8785ff780", "fusion_lat": 0.0, "fusion_lon": 0.0, "bike_id": "f6c88741911038e1b9810ba8785ff780", "rental_uris": {"ios": "https://dc.lft.to/lastmile_qr_scan", "android": "https://dc.lft.to/lastmile_qr_scan"}, "type": "electric_scooter", "lat": 38.91185766666667, "is_disabled": 0, "lon": -77.04162966666667, "is_reserved": 0}, {"name": "f0dbf84a79937fffdc32754766bde8f3", "fusion_lat": 0.0, "fusion_lon": 0.0, "bike_id": "f0dbf84a79937fffdc32754766bde8f3", "rental_uris": {"ios": "https://dc.lft.to/lastmile_qr_scan", "android": "https://dc.lft.to/lastmile_qr_scan"}, "type": "electric_scooter", "lat": 38.89248283333333, "is_disabled": 0, "lon": -77.03957783333334, "is_reserved": 0}, {"name": "df52ca843bac167bef43ce7885b11763", "fusion_lat": 0.0, "fusion_lon": 0.0, "bike_id": "df52ca843bac167bef43ce7885b11763", "rental_uris": {"ios": "https://dc.lft.to/lastmile_qr_scan", "android": "https://dc.lft.to/lastmile_qr_scan"}, "type": "electric_scooter", "lat": 38.95642483333334, "is_disabled": 0, "lon": -77.09099183333333, "is_reserved": 0}, {"name": "060d7620958c53bc78dc172f22c9ef55", "fusion_lat": 0.0, "fusion_lon": 0.0, "bike_id": "060d7620958c53bc78dc172f22c9ef55", "rental_uris": {"ios": "https://dc.lft.to/lastmile_qr_scan", "android": "https://dc.lft.to/lastmile_qr_scan"}, "type": "electric_scooter", "lat": 38.90812566666666, "is_disabled": 0, "lon": -77.04107333333333, "is_reserved": 0}, {"name": "34b91476a516976edbe687c86f5a7f0e", "fusion_lat": 0.0, "fusion_lon": 0.0, "bike_id": "34b91476a516976edbe687c86f5a7f0e", "rental_uris": {"ios": "https://dc.lft.to/lastmile_qr_scan", "android": "https://dc.lft.to/lastmile_qr_scan"}, "type": "electric_scooter", "lat": 38.876297666666666, "is_disabled": 0, "lon": -76.96525, "is_reserved": 0}, {"name": "8316e144ea8900fc7eeaa1479213b6bf", "fusion_lat": 0.0, "fusion_lon": 0.0, "bike_id": "8316e144ea8900fc7eeaa1479213b6bf", "rental_uris": {"ios": "https://dc.lft.to/lastmile_qr_scan", "android": "https://dc.lft.to/lastmile_qr_scan"}, "type": "electric_scooter", "lat": 38.9125155, "is_disabled": 0, "lon": -77.02796266666667, "is_reserved": 0}, {"name": "ded9e0bd3f5c4371f18e5462efc9e40d", "fusion_lat": 0.0, "fusion_lon": 0.0, "bike_id": "ded9e0bd3f5c4371f18e5462efc9e40d", "rental_uris": {"ios": "https://dc.lft.to/lastmile_qr_scan", "android": "https://dc.lft.to/lastmile_qr_scan"}, "type": "electric_scooter", "lat": 38.9170735, "is_disabled": 0, "lon": -77.034759, "is_reserved": 0}, {"name": "e907410504f1fb3f247412556c0372ca", "fusion_lat": 0.0, "fusion_lon": 0.0, "bike_id": "e907410504f1fb3f247412556c0372ca", "rental_uris": {"ios": "https://dc.lft.to/lastmile_qr_scan", "android": "https://dc.lft.to/lastmile_qr_scan"}, "type": "electric_scooter", "lat": 38.9167245, "is_disabled": 0, "lon": -77.0384835, "is_reserved": 0}, {"name": "671a0db4881efc4b7ef9e64b790db56f", "fusion_lat": 0.0, "fusion_lon": 0.0, "bike_id": "671a0db4881efc4b7ef9e64b790db56f", "rental_uris": {"ios": "https://dc.lft.to/lastmile_qr_scan", "android": "https://dc.lft.to/lastmile_qr_scan"}, "type": "electric_bike", "lat": 38.94682433333333, "is_disabled": 0, "lon": -77.02052816666667, "is_reserved": 0}, {"name": "fb120c014d1ea0a9fc6f0ae4b6b9ef93", "fusion_lat": 0.0, "fusion_lon": 0.0, "bike_id": "fb120c014d1ea0a9fc6f0ae4b6b9ef93", "rental_uris": {"ios": "https://dc.lft.to/lastmile_qr_scan", "android": "https://dc.lft.to/lastmile_qr_scan"}, "type": "electric_bike", "lat": 38.950925, "is_disabled": 0, "lon": -76.9656285, "is_reserved": 0}, {"name": "10892e92587ab476995de645445cb4df", "fusion_lat": 0.0, "fusion_lon": 0.0, "bike_id": "10892e92587ab476995de645445cb4df", "rental_uris": {"ios": "https://dc.lft.to/lastmile_qr_scan", "android": "https://dc.lft.to/lastmile_qr_scan"}, "type": "electric_scooter", "lat": 38.91277783333334, "is_disabled": 0, "lon": -77.04175683333334, "is_reserved": 0}, {"name": "777df0255abbb9c588fd0fcf760c293b", "fusion_lat": 0.0, "fusion_lon": 0.0, "bike_id": "777df0255abbb9c588fd0fcf760c293b", "rental_uris": {"ios": "https://dc.lft.to/lastmile_qr_scan", "android": "https://dc.lft.to/lastmile_qr_scan"}, "type": "electric_scooter", "lat": 38.933167, "is_disabled": 0, "lon": -77.03283366666666, "is_reserved": 0}, {"name": "e369b274f804b95b8cc09ddf9eadda08", "fusion_lat": 0.0, "fusion_lon": 0.0, "bike_id": "e369b274f804b95b8cc09ddf9eadda08", "rental_uris": {"ios": "https://dc.lft.to/lastmile_qr_scan", "android": "https://dc.lft.to/lastmile_qr_scan"}, "type": "electric_scooter", "lat": 38.8759835, "is_disabled": 0, "lon": -77.0057635, "is_reserved": 0}, {"name": "e11f83e4666a4d2879c88aba4d379ee5", "fusion_lat": 0.0, "fusion_lon": 0.0, "bike_id": "e11f83e4666a4d2879c88aba4d379ee5", "rental_uris": {"ios": "https://dc.lft.to/lastmile_qr_scan", "android": "https://dc.lft.to/lastmile_qr_scan"}, "type": "electric_scooter", "lat": 38.9342725, "is_disabled": 0, "lon": -77.03445616666667, "is_reserved": 0}, {"name": "8b91d2db0a08cf2d9fa4f79cbbcd1cf9", "fusion_lat": 0.0, "fusion_lon": 0.0, "bike_id": "8b91d2db0a08cf2d9fa4f79cbbcd1cf9", "rental_uris": {"ios": "https://dc.lft.to/lastmile_qr_scan", "android": "https://dc.lft.to/lastmile_qr_scan"}, "type": "electric_scooter", "lat": 38.915735833333336, "is_disabled": 0, "lon": -77.046977, "is_reserved": 0}, {"name": "58560e11f1dc4e3e0cdf048fd6539cae", "fusion_lat": 0.0, "fusion_lon": 0.0, "bike_id": "58560e11f1dc4e3e0cdf048fd6539cae", "rental_uris": {"ios": "https://dc.lft.to/lastmile_qr_scan", "android": "https://dc.lft.to/lastmile_qr_scan"}, "type": "electric_scooter", "lat": 38.91925833333333, "is_disabled": 0, "lon": -77.01734916666666, "is_reserved": 0}, {"name": "8bb756db6b43060bf2f889039e83a489", "fusion_lat": 0.0, "fusion_lon": 0.0, "bike_id": "8bb756db6b43060bf2f889039e83a489", "rental_uris": {"ios": "https://dc.lft.to/lastmile_qr_scan", "android": "https://dc.lft.to/lastmile_qr_scan"}, "type": "electric_scooter", "lat": 38.918212833333335, "is_disabled": 0, "lon": -77.0417285, "is_reserved": 0}, {"name": "70962a657d7a6003e30abf66efde34aa", "fusion_lat": 0.0, "fusion_lon": 0.0, "bike_id": "70962a657d7a6003e30abf66efde34aa", "rental_uris": {"ios": "https://dc.lft.to/lastmile_qr_scan", "android": "https://dc.lft.to/lastmile_qr_scan"}, "type": "electric_scooter", "lat": 38.905160333333335, "is_disabled": 0, "lon": -77.01711, "is_reserved": 0}, {"name": "081b9494dbe968e117522a2fa9a5df05", "fusion_lat": 0.0, "fusion_lon": 0.0, "bike_id": "081b9494dbe968e117522a2fa9a5df05", "rental_uris": {"ios": "https://dc.lft.to/lastmile_qr_scan", "android": "https://dc.lft.to/lastmile_qr_scan"}, "type": "electric_scooter", "lat": 38.906976666666665, "is_disabled": 0, "lon": -77.04394133333334, "is_reserved": 0}, {"name": "5bfe0274dd2089d83d6603c3a2a23bbc", "fusion_lat": 0.0, "fusion_lon": 0.0, "bike_id": "5bfe0274dd2089d83d6603c3a2a23bbc", "rental_uris": {"ios": "https://dc.lft.to/lastmile_qr_scan", "android": "https://dc.lft.to/lastmile_qr_scan"}, "type": "electric_scooter", "lat": 38.867034333333336, "is_disabled": 0, "lon": -76.98710033333333, "is_reserved": 0}, {"name": "3c23c1240d490f8dc6c5cff3421c1c80", "fusion_lat": 0.0, "fusion_lon": 0.0, "bike_id": "3c23c1240d490f8dc6c5cff3421c1c80", "rental_uris": {"ios": "https://dc.lft.to/lastmile_qr_scan", "android": "https://dc.lft.to/lastmile_qr_scan"}, "type": "electric_scooter", "lat": 38.925213166666666, "is_disabled": 0, "lon": -77.05111733333334, "is_reserved": 0}, {"name": "40509df51909a91f83ae4da893c7353b", "fusion_lat": 0.0, "fusion_lon": 0.0, "bike_id": "40509df51909a91f83ae4da893c7353b", "rental_uris": {"ios": "https://dc.lft.to/lastmile_qr_scan", "android": "https://dc.lft.to/lastmile_qr_scan"}, "type": "electric_scooter", "lat": 38.916366833333335, "is_disabled": 0, "lon": -77.041231, "is_reserved": 0}, {"name": "94f0a61c8540dbedd4f4f92436910e1b", "fusion_lat": 0.0, "fusion_lon": 0.0, "bike_id": "94f0a61c8540dbedd4f4f92436910e1b", "rental_uris": {"ios": "https://dc.lft.to/lastmile_qr_scan", "android": "https://dc.lft.to/lastmile_qr_scan"}, "type": "electric_scooter", "lat": 38.897874333333334, "is_disabled": 0, "lon": -77.00921416666667, "is_reserved": 0}, {"name": "6b0d16c2d25d7619dd9a60015f1906b8", "fusion_lat": 0.0, "fusion_lon": 0.0, "bike_id": "6b0d16c2d25d7619dd9a60015f1906b8", "rental_uris": {"ios": "https://dc.lft.to/lastmile_qr_scan", "android": "https://dc.lft.to/lastmile_qr_scan"}, "type": "electric_scooter", "lat": 38.92019833333333, "is_disabled": 0, "lon": -77.0314245, "is_reserved": 0}, {"name": "1556ae78adfeddbf5b671a1059a2cded", "fusion_lat": 0.0, "fusion_lon": 0.0, "bike_id": "1556ae78adfeddbf5b671a1059a2cded", "rental_uris": {"ios": "https://dc.lft.to/lastmile_qr_scan", "android": "https://dc.lft.to/lastmile_qr_scan"}, "type": "electric_scooter", "lat": 38.92962333333333, "is_disabled": 0, "lon": -77.04202333333333, "is_reserved": 0}, {"name": "75a7621d66256f2762f4ddf435ab2c1f", "fusion_lat": 0.0, "fusion_lon": 0.0, "bike_id": "75a7621d66256f2762f4ddf435ab2c1f", "rental_uris": {"ios": "https://dc.lft.to/lastmile_qr_scan", "android": "https://dc.lft.to/lastmile_qr_scan"}, "type": "electric_scooter", "lat": 38.913759166666665, "is_disabled": 0, "lon": -77.0434265, "is_reserved": 0}, {"name": "7dd1cd5959737a33ee3cd6c87c962730", "fusion_lat": 0.0, "fusion_lon": 0.0, "bike_id": "7dd1cd5959737a33ee3cd6c87c962730", "rental_uris": {"ios": "https://dc.lft.to/lastmile_qr_scan", "android": "https://dc.lft.to/lastmile_qr_scan"}, "type": "electric_scooter", "lat": 38.9049805, "is_disabled": 0, "lon": -76.97949916666667, "is_reserved": 0}, {"name": "38fc8eba170a36c1262705689d0cae2f", "fusion_lat": 0.0, "fusion_lon": 0.0, "bike_id": "38fc8eba170a36c1262705689d0cae2f", "rental_uris": {"ios": "https://dc.lft.to/lastmile_qr_scan", "android": "https://dc.lft.to/lastmile_qr_scan"}, "type": "electric_scooter", "lat": 38.916935, "is_disabled": 0, "lon": -77.03768716666667, "is_reserved": 0}, {"name": "f6a53fa53ce410ec74063f530bdf8029", "fusion_lat": 0.0, "fusion_lon": 0.0, "bike_id": "f6a53fa53ce410ec74063f530bdf8029", "rental_uris": {"ios": "https://dc.lft.to/lastmile_qr_scan", "android": "https://dc.lft.to/lastmile_qr_scan"}, "type": "electric_scooter", "lat": 38.921419666666665, "is_disabled": 0, "lon": -77.0251795, "is_reserved": 0}, {"name": "4b7574599938e018f5885e48d78ef9c6", "fusion_lat": 0.0, "fusion_lon": 0.0, "bike_id": "4b7574599938e018f5885e48d78ef9c6", "rental_uris": {"ios": "https://dc.lft.to/lastmile_qr_scan", "android": "https://dc.lft.to/lastmile_qr_scan"}, "type": "electric_scooter", "lat": 38.924232833333335, "is_disabled": 0, "lon": -77.02013616666666, "is_reserved": 0}, {"name": "6d033a5ade147d51707f4f0aec1d564e", "fusion_lat": 0.0, "fusion_lon": 0.0, "bike_id": "6d033a5ade147d51707f4f0aec1d564e", "rental_uris": {"ios": "https://dc.lft.to/lastmile_qr_scan", "android": "https://dc.lft.to/lastmile_qr_scan"}, "type": "electric_scooter", "lat": 38.896813333333334, "is_disabled": 0, "lon": -76.935336, "is_reserved": 0}, {"name": "501f104de000d82c3f82938e4fae0a7d", "fusion_lat": 0.0, "fusion_lon": 0.0, "bike_id": "501f104de000d82c3f82938e4fae0a7d", "rental_uris": {"ios": "https://dc.lft.to/lastmile_qr_scan", "android": "https://dc.lft.to/lastmile_qr_scan"}, "type": "electric_scooter", "lat": 38.89791683333333, "is_disabled": 0, "lon": -77.03946316666666, "is_reserved": 0}, {"name": "e22ec4965ba4f4ad85722fcc3f8402ea", "fusion_lat": 0.0, "fusion_lon": 0.0, "bike_id": "e22ec4965ba4f4ad85722fcc3f8402ea", "rental_uris": {"ios": "https://dc.lft.to/lastmile_qr_scan", "android": "https://dc.lft.to/lastmile_qr_scan"}, "type": "electric_scooter", "lat": 38.9163185, "is_disabled": 0, "lon": -77.03314283333333, "is_reserved": 0}, {"name": "e964cf147296ad5556e4eaa70c6cfe21", "fusion_lat": 0.0, "fusion_lon": 0.0, "bike_id": "e964cf147296ad5556e4eaa70c6cfe21", "rental_uris": {"ios": "https://dc.lft.to/lastmile_qr_scan", "android": "https://dc.lft.to/lastmile_qr_scan"}, "type": "electric_bike", "lat": 38.890046166666664, "is_disabled": 0, "lon": -77.03937566666667, "is_reserved": 0}, {"name": "cb80c12516e82ac41e4615219cfc4517", "fusion_lat": 0.0, "fusion_lon": 0.0, "bike_id": "cb80c12516e82ac41e4615219cfc4517", "rental_uris": {"ios": "https://dc.lft.to/lastmile_qr_scan", "android": "https://dc.lft.to/lastmile_qr_scan"}, "type": "electric_scooter", "lat": 38.90974033333333, "is_disabled": 0, "lon": -77.0330535, "is_reserved": 0}, {"name": "03204a653ebde55cbc05888cd4eba630", "fusion_lat": 0.0, "fusion_lon": 0.0, "bike_id": "03204a653ebde55cbc05888cd4eba630", "rental_uris": {"ios": "https://dc.lft.to/lastmile_qr_scan", "android": "https://dc.lft.to/lastmile_qr_scan"}, "type": "electric_scooter", "lat": 38.93232283333333, "is_disabled": 0, "lon": -76.99935566666667, "is_reserved": 0}, {"name": "99ac102d65e18fd48792e5c318d51dcf", "fusion_lat": 0.0, "fusion_lon": 0.0, "bike_id": "99ac102d65e18fd48792e5c318d51dcf", "rental_uris": {"ios": "https://dc.lft.to/lastmile_qr_scan", "android": "https://dc.lft.to/lastmile_qr_scan"}, "type": "electric_bike", "lat": 38.86972633333333, "is_disabled": 0, "lon": -77.13232416666666, "is_reserved": 0}, {"name": "f23b5b8999e21078cb8ebaf76d691c58", "fusion_lat": 0.0, "fusion_lon": 0.0, "bike_id": "f23b5b8999e21078cb8ebaf76d691c58", "rental_uris": {"ios": "https://dc.lft.to/lastmile_qr_scan", "android": "https://dc.lft.to/lastmile_qr_scan"}, "type": "electric_scooter", "lat": 38.91700866666667, "is_disabled": 0, "lon": -77.029917, "is_reserved": 0}, {"name": "062dfe7ddc866a36f97ad83af9ea33f3", "fusion_lat": 0.0, "fusion_lon": 0.0, "bike_id": "062dfe7ddc866a36f97ad83af9ea33f3", "rental_uris": {"ios": "https://dc.lft.to/lastmile_qr_scan", "android": "https://dc.lft.to/lastmile_qr_scan"}, "type": "electric_scooter", "lat": 38.878808, "is_disabled": 0, "lon": -77.005595, "is_reserved": 0}, {"name": "ee4c1e41451965443ff570001b186d2d", "fusion_lat": 0.0, "fusion_lon": 0.0, "bike_id": "ee4c1e41451965443ff570001b186d2d", "rental_uris": {"ios": "https://dc.lft.to/lastmile_qr_scan", "android": "https://dc.lft.to/lastmile_qr_scan"}, "type": "electric_scooter", "lat": 38.9557835, "is_disabled": 0, "lon": -77.02565233333333, "is_reserved": 0}, {"name": "af1ef1dc3e9cdec8e8a7243a7697f08a", "fusion_lat": 0.0, "fusion_lon": 0.0, "bike_id": "af1ef1dc3e9cdec8e8a7243a7697f08a", "rental_uris": {"ios": "https://dc.lft.to/lastmile_qr_scan", "android": "https://dc.lft.to/lastmile_qr_scan"}, "type": "electric_bike", "lat": 38.92215616666667, "is_disabled": 0, "lon": -76.98798966666666, "is_reserved": 0}, {"name": "73dbc21636b42519dfc5c43a1371e857", "fusion_lat": 0.0, "fusion_lon": 0.0, "bike_id": "73dbc21636b42519dfc5c43a1371e857", "rental_uris": {"ios": "https://dc.lft.to/lastmile_qr_scan", "android": "https://dc.lft.to/lastmile_qr_scan"}, "type": "electric_scooter", "lat": 38.884747833333336, "is_disabled": 0, "lon": -77.02489216666666, "is_reserved": 0}, {"name": "d852999c42b9635df72e876950546dad", "fusion_lat": 0.0, "fusion_lon": 0.0, "bike_id": "d852999c42b9635df72e876950546dad", "rental_uris": {"ios": "https://dc.lft.to/lastmile_qr_scan", "android": "https://dc.lft.to/lastmile_qr_scan"}, "type": "electric_scooter", "lat": 38.9206525, "is_disabled": 0, "lon": -77.00051983333333, "is_reserved": 0}, {"name": "e52c6df381b76eac62dec47a8f180c14", "fusion_lat": 0.0, "fusion_lon": 0.0, "bike_id": "e52c6df381b76eac62dec47a8f180c14", "rental_uris": {"ios": "https://dc.lft.to/lastmile_qr_scan", "android": "https://dc.lft.to/lastmile_qr_scan"}, "type": "electric_scooter", "lat": 38.91920566666667, "is_disabled": 0, "lon": -77.031032, "is_reserved": 0}, {"name": "136c4e5b369e92dfaf3966d75ec6e9b3", "fusion_lat": 0.0, "fusion_lon": 0.0, "bike_id": "136c4e5b369e92dfaf3966d75ec6e9b3", "rental_uris": {"ios": "https://dc.lft.to/lastmile_qr_scan", "android": "https://dc.lft.to/lastmile_qr_scan"}, "type": "electric_scooter", "lat": 38.922495166666664, "is_disabled": 0, "lon": -77.0296295, "is_reserved": 0}, {"name": "0a90214513769cd5de21e45ce54fa280", "fusion_lat": 0.0, "fusion_lon": 0.0, "bike_id": "0a90214513769cd5de21e45ce54fa280", "rental_uris": {"ios": "https://dc.lft.to/lastmile_qr_scan", "android": "https://dc.lft.to/lastmile_qr_scan"}, "type": "electric_scooter", "lat": 38.895486, "is_disabled": 0, "lon": -77.02656266666666, "is_reserved": 0}, {"name": "284f785d6bccf7fdda73960b13c6f07d", "fusion_lat": 0.0, "fusion_lon": 0.0, "bike_id": "284f785d6bccf7fdda73960b13c6f07d", "rental_uris": {"ios": "https://dc.lft.to/lastmile_qr_scan", "android": "https://dc.lft.to/lastmile_qr_scan"}, "type": "electric_scooter", "lat": 38.8766585, "is_disabled": 0, "lon": -77.0193645, "is_reserved": 0}, {"name": "57330efc98fbdcf6e9a0cbbfa2f6237e", "fusion_lat": 0.0, "fusion_lon": 0.0, "bike_id": "57330efc98fbdcf6e9a0cbbfa2f6237e", "rental_uris": {"ios": "https://dc.lft.to/lastmile_qr_scan", "android": "https://dc.lft.to/lastmile_qr_scan"}, "type": "electric_scooter", "lat": 38.898483, "is_disabled": 0, "lon": -76.94633383333333, "is_reserved": 0}, {"name": "81c76dd76c67afbff04102f98d121d53", "fusion_lat": 0.0, "fusion_lon": 0.0, "bike_id": "81c76dd76c67afbff04102f98d121d53", "rental_uris": {"ios": "https://dc.lft.to/lastmile_qr_scan", "android": "https://dc.lft.to/lastmile_qr_scan"}, "type": "electric_scooter", "lat": 38.888571666666664, "is_disabled": 0, "lon": -77.00058316666667, "is_reserved": 0}, {"name": "7637b15d1c046797215bab79bf3aba80", "fusion_lat": 0.0, "fusion_lon": 0.0, "bike_id": "7637b15d1c046797215bab79bf3aba80", "rental_uris": {"ios": "https://dc.lft.to/lastmile_qr_scan", "android": "https://dc.lft.to/lastmile_qr_scan"}, "type": "electric_scooter", "lat": 38.910347, "is_disabled": 0, "lon": -77.04486783333333, "is_reserved": 0}, {"name": "01f614ae12cab67aa762eba11b904b8e", "fusion_lat": 0.0, "fusion_lon": 0.0, "bike_id": "01f614ae12cab67aa762eba11b904b8e", "rental_uris": {"ios": "https://dc.lft.to/lastmile_qr_scan", "android": "https://dc.lft.to/lastmile_qr_scan"}, "type": "electric_scooter", "lat": 38.8987625, "is_disabled": 0, "lon": -76.93183666666667, "is_reserved": 0}, {"name": "ada8f8edf1e8970ca3e1a9c35f1e92c1", "fusion_lat": 0.0, "fusion_lon": 0.0, "bike_id": "ada8f8edf1e8970ca3e1a9c35f1e92c1", "rental_uris": {"ios": "https://dc.lft.to/lastmile_qr_scan", "android": "https://dc.lft.to/lastmile_qr_scan"}, "type": "electric_scooter", "lat": 38.9169965, "is_disabled": 0, "lon": -77.02777583333334, "is_reserved": 0}, {"name": "4a4d425b8d93874b1aad453e50d2270b", "fusion_lat": 0.0, "fusion_lon": 0.0, "bike_id": "4a4d425b8d93874b1aad453e50d2270b", "rental_uris": {"ios": "https://dc.lft.to/lastmile_qr_scan", "android": "https://dc.lft.to/lastmile_qr_scan"}, "type": "electric_scooter", "lat": 38.895542666666664, "is_disabled": 0, "lon": -77.0040755, "is_reserved": 0}, {"name": "b2ff0425df21e9bbf0204a45dacf1698", "fusion_lat": 0.0, "fusion_lon": 0.0, "bike_id": "b2ff0425df21e9bbf0204a45dacf1698", "rental_uris": {"ios": "https://dc.lft.to/lastmile_qr_scan", "android": "https://dc.lft.to/lastmile_qr_scan"}, "type": "electric_scooter", "lat": 38.917086, "is_disabled": 0, "lon": -77.02886733333334, "is_reserved": 0}, {"name": "351f6e337bc22a8b6ed946f036cdfe3f", "fusion_lat": 0.0, "fusion_lon": 0.0, "bike_id": "351f6e337bc22a8b6ed946f036cdfe3f", "rental_uris": {"ios": "https://dc.lft.to/lastmile_qr_scan", "android": "https://dc.lft.to/lastmile_qr_scan"}, "type": "electric_scooter", "lat": 38.909485, "is_disabled": 0, "lon": -77.03207566666667, "is_reserved": 0}, {"name": "e5313ccc27bbc6f5c99e12ec8b37f08c", "fusion_lat": 0.0, "fusion_lon": 0.0, "bike_id": "e5313ccc27bbc6f5c99e12ec8b37f08c", "rental_uris": {"ios": "https://dc.lft.to/lastmile_qr_scan", "android": "https://dc.lft.to/lastmile_qr_scan"}, "type": "electric_scooter", "lat": 38.90054033333333, "is_disabled": 0, "lon": -77.050761, "is_reserved": 0}, {"name": "8396a1a08fddd09c0309d35c745149b7", "fusion_lat": 0.0, "fusion_lon": 0.0, "bike_id": "8396a1a08fddd09c0309d35c745149b7", "rental_uris": {"ios": "https://dc.lft.to/lastmile_qr_scan", "android": "https://dc.lft.to/lastmile_qr_scan"}, "type": "electric_scooter", "lat": 38.90585033333333, "is_disabled": 0, "lon": -77.00501733333333, "is_reserved": 0}, {"name": "a8e535831641392edf58d4e802adab59", "fusion_lat": 0.0, "fusion_lon": 0.0, "bike_id": "a8e535831641392edf58d4e802adab59", "rental_uris": {"ios": "https://dc.lft.to/lastmile_qr_scan", "android": "https://dc.lft.to/lastmile_qr_scan"}, "type": "electric_scooter", "lat": 38.912425, "is_disabled": 0, "lon": -77.04757916666667, "is_reserved": 0}, {"name": "b63e742ff8c2fdd56546e6ef08103bd3", "fusion_lat": 0.0, "fusion_lon": 0.0, "bike_id": "b63e742ff8c2fdd56546e6ef08103bd3", "rental_uris": {"ios": "https://dc.lft.to/lastmile_qr_scan", "android": "https://dc.lft.to/lastmile_qr_scan"}, "type": "electric_scooter", "lat": 38.910558333333334, "is_disabled": 0, "lon": -77.02212066666667, "is_reserved": 0}, {"name": "ca51b21fba1ecb77daa8f5ffeb68449c", "fusion_lat": 0.0, "fusion_lon": 0.0, "bike_id": "ca51b21fba1ecb77daa8f5ffeb68449c", "rental_uris": {"ios": "https://dc.lft.to/lastmile_qr_scan", "android": "https://dc.lft.to/lastmile_qr_scan"}, "type": "electric_scooter", "lat": 38.904708666666664, "is_disabled": 0, "lon": -77.04800716666666, "is_reserved": 0}, {"name": "9b2df7f92ddf3e1aec5e0dcb2edad092", "fusion_lat": 0.0, "fusion_lon": 0.0, "bike_id": "9b2df7f92ddf3e1aec5e0dcb2edad092", "rental_uris": {"ios": "https://dc.lft.to/lastmile_qr_scan", "android": "https://dc.lft.to/lastmile_qr_scan"}, "type": "electric_bike", "lat": 38.98028266666667, "is_disabled": 0, "lon": -76.92917533333333, "is_reserved": 0}, {"name": "edb332ce2b893fe635b45033f87b35a0", "fusion_lat": 0.0, "fusion_lon": 0.0, "bike_id": "edb332ce2b893fe635b45033f87b35a0", "rental_uris": {"ios": "https://dc.lft.to/lastmile_qr_scan", "android": "https://dc.lft.to/lastmile_qr_scan"}, "type": "electric_scooter", "lat": 38.898229666666666, "is_disabled": 0, "lon": -77.03123683333334, "is_reserved": 0}, {"name": "5a94c27aa87459704f9ff3fabf0582ee", "fusion_lat": 0.0, "fusion_lon": 0.0, "bike_id": "5a94c27aa87459704f9ff3fabf0582ee", "rental_uris": {"ios": "https://dc.lft.to/lastmile_qr_scan", "android": "https://dc.lft.to/lastmile_qr_scan"}, "type": "electric_scooter", "lat": 38.86359216666666, "is_disabled": 0, "lon": -76.99054233333334, "is_reserved": 0}, {"name": "00e2f4c721c62187d7bc240503580306", "fusion_lat": 0.0, "fusion_lon": 0.0, "bike_id": "00e2f4c721c62187d7bc240503580306", "rental_uris": {"ios": "https://dc.lft.to/lastmile_qr_scan", "android": "https://dc.lft.to/lastmile_qr_scan"}, "type": "electric_scooter", "lat": 38.94515466666667, "is_disabled": 0, "lon": -77.029836, "is_reserved": 0}, {"name": "6bcc3f8f46c69e0b027cece5379d06aa", "fusion_lat": 0.0, "fusion_lon": 0.0, "bike_id": "6bcc3f8f46c69e0b027cece5379d06aa", "rental_uris": {"ios": "https://dc.lft.to/lastmile_qr_scan", "android": "https://dc.lft.to/lastmile_qr_scan"}, "type": "electric_scooter", "lat": 38.89717983333333, "is_disabled": 0, "lon": -77.03168, "is_reserved": 0}, {"name": "ddac40eca75a190f387f970b0ba757b1", "fusion_lat": 0.0, "fusion_lon": 0.0, "bike_id": "ddac40eca75a190f387f970b0ba757b1", "rental_uris": {"ios": "https://dc.lft.to/lastmile_qr_scan", "android": "https://dc.lft.to/lastmile_qr_scan"}, "type": "electric_scooter", "lat": 38.899386666666665, "is_disabled": 0, "lon": -77.00349283333334, "is_reserved": 0}, {"name": "1d9791dea77cbaa04cfc70c311af2c24", "fusion_lat": 0.0, "fusion_lon": 0.0, "bike_id": "1d9791dea77cbaa04cfc70c311af2c24", "rental_uris": {"ios": "https://dc.lft.to/lastmile_qr_scan", "android": "https://dc.lft.to/lastmile_qr_scan"}, "type": "electric_scooter", "lat": 38.91914, "is_disabled": 0, "lon": -77.03412783333333, "is_reserved": 0}, {"name": "a017e9fbefa14727e3e59830be88f037", "fusion_lat": 0.0, "fusion_lon": 0.0, "bike_id": "a017e9fbefa14727e3e59830be88f037", "rental_uris": {"ios": "https://dc.lft.to/lastmile_qr_scan", "android": "https://dc.lft.to/lastmile_qr_scan"}, "type": "electric_scooter", "lat": 38.91499916666667, "is_disabled": 0, "lon": -77.00774766666666, "is_reserved": 0}, {"name": "acbffabf39a37da3c098eace2a879f4a", "fusion_lat": 0.0, "fusion_lon": 0.0, "bike_id": "acbffabf39a37da3c098eace2a879f4a", "rental_uris": {"ios": "https://dc.lft.to/lastmile_qr_scan", "android": "https://dc.lft.to/lastmile_qr_scan"}, "type": "electric_bike", "lat": 38.83095183333333, "is_disabled": 0, "lon": -77.04295483333334, "is_reserved": 0}, {"name": "a4daebdf387166717a6cf4e1b4ac7eb0", "fusion_lat": 0.0, "fusion_lon": 0.0, "bike_id": "a4daebdf387166717a6cf4e1b4ac7eb0", "rental_uris": {"ios": "https://dc.lft.to/lastmile_qr_scan", "android": "https://dc.lft.to/lastmile_qr_scan"}, "type": "electric_scooter", "lat": 38.84622566666667, "is_disabled": 0, "lon": -76.9963135, "is_reserved": 0}, {"name": "b9a33f10f854d55c8a5f663518e84b9e", "fusion_lat": 0.0, "fusion_lon": 0.0, "bike_id": "b9a33f10f854d55c8a5f663518e84b9e", "rental_uris": {"ios": "https://dc.lft.to/lastmile_qr_scan", "android": "https://dc.lft.to/lastmile_qr_scan"}, "type": "electric_scooter", "lat": 38.921936, "is_disabled": 0, "lon": -76.99763416666667, "is_reserved": 0}, {"name": "47b1747a9cf4755bc5b69df5109b7729", "fusion_lat": 0.0, "fusion_lon": 0.0, "bike_id": "47b1747a9cf4755bc5b69df5109b7729", "rental_uris": {"ios": "https://dc.lft.to/lastmile_qr_scan", "android": "https://dc.lft.to/lastmile_qr_scan"}, "type": "electric_scooter", "lat": 38.929641333333336, "is_disabled": 0, "lon": -77.03236283333334, "is_reserved": 0}, {"name": "b8eab75d917d680469bdb05a5e7995a8", "fusion_lat": 0.0, "fusion_lon": 0.0, "bike_id": "b8eab75d917d680469bdb05a5e7995a8", "rental_uris": {"ios": "https://dc.lft.to/lastmile_qr_scan", "android": "https://dc.lft.to/lastmile_qr_scan"}, "type": "electric_scooter", "lat": 38.89728816666667, "is_disabled": 0, "lon": -77.04725866666666, "is_reserved": 0}, {"name": "29384cc663c55f3126d135a3df7b898c", "fusion_lat": 0.0, "fusion_lon": 0.0, "bike_id": "29384cc663c55f3126d135a3df7b898c", "rental_uris": {"ios": "https://dc.lft.to/lastmile_qr_scan", "android": "https://dc.lft.to/lastmile_qr_scan"}, "type": "electric_scooter", "lat": 38.91185016666667, "is_disabled": 0, "lon": -77.037429, "is_reserved": 0}, {"name": "59ce59743b9be30a4125e9e2fd17005c", "fusion_lat": 0.0, "fusion_lon": 0.0, "bike_id": "59ce59743b9be30a4125e9e2fd17005c", "rental_uris": {"ios": "https://dc.lft.to/lastmile_qr_scan", "android": "https://dc.lft.to/lastmile_qr_scan"}, "type": "electric_bike", "lat": 38.85212516666667, "is_disabled": 0, "lon": -77.12754733333334, "is_reserved": 0}, {"name": "be67a90389b06efd7757fc841b8ee596", "fusion_lat": 0.0, "fusion_lon": 0.0, "bike_id": "be67a90389b06efd7757fc841b8ee596", "rental_uris": {"ios": "https://dc.lft.to/lastmile_qr_scan", "android": "https://dc.lft.to/lastmile_qr_scan"}, "type": "electric_scooter", "lat": 38.9181435, "is_disabled": 0, "lon": -77.035626, "is_reserved": 0}, {"name": "06bb69c710efdb32d3b839fe99d2d8df", "fusion_lat": 0.0, "fusion_lon": 0.0, "bike_id": "06bb69c710efdb32d3b839fe99d2d8df", "rental_uris": {"ios": "https://dc.lft.to/lastmile_qr_scan", "android": "https://dc.lft.to/lastmile_qr_scan"}, "type": "electric_scooter", "lat": 38.89737783333333, "is_disabled": 0, "lon": -77.02020566666667, "is_reserved": 0}, {"name": "66fec091c64a6b38887927143309feab", "fusion_lat": 0.0, "fusion_lon": 0.0, "bike_id": "66fec091c64a6b38887927143309feab", "rental_uris": {"ios": "https://dc.lft.to/lastmile_qr_scan", "android": "https://dc.lft.to/lastmile_qr_scan"}, "type": "electric_scooter", "lat": 38.92188766666666, "is_disabled": 0, "lon": -77.01847116666667, "is_reserved": 0}, {"name": "8ac0483542dcdad6a81e57bb07b8ecad", "fusion_lat": 0.0, "fusion_lon": 0.0, "bike_id": "8ac0483542dcdad6a81e57bb07b8ecad", "rental_uris": {"ios": "https://dc.lft.to/lastmile_qr_scan", "android": "https://dc.lft.to/lastmile_qr_scan"}, "type": "electric_scooter", "lat": 38.90597116666667, "is_disabled": 0, "lon": -77.04734316666666, "is_reserved": 0}, {"name": "7df0129c2b06527e7fa67b83ecb805ec", "fusion_lat": 0.0, "fusion_lon": 0.0, "bike_id": "7df0129c2b06527e7fa67b83ecb805ec", "rental_uris": {"ios": "https://dc.lft.to/lastmile_qr_scan", "android": "https://dc.lft.to/lastmile_qr_scan"}, "type": "electric_scooter", "lat": 38.882248833333335, "is_disabled": 0, "lon": -76.99084083333334, "is_reserved": 0}, {"name": "957ea89c849d1058787768ce6d9774f2", "fusion_lat": 0.0, "fusion_lon": 0.0, "bike_id": "957ea89c849d1058787768ce6d9774f2", "rental_uris": {"ios": "https://dc.lft.to/lastmile_qr_scan", "android": "https://dc.lft.to/lastmile_qr_scan"}, "type": "electric_scooter", "lat": 38.883749333333334, "is_disabled": 0, "lon": -76.99522033333334, "is_reserved": 0}, {"name": "adc2c50cb83b8fe50073b672ca25b7ba", "fusion_lat": 0.0, "fusion_lon": 0.0, "bike_id": "adc2c50cb83b8fe50073b672ca25b7ba", "rental_uris": {"ios": "https://dc.lft.to/lastmile_qr_scan", "android": "https://dc.lft.to/lastmile_qr_scan"}, "type": "electric_scooter", "lat": 38.900506666666665, "is_disabled": 0, "lon": -77.0217495, "is_reserved": 0}, {"name": "77954d44727f237fa27c0113b9865448", "fusion_lat": 0.0, "fusion_lon": 0.0, "bike_id": "77954d44727f237fa27c0113b9865448", "rental_uris": {"ios": "https://dc.lft.to/lastmile_qr_scan", "android": "https://dc.lft.to/lastmile_qr_scan"}, "type": "electric_scooter", "lat": 38.9079835, "is_disabled": 0, "lon": -77.03662266666667, "is_reserved": 0}, {"name": "390cbfb068a1bab72f849cecb168ae50", "fusion_lat": 0.0, "fusion_lon": 0.0, "bike_id": "390cbfb068a1bab72f849cecb168ae50", "rental_uris": {"ios": "https://dc.lft.to/lastmile_qr_scan", "android": "https://dc.lft.to/lastmile_qr_scan"}, "type": "electric_bike", "lat": 38.86592816666667, "is_disabled": 0, "lon": -76.93231516666667, "is_reserved": 0}, {"name": "84cf7b649a449627edc2debc4d3e1023", "fusion_lat": 0.0, "fusion_lon": 0.0, "bike_id": "84cf7b649a449627edc2debc4d3e1023", "rental_uris": {"ios": "https://dc.lft.to/lastmile_qr_scan", "android": "https://dc.lft.to/lastmile_qr_scan"}, "type": "electric_scooter", "lat": 38.890099166666666, "is_disabled": 0, "lon": -76.93737666666667, "is_reserved": 0}, {"name": "3f4a41f238db9e5bb114584573851299", "fusion_lat": 0.0, "fusion_lon": 0.0, "bike_id": "3f4a41f238db9e5bb114584573851299", "rental_uris": {"ios": "https://dc.lft.to/lastmile_qr_scan", "android": "https://dc.lft.to/lastmile_qr_scan"}, "type": "electric_scooter", "lat": 38.917528833333336, "is_disabled": 0, "lon": -77.04154333333334, "is_reserved": 0}, {"name": "84157997223c1f150cee1f2b5dfb1cc2", "fusion_lat": 0.0, "fusion_lon": 0.0, "bike_id": "84157997223c1f150cee1f2b5dfb1cc2", "rental_uris": {"ios": "https://dc.lft.to/lastmile_qr_scan", "android": "https://dc.lft.to/lastmile_qr_scan"}, "type": "electric_scooter", "lat": 38.91003766666667, "is_disabled": 0, "lon": -77.0345995, "is_reserved": 0}, {"name": "9bbdf5bbcf47966ab373a4c0d704bd1e", "fusion_lat": 0.0, "fusion_lon": 0.0, "bike_id": "9bbdf5bbcf47966ab373a4c0d704bd1e", "rental_uris": {"ios": "https://dc.lft.to/lastmile_qr_scan", "android": "https://dc.lft.to/lastmile_qr_scan"}, "type": "electric_scooter", "lat": 38.918351333333334, "is_disabled": 0, "lon": -76.96554683333333, "is_reserved": 0}, {"name": "2fcd08fb44eabdcb157306d068557aee", "fusion_lat": 0.0, "fusion_lon": 0.0, "bike_id": "2fcd08fb44eabdcb157306d068557aee", "rental_uris": {"ios": "https://dc.lft.to/lastmile_qr_scan", "android": "https://dc.lft.to/lastmile_qr_scan"}, "type": "electric_scooter", "lat": 38.9338525, "is_disabled": 0, "lon": -77.03294983333333, "is_reserved": 0}, {"name": "cd2bfc768f7af77f23d1c36e311113b9", "fusion_lat": 0.0, "fusion_lon": 0.0, "bike_id": "cd2bfc768f7af77f23d1c36e311113b9", "rental_uris": {"ios": "https://dc.lft.to/lastmile_qr_scan", "android": "https://dc.lft.to/lastmile_qr_scan"}, "type": "electric_scooter", "lat": 38.88387783333334, "is_disabled": 0, "lon": -76.994902, "is_reserved": 0}, {"name": "e9318351b308cc90250c4e2b88eff594", "fusion_lat": 0.0, "fusion_lon": 0.0, "bike_id": "e9318351b308cc90250c4e2b88eff594", "rental_uris": {"ios": "https://dc.lft.to/lastmile_qr_scan", "android": "https://dc.lft.to/lastmile_qr_scan"}, "type": "electric_scooter", "lat": 38.90960333333334, "is_disabled": 0, "lon": -77.0363325, "is_reserved": 0}, {"name": "e699a415d6e50f61fa7c216ba766c212", "fusion_lat": 0.0, "fusion_lon": 0.0, "bike_id": "e699a415d6e50f61fa7c216ba766c212", "rental_uris": {"ios": "https://dc.lft.to/lastmile_qr_scan", "android": "https://dc.lft.to/lastmile_qr_scan"}, "type": "electric_scooter", "lat": 38.914062, "is_disabled": 0, "lon": -77.031738, "is_reserved": 0}, {"name": "bdd66b3e731c66e8c8da55c51f2a1dcb", "fusion_lat": 0.0, "fusion_lon": 0.0, "bike_id": "bdd66b3e731c66e8c8da55c51f2a1dcb", "rental_uris": {"ios": "https://dc.lft.to/lastmile_qr_scan", "android": "https://dc.lft.to/lastmile_qr_scan"}, "type": "electric_scooter", "lat": 38.92029083333333, "is_disabled": 0, "lon": -77.01136016666666, "is_reserved": 0}, {"name": "13005075a9a9dc4979afbf62ff13f1de", "fusion_lat": 0.0, "fusion_lon": 0.0, "bike_id": "13005075a9a9dc4979afbf62ff13f1de", "rental_uris": {"ios": "https://dc.lft.to/lastmile_qr_scan", "android": "https://dc.lft.to/lastmile_qr_scan"}, "type": "electric_scooter", "lat": 38.9144225, "is_disabled": 0, "lon": -77.01746966666667, "is_reserved": 0}, {"name": "d92e9a08c2044f56b56509864e19eb34", "fusion_lat": 0.0, "fusion_lon": 0.0, "bike_id": "d92e9a08c2044f56b56509864e19eb34", "rental_uris": {"ios": "https://dc.lft.to/lastmile_qr_scan", "android": "https://dc.lft.to/lastmile_qr_scan"}, "type": "electric_scooter", "lat": 38.89889333333333, "is_disabled": 0, "lon": -77.00740983333333, "is_reserved": 0}, {"name": "17a9e0a4e2d0a4faa985a24b1adf4c3d", "fusion_lat": 0.0, "fusion_lon": 0.0, "bike_id": "17a9e0a4e2d0a4faa985a24b1adf4c3d", "rental_uris": {"ios": "https://dc.lft.to/lastmile_qr_scan", "android": "https://dc.lft.to/lastmile_qr_scan"}, "type": "electric_scooter", "lat": 38.9193935, "is_disabled": 0, "lon": -77.01803883333334, "is_reserved": 0}, {"name": "aaac149dc0dfec88cc2bc3adf72b312a", "fusion_lat": 0.0, "fusion_lon": 0.0, "bike_id": "aaac149dc0dfec88cc2bc3adf72b312a", "rental_uris": {"ios": "https://dc.lft.to/lastmile_qr_scan", "android": "https://dc.lft.to/lastmile_qr_scan"}, "type": "electric_scooter", "lat": 38.891937666666664, "is_disabled": 0, "lon": -77.031718, "is_reserved": 0}, {"name": "b72b5346b1d1ba33985f6ff2ac89f88c", "fusion_lat": 0.0, "fusion_lon": 0.0, "bike_id": "b72b5346b1d1ba33985f6ff2ac89f88c", "rental_uris": {"ios": "https://dc.lft.to/lastmile_qr_scan", "android": "https://dc.lft.to/lastmile_qr_scan"}, "type": "electric_scooter", "lat": 38.863596, "is_disabled": 0, "lon": -76.99066266666667, "is_reserved": 0}, {"name": "79747b1326c0618369ab7f9c77d30322", "fusion_lat": 0.0, "fusion_lon": 0.0, "bike_id": "79747b1326c0618369ab7f9c77d30322", "rental_uris": {"ios": "https://dc.lft.to/lastmile_qr_scan", "android": "https://dc.lft.to/lastmile_qr_scan"}, "type": "electric_scooter", "lat": 38.91582433333333, "is_disabled": 0, "lon": -77.046756, "is_reserved": 0}, {"name": "1466bc5d5fce2729ee8be914c18005f7", "fusion_lat": 0.0, "fusion_lon": 0.0, "bike_id": "1466bc5d5fce2729ee8be914c18005f7", "rental_uris": {"ios": "https://dc.lft.to/lastmile_qr_scan", "android": "https://dc.lft.to/lastmile_qr_scan"}, "type": "electric_scooter", "lat": 38.90530666666667, "is_disabled": 0, "lon": -77.05934133333334, "is_reserved": 0}, {"name": "b93ec94eff99469602f963a1e88bf7dd", "fusion_lat": 0.0, "fusion_lon": 0.0, "bike_id": "b93ec94eff99469602f963a1e88bf7dd", "rental_uris": {"ios": "https://dc.lft.to/lastmile_qr_scan", "android": "https://dc.lft.to/lastmile_qr_scan"}, "type": "electric_scooter", "lat": 38.89901583333334, "is_disabled": 0, "lon": -77.03278816666666, "is_reserved": 0}, {"name": "ddbd5e690eb61154bbe4d0caa79dc561", "fusion_lat": 0.0, "fusion_lon": 0.0, "bike_id": "ddbd5e690eb61154bbe4d0caa79dc561", "rental_uris": {"ios": "https://dc.lft.to/lastmile_qr_scan", "android": "https://dc.lft.to/lastmile_qr_scan"}, "type": "electric_bike", "lat": 38.92440416666667, "is_disabled": 0, "lon": -76.90759533333333, "is_reserved": 0}, {"name": "14549fc415adc7e712f1d987031b6f8b", "fusion_lat": 0.0, "fusion_lon": 0.0, "bike_id": "14549fc415adc7e712f1d987031b6f8b", "rental_uris": {"ios": "https://dc.lft.to/lastmile_qr_scan", "android": "https://dc.lft.to/lastmile_qr_scan"}, "type": "electric_scooter", "lat": 38.91935766666667, "is_disabled": 0, "lon": -77.04553483333333, "is_reserved": 0}, {"name": "9220895387a3c2e1ecc665b1ff2fc721", "fusion_lat": 0.0, "fusion_lon": 0.0, "bike_id": "9220895387a3c2e1ecc665b1ff2fc721", "rental_uris": {"ios": "https://dc.lft.to/lastmile_qr_scan", "android": "https://dc.lft.to/lastmile_qr_scan"}, "type": "electric_scooter", "lat": 38.9030775, "is_disabled": 0, "lon": -77.025616, "is_reserved": 0}, {"name": "53d020423daea03d745385b69cb57b39", "fusion_lat": 0.0, "fusion_lon": 0.0, "bike_id": "53d020423daea03d745385b69cb57b39", "rental_uris": {"ios": "https://dc.lft.to/lastmile_qr_scan", "android": "https://dc.lft.to/lastmile_qr_scan"}, "type": "electric_scooter", "lat": 38.89229566666667, "is_disabled": 0, "lon": -77.04372883333333, "is_reserved": 0}, {"name": "f6bfdeda57cba80aaa1571e847aba9f7", "fusion_lat": 0.0, "fusion_lon": 0.0, "bike_id": "f6bfdeda57cba80aaa1571e847aba9f7", "rental_uris": {"ios": "https://dc.lft.to/lastmile_qr_scan", "android": "https://dc.lft.to/lastmile_qr_scan"}, "type": "electric_scooter", "lat": 38.912567, "is_disabled": 0, "lon": -77.0227745, "is_reserved": 0}, {"name": "78f0d88232e176d0e371f9adac6a0a96", "fusion_lat": 0.0, "fusion_lon": 0.0, "bike_id": "78f0d88232e176d0e371f9adac6a0a96", "rental_uris": {"ios": "https://dc.lft.to/lastmile_qr_scan", "android": "https://dc.lft.to/lastmile_qr_scan"}, "type": "electric_scooter", "lat": 38.93337983333333, "is_disabled": 0, "lon": -77.02623666666666, "is_reserved": 0}, {"name": "26b1ed6a9308d89a365000ef032ec7f3", "fusion_lat": 0.0, "fusion_lon": 0.0, "bike_id": "26b1ed6a9308d89a365000ef032ec7f3", "rental_uris": {"ios": "https://dc.lft.to/lastmile_qr_scan", "android": "https://dc.lft.to/lastmile_qr_scan"}, "type": "electric_scooter", "lat": 38.93886283333333, "is_disabled": 0, "lon": -77.02484616666666, "is_reserved": 0}, {"name": "a666bfebee00bcdc38ddf3bb88068b32", "fusion_lat": 0.0, "fusion_lon": 0.0, "bike_id": "a666bfebee00bcdc38ddf3bb88068b32", "rental_uris": {"ios": "https://dc.lft.to/lastmile_qr_scan", "android": "https://dc.lft.to/lastmile_qr_scan"}, "type": "electric_bike", "lat": 38.88476283333333, "is_disabled": 0, "lon": -77.09690733333333, "is_reserved": 0}, {"name": "2fb32de04b5b3c727b4fff04adfd0776", "fusion_lat": 0.0, "fusion_lon": 0.0, "bike_id": "2fb32de04b5b3c727b4fff04adfd0776", "rental_uris": {"ios": "https://dc.lft.to/lastmile_qr_scan", "android": "https://dc.lft.to/lastmile_qr_scan"}, "type": "electric_scooter", "lat": 38.903938833333335, "is_disabled": 0, "lon": -77.02996233333333, "is_reserved": 0}, {"name": "0ed57c9a15b02699ae8579b7ce65edb1", "fusion_lat": 0.0, "fusion_lon": 0.0, "bike_id": "0ed57c9a15b02699ae8579b7ce65edb1", "rental_uris": {"ios": "https://dc.lft.to/lastmile_qr_scan", "android": "https://dc.lft.to/lastmile_qr_scan"}, "type": "electric_scooter", "lat": 38.8874125, "is_disabled": 0, "lon": -77.02211316666667, "is_reserved": 0}, {"name": "5613564f8de0a49ed1e3a0e870dd321a", "fusion_lat": 0.0, "fusion_lon": 0.0, "bike_id": "5613564f8de0a49ed1e3a0e870dd321a", "rental_uris": {"ios": "https://dc.lft.to/lastmile_qr_scan", "android": "https://dc.lft.to/lastmile_qr_scan"}, "type": "electric_scooter", "lat": 38.898521333333335, "is_disabled": 0, "lon": -76.93153633333333, "is_reserved": 0}, {"name": "8067eab639900cd2afbb15827f3e34de", "fusion_lat": 0.0, "fusion_lon": 0.0, "bike_id": "8067eab639900cd2afbb15827f3e34de", "rental_uris": {"ios": "https://dc.lft.to/lastmile_qr_scan", "android": "https://dc.lft.to/lastmile_qr_scan"}, "type": "electric_scooter", "lat": 38.897944833333334, "is_disabled": 0, "lon": -77.02919433333334, "is_reserved": 0}, {"name": "c2e5b002e4d9abe473bd666fd31c7cc7", "fusion_lat": 0.0, "fusion_lon": 0.0, "bike_id": "c2e5b002e4d9abe473bd666fd31c7cc7", "rental_uris": {"ios": "https://dc.lft.to/lastmile_qr_scan", "android": "https://dc.lft.to/lastmile_qr_scan"}, "type": "electric_scooter", "lat": 38.92246466666667, "is_disabled": 0, "lon": -77.041245, "is_reserved": 0}, {"name": "7a89e8747378866a254c445606d0f678", "fusion_lat": 0.0, "fusion_lon": 0.0, "bike_id": "7a89e8747378866a254c445606d0f678", "rental_uris": {"ios": "https://dc.lft.to/lastmile_qr_scan", "android": "https://dc.lft.to/lastmile_qr_scan"}, "type": "electric_scooter", "lat": 38.938835, "is_disabled": 0, "lon": -77.02507, "is_reserved": 0}, {"name": "e8f7108eb8ada278403d5c75b1716ffe", "fusion_lat": 0.0, "fusion_lon": 0.0, "bike_id": "e8f7108eb8ada278403d5c75b1716ffe", "rental_uris": {"ios": "https://dc.lft.to/lastmile_qr_scan", "android": "https://dc.lft.to/lastmile_qr_scan"}, "type": "electric_scooter", "lat": 38.86712966666666, "is_disabled": 0, "lon": -76.98731683333334, "is_reserved": 0}, {"name": "1341af1481d11002f0f1de24a731cf95", "fusion_lat": 0.0, "fusion_lon": 0.0, "bike_id": "1341af1481d11002f0f1de24a731cf95", "rental_uris": {"ios": "https://dc.lft.to/lastmile_qr_scan", "android": "https://dc.lft.to/lastmile_qr_scan"}, "type": "electric_scooter", "lat": 38.91639983333334, "is_disabled": 0, "lon": -77.02244333333333, "is_reserved": 0}, {"name": "c1576b9b7df1d67793efb73720271657", "fusion_lat": 0.0, "fusion_lon": 0.0, "bike_id": "c1576b9b7df1d67793efb73720271657", "rental_uris": {"ios": "https://dc.lft.to/lastmile_qr_scan", "android": "https://dc.lft.to/lastmile_qr_scan"}, "type": "electric_scooter", "lat": 38.89306966666667, "is_disabled": 0, "lon": -77.05023233333333, "is_reserved": 0}, {"name": "42929d33f03ed120629a0208c23b700d", "fusion_lat": 0.0, "fusion_lon": 0.0, "bike_id": "42929d33f03ed120629a0208c23b700d", "rental_uris": {"ios": "https://dc.lft.to/lastmile_qr_scan", "android": "https://dc.lft.to/lastmile_qr_scan"}, "type": "electric_scooter", "lat": 38.871688, "is_disabled": 0, "lon": -77.0062415, "is_reserved": 0}, {"name": "1826615dab6e876fda6e9ae9e3f2fe9d", "fusion_lat": 0.0, "fusion_lon": 0.0, "bike_id": "1826615dab6e876fda6e9ae9e3f2fe9d", "rental_uris": {"ios": "https://dc.lft.to/lastmile_qr_scan", "android": "https://dc.lft.to/lastmile_qr_scan"}, "type": "electric_scooter", "lat": 38.91681533333333, "is_disabled": 0, "lon": -77.02969383333334, "is_reserved": 0}, {"name": "1d3928194f899d258c5e989289cc1ae9", "fusion_lat": 0.0, "fusion_lon": 0.0, "bike_id": "1d3928194f899d258c5e989289cc1ae9", "rental_uris": {"ios": "https://dc.lft.to/lastmile_qr_scan", "android": "https://dc.lft.to/lastmile_qr_scan"}, "type": "electric_scooter", "lat": 38.86699633333333, "is_disabled": 0, "lon": -76.98712866666666, "is_reserved": 0}, {"name": "71555d37fb8d4bfc4c00d12e8316f526", "fusion_lat": 0.0, "fusion_lon": 0.0, "bike_id": "71555d37fb8d4bfc4c00d12e8316f526", "rental_uris": {"ios": "https://dc.lft.to/lastmile_qr_scan", "android": "https://dc.lft.to/lastmile_qr_scan"}, "type": "electric_scooter", "lat": 38.919874666666665, "is_disabled": 0, "lon": -77.03313966666667, "is_reserved": 0}, {"name": "60a15613bb59de49b8733f3c3b3eef3f", "fusion_lat": 0.0, "fusion_lon": 0.0, "bike_id": "60a15613bb59de49b8733f3c3b3eef3f", "rental_uris": {"ios": "https://dc.lft.to/lastmile_qr_scan", "android": "https://dc.lft.to/lastmile_qr_scan"}, "type": "electric_scooter", "lat": 38.9161425, "is_disabled": 0, "lon": -77.023002, "is_reserved": 0}, {"name": "c3d895cc4822ecad35bbfb15e587f28c", "fusion_lat": 0.0, "fusion_lon": 0.0, "bike_id": "c3d895cc4822ecad35bbfb15e587f28c", "rental_uris": {"ios": "https://dc.lft.to/lastmile_qr_scan", "android": "https://dc.lft.to/lastmile_qr_scan"}, "type": "electric_scooter", "lat": 38.89606633333333, "is_disabled": 0, "lon": -77.05439816666667, "is_reserved": 0}, {"name": "c00f8fc74055023993a47a6543ee434b", "fusion_lat": 0.0, "fusion_lon": 0.0, "bike_id": "c00f8fc74055023993a47a6543ee434b", "rental_uris": {"ios": "https://dc.lft.to/lastmile_qr_scan", "android": "https://dc.lft.to/lastmile_qr_scan"}, "type": "electric_scooter", "lat": 38.91598483333333, "is_disabled": 0, "lon": -77.02355316666667, "is_reserved": 0}, {"name": "bb62f1ade837e20dfe49d0b400b1772e", "fusion_lat": 0.0, "fusion_lon": 0.0, "bike_id": "bb62f1ade837e20dfe49d0b400b1772e", "rental_uris": {"ios": "https://dc.lft.to/lastmile_qr_scan", "android": "https://dc.lft.to/lastmile_qr_scan"}, "type": "electric_scooter", "lat": 38.898259833333334, "is_disabled": 0, "lon": -77.03313266666666, "is_reserved": 0}, {"name": "c061912eaf083f66a1fc9c20fba7ab70", "fusion_lat": 0.0, "fusion_lon": 0.0, "bike_id": "c061912eaf083f66a1fc9c20fba7ab70", "rental_uris": {"ios": "https://dc.lft.to/lastmile_qr_scan", "android": "https://dc.lft.to/lastmile_qr_scan"}, "type": "electric_scooter", "lat": 38.885148, "is_disabled": 0, "lon": -76.9482735, "is_reserved": 0}, {"name": "10f9357b31fbf38d3323ec6cbce0d9b2", "fusion_lat": 0.0, "fusion_lon": 0.0, "bike_id": "10f9357b31fbf38d3323ec6cbce0d9b2", "rental_uris": {"ios": "https://dc.lft.to/lastmile_qr_scan", "android": "https://dc.lft.to/lastmile_qr_scan"}, "type": "electric_bike", "lat": 39.028653, "is_disabled": 0, "lon": -77.104354, "is_reserved": 0}, {"name": "982175d088f051bb3bc0423cab00356e", "fusion_lat": 0.0, "fusion_lon": 0.0, "bike_id": "982175d088f051bb3bc0423cab00356e", "rental_uris": {"ios": "https://dc.lft.to/lastmile_qr_scan", "android": "https://dc.lft.to/lastmile_qr_scan"}, "type": "electric_bike", "lat": 38.903321, "is_disabled": 0, "lon": -76.9753, "is_reserved": 0}, {"name": "055ba0a1e83f6bb4096570c8f7f34a47", "fusion_lat": 0.0, "fusion_lon": 0.0, "bike_id": "055ba0a1e83f6bb4096570c8f7f34a47", "rental_uris": {"ios": "https://dc.lft.to/lastmile_qr_scan", "android": "https://dc.lft.to/lastmile_qr_scan"}, "type": "electric_scooter", "lat": 38.91817833333333, "is_disabled": 0, "lon": -77.045275, "is_reserved": 0}, {"name": "798d0d9b17878b31e2ca75ee582da48a", "fusion_lat": 0.0, "fusion_lon": 0.0, "bike_id": "798d0d9b17878b31e2ca75ee582da48a", "rental_uris": {"ios": "https://dc.lft.to/lastmile_qr_scan", "android": "https://dc.lft.to/lastmile_qr_scan"}, "type": "electric_scooter", "lat": 38.915827666666665, "is_disabled": 0, "lon": -77.0200175, "is_reserved": 0}, {"name": "c8e650ac794b3f79a25759aad25cfa6c", "fusion_lat": 0.0, "fusion_lon": 0.0, "bike_id": "c8e650ac794b3f79a25759aad25cfa6c", "rental_uris": {"ios": "https://dc.lft.to/lastmile_qr_scan", "android": "https://dc.lft.to/lastmile_qr_scan"}, "type": "electric_scooter", "lat": 38.92728416666667, "is_disabled": 0, "lon": -76.978782, "is_reserved": 0}, {"name": "e17bab09b68f6aad4b99652c1c09f61b", "fusion_lat": 0.0, "fusion_lon": 0.0, "bike_id": "e17bab09b68f6aad4b99652c1c09f61b", "rental_uris": {"ios": "https://dc.lft.to/lastmile_qr_scan", "android": "https://dc.lft.to/lastmile_qr_scan"}, "type": "electric_scooter", "lat": 38.885860666666666, "is_disabled": 0, "lon": -77.01226233333334, "is_reserved": 0}, {"name": "728ff8d755f46430afd3ab2ee73fe442", "fusion_lat": 0.0, "fusion_lon": 0.0, "bike_id": "728ff8d755f46430afd3ab2ee73fe442", "rental_uris": {"ios": "https://dc.lft.to/lastmile_qr_scan", "android": "https://dc.lft.to/lastmile_qr_scan"}, "type": "electric_scooter", "lat": 38.910448333333335, "is_disabled": 0, "lon": -77.0362355, "is_reserved": 0}, {"name": "7273512671ed3a6c261e3d197c1ee774", "fusion_lat": 0.0, "fusion_lon": 0.0, "bike_id": "7273512671ed3a6c261e3d197c1ee774", "rental_uris": {"ios": "https://dc.lft.to/lastmile_qr_scan", "android": "https://dc.lft.to/lastmile_qr_scan"}, "type": "electric_bike", "lat": 38.910627833333336, "is_disabled": 0, "lon": -77.0551445, "is_reserved": 0}, {"name": "c8278189b7825a72684dc568f5c3f884", "fusion_lat": 0.0, "fusion_lon": 0.0, "bike_id": "c8278189b7825a72684dc568f5c3f884", "rental_uris": {"ios": "https://dc.lft.to/lastmile_qr_scan", "android": "https://dc.lft.to/lastmile_qr_scan"}, "type": "electric_scooter", "lat": 38.890161666666664, "is_disabled": 0, "lon": -76.93743, "is_reserved": 0}, {"name": "5f0661e6188b4f944c9b819a24c3d252", "fusion_lat": 0.0, "fusion_lon": 0.0, "bike_id": "5f0661e6188b4f944c9b819a24c3d252", "rental_uris": {"ios": "https://dc.lft.to/lastmile_qr_scan", "android": "https://dc.lft.to/lastmile_qr_scan"}, "type": "electric_scooter", "lat": 38.918088166666664, "is_disabled": 0, "lon": -77.03179733333333, "is_reserved": 0}, {"name": "91087aeeae4c06967e0370f9964f77ad", "fusion_lat": 0.0, "fusion_lon": 0.0, "bike_id": "91087aeeae4c06967e0370f9964f77ad", "rental_uris": {"ios": "https://dc.lft.to/lastmile_qr_scan", "android": "https://dc.lft.to/lastmile_qr_scan"}, "type": "electric_scooter", "lat": 38.91982083333333, "is_disabled": 0, "lon": -76.973166, "is_reserved": 0}, {"name": "a565e5293e8980fda37b844269570dd6", "fusion_lat": 0.0, "fusion_lon": 0.0, "bike_id": "a565e5293e8980fda37b844269570dd6", "rental_uris": {"ios": "https://dc.lft.to/lastmile_qr_scan", "android": "https://dc.lft.to/lastmile_qr_scan"}, "type": "electric_bike", "lat": 38.920670333333334, "is_disabled": 0, "lon": -77.0436775, "is_reserved": 0}, {"name": "51fe8ddbe16e07cd2843cd68d5e114a6", "fusion_lat": 0.0, "fusion_lon": 0.0, "bike_id": "51fe8ddbe16e07cd2843cd68d5e114a6", "rental_uris": {"ios": "https://dc.lft.to/lastmile_qr_scan", "android": "https://dc.lft.to/lastmile_qr_scan"}, "type": "electric_scooter", "lat": 38.91697766666667, "is_disabled": 0, "lon": -77.03391383333333, "is_reserved": 0}, {"name": "457c7fbf383edd38f6778e4a03d6c132", "fusion_lat": 0.0, "fusion_lon": 0.0, "bike_id": "457c7fbf383edd38f6778e4a03d6c132", "rental_uris": {"ios": "https://dc.lft.to/lastmile_qr_scan", "android": "https://dc.lft.to/lastmile_qr_scan"}, "type": "electric_scooter", "lat": 38.911667, "is_disabled": 0, "lon": -77.00202416666667, "is_reserved": 0}, {"name": "b32c2a42b301e463a4f1a534e18601c5", "fusion_lat": 0.0, "fusion_lon": 0.0, "bike_id": "b32c2a42b301e463a4f1a534e18601c5", "rental_uris": {"ios": "https://dc.lft.to/lastmile_qr_scan", "android": "https://dc.lft.to/lastmile_qr_scan"}, "type": "electric_scooter", "lat": 38.89676733333334, "is_disabled": 0, "lon": -76.99655083333333, "is_reserved": 0}, {"name": "b25c1fad3b8be677846744d3afda20a3", "fusion_lat": 0.0, "fusion_lon": 0.0, "bike_id": "b25c1fad3b8be677846744d3afda20a3", "rental_uris": {"ios": "https://dc.lft.to/lastmile_qr_scan", "android": "https://dc.lft.to/lastmile_qr_scan"}, "type": "electric_scooter", "lat": 38.901790166666665, "is_disabled": 0, "lon": -77.02497016666666, "is_reserved": 0}, {"name": "2db5c4cbf313144c4ad8817ff2be65fc", "fusion_lat": 0.0, "fusion_lon": 0.0, "bike_id": "2db5c4cbf313144c4ad8817ff2be65fc", "rental_uris": {"ios": "https://dc.lft.to/lastmile_qr_scan", "android": "https://dc.lft.to/lastmile_qr_scan"}, "type": "electric_scooter", "lat": 38.923577, "is_disabled": 0, "lon": -77.0412305, "is_reserved": 0}, {"name": "9e713869956eb8ff33ce0b3a9ef51d13", "fusion_lat": 0.0, "fusion_lon": 0.0, "bike_id": "9e713869956eb8ff33ce0b3a9ef51d13", "rental_uris": {"ios": "https://dc.lft.to/lastmile_qr_scan", "android": "https://dc.lft.to/lastmile_qr_scan"}, "type": "electric_scooter", "lat": 38.9171665, "is_disabled": 0, "lon": -77.02765666666667, "is_reserved": 0}, {"name": "adbfb6239145530add94e7606305588f", "fusion_lat": 0.0, "fusion_lon": 0.0, "bike_id": "adbfb6239145530add94e7606305588f", "rental_uris": {"ios": "https://dc.lft.to/lastmile_qr_scan", "android": "https://dc.lft.to/lastmile_qr_scan"}, "type": "electric_scooter", "lat": 38.898587, "is_disabled": 0, "lon": -77.04160783333333, "is_reserved": 0}, {"name": "b75aee53042685f0a6c992c2e0f8bdbe", "fusion_lat": 0.0, "fusion_lon": 0.0, "bike_id": "b75aee53042685f0a6c992c2e0f8bdbe", "rental_uris": {"ios": "https://dc.lft.to/lastmile_qr_scan", "android": "https://dc.lft.to/lastmile_qr_scan"}, "type": "electric_scooter", "lat": 38.8671325, "is_disabled": 0, "lon": -76.98731066666667, "is_reserved": 0}, {"name": "c0fd7eb745ecea0431241bceecf7b5c1", "fusion_lat": 0.0, "fusion_lon": 0.0, "bike_id": "c0fd7eb745ecea0431241bceecf7b5c1", "rental_uris": {"ios": "https://dc.lft.to/lastmile_qr_scan", "android": "https://dc.lft.to/lastmile_qr_scan"}, "type": "electric_scooter", "lat": 38.909626333333335, "is_disabled": 0, "lon": -77.02003766666667, "is_reserved": 0}, {"name": "8f258bf760edc277fa084df5785af3ef", "fusion_lat": 0.0, "fusion_lon": 0.0, "bike_id": "8f258bf760edc277fa084df5785af3ef", "rental_uris": {"ios": "https://dc.lft.to/lastmile_qr_scan", "android": "https://dc.lft.to/lastmile_qr_scan"}, "type": "electric_scooter", "lat": 38.89617633333334, "is_disabled": 0, "lon": -76.99638866666666, "is_reserved": 0}, {"name": "ef0691f6fb1995e7f2ddc340bb02ad10", "fusion_lat": 0.0, "fusion_lon": 0.0, "bike_id": "ef0691f6fb1995e7f2ddc340bb02ad10", "rental_uris": {"ios": "https://dc.lft.to/lastmile_qr_scan", "android": "https://dc.lft.to/lastmile_qr_scan"}, "type": "electric_scooter", "lat": 38.901857166666666, "is_disabled": 0, "lon": -76.9282595, "is_reserved": 0}, {"name": "a5e56fd6b1ebb07d35610142098a6e41", "fusion_lat": 0.0, "fusion_lon": 0.0, "bike_id": "a5e56fd6b1ebb07d35610142098a6e41", "rental_uris": {"ios": "https://dc.lft.to/lastmile_qr_scan", "android": "https://dc.lft.to/lastmile_qr_scan"}, "type": "electric_scooter", "lat": 38.920522, "is_disabled": 0, "lon": -77.025519, "is_reserved": 0}, {"name": "9ca32a6c569ae0ac89dd6a7404033917", "fusion_lat": 0.0, "fusion_lon": 0.0, "bike_id": "9ca32a6c569ae0ac89dd6a7404033917", "rental_uris": {"ios": "https://dc.lft.to/lastmile_qr_scan", "android": "https://dc.lft.to/lastmile_qr_scan"}, "type": "electric_scooter", "lat": 38.91486833333333, "is_disabled": 0, "lon": -77.0321315, "is_reserved": 0}, {"name": "587536f41da7c4488a00886de2c706b8", "fusion_lat": 0.0, "fusion_lon": 0.0, "bike_id": "587536f41da7c4488a00886de2c706b8", "rental_uris": {"ios": "https://dc.lft.to/lastmile_qr_scan", "android": "https://dc.lft.to/lastmile_qr_scan"}, "type": "electric_scooter", "lat": 38.89965766666667, "is_disabled": 0, "lon": -77.046138, "is_reserved": 0}, {"name": "a183de5caaa4424da1cd82ec791722a4", "fusion_lat": 0.0, "fusion_lon": 0.0, "bike_id": "a183de5caaa4424da1cd82ec791722a4", "rental_uris": {"ios": "https://dc.lft.to/lastmile_qr_scan", "android": "https://dc.lft.to/lastmile_qr_scan"}, "type": "electric_scooter", "lat": 38.91080216666667, "is_disabled": 0, "lon": -77.00149566666667, "is_reserved": 0}, {"name": "6d5b0d59e6deef626b215f959b8535b7", "fusion_lat": 0.0, "fusion_lon": 0.0, "bike_id": "6d5b0d59e6deef626b215f959b8535b7", "rental_uris": {"ios": "https://dc.lft.to/lastmile_qr_scan", "android": "https://dc.lft.to/lastmile_qr_scan"}, "type": "electric_scooter", "lat": 38.932469, "is_disabled": 0, "lon": -77.03265666666667, "is_reserved": 0}, {"name": "0586057d8ecd023f2139c6bfbc5ab909", "fusion_lat": 0.0, "fusion_lon": 0.0, "bike_id": "0586057d8ecd023f2139c6bfbc5ab909", "rental_uris": {"ios": "https://dc.lft.to/lastmile_qr_scan", "android": "https://dc.lft.to/lastmile_qr_scan"}, "type": "electric_scooter", "lat": 38.89724533333333, "is_disabled": 0, "lon": -76.9925995, "is_reserved": 0}, {"name": "ba27a95d5c82dec95073fffa713d2293", "fusion_lat": 0.0, "fusion_lon": 0.0, "bike_id": "ba27a95d5c82dec95073fffa713d2293", "rental_uris": {"ios": "https://dc.lft.to/lastmile_qr_scan", "android": "https://dc.lft.to/lastmile_qr_scan"}, "type": "electric_bike", "lat": 38.957588333333334, "is_disabled": 0, "lon": -76.98021916666667, "is_reserved": 0}, {"name": "1fcadbdf3eea8c407c01d3c964f7d1cd", "fusion_lat": 0.0, "fusion_lon": 0.0, "bike_id": "1fcadbdf3eea8c407c01d3c964f7d1cd", "rental_uris": {"ios": "https://dc.lft.to/lastmile_qr_scan", "android": "https://dc.lft.to/lastmile_qr_scan"}, "type": "electric_scooter", "lat": 38.90056116666667, "is_disabled": 0, "lon": -77.04394666666667, "is_reserved": 0}, {"name": "bd1f21cf06d319f02cd9ae77d999628b", "fusion_lat": 0.0, "fusion_lon": 0.0, "bike_id": "bd1f21cf06d319f02cd9ae77d999628b", "rental_uris": {"ios": "https://dc.lft.to/lastmile_qr_scan", "android": "https://dc.lft.to/lastmile_qr_scan"}, "type": "electric_scooter", "lat": 38.8974665, "is_disabled": 0, "lon": -77.02155566666667, "is_reserved": 0}, {"name": "b5004987b66ac4e27546e492c6bd85c1", "fusion_lat": 0.0, "fusion_lon": 0.0, "bike_id": "b5004987b66ac4e27546e492c6bd85c1", "rental_uris": {"ios": "https://dc.lft.to/lastmile_qr_scan", "android": "https://dc.lft.to/lastmile_qr_scan"}, "type": "electric_scooter", "lat": 38.915709166666666, "is_disabled": 0, "lon": -77.03274283333333, "is_reserved": 0}, {"name": "9897d4e0f03cdc6f67776ec0f73e9667", "fusion_lat": 0.0, "fusion_lon": 0.0, "bike_id": "9897d4e0f03cdc6f67776ec0f73e9667", "rental_uris": {"ios": "https://dc.lft.to/lastmile_qr_scan", "android": "https://dc.lft.to/lastmile_qr_scan"}, "type": "electric_scooter", "lat": 38.88048116666667, "is_disabled": 0, "lon": -77.02479033333333, "is_reserved": 0}, {"name": "1303d0a47f0afa7f486c0539283f074b", "fusion_lat": 0.0, "fusion_lon": 0.0, "bike_id": "1303d0a47f0afa7f486c0539283f074b", "rental_uris": {"ios": "https://dc.lft.to/lastmile_qr_scan", "android": "https://dc.lft.to/lastmile_qr_scan"}, "type": "electric_scooter", "lat": 38.92481466666667, "is_disabled": 0, "lon": -77.0291465, "is_reserved": 0}, {"name": "2059dcf91dca50b8796d03469773d319", "fusion_lat": 0.0, "fusion_lon": 0.0, "bike_id": "2059dcf91dca50b8796d03469773d319", "rental_uris": {"ios": "https://dc.lft.to/lastmile_qr_scan", "android": "https://dc.lft.to/lastmile_qr_scan"}, "type": "electric_scooter", "lat": 38.92738283333333, "is_disabled": 0, "lon": -77.01203783333334, "is_reserved": 0}, {"name": "0bc0b4ce5cdef37217e13f1b4571f9be", "fusion_lat": 0.0, "fusion_lon": 0.0, "bike_id": "0bc0b4ce5cdef37217e13f1b4571f9be", "rental_uris": {"ios": "https://dc.lft.to/lastmile_qr_scan", "android": "https://dc.lft.to/lastmile_qr_scan"}, "type": "electric_scooter", "lat": 38.89367933333333, "is_disabled": 0, "lon": -76.98462866666667, "is_reserved": 0}, {"name": "b43eb7cdaa5385413f8ec8258b4fcf89", "fusion_lat": 0.0, "fusion_lon": 0.0, "bike_id": "b43eb7cdaa5385413f8ec8258b4fcf89", "rental_uris": {"ios": "https://dc.lft.to/lastmile_qr_scan", "android": "https://dc.lft.to/lastmile_qr_scan"}, "type": "electric_scooter", "lat": 38.92757683333333, "is_disabled": 0, "lon": -77.03262866666667, "is_reserved": 0}, {"name": "1922682e9811ac77a5f7631061b0cf61", "fusion_lat": 0.0, "fusion_lon": 0.0, "bike_id": "1922682e9811ac77a5f7631061b0cf61", "rental_uris": {"ios": "https://dc.lft.to/lastmile_qr_scan", "android": "https://dc.lft.to/lastmile_qr_scan"}, "type": "electric_scooter", "lat": 38.89711666666667, "is_disabled": 0, "lon": -77.00837466666667, "is_reserved": 0}, {"name": "81edbe479b5bc8e894e57be53b01c45d", "fusion_lat": 0.0, "fusion_lon": 0.0, "bike_id": "81edbe479b5bc8e894e57be53b01c45d", "rental_uris": {"ios": "https://dc.lft.to/lastmile_qr_scan", "android": "https://dc.lft.to/lastmile_qr_scan"}, "type": "electric_scooter", "lat": 38.9012175, "is_disabled": 0, "lon": -77.03233216666666, "is_reserved": 0}, {"name": "39f617522c9352c5b58dbefefce5e7d1", "fusion_lat": 0.0, "fusion_lon": 0.0, "bike_id": "39f617522c9352c5b58dbefefce5e7d1", "rental_uris": {"ios": "https://dc.lft.to/lastmile_qr_scan", "android": "https://dc.lft.to/lastmile_qr_scan"}, "type": "electric_scooter", "lat": 38.901577833333334, "is_disabled": 0, "lon": -76.93554766666666, "is_reserved": 0}, {"name": "920b49ae04b46cfdc9e4f56e2974b70d", "fusion_lat": 0.0, "fusion_lon": 0.0, "bike_id": "920b49ae04b46cfdc9e4f56e2974b70d", "rental_uris": {"ios": "https://dc.lft.to/lastmile_qr_scan", "android": "https://dc.lft.to/lastmile_qr_scan"}, "type": "electric_bike", "lat": 38.90690266666667, "is_disabled": 0, "lon": -76.951953, "is_reserved": 0}, {"name": "a614c45953094b4d91c2f1958c4a6350", "fusion_lat": 0.0, "fusion_lon": 0.0, "bike_id": "a614c45953094b4d91c2f1958c4a6350", "rental_uris": {"ios": "https://dc.lft.to/lastmile_qr_scan", "android": "https://dc.lft.to/lastmile_qr_scan"}, "type": "electric_scooter", "lat": 38.925819833333335, "is_disabled": 0, "lon": -77.032139, "is_reserved": 0}, {"name": "a747d870bfb7c05d5d73f1a61652b596", "fusion_lat": 0.0, "fusion_lon": 0.0, "bike_id": "a747d870bfb7c05d5d73f1a61652b596", "rental_uris": {"ios": "https://dc.lft.to/lastmile_qr_scan", "android": "https://dc.lft.to/lastmile_qr_scan"}, "type": "electric_scooter", "lat": 38.91675133333333, "is_disabled": 0, "lon": -77.04200366666667, "is_reserved": 0}, {"name": "3f5583223e0f925354d48cc866235b07", "fusion_lat": 0.0, "fusion_lon": 0.0, "bike_id": "3f5583223e0f925354d48cc866235b07", "rental_uris": {"ios": "https://dc.lft.to/lastmile_qr_scan", "android": "https://dc.lft.to/lastmile_qr_scan"}, "type": "electric_scooter", "lat": 38.91416183333333, "is_disabled": 0, "lon": -77.0418365, "is_reserved": 0}, {"name": "e6c7391e7a694844837a538a9f6efee8", "fusion_lat": 0.0, "fusion_lon": 0.0, "bike_id": "e6c7391e7a694844837a538a9f6efee8", "rental_uris": {"ios": "https://dc.lft.to/lastmile_qr_scan", "android": "https://dc.lft.to/lastmile_qr_scan"}, "type": "electric_scooter", "lat": 38.905153, "is_disabled": 0, "lon": -77.0578315, "is_reserved": 0}, {"name": "fb5603f2da59fdc1ecb0640f2ec8512d", "fusion_lat": 0.0, "fusion_lon": 0.0, "bike_id": "fb5603f2da59fdc1ecb0640f2ec8512d", "rental_uris": {"ios": "https://dc.lft.to/lastmile_qr_scan", "android": "https://dc.lft.to/lastmile_qr_scan"}, "type": "electric_scooter", "lat": 38.9111175, "is_disabled": 0, "lon": -77.03468916666667, "is_reserved": 0}, {"name": "22342b64853e9c17c2b2b17e35adebd2", "fusion_lat": 0.0, "fusion_lon": 0.0, "bike_id": "22342b64853e9c17c2b2b17e35adebd2", "rental_uris": {"ios": "https://dc.lft.to/lastmile_qr_scan", "android": "https://dc.lft.to/lastmile_qr_scan"}, "type": "electric_scooter", "lat": 38.84436133333333, "is_disabled": 0, "lon": -76.997796, "is_reserved": 0}, {"name": "940aeda34c2c6bac5b17780a768944cf", "fusion_lat": 0.0, "fusion_lon": 0.0, "bike_id": "940aeda34c2c6bac5b17780a768944cf", "rental_uris": {"ios": "https://dc.lft.to/lastmile_qr_scan", "android": "https://dc.lft.to/lastmile_qr_scan"}, "type": "electric_scooter", "lat": 38.88701533333333, "is_disabled": 0, "lon": -76.95367116666667, "is_reserved": 0}, {"name": "1bca97717c155043f68a1b4c72364780", "fusion_lat": 0.0, "fusion_lon": 0.0, "bike_id": "1bca97717c155043f68a1b4c72364780", "rental_uris": {"ios": "https://dc.lft.to/lastmile_qr_scan", "android": "https://dc.lft.to/lastmile_qr_scan"}, "type": "electric_scooter", "lat": 38.90525216666666, "is_disabled": 0, "lon": -77.0502855, "is_reserved": 0}, {"name": "167ea293c44154953ca614d9201ee065", "fusion_lat": 0.0, "fusion_lon": 0.0, "bike_id": "167ea293c44154953ca614d9201ee065", "rental_uris": {"ios": "https://dc.lft.to/lastmile_qr_scan", "android": "https://dc.lft.to/lastmile_qr_scan"}, "type": "electric_scooter", "lat": 38.8429575, "is_disabled": 0, "lon": -76.9994925, "is_reserved": 0}, {"name": "2c0d8f409bbf00c76062daed8b7236d3", "fusion_lat": 0.0, "fusion_lon": 0.0, "bike_id": "2c0d8f409bbf00c76062daed8b7236d3", "rental_uris": {"ios": "https://dc.lft.to/lastmile_qr_scan", "android": "https://dc.lft.to/lastmile_qr_scan"}, "type": "electric_scooter", "lat": 38.9004175, "is_disabled": 0, "lon": -77.00753616666667, "is_reserved": 0}, {"name": "a03960a43256813d8158fe3c6a441fe7", "fusion_lat": 0.0, "fusion_lon": 0.0, "bike_id": "a03960a43256813d8158fe3c6a441fe7", "rental_uris": {"ios": "https://dc.lft.to/lastmile_qr_scan", "android": "https://dc.lft.to/lastmile_qr_scan"}, "type": "electric_scooter", "lat": 38.86469966666667, "is_disabled": 0, "lon": -76.98226116666666, "is_reserved": 0}, {"name": "9ee48a53c95cdadd74eea3bbeeefdf0f", "fusion_lat": 0.0, "fusion_lon": 0.0, "bike_id": "9ee48a53c95cdadd74eea3bbeeefdf0f", "rental_uris": {"ios": "https://dc.lft.to/lastmile_qr_scan", "android": "https://dc.lft.to/lastmile_qr_scan"}, "type": "electric_scooter", "lat": 38.89531366666667, "is_disabled": 0, "lon": -76.9489205, "is_reserved": 0}, {"name": "84d84abc95c3a4034b878cc2f775ef4c", "fusion_lat": 0.0, "fusion_lon": 0.0, "bike_id": "84d84abc95c3a4034b878cc2f775ef4c", "rental_uris": {"ios": "https://dc.lft.to/lastmile_qr_scan", "android": "https://dc.lft.to/lastmile_qr_scan"}, "type": "electric_scooter", "lat": 38.922047166666665, "is_disabled": 0, "lon": -77.03512783333333, "is_reserved": 0}, {"name": "a2e91c7b31b4aaf3df1b1102a03c2863", "fusion_lat": 0.0, "fusion_lon": 0.0, "bike_id": "a2e91c7b31b4aaf3df1b1102a03c2863", "rental_uris": {"ios": "https://dc.lft.to/lastmile_qr_scan", "android": "https://dc.lft.to/lastmile_qr_scan"}, "type": "electric_scooter", "lat": 38.87175, "is_disabled": 0, "lon": -77.0062715, "is_reserved": 0}, {"name": "119d4ed2d55a401daaa81b56ae8e6f35", "fusion_lat": 0.0, "fusion_lon": 0.0, "bike_id": "119d4ed2d55a401daaa81b56ae8e6f35", "rental_uris": {"ios": "https://dc.lft.to/lastmile_qr_scan", "android": "https://dc.lft.to/lastmile_qr_scan"}, "type": "electric_scooter", "lat": 38.9042485, "is_disabled": 0, "lon": -77.02603716666667, "is_reserved": 0}, {"name": "c6f782517a82d3dadcc0e0ef5a2f1ff1", "fusion_lat": 0.0, "fusion_lon": 0.0, "bike_id": "c6f782517a82d3dadcc0e0ef5a2f1ff1", "rental_uris": {"ios": "https://dc.lft.to/lastmile_qr_scan", "android": "https://dc.lft.to/lastmile_qr_scan"}, "type": "electric_scooter", "lat": 38.92576016666667, "is_disabled": 0, "lon": -77.08061916666666, "is_reserved": 0}, {"name": "713b5370a4831d5e94e4056815aaac3b", "fusion_lat": 0.0, "fusion_lon": 0.0, "bike_id": "713b5370a4831d5e94e4056815aaac3b", "rental_uris": {"ios": "https://dc.lft.to/lastmile_qr_scan", "android": "https://dc.lft.to/lastmile_qr_scan"}, "type": "electric_scooter", "lat": 38.90698716666667, "is_disabled": 0, "lon": -76.98708366666666, "is_reserved": 0}, {"name": "d0a9e9307df328dc59f5eddb1df7c629", "fusion_lat": 0.0, "fusion_lon": 0.0, "bike_id": "d0a9e9307df328dc59f5eddb1df7c629", "rental_uris": {"ios": "https://dc.lft.to/lastmile_qr_scan", "android": "https://dc.lft.to/lastmile_qr_scan"}, "type": "electric_bike", "lat": 38.877553166666665, "is_disabled": 0, "lon": -76.97994316666667, "is_reserved": 0}, {"name": "391cbadc4e76a54e2f3a88a142be080c", "fusion_lat": 0.0, "fusion_lon": 0.0, "bike_id": "391cbadc4e76a54e2f3a88a142be080c", "rental_uris": {"ios": "https://dc.lft.to/lastmile_qr_scan", "android": "https://dc.lft.to/lastmile_qr_scan"}, "type": "electric_scooter", "lat": 38.926361666666665, "is_disabled": 0, "lon": -77.037899, "is_reserved": 0}, {"name": "732a07881480ed16b139f2b9f81553cd", "fusion_lat": 0.0, "fusion_lon": 0.0, "bike_id": "732a07881480ed16b139f2b9f81553cd", "rental_uris": {"ios": "https://dc.lft.to/lastmile_qr_scan", "android": "https://dc.lft.to/lastmile_qr_scan"}, "type": "electric_bike", "lat": 38.939647666666666, "is_disabled": 0, "lon": -77.3608895, "is_reserved": 0}, {"name": "e73e93cac349b6dfc05723f2ba5a24cc", "fusion_lat": 0.0, "fusion_lon": 0.0, "bike_id": "e73e93cac349b6dfc05723f2ba5a24cc", "rental_uris": {"ios": "https://dc.lft.to/lastmile_qr_scan", "android": "https://dc.lft.to/lastmile_qr_scan"}, "type": "electric_scooter", "lat": 38.919159666666665, "is_disabled": 0, "lon": -77.03412866666666, "is_reserved": 0}, {"name": "63854a5366952d63794a16835e75bf60", "fusion_lat": 0.0, "fusion_lon": 0.0, "bike_id": "63854a5366952d63794a16835e75bf60", "rental_uris": {"ios": "https://dc.lft.to/lastmile_qr_scan", "android": "https://dc.lft.to/lastmile_qr_scan"}, "type": "electric_scooter", "lat": 38.90977083333333, "is_disabled": 0, "lon": -77.0375125, "is_reserved": 0}, {"name": "193169f93cdbf6e103f86f6011506f0c", "fusion_lat": 0.0, "fusion_lon": 0.0, "bike_id": "193169f93cdbf6e103f86f6011506f0c", "rental_uris": {"ios": "https://dc.lft.to/lastmile_qr_scan", "android": "https://dc.lft.to/lastmile_qr_scan"}, "type": "electric_scooter", "lat": 38.87900916666667, "is_disabled": 0, "lon": -77.01365516666667, "is_reserved": 0}, {"name": "e3ae62a595eba0c98b9828f0ba26d47f", "fusion_lat": 0.0, "fusion_lon": 0.0, "bike_id": "e3ae62a595eba0c98b9828f0ba26d47f", "rental_uris": {"ios": "https://dc.lft.to/lastmile_qr_scan", "android": "https://dc.lft.to/lastmile_qr_scan"}, "type": "electric_scooter", "lat": 38.907949, "is_disabled": 0, "lon": -76.9852715, "is_reserved": 0}, {"name": "4f4dfd6dc9b97f7e48f9629beefd311f", "fusion_lat": 0.0, "fusion_lon": 0.0, "bike_id": "4f4dfd6dc9b97f7e48f9629beefd311f", "rental_uris": {"ios": "https://dc.lft.to/lastmile_qr_scan", "android": "https://dc.lft.to/lastmile_qr_scan"}, "type": "electric_bike", "lat": 38.9353755, "is_disabled": 0, "lon": -76.978528, "is_reserved": 0}, {"name": "713165b9fe540340ed88ce2698a082e8", "fusion_lat": 0.0, "fusion_lon": 0.0, "bike_id": "713165b9fe540340ed88ce2698a082e8", "rental_uris": {"ios": "https://dc.lft.to/lastmile_qr_scan", "android": "https://dc.lft.to/lastmile_qr_scan"}, "type": "electric_scooter", "lat": 38.89729766666667, "is_disabled": 0, "lon": -77.02991983333334, "is_reserved": 0}, {"name": "d253ef03d2b539eb6f97ffb55af39370", "fusion_lat": 0.0, "fusion_lon": 0.0, "bike_id": "d253ef03d2b539eb6f97ffb55af39370", "rental_uris": {"ios": "https://dc.lft.to/lastmile_qr_scan", "android": "https://dc.lft.to/lastmile_qr_scan"}, "type": "electric_scooter", "lat": 38.92191066666667, "is_disabled": 0, "lon": -77.072667, "is_reserved": 0}, {"name": "6e940b9163f230d21463cadb7a31f50d", "fusion_lat": 0.0, "fusion_lon": 0.0, "bike_id": "6e940b9163f230d21463cadb7a31f50d", "rental_uris": {"ios": "https://dc.lft.to/lastmile_qr_scan", "android": "https://dc.lft.to/lastmile_qr_scan"}, "type": "electric_scooter", "lat": 38.921057, "is_disabled": 0, "lon": -77.0222135, "is_reserved": 0}, {"name": "fe60f4d552c625e28821770230e4c492", "fusion_lat": 0.0, "fusion_lon": 0.0, "bike_id": "fe60f4d552c625e28821770230e4c492", "rental_uris": {"ios": "https://dc.lft.to/lastmile_qr_scan", "android": "https://dc.lft.to/lastmile_qr_scan"}, "type": "electric_scooter", "lat": 38.93033533333333, "is_disabled": 0, "lon": -77.01361633333333, "is_reserved": 0}, {"name": "106a4f187fd15cbe71d84416a7d80e33", "fusion_lat": 0.0, "fusion_lon": 0.0, "bike_id": "106a4f187fd15cbe71d84416a7d80e33", "rental_uris": {"ios": "https://dc.lft.to/lastmile_qr_scan", "android": "https://dc.lft.to/lastmile_qr_scan"}, "type": "electric_bike", "lat": 38.83154433333333, "is_disabled": 0, "lon": -76.99693733333334, "is_reserved": 0}, {"name": "49113152b5a1b0f50e0beba06dd3bd21", "fusion_lat": 0.0, "fusion_lon": 0.0, "bike_id": "49113152b5a1b0f50e0beba06dd3bd21", "rental_uris": {"ios": "https://dc.lft.to/lastmile_qr_scan", "android": "https://dc.lft.to/lastmile_qr_scan"}, "type": "electric_scooter", "lat": 38.92096383333333, "is_disabled": 0, "lon": -77.02321833333333, "is_reserved": 0}, {"name": "045d45a9af6aeb602b1631e29a9c5bda", "fusion_lat": 0.0, "fusion_lon": 0.0, "bike_id": "045d45a9af6aeb602b1631e29a9c5bda", "rental_uris": {"ios": "https://dc.lft.to/lastmile_qr_scan", "android": "https://dc.lft.to/lastmile_qr_scan"}, "type": "electric_scooter", "lat": 38.92142533333333, "is_disabled": 0, "lon": -77.03476683333334, "is_reserved": 0}, {"name": "48566e8200a8ae5784784537d229ac43", "fusion_lat": 0.0, "fusion_lon": 0.0, "bike_id": "48566e8200a8ae5784784537d229ac43", "rental_uris": {"ios": "https://dc.lft.to/lastmile_qr_scan", "android": "https://dc.lft.to/lastmile_qr_scan"}, "type": "electric_scooter", "lat": 38.909691333333335, "is_disabled": 0, "lon": -77.03186866666667, "is_reserved": 0}, {"name": "507990c0b1c3e7f3ba7a3df52a1164d0", "fusion_lat": 0.0, "fusion_lon": 0.0, "bike_id": "507990c0b1c3e7f3ba7a3df52a1164d0", "rental_uris": {"ios": "https://dc.lft.to/lastmile_qr_scan", "android": "https://dc.lft.to/lastmile_qr_scan"}, "type": "electric_scooter", "lat": 38.919071, "is_disabled": 0, "lon": -77.03930666666666, "is_reserved": 0}, {"name": "54d1f21fb803e2fc8c536268643c9788", "fusion_lat": 0.0, "fusion_lon": 0.0, "bike_id": "54d1f21fb803e2fc8c536268643c9788", "rental_uris": {"ios": "https://dc.lft.to/lastmile_qr_scan", "android": "https://dc.lft.to/lastmile_qr_scan"}, "type": "electric_scooter", "lat": 38.918238833333334, "is_disabled": 0, "lon": -77.03208483333333, "is_reserved": 0}, {"name": "2c21ed3aa048b7454cba4f929a57c716", "fusion_lat": 0.0, "fusion_lon": 0.0, "bike_id": "2c21ed3aa048b7454cba4f929a57c716", "rental_uris": {"ios": "https://dc.lft.to/lastmile_qr_scan", "android": "https://dc.lft.to/lastmile_qr_scan"}, "type": "electric_scooter", "lat": 38.894983833333335, "is_disabled": 0, "lon": -77.0221215, "is_reserved": 0}, {"name": "9dff42a1f28091f0b1b6bf57970253ca", "fusion_lat": 0.0, "fusion_lon": 0.0, "bike_id": "9dff42a1f28091f0b1b6bf57970253ca", "rental_uris": {"ios": "https://dc.lft.to/lastmile_qr_scan", "android": "https://dc.lft.to/lastmile_qr_scan"}, "type": "electric_scooter", "lat": 38.9181835, "is_disabled": 0, "lon": -77.03276583333333, "is_reserved": 0}, {"name": "d40f132bfe18e5e6376cb2a468179555", "fusion_lat": 0.0, "fusion_lon": 0.0, "bike_id": "d40f132bfe18e5e6376cb2a468179555", "rental_uris": {"ios": "https://dc.lft.to/lastmile_qr_scan", "android": "https://dc.lft.to/lastmile_qr_scan"}, "type": "electric_scooter", "lat": 38.846195, "is_disabled": 0, "lon": -76.996317, "is_reserved": 0},