{"data": {"bikes": [{"lat": 38.9126305, "is_disabled": 0, "type": "electric_scooter", "lon": -77.018387, "bike_id": "e64533f4b6f764c6b7ba0ba50a2e3000", "fusion_lat": 0.0, "name": "e64533f4b6f764c6b7ba0ba50a2e3000", "is_reserved": 0, "rental_uris": {"android": "https://dc.lft.to/lastmile_qr_scan", "ios": "https://dc.lft.to/lastmile_qr_scan"}, "fusion_lon": 0.0}, {"lat": 38.94040366666667, "is_disabled": 0, "type": "electric_bike", "lon": -76.98820316666666, "bike_id": "977509a2777fbc2519f4a62e4b0fc33d", "fusion_lat": 0.0, "name": "977509a2777fbc2519f4a62e4b0fc33d", "is_reserved": 0, "rental_uris": {"android": "https://dc.lft.to/lastmile_qr_scan", "ios": "https://dc.lft.to/lastmile_qr_scan"}, "fusion_lon": 0.0}, {"lat": 38.800662333333335, "is_disabled": 0, "type": "electric_bike", "lon": -77.07115783333333, "bike_id": "5a041d16bfca2eeb1bdbe70ffad8ac59", "fusion_lat": 0.0, "name": "5a041d16bfca2eeb1bdbe70ffad8ac59", "is_reserved": 0, "rental_uris": {"android": "https://dc.lft.to/lastmile_qr_scan", "ios": "https://dc.lft.to/lastmile_qr_scan"}, "fusion_lon": 0.0}, {"lat": 38.914279, "is_disabled": 0, "type": "electric_scooter", "lon": -77.0321185, "bike_id": "f1be2425ca129c65a9a044463a0b45f8", "fusion_lat": 0.0, "name": "f1be2425ca129c65a9a044463a0b45f8", "is_reserved": 0, "rental_uris": {"android": "https://dc.lft.to/lastmile_qr_scan", "ios": "https://dc.lft.to/lastmile_qr_scan"}, "fusion_lon": 0.0}, {"lat": 38.903833166666665, "is_disabled": 0, "type": "electric_scooter", "lon": -76.99014016666666, "bike_id": "25bbf2e600e6b4b7b8669775c582e834", "fusion_lat": 0.0, "name": "25bbf2e600e6b4b7b8669775c582e834", "is_reserved": 0, "rental_uris": {"android": "https://dc.lft.to/lastmile_qr_scan", "ios": "https://dc.lft.to/lastmile_qr_scan"}, "fusion_lon": 0.0}, {"lat": 38.908535666666666, "is_disabled": 0, "type": "electric_scooter", "lon": -77.02059133333333, "bike_id": "9365b3bbe57a4fd7cf6c46d94d06f4e9", "fusion_lat": 0.0, "name": "9365b3bbe57a4fd7cf6c46d94d06f4e9", "is_reserved": 0, "rental_uris": {"android": "https://dc.lft.to/lastmile_qr_scan", "ios": "https://dc.lft.to/lastmile_qr_scan"}, "fusion_lon": 0.0}, {"lat": 38.956354166666664, "is_disabled": 0, "type": "electric_bike", "lon": -77.02298183333333, "bike_id": "89f3ab6f70ec649e8230250e096140be", "fusion_lat": 0.0, "name": "89f3ab6f70ec649e8230250e096140be", "is_reserved": 0, "rental_uris": {"android": "https://dc.lft.to/lastmile_qr_scan", "ios": "https://dc.lft.to/lastmile_qr_scan"}, "fusion_lon": 0.0}, {"lat": 38.9206885, "is_disabled": 0, "type": "electric_scooter", "lon": -77.0254285, "bike_id": "63c17c978a8c71b399017d670a573660", "fusion_lat": 0.0, "name": "63c17c978a8c71b399017d670a573660", "is_reserved": 0, "rental_uris": {"android": "https://dc.lft.to/lastmile_qr_scan", "ios": "https://dc.lft.to/lastmile_qr_scan"}, "fusion_lon": 0.0}, {"lat": 38.86657316666667, "is_disabled": 0, "type": "electric_scooter", "lon": -76.9888705, "bike_id": "d02f13c8939c643095b3205ee4cfef12", "fusion_lat": 0.0, "name": "d02f13c8939c643095b3205ee4cfef12", "is_reserved": 0, "rental_uris": {"android": "https://dc.lft.to/lastmile_qr_scan", "ios": "https://dc.lft.to/lastmile_qr_scan"}, "fusion_lon": 0.0}, {"lat": 38.884949166666665, "is_disabled": 0, "type": "electric_scooter", "lon": -77.00701616666667, "bike_id": "339abbcc632c6ea94acb07afe0258b98", "fusion_lat": 0.0, "name": "339abbcc632c6ea94acb07afe0258b98", "is_reserved": 0, "rental_uris": {"android": "https://dc.lft.to/lastmile_qr_scan", "ios": "https://dc.lft.to/lastmile_qr_scan"}, "fusion_lon": 0.0}, {"lat": 38.91982933333333, "is_disabled": 0, "type": "electric_bike", "lon": -77.00331216666666, "bike_id": "518a7a18366aad2a4a7a270a97180a5a", "fusion_lat": 0.0, "name": "518a7a18366aad2a4a7a270a97180a5a", "is_reserved": 0, "rental_uris": {"android": "https://dc.lft.to/lastmile_qr_scan", "ios": "https://dc.lft.to/lastmile_qr_scan"}, "fusion_lon": 0.0}, {"lat": 38.919255666666665, "is_disabled": 0, "type": "electric_scooter", "lon": -77.034218, "bike_id": "296f38f88f8b46e99b2cc0ebb691eea7", "fusion_lat": 0.0, "name": "296f38f88f8b46e99b2cc0ebb691eea7", "is_reserved": 0, "rental_uris": {"android": "https://dc.lft.to/lastmile_qr_scan", "ios": "https://dc.lft.to/lastmile_qr_scan"}, "fusion_lon": 0.0}, {"lat": 38.866765, "is_disabled": 0, "type": "electric_scooter", "lon": -76.98539666666667, "bike_id": "d11bd7e194e0948850d3b0c6e014e6d5", "fusion_lat": 0.0, "name": "d11bd7e194e0948850d3b0c6e014e6d5", "is_reserved": 0, "rental_uris": {"android": "https://dc.lft.to/lastmile_qr_scan", "ios": "https://dc.lft.to/lastmile_qr_scan"}, "fusion_lon": 0.0}, {"lat": 38.892185, "is_disabled": 0, "type": "electric_scooter", "lon": -77.0231885, "bike_id": "bacc3185179b36fc31298d9da53a2cd3", "fusion_lat": 0.0, "name": "bacc3185179b36fc31298d9da53a2cd3", "is_reserved": 0, "rental_uris": {"android": "https://dc.lft.to/lastmile_qr_scan", "ios": "https://dc.lft.to/lastmile_qr_scan"}, "fusion_lon": 0.0}, {"lat": 38.9446795, "is_disabled": 0, "type": "electric_scooter", "lon": -77.0065685, "bike_id": "37deb3866d52c17fc57dc855690b8698", "fusion_lat": 0.0, "name": "37deb3866d52c17fc57dc855690b8698", "is_reserved": 0, "rental_uris": {"android": "https://dc.lft.to/lastmile_qr_scan", "ios": "https://dc.lft.to/lastmile_qr_scan"}, "fusion_lon": 0.0}, {"lat": 38.902334333333336, "is_disabled": 0, "type": "electric_scooter", "lon": -77.0020265, "bike_id": "025cf033d6f8aac336320f09f71933bf", "fusion_lat": 0.0, "name": "025cf033d6f8aac336320f09f71933bf", "is_reserved": 0, "rental_uris": {"android": "https://dc.lft.to/lastmile_qr_scan", "ios": "https://dc.lft.to/lastmile_qr_scan"}, "fusion_lon": 0.0}, {"lat": 38.90551683333333, "is_disabled": 0, "type": "electric_scooter", "lon": -77.00706066666666, "bike_id": "69558a96c307caa27ca2aa8410bf8800", "fusion_lat": 0.0, "name": "69558a96c307caa27ca2aa8410bf8800", "is_reserved": 0, "rental_uris": {"android": "https://dc.lft.to/lastmile_qr_scan", "ios": "https://dc.lft.to/lastmile_qr_scan"}, "fusion_lon": 0.0}, {"lat": 38.89178416666667, "is_disabled": 0, "type": "electric_scooter", "lon": -77.03207383333333, "bike_id": "c11527722412ee8e748dfa63e8d0f5c5", "fusion_lat": 0.0, "name": "c11527722412ee8e748dfa63e8d0f5c5", "is_reserved": 0, "rental_uris": {"android": "https://dc.lft.to/lastmile_qr_scan", "ios": "https://dc.lft.to/lastmile_qr_scan"}, "fusion_lon": 0.0}, {"lat": 38.916943333333336, "is_disabled": 0, "type": "electric_scooter", "lon": -77.02970366666666, "bike_id": "54fb84c43ba56cb44653e8af26cbf64a", "fusion_lat": 0.0, "name": "54fb84c43ba56cb44653e8af26cbf64a", "is_reserved": 0, "rental_uris": {"android": "https://dc.lft.to/lastmile_qr_scan", "ios": "https://dc.lft.to/lastmile_qr_scan"}, "fusion_lon": 0.0}, {"lat": 38.86211766666667, "is_disabled": 0, "type": "electric_bike", "lon": -76.99774166666667, "bike_id": "67c14a95de3b2ac0e2557a7c7bf7ae98", "fusion_lat": 0.0, "name": "67c14a95de3b2ac0e2557a7c7bf7ae98", "is_reserved": 0, "rental_uris": {"android": "https://dc.lft.to/lastmile_qr_scan", "ios": "https://dc.lft.to/lastmile_qr_scan"}, "fusion_lon": 0.0}, {"lat": 38.87064133333333, "is_disabled": 0, "type": "electric_scooter", "lon": -77.00841566666666, "bike_id": "1127a81d54ab08a9b07a66f1b9bd66de", "fusion_lat": 0.0, "name": "1127a81d54ab08a9b07a66f1b9bd66de", "is_reserved": 0, "rental_uris": {"android": "https://dc.lft.to/lastmile_qr_scan", "ios": "https://dc.lft.to/lastmile_qr_scan"}, "fusion_lon": 0.0}, {"lat": 38.92821883333333, "is_disabled": 0, "type": "electric_scooter", "lon": -77.02873883333334, "bike_id": "3cb1bb9d058ff9ab1ac4846435076229", "fusion_lat": 0.0, "name": "3cb1bb9d058ff9ab1ac4846435076229", "is_reserved": 0, "rental_uris": {"android": "https://dc.lft.to/lastmile_qr_scan", "ios": "https://dc.lft.to/lastmile_qr_scan"}, "fusion_lon": 0.0}, {"lat": 38.92237, "is_disabled": 0, "type": "electric_scooter", "lon": -77.04359333333333, "bike_id": "0dadb1d442e39e8686afbcb41ab32ef3", "fusion_lat": 0.0, "name": "0dadb1d442e39e8686afbcb41ab32ef3", "is_reserved": 0, "rental_uris": {"android": "https://dc.lft.to/lastmile_qr_scan", "ios": "https://dc.lft.to/lastmile_qr_scan"}, "fusion_lon": 0.0}, {"lat": 38.92710816666666, "is_disabled": 0, "type": "electric_scooter", "lon": -77.02285833333333, "bike_id": "f56a7a883a7ec42ec0f2f0425f31fa52", "fusion_lat": 0.0, "name": "f56a7a883a7ec42ec0f2f0425f31fa52", "is_reserved": 0, "rental_uris": {"android": "https://dc.lft.to/lastmile_qr_scan", "ios": "https://dc.lft.to/lastmile_qr_scan"}, "fusion_lon": 0.0}, {"lat": 38.9193345, "is_disabled": 0, "type": "electric_scooter", "lon": -77.02600983333333, "bike_id": "343449cc46585645ec4543e2f3a8a1bc", "fusion_lat": 0.0, "name": "343449cc46585645ec4543e2f3a8a1bc", "is_reserved": 0, "rental_uris": {"android": "https://dc.lft.to/lastmile_qr_scan", "ios": "https://dc.lft.to/lastmile_qr_scan"}, "fusion_lon": 0.0}, {"lat": 38.87169383333333, "is_disabled": 0, "type": "electric_scooter", "lon": -77.01196916666666, "bike_id": "684810464ccbdf5152e49a93abdf4bb7", "fusion_lat": 0.0, "name": "684810464ccbdf5152e49a93abdf4bb7", "is_reserved": 0, "rental_uris": {"android": "https://dc.lft.to/lastmile_qr_scan", "ios": "https://dc.lft.to/lastmile_qr_scan"}, "fusion_lon": 0.0}, {"lat": 38.95405916666667, "is_disabled": 0, "type": "electric_bike", "lon": -76.97867016666666, "bike_id": "820e47642581b6331f0c4977846c39c5", "fusion_lat": 0.0, "name": "820e47642581b6331f0c4977846c39c5", "is_reserved": 0, "rental_uris": {"android": "https://dc.lft.to/lastmile_qr_scan", "ios": "https://dc.lft.to/lastmile_qr_scan"}, "fusion_lon": 0.0}, {"lat": 38.919310833333334, "is_disabled": 0, "type": "electric_scooter", "lon": -76.97012666666667, "bike_id": "2175a24fdf4fc735add779e7044c5d4c", "fusion_lat": 0.0, "name": "2175a24fdf4fc735add779e7044c5d4c", "is_reserved": 0, "rental_uris": {"android": "https://dc.lft.to/lastmile_qr_scan", "ios": "https://dc.lft.to/lastmile_qr_scan"}, "fusion_lon": 0.0}, {"lat": 38.9285965, "is_disabled": 0, "type": "electric_scooter", "lon": -77.01424266666666, "bike_id": "adbc858886c6703c8c75a6b3cb731021", "fusion_lat": 0.0, "name": "adbc858886c6703c8c75a6b3cb731021", "is_reserved": 0, "rental_uris": {"android": "https://dc.lft.to/lastmile_qr_scan", "ios": "https://dc.lft.to/lastmile_qr_scan"}, "fusion_lon": 0.0}, {"lat": 38.904669, "is_disabled": 0, "type": "electric_scooter", "lon": -77.03938233333334, "bike_id": "34e762bbb2a1303feadadbd9f14ee2a4", "fusion_lat": 0.0, "name": "34e762bbb2a1303feadadbd9f14ee2a4", "is_reserved": 0, "rental_uris": {"android": "https://dc.lft.to/lastmile_qr_scan", "ios": "https://dc.lft.to/lastmile_qr_scan"}, "fusion_lon": 0.0}, {"lat": 38.802293666666664, "is_disabled": 0, "type": "electric_bike", "lon": -77.07919916666667, "bike_id": "1b1dae571784688986039362f5918a2a", "fusion_lat": 0.0, "name": "1b1dae571784688986039362f5918a2a", "is_reserved": 0, "rental_uris": {"android": "https://dc.lft.to/lastmile_qr_scan", "ios": "https://dc.lft.to/lastmile_qr_scan"}, "fusion_lon": 0.0}, {"lat": 38.86365416666666, "is_disabled": 0, "type": "electric_scooter", "lon": -76.99038066666667, "bike_id": "bc6af91ebfe516b1724cfe4d8b944591", "fusion_lat": 0.0, "name": "bc6af91ebfe516b1724cfe4d8b944591", "is_reserved": 0, "rental_uris": {"android": "https://dc.lft.to/lastmile_qr_scan", "ios": "https://dc.lft.to/lastmile_qr_scan"}, "fusion_lon": 0.0}, {"lat": 38.902974666666665, "is_disabled": 0, "type": "electric_scooter", "lon": -77.00906283333333, "bike_id": "30f601dc71fd6f5eecd1910167f2de17", "fusion_lat": 0.0, "name": "30f601dc71fd6f5eecd1910167f2de17", "is_reserved": 0, "rental_uris": {"android": "https://dc.lft.to/lastmile_qr_scan", "ios": "https://dc.lft.to/lastmile_qr_scan"}, "fusion_lon": 0.0}, {"lat": 38.94141333333334, "is_disabled": 0, "type": "electric_bike", "lon": -77.03279366666666, "bike_id": "e8082014576978919e5d8cfcbf6d7d73", "fusion_lat": 0.0, "name": "e8082014576978919e5d8cfcbf6d7d73", "is_reserved": 0, "rental_uris": {"android": "https://dc.lft.to/lastmile_qr_scan", "ios": "https://dc.lft.to/lastmile_qr_scan"}, "fusion_lon": 0.0}, {"lat": 38.88486616666667, "is_disabled": 0, "type": "electric_scooter", "lon": -77.03473866666667, "bike_id": "497c9a83406f99759ee26b1fdd8100c3", "fusion_lat": 0.0, "name": "497c9a83406f99759ee26b1fdd8100c3", "is_reserved": 0, "rental_uris": {"android": "https://dc.lft.to/lastmile_qr_scan", "ios": "https://dc.lft.to/lastmile_qr_scan"}, "fusion_lon": 0.0}, {"lat": 38.90457966666666, "is_disabled": 0, "type": "electric_scooter", "lon": -77.06293633333334, "bike_id": "26ed575f90838bb30c47df7dc410ca74", "fusion_lat": 0.0, "name": "26ed575f90838bb30c47df7dc410ca74", "is_reserved": 0, "rental_uris": {"android": "https://dc.lft.to/lastmile_qr_scan", "ios": "https://dc.lft.to/lastmile_qr_scan"}, "fusion_lon": 0.0}, {"lat": 38.912629333333335, "is_disabled": 0, "type": "electric_scooter", "lon": -77.03869766666666, "bike_id": "28df963d6dcc7e1f05b7e4d7d2219f23", "fusion_lat": 0.0, "name": "28df963d6dcc7e1f05b7e4d7d2219f23", "is_reserved": 0, "rental_uris": {"android": "https://dc.lft.to/lastmile_qr_scan", "ios": "https://dc.lft.to/lastmile_qr_scan"}, "fusion_lon": 0.0}, {"lat": 38.92769633333333, "is_disabled": 0, "type": "electric_scooter", "lon": -77.02616183333333, "bike_id": "1a70e36344e6df7f934ec71c9ba08073", "fusion_lat": 0.0, "name": "1a70e36344e6df7f934ec71c9ba08073", "is_reserved": 0, "rental_uris": {"android": "https://dc.lft.to/lastmile_qr_scan", "ios": "https://dc.lft.to/lastmile_qr_scan"}, "fusion_lon": 0.0}, {"lat": 38.92289816666667, "is_disabled": 0, "type": "electric_scooter", "lon": -77.03191083333333, "bike_id": "16e116442781b89e756cebe7cbc3d2b9", "fusion_lat": 0.0, "name": "16e116442781b89e756cebe7cbc3d2b9", "is_reserved": 0, "rental_uris": {"android": "https://dc.lft.to/lastmile_qr_scan", "ios": "https://dc.lft.to/lastmile_qr_scan"}, "fusion_lon": 0.0}, {"lat": 38.98124333333333, "is_disabled": 0, "type": "electric_bike", "lon": -77.00775333333333, "bike_id": "80fcfa70d62b073a924a2e0030559e8d", "fusion_lat": 0.0, "name": "80fcfa70d62b073a924a2e0030559e8d", "is_reserved": 0, "rental_uris": {"android": "https://dc.lft.to/lastmile_qr_scan", "ios": "https://dc.lft.to/lastmile_qr_scan"}, "fusion_lon": 0.0}, {"lat": 38.92251016666667, "is_disabled": 0, "type": "electric_scooter", "lon": -77.0347165, "bike_id": "77510768d5f66ee9d34bcd0d89d8ed5c", "fusion_lat": 0.0, "name": "77510768d5f66ee9d34bcd0d89d8ed5c", "is_reserved": 0, "rental_uris": {"android": "https://dc.lft.to/lastmile_qr_scan", "ios": "https://dc.lft.to/lastmile_qr_scan"}, "fusion_lon": 0.0}, {"lat": 38.9125, "is_disabled": 0, "type": "electric_scooter", "lon": -77.047617, "bike_id": "be7cc6c434e3283c7ca2d56c5efe5b77", "fusion_lat": 0.0, "name": "be7cc6c434e3283c7ca2d56c5efe5b77", "is_reserved": 0, "rental_uris": {"android": "https://dc.lft.to/lastmile_qr_scan", "ios": "https://dc.lft.to/lastmile_qr_scan"}, "fusion_lon": 0.0}, {"lat": 38.935119, "is_disabled": 0, "type": "electric_scooter", "lon": -77.03356633333334, "bike_id": "4686c91181b528b1f0f41d5c34c8450c", "fusion_lat": 0.0, "name": "4686c91181b528b1f0f41d5c34c8450c", "is_reserved": 0, "rental_uris": {"android": "https://dc.lft.to/lastmile_qr_scan", "ios": "https://dc.lft.to/lastmile_qr_scan"}, "fusion_lon": 0.0}, {"lat": 38.907723833333336, "is_disabled": 0, "type": "electric_scooter", "lon": -77.03855816666666, "bike_id": "919c26db73b11df541ff0cfec7569e9a", "fusion_lat": 0.0, "name": "919c26db73b11df541ff0cfec7569e9a", "is_reserved": 0, "rental_uris": {"android": "https://dc.lft.to/lastmile_qr_scan", "ios": "https://dc.lft.to/lastmile_qr_scan"}, "fusion_lon": 0.0}, {"lat": 38.845066333333335, "is_disabled": 0, "type": "electric_bike", "lon": -76.99353216666667, "bike_id": "9f8fcf09747d934166fca955577e7ed8", "fusion_lat": 0.0, "name": "9f8fcf09747d934166fca955577e7ed8", "is_reserved": 0, "rental_uris": {"android": "https://dc.lft.to/lastmile_qr_scan", "ios": "https://dc.lft.to/lastmile_qr_scan"}, "fusion_lon": 0.0}, {"lat": 38.906788166666665, "is_disabled": 0, "type": "electric_scooter", "lon": -77.03640183333333, "bike_id": "941626eb5a40be4f9b0fdc3b7995c5ca", "fusion_lat": 0.0, "name": "941626eb5a40be4f9b0fdc3b7995c5ca", "is_reserved": 0, "rental_uris": {"android": "https://dc.lft.to/lastmile_qr_scan", "ios": "https://dc.lft.to/lastmile_qr_scan"}, "fusion_lon": 0.0}, {"lat": 38.896565333333335, "is_disabled": 0, "type": "electric_scooter", "lon": -77.0051755, "bike_id": "f76569771bef29d1926fe363043205cd", "fusion_lat": 0.0, "name": "f76569771bef29d1926fe363043205cd", "is_reserved": 0, "rental_uris": {"android": "https://dc.lft.to/lastmile_qr_scan", "ios": "https://dc.lft.to/lastmile_qr_scan"}, "fusion_lon": 0.0}, {"lat": 38.86715066666667, "is_disabled": 0, "type": "electric_scooter", "lon": -76.9873035, "bike_id": "3280a062a6c6ec333a113f0f2dd0e165", "fusion_lat": 0.0, "name": "3280a062a6c6ec333a113f0f2dd0e165", "is_reserved": 0, "rental_uris": {"android": "https://dc.lft.to/lastmile_qr_scan", "ios": "https://dc.lft.to/lastmile_qr_scan"}, "fusion_lon": 0.0}, {"lat": 38.91266, "is_disabled": 0, "type": "electric_scooter", "lon": -77.02252416666667, "bike_id": "ecf1e58c3d0156a6c3fa95ed40177382", "fusion_lat": 0.0, "name": "ecf1e58c3d0156a6c3fa95ed40177382", "is_reserved": 0, "rental_uris": {"android": "https://dc.lft.to/lastmile_qr_scan", "ios": "https://dc.lft.to/lastmile_qr_scan"}, "fusion_lon": 0.0}, {"lat": 38.905848166666665, "is_disabled": 0, "type": "electric_scooter", "lon": -76.98623183333333, "bike_id": "04880ed4daa71398bba41b374b66969b", "fusion_lat": 0.0, "name": "04880ed4daa71398bba41b374b66969b", "is_reserved": 0, "rental_uris": {"android": "https://dc.lft.to/lastmile_qr_scan", "ios": "https://dc.lft.to/lastmile_qr_scan"}, "fusion_lon": 0.0}, {"lat": 38.907289, "is_disabled": 0, "type": "electric_scooter", "lon": -77.04821683333333, "bike_id": "7a21574a65d084d07bcce3d1fb6b68ba", "fusion_lat": 0.0, "name": "7a21574a65d084d07bcce3d1fb6b68ba", "is_reserved": 0, "rental_uris": {"android": "https://dc.lft.to/lastmile_qr_scan", "ios": "https://dc.lft.to/lastmile_qr_scan"}, "fusion_lon": 0.0}, {"lat": 38.90860466666667, "is_disabled": 0, "type": "electric_bike", "lon": -76.940081, "bike_id": "f29c101ad7f0d318bf14b7881d191cad", "fusion_lat": 0.0, "name": "f29c101ad7f0d318bf14b7881d191cad", "is_reserved": 0, "rental_uris": {"android": "https://dc.lft.to/lastmile_qr_scan", "ios": "https://dc.lft.to/lastmile_qr_scan"}, "fusion_lon": 0.0}, {"lat": 38.90121583333333, "is_disabled": 0, "type": "electric_scooter", "lon": -77.04169766666666, "bike_id": "4fbdf55ee30bd84023cae47f6730e4da", "fusion_lat": 0.0, "name": "4fbdf55ee30bd84023cae47f6730e4da", "is_reserved": 0, "rental_uris": {"android": "https://dc.lft.to/lastmile_qr_scan", "ios": "https://dc.lft.to/lastmile_qr_scan"}, "fusion_lon": 0.0}, {"lat": 38.90603816666667, "is_disabled": 0, "type": "electric_scooter", "lon": -77.01621683333333, "bike_id": "e8543fa98f7ee4d3fc0f815e68a2cc00", "fusion_lat": 0.0, "name": "e8543fa98f7ee4d3fc0f815e68a2cc00", "is_reserved": 0, "rental_uris": {"android": "https://dc.lft.to/lastmile_qr_scan", "ios": "https://dc.lft.to/lastmile_qr_scan"}, "fusion_lon": 0.0}, {"lat": 38.9228885, "is_disabled": 0, "type": "electric_scooter", "lon": -77.02968733333333, "bike_id": "c5cc5c1142ead3bea88ccd42803539f2", "fusion_lat": 0.0, "name": "c5cc5c1142ead3bea88ccd42803539f2", "is_reserved": 0, "rental_uris": {"android": "https://dc.lft.to/lastmile_qr_scan", "ios": "https://dc.lft.to/lastmile_qr_scan"}, "fusion_lon": 0.0}, {"lat": 38.9180165, "is_disabled": 0, "type": "electric_scooter", "lon": -77.03205516666667, "bike_id": "a62a01e2b63d46e9446d0573f8477412", "fusion_lat": 0.0, "name": "a62a01e2b63d46e9446d0573f8477412", "is_reserved": 0, "rental_uris": {"android": "https://dc.lft.to/lastmile_qr_scan", "ios": "https://dc.lft.to/lastmile_qr_scan"}, "fusion_lon": 0.0}, {"lat": 38.893445, "is_disabled": 0, "type": "electric_scooter", "lon": -76.99159433333334, "bike_id": "a0abae36654e4c5b4980c87b05a089c0", "fusion_lat": 0.0, "name": "a0abae36654e4c5b4980c87b05a089c0", "is_reserved": 0, "rental_uris": {"android": "https://dc.lft.to/lastmile_qr_scan", "ios": "https://dc.lft.to/lastmile_qr_scan"}, "fusion_lon": 0.0}, {"lat": 38.9019435, "is_disabled": 0, "type": "electric_scooter", "lon": -76.98211216666667, "bike_id": "f9a37d216957557c614e584b98f5680a", "fusion_lat": 0.0, "name": "f9a37d216957557c614e584b98f5680a", "is_reserved": 0, "rental_uris": {"android": "https://dc.lft.to/lastmile_qr_scan", "ios": "https://dc.lft.to/lastmile_qr_scan"}, "fusion_lon": 0.0}, {"lat": 38.93530116666667, "is_disabled": 0, "type": "electric_scooter", "lon": -77.0730085, "bike_id": "90d93f682698758ece50693dd03321d1", "fusion_lat": 0.0, "name": "90d93f682698758ece50693dd03321d1", "is_reserved": 0, "rental_uris": {"android": "https://dc.lft.to/lastmile_qr_scan", "ios": "https://dc.lft.to/lastmile_qr_scan"}, "fusion_lon": 0.0}, {"lat": 38.927688833333335, "is_disabled": 0, "type": "electric_scooter", "lon": -77.027795, "bike_id": "2c547dec3c99acf83ac56f5607caaee3", "fusion_lat": 0.0, "name": "2c547dec3c99acf83ac56f5607caaee3", "is_reserved": 0, "rental_uris": {"android": "https://dc.lft.to/lastmile_qr_scan", "ios": "https://dc.lft.to/lastmile_qr_scan"}, "fusion_lon": 0.0}, {"lat": 38.918416, "is_disabled": 0, "type": "electric_scooter", "lon": -76.96553066666667, "bike_id": "92edc122cbb13bd669aca64ab505843c", "fusion_lat": 0.0, "name": "92edc122cbb13bd669aca64ab505843c", "is_reserved": 0, "rental_uris": {"android": "https://dc.lft.to/lastmile_qr_scan", "ios": "https://dc.lft.to/lastmile_qr_scan"}, "fusion_lon": 0.0}, {"lat": 38.9285995, "is_disabled": 0, "type": "electric_scooter", "lon": -77.036559, "bike_id": "ada1b224dc5b90f0fd3aca13ac924dbf", "fusion_lat": 0.0, "name": "ada1b224dc5b90f0fd3aca13ac924dbf", "is_reserved": 0, "rental_uris": {"android": "https://dc.lft.to/lastmile_qr_scan", "ios": "https://dc.lft.to/lastmile_qr_scan"}, "fusion_lon": 0.0}, {"lat": 38.859242, "is_disabled": 0, "type": "electric_scooter", "lon": -76.9898495, "bike_id": "7e00a11d985dfea8975eaf9bb8802042", "fusion_lat": 0.0, "name": "7e00a11d985dfea8975eaf9bb8802042", "is_reserved": 0, "rental_uris": {"android": "https://dc.lft.to/lastmile_qr_scan", "ios": "https://dc.lft.to/lastmile_qr_scan"}, "fusion_lon": 0.0}, {"lat": 38.91747433333333, "is_disabled": 0, "type": "electric_scooter", "lon": -77.02286216666667, "bike_id": "5ece4444c08cb94cb0fcebd25d98dfa0", "fusion_lat": 0.0, "name": "5ece4444c08cb94cb0fcebd25d98dfa0", "is_reserved": 0, "rental_uris": {"android": "https://dc.lft.to/lastmile_qr_scan", "ios": "https://dc.lft.to/lastmile_qr_scan"}, "fusion_lon": 0.0}, {"lat": 38.901301833333335, "is_disabled": 0, "type": "electric_scooter", "lon": -77.0416275, "bike_id": "9306b872251ee246f4e22a289ea9acc4", "fusion_lat": 0.0, "name": "9306b872251ee246f4e22a289ea9acc4", "is_reserved": 0, "rental_uris": {"android": "https://dc.lft.to/lastmile_qr_scan", "ios": "https://dc.lft.to/lastmile_qr_scan"}, "fusion_lon": 0.0}, {"lat": 38.897582, "is_disabled": 0, "type": "electric_scooter", "lon": -77.02690716666666, "bike_id": "f70ad3f34efb120aac1b627d4e447dcb", "fusion_lat": 0.0, "name": "f70ad3f34efb120aac1b627d4e447dcb", "is_reserved": 0, "rental_uris": {"android": "https://dc.lft.to/lastmile_qr_scan", "ios": "https://dc.lft.to/lastmile_qr_scan"}, "fusion_lon": 0.0}, {"lat": 38.9206355, "is_disabled": 0, "type": "electric_scooter", "lon": -77.0317595, "bike_id": "5de4bf68fdea738056fa3aa4758c3702", "fusion_lat": 0.0, "name": "5de4bf68fdea738056fa3aa4758c3702", "is_reserved": 0, "rental_uris": {"android": "https://dc.lft.to/lastmile_qr_scan", "ios": "https://dc.lft.to/lastmile_qr_scan"}, "fusion_lon": 0.0}, {"lat": 38.93057733333333, "is_disabled": 0, "type": "electric_scooter", "lon": -77.04029583333333, "bike_id": "08bf7e701f6aca2fda1e42f8398e8a31", "fusion_lat": 0.0, "name": "08bf7e701f6aca2fda1e42f8398e8a31", "is_reserved": 0, "rental_uris": {"android": "https://dc.lft.to/lastmile_qr_scan", "ios": "https://dc.lft.to/lastmile_qr_scan"}, "fusion_lon": 0.0}, {"lat": 38.9229015, "is_disabled": 0, "type": "electric_scooter", "lon": -77.04261666666666, "bike_id": "c191c36454cd2559eb3e06d86a1dec54", "fusion_lat": 0.0, "name": "c191c36454cd2559eb3e06d86a1dec54", "is_reserved": 0, "rental_uris": {"android": "https://dc.lft.to/lastmile_qr_scan", "ios": "https://dc.lft.to/lastmile_qr_scan"}, "fusion_lon": 0.0}, {"lat": 38.915588166666666, "is_disabled": 0, "type": "electric_scooter", "lon": -77.02179833333334, "bike_id": "f06699134f1ab40977d8a0bc335f1cbe", "fusion_lat": 0.0, "name": "f06699134f1ab40977d8a0bc335f1cbe", "is_reserved": 0, "rental_uris": {"android": "https://dc.lft.to/lastmile_qr_scan", "ios": "https://dc.lft.to/lastmile_qr_scan"}, "fusion_lon": 0.0}, {"lat": 38.905055, "is_disabled": 0, "type": "electric_scooter", "lon": -77.051172, "bike_id": "50b15ac3595f58a42b9744c583a73c57", "fusion_lat": 0.0, "name": "50b15ac3595f58a42b9744c583a73c57", "is_reserved": 0, "rental_uris": {"android": "https://dc.lft.to/lastmile_qr_scan", "ios": "https://dc.lft.to/lastmile_qr_scan"}, "fusion_lon": 0.0}, {"lat": 38.92660033333333, "is_disabled": 0, "type": "electric_scooter", "lon": -76.99546816666667, "bike_id": "7a6580931dbdc1cd7d9bf79d2ff22ebc", "fusion_lat": 0.0, "name": "7a6580931dbdc1cd7d9bf79d2ff22ebc", "is_reserved": 0, "rental_uris": {"android": "https://dc.lft.to/lastmile_qr_scan", "ios": "https://dc.lft.to/lastmile_qr_scan"}, "fusion_lon": 0.0}, {"lat": 38.92564633333333, "is_disabled": 0, "type": "electric_scooter", "lon": -77.05751316666667, "bike_id": "b47043f7a556b1de819610621019de8e", "fusion_lat": 0.0, "name": "b47043f7a556b1de819610621019de8e", "is_reserved": 0, "rental_uris": {"android": "https://dc.lft.to/lastmile_qr_scan", "ios": "https://dc.lft.to/lastmile_qr_scan"}, "fusion_lon": 0.0}, {"lat": 38.8978045, "is_disabled": 0, "type": "electric_bike", "lon": -76.904421, "bike_id": "3c346d793650ae3e11b9d06d7283a0ab", "fusion_lat": 0.0, "name": "3c346d793650ae3e11b9d06d7283a0ab", "is_reserved": 0, "rental_uris": {"android": "https://dc.lft.to/lastmile_qr_scan", "ios": "https://dc.lft.to/lastmile_qr_scan"}, "fusion_lon": 0.0}, {"lat": 38.9146125, "is_disabled": 0, "type": "electric_scooter", "lon": -77.04161866666666, "bike_id": "7c0f388d4dd8119ab022549c03df806f", "fusion_lat": 0.0, "name": "7c0f388d4dd8119ab022549c03df806f", "is_reserved": 0, "rental_uris": {"android": "https://dc.lft.to/lastmile_qr_scan", "ios": "https://dc.lft.to/lastmile_qr_scan"}, "fusion_lon": 0.0}, {"lat": 38.9291265, "is_disabled": 0, "type": "electric_scooter", "lon": -77.0218985, "bike_id": "973a3ac13758fe4b6ed53718547e65d6", "fusion_lat": 0.0, "name": "973a3ac13758fe4b6ed53718547e65d6", "is_reserved": 0, "rental_uris": {"android": "https://dc.lft.to/lastmile_qr_scan", "ios": "https://dc.lft.to/lastmile_qr_scan"}, "fusion_lon": 0.0}, {"lat": 38.852055166666666, "is_disabled": 0, "type": "electric_bike", "lon": -76.9854805, "bike_id": "fc74fabd40d4a59bb9db3ea0efbeb30d", "fusion_lat": 0.0, "name": "fc74fabd40d4a59bb9db3ea0efbeb30d", "is_reserved": 0, "rental_uris": {"android": "https://dc.lft.to/lastmile_qr_scan", "ios": "https://dc.lft.to/lastmile_qr_scan"}, "fusion_lon": 0.0}, {"lat": 38.886698833333334, "is_disabled": 0, "type": "electric_scooter", "lon": -76.985576, "bike_id": "4957ec4f453b09b24944c4c9afb4b58a", "fusion_lat": 0.0, "name": "4957ec4f453b09b24944c4c9afb4b58a", "is_reserved": 0, "rental_uris": {"android": "https://dc.lft.to/lastmile_qr_scan", "ios": "https://dc.lft.to/lastmile_qr_scan"}, "fusion_lon": 0.0}, {"lat": 38.95641633333334, "is_disabled": 0, "type": "electric_bike", "lon": -76.93884566666667, "bike_id": "aa02f09d6b6fb0c0bef19633f45bdeb5", "fusion_lat": 0.0, "name": "aa02f09d6b6fb0c0bef19633f45bdeb5", "is_reserved": 0, "rental_uris": {"android": "https://dc.lft.to/lastmile_qr_scan", "ios": "https://dc.lft.to/lastmile_qr_scan"}, "fusion_lon": 0.0}, {"lat": 38.91813716666667, "is_disabled": 0, "type": "electric_scooter", "lon": -77.04513733333333, "bike_id": "f003916398a73686574abc248240747b", "fusion_lat": 0.0, "name": "f003916398a73686574abc248240747b", "is_reserved": 0, "rental_uris": {"android": "https://dc.lft.to/lastmile_qr_scan", "ios": "https://dc.lft.to/lastmile_qr_scan"}, "fusion_lon": 0.0}, {"lat": 38.9073605, "is_disabled": 0, "type": "electric_scooter", "lon": -77.02805416666666, "bike_id": "d93cc93fe6303d34c5238d280c7157f7", "fusion_lat": 0.0, "name": "d93cc93fe6303d34c5238d280c7157f7", "is_reserved": 0, "rental_uris": {"android": "https://dc.lft.to/lastmile_qr_scan", "ios": "https://dc.lft.to/lastmile_qr_scan"}, "fusion_lon": 0.0}, {"lat": 38.905667, "is_disabled": 0, "type": "electric_scooter", "lon": -77.02181433333334, "bike_id": "532e93693db2e18b3776534a23c4889f", "fusion_lat": 0.0, "name": "532e93693db2e18b3776534a23c4889f", "is_reserved": 0, "rental_uris": {"android": "https://dc.lft.to/lastmile_qr_scan", "ios": "https://dc.lft.to/lastmile_qr_scan"}, "fusion_lon": 0.0}, {"lat": 38.912699333333336, "is_disabled": 0, "type": "electric_bike", "lon": -77.02251033333333, "bike_id": "90be61f547c0d4c1a403f628fa820a75", "fusion_lat": 0.0, "name": "90be61f547c0d4c1a403f628fa820a75", "is_reserved": 0, "rental_uris": {"android": "https://dc.lft.to/lastmile_qr_scan", "ios": "https://dc.lft.to/lastmile_qr_scan"}, "fusion_lon": 0.0}, {"lat": 38.917296666666665, "is_disabled": 0, "type": "electric_scooter", "lon": -77.0366985, "bike_id": "457db557839c9e8c077d36c8807e295f", "fusion_lat": 0.0, "name": "457db557839c9e8c077d36c8807e295f", "is_reserved": 0, "rental_uris": {"android": "https://dc.lft.to/lastmile_qr_scan", "ios": "https://dc.lft.to/lastmile_qr_scan"}, "fusion_lon": 0.0}, {"lat": 38.99633733333334, "is_disabled": 0, "type": "electric_bike", "lon": -77.02985083333333, "bike_id": "5cc68d2a8071cebb11040506a2e91ee6", "fusion_lat": 0.0, "name": "5cc68d2a8071cebb11040506a2e91ee6", "is_reserved": 0, "rental_uris": {"android": "https://dc.lft.to/lastmile_qr_scan", "ios": "https://dc.lft.to/lastmile_qr_scan"}, "fusion_lon": 0.0}, {"lat": 38.92065233333334, "is_disabled": 0, "type": "electric_scooter", "lon": -77.024466, "bike_id": "df615257644cc9fca57baa90b95d2520", "fusion_lat": 0.0, "name": "df615257644cc9fca57baa90b95d2520", "is_reserved": 0, "rental_uris": {"android": "https://dc.lft.to/lastmile_qr_scan", "ios": "https://dc.lft.to/lastmile_qr_scan"}, "fusion_lon": 0.0}, {"lat": 38.91422583333333, "is_disabled": 0, "type": "electric_scooter", "lon": -77.02203116666666, "bike_id": "5277ab76406fafb8728a264fdbf4d829", "fusion_lat": 0.0, "name": "5277ab76406fafb8728a264fdbf4d829", "is_reserved": 0, "rental_uris": {"android": "https://dc.lft.to/lastmile_qr_scan", "ios": "https://dc.lft.to/lastmile_qr_scan"}, "fusion_lon": 0.0}, {"lat": 38.9080565, "is_disabled": 0, "type": "electric_scooter", "lon": -77.04339083333333, "bike_id": "c091959653ebdd595392feca53290560", "fusion_lat": 0.0, "name": "c091959653ebdd595392feca53290560", "is_reserved": 0, "rental_uris": {"android": "https://dc.lft.to/lastmile_qr_scan", "ios": "https://dc.lft.to/lastmile_qr_scan"}, "fusion_lon": 0.0}, {"lat": 38.90737466666667, "is_disabled": 0, "type": "electric_scooter", "lon": -77.02711416666666, "bike_id": "3ffffd42fe3f27280f8cf13c92c7d3d1", "fusion_lat": 0.0, "name": "3ffffd42fe3f27280f8cf13c92c7d3d1", "is_reserved": 0, "rental_uris": {"android": "https://dc.lft.to/lastmile_qr_scan", "ios": "https://dc.lft.to/lastmile_qr_scan"}, "fusion_lon": 0.0}, {"lat": 38.903691, "is_disabled": 0, "type": "electric_scooter", "lon": -77.04003566666667, "bike_id": "6af85c482a1b0d6bbc442a3844a57d83", "fusion_lat": 0.0, "name": "6af85c482a1b0d6bbc442a3844a57d83", "is_reserved": 0, "rental_uris": {"android": "https://dc.lft.to/lastmile_qr_scan", "ios": "https://dc.lft.to/lastmile_qr_scan"}, "fusion_lon": 0.0}, {"lat": 38.91818116666666, "is_disabled": 0, "type": "electric_scooter", "lon": -77.03910133333333, "bike_id": "110e289a55d1ad79fc56c06a3666efef", "fusion_lat": 0.0, "name": "110e289a55d1ad79fc56c06a3666efef", "is_reserved": 0, "rental_uris": {"android": "https://dc.lft.to/lastmile_qr_scan", "ios": "https://dc.lft.to/lastmile_qr_scan"}, "fusion_lon": 0.0}, {"lat": 38.915617, "is_disabled": 0, "type": "electric_scooter", "lon": -77.02981033333333, "bike_id": "4ff96e13f3851b4b635106650416df17", "fusion_lat": 0.0, "name": "4ff96e13f3851b4b635106650416df17", "is_reserved": 0, "rental_uris": {"android": "https://dc.lft.to/lastmile_qr_scan", "ios": "https://dc.lft.to/lastmile_qr_scan"}, "fusion_lon": 0.0}, {"lat": 38.940799166666665, "is_disabled": 0, "type": "electric_scooter", "lon": -77.023911, "bike_id": "aabdff1f512ec03399ae55a2a4cf016a", "fusion_lat": 0.0, "name": "aabdff1f512ec03399ae55a2a4cf016a", "is_reserved": 0, "rental_uris": {"android": "https://dc.lft.to/lastmile_qr_scan", "ios": "https://dc.lft.to/lastmile_qr_scan"}, "fusion_lon": 0.0}, {"lat": 38.933524, "is_disabled": 0, "type": "electric_scooter", "lon": -77.07353416666666, "bike_id": "50f16814944b6dabc81d1fff85b594de", "fusion_lat": 0.0, "name": "50f16814944b6dabc81d1fff85b594de", "is_reserved": 0, "rental_uris": {"android": "https://dc.lft.to/lastmile_qr_scan", "ios": "https://dc.lft.to/lastmile_qr_scan"}, "fusion_lon": 0.0}, {"lat": 38.9588365, "is_disabled": 0, "type": "electric_bike", "lon": -76.9248625, "bike_id": "1cefe66108a8e3ccd338b4412b8b11c7", "fusion_lat": 0.0, "name": "1cefe66108a8e3ccd338b4412b8b11c7", "is_reserved": 0, "rental_uris": {"android": "https://dc.lft.to/lastmile_qr_scan", "ios": "https://dc.lft.to/lastmile_qr_scan"}, "fusion_lon": 0.0}, {"lat": 38.85306716666667, "is_disabled": 0, "type": "electric_bike", "lon": -77.13119366666666, "bike_id": "f8f362e7c3fe388903bef892f450ea5c", "fusion_lat": 0.0, "name": "f8f362e7c3fe388903bef892f450ea5c", "is_reserved": 0, "rental_uris": {"android": "https://dc.lft.to/lastmile_qr_scan", "ios": "https://dc.lft.to/lastmile_qr_scan"}, "fusion_lon": 0.0}, {"lat": 38.93126216666667, "is_disabled": 0, "type": "electric_scooter", "lon": -77.03403016666667, "bike_id": "333c3497b7ee94b00748b09368fab622", "fusion_lat": 0.0, "name": "333c3497b7ee94b00748b09368fab622", "is_reserved": 0, "rental_uris": {"android": "https://dc.lft.to/lastmile_qr_scan", "ios": "https://dc.lft.to/lastmile_qr_scan"}, "fusion_lon": 0.0}, {"lat": 38.90787783333333, "is_disabled": 0, "type": "electric_scooter", "lon": -77.0400595, "bike_id": "05c078034c74a451e12aa794bcc28d62", "fusion_lat": 0.0, "name": "05c078034c74a451e12aa794bcc28d62", "is_reserved": 0, "rental_uris": {"android": "https://dc.lft.to/lastmile_qr_scan", "ios": "https://dc.lft.to/lastmile_qr_scan"}, "fusion_lon": 0.0}, {"lat": 38.917100833333336, "is_disabled": 0, "type": "electric_scooter", "lon": -77.03567516666666, "bike_id": "25d755facb6121ae9eeab50e1f784ffd", "fusion_lat": 0.0, "name": "25d755facb6121ae9eeab50e1f784ffd", "is_reserved": 0, "rental_uris": {"android": "https://dc.lft.to/lastmile_qr_scan", "ios": "https://dc.lft.to/lastmile_qr_scan"}, "fusion_lon": 0.0}, {"lat": 38.9301475, "is_disabled": 0, "type": "electric_scooter", "lon": -77.02081683333333, "bike_id": "9985a3ba4d898cf37599150d9f145f62", "fusion_lat": 0.0, "name": "9985a3ba4d898cf37599150d9f145f62", "is_reserved": 0, "rental_uris": {"android": "https://dc.lft.to/lastmile_qr_scan", "ios": "https://dc.lft.to/lastmile_qr_scan"}, "fusion_lon": 0.0}, {"lat": 38.911840166666664, "is_disabled": 0, "type": "electric_scooter", "lon": -77.04330583333333, "bike_id": "c07e54579a46efe37a80d14241e94861", "fusion_lat": 0.0, "name": "c07e54579a46efe37a80d14241e94861", "is_reserved": 0, "rental_uris": {"android": "https://dc.lft.to/lastmile_qr_scan", "ios": "https://dc.lft.to/lastmile_qr_scan"}, "fusion_lon": 0.0}, {"lat": 38.9208185, "is_disabled": 0, "type": "electric_scooter", "lon": -77.01436283333334, "bike_id": "214c539456d2f6e6c672f40e409428eb", "fusion_lat": 0.0, "name": "214c539456d2f6e6c672f40e409428eb", "is_reserved": 0, "rental_uris": {"android": "https://dc.lft.to/lastmile_qr_scan", "ios": "https://dc.lft.to/lastmile_qr_scan"}, "fusion_lon": 0.0}, {"lat": 38.9101545, "is_disabled": 0, "type": "electric_scooter", "lon": -77.0401525, "bike_id": "680634040adf5426e0c196881231a295", "fusion_lat": 0.0, "name": "680634040adf5426e0c196881231a295", "is_reserved": 0, "rental_uris": {"android": "https://dc.lft.to/lastmile_qr_scan", "ios": "https://dc.lft.to/lastmile_qr_scan"}, "fusion_lon": 0.0}, {"lat": 38.92287483333333, "is_disabled": 0, "type": "electric_scooter", "lon": -77.036585, "bike_id": "a1fe3db684439ac353cfcec5912492e8", "fusion_lat": 0.0, "name": "a1fe3db684439ac353cfcec5912492e8", "is_reserved": 0, "rental_uris": {"android": "https://dc.lft.to/lastmile_qr_scan", "ios": "https://dc.lft.to/lastmile_qr_scan"}, "fusion_lon": 0.0}, {"lat": 38.921138166666665, "is_disabled": 0, "type": "electric_bike", "lon": -76.98578133333334, "bike_id": "27b1f13b36984e07741f2b48e258f0ba", "fusion_lat": 0.0, "name": "27b1f13b36984e07741f2b48e258f0ba", "is_reserved": 0, "rental_uris": {"android": "https://dc.lft.to/lastmile_qr_scan", "ios": "https://dc.lft.to/lastmile_qr_scan"}, "fusion_lon": 0.0}, {"lat": 38.8924885, "is_disabled": 0, "type": "electric_scooter", "lon": -77.03956233333334, "bike_id": "5c417c05fc5e28212842cc85037f5fd4", "fusion_lat": 0.0, "name": "5c417c05fc5e28212842cc85037f5fd4", "is_reserved": 0, "rental_uris": {"android": "https://dc.lft.to/lastmile_qr_scan", "ios": "https://dc.lft.to/lastmile_qr_scan"}, "fusion_lon": 0.0}, {"lat": 38.91415516666667, "is_disabled": 0, "type": "electric_scooter", "lon": -77.03188466666667, "bike_id": "7bf0355cd38f12e8ee4be139e103fa92", "fusion_lat": 0.0, "name": "7bf0355cd38f12e8ee4be139e103fa92", "is_reserved": 0, "rental_uris": {"android": "https://dc.lft.to/lastmile_qr_scan", "ios": "https://dc.lft.to/lastmile_qr_scan"}, "fusion_lon": 0.0}, {"lat": 38.90279316666667, "is_disabled": 0, "type": "electric_scooter", "lon": -77.0636085, "bike_id": "cee76f3d676513179216b02be5574bed", "fusion_lat": 0.0, "name": "cee76f3d676513179216b02be5574bed", "is_reserved": 0, "rental_uris": {"android": "https://dc.lft.to/lastmile_qr_scan", "ios": "https://dc.lft.to/lastmile_qr_scan"}, "fusion_lon": 0.0}, {"lat": 38.9506305, "is_disabled": 0, "type": "electric_bike", "lon": -77.0072665, "bike_id": "a8ee215c06188108e4b043f6d16c3761", "fusion_lat": 0.0, "name": "a8ee215c06188108e4b043f6d16c3761", "is_reserved": 0, "rental_uris": {"android": "https://dc.lft.to/lastmile_qr_scan", "ios": "https://dc.lft.to/lastmile_qr_scan"}, "fusion_lon": 0.0}, {"lat": 38.8922115, "is_disabled": 0, "type": "electric_scooter", "lon": -77.0485525, "bike_id": "537e6a5a474225196c447c413150b398", "fusion_lat": 0.0, "name": "537e6a5a474225196c447c413150b398", "is_reserved": 0, "rental_uris": {"android": "https://dc.lft.to/lastmile_qr_scan", "ios": "https://dc.lft.to/lastmile_qr_scan"}, "fusion_lon": 0.0}, {"lat": 38.9166455, "is_disabled": 0, "type": "electric_scooter", "lon": -77.02278566666666, "bike_id": "ab23df9a9a027133c1fe234cc4efcffa", "fusion_lat": 0.0, "name": "ab23df9a9a027133c1fe234cc4efcffa", "is_reserved": 0, "rental_uris": {"android": "https://dc.lft.to/lastmile_qr_scan", "ios": "https://dc.lft.to/lastmile_qr_scan"}, "fusion_lon": 0.0}, {"lat": 38.9078185, "is_disabled": 0, "type": "electric_scooter", "lon": -77.0448615, "bike_id": "f153cd936aa67d7df5a234d5ab22bcf3", "fusion_lat": 0.0, "name": "f153cd936aa67d7df5a234d5ab22bcf3", "is_reserved": 0, "rental_uris": {"android": "https://dc.lft.to/lastmile_qr_scan", "ios": "https://dc.lft.to/lastmile_qr_scan"}, "fusion_lon": 0.0}, {"lat": 38.93530833333333, "is_disabled": 0, "type": "electric_scooter", "lon": -77.03261166666667, "bike_id": "b3a4775140391f3a669714672acf6485", "fusion_lat": 0.0, "name": "b3a4775140391f3a669714672acf6485", "is_reserved": 0, "rental_uris": {"android": "https://dc.lft.to/lastmile_qr_scan", "ios": "https://dc.lft.to/lastmile_qr_scan"}, "fusion_lon": 0.0}, {"lat": 38.89221416666667, "is_disabled": 0, "type": "electric_scooter", "lon": -77.023179, "bike_id": "438dc194276448da71d398b3d3aee324", "fusion_lat": 0.0, "name": "438dc194276448da71d398b3d3aee324", "is_reserved": 0, "rental_uris": {"android": "https://dc.lft.to/lastmile_qr_scan", "ios": "https://dc.lft.to/lastmile_qr_scan"}, "fusion_lon": 0.0}, {"lat": 38.930853166666665, "is_disabled": 0, "type": "electric_scooter", "lon": -77.03739533333334, "bike_id": "13c2c7561d8535b41528cbf49956b636", "fusion_lat": 0.0, "name": "13c2c7561d8535b41528cbf49956b636", "is_reserved": 0, "rental_uris": {"android": "https://dc.lft.to/lastmile_qr_scan", "ios": "https://dc.lft.to/lastmile_qr_scan"}, "fusion_lon": 0.0}, {"lat": 38.908439333333334, "is_disabled": 0, "type": "electric_scooter", "lon": -77.04350866666667, "bike_id": "8f02652dcf82f3f2783964afd7960c01", "fusion_lat": 0.0, "name": "8f02652dcf82f3f2783964afd7960c01", "is_reserved": 0, "rental_uris": {"android": "https://dc.lft.to/lastmile_qr_scan", "ios": "https://dc.lft.to/lastmile_qr_scan"}, "fusion_lon": 0.0}, {"lat": 38.917157, "is_disabled": 0, "type": "electric_scooter", "lon": -77.03840016666666, "bike_id": "a8c23630cf383854c410ce9029a954df", "fusion_lat": 0.0, "name": "a8c23630cf383854c410ce9029a954df", "is_reserved": 0, "rental_uris": {"android": "https://dc.lft.to/lastmile_qr_scan", "ios": "https://dc.lft.to/lastmile_qr_scan"}, "fusion_lon": 0.0}, {"lat": 38.927429333333336, "is_disabled": 0, "type": "electric_scooter", "lon": -77.03410133333334, "bike_id": "f30a66fc8e1fbee128eadd8e566a5cfa", "fusion_lat": 0.0, "name": "f30a66fc8e1fbee128eadd8e566a5cfa", "is_reserved": 0, "rental_uris": {"android": "https://dc.lft.to/lastmile_qr_scan", "ios": "https://dc.lft.to/lastmile_qr_scan"}, "fusion_lon": 0.0}, {"lat": 38.9119, "is_disabled": 0, "type": "electric_scooter", "lon": -77.034331, "bike_id": "57cb230aab8d839ecd8ad2315642f614", "fusion_lat": 0.0, "name": "57cb230aab8d839ecd8ad2315642f614", "is_reserved": 0, "rental_uris": {"android": "https://dc.lft.to/lastmile_qr_scan", "ios": "https://dc.lft.to/lastmile_qr_scan"}, "fusion_lon": 0.0}, {"lat": 38.9228685, "is_disabled": 0, "type": "electric_scooter", "lon": -77.0297235, "bike_id": "01d70ddd89555eec6b134096c5e818d4", "fusion_lat": 0.0, "name": "01d70ddd89555eec6b134096c5e818d4", "is_reserved": 0, "rental_uris": {"android": "https://dc.lft.to/lastmile_qr_scan", "ios": "https://dc.lft.to/lastmile_qr_scan"}, "fusion_lon": 0.0}, {"lat": 38.8925075, "is_disabled": 0, "type": "electric_scooter", "lon": -77.03955633333334, "bike_id": "d3479fd536f8328051adb9755410f47b", "fusion_lat": 0.0, "name": "d3479fd536f8328051adb9755410f47b", "is_reserved": 0, "rental_uris": {"android": "https://dc.lft.to/lastmile_qr_scan", "ios": "https://dc.lft.to/lastmile_qr_scan"}, "fusion_lon": 0.0}, {"lat": 38.9548995, "is_disabled": 0, "type": "electric_scooter", "lon": -77.06558, "bike_id": "dc0872e6c232f58636d5c7638b8d7fd4", "fusion_lat": 0.0, "name": "dc0872e6c232f58636d5c7638b8d7fd4", "is_reserved": 0, "rental_uris": {"android": "https://dc.lft.to/lastmile_qr_scan", "ios": "https://dc.lft.to/lastmile_qr_scan"}, "fusion_lon": 0.0}, {"lat": 38.9008965, "is_disabled": 0, "type": "electric_scooter", "lon": -77.05010483333334, "bike_id": "20100fa9d57b055685f40b310cd16331", "fusion_lat": 0.0, "name": "20100fa9d57b055685f40b310cd16331", "is_reserved": 0, "rental_uris": {"android": "https://dc.lft.to/lastmile_qr_scan", "ios": "https://dc.lft.to/lastmile_qr_scan"}, "fusion_lon": 0.0}, {"lat": 38.936694833333334, "is_disabled": 0, "type": "electric_scooter", "lon": -77.02437533333334, "bike_id": "13cbd9f26487787e14d5bad54f9f3463", "fusion_lat": 0.0, "name": "13cbd9f26487787e14d5bad54f9f3463", "is_reserved": 0, "rental_uris": {"android": "https://dc.lft.to/lastmile_qr_scan", "ios": "https://dc.lft.to/lastmile_qr_scan"}, "fusion_lon": 0.0}, {"lat": 38.9186135, "is_disabled": 0, "type": "electric_scooter", "lon": -77.03174216666666, "bike_id": "8d18072feb86e80bacf031edcc21f68c", "fusion_lat": 0.0, "name": "8d18072feb86e80bacf031edcc21f68c", "is_reserved": 0, "rental_uris": {"android": "https://dc.lft.to/lastmile_qr_scan", "ios": "https://dc.lft.to/lastmile_qr_scan"}, "fusion_lon": 0.0}, {"lat": 38.892219833333336, "is_disabled": 0, "type": "electric_scooter", "lon": -77.0262115, "bike_id": "380aa12156237bd9dc38d0487a5c8570", "fusion_lat": 0.0, "name": "380aa12156237bd9dc38d0487a5c8570", "is_reserved": 0, "rental_uris": {"android": "https://dc.lft.to/lastmile_qr_scan", "ios": "https://dc.lft.to/lastmile_qr_scan"}, "fusion_lon": 0.0}, {"lat": 38.92687033333333, "is_disabled": 0, "type": "electric_scooter", "lon": -77.01569166666667, "bike_id": "de98fd7cc6f209d2d421fa51e4975b11", "fusion_lat": 0.0, "name": "de98fd7cc6f209d2d421fa51e4975b11", "is_reserved": 0, "rental_uris": {"android": "https://dc.lft.to/lastmile_qr_scan", "ios": "https://dc.lft.to/lastmile_qr_scan"}, "fusion_lon": 0.0}, {"lat": 38.90151083333333, "is_disabled": 0, "type": "electric_scooter", "lon": -77.015087, "bike_id": "2a714a624455b4d18721e4d529b5986e", "fusion_lat": 0.0, "name": "2a714a624455b4d18721e4d529b5986e", "is_reserved": 0, "rental_uris": {"android": "https://dc.lft.to/lastmile_qr_scan", "ios": "https://dc.lft.to/lastmile_qr_scan"}, "fusion_lon": 0.0}, {"lat": 38.887663833333335, "is_disabled": 0, "type": "electric_scooter", "lon": -77.03219533333333, "bike_id": "ba73b052274f23f8ff6de0ba718f1959", "fusion_lat": 0.0, "name": "ba73b052274f23f8ff6de0ba718f1959", "is_reserved": 0, "rental_uris": {"android": "https://dc.lft.to/lastmile_qr_scan", "ios": "https://dc.lft.to/lastmile_qr_scan"}, "fusion_lon": 0.0}, {"lat": 38.89894783333333, "is_disabled": 0, "type": "electric_scooter", "lon": -77.03254816666667, "bike_id": "340d15749ff21f3a05a0905cb6c75bdc", "fusion_lat": 0.0, "name": "340d15749ff21f3a05a0905cb6c75bdc", "is_reserved": 0, "rental_uris": {"android": "https://dc.lft.to/lastmile_qr_scan", "ios": "https://dc.lft.to/lastmile_qr_scan"}, "fusion_lon": 0.0}, {"lat": 38.79327116666666, "is_disabled": 0, "type": "electric_bike", "lon": -77.04015983333333, "bike_id": "1cea7bdc78a7a055d50ecfe14e628f27", "fusion_lat": 0.0, "name": "1cea7bdc78a7a055d50ecfe14e628f27", "is_reserved": 0, "rental_uris": {"android": "https://dc.lft.to/lastmile_qr_scan", "ios": "https://dc.lft.to/lastmile_qr_scan"}, "fusion_lon": 0.0}, {"lat": 38.91547833333333, "is_disabled": 0, "type": "electric_scooter", "lon": -77.0385615, "bike_id": "20059a2899a4a700e29ddec8fde70a2a", "fusion_lat": 0.0, "name": "20059a2899a4a700e29ddec8fde70a2a", "is_reserved": 0, "rental_uris": {"android": "https://dc.lft.to/lastmile_qr_scan", "ios": "https://dc.lft.to/lastmile_qr_scan"}, "fusion_lon": 0.0}, {"lat": 38.88334116666667, "is_disabled": 0, "type": "electric_scooter", "lon": -77.0093565, "bike_id": "70f8891711543b709b0db386a2f5b49c", "fusion_lat": 0.0, "name": "70f8891711543b709b0db386a2f5b49c", "is_reserved": 0, "rental_uris": {"android": "https://dc.lft.to/lastmile_qr_scan", "ios": "https://dc.lft.to/lastmile_qr_scan"}, "fusion_lon": 0.0}, {"lat": 38.949074833333334, "is_disabled": 0, "type": "electric_bike", "lon": -76.9723955, "bike_id": "c94acd0bfd253287d1d8474c4cdece0d", "fusion_lat": 0.0, "name": "c94acd0bfd253287d1d8474c4cdece0d", "is_reserved": 0, "rental_uris": {"android": "https://dc.lft.to/lastmile_qr_scan", "ios": "https://dc.lft.to/lastmile_qr_scan"}, "fusion_lon": 0.0}, {"lat": 38.873731166666666, "is_disabled": 0, "type": "electric_bike", "lon": -77.11802916666667, "bike_id": "7d88ad8c1e44f57147b6385cd8bc3cc9", "fusion_lat": 0.0, "name": "7d88ad8c1e44f57147b6385cd8bc3cc9", "is_reserved": 0, "rental_uris": {"android": "https://dc.lft.to/lastmile_qr_scan", "ios": "https://dc.lft.to/lastmile_qr_scan"}, "fusion_lon": 0.0}, {"lat": 38.912661, "is_disabled": 0, "type": "electric_scooter", "lon": -77.03872416666667, "bike_id": "31496f732d043d8fae3bfbbb5727f3aa", "fusion_lat": 0.0, "name": "31496f732d043d8fae3bfbbb5727f3aa", "is_reserved": 0, "rental_uris": {"android": "https://dc.lft.to/lastmile_qr_scan", "ios": "https://dc.lft.to/lastmile_qr_scan"}, "fusion_lon": 0.0}, {"lat": 38.927246333333336, "is_disabled": 0, "type": "electric_bike", "lon": -77.02971483333333, "bike_id": "ea6d9cbad022084b90a37c7c3ea30984", "fusion_lat": 0.0, "name": "ea6d9cbad022084b90a37c7c3ea30984", "is_reserved": 0, "rental_uris": {"android": "https://dc.lft.to/lastmile_qr_scan", "ios": "https://dc.lft.to/lastmile_qr_scan"}, "fusion_lon": 0.0}, {"lat": 38.926265, "is_disabled": 0, "type": "electric_scooter", "lon": -77.041817, "bike_id": "fa15b0d5077bdd1fc550f15338008533", "fusion_lat": 0.0, "name": "fa15b0d5077bdd1fc550f15338008533", "is_reserved": 0, "rental_uris": {"android": "https://dc.lft.to/lastmile_qr_scan", "ios": "https://dc.lft.to/lastmile_qr_scan"}, "fusion_lon": 0.0}, {"lat": 38.90753683333333, "is_disabled": 0, "type": "electric_scooter", "lon": -76.9990355, "bike_id": "30c2a2c891be6b327f0d38d7b71443f1", "fusion_lat": 0.0, "name": "30c2a2c891be6b327f0d38d7b71443f1", "is_reserved": 0, "rental_uris": {"android": "https://dc.lft.to/lastmile_qr_scan", "ios": "https://dc.lft.to/lastmile_qr_scan"}, "fusion_lon": 0.0}, {"lat": 38.93750716666667, "is_disabled": 0, "type": "electric_scooter", "lon": -77.034483, "bike_id": "29e582fc857604b379e435f1ad2f9ecc", "fusion_lat": 0.0, "name": "29e582fc857604b379e435f1ad2f9ecc", "is_reserved": 0, "rental_uris": {"android": "https://dc.lft.to/lastmile_qr_scan", "ios": "https://dc.lft.to/lastmile_qr_scan"}, "fusion_lon": 0.0}, {"lat": 38.89615516666667, "is_disabled": 0, "type": "electric_scooter", "lon": -77.04503066666666, "bike_id": "75926386990a4b4047c7d0beff2c5b7d", "fusion_lat": 0.0, "name": "75926386990a4b4047c7d0beff2c5b7d", "is_reserved": 0, "rental_uris": {"android": "https://dc.lft.to/lastmile_qr_scan", "ios": "https://dc.lft.to/lastmile_qr_scan"}, "fusion_lon": 0.0}, {"lat": 38.894944833333334, "is_disabled": 0, "type": "electric_scooter", "lon": -77.002091, "bike_id": "0bc52fbc293ff40ada97698ab8403187", "fusion_lat": 0.0, "name": "0bc52fbc293ff40ada97698ab8403187", "is_reserved": 0, "rental_uris": {"android": "https://dc.lft.to/lastmile_qr_scan", "ios": "https://dc.lft.to/lastmile_qr_scan"}, "fusion_lon": 0.0}, {"lat": 38.92032533333333, "is_disabled": 0, "type": "electric_scooter", "lon": -77.0131915, "bike_id": "4b3f3ef8bc8d123585fd7dca03d0e5e4", "fusion_lat": 0.0, "name": "4b3f3ef8bc8d123585fd7dca03d0e5e4", "is_reserved": 0, "rental_uris": {"android": "https://dc.lft.to/lastmile_qr_scan", "ios": "https://dc.lft.to/lastmile_qr_scan"}, "fusion_lon": 0.0}, {"lat": 38.94454983333333, "is_disabled": 0, "type": "electric_scooter", "lon": -77.06243866666667, "bike_id": "fd2ac4c93f6232d656cb34d63b659548", "fusion_lat": 0.0, "name": "fd2ac4c93f6232d656cb34d63b659548", "is_reserved": 0, "rental_uris": {"android": "https://dc.lft.to/lastmile_qr_scan", "ios": "https://dc.lft.to/lastmile_qr_scan"}, "fusion_lon": 0.0}, {"lat": 38.9132385, "is_disabled": 0, "type": "electric_scooter", "lon": -77.03999233333333, "bike_id": "a698a249cd2cd9f67501fb18d75f1ed0", "fusion_lat": 0.0, "name": "a698a249cd2cd9f67501fb18d75f1ed0", "is_reserved": 0, "rental_uris": {"android": "https://dc.lft.to/lastmile_qr_scan", "ios": "https://dc.lft.to/lastmile_qr_scan"}, "fusion_lon": 0.0}, {"lat": 38.9291125, "is_disabled": 0, "type": "electric_scooter", "lon": -77.03741883333333, "bike_id": "98a7c2146040bb3b197f81843710f781", "fusion_lat": 0.0, "name": "98a7c2146040bb3b197f81843710f781", "is_reserved": 0, "rental_uris": {"android": "https://dc.lft.to/lastmile_qr_scan", "ios": "https://dc.lft.to/lastmile_qr_scan"}, "fusion_lon": 0.0}, {"lat": 38.922746, "is_disabled": 0, "type": "electric_scooter", "lon": -77.044732, "bike_id": "8d8f0bd9b3fa755351d158a0f9aa7318", "fusion_lat": 0.0, "name": "8d8f0bd9b3fa755351d158a0f9aa7318", "is_reserved": 0, "rental_uris": {"android": "https://dc.lft.to/lastmile_qr_scan", "ios": "https://dc.lft.to/lastmile_qr_scan"}, "fusion_lon": 0.0}, {"lat": 38.906866, "is_disabled": 0, "type": "electric_scooter", "lon": -77.07428166666666, "bike_id": "e5bf4c44815f280244754093aa32c54e", "fusion_lat": 0.0, "name": "e5bf4c44815f280244754093aa32c54e", "is_reserved": 0, "rental_uris": {"android": "https://dc.lft.to/lastmile_qr_scan", "ios": "https://dc.lft.to/lastmile_qr_scan"}, "fusion_lon": 0.0}, {"lat": 38.923901, "is_disabled": 0, "type": "electric_scooter", "lon": -77.03533483333334, "bike_id": "bdbe1055360b528c09c5738898af780a", "fusion_lat": 0.0, "name": "bdbe1055360b528c09c5738898af780a", "is_reserved": 0, "rental_uris": {"android": "https://dc.lft.to/lastmile_qr_scan", "ios": "https://dc.lft.to/lastmile_qr_scan"}, "fusion_lon": 0.0}, {"lat": 38.914245, "is_disabled": 0, "type": "electric_scooter", "lon": -77.03185166666667, "bike_id": "1a811a6a6561fdd9faed3052a0251a23", "fusion_lat": 0.0, "name": "1a811a6a6561fdd9faed3052a0251a23", "is_reserved": 0, "rental_uris": {"android": "https://dc.lft.to/lastmile_qr_scan", "ios": "https://dc.lft.to/lastmile_qr_scan"}, "fusion_lon": 0.0}, {"lat": 38.905316666666664, "is_disabled": 0, "type": "electric_scooter", "lon": -77.05144033333333, "bike_id": "8443fd9ef42f46ea89357596a32cb11b", "fusion_lat": 0.0, "name": "8443fd9ef42f46ea89357596a32cb11b", "is_reserved": 0, "rental_uris": {"android": "https://dc.lft.to/lastmile_qr_scan", "ios": "https://dc.lft.to/lastmile_qr_scan"}, "fusion_lon": 0.0}, {"lat": 38.858097666666666, "is_disabled": 0, "type": "electric_scooter", "lon": -76.987041, "bike_id": "90044b0b79af0e4934a949ddda428486", "fusion_lat": 0.0, "name": "90044b0b79af0e4934a949ddda428486", "is_reserved": 0, "rental_uris": {"android": "https://dc.lft.to/lastmile_qr_scan", "ios": "https://dc.lft.to/lastmile_qr_scan"}, "fusion_lon": 0.0}, {"lat": 38.880380333333335, "is_disabled": 0, "type": "electric_scooter", "lon": -77.00363866666666, "bike_id": "5503f3176b8aec047328142a743552b8", "fusion_lat": 0.0, "name": "5503f3176b8aec047328142a743552b8", "is_reserved": 0, "rental_uris": {"android": "https://dc.lft.to/lastmile_qr_scan", "ios": "https://dc.lft.to/lastmile_qr_scan"}, "fusion_lon": 0.0}, {"lat": 38.909378833333335, "is_disabled": 0, "type": "electric_bike", "lon": -77.04874633333333, "bike_id": "260544efc58b3a9cd7d5170c4ab7d6a4", "fusion_lat": 0.0, "name": "260544efc58b3a9cd7d5170c4ab7d6a4", "is_reserved": 0, "rental_uris": {"android": "https://dc.lft.to/lastmile_qr_scan", "ios": "https://dc.lft.to/lastmile_qr_scan"}, "fusion_lon": 0.0}, {"lat": 38.91817866666667, "is_disabled": 0, "type": "electric_scooter", "lon": -77.02489283333334, "bike_id": "2a4a7999be63697408f89d49ab5a333d", "fusion_lat": 0.0, "name": "2a4a7999be63697408f89d49ab5a333d", "is_reserved": 0, "rental_uris": {"android": "https://dc.lft.to/lastmile_qr_scan", "ios": "https://dc.lft.to/lastmile_qr_scan"}, "fusion_lon": 0.0}, {"lat": 38.92157483333333, "is_disabled": 0, "type": "electric_scooter", "lon": -77.03509233333334, "bike_id": "15f30add39125af5ad15666a40aac3ee", "fusion_lat": 0.0, "name": "15f30add39125af5ad15666a40aac3ee", "is_reserved": 0, "rental_uris": {"android": "https://dc.lft.to/lastmile_qr_scan", "ios": "https://dc.lft.to/lastmile_qr_scan"}, "fusion_lon": 0.0}, {"lat": 38.91830983333333, "is_disabled": 0, "type": "electric_scooter", "lon": -77.031601, "bike_id": "20adc7ad574b2576c41e5239831bb83f", "fusion_lat": 0.0, "name": "20adc7ad574b2576c41e5239831bb83f", "is_reserved": 0, "rental_uris": {"android": "https://dc.lft.to/lastmile_qr_scan", "ios": "https://dc.lft.to/lastmile_qr_scan"}, "fusion_lon": 0.0}, {"lat": 38.92122833333333, "is_disabled": 0, "type": "electric_scooter", "lon": -77.04186233333333, "bike_id": "a6deabc4cf036e9c92a702222eafc4b6", "fusion_lat": 0.0, "name": "a6deabc4cf036e9c92a702222eafc4b6", "is_reserved": 0, "rental_uris": {"android": "https://dc.lft.to/lastmile_qr_scan", "ios": "https://dc.lft.to/lastmile_qr_scan"}, "fusion_lon": 0.0}, {"lat": 38.90853716666667, "is_disabled": 0, "type": "electric_scooter", "lon": -77.020635, "bike_id": "4f50b15096f84c1b69a22f708e4a6ff4", "fusion_lat": 0.0, "name": "4f50b15096f84c1b69a22f708e4a6ff4", "is_reserved": 0, "rental_uris": {"android": "https://dc.lft.to/lastmile_qr_scan", "ios": "https://dc.lft.to/lastmile_qr_scan"}, "fusion_lon": 0.0}, {"lat": 38.930424333333335, "is_disabled": 0, "type": "electric_bike", "lon": -77.07304883333333, "bike_id": "255354a9958f5a7f0ef8f90848eb61ff", "fusion_lat": 0.0, "name": "255354a9958f5a7f0ef8f90848eb61ff", "is_reserved": 0, "rental_uris": {"android": "https://dc.lft.to/lastmile_qr_scan", "ios": "https://dc.lft.to/lastmile_qr_scan"}, "fusion_lon": 0.0}, {"lat": 38.93086916666667, "is_disabled": 0, "type": "electric_scooter", "lon": -77.03393133333333, "bike_id": "bfc8ba0aa2eee71c63a2ea44d11981ca", "fusion_lat": 0.0, "name": "bfc8ba0aa2eee71c63a2ea44d11981ca", "is_reserved": 0, "rental_uris": {"android": "https://dc.lft.to/lastmile_qr_scan", "ios": "https://dc.lft.to/lastmile_qr_scan"}, "fusion_lon": 0.0}, {"lat": 38.9022775, "is_disabled": 0, "type": "electric_scooter", "lon": -77.06049816666666, "bike_id": "7ded79723860fe79f00e133b38101a2e", "fusion_lat": 0.0, "name": "7ded79723860fe79f00e133b38101a2e", "is_reserved": 0, "rental_uris": {"android": "https://dc.lft.to/lastmile_qr_scan", "ios": "https://dc.lft.to/lastmile_qr_scan"}, "fusion_lon": 0.0}, {"lat": 38.92453283333333, "is_disabled": 0, "type": "electric_scooter", "lon": -77.04203716666666, "bike_id": "1c70d4710d83697fff883835270e0612", "fusion_lat": 0.0, "name": "1c70d4710d83697fff883835270e0612", "is_reserved": 0, "rental_uris": {"android": "https://dc.lft.to/lastmile_qr_scan", "ios": "https://dc.lft.to/lastmile_qr_scan"}, "fusion_lon": 0.0}, {"lat": 38.920007166666664, "is_disabled": 0, "type": "electric_scooter", "lon": -77.03225066666667, "bike_id": "e2af6d62cc60073f30fd8a6a1728ca41", "fusion_lat": 0.0, "name": "e2af6d62cc60073f30fd8a6a1728ca41", "is_reserved": 0, "rental_uris": {"android": "https://dc.lft.to/lastmile_qr_scan", "ios": "https://dc.lft.to/lastmile_qr_scan"}, "fusion_lon": 0.0}, {"lat": 38.90238216666667, "is_disabled": 0, "type": "electric_scooter", "lon": -77.03939116666666, "bike_id": "d63f52864c8901c7e75c7cfeee47c960", "fusion_lat": 0.0, "name": "d63f52864c8901c7e75c7cfeee47c960", "is_reserved": 0, "rental_uris": {"android": "https://dc.lft.to/lastmile_qr_scan", "ios": "https://dc.lft.to/lastmile_qr_scan"}, "fusion_lon": 0.0}, {"lat": 38.9172615, "is_disabled": 0, "type": "electric_scooter", "lon": -77.0175675, "bike_id": "17fe9d3b74c56d6d8e244b5ef7125c93", "fusion_lat": 0.0, "name": "17fe9d3b74c56d6d8e244b5ef7125c93", "is_reserved": 0, "rental_uris": {"android": "https://dc.lft.to/lastmile_qr_scan", "ios": "https://dc.lft.to/lastmile_qr_scan"}, "fusion_lon": 0.0}, {"lat": 38.8845075, "is_disabled": 0, "type": "electric_scooter", "lon": -76.95098516666667, "bike_id": "49050b8183085a7e89f0b956ad2b6c69", "fusion_lat": 0.0, "name": "49050b8183085a7e89f0b956ad2b6c69", "is_reserved": 0, "rental_uris": {"android": "https://dc.lft.to/lastmile_qr_scan", "ios": "https://dc.lft.to/lastmile_qr_scan"}, "fusion_lon": 0.0}, {"lat": 38.9447755, "is_disabled": 0, "type": "electric_scooter", "lon": -77.06041566666667, "bike_id": "44df1f1290a8b59ee778620f6ac6592a", "fusion_lat": 0.0, "name": "44df1f1290a8b59ee778620f6ac6592a", "is_reserved": 0, "rental_uris": {"android": "https://dc.lft.to/lastmile_qr_scan", "ios": "https://dc.lft.to/lastmile_qr_scan"}, "fusion_lon": 0.0}, {"lat": 38.91742566666667, "is_disabled": 0, "type": "electric_scooter", "lon": -77.03182133333334, "bike_id": "ea24acea6cd1a572f8b23dec1a5a914b", "fusion_lat": 0.0, "name": "ea24acea6cd1a572f8b23dec1a5a914b", "is_reserved": 0, "rental_uris": {"android": "https://dc.lft.to/lastmile_qr_scan", "ios": "https://dc.lft.to/lastmile_qr_scan"}, "fusion_lon": 0.0}, {"lat": 38.8968645, "is_disabled": 0, "type": "electric_scooter", "lon": -76.936091, "bike_id": "39c8fb73b929f933a45795fb03756aa9", "fusion_lat": 0.0, "name": "39c8fb73b929f933a45795fb03756aa9", "is_reserved": 0, "rental_uris": {"android": "https://dc.lft.to/lastmile_qr_scan", "ios": "https://dc.lft.to/lastmile_qr_scan"}, "fusion_lon": 0.0}, {"lat": 38.948247333333335, "is_disabled": 0, "type": "electric_scooter", "lon": -76.99902083333333, "bike_id": "ad98fc8d2b3c60f643914f7a53848bba", "fusion_lat": 0.0, "name": "ad98fc8d2b3c60f643914f7a53848bba", "is_reserved": 0, "rental_uris": {"android": "https://dc.lft.to/lastmile_qr_scan", "ios": "https://dc.lft.to/lastmile_qr_scan"}, "fusion_lon": 0.0}, {"lat": 38.922245833333335, "is_disabled": 0, "type": "electric_scooter", "lon": -77.03749566666667, "bike_id": "259515d1bb96f267173bd1a5143278c0", "fusion_lat": 0.0, "name": "259515d1bb96f267173bd1a5143278c0", "is_reserved": 0, "rental_uris": {"android": "https://dc.lft.to/lastmile_qr_scan", "ios": "https://dc.lft.to/lastmile_qr_scan"}, "fusion_lon": 0.0}, {"lat": 38.9025465, "is_disabled": 0, "type": "electric_scooter", "lon": -77.05267366666666, "bike_id": "abafa401e27dda427877b19978f13668", "fusion_lat": 0.0, "name": "abafa401e27dda427877b19978f13668", "is_reserved": 0, "rental_uris": {"android": "https://dc.lft.to/lastmile_qr_scan", "ios": "https://dc.lft.to/lastmile_qr_scan"}, "fusion_lon": 0.0}, {"lat": 38.850221166666664, "is_disabled": 0, "type": "electric_bike", "lon": -77.09806433333334, "bike_id": "bbe494f05a43d3becc65920c07039205", "fusion_lat": 0.0, "name": "bbe494f05a43d3becc65920c07039205", "is_reserved": 0, "rental_uris": {"android": "https://dc.lft.to/lastmile_qr_scan", "ios": "https://dc.lft.to/lastmile_qr_scan"}, "fusion_lon": 0.0}, {"lat": 38.907117666666664, "is_disabled": 0, "type": "electric_scooter", "lon": -77.04767, "bike_id": "b51d79cf69fe54206624d82761145ce1", "fusion_lat": 0.0, "name": "b51d79cf69fe54206624d82761145ce1", "is_reserved": 0, "rental_uris": {"android": "https://dc.lft.to/lastmile_qr_scan", "ios": "https://dc.lft.to/lastmile_qr_scan"}, "fusion_lon": 0.0}, {"lat": 38.9174725, "is_disabled": 0, "type": "electric_scooter", "lon": -77.03208366666667, "bike_id": "d5bb823402ab5be0795ad4461aedec6f", "fusion_lat": 0.0, "name": "d5bb823402ab5be0795ad4461aedec6f", "is_reserved": 0, "rental_uris": {"android": "https://dc.lft.to/lastmile_qr_scan", "ios": "https://dc.lft.to/lastmile_qr_scan"}, "fusion_lon": 0.0}, {"lat": 38.901703, "is_disabled": 0, "type": "electric_scooter", "lon": -76.9806795, "bike_id": "e0442d84041827092fe33ac44853ef6a", "fusion_lat": 0.0, "name": "e0442d84041827092fe33ac44853ef6a", "is_reserved": 0, "rental_uris": {"android": "https://dc.lft.to/lastmile_qr_scan", "ios": "https://dc.lft.to/lastmile_qr_scan"}, "fusion_lon": 0.0}, {"lat": 38.930803, "is_disabled": 0, "type": "electric_scooter", "lon": -77.07766816666667, "bike_id": "fe93eb7c46711cff39da98fe0c8503d9", "fusion_lat": 0.0, "name": "fe93eb7c46711cff39da98fe0c8503d9", "is_reserved": 0, "rental_uris": {"android": "https://dc.lft.to/lastmile_qr_scan", "ios": "https://dc.lft.to/lastmile_qr_scan"}, "fusion_lon": 0.0}, {"lat": 38.91735083333333, "is_disabled": 0, "type": "electric_scooter", "lon": -77.0320995, "bike_id": "cfdf255a09b5f215f8603d2d62001538", "fusion_lat": 0.0, "name": "cfdf255a09b5f215f8603d2d62001538", "is_reserved": 0, "rental_uris": {"android": "https://dc.lft.to/lastmile_qr_scan", "ios": "https://dc.lft.to/lastmile_qr_scan"}, "fusion_lon": 0.0}, {"lat": 38.85790733333333, "is_disabled": 0, "type": "electric_bike", "lon": -77.09958733333333, "bike_id": "1c4eef43a3fde5977f651b4936c444d0", "fusion_lat": 0.0, "name": "1c4eef43a3fde5977f651b4936c444d0", "is_reserved": 0, "rental_uris": {"android": "https://dc.lft.to/lastmile_qr_scan", "ios": "https://dc.lft.to/lastmile_qr_scan"}, "fusion_lon": 0.0}, {"lat": 38.931448333333336, "is_disabled": 0, "type": "electric_scooter", "lon": -77.021442, "bike_id": "3afb0dcbdb72de2246d2041b7ad6f5b9", "fusion_lat": 0.0, "name": "3afb0dcbdb72de2246d2041b7ad6f5b9", "is_reserved": 0, "rental_uris": {"android": "https://dc.lft.to/lastmile_qr_scan", "ios": "https://dc.lft.to/lastmile_qr_scan"}, "fusion_lon": 0.0}, {"lat": 38.903579666666666, "is_disabled": 0, "type": "electric_bike", "lon": -77.016345, "bike_id": "c127866805e3732851164e4a945542a0", "fusion_lat": 0.0, "name": "c127866805e3732851164e4a945542a0", "is_reserved": 0, "rental_uris": {"android": "https://dc.lft.to/lastmile_qr_scan", "ios": "https://dc.lft.to/lastmile_qr_scan"}, "fusion_lon": 0.0}, {"lat": 38.905598499999996, "is_disabled": 0, "type": "electric_scooter", "lon": -77.0131385, "bike_id": "b7c2861c51e47a87d514e5602b3ce41f", "fusion_lat": 0.0, "name": "b7c2861c51e47a87d514e5602b3ce41f", "is_reserved": 0, "rental_uris": {"android": "https://dc.lft.to/lastmile_qr_scan", "ios": "https://dc.lft.to/lastmile_qr_scan"}, "fusion_lon": 0.0}, {"lat": 38.94527683333333, "is_disabled": 0, "type": "electric_scooter", "lon": -76.97944683333333, "bike_id": "6e8847fb45f171a0ba943c06430a98ab", "fusion_lat": 0.0, "name": "6e8847fb45f171a0ba943c06430a98ab", "is_reserved": 0, "rental_uris": {"android": "https://dc.lft.to/lastmile_qr_scan", "ios": "https://dc.lft.to/lastmile_qr_scan"}, "fusion_lon": 0.0}, {"lat": 38.90805483333333, "is_disabled": 0, "type": "electric_scooter", "lon": -77.043425, "bike_id": "6b9bdc32355cf08bb42b83363d5a9fcc", "fusion_lat": 0.0, "name": "6b9bdc32355cf08bb42b83363d5a9fcc", "is_reserved": 0, "rental_uris": {"android": "https://dc.lft.to/lastmile_qr_scan", "ios": "https://dc.lft.to/lastmile_qr_scan"}, "fusion_lon": 0.0}, {"lat": 38.89224733333333, "is_disabled": 0, "type": "electric_scooter", "lon": -77.04859833333333, "bike_id": "0b8e3c8443c01eb892093e53da0ef354", "fusion_lat": 0.0, "name": "0b8e3c8443c01eb892093e53da0ef354", "is_reserved": 0, "rental_uris": {"android": "https://dc.lft.to/lastmile_qr_scan", "ios": "https://dc.lft.to/lastmile_qr_scan"}, "fusion_lon": 0.0}, {"lat": 38.8848265, "is_disabled": 0, "type": "electric_scooter", "lon": -76.94527233333334, "bike_id": "7c463f33fc4369c15a392ad830bc74c6", "fusion_lat": 0.0, "name": "7c463f33fc4369c15a392ad830bc74c6", "is_reserved": 0, "rental_uris": {"android": "https://dc.lft.to/lastmile_qr_scan", "ios": "https://dc.lft.to/lastmile_qr_scan"}, "fusion_lon": 0.0}, {"lat": 38.90555483333333, "is_disabled": 0, "type": "electric_scooter", "lon": -77.026894, "bike_id": "9743a6d1ef23547276e2481681e324b1", "fusion_lat": 0.0, "name": "9743a6d1ef23547276e2481681e324b1", "is_reserved": 0, "rental_uris": {"android": "https://dc.lft.to/lastmile_qr_scan", "ios": "https://dc.lft.to/lastmile_qr_scan"}, "fusion_lon": 0.0}, {"lat": 38.9035655, "is_disabled": 0, "type": "electric_scooter", "lon": -77.01102333333333, "bike_id": "0ab5da9d82dd781d4fb2e0ddb490c784", "fusion_lat": 0.0, "name": "0ab5da9d82dd781d4fb2e0ddb490c784", "is_reserved": 0, "rental_uris": {"android": "https://dc.lft.to/lastmile_qr_scan", "ios": "https://dc.lft.to/lastmile_qr_scan"}, "fusion_lon": 0.0}, {"lat": 38.900837, "is_disabled": 0, "type": "electric_scooter", "lon": -77.02708433333333, "bike_id": "7d873b137a048fc472a953c0fba5b653", "fusion_lat": 0.0, "name": "7d873b137a048fc472a953c0fba5b653", "is_reserved": 0, "rental_uris": {"android": "https://dc.lft.to/lastmile_qr_scan", "ios": "https://dc.lft.to/lastmile_qr_scan"}, "fusion_lon": 0.0}, {"lat": 38.88745133333333, "is_disabled": 0, "type": "electric_scooter", "lon": -76.98355516666666, "bike_id": "c35c50ee3d435323f988264ceb7d73d0", "fusion_lat": 0.0, "name": "c35c50ee3d435323f988264ceb7d73d0", "is_reserved": 0, "rental_uris": {"android": "https://dc.lft.to/lastmile_qr_scan", "ios": "https://dc.lft.to/lastmile_qr_scan"}, "fusion_lon": 0.0}, {"lat": 38.86701133333333, "is_disabled": 0, "type": "electric_scooter", "lon": -76.98714733333334, "bike_id": "8231dd25ee938e14c3a9cd3d0b091aa0", "fusion_lat": 0.0, "name": "8231dd25ee938e14c3a9cd3d0b091aa0", "is_reserved": 0, "rental_uris": {"android": "https://dc.lft.to/lastmile_qr_scan", "ios": "https://dc.lft.to/lastmile_qr_scan"}, "fusion_lon": 0.0}, {"lat": 38.935278333333336, "is_disabled": 0, "type": "electric_scooter", "lon": -77.07297983333333, "bike_id": "e49211b12066e743f367c9fe94aefc8c", "fusion_lat": 0.0, "name": "e49211b12066e743f367c9fe94aefc8c", "is_reserved": 0, "rental_uris": {"android": "https://dc.lft.to/lastmile_qr_scan", "ios": "https://dc.lft.to/lastmile_qr_scan"}, "fusion_lon": 0.0}, {"lat": 38.874118333333335, "is_disabled": 0, "type": "electric_bike", "lon": -76.96578766666667, "bike_id": "1e8749a537b266c441135aa96b58ec60", "fusion_lat": 0.0, "name": "1e8749a537b266c441135aa96b58ec60", "is_reserved": 0, "rental_uris": {"android": "https://dc.lft.to/lastmile_qr_scan", "ios": "https://dc.lft.to/lastmile_qr_scan"}, "fusion_lon": 0.0}, {"lat": 38.905615833333336, "is_disabled": 0, "type": "electric_scooter", "lon": -77.01682216666667, "bike_id": "d0fc8b664d9e538fa2bbaa19aa438890", "fusion_lat": 0.0, "name": "d0fc8b664d9e538fa2bbaa19aa438890", "is_reserved": 0, "rental_uris": {"android": "https://dc.lft.to/lastmile_qr_scan", "ios": "https://dc.lft.to/lastmile_qr_scan"}, "fusion_lon": 0.0}, {"lat": 38.902758, "is_disabled": 0, "type": "electric_scooter", "lon": -77.05804516666667, "bike_id": "327f5210ad675abd46b931ca92212819", "fusion_lat": 0.0, "name": "327f5210ad675abd46b931ca92212819", "is_reserved": 0, "rental_uris": {"android": "https://dc.lft.to/lastmile_qr_scan", "ios": "https://dc.lft.to/lastmile_qr_scan"}, "fusion_lon": 0.0}, {"lat": 38.840233, "is_disabled": 0, "type": "electric_bike", "lon": -76.97583533333334, "bike_id": "48fad55198ae14dda85df8a3297ba7be", "fusion_lat": 0.0, "name": "48fad55198ae14dda85df8a3297ba7be", "is_reserved": 0, "rental_uris": {"android": "https://dc.lft.to/lastmile_qr_scan", "ios": "https://dc.lft.to/lastmile_qr_scan"}, "fusion_lon": 0.0}, {"lat": 38.93086533333334, "is_disabled": 0, "type": "electric_scooter", "lon": -77.07745833333334, "bike_id": "b0f018b2fb3e86211712edae85166629", "fusion_lat": 0.0, "name": "b0f018b2fb3e86211712edae85166629", "is_reserved": 0, "rental_uris": {"android": "https://dc.lft.to/lastmile_qr_scan", "ios": "https://dc.lft.to/lastmile_qr_scan"}, "fusion_lon": 0.0}, {"lat": 38.956367666666665, "is_disabled": 0, "type": "electric_bike", "lon": -77.01959733333334, "bike_id": "922e639ee390baf379875bad80927173", "fusion_lat": 0.0, "name": "922e639ee390baf379875bad80927173", "is_reserved": 0, "rental_uris": {"android": "https://dc.lft.to/lastmile_qr_scan", "ios": "https://dc.lft.to/lastmile_qr_scan"}, "fusion_lon": 0.0}, {"lat": 38.90942066666667, "is_disabled": 0, "type": "electric_scooter", "lon": -76.98962166666666, "bike_id": "6c0ba510ce0136415f293f6b6786d833", "fusion_lat": 0.0, "name": "6c0ba510ce0136415f293f6b6786d833", "is_reserved": 0, "rental_uris": {"android": "https://dc.lft.to/lastmile_qr_scan", "ios": "https://dc.lft.to/lastmile_qr_scan"}, "fusion_lon": 0.0}, {"lat": 38.91685833333333, "is_disabled": 0, "type": "electric_scooter", "lon": -77.0122625, "bike_id": "586e359e4b9ff3c684f13ddeaf361c67", "fusion_lat": 0.0, "name": "586e359e4b9ff3c684f13ddeaf361c67", "is_reserved": 0, "rental_uris": {"android": "https://dc.lft.to/lastmile_qr_scan", "ios": "https://dc.lft.to/lastmile_qr_scan"}, "fusion_lon": 0.0}, {"lat": 38.9007315, "is_disabled": 0, "type": "electric_scooter", "lon": -77.002107, "bike_id": "1e110015bc7428e67bbd697782bacaa4", "fusion_lat": 0.0, "name": "1e110015bc7428e67bbd697782bacaa4", "is_reserved": 0, "rental_uris": {"android": "https://dc.lft.to/lastmile_qr_scan", "ios": "https://dc.lft.to/lastmile_qr_scan"}, "fusion_lon": 0.0}, {"lat": 38.9215355, "is_disabled": 0, "type": "electric_scooter", "lon": -77.02093183333334, "bike_id": "bce8f5d5a2644806c4de7e499282d5cc", "fusion_lat": 0.0, "name": "bce8f5d5a2644806c4de7e499282d5cc", "is_reserved": 0, "rental_uris": {"android": "https://dc.lft.to/lastmile_qr_scan", "ios": "https://dc.lft.to/lastmile_qr_scan"}, "fusion_lon": 0.0}, {"lat": 38.90741383333334, "is_disabled": 0, "type": "electric_scooter", "lon": -77.034515, "bike_id": "883343748665e6e5296d906405bf6921", "fusion_lat": 0.0, "name": "883343748665e6e5296d906405bf6921", "is_reserved": 0, "rental_uris": {"android": "https://dc.lft.to/lastmile_qr_scan", "ios": "https://dc.lft.to/lastmile_qr_scan"}, "fusion_lon": 0.0}, {"lat": 38.91011533333333, "is_disabled": 0, "type": "electric_scooter", "lon": -77.0220775, "bike_id": "4b1b5a7fd997ce9fb25f738fb78d3f69", "fusion_lat": 0.0, "name": "4b1b5a7fd997ce9fb25f738fb78d3f69", "is_reserved": 0, "rental_uris": {"android": "https://dc.lft.to/lastmile_qr_scan", "ios": "https://dc.lft.to/lastmile_qr_scan"}, "fusion_lon": 0.0}, {"lat": 38.913023333333335, "is_disabled": 0, "type": "electric_scooter", "lon": -77.0240465, "bike_id": "171b482065b7e24af25dacf635e0460e", "fusion_lat": 0.0, "name": "171b482065b7e24af25dacf635e0460e", "is_reserved": 0, "rental_uris": {"android": "https://dc.lft.to/lastmile_qr_scan", "ios": "https://dc.lft.to/lastmile_qr_scan"}, "fusion_lon": 0.0}, {"lat": 38.93356516666667, "is_disabled": 0, "type": "electric_bike", "lon": -77.09966733333333, "bike_id": "43551edac48566bb33dd5204abe0c982", "fusion_lat": 0.0, "name": "43551edac48566bb33dd5204abe0c982", "is_reserved": 0, "rental_uris": {"android": "https://dc.lft.to/lastmile_qr_scan", "ios": "https://dc.lft.to/lastmile_qr_scan"}, "fusion_lon": 0.0}, {"lat": 38.90357433333333, "is_disabled": 0, "type": "electric_scooter", "lon": -77.04448333333333, "bike_id": "643f0f2104869d5836bcad535c03c8eb", "fusion_lat": 0.0, "name": "643f0f2104869d5836bcad535c03c8eb", "is_reserved": 0, "rental_uris": {"android": "https://dc.lft.to/lastmile_qr_scan", "ios": "https://dc.lft.to/lastmile_qr_scan"}, "fusion_lon": 0.0}, {"lat": 38.91918833333333, "is_disabled": 0, "type": "electric_scooter", "lon": -77.03187616666666, "bike_id": "8ef35a373284775789aaba173c872f29", "fusion_lat": 0.0, "name": "8ef35a373284775789aaba173c872f29", "is_reserved": 0, "rental_uris": {"android": "https://dc.lft.to/lastmile_qr_scan", "ios": "https://dc.lft.to/lastmile_qr_scan"}, "fusion_lon": 0.0}, {"lat": 38.90244216666667, "is_disabled": 0, "type": "electric_scooter", "lon": -77.03951633333334, "bike_id": "a0c5c45c34bbcd698079968d8cdb1033", "fusion_lat": 0.0, "name": "a0c5c45c34bbcd698079968d8cdb1033", "is_reserved": 0, "rental_uris": {"android": "https://dc.lft.to/lastmile_qr_scan", "ios": "https://dc.lft.to/lastmile_qr_scan"}, "fusion_lon": 0.0}, {"lat": 38.911169666666666, "is_disabled": 0, "type": "electric_scooter", "lon": -77.043606, "bike_id": "e93080529770e6f19a59fbffc2a1a1a4", "fusion_lat": 0.0, "name": "e93080529770e6f19a59fbffc2a1a1a4", "is_reserved": 0, "rental_uris": {"android": "https://dc.lft.to/lastmile_qr_scan", "ios": "https://dc.lft.to/lastmile_qr_scan"}, "fusion_lon": 0.0}, {"lat": 39.03420666666667, "is_disabled": 0, "type": "electric_bike", "lon": -77.0431335, "bike_id": "67db1d8aa473b1221ed72fcb223724f0", "fusion_lat": 0.0, "name": "67db1d8aa473b1221ed72fcb223724f0", "is_reserved": 0, "rental_uris": {"android": "https://dc.lft.to/lastmile_qr_scan", "ios": "https://dc.lft.to/lastmile_qr_scan"}, "fusion_lon": 0.0}, {"lat": 38.90965766666667, "is_disabled": 0, "type": "electric_scooter", "lon": -77.034298, "bike_id": "5f02bba3c5aabfd77037357a41881f4e", "fusion_lat": 0.0, "name": "5f02bba3c5aabfd77037357a41881f4e", "is_reserved": 0, "rental_uris": {"android": "https://dc.lft.to/lastmile_qr_scan", "ios": "https://dc.lft.to/lastmile_qr_scan"}, "fusion_lon": 0.0}, {"lat": 38.89072083333333, "is_disabled": 0, "type": "electric_scooter", "lon": -76.9883755, "bike_id": "332de5da34f983bf9ce831e2cca666a1", "fusion_lat": 0.0, "name": "332de5da34f983bf9ce831e2cca666a1", "is_reserved": 0, "rental_uris": {"android": "https://dc.lft.to/lastmile_qr_scan", "ios": "https://dc.lft.to/lastmile_qr_scan"}, "fusion_lon": 0.0}, {"lat": 38.917185833333335, "is_disabled": 0, "type": "electric_scooter", "lon": -77.038378, "bike_id": "44c8a83d9212aa1ae3317f7941cfcf83", "fusion_lat": 0.0, "name": "44c8a83d9212aa1ae3317f7941cfcf83", "is_reserved": 0, "rental_uris": {"android": "https://dc.lft.to/lastmile_qr_scan", "ios": "https://dc.lft.to/lastmile_qr_scan"}, "fusion_lon": 0.0}, {"lat": 38.9056615, "is_disabled": 0, "type": "electric_scooter", "lon": -77.033954, "bike_id": "ce8130823e4ab1e336451e8e12ac6356", "fusion_lat": 0.0, "name": "ce8130823e4ab1e336451e8e12ac6356", "is_reserved": 0, "rental_uris": {"android": "https://dc.lft.to/lastmile_qr_scan", "ios": "https://dc.lft.to/lastmile_qr_scan"}, "fusion_lon": 0.0}, {"lat": 38.85196883333333, "is_disabled": 0, "type": "electric_scooter", "lon": -76.97632366666667, "bike_id": "4dd8dff423059eae3c02b71681ff1752", "fusion_lat": 0.0, "name": "4dd8dff423059eae3c02b71681ff1752", "is_reserved": 0, "rental_uris": {"android": "https://dc.lft.to/lastmile_qr_scan", "ios": "https://dc.lft.to/lastmile_qr_scan"}, "fusion_lon": 0.0}, {"lat": 38.857123, "is_disabled": 0, "type": "electric_scooter", "lon": -76.9867285, "bike_id": "af757e5105d487815de1c7b7cb43cf6c", "fusion_lat": 0.0, "name": "af757e5105d487815de1c7b7cb43cf6c", "is_reserved": 0, "rental_uris": {"android": "https://dc.lft.to/lastmile_qr_scan", "ios": "https://dc.lft.to/lastmile_qr_scan"}, "fusion_lon": 0.0}, {"lat": 38.99256116666667, "is_disabled": 0, "type": "electric_scooter", "lon": -77.036603, "bike_id": "18c1676e7aa44a5a8c971c0b1ba49a5c", "fusion_lat": 0.0, "name": "18c1676e7aa44a5a8c971c0b1ba49a5c", "is_reserved": 0, "rental_uris": {"android": "https://dc.lft.to/lastmile_qr_scan", "ios": "https://dc.lft.to/lastmile_qr_scan"}, "fusion_lon": 0.0}, {"lat": 38.92755666666667, "is_disabled": 0, "type": "electric_scooter", "lon": -77.0326445, "bike_id": "e4cadccdcde94a03f3e77f3d0a3c11bc", "fusion_lat": 0.0, "name": "e4cadccdcde94a03f3e77f3d0a3c11bc", "is_reserved": 0, "rental_uris": {"android": "https://dc.lft.to/lastmile_qr_scan", "ios": "https://dc.lft.to/lastmile_qr_scan"}, "fusion_lon": 0.0}, {"lat": 38.900077333333336, "is_disabled": 0, "type": "electric_scooter", "lon": -77.046579, "bike_id": "dc980a76e3c934b863e35d7cfc36d043", "fusion_lat": 0.0, "name": "dc980a76e3c934b863e35d7cfc36d043", "is_reserved": 0, "rental_uris": {"android": "https://dc.lft.to/lastmile_qr_scan", "ios": "https://dc.lft.to/lastmile_qr_scan"}, "fusion_lon": 0.0}, {"lat": 38.893553, "is_disabled": 0, "type": "electric_scooter", "lon": -77.04145416666667, "bike_id": "4a8c3f511e8a1976f3abdeaefc0cac80", "fusion_lat": 0.0, "name": "4a8c3f511e8a1976f3abdeaefc0cac80", "is_reserved": 0, "rental_uris": {"android": "https://dc.lft.to/lastmile_qr_scan", "ios": "https://dc.lft.to/lastmile_qr_scan"}, "fusion_lon": 0.0}, {"lat": 38.90962116666667, "is_disabled": 0, "type": "electric_scooter", "lon": -77.04622116666667, "bike_id": "ec4dfd2e2ad1090076d33daaf1d8e4c8", "fusion_lat": 0.0, "name": "ec4dfd2e2ad1090076d33daaf1d8e4c8", "is_reserved": 0, "rental_uris": {"android": "https://dc.lft.to/lastmile_qr_scan", "ios": "https://dc.lft.to/lastmile_qr_scan"}, "fusion_lon": 0.0}, {"lat": 38.93094083333333, "is_disabled": 0, "type": "electric_scooter", "lon": -77.02474, "bike_id": "c464620c5726a481e246d05443bfa79e", "fusion_lat": 0.0, "name": "c464620c5726a481e246d05443bfa79e", "is_reserved": 0, "rental_uris": {"android": "https://dc.lft.to/lastmile_qr_scan", "ios": "https://dc.lft.to/lastmile_qr_scan"}, "fusion_lon": 0.0}, {"lat": 38.92593016666667, "is_disabled": 0, "type": "electric_scooter", "lon": -77.0440045, "bike_id": "f7acc347227a90ead16332ba2ed38091", "fusion_lat": 0.0, "name": "f7acc347227a90ead16332ba2ed38091", "is_reserved": 0, "rental_uris": {"android": "https://dc.lft.to/lastmile_qr_scan", "ios": "https://dc.lft.to/lastmile_qr_scan"}, "fusion_lon": 0.0}, {"lat": 38.945558166666665, "is_disabled": 0, "type": "electric_bike", "lon": -76.89536616666666, "bike_id": "eb9677ff3adbff68f1544ce55f850893", "fusion_lat": 0.0, "name": "eb9677ff3adbff68f1544ce55f850893", "is_reserved": 0, "rental_uris": {"android": "https://dc.lft.to/lastmile_qr_scan", "ios": "https://dc.lft.to/lastmile_qr_scan"}, "fusion_lon": 0.0}, {"lat": 38.936586166666665, "is_disabled": 0, "type": "electric_bike", "lon": -76.95216883333333, "bike_id": "02d57b2ced45e62a997f07a40fd3334f", "fusion_lat": 0.0, "name": "02d57b2ced45e62a997f07a40fd3334f", "is_reserved": 0, "rental_uris": {"android": "https://dc.lft.to/lastmile_qr_scan", "ios": "https://dc.lft.to/lastmile_qr_scan"}, "fusion_lon": 0.0}, {"lat": 38.9052025, "is_disabled": 0, "type": "electric_scooter", "lon": -77.0618815, "bike_id": "ee3258e0d806222ea8f074ca037cf4e4", "fusion_lat": 0.0, "name": "ee3258e0d806222ea8f074ca037cf4e4", "is_reserved": 0, "rental_uris": {"android": "https://dc.lft.to/lastmile_qr_scan", "ios": "https://dc.lft.to/lastmile_qr_scan"}, "fusion_lon": 0.0}, {"lat": 38.8921905, "is_disabled": 0, "type": "electric_scooter", "lon": -77.027784, "bike_id": "538998bc0863fe719f7ce0bfcbf8acc0", "fusion_lat": 0.0, "name": "538998bc0863fe719f7ce0bfcbf8acc0", "is_reserved": 0, "rental_uris": {"android": "https://dc.lft.to/lastmile_qr_scan", "ios": "https://dc.lft.to/lastmile_qr_scan"}, "fusion_lon": 0.0}, {"lat": 38.91792433333333, "is_disabled": 0, "type": "electric_scooter", "lon": -77.02283, "bike_id": "6676ba371eef7748b7390a25d93bc0f7", "fusion_lat": 0.0, "name": "6676ba371eef7748b7390a25d93bc0f7", "is_reserved": 0, "rental_uris": {"android": "https://dc.lft.to/lastmile_qr_scan", "ios": "https://dc.lft.to/lastmile_qr_scan"}, "fusion_lon": 0.0}, {"lat": 38.8443635, "is_disabled": 0, "type": "electric_scooter", "lon": -76.99659116666666, "bike_id": "8aa0639aa4df249a64f0dbc82101283a", "fusion_lat": 0.0, "name": "8aa0639aa4df249a64f0dbc82101283a", "is_reserved": 0, "rental_uris": {"android": "https://dc.lft.to/lastmile_qr_scan", "ios": "https://dc.lft.to/lastmile_qr_scan"}, "fusion_lon": 0.0}, {"lat": 38.907776166666665, "is_disabled": 0, "type": "electric_scooter", "lon": -77.04285633333333, "bike_id": "b4a682718332755b13111595d4612203", "fusion_lat": 0.0, "name": "b4a682718332755b13111595d4612203", "is_reserved": 0, "rental_uris": {"android": "https://dc.lft.to/lastmile_qr_scan", "ios": "https://dc.lft.to/lastmile_qr_scan"}, "fusion_lon": 0.0}, {"lat": 38.900589833333335, "is_disabled": 0, "type": "electric_scooter", "lon": -77.00202266666666, "bike_id": "ec23d7f7b586b36c95d60db4e06379d3", "fusion_lat": 0.0, "name": "ec23d7f7b586b36c95d60db4e06379d3", "is_reserved": 0, "rental_uris": {"android": "https://dc.lft.to/lastmile_qr_scan", "ios": "https://dc.lft.to/lastmile_qr_scan"}, "fusion_lon": 0.0}, {"lat": 38.940982166666664, "is_disabled": 0, "type": "electric_scooter", "lon": -77.02109766666666, "bike_id": "b4c6de63a83e02bfe8acc5f8e958bff1", "fusion_lat": 0.0, "name": "b4c6de63a83e02bfe8acc5f8e958bff1", "is_reserved": 0, "rental_uris": {"android": "https://dc.lft.to/lastmile_qr_scan", "ios": "https://dc.lft.to/lastmile_qr_scan"}, "fusion_lon": 0.0}, {"lat": 38.94438433333333, "is_disabled": 0, "type": "electric_scooter", "lon": -77.01506566666667, "bike_id": "92cb3cbce638e5c97bdbb66acc64b4c6", "fusion_lat": 0.0, "name": "92cb3cbce638e5c97bdbb66acc64b4c6", "is_reserved": 0, "rental_uris": {"android": "https://dc.lft.to/lastmile_qr_scan", "ios": "https://dc.lft.to/lastmile_qr_scan"}, "fusion_lon": 0.0}, {"lat": 38.917144, "is_disabled": 0, "type": "electric_scooter", "lon": -77.02948516666666, "bike_id": "85669eabac8deb9095e211b9748a4894", "fusion_lat": 0.0, "name": "85669eabac8deb9095e211b9748a4894", "is_reserved": 0, "rental_uris": {"android": "https://dc.lft.to/lastmile_qr_scan", "ios": "https://dc.lft.to/lastmile_qr_scan"}, "fusion_lon": 0.0}, {"lat": 38.909577666666664, "is_disabled": 0, "type": "electric_scooter", "lon": -77.0238165, "bike_id": "ba66c9b9945af13be80fd889b6ea1817", "fusion_lat": 0.0, "name": "ba66c9b9945af13be80fd889b6ea1817", "is_reserved": 0, "rental_uris": {"android": "https://dc.lft.to/lastmile_qr_scan", "ios": "https://dc.lft.to/lastmile_qr_scan"}, "fusion_lon": 0.0}, {"lat": 38.8551395, "is_disabled": 0, "type": "electric_bike", "lon": -77.12008983333334, "bike_id": "c3911ebf60240760c08117baf5fd5e9f", "fusion_lat": 0.0, "name": "c3911ebf60240760c08117baf5fd5e9f", "is_reserved": 0, "rental_uris": {"android": "https://dc.lft.to/lastmile_qr_scan", "ios": "https://dc.lft.to/lastmile_qr_scan"}, "fusion_lon": 0.0}, {"lat": 38.9024135, "is_disabled": 0, "type": "electric_scooter", "lon": -77.03936033333333, "bike_id": "21db7f6e9b3f953eae363de900c55fe8", "fusion_lat": 0.0, "name": "21db7f6e9b3f953eae363de900c55fe8", "is_reserved": 0, "rental_uris": {"android": "https://dc.lft.to/lastmile_qr_scan", "ios": "https://dc.lft.to/lastmile_qr_scan"}, "fusion_lon": 0.0}, {"lat": 38.901804166666665, "is_disabled": 0, "type": "electric_scooter", "lon": -77.02700866666666, "bike_id": "82999d1f293cc22124ef63d3b5b9b5a2", "fusion_lat": 0.0, "name": "82999d1f293cc22124ef63d3b5b9b5a2", "is_reserved": 0, "rental_uris": {"android": "https://dc.lft.to/lastmile_qr_scan", "ios": "https://dc.lft.to/lastmile_qr_scan"}, "fusion_lon": 0.0}, {"lat": 38.851856166666664, "is_disabled": 0, "type": "electric_bike", "lon": -76.96114116666666, "bike_id": "4ed3d60372eb6540452895594258b716", "fusion_lat": 0.0, "name": "4ed3d60372eb6540452895594258b716", "is_reserved": 0, "rental_uris": {"android": "https://dc.lft.to/lastmile_qr_scan", "ios": "https://dc.lft.to/lastmile_qr_scan"}, "fusion_lon": 0.0}, {"lat": 38.92236333333334, "is_disabled": 0, "type": "electric_scooter", "lon": -77.0334625, "bike_id": "a702bed5949c268afe21a2a9c07cab48", "fusion_lat": 0.0, "name": "a702bed5949c268afe21a2a9c07cab48", "is_reserved": 0, "rental_uris": {"android": "https://dc.lft.to/lastmile_qr_scan", "ios": "https://dc.lft.to/lastmile_qr_scan"}, "fusion_lon": 0.0}, {"lat": 38.908288166666665, "is_disabled": 0, "type": "electric_scooter", "lon": -77.038539, "bike_id": "42c16a979d1acd97ae8bf8700ea092ae", "fusion_lat": 0.0, "name": "42c16a979d1acd97ae8bf8700ea092ae", "is_reserved": 0, "rental_uris": {"android": "https://dc.lft.to/lastmile_qr_scan", "ios": "https://dc.lft.to/lastmile_qr_scan"}, "fusion_lon": 0.0}, {"lat": 38.931552, "is_disabled": 0, "type": "electric_scooter", "lon": -77.03630633333333, "bike_id": "ebd19626f4dd667c2bc3e867a389410a", "fusion_lat": 0.0, "name": "ebd19626f4dd667c2bc3e867a389410a", "is_reserved": 0, "rental_uris": {"android": "https://dc.lft.to/lastmile_qr_scan", "ios": "https://dc.lft.to/lastmile_qr_scan"}, "fusion_lon": 0.0}, {"lat": 38.930180666666665, "is_disabled": 0, "type": "electric_scooter", "lon": -77.04454083333333, "bike_id": "ca2e7f2709b0521d832aa91a665b0c94", "fusion_lat": 0.0, "name": "ca2e7f2709b0521d832aa91a665b0c94", "is_reserved": 0, "rental_uris": {"android": "https://dc.lft.to/lastmile_qr_scan", "ios": "https://dc.lft.to/lastmile_qr_scan"}, "fusion_lon": 0.0}, {"lat": 38.909887833333336, "is_disabled": 0, "type": "electric_scooter", "lon": -76.99736533333333, "bike_id": "707ba1e0203d30713ab26400721f20df", "fusion_lat": 0.0, "name": "707ba1e0203d30713ab26400721f20df", "is_reserved": 0, "rental_uris": {"android": "https://dc.lft.to/lastmile_qr_scan", "ios": "https://dc.lft.to/lastmile_qr_scan"}, "fusion_lon": 0.0}, {"lat": 38.93607633333333, "is_disabled": 0, "type": "electric_scooter", "lon": -77.03661533333333, "bike_id": "d35a79b4576a79b501d7986b902381db", "fusion_lat": 0.0, "name": "d35a79b4576a79b501d7986b902381db", "is_reserved": 0, "rental_uris": {"android": "https://dc.lft.to/lastmile_qr_scan", "ios": "https://dc.lft.to/lastmile_qr_scan"}, "fusion_lon": 0.0}, {"lat": 38.92390916666667, "is_disabled": 0, "type": "electric_scooter", "lon": -77.03225866666666, "bike_id": "6b5443bed0cef1e38dcb2eebf7fc4aab", "fusion_lat": 0.0, "name": "6b5443bed0cef1e38dcb2eebf7fc4aab", "is_reserved": 0, "rental_uris": {"android": "https://dc.lft.to/lastmile_qr_scan", "ios": "https://dc.lft.to/lastmile_qr_scan"}, "fusion_lon": 0.0}, {"lat": 38.899430333333335, "is_disabled": 0, "type": "electric_scooter", "lon": -77.05180966666667, "bike_id": "ce95ff4a088c1520e98bf3b82c229c02", "fusion_lat": 0.0, "name": "ce95ff4a088c1520e98bf3b82c229c02", "is_reserved": 0, "rental_uris": {"android": "https://dc.lft.to/lastmile_qr_scan", "ios": "https://dc.lft.to/lastmile_qr_scan"}, "fusion_lon": 0.0}, {"lat": 39.00476883333333, "is_disabled": 0, "type": "electric_bike", "lon": -76.9013275, "bike_id": "32b1a41c12a6d671be41245abd1155f4", "fusion_lat": 0.0, "name": "32b1a41c12a6d671be41245abd1155f4", "is_reserved": 0, "rental_uris": {"android": "https://dc.lft.to/lastmile_qr_scan", "ios": "https://dc.lft.to/lastmile_qr_scan"}, "fusion_lon": 0.0}, {"lat": 38.90076583333333, "is_disabled": 0, "type": "electric_scooter", "lon": -77.00202583333333, "bike_id": "b5b83c709d134efffcc8e81deb1ff497", "fusion_lat": 0.0, "name": "b5b83c709d134efffcc8e81deb1ff497", "is_reserved": 0, "rental_uris": {"android": "https://dc.lft.to/lastmile_qr_scan", "ios": "https://dc.lft.to/lastmile_qr_scan"}, "fusion_lon": 0.0}, {"lat": 38.89225033333334, "is_disabled": 0, "type": "electric_scooter", "lon": -77.03155966666667, "bike_id": "2eb8b41d3f64cd7d2936b57642a214ec", "fusion_lat": 0.0, "name": "2eb8b41d3f64cd7d2936b57642a214ec", "is_reserved": 0, "rental_uris": {"android": "https://dc.lft.to/lastmile_qr_scan", "ios": "https://dc.lft.to/lastmile_qr_scan"}, "fusion_lon": 0.0}, {"lat": 38.82873516666667, "is_disabled": 0, "type": "electric_bike", "lon": -77.11221166666667, "bike_id": "294e9292a72b9294a481eef03270642a", "fusion_lat": 0.0, "name": "294e9292a72b9294a481eef03270642a", "is_reserved": 0, "rental_uris": {"android": "https://dc.lft.to/lastmile_qr_scan", "ios": "https://dc.lft.to/lastmile_qr_scan"}, "fusion_lon": 0.0}, {"lat": 38.88548216666667, "is_disabled": 0, "type": "electric_bike", "lon": -77.117859, "bike_id": "15aa87c324aa99da0d7607279be122cd", "fusion_lat": 0.0, "name": "15aa87c324aa99da0d7607279be122cd", "is_reserved": 0, "rental_uris": {"android": "https://dc.lft.to/lastmile_qr_scan", "ios": "https://dc.lft.to/lastmile_qr_scan"}, "fusion_lon": 0.0}, {"lat": 38.877112, "is_disabled": 0, "type": "electric_scooter", "lon": -77.01771566666666, "bike_id": "dad62169887289bd1cd98ee001a6eb21", "fusion_lat": 0.0, "name": "dad62169887289bd1cd98ee001a6eb21", "is_reserved": 0, "rental_uris": {"android": "https://dc.lft.to/lastmile_qr_scan", "ios": "https://dc.lft.to/lastmile_qr_scan"}, "fusion_lon": 0.0}, {"lat": 38.90396583333333, "is_disabled": 0, "type": "electric_scooter", "lon": -76.99003633333334, "bike_id": "31055fe2e33c8df81c9a41d3550ee82e", "fusion_lat": 0.0, "name": "31055fe2e33c8df81c9a41d3550ee82e", "is_reserved": 0, "rental_uris": {"android": "https://dc.lft.to/lastmile_qr_scan", "ios": "https://dc.lft.to/lastmile_qr_scan"}, "fusion_lon": 0.0}, {"lat": 38.88609783333333, "is_disabled": 0, "type": "electric_scooter", "lon": -77.0189665, "bike_id": "bdf3219c6a29bfdaa452acc23e2c8fa3", "fusion_lat": 0.0, "name": "bdf3219c6a29bfdaa452acc23e2c8fa3", "is_reserved": 0, "rental_uris": {"android": "https://dc.lft.to/lastmile_qr_scan", "ios": "https://dc.lft.to/lastmile_qr_scan"}, "fusion_lon": 0.0}, {"lat": 38.9482065, "is_disabled": 0, "type": "electric_scooter", "lon": -76.99907783333333, "bike_id": "057e442eabe55b2df3f6efddf3f3ecf5", "fusion_lat": 0.0, "name": "057e442eabe55b2df3f6efddf3f3ecf5", "is_reserved": 0, "rental_uris": {"android": "https://dc.lft.to/lastmile_qr_scan", "ios": "https://dc.lft.to/lastmile_qr_scan"}, "fusion_lon": 0.0}, {"lat": 38.922061, "is_disabled": 0, "type": "electric_bike", "lon": -77.08199366666666, "bike_id": "c4518bca4639835ca281971ca70a73aa", "fusion_lat": 0.0, "name": "c4518bca4639835ca281971ca70a73aa", "is_reserved": 0, "rental_uris": {"android": "https://dc.lft.to/lastmile_qr_scan", "ios": "https://dc.lft.to/lastmile_qr_scan"}, "fusion_lon": 0.0}, {"lat": 38.895128166666666, "is_disabled": 0, "type": "electric_scooter", "lon": -77.02210433333333, "bike_id": "fbcd790ef1abda7dcf5d7ddf27395add", "fusion_lat": 0.0, "name": "fbcd790ef1abda7dcf5d7ddf27395add", "is_reserved": 0, "rental_uris": {"android": "https://dc.lft.to/lastmile_qr_scan", "ios": "https://dc.lft.to/lastmile_qr_scan"}, "fusion_lon": 0.0}, {"lat": 38.91707566666667, "is_disabled": 0, "type": "electric_scooter", "lon": -76.97928066666667, "bike_id": "e9b4fad4d3a291633b56310942f123a1", "fusion_lat": 0.0, "name": "e9b4fad4d3a291633b56310942f123a1", "is_reserved": 0, "rental_uris": {"android": "https://dc.lft.to/lastmile_qr_scan", "ios": "https://dc.lft.to/lastmile_qr_scan"}, "fusion_lon": 0.0}, {"lat": 38.9061795, "is_disabled": 0, "type": "electric_bike", "lon": -76.9860795, "bike_id": "ea63d54819d7068d550479710d337034", "fusion_lat": 0.0, "name": "ea63d54819d7068d550479710d337034", "is_reserved": 0, "rental_uris": {"android": "https://dc.lft.to/lastmile_qr_scan", "ios": "https://dc.lft.to/lastmile_qr_scan"}, "fusion_lon": 0.0}, {"lat": 38.90825266666667, "is_disabled": 0, "type": "electric_scooter", "lon": -77.020109, "bike_id": "444d90721ff3d0d297918c74308118b4", "fusion_lat": 0.0, "name": "444d90721ff3d0d297918c74308118b4", "is_reserved": 0, "rental_uris": {"android": "https://dc.lft.to/lastmile_qr_scan", "ios": "https://dc.lft.to/lastmile_qr_scan"}, "fusion_lon": 0.0}, {"lat": 38.91964883333333, "is_disabled": 0, "type": "electric_scooter", "lon": -77.01437583333333, "bike_id": "743a79aade6b3f71fadfd80f9e185d54", "fusion_lat": 0.0, "name": "743a79aade6b3f71fadfd80f9e185d54", "is_reserved": 0, "rental_uris": {"android": "https://dc.lft.to/lastmile_qr_scan", "ios": "https://dc.lft.to/lastmile_qr_scan"}, "fusion_lon": 0.0}, {"lat": 38.886760833333334, "is_disabled": 0, "type": "electric_bike", "lon": -77.16243266666666, "bike_id": "c750391739eafa0a557d82319b4eaaef", "fusion_lat": 0.0, "name": "c750391739eafa0a557d82319b4eaaef", "is_reserved": 0, "rental_uris": {"android": "https://dc.lft.to/lastmile_qr_scan", "ios": "https://dc.lft.to/lastmile_qr_scan"}, "fusion_lon": 0.0}, {"lat": 38.9040575, "is_disabled": 0, "type": "electric_scooter", "lon": -77.05071516666666, "bike_id": "99a9ac5db98e70fa41e50ed4b307659c", "fusion_lat": 0.0, "name": "99a9ac5db98e70fa41e50ed4b307659c", "is_reserved": 0, "rental_uris": {"android": "https://dc.lft.to/lastmile_qr_scan", "ios": "https://dc.lft.to/lastmile_qr_scan"}, "fusion_lon": 0.0}, {"lat": 38.91686383333333, "is_disabled": 0, "type": "electric_scooter", "lon": -77.029465, "bike_id": "14fbda278ace03213ec6a4ac2c2d67eb", "fusion_lat": 0.0, "name": "14fbda278ace03213ec6a4ac2c2d67eb", "is_reserved": 0, "rental_uris": {"android": "https://dc.lft.to/lastmile_qr_scan", "ios": "https://dc.lft.to/lastmile_qr_scan"}, "fusion_lon": 0.0}, {"lat": 38.884435833333335, "is_disabled": 0, "type": "electric_scooter", "lon": -77.00053533333333, "bike_id": "c2518b58ea1b84518d810b813da01813", "fusion_lat": 0.0, "name": "c2518b58ea1b84518d810b813da01813", "is_reserved": 0, "rental_uris": {"android": "https://dc.lft.to/lastmile_qr_scan", "ios": "https://dc.lft.to/lastmile_qr_scan"}, "fusion_lon": 0.0}, {"lat": 38.90507366666667, "is_disabled": 0, "type": "electric_scooter", "lon": -77.0645215, "bike_id": "df425b94c4a1119360404d62d470375f", "fusion_lat": 0.0, "name": "df425b94c4a1119360404d62d470375f", "is_reserved": 0, "rental_uris": {"android": "https://dc.lft.to/lastmile_qr_scan", "ios": "https://dc.lft.to/lastmile_qr_scan"}, "fusion_lon": 0.0}, {"lat": 38.9221065, "is_disabled": 0, "type": "electric_scooter", "lon": -77.03777483333333, "bike_id": "5df472a091d7a07e027b681b921bfe14", "fusion_lat": 0.0, "name": "5df472a091d7a07e027b681b921bfe14", "is_reserved": 0, "rental_uris": {"android": "https://dc.lft.to/lastmile_qr_scan", "ios": "https://dc.lft.to/lastmile_qr_scan"}, "fusion_lon": 0.0}, {"lat": 38.866999166666666, "is_disabled": 0, "type": "electric_scooter", "lon": -76.987159, "bike_id": "c34c4ec94c9743b339c35e06bd9be9c4", "fusion_lat": 0.0, "name": "c34c4ec94c9743b339c35e06bd9be9c4", "is_reserved": 0, "rental_uris": {"android": "https://dc.lft.to/lastmile_qr_scan", "ios": "https://dc.lft.to/lastmile_qr_scan"}, "fusion_lon": 0.0}, {"lat": 38.89983383333333, "is_disabled": 0, "type": "electric_scooter", "lon": -77.02168883333333, "bike_id": "97f1a1af7a1adf07de41558b718931c9", "fusion_lat": 0.0, "name": "97f1a1af7a1adf07de41558b718931c9", "is_reserved": 0, "rental_uris": {"android": "https://dc.lft.to/lastmile_qr_scan", "ios": "https://dc.lft.to/lastmile_qr_scan"}, "fusion_lon": 0.0}, {"lat": 38.928702, "is_disabled": 0, "type": "electric_scooter", "lon": -76.99032933333334, "bike_id": "766df13d50fab5357267f3abe8ba6735", "fusion_lat": 0.0, "name": "766df13d50fab5357267f3abe8ba6735", "is_reserved": 0, "rental_uris": {"android": "https://dc.lft.to/lastmile_qr_scan", "ios": "https://dc.lft.to/lastmile_qr_scan"}, "fusion_lon": 0.0}, {"lat": 38.915535166666665, "is_disabled": 0, "type": "electric_scooter", "lon": -77.04177916666667, "bike_id": "4ea8aa3d452890cdbd15ce3e1c0ed777", "fusion_lat": 0.0, "name": "4ea8aa3d452890cdbd15ce3e1c0ed777", "is_reserved": 0, "rental_uris": {"android": "https://dc.lft.to/lastmile_qr_scan", "ios": "https://dc.lft.to/lastmile_qr_scan"}, "fusion_lon": 0.0}, {"lat": 38.90052333333333, "is_disabled": 0, "type": "electric_scooter", "lon": -77.01862516666667, "bike_id": "637125a84a6540d7546a6838f04b1fb4", "fusion_lat": 0.0, "name": "637125a84a6540d7546a6838f04b1fb4", "is_reserved": 0, "rental_uris": {"android": "https://dc.lft.to/lastmile_qr_scan", "ios": "https://dc.lft.to/lastmile_qr_scan"}, "fusion_lon": 0.0}, {"lat": 38.959587666666664, "is_disabled": 0, "type": "electric_bike", "lon": -77.100937, "bike_id": "942f97718976fd5e08ed481a93a7c17e", "fusion_lat": 0.0, "name": "942f97718976fd5e08ed481a93a7c17e", "is_reserved": 0, "rental_uris": {"android": "https://dc.lft.to/lastmile_qr_scan", "ios": "https://dc.lft.to/lastmile_qr_scan"}, "fusion_lon": 0.0}, {"lat": 38.884901166666666, "is_disabled": 0, "type": "electric_scooter", "lon": -77.034745, "bike_id": "30f4666237dab2bf0a9c56e1fb6bfd9b", "fusion_lat": 0.0, "name": "30f4666237dab2bf0a9c56e1fb6bfd9b", "is_reserved": 0, "rental_uris": {"android": "https://dc.lft.to/lastmile_qr_scan", "ios": "https://dc.lft.to/lastmile_qr_scan"}, "fusion_lon": 0.0}, {"lat": 38.916175833333334, "is_disabled": 0, "type": "electric_bike", "lon": -77.00294566666666, "bike_id": "06dbcef797fc49efcdc164418bcdb5a3", "fusion_lat": 0.0, "name": "06dbcef797fc49efcdc164418bcdb5a3", "is_reserved": 0, "rental_uris": {"android": "https://dc.lft.to/lastmile_qr_scan", "ios": "https://dc.lft.to/lastmile_qr_scan"}, "fusion_lon": 0.0}, {"lat": 38.92498883333333, "is_disabled": 0, "type": "electric_scooter", "lon": -77.0215865, "bike_id": "f1112257335395b1b0be9ace3099bc3b", "fusion_lat": 0.0, "name": "f1112257335395b1b0be9ace3099bc3b", "is_reserved": 0, "rental_uris": {"android": "https://dc.lft.to/lastmile_qr_scan", "ios": "https://dc.lft.to/lastmile_qr_scan"}, "fusion_lon": 0.0}, {"lat": 38.95958383333333, "is_disabled": 0, "type": "electric_scooter", "lon": -77.03314233333333, "bike_id": "532f61b75b2c8f034c13159787256011", "fusion_lat": 0.0, "name": "532f61b75b2c8f034c13159787256011", "is_reserved": 0, "rental_uris": {"android": "https://dc.lft.to/lastmile_qr_scan", "ios": "https://dc.lft.to/lastmile_qr_scan"}, "fusion_lon": 0.0}, {"lat": 38.9055135, "is_disabled": 0, "type": "electric_scooter", "lon": -77.05708933333334, "bike_id": "53dcc53241cfacd7f8e578f9fd96d8a9", "fusion_lat": 0.0, "name": "53dcc53241cfacd7f8e578f9fd96d8a9", "is_reserved": 0, "rental_uris": {"android": "https://dc.lft.to/lastmile_qr_scan", "ios": "https://dc.lft.to/lastmile_qr_scan"}, "fusion_lon": 0.0}, {"lat": 38.91337033333333, "is_disabled": 0, "type": "electric_scooter", "lon": -77.03266916666666, "bike_id": "c4d3390b2d1239e09d417903a754c241", "fusion_lat": 0.0, "name": "c4d3390b2d1239e09d417903a754c241", "is_reserved": 0, "rental_uris": {"android": "https://dc.lft.to/lastmile_qr_scan", "ios": "https://dc.lft.to/lastmile_qr_scan"}, "fusion_lon": 0.0},