{"data": {"bikes": [{"lon": -77.041712, "bike_id": "08e0d80a25a561da881c7456c00bc88b", "lat": 38.90615783333333, "fusion_lon": 0.0, "fusion_lat": 0.0, "type": "electric_scooter", "name": "08e0d80a25a561da881c7456c00bc88b", "is_disabled": 0, "rental_uris": {"ios": "https://dc.lft.to/lastmile_qr_scan", "android": "https://dc.lft.to/lastmile_qr_scan"}, "is_reserved": 0}, {"lon": -77.05211683333333, "bike_id": "023d4850af6d6c86be36194b818e057f", "lat": 38.9155985, "fusion_lon": 0.0, "fusion_lat": 0.0, "type": "electric_scooter", "name": "023d4850af6d6c86be36194b818e057f", "is_disabled": 0, "rental_uris": {"ios": "https://dc.lft.to/lastmile_qr_scan", "android": "https://dc.lft.to/lastmile_qr_scan"}, "is_reserved": 0}, {"lon": -77.033419, "bike_id": "bd44acd02ed7fb0d3707d51893a42e00", "lat": 38.92860616666667, "fusion_lon": 0.0, "fusion_lat": 0.0, "type": "electric_scooter", "name": "bd44acd02ed7fb0d3707d51893a42e00", "is_disabled": 0, "rental_uris": {"ios": "https://dc.lft.to/lastmile_qr_scan", "android": "https://dc.lft.to/lastmile_qr_scan"}, "is_reserved": 0}, {"lon": -77.03281916666667, "bike_id": "f39f1e8dae550227472b97cf249bf193", "lat": 38.9363955, "fusion_lon": 0.0, "fusion_lat": 0.0, "type": "electric_scooter", "name": "f39f1e8dae550227472b97cf249bf193", "is_disabled": 0, "rental_uris": {"ios": "https://dc.lft.to/lastmile_qr_scan", "android": "https://dc.lft.to/lastmile_qr_scan"}, "is_reserved": 0}, {"lon": -77.04456166666667, "bike_id": "3d3abf17410c8292b39049bbc5128288", "lat": 38.91855016666667, "fusion_lon": 0.0, "fusion_lat": 0.0, "type": "electric_scooter", "name": "3d3abf17410c8292b39049bbc5128288", "is_disabled": 0, "rental_uris": {"ios": "https://dc.lft.to/lastmile_qr_scan", "android": "https://dc.lft.to/lastmile_qr_scan"}, "is_reserved": 0}, {"lon": -77.02367016666666, "bike_id": "8759a2286dfa7ab89f9562819f9a9586", "lat": 38.893640166666664, "fusion_lon": 0.0, "fusion_lat": 0.0, "type": "electric_scooter", "name": "8759a2286dfa7ab89f9562819f9a9586", "is_disabled": 0, "rental_uris": {"ios": "https://dc.lft.to/lastmile_qr_scan", "android": "https://dc.lft.to/lastmile_qr_scan"}, "is_reserved": 0}, {"lon": -77.01769666666667, "bike_id": "1a01c642c1a6f640abeedcedc5b2a200", "lat": 38.975988666666666, "fusion_lon": 0.0, "fusion_lat": 0.0, "type": "electric_scooter", "name": "1a01c642c1a6f640abeedcedc5b2a200", "is_disabled": 0, "rental_uris": {"ios": "https://dc.lft.to/lastmile_qr_scan", "android": "https://dc.lft.to/lastmile_qr_scan"}, "is_reserved": 0}, {"lon": -77.0436995, "bike_id": "e8486c3076fa78c07d2bf06e6d6c8af3", "lat": 38.89829983333333, "fusion_lon": 0.0, "fusion_lat": 0.0, "type": "electric_scooter", "name": "e8486c3076fa78c07d2bf06e6d6c8af3", "is_disabled": 0, "rental_uris": {"ios": "https://dc.lft.to/lastmile_qr_scan", "android": "https://dc.lft.to/lastmile_qr_scan"}, "is_reserved": 0}, {"lon": -77.05712733333333, "bike_id": "6a185f401c311602756415f3c98a2245", "lat": 38.93139016666667, "fusion_lon": 0.0, "fusion_lat": 0.0, "type": "electric_scooter", "name": "6a185f401c311602756415f3c98a2245", "is_disabled": 0, "rental_uris": {"ios": "https://dc.lft.to/lastmile_qr_scan", "android": "https://dc.lft.to/lastmile_qr_scan"}, "is_reserved": 0}, {"lon": -77.02652883333333, "bike_id": "d09267ebaa1fe06b64e1d33e89dbef54", "lat": 38.93858916666667, "fusion_lon": 0.0, "fusion_lat": 0.0, "type": "electric_scooter", "name": "d09267ebaa1fe06b64e1d33e89dbef54", "is_disabled": 0, "rental_uris": {"ios": "https://dc.lft.to/lastmile_qr_scan", "android": "https://dc.lft.to/lastmile_qr_scan"}, "is_reserved": 0}, {"lon": -77.04508733333333, "bike_id": "f4bc00dc5804f0f31c9d46e3def0cec9", "lat": 38.89241166666667, "fusion_lon": 0.0, "fusion_lat": 0.0, "type": "electric_scooter", "name": "f4bc00dc5804f0f31c9d46e3def0cec9", "is_disabled": 0, "rental_uris": {"ios": "https://dc.lft.to/lastmile_qr_scan", "android": "https://dc.lft.to/lastmile_qr_scan"}, "is_reserved": 0}, {"lon": -77.02533683333333, "bike_id": "45e17a5d66b4141d92098291b142253e", "lat": 38.91818, "fusion_lon": 0.0, "fusion_lat": 0.0, "type": "electric_scooter", "name": "45e17a5d66b4141d92098291b142253e", "is_disabled": 0, "rental_uris": {"ios": "https://dc.lft.to/lastmile_qr_scan", "android": "https://dc.lft.to/lastmile_qr_scan"}, "is_reserved": 0}, {"lon": -77.04442516666667, "bike_id": "ff990f01942cec9bb6523134e1a2c3ae", "lat": 38.915491, "fusion_lon": 0.0, "fusion_lat": 0.0, "type": "electric_scooter", "name": "ff990f01942cec9bb6523134e1a2c3ae", "is_disabled": 0, "rental_uris": {"ios": "https://dc.lft.to/lastmile_qr_scan", "android": "https://dc.lft.to/lastmile_qr_scan"}, "is_reserved": 0}, {"lon": -76.98494616666666, "bike_id": "c877f4545d50068fb21c86e50efeab0a", "lat": 38.8783895, "fusion_lon": 0.0, "fusion_lat": 0.0, "type": "electric_scooter", "name": "c877f4545d50068fb21c86e50efeab0a", "is_disabled": 0, "rental_uris": {"ios": "https://dc.lft.to/lastmile_qr_scan", "android": "https://dc.lft.to/lastmile_qr_scan"}, "is_reserved": 0}, {"lon": -77.052226, "bike_id": "97502673bbc90d0a1558065668c124ba", "lat": 38.925011833333336, "fusion_lon": 0.0, "fusion_lat": 0.0, "type": "electric_scooter", "name": "97502673bbc90d0a1558065668c124ba", "is_disabled": 0, "rental_uris": {"ios": "https://dc.lft.to/lastmile_qr_scan", "android": "https://dc.lft.to/lastmile_qr_scan"}, "is_reserved": 0}, {"lon": -76.93718266666667, "bike_id": "5a8eb61037588e943ae5cfa6a71ef27f", "lat": 38.88658733333333, "fusion_lon": 0.0, "fusion_lat": 0.0, "type": "electric_scooter", "name": "5a8eb61037588e943ae5cfa6a71ef27f", "is_disabled": 0, "rental_uris": {"ios": "https://dc.lft.to/lastmile_qr_scan", "android": "https://dc.lft.to/lastmile_qr_scan"}, "is_reserved": 0}, {"lon": -77.0261245, "bike_id": "53a8ec0cfdc8be9c00b53c4a0a5743ec", "lat": 38.91410466666667, "fusion_lon": 0.0, "fusion_lat": 0.0, "type": "electric_scooter", "name": "53a8ec0cfdc8be9c00b53c4a0a5743ec", "is_disabled": 0, "rental_uris": {"ios": "https://dc.lft.to/lastmile_qr_scan", "android": "https://dc.lft.to/lastmile_qr_scan"}, "is_reserved": 0}, {"lon": -77.00891483333334, "bike_id": "707384fb749c58a3ef944483d10e0d76", "lat": 38.922735833333334, "fusion_lon": 0.0, "fusion_lat": 0.0, "type": "electric_scooter", "name": "707384fb749c58a3ef944483d10e0d76", "is_disabled": 0, "rental_uris": {"ios": "https://dc.lft.to/lastmile_qr_scan", "android": "https://dc.lft.to/lastmile_qr_scan"}, "is_reserved": 0}, {"lon": -77.043362, "bike_id": "b4720c67705c39c8556a337019f301c6", "lat": 38.9076035, "fusion_lon": 0.0, "fusion_lat": 0.0, "type": "electric_scooter", "name": "b4720c67705c39c8556a337019f301c6", "is_disabled": 0, "rental_uris": {"ios": "https://dc.lft.to/lastmile_qr_scan", "android": "https://dc.lft.to/lastmile_qr_scan"}, "is_reserved": 0}, {"lon": -77.02705133333333, "bike_id": "fc174a7215b071f9f63f5cd66ca81451", "lat": 38.92775266666666, "fusion_lon": 0.0, "fusion_lat": 0.0, "type": "electric_scooter", "name": "fc174a7215b071f9f63f5cd66ca81451", "is_disabled": 0, "rental_uris": {"ios": "https://dc.lft.to/lastmile_qr_scan", "android": "https://dc.lft.to/lastmile_qr_scan"}, "is_reserved": 0}, {"lon": -77.03174483333333, "bike_id": "588b7fe305a8e5e6ca2c8faa540b9095", "lat": 38.90367883333333, "fusion_lon": 0.0, "fusion_lat": 0.0, "type": "electric_scooter", "name": "588b7fe305a8e5e6ca2c8faa540b9095", "is_disabled": 0, "rental_uris": {"ios": "https://dc.lft.to/lastmile_qr_scan", "android": "https://dc.lft.to/lastmile_qr_scan"}, "is_reserved": 0}, {"lon": -77.06259766666666, "bike_id": "30a64024c23fcea0ccaa44b20b32cfef", "lat": 38.94369016666667, "fusion_lon": 0.0, "fusion_lat": 0.0, "type": "electric_bike", "name": "30a64024c23fcea0ccaa44b20b32cfef", "is_disabled": 0, "rental_uris": {"ios": "https://dc.lft.to/lastmile_qr_scan", "android": "https://dc.lft.to/lastmile_qr_scan"}, "is_reserved": 0}, {"lon": -77.23321933333334, "bike_id": "140d58a1655257f978304c7288d0949a", "lat": 38.872807333333334, "fusion_lon": 0.0, "fusion_lat": 0.0, "type": "electric_bike", "name": "140d58a1655257f978304c7288d0949a", "is_disabled": 0, "rental_uris": {"ios": "https://dc.lft.to/lastmile_qr_scan", "android": "https://dc.lft.to/lastmile_qr_scan"}, "is_reserved": 0}, {"lon": -76.973036, "bike_id": "2edb40045ff1199d4dd4a02bfc64c54d", "lat": 38.916439, "fusion_lon": 0.0, "fusion_lat": 0.0, "type": "electric_bike", "name": "2edb40045ff1199d4dd4a02bfc64c54d", "is_disabled": 0, "rental_uris": {"ios": "https://dc.lft.to/lastmile_qr_scan", "android": "https://dc.lft.to/lastmile_qr_scan"}, "is_reserved": 0}, {"lon": -77.02818116666667, "bike_id": "6c1af4810ccd7b3b48b4e130a66cb056", "lat": 38.91691266666667, "fusion_lon": 0.0, "fusion_lat": 0.0, "type": "electric_scooter", "name": "6c1af4810ccd7b3b48b4e130a66cb056", "is_disabled": 0, "rental_uris": {"ios": "https://dc.lft.to/lastmile_qr_scan", "android": "https://dc.lft.to/lastmile_qr_scan"}, "is_reserved": 0}, {"lon": -77.0448035, "bike_id": "e51693c79032a4960f8ae006b06b8134", "lat": 38.924244333333334, "fusion_lon": 0.0, "fusion_lat": 0.0, "type": "electric_scooter", "name": "e51693c79032a4960f8ae006b06b8134", "is_disabled": 0, "rental_uris": {"ios": "https://dc.lft.to/lastmile_qr_scan", "android": "https://dc.lft.to/lastmile_qr_scan"}, "is_reserved": 0}, {"lon": -77.23330816666666, "bike_id": "e8dc94838a940d688a7931f14fd51231", "lat": 38.87272933333333, "fusion_lon": 0.0, "fusion_lat": 0.0, "type": "electric_bike", "name": "e8dc94838a940d688a7931f14fd51231", "is_disabled": 0, "rental_uris": {"ios": "https://dc.lft.to/lastmile_qr_scan", "android": "https://dc.lft.to/lastmile_qr_scan"}, "is_reserved": 0}, {"lon": -76.93754983333334, "bike_id": "ed227444007d043211be93f6a0cbdb07", "lat": 38.89048583333334, "fusion_lon": 0.0, "fusion_lat": 0.0, "type": "electric_scooter", "name": "ed227444007d043211be93f6a0cbdb07", "is_disabled": 0, "rental_uris": {"ios": "https://dc.lft.to/lastmile_qr_scan", "android": "https://dc.lft.to/lastmile_qr_scan"}, "is_reserved": 0}, {"lon": -77.02897583333333, "bike_id": "6acf8a6698b2f650c868fd09ae8afad4", "lat": 38.9043215, "fusion_lon": 0.0, "fusion_lat": 0.0, "type": "electric_scooter", "name": "6acf8a6698b2f650c868fd09ae8afad4", "is_disabled": 0, "rental_uris": {"ios": "https://dc.lft.to/lastmile_qr_scan", "android": "https://dc.lft.to/lastmile_qr_scan"}, "is_reserved": 0}, {"lon": -77.0416705, "bike_id": "97d2ecf870ce9dd8dd31f8a73da894cb", "lat": 38.9176505, "fusion_lon": 0.0, "fusion_lat": 0.0, "type": "electric_scooter", "name": "97d2ecf870ce9dd8dd31f8a73da894cb", "is_disabled": 0, "rental_uris": {"ios": "https://dc.lft.to/lastmile_qr_scan", "android": "https://dc.lft.to/lastmile_qr_scan"}, "is_reserved": 0}, {"lon": -76.9896685, "bike_id": "ea4cb59e94d5f64c52ff978896ad2ca9", "lat": 38.856979, "fusion_lon": 0.0, "fusion_lat": 0.0, "type": "electric_scooter", "name": "ea4cb59e94d5f64c52ff978896ad2ca9", "is_disabled": 0, "rental_uris": {"ios": "https://dc.lft.to/lastmile_qr_scan", "android": "https://dc.lft.to/lastmile_qr_scan"}, "is_reserved": 0}, {"lon": -76.9990535, "bike_id": "22ba5003d05ddb011900f21165c89d96", "lat": 38.90735683333333, "fusion_lon": 0.0, "fusion_lat": 0.0, "type": "electric_scooter", "name": "22ba5003d05ddb011900f21165c89d96", "is_disabled": 0, "rental_uris": {"ios": "https://dc.lft.to/lastmile_qr_scan", "android": "https://dc.lft.to/lastmile_qr_scan"}, "is_reserved": 0}, {"lon": -76.98193116666667, "bike_id": "ef3c00e50e29662762f97d08d5565597", "lat": 38.899442, "fusion_lon": 0.0, "fusion_lat": 0.0, "type": "electric_scooter", "name": "ef3c00e50e29662762f97d08d5565597", "is_disabled": 0, "rental_uris": {"ios": "https://dc.lft.to/lastmile_qr_scan", "android": "https://dc.lft.to/lastmile_qr_scan"}, "is_reserved": 0}, {"lon": -77.0284, "bike_id": "6bd16913bb00f87cb96a7c8055e30a31", "lat": 38.892211833333334, "fusion_lon": 0.0, "fusion_lat": 0.0, "type": "electric_scooter", "name": "6bd16913bb00f87cb96a7c8055e30a31", "is_disabled": 0, "rental_uris": {"ios": "https://dc.lft.to/lastmile_qr_scan", "android": "https://dc.lft.to/lastmile_qr_scan"}, "is_reserved": 0}, {"lon": -77.02410883333333, "bike_id": "5966571b2025aa9000a1c20b8f6be50d", "lat": 38.880035666666664, "fusion_lon": 0.0, "fusion_lat": 0.0, "type": "electric_scooter", "name": "5966571b2025aa9000a1c20b8f6be50d", "is_disabled": 0, "rental_uris": {"ios": "https://dc.lft.to/lastmile_qr_scan", "android": "https://dc.lft.to/lastmile_qr_scan"}, "is_reserved": 0}, {"lon": -76.9980935, "bike_id": "3223416e3b77657f2e47864f7d392524", "lat": 38.900150833333335, "fusion_lon": 0.0, "fusion_lat": 0.0, "type": "electric_scooter", "name": "3223416e3b77657f2e47864f7d392524", "is_disabled": 0, "rental_uris": {"ios": "https://dc.lft.to/lastmile_qr_scan", "android": "https://dc.lft.to/lastmile_qr_scan"}, "is_reserved": 0}, {"lon": -76.95185566666666, "bike_id": "a24133fbd3665134653def06053ccc7c", "lat": 38.90741333333333, "fusion_lon": 0.0, "fusion_lat": 0.0, "type": "electric_scooter", "name": "a24133fbd3665134653def06053ccc7c", "is_disabled": 0, "rental_uris": {"ios": "https://dc.lft.to/lastmile_qr_scan", "android": "https://dc.lft.to/lastmile_qr_scan"}, "is_reserved": 0}, {"lon": -77.03209216666667, "bike_id": "8eee7084aead9ebe872b2cfbf8b415a6", "lat": 38.90855216666667, "fusion_lon": 0.0, "fusion_lat": 0.0, "type": "electric_scooter", "name": "8eee7084aead9ebe872b2cfbf8b415a6", "is_disabled": 0, "rental_uris": {"ios": "https://dc.lft.to/lastmile_qr_scan", "android": "https://dc.lft.to/lastmile_qr_scan"}, "is_reserved": 0}, {"lon": -77.0165655, "bike_id": "3fa277bed0424b97adce9d209bad92c6", "lat": 38.881128833333335, "fusion_lon": 0.0, "fusion_lat": 0.0, "type": "electric_bike", "name": "3fa277bed0424b97adce9d209bad92c6", "is_disabled": 0, "rental_uris": {"ios": "https://dc.lft.to/lastmile_qr_scan", "android": "https://dc.lft.to/lastmile_qr_scan"}, "is_reserved": 0}, {"lon": -77.02317233333333, "bike_id": "834e744fea98624af50fca0607c118e9", "lat": 38.9021555, "fusion_lon": 0.0, "fusion_lat": 0.0, "type": "electric_scooter", "name": "834e744fea98624af50fca0607c118e9", "is_disabled": 0, "rental_uris": {"ios": "https://dc.lft.to/lastmile_qr_scan", "android": "https://dc.lft.to/lastmile_qr_scan"}, "is_reserved": 0}, {"lon": -77.02186566666667, "bike_id": "b37884a2dc02cab659803180e8d4e0c6", "lat": 38.9193615, "fusion_lon": 0.0, "fusion_lat": 0.0, "type": "electric_scooter", "name": "b37884a2dc02cab659803180e8d4e0c6", "is_disabled": 0, "rental_uris": {"ios": "https://dc.lft.to/lastmile_qr_scan", "android": "https://dc.lft.to/lastmile_qr_scan"}, "is_reserved": 0}, {"lon": -77.04377283333334, "bike_id": "83dbfc1ed3c008a4172e15ac03b5350d", "lat": 38.892226666666666, "fusion_lon": 0.0, "fusion_lat": 0.0, "type": "electric_scooter", "name": "83dbfc1ed3c008a4172e15ac03b5350d", "is_disabled": 0, "rental_uris": {"ios": "https://dc.lft.to/lastmile_qr_scan", "android": "https://dc.lft.to/lastmile_qr_scan"}, "is_reserved": 0}, {"lon": -76.98378583333333, "bike_id": "f6b6adab09c5526ac9cc595052b4d84c", "lat": 38.906452333333334, "fusion_lon": 0.0, "fusion_lat": 0.0, "type": "electric_scooter", "name": "f6b6adab09c5526ac9cc595052b4d84c", "is_disabled": 0, "rental_uris": {"ios": "https://dc.lft.to/lastmile_qr_scan", "android": "https://dc.lft.to/lastmile_qr_scan"}, "is_reserved": 0}, {"lon": -76.98715816666666, "bike_id": "e92349685f127e7493cad2e159a828d1", "lat": 38.866285833333336, "fusion_lon": 0.0, "fusion_lat": 0.0, "type": "electric_scooter", "name": "e92349685f127e7493cad2e159a828d1", "is_disabled": 0, "rental_uris": {"ios": "https://dc.lft.to/lastmile_qr_scan", "android": "https://dc.lft.to/lastmile_qr_scan"}, "is_reserved": 0}, {"lon": -77.0535775, "bike_id": "4b3b53f0a35011bdc82844230f1c143f", "lat": 38.9234475, "fusion_lon": 0.0, "fusion_lat": 0.0, "type": "electric_scooter", "name": "4b3b53f0a35011bdc82844230f1c143f", "is_disabled": 0, "rental_uris": {"ios": "https://dc.lft.to/lastmile_qr_scan", "android": "https://dc.lft.to/lastmile_qr_scan"}, "is_reserved": 0}, {"lon": -77.02320566666667, "bike_id": "b623951dbfee5171280706faeb3ac9e4", "lat": 38.91763783333333, "fusion_lon": 0.0, "fusion_lat": 0.0, "type": "electric_scooter", "name": "b623951dbfee5171280706faeb3ac9e4", "is_disabled": 0, "rental_uris": {"ios": "https://dc.lft.to/lastmile_qr_scan", "android": "https://dc.lft.to/lastmile_qr_scan"}, "is_reserved": 0}, {"lon": -77.00015833333333, "bike_id": "46c2ab148b529d73b8133cc58651be39", "lat": 38.907853, "fusion_lon": 0.0, "fusion_lat": 0.0, "type": "electric_scooter", "name": "46c2ab148b529d73b8133cc58651be39", "is_disabled": 0, "rental_uris": {"ios": "https://dc.lft.to/lastmile_qr_scan", "android": "https://dc.lft.to/lastmile_qr_scan"}, "is_reserved": 0}, {"lon": -77.0316405, "bike_id": "6bf2cbb874bc7ace4493faa125f7d5b4", "lat": 38.906076166666665, "fusion_lon": 0.0, "fusion_lat": 0.0, "type": "electric_scooter", "name": "6bf2cbb874bc7ace4493faa125f7d5b4", "is_disabled": 0, "rental_uris": {"ios": "https://dc.lft.to/lastmile_qr_scan", "android": "https://dc.lft.to/lastmile_qr_scan"}, "is_reserved": 0}, {"lon": -77.02669133333333, "bike_id": "bb08ac91122cbbedcc4341df2fb868b8", "lat": 38.907282, "fusion_lon": 0.0, "fusion_lat": 0.0, "type": "electric_scooter", "name": "bb08ac91122cbbedcc4341df2fb868b8", "is_disabled": 0, "rental_uris": {"ios": "https://dc.lft.to/lastmile_qr_scan", "android": "https://dc.lft.to/lastmile_qr_scan"}, "is_reserved": 0}, {"lon": -77.033565, "bike_id": "2f0d95e69a5761cc1dc483cbeec5b419", "lat": 38.9022995, "fusion_lon": 0.0, "fusion_lat": 0.0, "type": "electric_scooter", "name": "2f0d95e69a5761cc1dc483cbeec5b419", "is_disabled": 0, "rental_uris": {"ios": "https://dc.lft.to/lastmile_qr_scan", "android": "https://dc.lft.to/lastmile_qr_scan"}, "is_reserved": 0}, {"lon": -77.02258166666667, "bike_id": "4703fdb1004fc16a07c3475e169abe2f", "lat": 38.9252925, "fusion_lon": 0.0, "fusion_lat": 0.0, "type": "electric_scooter", "name": "4703fdb1004fc16a07c3475e169abe2f", "is_disabled": 0, "rental_uris": {"ios": "https://dc.lft.to/lastmile_qr_scan", "android": "https://dc.lft.to/lastmile_qr_scan"}, "is_reserved": 0}, {"lon": -77.0235145, "bike_id": "2da2abaad0db061850f1a5b5ba2e6125", "lat": 38.93528516666667, "fusion_lon": 0.0, "fusion_lat": 0.0, "type": "electric_scooter", "name": "2da2abaad0db061850f1a5b5ba2e6125", "is_disabled": 0, "rental_uris": {"ios": "https://dc.lft.to/lastmile_qr_scan", "android": "https://dc.lft.to/lastmile_qr_scan"}, "is_reserved": 0}, {"lon": -77.00222916666667, "bike_id": "6d312212cc7b84563c3e7a3262e3bc0e", "lat": 38.9118125, "fusion_lon": 0.0, "fusion_lat": 0.0, "type": "electric_scooter", "name": "6d312212cc7b84563c3e7a3262e3bc0e", "is_disabled": 0, "rental_uris": {"ios": "https://dc.lft.to/lastmile_qr_scan", "android": "https://dc.lft.to/lastmile_qr_scan"}, "is_reserved": 0}, {"lon": -77.05040583333333, "bike_id": "aef501297f290c78f99022cac329d740", "lat": 38.923831666666665, "fusion_lon": 0.0, "fusion_lat": 0.0, "type": "electric_scooter", "name": "aef501297f290c78f99022cac329d740", "is_disabled": 0, "rental_uris": {"ios": "https://dc.lft.to/lastmile_qr_scan", "android": "https://dc.lft.to/lastmile_qr_scan"}, "is_reserved": 0}, {"lon": -77.03217033333334, "bike_id": "5b20221f2c25fe8ec99ab71ee1dfcf1f", "lat": 38.91692283333333, "fusion_lon": 0.0, "fusion_lat": 0.0, "type": "electric_scooter", "name": "5b20221f2c25fe8ec99ab71ee1dfcf1f", "is_disabled": 0, "rental_uris": {"ios": "https://dc.lft.to/lastmile_qr_scan", "android": "https://dc.lft.to/lastmile_qr_scan"}, "is_reserved": 0}, {"lon": -77.02137983333333, "bike_id": "f384b3c3a26a4fa2296c9007f3b0ae74", "lat": 38.924646, "fusion_lon": 0.0, "fusion_lat": 0.0, "type": "electric_scooter", "name": "f384b3c3a26a4fa2296c9007f3b0ae74", "is_disabled": 0, "rental_uris": {"ios": "https://dc.lft.to/lastmile_qr_scan", "android": "https://dc.lft.to/lastmile_qr_scan"}, "is_reserved": 0}, {"lon": -77.1324405, "bike_id": "049942ff719ef683c78a913d1f741faa", "lat": 38.80563883333333, "fusion_lon": 0.0, "fusion_lat": 0.0, "type": "electric_bike", "name": "049942ff719ef683c78a913d1f741faa", "is_disabled": 0, "rental_uris": {"ios": "https://dc.lft.to/lastmile_qr_scan", "android": "https://dc.lft.to/lastmile_qr_scan"}, "is_reserved": 0}, {"lon": -77.02766366666667, "bike_id": "ce78cb30b43b7c81453be3af00595ca9", "lat": 38.9542475, "fusion_lon": 0.0, "fusion_lat": 0.0, "type": "electric_scooter", "name": "ce78cb30b43b7c81453be3af00595ca9", "is_disabled": 0, "rental_uris": {"ios": "https://dc.lft.to/lastmile_qr_scan", "android": "https://dc.lft.to/lastmile_qr_scan"}, "is_reserved": 0}, {"lon": -76.9869715, "bike_id": "10822af4d30c1ea5a7e95c3976777692", "lat": 38.8625755, "fusion_lon": 0.0, "fusion_lat": 0.0, "type": "electric_scooter", "name": "10822af4d30c1ea5a7e95c3976777692", "is_disabled": 0, "rental_uris": {"ios": "https://dc.lft.to/lastmile_qr_scan", "android": "https://dc.lft.to/lastmile_qr_scan"}, "is_reserved": 0}, {"lon": -76.92991066666667, "bike_id": "52d423273a2438f5467ba2f5094eeb6f", "lat": 38.893290666666665, "fusion_lon": 0.0, "fusion_lat": 0.0, "type": "electric_scooter", "name": "52d423273a2438f5467ba2f5094eeb6f", "is_disabled": 0, "rental_uris": {"ios": "https://dc.lft.to/lastmile_qr_scan", "android": "https://dc.lft.to/lastmile_qr_scan"}, "is_reserved": 0}, {"lon": -77.0252565, "bike_id": "d69865edfc7059949e6cfbdfb8ad057e", "lat": 38.91740333333333, "fusion_lon": 0.0, "fusion_lat": 0.0, "type": "electric_scooter", "name": "d69865edfc7059949e6cfbdfb8ad057e", "is_disabled": 0, "rental_uris": {"ios": "https://dc.lft.to/lastmile_qr_scan", "android": "https://dc.lft.to/lastmile_qr_scan"}, "is_reserved": 0}, {"lon": -77.04379116666667, "bike_id": "55aad4567a55719f478074e5b54296dd", "lat": 38.92064966666667, "fusion_lon": 0.0, "fusion_lat": 0.0, "type": "electric_scooter", "name": "55aad4567a55719f478074e5b54296dd", "is_disabled": 0, "rental_uris": {"ios": "https://dc.lft.to/lastmile_qr_scan", "android": "https://dc.lft.to/lastmile_qr_scan"}, "is_reserved": 0}, {"lon": -76.99942216666666, "bike_id": "3f8edafc2428e8e30b28c914b7557159", "lat": 38.89640983333334, "fusion_lon": 0.0, "fusion_lat": 0.0, "type": "electric_scooter", "name": "3f8edafc2428e8e30b28c914b7557159", "is_disabled": 0, "rental_uris": {"ios": "https://dc.lft.to/lastmile_qr_scan", "android": "https://dc.lft.to/lastmile_qr_scan"}, "is_reserved": 0}, {"lon": -77.03235516666666, "bike_id": "083a64009537519c70aa6f4e6a7e88bc", "lat": 38.9170475, "fusion_lon": 0.0, "fusion_lat": 0.0, "type": "electric_scooter", "name": "083a64009537519c70aa6f4e6a7e88bc", "is_disabled": 0, "rental_uris": {"ios": "https://dc.lft.to/lastmile_qr_scan", "android": "https://dc.lft.to/lastmile_qr_scan"}, "is_reserved": 0}, {"lon": -77.02079816666667, "bike_id": "4ac29bca09bd9497c78047bd34a6e4da", "lat": 38.911328166666664, "fusion_lon": 0.0, "fusion_lat": 0.0, "type": "electric_scooter", "name": "4ac29bca09bd9497c78047bd34a6e4da", "is_disabled": 0, "rental_uris": {"ios": "https://dc.lft.to/lastmile_qr_scan", "android": "https://dc.lft.to/lastmile_qr_scan"}, "is_reserved": 0}, {"lon": -77.0260025, "bike_id": "817cb81f11412a75aaf4509960e3393c", "lat": 38.91843216666667, "fusion_lon": 0.0, "fusion_lat": 0.0, "type": "electric_scooter", "name": "817cb81f11412a75aaf4509960e3393c", "is_disabled": 0, "rental_uris": {"ios": "https://dc.lft.to/lastmile_qr_scan", "android": "https://dc.lft.to/lastmile_qr_scan"}, "is_reserved": 0}, {"lon": -77.04314566666666, "bike_id": "143ccda213843028d425248099a2e246", "lat": 38.926520333333336, "fusion_lon": 0.0, "fusion_lat": 0.0, "type": "electric_scooter", "name": "143ccda213843028d425248099a2e246", "is_disabled": 0, "rental_uris": {"ios": "https://dc.lft.to/lastmile_qr_scan", "android": "https://dc.lft.to/lastmile_qr_scan"}, "is_reserved": 0}, {"lon": -76.98248333333333, "bike_id": "1a7e24648bca9c1c97e0b44a4f7c4059", "lat": 38.916479833333334, "fusion_lon": 0.0, "fusion_lat": 0.0, "type": "electric_scooter", "name": "1a7e24648bca9c1c97e0b44a4f7c4059", "is_disabled": 0, "rental_uris": {"ios": "https://dc.lft.to/lastmile_qr_scan", "android": "https://dc.lft.to/lastmile_qr_scan"}, "is_reserved": 0}, {"lon": -76.98723533333333, "bike_id": "89ca59897d1f67fe31281ff97812397b", "lat": 38.866815, "fusion_lon": 0.0, "fusion_lat": 0.0, "type": "electric_scooter", "name": "89ca59897d1f67fe31281ff97812397b", "is_disabled": 0, "rental_uris": {"ios": "https://dc.lft.to/lastmile_qr_scan", "android": "https://dc.lft.to/lastmile_qr_scan"}, "is_reserved": 0}, {"lon": -76.94879766666666, "bike_id": "cf4d5375014ca2c17a7fb7436c26d020", "lat": 38.895505166666666, "fusion_lon": 0.0, "fusion_lat": 0.0, "type": "electric_scooter", "name": "cf4d5375014ca2c17a7fb7436c26d020", "is_disabled": 0, "rental_uris": {"ios": "https://dc.lft.to/lastmile_qr_scan", "android": "https://dc.lft.to/lastmile_qr_scan"}, "is_reserved": 0}, {"lon": -77.0327265, "bike_id": "14d8dcc68f11e0640c489453fdabd695", "lat": 38.937222166666665, "fusion_lon": 0.0, "fusion_lat": 0.0, "type": "electric_scooter", "name": "14d8dcc68f11e0640c489453fdabd695", "is_disabled": 0, "rental_uris": {"ios": "https://dc.lft.to/lastmile_qr_scan", "android": "https://dc.lft.to/lastmile_qr_scan"}, "is_reserved": 0}, {"lon": -77.04484066666667, "bike_id": "50854b10f65d9cbd8b4197fe2a40ca1f", "lat": 38.92239683333333, "fusion_lon": 0.0, "fusion_lat": 0.0, "type": "electric_scooter", "name": "50854b10f65d9cbd8b4197fe2a40ca1f", "is_disabled": 0, "rental_uris": {"ios": "https://dc.lft.to/lastmile_qr_scan", "android": "https://dc.lft.to/lastmile_qr_scan"}, "is_reserved": 0}, {"lon": -76.98647516666666, "bike_id": "8c3bc76f5307993195fcd8a59425c0f2", "lat": 38.901572333333334, "fusion_lon": 0.0, "fusion_lat": 0.0, "type": "electric_scooter", "name": "8c3bc76f5307993195fcd8a59425c0f2", "is_disabled": 0, "rental_uris": {"ios": "https://dc.lft.to/lastmile_qr_scan", "android": "https://dc.lft.to/lastmile_qr_scan"}, "is_reserved": 0}, {"lon": -77.03866583333334, "bike_id": "559d8942ca67649dcebad68e739b0f50", "lat": 38.9450395, "fusion_lon": 0.0, "fusion_lat": 0.0, "type": "electric_scooter", "name": "559d8942ca67649dcebad68e739b0f50", "is_disabled": 0, "rental_uris": {"ios": "https://dc.lft.to/lastmile_qr_scan", "android": "https://dc.lft.to/lastmile_qr_scan"}, "is_reserved": 0}, {"lon": -76.95370083333333, "bike_id": "9ef03eabed1aa73d93e76a8f5b3b2f2e", "lat": 38.89199166666667, "fusion_lon": 0.0, "fusion_lat": 0.0, "type": "electric_scooter", "name": "9ef03eabed1aa73d93e76a8f5b3b2f2e", "is_disabled": 0, "rental_uris": {"ios": "https://dc.lft.to/lastmile_qr_scan", "android": "https://dc.lft.to/lastmile_qr_scan"}, "is_reserved": 0}, {"lon": -77.03693083333333, "bike_id": "f6dbcb92d57d754ee06ba3e641a023cd", "lat": 38.92788, "fusion_lon": 0.0, "fusion_lat": 0.0, "type": "electric_scooter", "name": "f6dbcb92d57d754ee06ba3e641a023cd", "is_disabled": 0, "rental_uris": {"ios": "https://dc.lft.to/lastmile_qr_scan", "android": "https://dc.lft.to/lastmile_qr_scan"}, "is_reserved": 0}, {"lon": -77.02614083333333, "bike_id": "317252bb8c44dbb8177aad813181e003", "lat": 38.914167, "fusion_lon": 0.0, "fusion_lat": 0.0, "type": "electric_scooter", "name": "317252bb8c44dbb8177aad813181e003", "is_disabled": 0, "rental_uris": {"ios": "https://dc.lft.to/lastmile_qr_scan", "android": "https://dc.lft.to/lastmile_qr_scan"}, "is_reserved": 0}, {"lon": -77.04986733333334, "bike_id": "91bdb96cef2f1af796d1d33a812b1b99", "lat": 38.9050535, "fusion_lon": 0.0, "fusion_lat": 0.0, "type": "electric_scooter", "name": "91bdb96cef2f1af796d1d33a812b1b99", "is_disabled": 0, "rental_uris": {"ios": "https://dc.lft.to/lastmile_qr_scan", "android": "https://dc.lft.to/lastmile_qr_scan"}, "is_reserved": 0}, {"lon": -76.99844983333334, "bike_id": "6f989829d708527aed1d8adbfb579e38", "lat": 38.902196333333336, "fusion_lon": 0.0, "fusion_lat": 0.0, "type": "electric_scooter", "name": "6f989829d708527aed1d8adbfb579e38", "is_disabled": 0, "rental_uris": {"ios": "https://dc.lft.to/lastmile_qr_scan", "android": "https://dc.lft.to/lastmile_qr_scan"}, "is_reserved": 0}, {"lon": -77.00586716666666, "bike_id": "fcb760d049372b1bfd73830619f8dc11", "lat": 38.88440333333333, "fusion_lon": 0.0, "fusion_lat": 0.0, "type": "electric_scooter", "name": "fcb760d049372b1bfd73830619f8dc11", "is_disabled": 0, "rental_uris": {"ios": "https://dc.lft.to/lastmile_qr_scan", "android": "https://dc.lft.to/lastmile_qr_scan"}, "is_reserved": 0}, {"lon": -77.0218405, "bike_id": "c2e61c81fe54e79a33fdcec3b4b8ea70", "lat": 38.90704933333333, "fusion_lon": 0.0, "fusion_lat": 0.0, "type": "electric_scooter", "name": "c2e61c81fe54e79a33fdcec3b4b8ea70", "is_disabled": 0, "rental_uris": {"ios": "https://dc.lft.to/lastmile_qr_scan", "android": "https://dc.lft.to/lastmile_qr_scan"}, "is_reserved": 0}, {"lon": -77.03230283333333, "bike_id": "6fcfe7db1bf05ca98fabf2851650b02c", "lat": 38.914017333333334, "fusion_lon": 0.0, "fusion_lat": 0.0, "type": "electric_scooter", "name": "6fcfe7db1bf05ca98fabf2851650b02c", "is_disabled": 0, "rental_uris": {"ios": "https://dc.lft.to/lastmile_qr_scan", "android": "https://dc.lft.to/lastmile_qr_scan"}, "is_reserved": 0}, {"lon": -77.02479983333333, "bike_id": "6a015c6ef372ce51ea7c2837c358ac72", "lat": 38.8955995, "fusion_lon": 0.0, "fusion_lat": 0.0, "type": "electric_scooter", "name": "6a015c6ef372ce51ea7c2837c358ac72", "is_disabled": 0, "rental_uris": {"ios": "https://dc.lft.to/lastmile_qr_scan", "android": "https://dc.lft.to/lastmile_qr_scan"}, "is_reserved": 0}, {"lon": -77.03466816666666, "bike_id": "e20fe999d11d311b793d96378996205b", "lat": 38.90254016666667, "fusion_lon": 0.0, "fusion_lat": 0.0, "type": "electric_scooter", "name": "e20fe999d11d311b793d96378996205b", "is_disabled": 0, "rental_uris": {"ios": "https://dc.lft.to/lastmile_qr_scan", "android": "https://dc.lft.to/lastmile_qr_scan"}, "is_reserved": 0}, {"lon": -77.00754516666667, "bike_id": "a53a18c1933072c05dff0f52fe2aaf59", "lat": 38.89728483333333, "fusion_lon": 0.0, "fusion_lat": 0.0, "type": "electric_scooter", "name": "a53a18c1933072c05dff0f52fe2aaf59", "is_disabled": 0, "rental_uris": {"ios": "https://dc.lft.to/lastmile_qr_scan", "android": "https://dc.lft.to/lastmile_qr_scan"}, "is_reserved": 0}, {"lon": -77.03284716666667, "bike_id": "0d36b2aeb21ff62ce6387e73fd12f87c", "lat": 38.946583833333335, "fusion_lon": 0.0, "fusion_lat": 0.0, "type": "electric_scooter", "name": "0d36b2aeb21ff62ce6387e73fd12f87c", "is_disabled": 0, "rental_uris": {"ios": "https://dc.lft.to/lastmile_qr_scan", "android": "https://dc.lft.to/lastmile_qr_scan"}, "is_reserved": 0}, {"lon": -77.02153416666667, "bike_id": "67933951c0060b4404f23a8056006e5c", "lat": 38.894105833333334, "fusion_lon": 0.0, "fusion_lat": 0.0, "type": "electric_scooter", "name": "67933951c0060b4404f23a8056006e5c", "is_disabled": 0, "rental_uris": {"ios": "https://dc.lft.to/lastmile_qr_scan", "android": "https://dc.lft.to/lastmile_qr_scan"}, "is_reserved": 0}, {"lon": -76.98932033333334, "bike_id": "b5cc294bc3b2083a6190014b6df5932d", "lat": 38.91840716666667, "fusion_lon": 0.0, "fusion_lat": 0.0, "type": "electric_scooter", "name": "b5cc294bc3b2083a6190014b6df5932d", "is_disabled": 0, "rental_uris": {"ios": "https://dc.lft.to/lastmile_qr_scan", "android": "https://dc.lft.to/lastmile_qr_scan"}, "is_reserved": 0}, {"lon": -77.05147333333333, "bike_id": "2987f87b70997a52428df78f3ca8091e", "lat": 38.898625, "fusion_lon": 0.0, "fusion_lat": 0.0, "type": "electric_scooter", "name": "2987f87b70997a52428df78f3ca8091e", "is_disabled": 0, "rental_uris": {"ios": "https://dc.lft.to/lastmile_qr_scan", "android": "https://dc.lft.to/lastmile_qr_scan"}, "is_reserved": 0}, {"lon": -77.05008466666666, "bike_id": "aeab12ccbd2d6388fc22a66aaa86867b", "lat": 38.894646, "fusion_lon": 0.0, "fusion_lat": 0.0, "type": "electric_scooter", "name": "aeab12ccbd2d6388fc22a66aaa86867b", "is_disabled": 0, "rental_uris": {"ios": "https://dc.lft.to/lastmile_qr_scan", "android": "https://dc.lft.to/lastmile_qr_scan"}, "is_reserved": 0}, {"lon": -77.0653, "bike_id": "fccf61d29b01e4585e30c50c40d0b1f1", "lat": 38.94741966666667, "fusion_lon": 0.0, "fusion_lat": 0.0, "type": "electric_scooter", "name": "fccf61d29b01e4585e30c50c40d0b1f1", "is_disabled": 0, "rental_uris": {"ios": "https://dc.lft.to/lastmile_qr_scan", "android": "https://dc.lft.to/lastmile_qr_scan"}, "is_reserved": 0}, {"lon": -77.02442866666667, "bike_id": "8431a5527dd02dc7f5ce6a734e41353e", "lat": 38.89711633333334, "fusion_lon": 0.0, "fusion_lat": 0.0, "type": "electric_scooter", "name": "8431a5527dd02dc7f5ce6a734e41353e", "is_disabled": 0, "rental_uris": {"ios": "https://dc.lft.to/lastmile_qr_scan", "android": "https://dc.lft.to/lastmile_qr_scan"}, "is_reserved": 0}, {"lon": -77.02230183333333, "bike_id": "ffe8fb886c1343d2f459ed99d759504b", "lat": 38.893193333333336, "fusion_lon": 0.0, "fusion_lat": 0.0, "type": "electric_scooter", "name": "ffe8fb886c1343d2f459ed99d759504b", "is_disabled": 0, "rental_uris": {"ios": "https://dc.lft.to/lastmile_qr_scan", "android": "https://dc.lft.to/lastmile_qr_scan"}, "is_reserved": 0}, {"lon": -76.99781116666666, "bike_id": "8305e0a94a668087cd911a416721de84", "lat": 38.8442885, "fusion_lon": 0.0, "fusion_lat": 0.0, "type": "electric_scooter", "name": "8305e0a94a668087cd911a416721de84", "is_disabled": 0, "rental_uris": {"ios": "https://dc.lft.to/lastmile_qr_scan", "android": "https://dc.lft.to/lastmile_qr_scan"}, "is_reserved": 0}, {"lon": -77.06334633333333, "bike_id": "21eece6ce1e309e032c5df7a9672b2bd", "lat": 38.907583333333335, "fusion_lon": 0.0, "fusion_lat": 0.0, "type": "electric_scooter", "name": "21eece6ce1e309e032c5df7a9672b2bd", "is_disabled": 0, "rental_uris": {"ios": "https://dc.lft.to/lastmile_qr_scan", "android": "https://dc.lft.to/lastmile_qr_scan"}, "is_reserved": 0}, {"lon": -77.00404416666667, "bike_id": "2a36f7a09ce47c4db81863fa6750d307", "lat": 38.907801666666664, "fusion_lon": 0.0, "fusion_lat": 0.0, "type": "electric_scooter", "name": "2a36f7a09ce47c4db81863fa6750d307", "is_disabled": 0, "rental_uris": {"ios": "https://dc.lft.to/lastmile_qr_scan", "android": "https://dc.lft.to/lastmile_qr_scan"}, "is_reserved": 0}, {"lon": -77.02735716666666, "bike_id": "593250db051c19be1529007aa7acf439", "lat": 38.8998, "fusion_lon": 0.0, "fusion_lat": 0.0, "type": "electric_scooter", "name": "593250db051c19be1529007aa7acf439", "is_disabled": 0, "rental_uris": {"ios": "https://dc.lft.to/lastmile_qr_scan", "android": "https://dc.lft.to/lastmile_qr_scan"}, "is_reserved": 0}, {"lon": -76.9988915, "bike_id": "e22b8f3672343c4d0dd65701c02b501f", "lat": 38.92051283333333, "fusion_lon": 0.0, "fusion_lat": 0.0, "type": "electric_scooter", "name": "e22b8f3672343c4d0dd65701c02b501f", "is_disabled": 0, "rental_uris": {"ios": "https://dc.lft.to/lastmile_qr_scan", "android": "https://dc.lft.to/lastmile_qr_scan"}, "is_reserved": 0}, {"lon": -77.04053083333334, "bike_id": "7cccc6e465c2f5fc9670eca29e2ef289", "lat": 38.932435166666664, "fusion_lon": 0.0, "fusion_lat": 0.0, "type": "electric_scooter", "name": "7cccc6e465c2f5fc9670eca29e2ef289", "is_disabled": 0, "rental_uris": {"ios": "https://dc.lft.to/lastmile_qr_scan", "android": "https://dc.lft.to/lastmile_qr_scan"}, "is_reserved": 0}, {"lon": -77.00954083333333, "bike_id": "7c34557745104509d3b42ffa3ce09842", "lat": 38.897382666666665, "fusion_lon": 0.0, "fusion_lat": 0.0, "type": "electric_scooter", "name": "7c34557745104509d3b42ffa3ce09842", "is_disabled": 0, "rental_uris": {"ios": "https://dc.lft.to/lastmile_qr_scan", "android": "https://dc.lft.to/lastmile_qr_scan"}, "is_reserved": 0}, {"lon": -77.04146966666667, "bike_id": "594028f205da5d60cf0202d4e3f85f0d", "lat": 38.892228, "fusion_lon": 0.0, "fusion_lat": 0.0, "type": "electric_scooter", "name": "594028f205da5d60cf0202d4e3f85f0d", "is_disabled": 0, "rental_uris": {"ios": "https://dc.lft.to/lastmile_qr_scan", "android": "https://dc.lft.to/lastmile_qr_scan"}, "is_reserved": 0}, {"lon": -77.05223916666667, "bike_id": "e2117d4cf9a41acfcddca1d74707ec88", "lat": 38.900093166666665, "fusion_lon": 0.0, "fusion_lat": 0.0, "type": "electric_scooter", "name": "e2117d4cf9a41acfcddca1d74707ec88", "is_disabled": 0, "rental_uris": {"ios": "https://dc.lft.to/lastmile_qr_scan", "android": "https://dc.lft.to/lastmile_qr_scan"}, "is_reserved": 0}, {"lon": -77.00289316666667, "bike_id": "c151304392692f65681af48053d68e8d", "lat": 38.9569625, "fusion_lon": 0.0, "fusion_lat": 0.0, "type": "electric_bike", "name": "c151304392692f65681af48053d68e8d", "is_disabled": 0, "rental_uris": {"ios": "https://dc.lft.to/lastmile_qr_scan", "android": "https://dc.lft.to/lastmile_qr_scan"}, "is_reserved": 0}, {"lon": -77.03869333333333, "bike_id": "9b0abed9a2a642a34bdd72c32e6fb264", "lat": 38.92153116666667, "fusion_lon": 0.0, "fusion_lat": 0.0, "type": "electric_scooter", "name": "9b0abed9a2a642a34bdd72c32e6fb264", "is_disabled": 0, "rental_uris": {"ios": "https://dc.lft.to/lastmile_qr_scan", "android": "https://dc.lft.to/lastmile_qr_scan"}, "is_reserved": 0}, {"lon": -77.03205183333333, "bike_id": "7b3676690b48517e2e91edbf284d7836", "lat": 38.92057533333333, "fusion_lon": 0.0, "fusion_lat": 0.0, "type": "electric_scooter", "name": "7b3676690b48517e2e91edbf284d7836", "is_disabled": 0, "rental_uris": {"ios": "https://dc.lft.to/lastmile_qr_scan", "android": "https://dc.lft.to/lastmile_qr_scan"}, "is_reserved": 0}, {"lon": -76.96601833333334, "bike_id": "0edd3b7b2ac7f648f475fa6dc17cf796", "lat": 38.87114066666667, "fusion_lon": 0.0, "fusion_lat": 0.0, "type": "electric_scooter", "name": "0edd3b7b2ac7f648f475fa6dc17cf796", "is_disabled": 0, "rental_uris": {"ios": "https://dc.lft.to/lastmile_qr_scan", "android": "https://dc.lft.to/lastmile_qr_scan"}, "is_reserved": 0}, {"lon": -77.01946783333334, "bike_id": "e7b26791899ebc25acd4e7056f67cfa8", "lat": 38.92408366666667, "fusion_lon": 0.0, "fusion_lat": 0.0, "type": "electric_scooter", "name": "e7b26791899ebc25acd4e7056f67cfa8", "is_disabled": 0, "rental_uris": {"ios": "https://dc.lft.to/lastmile_qr_scan", "android": "https://dc.lft.to/lastmile_qr_scan"}, "is_reserved": 0}, {"lon": -77.04458783333334, "bike_id": "02dd4d400848263eac144bf726bb6378", "lat": 38.918543166666666, "fusion_lon": 0.0, "fusion_lat": 0.0, "type": "electric_scooter", "name": "02dd4d400848263eac144bf726bb6378", "is_disabled": 0, "rental_uris": {"ios": "https://dc.lft.to/lastmile_qr_scan", "android": "https://dc.lft.to/lastmile_qr_scan"}, "is_reserved": 0}, {"lon": -77.03621433333333, "bike_id": "d27e3f7808547a515d08f62e4d2a4932", "lat": 38.9172575, "fusion_lon": 0.0, "fusion_lat": 0.0, "type": "electric_scooter", "name": "d27e3f7808547a515d08f62e4d2a4932", "is_disabled": 0, "rental_uris": {"ios": "https://dc.lft.to/lastmile_qr_scan", "android": "https://dc.lft.to/lastmile_qr_scan"}, "is_reserved": 0}, {"lon": -76.99502316666667, "bike_id": "82040b4ab3b5a1fe425486bbed2c439f", "lat": 38.8810325, "fusion_lon": 0.0, "fusion_lat": 0.0, "type": "electric_scooter", "name": "82040b4ab3b5a1fe425486bbed2c439f", "is_disabled": 0, "rental_uris": {"ios": "https://dc.lft.to/lastmile_qr_scan", "android": "https://dc.lft.to/lastmile_qr_scan"}, "is_reserved": 0}, {"lon": -77.0278265, "bike_id": "7e48cf7979657226310a7aaf57dc5387", "lat": 38.9543525, "fusion_lon": 0.0, "fusion_lat": 0.0, "type": "electric_scooter", "name": "7e48cf7979657226310a7aaf57dc5387", "is_disabled": 0, "rental_uris": {"ios": "https://dc.lft.to/lastmile_qr_scan", "android": "https://dc.lft.to/lastmile_qr_scan"}, "is_reserved": 0}, {"lon": -77.0296445, "bike_id": "6fcb2146819fc0dd9854c69ebeeaf0e2", "lat": 38.916811, "fusion_lon": 0.0, "fusion_lat": 0.0, "type": "electric_scooter", "name": "6fcb2146819fc0dd9854c69ebeeaf0e2", "is_disabled": 0, "rental_uris": {"ios": "https://dc.lft.to/lastmile_qr_scan", "android": "https://dc.lft.to/lastmile_qr_scan"}, "is_reserved": 0}, {"lon": -77.026302, "bike_id": "3130aa6b30dc0a5c20f14beb469ec762", "lat": 38.962164333333334, "fusion_lon": 0.0, "fusion_lat": 0.0, "type": "electric_bike", "name": "3130aa6b30dc0a5c20f14beb469ec762", "is_disabled": 0, "rental_uris": {"ios": "https://dc.lft.to/lastmile_qr_scan", "android": "https://dc.lft.to/lastmile_qr_scan"}, "is_reserved": 0}, {"lon": -77.00203266666666, "bike_id": "d41097e077d066f34ae53ac7f4028003", "lat": 38.892694, "fusion_lon": 0.0, "fusion_lat": 0.0, "type": "electric_bike", "name": "d41097e077d066f34ae53ac7f4028003", "is_disabled": 0, "rental_uris": {"ios": "https://dc.lft.to/lastmile_qr_scan", "android": "https://dc.lft.to/lastmile_qr_scan"}, "is_reserved": 0}, {"lon": -77.04329083333333, "bike_id": "a88b6c97e51c72b7567971e5026050a8", "lat": 38.89221533333333, "fusion_lon": 0.0, "fusion_lat": 0.0, "type": "electric_scooter", "name": "a88b6c97e51c72b7567971e5026050a8", "is_disabled": 0, "rental_uris": {"ios": "https://dc.lft.to/lastmile_qr_scan", "android": "https://dc.lft.to/lastmile_qr_scan"}, "is_reserved": 0}, {"lon": -77.03899483333333, "bike_id": "3dec504ac0fc2bc55a259b759e4c4c65", "lat": 38.906626333333335, "fusion_lon": 0.0, "fusion_lat": 0.0, "type": "electric_scooter", "name": "3dec504ac0fc2bc55a259b759e4c4c65", "is_disabled": 0, "rental_uris": {"ios": "https://dc.lft.to/lastmile_qr_scan", "android": "https://dc.lft.to/lastmile_qr_scan"}, "is_reserved": 0}, {"lon": -77.04650766666667, "bike_id": "67f3e56fa7bf048bef2bde1a18373aff", "lat": 38.90964683333333, "fusion_lon": 0.0, "fusion_lat": 0.0, "type": "electric_scooter", "name": "67f3e56fa7bf048bef2bde1a18373aff", "is_disabled": 0, "rental_uris": {"ios": "https://dc.lft.to/lastmile_qr_scan", "android": "https://dc.lft.to/lastmile_qr_scan"}, "is_reserved": 0}, {"lon": -76.98695216666667, "bike_id": "310a2c5bd61c754373858a8ebac4c992", "lat": 38.86251733333334, "fusion_lon": 0.0, "fusion_lat": 0.0, "type": "electric_scooter", "name": "310a2c5bd61c754373858a8ebac4c992", "is_disabled": 0, "rental_uris": {"ios": "https://dc.lft.to/lastmile_qr_scan", "android": "https://dc.lft.to/lastmile_qr_scan"}, "is_reserved": 0}, {"lon": -77.037743, "bike_id": "39f145e9aacfbd93519edd06e7d763bd", "lat": 38.916858833333336, "fusion_lon": 0.0, "fusion_lat": 0.0, "type": "electric_scooter", "name": "39f145e9aacfbd93519edd06e7d763bd", "is_disabled": 0, "rental_uris": {"ios": "https://dc.lft.to/lastmile_qr_scan", "android": "https://dc.lft.to/lastmile_qr_scan"}, "is_reserved": 0}, {"lon": -77.00752283333334, "bike_id": "01cc6389e420768a83bc912a2d3f96f6", "lat": 38.897297, "fusion_lon": 0.0, "fusion_lat": 0.0, "type": "electric_scooter", "name": "01cc6389e420768a83bc912a2d3f96f6", "is_disabled": 0, "rental_uris": {"ios": "https://dc.lft.to/lastmile_qr_scan", "android": "https://dc.lft.to/lastmile_qr_scan"}, "is_reserved": 0}, {"lon": -77.058876, "bike_id": "fc3a2ab37ecad1cb9bdf49a16f39bc13", "lat": 38.936378, "fusion_lon": 0.0, "fusion_lat": 0.0, "type": "electric_scooter", "name": "fc3a2ab37ecad1cb9bdf49a16f39bc13", "is_disabled": 0, "rental_uris": {"ios": "https://dc.lft.to/lastmile_qr_scan", "android": "https://dc.lft.to/lastmile_qr_scan"}, "is_reserved": 0}, {"lon": -76.99365833333333, "bike_id": "0b135ab7f35736ff8433404c82c7b943", "lat": 38.92840416666667, "fusion_lon": 0.0, "fusion_lat": 0.0, "type": "electric_scooter", "name": "0b135ab7f35736ff8433404c82c7b943", "is_disabled": 0, "rental_uris": {"ios": "https://dc.lft.to/lastmile_qr_scan", "android": "https://dc.lft.to/lastmile_qr_scan"}, "is_reserved": 0}, {"lon": -77.00115566666666, "bike_id": "b8113d9f3a732d7448d4948940841d81", "lat": 38.8999715, "fusion_lon": 0.0, "fusion_lat": 0.0, "type": "electric_scooter", "name": "b8113d9f3a732d7448d4948940841d81", "is_disabled": 0, "rental_uris": {"ios": "https://dc.lft.to/lastmile_qr_scan", "android": "https://dc.lft.to/lastmile_qr_scan"}, "is_reserved": 0}, {"lon": -77.0254625, "bike_id": "abe8036e1c1a9275e2475304b4ae5085", "lat": 38.914921166666666, "fusion_lon": 0.0, "fusion_lat": 0.0, "type": "electric_scooter", "name": "abe8036e1c1a9275e2475304b4ae5085", "is_disabled": 0, "rental_uris": {"ios": "https://dc.lft.to/lastmile_qr_scan", "android": "https://dc.lft.to/lastmile_qr_scan"}, "is_reserved": 0}, {"lon": -77.00204966666666, "bike_id": "54a14255fb82257e85b8255bd4d2f98b", "lat": 38.895420333333334, "fusion_lon": 0.0, "fusion_lat": 0.0, "type": "electric_scooter", "name": "54a14255fb82257e85b8255bd4d2f98b", "is_disabled": 0, "rental_uris": {"ios": "https://dc.lft.to/lastmile_qr_scan", "android": "https://dc.lft.to/lastmile_qr_scan"}, "is_reserved": 0}, {"lon": -77.028497, "bike_id": "46a4edd94c798a1e74b57d5958cc6fa7", "lat": 38.8874445, "fusion_lon": 0.0, "fusion_lat": 0.0, "type": "electric_scooter", "name": "46a4edd94c798a1e74b57d5958cc6fa7", "is_disabled": 0, "rental_uris": {"ios": "https://dc.lft.to/lastmile_qr_scan", "android": "https://dc.lft.to/lastmile_qr_scan"}, "is_reserved": 0}, {"lon": -77.005302, "bike_id": "6461e50d992cc06e2e705cbc80ac101b", "lat": 38.92977533333333, "fusion_lon": 0.0, "fusion_lat": 0.0, "type": "electric_scooter", "name": "6461e50d992cc06e2e705cbc80ac101b", "is_disabled": 0, "rental_uris": {"ios": "https://dc.lft.to/lastmile_qr_scan", "android": "https://dc.lft.to/lastmile_qr_scan"}, "is_reserved": 0}, {"lon": -77.0220095, "bike_id": "44bd95f96ce42e22688becce147de254", "lat": 38.91282016666667, "fusion_lon": 0.0, "fusion_lat": 0.0, "type": "electric_scooter", "name": "44bd95f96ce42e22688becce147de254", "is_disabled": 0, "rental_uris": {"ios": "https://dc.lft.to/lastmile_qr_scan", "android": "https://dc.lft.to/lastmile_qr_scan"}, "is_reserved": 0}, {"lon": -77.00295683333333, "bike_id": "cc68a9144fdc6e2848b56ec8b6ddd265", "lat": 38.89490216666667, "fusion_lon": 0.0, "fusion_lat": 0.0, "type": "electric_scooter", "name": "cc68a9144fdc6e2848b56ec8b6ddd265", "is_disabled": 0, "rental_uris": {"ios": "https://dc.lft.to/lastmile_qr_scan", "android": "https://dc.lft.to/lastmile_qr_scan"}, "is_reserved": 0}, {"lon": -77.002067, "bike_id": "e7807bbdb9e5294431354c7257b3279d", "lat": 38.90778916666667, "fusion_lon": 0.0, "fusion_lat": 0.0, "type": "electric_scooter", "name": "e7807bbdb9e5294431354c7257b3279d", "is_disabled": 0, "rental_uris": {"ios": "https://dc.lft.to/lastmile_qr_scan", "android": "https://dc.lft.to/lastmile_qr_scan"}, "is_reserved": 0}, {"lon": -77.03277816666667, "bike_id": "2e5bb5f4afb27fe2e752dfca7a5c72f5", "lat": 38.9026595, "fusion_lon": 0.0, "fusion_lat": 0.0, "type": "electric_scooter", "name": "2e5bb5f4afb27fe2e752dfca7a5c72f5", "is_disabled": 0, "rental_uris": {"ios": "https://dc.lft.to/lastmile_qr_scan", "android": "https://dc.lft.to/lastmile_qr_scan"}, "is_reserved": 0}, {"lon": -77.0131615, "bike_id": "c61317480ebedb4602eb3c2802794dbe", "lat": 38.90737333333333, "fusion_lon": 0.0, "fusion_lat": 0.0, "type": "electric_scooter", "name": "c61317480ebedb4602eb3c2802794dbe", "is_disabled": 0, "rental_uris": {"ios": "https://dc.lft.to/lastmile_qr_scan", "android": "https://dc.lft.to/lastmile_qr_scan"}, "is_reserved": 0}, {"lon": -77.0454365, "bike_id": "880c3fb9083b08b5c389057523c86aa4", "lat": 38.90962533333333, "fusion_lon": 0.0, "fusion_lat": 0.0, "type": "electric_scooter", "name": "880c3fb9083b08b5c389057523c86aa4", "is_disabled": 0, "rental_uris": {"ios": "https://dc.lft.to/lastmile_qr_scan", "android": "https://dc.lft.to/lastmile_qr_scan"}, "is_reserved": 0}, {"lon": -77.023064, "bike_id": "4305f0cc6cc1cea030c5e03e7b2fb65b", "lat": 38.92835983333333, "fusion_lon": 0.0, "fusion_lat": 0.0, "type": "electric_scooter", "name": "4305f0cc6cc1cea030c5e03e7b2fb65b", "is_disabled": 0, "rental_uris": {"ios": "https://dc.lft.to/lastmile_qr_scan", "android": "https://dc.lft.to/lastmile_qr_scan"}, "is_reserved": 0}, {"lon": -77.04140483333333, "bike_id": "8792a322315c320196bca625753234bb", "lat": 38.916838166666665, "fusion_lon": 0.0, "fusion_lat": 0.0, "type": "electric_scooter", "name": "8792a322315c320196bca625753234bb", "is_disabled": 0, "rental_uris": {"ios": "https://dc.lft.to/lastmile_qr_scan", "android": "https://dc.lft.to/lastmile_qr_scan"}, "is_reserved": 0}, {"lon": -77.009344, "bike_id": "ae4ff6e8356bb574425c3de7281ca30b", "lat": 38.91841266666667, "fusion_lon": 0.0, "fusion_lat": 0.0, "type": "electric_scooter", "name": "ae4ff6e8356bb574425c3de7281ca30b", "is_disabled": 0, "rental_uris": {"ios": "https://dc.lft.to/lastmile_qr_scan", "android": "https://dc.lft.to/lastmile_qr_scan"}, "is_reserved": 0}, {"lon": -76.98464216666666, "bike_id": "b9ea19380ad7b22aa650134690e8ed32", "lat": 38.90000716666667, "fusion_lon": 0.0, "fusion_lat": 0.0, "type": "electric_scooter", "name": "b9ea19380ad7b22aa650134690e8ed32", "is_disabled": 0, "rental_uris": {"ios": "https://dc.lft.to/lastmile_qr_scan", "android": "https://dc.lft.to/lastmile_qr_scan"}, "is_reserved": 0}, {"lon": -77.0110135, "bike_id": "b0e0f3c9c52ce8a078d53c196f82fdb1", "lat": 38.866885333333336, "fusion_lon": 0.0, "fusion_lat": 0.0, "type": "electric_scooter", "name": "b0e0f3c9c52ce8a078d53c196f82fdb1", "is_disabled": 0, "rental_uris": {"ios": "https://dc.lft.to/lastmile_qr_scan", "android": "https://dc.lft.to/lastmile_qr_scan"}, "is_reserved": 0}, {"lon": -77.0850005, "bike_id": "b3c9a7db72d644f35d8d713fd9079115", "lat": 38.959299666666666, "fusion_lon": 0.0, "fusion_lat": 0.0, "type": "electric_scooter", "name": "b3c9a7db72d644f35d8d713fd9079115", "is_disabled": 0, "rental_uris": {"ios": "https://dc.lft.to/lastmile_qr_scan", "android": "https://dc.lft.to/lastmile_qr_scan"}, "is_reserved": 0}, {"lon": -77.0348575, "bike_id": "acd6a69fa5359221e2d4aa30ef6b37b4", "lat": 38.905635833333335, "fusion_lon": 0.0, "fusion_lat": 0.0, "type": "electric_scooter", "name": "acd6a69fa5359221e2d4aa30ef6b37b4", "is_disabled": 0, "rental_uris": {"ios": "https://dc.lft.to/lastmile_qr_scan", "android": "https://dc.lft.to/lastmile_qr_scan"}, "is_reserved": 0}, {"lon": -77.01818616666667, "bike_id": "7d931a16155b46030d18fd0d6dccf5e8", "lat": 38.92370483333333, "fusion_lon": 0.0, "fusion_lat": 0.0, "type": "electric_scooter", "name": "7d931a16155b46030d18fd0d6dccf5e8", "is_disabled": 0, "rental_uris": {"ios": "https://dc.lft.to/lastmile_qr_scan", "android": "https://dc.lft.to/lastmile_qr_scan"}, "is_reserved": 0}, {"lon": -77.07160266666666, "bike_id": "2f3657f260fb6576b37de60e2b74a0c3", "lat": 38.95840033333333, "fusion_lon": 0.0, "fusion_lat": 0.0, "type": "electric_scooter", "name": "2f3657f260fb6576b37de60e2b74a0c3", "is_disabled": 0, "rental_uris": {"ios": "https://dc.lft.to/lastmile_qr_scan", "android": "https://dc.lft.to/lastmile_qr_scan"}, "is_reserved": 0}, {"lon": -76.99017133333334, "bike_id": "3a2e3d12d45c9b2e026d1e22a77710d2", "lat": 38.8996105, "fusion_lon": 0.0, "fusion_lat": 0.0, "type": "electric_scooter", "name": "3a2e3d12d45c9b2e026d1e22a77710d2", "is_disabled": 0, "rental_uris": {"ios": "https://dc.lft.to/lastmile_qr_scan", "android": "https://dc.lft.to/lastmile_qr_scan"}, "is_reserved": 0}, {"lon": -77.02577833333334, "bike_id": "dc4f1f79d624f490d49548b43d41e57e", "lat": 38.914057, "fusion_lon": 0.0, "fusion_lat": 0.0, "type": "electric_scooter", "name": "dc4f1f79d624f490d49548b43d41e57e", "is_disabled": 0, "rental_uris": {"ios": "https://dc.lft.to/lastmile_qr_scan", "android": "https://dc.lft.to/lastmile_qr_scan"}, "is_reserved": 0}, {"lon": -77.00199833333333, "bike_id": "7e953512f78ebc738d0f7aa35b406e14", "lat": 38.88672783333333, "fusion_lon": 0.0, "fusion_lat": 0.0, "type": "electric_scooter", "name": "7e953512f78ebc738d0f7aa35b406e14", "is_disabled": 0, "rental_uris": {"ios": "https://dc.lft.to/lastmile_qr_scan", "android": "https://dc.lft.to/lastmile_qr_scan"}, "is_reserved": 0}, {"lon": -77.03174666666666, "bike_id": "6c76dc058b47495a4cf83dba48212c65", "lat": 38.915522333333335, "fusion_lon": 0.0, "fusion_lat": 0.0, "type": "electric_scooter", "name": "6c76dc058b47495a4cf83dba48212c65", "is_disabled": 0, "rental_uris": {"ios": "https://dc.lft.to/lastmile_qr_scan", "android": "https://dc.lft.to/lastmile_qr_scan"}, "is_reserved": 0}, {"lon": -77.05936983333334, "bike_id": "02482173b49fa787e183a46cb54cefe7", "lat": 38.905285666666664, "fusion_lon": 0.0, "fusion_lat": 0.0, "type": "electric_scooter", "name": "02482173b49fa787e183a46cb54cefe7", "is_disabled": 0, "rental_uris": {"ios": "https://dc.lft.to/lastmile_qr_scan", "android": "https://dc.lft.to/lastmile_qr_scan"}, "is_reserved": 0}, {"lon": -77.03811216666666, "bike_id": "11bdde2b8d72070771eec2136c4d7d07", "lat": 38.924921166666664, "fusion_lon": 0.0, "fusion_lat": 0.0, "type": "electric_scooter", "name": "11bdde2b8d72070771eec2136c4d7d07", "is_disabled": 0, "rental_uris": {"ios": "https://dc.lft.to/lastmile_qr_scan", "android": "https://dc.lft.to/lastmile_qr_scan"}, "is_reserved": 0}, {"lon": -76.98864216666666, "bike_id": "fd0947325b538b01248ff329ab0c305a", "lat": 38.954832, "fusion_lon": 0.0, "fusion_lat": 0.0, "type": "electric_bike", "name": "fd0947325b538b01248ff329ab0c305a", "is_disabled": 0, "rental_uris": {"ios": "https://dc.lft.to/lastmile_qr_scan", "android": "https://dc.lft.to/lastmile_qr_scan"}, "is_reserved": 0}, {"lon": -76.99606066666666, "bike_id": "9a0b446163beaa6b4525f9c58bc74d6f", "lat": 38.90963216666667, "fusion_lon": 0.0, "fusion_lat": 0.0, "type": "electric_scooter", "name": "9a0b446163beaa6b4525f9c58bc74d6f", "is_disabled": 0, "rental_uris": {"ios": "https://dc.lft.to/lastmile_qr_scan", "android": "https://dc.lft.to/lastmile_qr_scan"}, "is_reserved": 0}, {"lon": -77.042447, "bike_id": "8f371239ca8afd4d497ead3eb54799d7", "lat": 38.91064683333333, "fusion_lon": 0.0, "fusion_lat": 0.0, "type": "electric_scooter", "name": "8f371239ca8afd4d497ead3eb54799d7", "is_disabled": 0, "rental_uris": {"ios": "https://dc.lft.to/lastmile_qr_scan", "android": "https://dc.lft.to/lastmile_qr_scan"}, "is_reserved": 0}, {"lon": -77.02493516666667, "bike_id": "f936000556d8895df22b754f4d310b8d", "lat": 38.918045666666664, "fusion_lon": 0.0, "fusion_lat": 0.0, "type": "electric_scooter", "name": "f936000556d8895df22b754f4d310b8d", "is_disabled": 0, "rental_uris": {"ios": "https://dc.lft.to/lastmile_qr_scan", "android": "https://dc.lft.to/lastmile_qr_scan"}, "is_reserved": 0}, {"lon": -77.04000083333334, "bike_id": "30f77fec39af01b55f0b47f31aa39fb1", "lat": 38.888692, "fusion_lon": 0.0, "fusion_lat": 0.0, "type": "electric_scooter", "name": "30f77fec39af01b55f0b47f31aa39fb1", "is_disabled": 0, "rental_uris": {"ios": "https://dc.lft.to/lastmile_qr_scan", "android": "https://dc.lft.to/lastmile_qr_scan"}, "is_reserved": 0}, {"lon": -77.03337383333333, "bike_id": "084ac03efa5e3ca291196d09c004e31d", "lat": 38.93642033333333, "fusion_lon": 0.0, "fusion_lat": 0.0, "type": "electric_scooter", "name": "084ac03efa5e3ca291196d09c004e31d", "is_disabled": 0, "rental_uris": {"ios": "https://dc.lft.to/lastmile_qr_scan", "android": "https://dc.lft.to/lastmile_qr_scan"}, "is_reserved": 0}, {"lon": -76.96058083333334, "bike_id": "ecb8e3a6b7a8b758fa2c8661c8830f7f", "lat": 38.88402283333333, "fusion_lon": 0.0, "fusion_lat": 0.0, "type": "electric_bike", "name": "ecb8e3a6b7a8b758fa2c8661c8830f7f", "is_disabled": 0, "rental_uris": {"ios": "https://dc.lft.to/lastmile_qr_scan", "android": "https://dc.lft.to/lastmile_qr_scan"}, "is_reserved": 0}, {"lon": -77.04384583333334, "bike_id": "dad32182736c2c898bca47086c90bbc7", "lat": 38.909205166666666, "fusion_lon": 0.0, "fusion_lat": 0.0, "type": "electric_scooter", "name": "dad32182736c2c898bca47086c90bbc7", "is_disabled": 0, "rental_uris": {"ios": "https://dc.lft.to/lastmile_qr_scan", "android": "https://dc.lft.to/lastmile_qr_scan"}, "is_reserved": 0}, {"lon": -76.99477416666667, "bike_id": "63640c2383025d0249fd4921ab135332", "lat": 38.862144666666666, "fusion_lon": 0.0, "fusion_lat": 0.0, "type": "electric_scooter", "name": "63640c2383025d0249fd4921ab135332", "is_disabled": 0, "rental_uris": {"ios": "https://dc.lft.to/lastmile_qr_scan", "android": "https://dc.lft.to/lastmile_qr_scan"}, "is_reserved": 0}, {"lon": -76.98727516666666, "bike_id": "4a31380fbcb2c3a25e7abce26589be78", "lat": 38.8670975, "fusion_lon": 0.0, "fusion_lat": 0.0, "type": "electric_scooter", "name": "4a31380fbcb2c3a25e7abce26589be78", "is_disabled": 0, "rental_uris": {"ios": "https://dc.lft.to/lastmile_qr_scan", "android": "https://dc.lft.to/lastmile_qr_scan"}, "is_reserved": 0}, {"lon": -76.94889316666666, "bike_id": "7e0bec0ffdf762bc2705f72914dc8260", "lat": 38.8950935, "fusion_lon": 0.0, "fusion_lat": 0.0, "type": "electric_scooter", "name": "7e0bec0ffdf762bc2705f72914dc8260", "is_disabled": 0, "rental_uris": {"ios": "https://dc.lft.to/lastmile_qr_scan", "android": "https://dc.lft.to/lastmile_qr_scan"}, "is_reserved": 0}, {"lon": -76.993348, "bike_id": "1a709fa10933f49a1f7a313f9dde715a", "lat": 38.871422833333334, "fusion_lon": 0.0, "fusion_lat": 0.0, "type": "electric_scooter", "name": "1a709fa10933f49a1f7a313f9dde715a", "is_disabled": 0, "rental_uris": {"ios": "https://dc.lft.to/lastmile_qr_scan", "android": "https://dc.lft.to/lastmile_qr_scan"}, "is_reserved": 0}, {"lon": -77.005057, "bike_id": "e035a4e186c4c2ea9e4e684750351a0b", "lat": 38.91689133333333, "fusion_lon": 0.0, "fusion_lat": 0.0, "type": "electric_scooter", "name": "e035a4e186c4c2ea9e4e684750351a0b", "is_disabled": 0, "rental_uris": {"ios": "https://dc.lft.to/lastmile_qr_scan", "android": "https://dc.lft.to/lastmile_qr_scan"}, "is_reserved": 0}, {"lon": -77.032376, "bike_id": "2b1196586379705dbedf4395716ab2f2", "lat": 38.92583116666667, "fusion_lon": 0.0, "fusion_lat": 0.0, "type": "electric_scooter", "name": "2b1196586379705dbedf4395716ab2f2", "is_disabled": 0, "rental_uris": {"ios": "https://dc.lft.to/lastmile_qr_scan", "android": "https://dc.lft.to/lastmile_qr_scan"}, "is_reserved": 0}, {"lon": -77.010497, "bike_id": "ee840d3a6233b8e48e3a4812ef5d95f3", "lat": 38.87764333333333, "fusion_lon": 0.0, "fusion_lat": 0.0, "type": "electric_bike", "name": "ee840d3a6233b8e48e3a4812ef5d95f3", "is_disabled": 0, "rental_uris": {"ios": "https://dc.lft.to/lastmile_qr_scan", "android": "https://dc.lft.to/lastmile_qr_scan"}, "is_reserved": 0}, {"lon": -76.99005366666667, "bike_id": "f1425956bcebdda7a3eda286a3efae25", "lat": 38.903938333333336, "fusion_lon": 0.0, "fusion_lat": 0.0, "type": "electric_scooter", "name": "f1425956bcebdda7a3eda286a3efae25", "is_disabled": 0, "rental_uris": {"ios": "https://dc.lft.to/lastmile_qr_scan", "android": "https://dc.lft.to/lastmile_qr_scan"}, "is_reserved": 0}, {"lon": -76.991671, "bike_id": "03c9a77127e9aae052c0e2985b8c8e47", "lat": 38.909614833333336, "fusion_lon": 0.0, "fusion_lat": 0.0, "type": "electric_scooter", "name": "03c9a77127e9aae052c0e2985b8c8e47", "is_disabled": 0, "rental_uris": {"ios": "https://dc.lft.to/lastmile_qr_scan", "android": "https://dc.lft.to/lastmile_qr_scan"}, "is_reserved": 0}, {"lon": -77.03284416666666, "bike_id": "e5a2e0bd56e9f64cdedfbfc912124e56", "lat": 38.936424, "fusion_lon": 0.0, "fusion_lat": 0.0, "type": "electric_scooter", "name": "e5a2e0bd56e9f64cdedfbfc912124e56", "is_disabled": 0, "rental_uris": {"ios": "https://dc.lft.to/lastmile_qr_scan", "android": "https://dc.lft.to/lastmile_qr_scan"}, "is_reserved": 0}, {"lon": -77.04104133333334, "bike_id": "67f2003f42ceef60544e28434f2de9db", "lat": 38.9185525, "fusion_lon": 0.0, "fusion_lat": 0.0, "type": "electric_scooter", "name": "67f2003f42ceef60544e28434f2de9db", "is_disabled": 0, "rental_uris": {"ios": "https://dc.lft.to/lastmile_qr_scan", "android": "https://dc.lft.to/lastmile_qr_scan"}, "is_reserved": 0}, {"lon": -77.03999016666667, "bike_id": "036359f5a52000c150963b43d28bb44b", "lat": 38.888718833333336, "fusion_lon": 0.0, "fusion_lat": 0.0, "type": "electric_scooter", "name": "036359f5a52000c150963b43d28bb44b", "is_disabled": 0, "rental_uris": {"ios": "https://dc.lft.to/lastmile_qr_scan", "android": "https://dc.lft.to/lastmile_qr_scan"}, "is_reserved": 0}, {"lon": -77.059412, "bike_id": "b05d8c9b0729f7b55239fe5ea0d53732", "lat": 38.9118775, "fusion_lon": 0.0, "fusion_lat": 0.0, "type": "electric_bike", "name": "b05d8c9b0729f7b55239fe5ea0d53732", "is_disabled": 0, "rental_uris": {"ios": "https://dc.lft.to/lastmile_qr_scan", "android": "https://dc.lft.to/lastmile_qr_scan"}, "is_reserved": 0}, {"lon": -76.95657483333333, "bike_id": "aa286b2f5ad480c5806b9c14cb5c858c", "lat": 38.895543833333335, "fusion_lon": 0.0, "fusion_lat": 0.0, "type": "electric_scooter", "name": "aa286b2f5ad480c5806b9c14cb5c858c", "is_disabled": 0, "rental_uris": {"ios": "https://dc.lft.to/lastmile_qr_scan", "android": "https://dc.lft.to/lastmile_qr_scan"}, "is_reserved": 0}, {"lon": -77.03432216666667, "bike_id": "bcb0fd19f8ba5107d42795fca6634916", "lat": 38.903578, "fusion_lon": 0.0, "fusion_lat": 0.0, "type": "electric_scooter", "name": "bcb0fd19f8ba5107d42795fca6634916", "is_disabled": 0, "rental_uris": {"ios": "https://dc.lft.to/lastmile_qr_scan", "android": "https://dc.lft.to/lastmile_qr_scan"}, "is_reserved": 0}, {"lon": -76.99944866666667, "bike_id": "0953361455351577b2705d041e367db3", "lat": 38.897412833333334, "fusion_lon": 0.0, "fusion_lat": 0.0, "type": "electric_scooter", "name": "0953361455351577b2705d041e367db3", "is_disabled": 0, "rental_uris": {"ios": "https://dc.lft.to/lastmile_qr_scan", "android": "https://dc.lft.to/lastmile_qr_scan"}, "is_reserved": 0}, {"lon": -77.1784265, "bike_id": "ef13d4574a1c5df2761ff2e2874a3eb7", "lat": 39.08851033333333, "fusion_lon": 0.0, "fusion_lat": 0.0, "type": "electric_bike", "name": "ef13d4574a1c5df2761ff2e2874a3eb7", "is_disabled": 0, "rental_uris": {"ios": "https://dc.lft.to/lastmile_qr_scan", "android": "https://dc.lft.to/lastmile_qr_scan"}, "is_reserved": 0}, {"lon": -76.99078816666666, "bike_id": "7c2f060bac9747edf052a136976927de", "lat": 38.842898166666664, "fusion_lon": 0.0, "fusion_lat": 0.0, "type": "electric_scooter", "name": "7c2f060bac9747edf052a136976927de", "is_disabled": 0, "rental_uris": {"ios": "https://dc.lft.to/lastmile_qr_scan", "android": "https://dc.lft.to/lastmile_qr_scan"}, "is_reserved": 0}, {"lon": -77.0435765, "bike_id": "bb1fd904fcbe7865af6185e00eb4a858", "lat": 38.9071835, "fusion_lon": 0.0, "fusion_lat": 0.0, "type": "electric_scooter", "name": "bb1fd904fcbe7865af6185e00eb4a858", "is_disabled": 0, "rental_uris": {"ios": "https://dc.lft.to/lastmile_qr_scan", "android": "https://dc.lft.to/lastmile_qr_scan"}, "is_reserved": 0}, {"lon": -77.02829033333333, "bike_id": "b8cb569a6bd3affee367bed45e17f2b6", "lat": 38.902426166666665, "fusion_lon": 0.0, "fusion_lat": 0.0, "type": "electric_scooter", "name": "b8cb569a6bd3affee367bed45e17f2b6", "is_disabled": 0, "rental_uris": {"ios": "https://dc.lft.to/lastmile_qr_scan", "android": "https://dc.lft.to/lastmile_qr_scan"}, "is_reserved": 0}, {"lon": -77.0240155, "bike_id": "e14c09b9a8cf407e2caf1d78865d51c3", "lat": 38.95705183333333, "fusion_lon": 0.0, "fusion_lat": 0.0, "type": "electric_scooter", "name": "e14c09b9a8cf407e2caf1d78865d51c3", "is_disabled": 0, "rental_uris": {"ios": "https://dc.lft.to/lastmile_qr_scan", "android": "https://dc.lft.to/lastmile_qr_scan"}, "is_reserved": 0}, {"lon": -77.10331916666667, "bike_id": "3c9839fd5ea8c2467719eedd1d8f9381", "lat": 38.8741345, "fusion_lon": 0.0, "fusion_lat": 0.0, "type": "electric_bike", "name": "3c9839fd5ea8c2467719eedd1d8f9381", "is_disabled": 0, "rental_uris": {"ios": "https://dc.lft.to/lastmile_qr_scan", "android": "https://dc.lft.to/lastmile_qr_scan"}, "is_reserved": 0}, {"lon": -77.00785966666666, "bike_id": "6138abbe7fd097d4fdc6e4a3a930501e", "lat": 38.90570483333333, "fusion_lon": 0.0, "fusion_lat": 0.0, "type": "electric_scooter", "name": "6138abbe7fd097d4fdc6e4a3a930501e", "is_disabled": 0, "rental_uris": {"ios": "https://dc.lft.to/lastmile_qr_scan", "android": "https://dc.lft.to/lastmile_qr_scan"}, "is_reserved": 0}, {"lon": -77.050454, "bike_id": "d6ebb7ec7c9a8a8d7f6819381f697c5e", "lat": 38.923708166666664, "fusion_lon": 0.0, "fusion_lat": 0.0, "type": "electric_scooter", "name": "d6ebb7ec7c9a8a8d7f6819381f697c5e", "is_disabled": 0, "rental_uris": {"ios": "https://dc.lft.to/lastmile_qr_scan", "android": "https://dc.lft.to/lastmile_qr_scan"}, "is_reserved": 0}, {"lon": -76.99390333333334, "bike_id": "5afe49c0fca26097bc7e7cb182529034", "lat": 38.8972735, "fusion_lon": 0.0, "fusion_lat": 0.0, "type": "electric_scooter", "name": "5afe49c0fca26097bc7e7cb182529034", "is_disabled": 0, "rental_uris": {"ios": "https://dc.lft.to/lastmile_qr_scan", "android": "https://dc.lft.to/lastmile_qr_scan"}, "is_reserved": 0}, {"lon": -77.05135416666667, "bike_id": "aa2a73ab3957a568d80508f8c721d93f", "lat": 38.90530016666666, "fusion_lon": 0.0, "fusion_lat": 0.0, "type": "electric_scooter", "name": "aa2a73ab3957a568d80508f8c721d93f", "is_disabled": 0, "rental_uris": {"ios": "https://dc.lft.to/lastmile_qr_scan", "android": "https://dc.lft.to/lastmile_qr_scan"}, "is_reserved": 0}, {"lon": -77.007991, "bike_id": "a9a4b9ff26409b343ef06d1b1f293aa7", "lat": 38.906296, "fusion_lon": 0.0, "fusion_lat": 0.0, "type": "electric_scooter", "name": "a9a4b9ff26409b343ef06d1b1f293aa7", "is_disabled": 0, "rental_uris": {"ios": "https://dc.lft.to/lastmile_qr_scan", "android": "https://dc.lft.to/lastmile_qr_scan"}, "is_reserved": 0}, {"lon": -77.0241455, "bike_id": "c7f29250f80de230ecd9187517988e31", "lat": 38.90970266666667, "fusion_lon": 0.0, "fusion_lat": 0.0, "type": "electric_scooter", "name": "c7f29250f80de230ecd9187517988e31", "is_disabled": 0, "rental_uris": {"ios": "https://dc.lft.to/lastmile_qr_scan", "android": "https://dc.lft.to/lastmile_qr_scan"}, "is_reserved": 0}, {"lon": -77.03483616666666, "bike_id": "6b5565acdc1b86d851c37d84d7c1ba93", "lat": 38.92479266666667, "fusion_lon": 0.0, "fusion_lat": 0.0, "type": "electric_scooter", "name": "6b5565acdc1b86d851c37d84d7c1ba93", "is_disabled": 0, "rental_uris": {"ios": "https://dc.lft.to/lastmile_qr_scan", "android": "https://dc.lft.to/lastmile_qr_scan"}, "is_reserved": 0}, {"lon": -77.02489416666667, "bike_id": "2280dd3e8f7a1761431d139b0424b462", "lat": 38.91935933333333, "fusion_lon": 0.0, "fusion_lat": 0.0, "type": "electric_scooter", "name": "2280dd3e8f7a1761431d139b0424b462", "is_disabled": 0, "rental_uris": {"ios": "https://dc.lft.to/lastmile_qr_scan", "android": "https://dc.lft.to/lastmile_qr_scan"}, "is_reserved": 0}, {"lon": -76.92760216666667, "bike_id": "9bfbd27a8ac521fa904aa43f4c0a4a40", "lat": 38.880539, "fusion_lon": 0.0, "fusion_lat": 0.0, "type": "electric_scooter", "name": "9bfbd27a8ac521fa904aa43f4c0a4a40", "is_disabled": 0, "rental_uris": {"ios": "https://dc.lft.to/lastmile_qr_scan", "android": "https://dc.lft.to/lastmile_qr_scan"}, "is_reserved": 0}, {"lon": -77.03447783333333, "bike_id": "c17120edeb22812ceeabea893a4a6677", "lat": 38.902498, "fusion_lon": 0.0, "fusion_lat": 0.0, "type": "electric_scooter", "name": "c17120edeb22812ceeabea893a4a6677", "is_disabled": 0, "rental_uris": {"ios": "https://dc.lft.to/lastmile_qr_scan", "android": "https://dc.lft.to/lastmile_qr_scan"}, "is_reserved": 0}, {"lon": -77.024, "bike_id": "243fe1f56b05390e9dea0483ca454278", "lat": 38.919861, "fusion_lon": 0.0, "fusion_lat": 0.0, "type": "electric_scooter", "name": "243fe1f56b05390e9dea0483ca454278", "is_disabled": 0, "rental_uris": {"ios": "https://dc.lft.to/lastmile_qr_scan", "android": "https://dc.lft.to/lastmile_qr_scan"}, "is_reserved": 0}, {"lon": -77.02262616666667, "bike_id": "a5e008d1a5a4d7a262bc51d0d6338c5b", "lat": 38.909051833333336, "fusion_lon": 0.0, "fusion_lat": 0.0, "type": "electric_scooter", "name": "a5e008d1a5a4d7a262bc51d0d6338c5b", "is_disabled": 0, "rental_uris": {"ios": "https://dc.lft.to/lastmile_qr_scan", "android": "https://dc.lft.to/lastmile_qr_scan"}, "is_reserved": 0}, {"lon": -77.03555916666667, "bike_id": "ebb9d4464e4e688d62ef7ad29b2a652d", "lat": 38.927045666666665, "fusion_lon": 0.0, "fusion_lat": 0.0, "type": "electric_scooter", "name": "ebb9d4464e4e688d62ef7ad29b2a652d", "is_disabled": 0, "rental_uris": {"ios": "https://dc.lft.to/lastmile_qr_scan", "android": "https://dc.lft.to/lastmile_qr_scan"}, "is_reserved": 0}, {"lon": -77.0093105, "bike_id": "6d36ab7460f4f3cce3dbc2aa2211d2a9", "lat": 38.896066833333336, "fusion_lon": 0.0, "fusion_lat": 0.0, "type": "electric_scooter", "name": "6d36ab7460f4f3cce3dbc2aa2211d2a9", "is_disabled": 0, "rental_uris": {"ios": "https://dc.lft.to/lastmile_qr_scan", "android": "https://dc.lft.to/lastmile_qr_scan"}, "is_reserved": 0}, {"lon": -77.03283766666667, "bike_id": "2fd377c6f4540e71a880e37ad406c5e8", "lat": 38.93644, "fusion_lon": 0.0, "fusion_lat": 0.0, "type": "electric_scooter", "name": "2fd377c6f4540e71a880e37ad406c5e8", "is_disabled": 0, "rental_uris": {"ios": "https://dc.lft.to/lastmile_qr_scan", "android": "https://dc.lft.to/lastmile_qr_scan"}, "is_reserved": 0}, {"lon": -77.02882116666666, "bike_id": "e3894ec5030e50476b0f236a4cc99310", "lat": 38.916836333333336, "fusion_lon": 0.0, "fusion_lat": 0.0, "type": "electric_scooter", "name": "e3894ec5030e50476b0f236a4cc99310", "is_disabled": 0, "rental_uris": {"ios": "https://dc.lft.to/lastmile_qr_scan", "android": "https://dc.lft.to/lastmile_qr_scan"}, "is_reserved": 0}, {"lon": -76.9946175, "bike_id": "09dc91613be5ef9ce22d1934ac112dee", "lat": 38.86216066666667, "fusion_lon": 0.0, "fusion_lat": 0.0, "type": "electric_scooter", "name": "09dc91613be5ef9ce22d1934ac112dee", "is_disabled": 0, "rental_uris": {"ios": "https://dc.lft.to/lastmile_qr_scan", "android": "https://dc.lft.to/lastmile_qr_scan"}, "is_reserved": 0}, {"lon": -77.0107005, "bike_id": "297f48c6aba9b21c5b52d789fb075337", "lat": 38.912779666666665, "fusion_lon": 0.0, "fusion_lat": 0.0, "type": "electric_scooter", "name": "297f48c6aba9b21c5b52d789fb075337", "is_disabled": 0, "rental_uris": {"ios": "https://dc.lft.to/lastmile_qr_scan", "android": "https://dc.lft.to/lastmile_qr_scan"}, "is_reserved": 0}, {"lon": -77.024926, "bike_id": "c23a3c2cfd7019d00baa77a3f5eafc5a", "lat": 38.941824, "fusion_lon": 0.0, "fusion_lat": 0.0, "type": "electric_scooter", "name": "c23a3c2cfd7019d00baa77a3f5eafc5a", "is_disabled": 0, "rental_uris": {"ios": "https://dc.lft.to/lastmile_qr_scan", "android": "https://dc.lft.to/lastmile_qr_scan"}, "is_reserved": 0}, {"lon": -77.0287335, "bike_id": "6bdd915332e679e92f582017a6d2f39b", "lat": 38.92819016666667, "fusion_lon": 0.0, "fusion_lat": 0.0, "type": "electric_scooter", "name": "6bdd915332e679e92f582017a6d2f39b", "is_disabled": 0, "rental_uris": {"ios": "https://dc.lft.to/lastmile_qr_scan", "android": "https://dc.lft.to/lastmile_qr_scan"}, "is_reserved": 0}, {"lon": -77.00780216666666, "bike_id": "3c5dc84696b0c9b9453e08f928fcae2f", "lat": 38.98385283333333, "fusion_lon": 0.0, "fusion_lat": 0.0, "type": "electric_bike", "name": "3c5dc84696b0c9b9453e08f928fcae2f", "is_disabled": 0, "rental_uris": {"ios": "https://dc.lft.to/lastmile_qr_scan", "android": "https://dc.lft.to/lastmile_qr_scan"}, "is_reserved": 0}, {"lon": -77.06281533333333, "bike_id": "827c4d8eb7ae3c0015c01880b65b83fb", "lat": 38.9058545, "fusion_lon": 0.0, "fusion_lat": 0.0, "type": "electric_scooter", "name": "827c4d8eb7ae3c0015c01880b65b83fb", "is_disabled": 0, "rental_uris": {"ios": "https://dc.lft.to/lastmile_qr_scan", "android": "https://dc.lft.to/lastmile_qr_scan"}, "is_reserved": 0}, {"lon": -77.02700133333333, "bike_id": "b782d4b4808ac9dd33b727672efee3d2", "lat": 38.926544166666666, "fusion_lon": 0.0, "fusion_lat": 0.0, "type": "electric_scooter", "name": "b782d4b4808ac9dd33b727672efee3d2", "is_disabled": 0, "rental_uris": {"ios": "https://dc.lft.to/lastmile_qr_scan", "android": "https://dc.lft.to/lastmile_qr_scan"}, "is_reserved": 0}, {"lon": -76.99867933333333, "bike_id": "60c6a34a6e8a3c5f9110f02c3690dca2", "lat": 38.88634283333333, "fusion_lon": 0.0, "fusion_lat": 0.0, "type": "electric_scooter", "name": "60c6a34a6e8a3c5f9110f02c3690dca2", "is_disabled": 0, "rental_uris": {"ios": "https://dc.lft.to/lastmile_qr_scan", "android": "https://dc.lft.to/lastmile_qr_scan"}, "is_reserved": 0}, {"lon": -77.03043016666666, "bike_id": "0325762a7b2b6ddb8875bef644569896", "lat": 38.913331666666664, "fusion_lon": 0.0, "fusion_lat": 0.0, "type": "electric_scooter", "name": "0325762a7b2b6ddb8875bef644569896", "is_disabled": 0, "rental_uris": {"ios": "https://dc.lft.to/lastmile_qr_scan", "android": "https://dc.lft.to/lastmile_qr_scan"}, "is_reserved": 0}, {"lon": -76.998169, "bike_id": "183a0500160237a2d6793c7cb5f6e0f5", "lat": 38.907274666666666, "fusion_lon": 0.0, "fusion_lat": 0.0, "type": "electric_scooter", "name": "183a0500160237a2d6793c7cb5f6e0f5", "is_disabled": 0, "rental_uris": {"ios": "https://dc.lft.to/lastmile_qr_scan", "android": "https://dc.lft.to/lastmile_qr_scan"}, "is_reserved": 0}, {"lon": -77.04389933333333, "bike_id": "fb5bf6cfa3eaac0903437316144a7d63", "lat": 38.90928, "fusion_lon": 0.0, "fusion_lat": 0.0, "type": "electric_scooter", "name": "fb5bf6cfa3eaac0903437316144a7d63", "is_disabled": 0, "rental_uris": {"ios": "https://dc.lft.to/lastmile_qr_scan", "android": "https://dc.lft.to/lastmile_qr_scan"}, "is_reserved": 0}, {"lon": -76.96785133333333, "bike_id": "1239534341ba741aba8330168bef4e59", "lat": 38.873366, "fusion_lon": 0.0, "fusion_lat": 0.0, "type": "electric_scooter", "name": "1239534341ba741aba8330168bef4e59", "is_disabled": 0, "rental_uris": {"ios": "https://dc.lft.to/lastmile_qr_scan", "android": "https://dc.lft.to/lastmile_qr_scan"}, "is_reserved": 0}, {"lon": -77.03878683333333, "bike_id": "ccb06b745eaf2506c5064ce2cc7b1b98", "lat": 38.892018, "fusion_lon": 0.0, "fusion_lat": 0.0, "type": "electric_scooter", "name": "ccb06b745eaf2506c5064ce2cc7b1b98", "is_disabled": 0, "rental_uris": {"ios": "https://dc.lft.to/lastmile_qr_scan", "android": "https://dc.lft.to/lastmile_qr_scan"}, "is_reserved": 0}, {"lon": -77.0231725, "bike_id": "d05836a6c6828fd0ba21c4de7cc489a2", "lat": 38.90862816666667, "fusion_lon": 0.0, "fusion_lat": 0.0, "type": "electric_scooter", "name": "d05836a6c6828fd0ba21c4de7cc489a2", "is_disabled": 0, "rental_uris": {"ios": "https://dc.lft.to/lastmile_qr_scan", "android": "https://dc.lft.to/lastmile_qr_scan"}, "is_reserved": 0}, {"lon": -76.99113583333333, "bike_id": "253e05c1ee0f81f7327b2650bd08d069", "lat": 38.933598333333336, "fusion_lon": 0.0, "fusion_lat": 0.0, "type": "electric_scooter", "name": "253e05c1ee0f81f7327b2650bd08d069", "is_disabled": 0, "rental_uris": {"ios": "https://dc.lft.to/lastmile_qr_scan", "android": "https://dc.lft.to/lastmile_qr_scan"}, "is_reserved": 0}, {"lon": -77.04582016666667, "bike_id": "0e11d4eaae14339de48322ab0e5dc4fa", "lat": 38.918706, "fusion_lon": 0.0, "fusion_lat": 0.0, "type": "electric_scooter", "name": "0e11d4eaae14339de48322ab0e5dc4fa", "is_disabled": 0, "rental_uris": {"ios": "https://dc.lft.to/lastmile_qr_scan", "android": "https://dc.lft.to/lastmile_qr_scan"}, "is_reserved": 0}, {"lon": -77.05109416666667, "bike_id": "354eff0700867b2004aa7a2dd25db517", "lat": 39.03670833333333, "fusion_lon": 0.0, "fusion_lat": 0.0, "type": "electric_bike", "name": "354eff0700867b2004aa7a2dd25db517", "is_disabled": 0, "rental_uris": {"ios": "https://dc.lft.to/lastmile_qr_scan", "android": "https://dc.lft.to/lastmile_qr_scan"}, "is_reserved": 0}, {"lon": -77.04870433333333, "bike_id": "3294368aa89af7d3a5b9ec2e7991975a", "lat": 38.89219416666667, "fusion_lon": 0.0, "fusion_lat": 0.0, "type": "electric_scooter", "name": "3294368aa89af7d3a5b9ec2e7991975a", "is_disabled": 0, "rental_uris": {"ios": "https://dc.lft.to/lastmile_qr_scan", "android": "https://dc.lft.to/lastmile_qr_scan"}, "is_reserved": 0}, {"lon": -77.04781533333333, "bike_id": "19690ff79b9065f7b290e5f6581c6853", "lat": 38.9125595, "fusion_lon": 0.0, "fusion_lat": 0.0, "type": "electric_scooter", "name": "19690ff79b9065f7b290e5f6581c6853", "is_disabled": 0, "rental_uris": {"ios": "https://dc.lft.to/lastmile_qr_scan", "android": "https://dc.lft.to/lastmile_qr_scan"}, "is_reserved": 0}, {"lon": -76.9964195, "bike_id": "cc55cdf0f2e113085d572f750b20117c", "lat": 38.90023333333333, "fusion_lon": 0.0, "fusion_lat": 0.0, "type": "electric_scooter", "name": "cc55cdf0f2e113085d572f750b20117c", "is_disabled": 0, "rental_uris": {"ios": "https://dc.lft.to/lastmile_qr_scan", "android": "https://dc.lft.to/lastmile_qr_scan"}, "is_reserved": 0}, {"lon": -77.03197116666666, "bike_id": "1b00f6bf1e22a2637c2af4da34cc7120", "lat": 38.908498333333334, "fusion_lon": 0.0, "fusion_lat": 0.0, "type": "electric_scooter", "name": "1b00f6bf1e22a2637c2af4da34cc7120", "is_disabled": 0, "rental_uris": {"ios": "https://dc.lft.to/lastmile_qr_scan", "android": "https://dc.lft.to/lastmile_qr_scan"}, "is_reserved": 0}, {"lon": -77.00341966666667, "bike_id": "67ecb5570f45d850442e9d5df4247e43", "lat": 38.8952455, "fusion_lon": 0.0, "fusion_lat": 0.0, "type": "electric_scooter", "name": "67ecb5570f45d850442e9d5df4247e43", "is_disabled": 0, "rental_uris": {"ios": "https://dc.lft.to/lastmile_qr_scan", "android": "https://dc.lft.to/lastmile_qr_scan"}, "is_reserved": 0}, {"lon": -77.01864783333333, "bike_id": "0ed0848a9ab3acb67c7a6bdec55a29d9", "lat": 38.973715166666665, "fusion_lon": 0.0, "fusion_lat": 0.0, "type": "electric_scooter", "name": "0ed0848a9ab3acb67c7a6bdec55a29d9", "is_disabled": 0, "rental_uris": {"ios": "https://dc.lft.to/lastmile_qr_scan", "android": "https://dc.lft.to/lastmile_qr_scan"}, "is_reserved": 0}, {"lon": -76.99934566666667, "bike_id": "92a30ea9b1807a9b6f2b2ae4fdf0c29d", "lat": 38.84303166666667, "fusion_lon": 0.0, "fusion_lat": 0.0, "type": "electric_scooter", "name": "92a30ea9b1807a9b6f2b2ae4fdf0c29d", "is_disabled": 0, "rental_uris": {"ios": "https://dc.lft.to/lastmile_qr_scan", "android": "https://dc.lft.to/lastmile_qr_scan"}, "is_reserved": 0}, {"lon": -77.0377, "bike_id": "e459768b247978c5f7aba52e15e781aa", "lat": 38.90252533333334, "fusion_lon": 0.0, "fusion_lat": 0.0, "type": "electric_scooter", "name": "e459768b247978c5f7aba52e15e781aa", "is_disabled": 0, "rental_uris": {"ios": "https://dc.lft.to/lastmile_qr_scan", "android": "https://dc.lft.to/lastmile_qr_scan"}, "is_reserved": 0}, {"lon": -76.99249983333333, "bike_id": "2e5ceb77bb6cff7e3c5666a988d4f5ae", "lat": 38.92344816666667, "fusion_lon": 0.0, "fusion_lat": 0.0, "type": "electric_bike", "name": "2e5ceb77bb6cff7e3c5666a988d4f5ae", "is_disabled": 0, "rental_uris": {"ios": "https://dc.lft.to/lastmile_qr_scan", "android": "https://dc.lft.to/lastmile_qr_scan"}, "is_reserved": 0}, {"lon": -77.01077816666667, "bike_id": "1c546fd531bcc96927e9f1301564afe3", "lat": 38.91770366666667, "fusion_lon": 0.0, "fusion_lat": 0.0, "type": "electric_scooter", "name": "1c546fd531bcc96927e9f1301564afe3", "is_disabled": 0, "rental_uris": {"ios": "https://dc.lft.to/lastmile_qr_scan", "android": "https://dc.lft.to/lastmile_qr_scan"}, "is_reserved": 0}, {"lon": -76.94876516666666, "bike_id": "512b68db2b7ca85b5ff54246db57694b", "lat": 38.89549783333333, "fusion_lon": 0.0, "fusion_lat": 0.0, "type": "electric_scooter", "name": "512b68db2b7ca85b5ff54246db57694b", "is_disabled": 0, "rental_uris": {"ios": "https://dc.lft.to/lastmile_qr_scan", "android": "https://dc.lft.to/lastmile_qr_scan"}, "is_reserved": 0}, {"lon": -77.07008783333333, "bike_id": "597cee7e33a9d08d3c047fb629468d05", "lat": 38.95849716666667, "fusion_lon": 0.0, "fusion_lat": 0.0, "type": "electric_scooter", "name": "597cee7e33a9d08d3c047fb629468d05", "is_disabled": 0, "rental_uris": {"ios": "https://dc.lft.to/lastmile_qr_scan", "android": "https://dc.lft.to/lastmile_qr_scan"}, "is_reserved": 0}, {"lon": -77.03829783333333, "bike_id": "e94d341f905d5843173d2743c9175bc4", "lat": 38.911106333333336, "fusion_lon": 0.0, "fusion_lat": 0.0, "type": "electric_scooter", "name": "e94d341f905d5843173d2743c9175bc4", "is_disabled": 0, "rental_uris": {"ios": "https://dc.lft.to/lastmile_qr_scan", "android": "https://dc.lft.to/lastmile_qr_scan"}, "is_reserved": 0}, {"lon": -76.99636983333333, "bike_id": "654a783f463a9c0982e9d5000ec69b38", "lat": 38.900270166666665, "fusion_lon": 0.0, "fusion_lat": 0.0, "type": "electric_scooter", "name": "654a783f463a9c0982e9d5000ec69b38", "is_disabled": 0, "rental_uris": {"ios": "https://dc.lft.to/lastmile_qr_scan", "android": "https://dc.lft.to/lastmile_qr_scan"}, "is_reserved": 0}, {"lon": -77.0209675, "bike_id": "d2ba22c0b780a9243648f98480936c70", "lat": 38.94523133333333, "fusion_lon": 0.0, "fusion_lat": 0.0, "type": "electric_scooter", "name": "d2ba22c0b780a9243648f98480936c70", "is_disabled": 0, "rental_uris": {"ios": "https://dc.lft.to/lastmile_qr_scan", "android": "https://dc.lft.to/lastmile_qr_scan"}, "is_reserved": 0}, {"lon": -76.993759, "bike_id": "eb91f42bc79c7ace53ba162e2d6c2dcb", "lat": 38.9718685, "fusion_lon": 0.0, "fusion_lat": 0.0, "type": "electric_bike", "name": "eb91f42bc79c7ace53ba162e2d6c2dcb", "is_disabled": 0, "rental_uris": {"ios": "https://dc.lft.to/lastmile_qr_scan", "android": "https://dc.lft.to/lastmile_qr_scan"}, "is_reserved": 0}, {"lon": -77.03161216666666, "bike_id": "bf04a75be50d16cf63f4cd310a90a11e", "lat": 38.936012166666664, "fusion_lon": 0.0, "fusion_lat": 0.0, "type": "electric_scooter", "name": "bf04a75be50d16cf63f4cd310a90a11e", "is_disabled": 0, "rental_uris": {"ios": "https://dc.lft.to/lastmile_qr_scan", "android": "https://dc.lft.to/lastmile_qr_scan"}, "is_reserved": 0}, {"lon": -77.04199166666666, "bike_id": "7564334665c6a8c20739e6608252cd5a", "lat": 38.919765, "fusion_lon": 0.0, "fusion_lat": 0.0, "type": "electric_scooter", "name": "7564334665c6a8c20739e6608252cd5a", "is_disabled": 0, "rental_uris": {"ios": "https://dc.lft.to/lastmile_qr_scan", "android": "https://dc.lft.to/lastmile_qr_scan"}, "is_reserved": 0}, {"lon": -77.090437, "bike_id": "165e581962ac873a8c4a17bfb46f54af", "lat": 38.849703166666664, "fusion_lon": 0.0, "fusion_lat": 0.0, "type": "electric_bike", "name": "165e581962ac873a8c4a17bfb46f54af", "is_disabled": 0, "rental_uris": {"ios": "https://dc.lft.to/lastmile_qr_scan", "android": "https://dc.lft.to/lastmile_qr_scan"}, "is_reserved": 0}, {"lon": -76.980168, "bike_id": "dd15943ee56cfc4e1af2ded93c78a6ed", "lat": 38.900829, "fusion_lon": 0.0, "fusion_lat": 0.0, "type": "electric_scooter", "name": "dd15943ee56cfc4e1af2ded93c78a6ed", "is_disabled": 0, "rental_uris": {"ios": "https://dc.lft.to/lastmile_qr_scan", "android": "https://dc.lft.to/lastmile_qr_scan"}, "is_reserved": 0}, {"lon": -77.02827833333333, "bike_id": "21211f9b24290da3584dede87d2d7eda", "lat": 38.90254133333333, "fusion_lon": 0.0, "fusion_lat": 0.0, "type": "electric_scooter", "name": "21211f9b24290da3584dede87d2d7eda", "is_disabled": 0, "rental_uris": {"ios": "https://dc.lft.to/lastmile_qr_scan", "android": "https://dc.lft.to/lastmile_qr_scan"}, "is_reserved": 0}, {"lon": -77.02302033333333, "bike_id": "1ee29a5a72cc034bc97e99af4d935942", "lat": 38.92836633333334, "fusion_lon": 0.0, "fusion_lat": 0.0, "type": "electric_scooter", "name": "1ee29a5a72cc034bc97e99af4d935942", "is_disabled": 0, "rental_uris": {"ios": "https://dc.lft.to/lastmile_qr_scan", "android": "https://dc.lft.to/lastmile_qr_scan"}, "is_reserved": 0}, {"lon": -77.03191083333333, "bike_id": "954424f67fdfab490a42cbddbe5ba18b", "lat": 38.918097833333334, "fusion_lon": 0.0, "fusion_lat": 0.0, "type": "electric_scooter", "name": "954424f67fdfab490a42cbddbe5ba18b", "is_disabled": 0, "rental_uris": {"ios": "https://dc.lft.to/lastmile_qr_scan", "android": "https://dc.lft.to/lastmile_qr_scan"}, "is_reserved": 0}, {"lon": -77.027931, "bike_id": "b8e1946b229e3c99fa851cc8da2ea557", "lat": 38.912320666666666, "fusion_lon": 0.0, "fusion_lat": 0.0, "type": "electric_scooter", "name": "b8e1946b229e3c99fa851cc8da2ea557", "is_disabled": 0, "rental_uris": {"ios": "https://dc.lft.to/lastmile_qr_scan", "android": "https://dc.lft.to/lastmile_qr_scan"}, "is_reserved": 0}, {"lon": -76.9739785, "bike_id": "f82647ca72fedf8011d9ec80709ae500", "lat": 38.9029765, "fusion_lon": 0.0, "fusion_lat": 0.0, "type": "electric_scooter", "name": "f82647ca72fedf8011d9ec80709ae500", "is_disabled": 0, "rental_uris": {"ios": "https://dc.lft.to/lastmile_qr_scan", "android": "https://dc.lft.to/lastmile_qr_scan"}, "is_reserved": 0}, {"lon": -77.0245905, "bike_id": "d9df090b49398972a097b675ea0f24f9", "lat": 38.93709066666667, "fusion_lon": 0.0, "fusion_lat": 0.0, "type": "electric_scooter", "name": "d9df090b49398972a097b675ea0f24f9", "is_disabled": 0, "rental_uris": {"ios": "https://dc.lft.to/lastmile_qr_scan", "android": "https://dc.lft.to/lastmile_qr_scan"}, "is_reserved": 0}, {"lon": -77.01817083333333, "bike_id": "db5afaafbeff4104183c889a86becfde", "lat": 38.930428166666665, "fusion_lon": 0.0, "fusion_lat": 0.0, "type": "electric_scooter", "name": "db5afaafbeff4104183c889a86becfde", "is_disabled": 0, "rental_uris": {"ios": "https://dc.lft.to/lastmile_qr_scan", "android": "https://dc.lft.to/lastmile_qr_scan"}, "is_reserved": 0}, {"lon": -77.0556725, "bike_id": "ef4f99ac1f6c55a7a54416759f6b2c2e", "lat": 38.908538, "fusion_lon": 0.0, "fusion_lat": 0.0, "type": "electric_scooter", "name": "ef4f99ac1f6c55a7a54416759f6b2c2e", "is_disabled": 0, "rental_uris": {"ios": "https://dc.lft.to/lastmile_qr_scan", "android": "https://dc.lft.to/lastmile_qr_scan"}, "is_reserved": 0}, {"lon": -77.00049833333334, "bike_id": "ef50b6ba6a1329af347fb4d3501ffe8f", "lat": 38.9000895, "fusion_lon": 0.0, "fusion_lat": 0.0, "type": "electric_scooter", "name": "ef50b6ba6a1329af347fb4d3501ffe8f", "is_disabled": 0, "rental_uris": {"ios": "https://dc.lft.to/lastmile_qr_scan", "android": "https://dc.lft.to/lastmile_qr_scan"}, "is_reserved": 0}, {"lon": -77.0741535, "bike_id": "21d27b96d9ec14111c89ae738e77cc44", "lat": 38.9288815, "fusion_lon": 0.0, "fusion_lat": 0.0, "type": "electric_scooter", "name": "21d27b96d9ec14111c89ae738e77cc44", "is_disabled": 0, "rental_uris": {"ios": "https://dc.lft.to/lastmile_qr_scan", "android": "https://dc.lft.to/lastmile_qr_scan"}, "is_reserved": 0}, {"lon": -77.03940383333334, "bike_id": "9d07d575f3b9b71d3461df685ed39206", "lat": 38.9157005, "fusion_lon": 0.0, "fusion_lat": 0.0, "type": "electric_scooter", "name": "9d07d575f3b9b71d3461df685ed39206", "is_disabled": 0, "rental_uris": {"ios": "https://dc.lft.to/lastmile_qr_scan", "android": "https://dc.lft.to/lastmile_qr_scan"}, "is_reserved": 0}, {"lon": -76.98904066666667, "bike_id": "64829df14589a192a9fb620c212986b2", "lat": 38.86484883333333, "fusion_lon": 0.0, "fusion_lat": 0.0, "type": "electric_scooter", "name": "64829df14589a192a9fb620c212986b2", "is_disabled": 0, "rental_uris": {"ios": "https://dc.lft.to/lastmile_qr_scan", "android": "https://dc.lft.to/lastmile_qr_scan"}, "is_reserved": 0}, {"lon": -77.02283916666667, "bike_id": "215604caf2e69bef8e9e91842be97e17", "lat": 38.916448, "fusion_lon": 0.0, "fusion_lat": 0.0, "type": "electric_scooter", "name": "215604caf2e69bef8e9e91842be97e17", "is_disabled": 0, "rental_uris": {"ios": "https://dc.lft.to/lastmile_qr_scan", "android": "https://dc.lft.to/lastmile_qr_scan"}, "is_reserved": 0}, {"lon": -76.93479783333333, "bike_id": "94f647df0202dfae4cd6e9c631512cf4", "lat": 38.90582466666667, "fusion_lon": 0.0, "fusion_lat": 0.0, "type": "electric_scooter", "name": "94f647df0202dfae4cd6e9c631512cf4", "is_disabled": 0, "rental_uris": {"ios": "https://dc.lft.to/lastmile_qr_scan", "android": "https://dc.lft.to/lastmile_qr_scan"}, "is_reserved": 0}, {"lon": -77.0384585, "bike_id": "08bb7d7efcdcfc51a0f0121cbacc8c0f", "lat": 38.90268983333333, "fusion_lon": 0.0, "fusion_lat": 0.0, "type": "electric_scooter", "name": "08bb7d7efcdcfc51a0f0121cbacc8c0f", "is_disabled": 0, "rental_uris": {"ios": "https://dc.lft.to/lastmile_qr_scan", "android": "https://dc.lft.to/lastmile_qr_scan"}, "is_reserved": 0}, {"lon": -76.94593583333334, "bike_id": "1c50cfe25a8fe1f47a0e62b5286b289e", "lat": 38.901653833333334, "fusion_lon": 0.0, "fusion_lat": 0.0, "type": "electric_scooter", "name": "1c50cfe25a8fe1f47a0e62b5286b289e", "is_disabled": 0, "rental_uris": {"ios": "https://dc.lft.to/lastmile_qr_scan", "android": "https://dc.lft.to/lastmile_qr_scan"}, "is_reserved": 0}, {"lon": -77.01861983333333, "bike_id": "282ac11d4b9e92230b7c811ffefc624e", "lat": 38.9149665, "fusion_lon": 0.0, "fusion_lat": 0.0, "type": "electric_scooter", "name": "282ac11d4b9e92230b7c811ffefc624e", "is_disabled": 0, "rental_uris": {"ios": "https://dc.lft.to/lastmile_qr_scan", "android": "https://dc.lft.to/lastmile_qr_scan"}, "is_reserved": 0}, {"lon": -77.03992233333334, "bike_id": "5224f716a701c56d304815fe8f15a390", "lat": 38.93435733333333, "fusion_lon": 0.0, "fusion_lat": 0.0, "type": "electric_scooter", "name": "5224f716a701c56d304815fe8f15a390", "is_disabled": 0, "rental_uris": {"ios": "https://dc.lft.to/lastmile_qr_scan", "android": "https://dc.lft.to/lastmile_qr_scan"}, "is_reserved": 0}, {"lon": -77.0259245, "bike_id": "7c133e7871df0836e65720690c01c2d8", "lat": 38.89816166666667, "fusion_lon": 0.0, "fusion_lat": 0.0, "type": "electric_scooter", "name": "7c133e7871df0836e65720690c01c2d8", "is_disabled": 0, "rental_uris": {"ios": "https://dc.lft.to/lastmile_qr_scan", "android": "https://dc.lft.to/lastmile_qr_scan"}, "is_reserved": 0}, {"lon": -76.99548066666667, "bike_id": "51f90527ff157bb1ebbb90851656f4dd", "lat": 38.8621605, "fusion_lon": 0.0, "fusion_lat": 0.0, "type": "electric_scooter", "name": "51f90527ff157bb1ebbb90851656f4dd", "is_disabled": 0, "rental_uris": {"ios": "https://dc.lft.to/lastmile_qr_scan", "android": "https://dc.lft.to/lastmile_qr_scan"}, "is_reserved": 0}, {"lon": -77.04106433333334, "bike_id": "0dd0f84958d90c841339b09e375a1fd7", "lat": 38.9177515, "fusion_lon": 0.0, "fusion_lat": 0.0, "type": "electric_scooter", "name": "0dd0f84958d90c841339b09e375a1fd7", "is_disabled": 0, "rental_uris": {"ios": "https://dc.lft.to/lastmile_qr_scan", "android": "https://dc.lft.to/lastmile_qr_scan"}, "is_reserved": 0}, {"lon": -76.99790466666667, "bike_id": "20fc23e3a73d22c289b0c778d3f6f68b", "lat": 38.91052283333333, "fusion_lon": 0.0, "fusion_lat": 0.0, "type": "electric_scooter", "name": "20fc23e3a73d22c289b0c778d3f6f68b", "is_disabled": 0, "rental_uris": {"ios": "https://dc.lft.to/lastmile_qr_scan", "android": "https://dc.lft.to/lastmile_qr_scan"}, "is_reserved": 0}, {"lon": -77.02299733333334, "bike_id": "9428ebb308cc0f7f482e2d06d6a98859", "lat": 38.92326533333333, "fusion_lon": 0.0, "fusion_lat": 0.0, "type": "electric_bike", "name": "9428ebb308cc0f7f482e2d06d6a98859", "is_disabled": 0, "rental_uris": {"ios": "https://dc.lft.to/lastmile_qr_scan", "android": "https://dc.lft.to/lastmile_qr_scan"}, "is_reserved": 0}, {"lon": -77.00727283333333, "bike_id": "9373834d10f839c023d8d8c90c2e93cb", "lat": 38.884935, "fusion_lon": 0.0, "fusion_lat": 0.0, "type": "electric_scooter", "name": "9373834d10f839c023d8d8c90c2e93cb", "is_disabled": 0, "rental_uris": {"ios": "https://dc.lft.to/lastmile_qr_scan", "android": "https://dc.lft.to/lastmile_qr_scan"}, "is_reserved": 0}, {"lon": -76.92921866666667, "bike_id": "7b9fa9498a847bd1c9341197afb82e18", "lat": 38.89293033333333, "fusion_lon": 0.0, "fusion_lat": 0.0, "type": "electric_scooter", "name": "7b9fa9498a847bd1c9341197afb82e18", "is_disabled": 0, "rental_uris": {"ios": "https://dc.lft.to/lastmile_qr_scan", "android": "https://dc.lft.to/lastmile_qr_scan"}, "is_reserved": 0}, {"lon": -77.036485, "bike_id": "b4b63ea533c91b7b884df5b58b0f3eb2", "lat": 38.903827166666666, "fusion_lon": 0.0, "fusion_lat": 0.0, "type": "electric_scooter", "name": "b4b63ea533c91b7b884df5b58b0f3eb2", "is_disabled": 0, "rental_uris": {"ios": "https://dc.lft.to/lastmile_qr_scan", "android": "https://dc.lft.to/lastmile_qr_scan"}, "is_reserved": 0}, {"lon": -77.03887433333334, "bike_id": "5b22fc75992aedf59caca62c909ab108", "lat": 38.922801, "fusion_lon": 0.0, "fusion_lat": 0.0, "type": "electric_scooter", "name": "5b22fc75992aedf59caca62c909ab108", "is_disabled": 0, "rental_uris": {"ios": "https://dc.lft.to/lastmile_qr_scan", "android": "https://dc.lft.to/lastmile_qr_scan"}, "is_reserved": 0}, {"lon": -77.0120385, "bike_id": "33433d0ac3450ce0232c60763f3ee192", "lat": 38.89311933333333, "fusion_lon": 0.0, "fusion_lat": 0.0, "type": "electric_scooter", "name": "33433d0ac3450ce0232c60763f3ee192", "is_disabled": 0, "rental_uris": {"ios": "https://dc.lft.to/lastmile_qr_scan", "android": "https://dc.lft.to/lastmile_qr_scan"}, "is_reserved": 0}, {"lon": -77.019829, "bike_id": "c00db32aeb8529cb4576ddfb1e4ea355", "lat": 38.9142035, "fusion_lon": 0.0, "fusion_lat": 0.0, "type": "electric_scooter", "name": "c00db32aeb8529cb4576ddfb1e4ea355", "is_disabled": 0, "rental_uris": {"ios": "https://dc.lft.to/lastmile_qr_scan", "android": "https://dc.lft.to/lastmile_qr_scan"}, "is_reserved": 0}, {"lon": -77.0779395, "bike_id": "07e4513e6d431947bec1e5bec3aff245", "lat": 38.9960315, "fusion_lon": 0.0, "fusion_lat": 0.0, "type": "electric_bike", "name": "07e4513e6d431947bec1e5bec3aff245", "is_disabled": 0, "rental_uris": {"ios": "https://dc.lft.to/lastmile_qr_scan", "android": "https://dc.lft.to/lastmile_qr_scan"}, "is_reserved": 0}, {"lon": -77.02929666666667, "bike_id": "4b0160d1c51879cf02fd2f16ed6c8b05", "lat": 38.8996835, "fusion_lon": 0.0, "fusion_lat": 0.0, "type": "electric_scooter", "name": "4b0160d1c51879cf02fd2f16ed6c8b05", "is_disabled": 0, "rental_uris": {"ios": "https://dc.lft.to/lastmile_qr_scan", "android": "https://dc.lft.to/lastmile_qr_scan"}, "is_reserved": 0}, {"lon": -77.02423833333333, "bike_id": "9cb6d08332ec98f68e2c569849f875d0", "lat": 38.92237133333333, "fusion_lon": 0.0, "fusion_lat": 0.0, "type": "electric_bike", "name": "9cb6d08332ec98f68e2c569849f875d0", "is_disabled": 0, "rental_uris": {"ios": "https://dc.lft.to/lastmile_qr_scan", "android": "https://dc.lft.to/lastmile_qr_scan"}, "is_reserved": 0}, {"lon": -77.009299, "bike_id": "608ae7a59ac3aecf18c32a3ce031d400", "lat": 38.918049, "fusion_lon": 0.0, "fusion_lat": 0.0, "type": "electric_scooter", "name": "608ae7a59ac3aecf18c32a3ce031d400", "is_disabled": 0, "rental_uris": {"ios": "https://dc.lft.to/lastmile_qr_scan", "android": "https://dc.lft.to/lastmile_qr_scan"}, "is_reserved": 0}, {"lon": -77.01035833333333, "bike_id": "02448a1b07a755239b9af9dc9a90f7fa", "lat": 38.917046166666665, "fusion_lon": 0.0, "fusion_lat": 0.0, "type": "electric_scooter", "name": "02448a1b07a755239b9af9dc9a90f7fa", "is_disabled": 0, "rental_uris": {"ios": "https://dc.lft.to/lastmile_qr_scan", "android": "https://dc.lft.to/lastmile_qr_scan"}, "is_reserved": 0}, {"lon": -77.03497233333333, "bike_id": "fa255ff831e78f4266b6880b1e544bdb", "lat": 38.91693816666667, "fusion_lon": 0.0, "fusion_lat": 0.0, "type": "electric_scooter", "name": "fa255ff831e78f4266b6880b1e544bdb", "is_disabled": 0, "rental_uris": {"ios": "https://dc.lft.to/lastmile_qr_scan", "android": "https://dc.lft.to/lastmile_qr_scan"}, "is_reserved": 0}, {"lon": -77.0312275, "bike_id": "47fa0193dd8c0c9cce37d5cb1d3f7ff5", "lat": 38.91498966666666, "fusion_lon": 0.0, "fusion_lat": 0.0, "type": "electric_scooter", "name": "47fa0193dd8c0c9cce37d5cb1d3f7ff5", "is_disabled": 0, "rental_uris": {"ios": "https://dc.lft.to/lastmile_qr_scan", "android": "https://dc.lft.to/lastmile_qr_scan"}, "is_reserved": 0}, {"lon": -76.949704, "bike_id": "8df105926837de1138f5cfdefae17ab4", "lat": 38.9049755, "fusion_lon": 0.0, "fusion_lat": 0.0, "type": "electric_scooter", "name": "8df105926837de1138f5cfdefae17ab4", "is_disabled": 0, "rental_uris": {"ios": "https://dc.lft.to/lastmile_qr_scan", "android": "https://dc.lft.to/lastmile_qr_scan"}, "is_reserved": 0}, {"lon": -77.06459383333333, "bike_id": "afa883c4f5c367ce7f802eae33b99ea1", "lat": 38.9104655, "fusion_lon": 0.0, "fusion_lat": 0.0, "type": "electric_scooter", "name": "afa883c4f5c367ce7f802eae33b99ea1", "is_disabled": 0, "rental_uris": {"ios": "https://dc.lft.to/lastmile_qr_scan", "android": "https://dc.lft.to/lastmile_qr_scan"}, "is_reserved": 0}, {"lon": -77.02963633333333, "bike_id": "3beb46b7de02481368b06219fed3d048", "lat": 38.91677633333333, "fusion_lon": 0.0, "fusion_lat": 0.0, "type": "electric_scooter", "name": "3beb46b7de02481368b06219fed3d048", "is_disabled": 0, "rental_uris": {"ios": "https://dc.lft.to/lastmile_qr_scan", "android": "https://dc.lft.to/lastmile_qr_scan"}, "is_reserved": 0}, {"lon": -77.02613066666666, "bike_id": "3d8e2fcca9c575e9fcb5d070e4b241ab", "lat": 38.905002, "fusion_lon": 0.0, "fusion_lat": 0.0, "type": "electric_scooter", "name": "3d8e2fcca9c575e9fcb5d070e4b241ab", "is_disabled": 0, "rental_uris": {"ios": "https://dc.lft.to/lastmile_qr_scan", "android": "https://dc.lft.to/lastmile_qr_scan"}, "is_reserved": 0}, {"lon": -77.03648483333333, "bike_id": "7e634cd27d3d50b471e547391213adaf", "lat": 38.922611333333336, "fusion_lon": 0.0, "fusion_lat": 0.0, "type": "electric_scooter", "name": "7e634cd27d3d50b471e547391213adaf", "is_disabled": 0, "rental_uris": {"ios": "https://dc.lft.to/lastmile_qr_scan", "android": "https://dc.lft.to/lastmile_qr_scan"}, "is_reserved": 0}, {"lon": -77.00737983333333, "bike_id": "f2e8b80f3970a73e503f5d95124f804d", "lat": 38.925382666666664, "fusion_lon": 0.0, "fusion_lat": 0.0, "type": "electric_scooter", "name": "f2e8b80f3970a73e503f5d95124f804d", "is_disabled": 0, "rental_uris": {"ios": "https://dc.lft.to/lastmile_qr_scan", "android": "https://dc.lft.to/lastmile_qr_scan"}, "is_reserved": 0}, {"lon": -77.041221, "bike_id": "25db725438ea0b88e89be6e45f7ec0e3", "lat": 38.911824333333335, "fusion_lon": 0.0, "fusion_lat": 0.0, "type": "electric_scooter", "name": "25db725438ea0b88e89be6e45f7ec0e3", "is_disabled": 0, "rental_uris": {"ios": "https://dc.lft.to/lastmile_qr_scan", "android": "https://dc.lft.to/lastmile_qr_scan"}, "is_reserved": 0}, {"lon": -76.95761933333333, "bike_id": "4ece74183d046191c9f31443502d03ce", "lat": 38.88433666666667, "fusion_lon": 0.0, "fusion_lat": 0.0, "type": "electric_scooter", "name": "4ece74183d046191c9f31443502d03ce", "is_disabled": 0, "rental_uris": {"ios": "https://dc.lft.to/lastmile_qr_scan", "android": "https://dc.lft.to/lastmile_qr_scan"}, "is_reserved": 0}, {"lon": -77.0019155, "bike_id": "50d69c8bc89d65c959dc9524113394eb", "lat": 38.903783, "fusion_lon": 0.0, "fusion_lat": 0.0, "type": "electric_scooter", "name": "50d69c8bc89d65c959dc9524113394eb", "is_disabled": 0, "rental_uris": {"ios": "https://dc.lft.to/lastmile_qr_scan", "android": "https://dc.lft.to/lastmile_qr_scan"}, "is_reserved": 0}, {"lon": -77.01759616666666, "bike_id": "1132a07469a95e006fa2a19810bdf407", "lat": 38.912817, "fusion_lon": 0.0, "fusion_lat": 0.0, "type": "electric_scooter", "name": "1132a07469a95e006fa2a19810bdf407", "is_disabled": 0, "rental_uris": {"ios": "https://dc.lft.to/lastmile_qr_scan", "android": "https://dc.lft.to/lastmile_qr_scan"}, "is_reserved": 0}, {"lon": -77.0092835, "bike_id": "f5ead6a71a115cb976fbdd99d86a8bf5", "lat": 38.89604716666667, "fusion_lon": 0.0, "fusion_lat": 0.0, "type": "electric_scooter", "name": "f5ead6a71a115cb976fbdd99d86a8bf5", "is_disabled": 0, "rental_uris": {"ios": "https://dc.lft.to/lastmile_qr_scan", "android": "https://dc.lft.to/lastmile_qr_scan"}, "is_reserved": 0}, {"lon": -77.04327666666667, "bike_id": "ff7797618569c56b8826339d39f71802", "lat": 38.89223533333333, "fusion_lon": 0.0, "fusion_lat": 0.0, "type": "electric_scooter", "name": "ff7797618569c56b8826339d39f71802", "is_disabled": 0, "rental_uris": {"ios": "https://dc.lft.to/lastmile_qr_scan", "android": "https://dc.lft.to/lastmile_qr_scan"}, "is_reserved": 0}, {"lon": -76.99510616666667, "bike_id": "7fbf13f33f416407d25ab7a55a0b6354", "lat": 38.878418833333335, "fusion_lon": 0.0, "fusion_lat": 0.0, "type": "electric_scooter", "name": "7fbf13f33f416407d25ab7a55a0b6354", "is_disabled": 0, "rental_uris": {"ios": "https://dc.lft.to/lastmile_qr_scan", "android": "https://dc.lft.to/lastmile_qr_scan"}, "is_reserved": 0}, {"lon": -77.0532195, "bike_id": "1888acd59eafdb15f793868f2956c40d", "lat": 38.915479500000004, "fusion_lon": 0.0, "fusion_lat": 0.0, "type": "electric_scooter", "name": "1888acd59eafdb15f793868f2956c40d", "is_disabled": 0, "rental_uris": {"ios": "https://dc.lft.to/lastmile_qr_scan", "android": "https://dc.lft.to/lastmile_qr_scan"}, "is_reserved": 0}, {"lon": -76.9575735, "bike_id": "d91376e0e08a1f0ab60798370f2852b5", "lat": 38.88427816666667, "fusion_lon": 0.0, "fusion_lat": 0.0, "type": "electric_scooter", "name": "d91376e0e08a1f0ab60798370f2852b5", "is_disabled": 0, "rental_uris": {"ios": "https://dc.lft.to/lastmile_qr_scan", "android": "https://dc.lft.to/lastmile_qr_scan"}, "is_reserved": 0},