{"data": {"bikes": [{"fusion_lat": 0.0, "lon": -77.0274875, "is_reserved": 0, "bike_id": "1ce301b9d22d910504538fc03bce7941", "fusion_lon": 0.0, "rental_uris": {"android": "https://dc.lft.to/lastmile_qr_scan", "ios": "https://dc.lft.to/lastmile_qr_scan"}, "name": "1ce301b9d22d910504538fc03bce7941", "type": "electric_scooter", "lat": 38.924034166666665, "is_disabled": 0}, {"fusion_lat": 0.0, "lon": -77.02847983333334, "is_reserved": 0, "bike_id": "49adece169323da26fa502ee6a148b07", "fusion_lon": 0.0, "rental_uris": {"android": "https://dc.lft.to/lastmile_qr_scan", "ios": "https://dc.lft.to/lastmile_qr_scan"}, "name": "49adece169323da26fa502ee6a148b07", "type": "electric_scooter", "lat": 38.91166583333333, "is_disabled": 0}, {"fusion_lat": 0.0, "lon": -77.00201016666666, "is_reserved": 0, "bike_id": "28a7334f60feb53c2d11ca46037a212c", "fusion_lon": 0.0, "rental_uris": {"android": "https://dc.lft.to/lastmile_qr_scan", "ios": "https://dc.lft.to/lastmile_qr_scan"}, "name": "28a7334f60feb53c2d11ca46037a212c", "type": "electric_scooter", "lat": 38.90235633333333, "is_disabled": 0}, {"fusion_lat": 0.0, "lon": -77.05421933333334, "is_reserved": 0, "bike_id": "dc61fc78ce9b11e8643140d3ea45bf5b", "fusion_lon": 0.0, "rental_uris": {"android": "https://dc.lft.to/lastmile_qr_scan", "ios": "https://dc.lft.to/lastmile_qr_scan"}, "name": "dc61fc78ce9b11e8643140d3ea45bf5b", "type": "electric_scooter", "lat": 38.92355516666667, "is_disabled": 0}, {"fusion_lat": 0.0, "lon": -77.042529, "is_reserved": 0, "bike_id": "1a6d804c6cf8df847a09cfa93bb62d2a", "fusion_lon": 0.0, "rental_uris": {"android": "https://dc.lft.to/lastmile_qr_scan", "ios": "https://dc.lft.to/lastmile_qr_scan"}, "name": "1a6d804c6cf8df847a09cfa93bb62d2a", "type": "electric_scooter", "lat": 38.906322, "is_disabled": 0}, {"fusion_lat": 0.0, "lon": -77.01010333333333, "is_reserved": 0, "bike_id": "a03a1ccc990a0deeb6ab3e3dff6fc641", "fusion_lon": 0.0, "rental_uris": {"android": "https://dc.lft.to/lastmile_qr_scan", "ios": "https://dc.lft.to/lastmile_qr_scan"}, "name": "a03a1ccc990a0deeb6ab3e3dff6fc641", "type": "electric_bike", "lat": 38.879634833333334, "is_disabled": 0}, {"fusion_lat": 0.0, "lon": -77.020919, "is_reserved": 0, "bike_id": "70e70c1a9f428bc01872db6214e96c63", "fusion_lon": 0.0, "rental_uris": {"android": "https://dc.lft.to/lastmile_qr_scan", "ios": "https://dc.lft.to/lastmile_qr_scan"}, "name": "70e70c1a9f428bc01872db6214e96c63", "type": "electric_scooter", "lat": 38.91423433333333, "is_disabled": 0}, {"fusion_lat": 0.0, "lon": -77.02895383333333, "is_reserved": 0, "bike_id": "b1a71558a88cec382cda05c4a42a0df8", "fusion_lon": 0.0, "rental_uris": {"android": "https://dc.lft.to/lastmile_qr_scan", "ios": "https://dc.lft.to/lastmile_qr_scan"}, "name": "b1a71558a88cec382cda05c4a42a0df8", "type": "electric_scooter", "lat": 38.903206, "is_disabled": 0}, {"fusion_lat": 0.0, "lon": -77.04665466666667, "is_reserved": 0, "bike_id": "7dd4e3f3ec6330d94e4debf8b590db86", "fusion_lon": 0.0, "rental_uris": {"android": "https://dc.lft.to/lastmile_qr_scan", "ios": "https://dc.lft.to/lastmile_qr_scan"}, "name": "7dd4e3f3ec6330d94e4debf8b590db86", "type": "electric_scooter", "lat": 38.913408, "is_disabled": 0}, {"fusion_lat": 0.0, "lon": -77.01987216666667, "is_reserved": 0, "bike_id": "391e597cf159d078bce5ab7162dd6dac", "fusion_lon": 0.0, "rental_uris": {"android": "https://dc.lft.to/lastmile_qr_scan", "ios": "https://dc.lft.to/lastmile_qr_scan"}, "name": "391e597cf159d078bce5ab7162dd6dac", "type": "electric_scooter", "lat": 38.914347166666666, "is_disabled": 0}, {"fusion_lat": 0.0, "lon": -77.02489816666667, "is_reserved": 0, "bike_id": "5b0b68dba001cab952a590628f4ce711", "fusion_lon": 0.0, "rental_uris": {"android": "https://dc.lft.to/lastmile_qr_scan", "ios": "https://dc.lft.to/lastmile_qr_scan"}, "name": "5b0b68dba001cab952a590628f4ce711", "type": "electric_scooter", "lat": 38.9386845, "is_disabled": 0}, {"fusion_lat": 0.0, "lon": -77.040792, "is_reserved": 0, "bike_id": "d8c3d9695acaebc83068e7d3f7414472", "fusion_lon": 0.0, "rental_uris": {"android": "https://dc.lft.to/lastmile_qr_scan", "ios": "https://dc.lft.to/lastmile_qr_scan"}, "name": "d8c3d9695acaebc83068e7d3f7414472", "type": "electric_scooter", "lat": 38.91705566666667, "is_disabled": 0}, {"fusion_lat": 0.0, "lon": -77.02689116666667, "is_reserved": 0, "bike_id": "6c1ed7037cfd4ee661f661ce3b111ce9", "fusion_lon": 0.0, "rental_uris": {"android": "https://dc.lft.to/lastmile_qr_scan", "ios": "https://dc.lft.to/lastmile_qr_scan"}, "name": "6c1ed7037cfd4ee661f661ce3b111ce9", "type": "electric_scooter", "lat": 38.9124395, "is_disabled": 0}, {"fusion_lat": 0.0, "lon": -77.0348425, "is_reserved": 0, "bike_id": "7880031725a945364db47604a579d1d6", "fusion_lon": 0.0, "rental_uris": {"android": "https://dc.lft.to/lastmile_qr_scan", "ios": "https://dc.lft.to/lastmile_qr_scan"}, "name": "7880031725a945364db47604a579d1d6", "type": "electric_scooter", "lat": 38.93266083333334, "is_disabled": 0}, {"fusion_lat": 0.0, "lon": -77.03057616666666, "is_reserved": 0, "bike_id": "4f6a54a546ba99b27ca994bfcc9bbc5c", "fusion_lon": 0.0, "rental_uris": {"android": "https://dc.lft.to/lastmile_qr_scan", "ios": "https://dc.lft.to/lastmile_qr_scan"}, "name": "4f6a54a546ba99b27ca994bfcc9bbc5c", "type": "electric_scooter", "lat": 38.92372866666667, "is_disabled": 0}, {"fusion_lat": 0.0, "lon": -77.00738666666666, "is_reserved": 0, "bike_id": "875e6db40df19be96c0b8354e528c677", "fusion_lon": 0.0, "rental_uris": {"android": "https://dc.lft.to/lastmile_qr_scan", "ios": "https://dc.lft.to/lastmile_qr_scan"}, "name": "875e6db40df19be96c0b8354e528c677", "type": "electric_scooter", "lat": 38.903662833333335, "is_disabled": 0}, {"fusion_lat": 0.0, "lon": -77.01907983333334, "is_reserved": 0, "bike_id": "a908aac6e867590fd726dfed0ec11b6a", "fusion_lon": 0.0, "rental_uris": {"android": "https://dc.lft.to/lastmile_qr_scan", "ios": "https://dc.lft.to/lastmile_qr_scan"}, "name": "a908aac6e867590fd726dfed0ec11b6a", "type": "electric_scooter", "lat": 38.941215166666666, "is_disabled": 0}, {"fusion_lat": 0.0, "lon": -77.04271533333333, "is_reserved": 0, "bike_id": "31f66653247e03481484ddfbe3afbd1e", "fusion_lon": 0.0, "rental_uris": {"android": "https://dc.lft.to/lastmile_qr_scan", "ios": "https://dc.lft.to/lastmile_qr_scan"}, "name": "31f66653247e03481484ddfbe3afbd1e", "type": "electric_scooter", "lat": 38.91326633333333, "is_disabled": 0}, {"fusion_lat": 0.0, "lon": -77.00609983333334, "is_reserved": 0, "bike_id": "5259bd58c129f8a1260c6d637fb2b77b", "fusion_lon": 0.0, "rental_uris": {"android": "https://dc.lft.to/lastmile_qr_scan", "ios": "https://dc.lft.to/lastmile_qr_scan"}, "name": "5259bd58c129f8a1260c6d637fb2b77b", "type": "electric_scooter", "lat": 38.908531833333335, "is_disabled": 0}, {"fusion_lat": 0.0, "lon": -77.03213616666666, "is_reserved": 0, "bike_id": "a6a8270aa71e80865c512c9d1a25f421", "fusion_lon": 0.0, "rental_uris": {"android": "https://dc.lft.to/lastmile_qr_scan", "ios": "https://dc.lft.to/lastmile_qr_scan"}, "name": "a6a8270aa71e80865c512c9d1a25f421", "type": "electric_scooter", "lat": 38.89222616666667, "is_disabled": 0}, {"fusion_lat": 0.0, "lon": -77.034788, "is_reserved": 0, "bike_id": "9466ff1e123cdc955d0160fce0beb146", "fusion_lon": 0.0, "rental_uris": {"android": "https://dc.lft.to/lastmile_qr_scan", "ios": "https://dc.lft.to/lastmile_qr_scan"}, "name": "9466ff1e123cdc955d0160fce0beb146", "type": "electric_scooter", "lat": 38.92532883333333, "is_disabled": 0}, {"fusion_lat": 0.0, "lon": -77.042558, "is_reserved": 0, "bike_id": "f595658e99a5b931070536e60a752f74", "fusion_lon": 0.0, "rental_uris": {"android": "https://dc.lft.to/lastmile_qr_scan", "ios": "https://dc.lft.to/lastmile_qr_scan"}, "name": "f595658e99a5b931070536e60a752f74", "type": "electric_scooter", "lat": 38.92237383333333, "is_disabled": 0}, {"fusion_lat": 0.0, "lon": -77.04480366666667, "is_reserved": 0, "bike_id": "ce5942ea49c9295bfda09a55705c3b0f", "fusion_lon": 0.0, "rental_uris": {"android": "https://dc.lft.to/lastmile_qr_scan", "ios": "https://dc.lft.to/lastmile_qr_scan"}, "name": "ce5942ea49c9295bfda09a55705c3b0f", "type": "electric_scooter", "lat": 38.903776, "is_disabled": 0}, {"fusion_lat": 0.0, "lon": -76.93265883333333, "is_reserved": 0, "bike_id": "696ac9e4c97701fd7adab69baf688bea", "fusion_lon": 0.0, "rental_uris": {"android": "https://dc.lft.to/lastmile_qr_scan", "ios": "https://dc.lft.to/lastmile_qr_scan"}, "name": "696ac9e4c97701fd7adab69baf688bea", "type": "electric_scooter", "lat": 38.8988635, "is_disabled": 0}, {"fusion_lat": 0.0, "lon": -77.04451216666666, "is_reserved": 0, "bike_id": "58116e0ecc2232f58ba166cfbc5839b6", "fusion_lon": 0.0, "rental_uris": {"android": "https://dc.lft.to/lastmile_qr_scan", "ios": "https://dc.lft.to/lastmile_qr_scan"}, "name": "58116e0ecc2232f58ba166cfbc5839b6", "type": "electric_scooter", "lat": 38.91875, "is_disabled": 0}, {"fusion_lat": 0.0, "lon": -77.03065016666666, "is_reserved": 0, "bike_id": "bb42fc4c3e01d2fd407bbc200b415c5a", "fusion_lon": 0.0, "rental_uris": {"android": "https://dc.lft.to/lastmile_qr_scan", "ios": "https://dc.lft.to/lastmile_qr_scan"}, "name": "bb42fc4c3e01d2fd407bbc200b415c5a", "type": "electric_scooter", "lat": 38.9075615, "is_disabled": 0}, {"fusion_lat": 0.0, "lon": -77.036345, "is_reserved": 0, "bike_id": "f511d83d2a5f63ddf2313cbbba2246a4", "fusion_lon": 0.0, "rental_uris": {"android": "https://dc.lft.to/lastmile_qr_scan", "ios": "https://dc.lft.to/lastmile_qr_scan"}, "name": "f511d83d2a5f63ddf2313cbbba2246a4", "type": "electric_scooter", "lat": 38.937067666666664, "is_disabled": 0}, {"fusion_lat": 0.0, "lon": -77.0462805, "is_reserved": 0, "bike_id": "f362d928d42ce3ed2ddafca79088e844", "fusion_lon": 0.0, "rental_uris": {"android": "https://dc.lft.to/lastmile_qr_scan", "ios": "https://dc.lft.to/lastmile_qr_scan"}, "name": "f362d928d42ce3ed2ddafca79088e844", "type": "electric_scooter", "lat": 38.923197, "is_disabled": 0}, {"fusion_lat": 0.0, "lon": -77.0244885, "is_reserved": 0, "bike_id": "78dd9fe5e36d7f7f5cf8914cdf122167", "fusion_lon": 0.0, "rental_uris": {"android": "https://dc.lft.to/lastmile_qr_scan", "ios": "https://dc.lft.to/lastmile_qr_scan"}, "name": "78dd9fe5e36d7f7f5cf8914cdf122167", "type": "electric_scooter", "lat": 38.897236166666666, "is_disabled": 0}, {"fusion_lat": 0.0, "lon": -77.03326416666667, "is_reserved": 0, "bike_id": "daf1f56afc578c559d8b01d2b68b9630", "fusion_lon": 0.0, "rental_uris": {"android": "https://dc.lft.to/lastmile_qr_scan", "ios": "https://dc.lft.to/lastmile_qr_scan"}, "name": "daf1f56afc578c559d8b01d2b68b9630", "type": "electric_scooter", "lat": 38.900151666666666, "is_disabled": 0}, {"fusion_lat": 0.0, "lon": -77.01511666666667, "is_reserved": 0, "bike_id": "a04e87e662d75eb90875ecbaf1d96dca", "fusion_lon": 0.0, "rental_uris": {"android": "https://dc.lft.to/lastmile_qr_scan", "ios": "https://dc.lft.to/lastmile_qr_scan"}, "name": "a04e87e662d75eb90875ecbaf1d96dca", "type": "electric_scooter", "lat": 38.88655983333334, "is_disabled": 0}, {"fusion_lat": 0.0, "lon": -76.99148433333333, "is_reserved": 0, "bike_id": "5fe8adc6ade5e14075913dfca7d28815", "fusion_lon": 0.0, "rental_uris": {"android": "https://dc.lft.to/lastmile_qr_scan", "ios": "https://dc.lft.to/lastmile_qr_scan"}, "name": "5fe8adc6ade5e14075913dfca7d28815", "type": "electric_scooter", "lat": 38.86318216666667, "is_disabled": 0}, {"fusion_lat": 0.0, "lon": -77.03293233333333, "is_reserved": 0, "bike_id": "60a7e13316f196f581d9b26ff62fc217", "fusion_lon": 0.0, "rental_uris": {"android": "https://dc.lft.to/lastmile_qr_scan", "ios": "https://dc.lft.to/lastmile_qr_scan"}, "name": "60a7e13316f196f581d9b26ff62fc217", "type": "electric_scooter", "lat": 38.92049516666667, "is_disabled": 0}, {"fusion_lat": 0.0, "lon": -77.04620666666666, "is_reserved": 0, "bike_id": "e472b23d1a44a392ddfd0f2596149479", "fusion_lon": 0.0, "rental_uris": {"android": "https://dc.lft.to/lastmile_qr_scan", "ios": "https://dc.lft.to/lastmile_qr_scan"}, "name": "e472b23d1a44a392ddfd0f2596149479", "type": "electric_scooter", "lat": 38.91608866666667, "is_disabled": 0}, {"fusion_lat": 0.0, "lon": -77.01982383333333, "is_reserved": 0, "bike_id": "c1ecb2a9f9e858893265b9950618a3fc", "fusion_lon": 0.0, "rental_uris": {"android": "https://dc.lft.to/lastmile_qr_scan", "ios": "https://dc.lft.to/lastmile_qr_scan"}, "name": "c1ecb2a9f9e858893265b9950618a3fc", "type": "electric_scooter", "lat": 38.88718883333333, "is_disabled": 0}, {"fusion_lat": 0.0, "lon": -77.042741, "is_reserved": 0, "bike_id": "065e173ea2bf63afb1c1e83cff490f77", "fusion_lon": 0.0, "rental_uris": {"android": "https://dc.lft.to/lastmile_qr_scan", "ios": "https://dc.lft.to/lastmile_qr_scan"}, "name": "065e173ea2bf63afb1c1e83cff490f77", "type": "electric_scooter", "lat": 38.908778166666664, "is_disabled": 0}, {"fusion_lat": 0.0, "lon": -77.04294316666666, "is_reserved": 0, "bike_id": "dad55524eb2ad28fe090531b59c75f63", "fusion_lon": 0.0, "rental_uris": {"android": "https://dc.lft.to/lastmile_qr_scan", "ios": "https://dc.lft.to/lastmile_qr_scan"}, "name": "dad55524eb2ad28fe090531b59c75f63", "type": "electric_scooter", "lat": 38.916590166666666, "is_disabled": 0}, {"fusion_lat": 0.0, "lon": -77.0445725, "is_reserved": 0, "bike_id": "8c0ecedda8e8c0b0aecceee41da9c394", "fusion_lon": 0.0, "rental_uris": {"android": "https://dc.lft.to/lastmile_qr_scan", "ios": "https://dc.lft.to/lastmile_qr_scan"}, "name": "8c0ecedda8e8c0b0aecceee41da9c394", "type": "electric_scooter", "lat": 38.92393166666667, "is_disabled": 0}, {"fusion_lat": 0.0, "lon": -77.02649766666667, "is_reserved": 0, "bike_id": "8b5803b9329d7f467d0f75973e85bb1a", "fusion_lon": 0.0, "rental_uris": {"android": "https://dc.lft.to/lastmile_qr_scan", "ios": "https://dc.lft.to/lastmile_qr_scan"}, "name": "8b5803b9329d7f467d0f75973e85bb1a", "type": "electric_scooter", "lat": 38.89217883333333, "is_disabled": 0}, {"fusion_lat": 0.0, "lon": -77.02725216666667, "is_reserved": 0, "bike_id": "c1e0a16603bea0ea39d3515b98498089", "fusion_lon": 0.0, "rental_uris": {"android": "https://dc.lft.to/lastmile_qr_scan", "ios": "https://dc.lft.to/lastmile_qr_scan"}, "name": "c1e0a16603bea0ea39d3515b98498089", "type": "electric_scooter", "lat": 38.910973, "is_disabled": 0}, {"fusion_lat": 0.0, "lon": -77.031714, "is_reserved": 0, "bike_id": "75cf7f0aa36d78a31cf662a1a7bec19d", "fusion_lon": 0.0, "rental_uris": {"android": "https://dc.lft.to/lastmile_qr_scan", "ios": "https://dc.lft.to/lastmile_qr_scan"}, "name": "75cf7f0aa36d78a31cf662a1a7bec19d", "type": "electric_scooter", "lat": 38.91572083333333, "is_disabled": 0}, {"fusion_lat": 0.0, "lon": -77.031797, "is_reserved": 0, "bike_id": "ffe954c3a037df5c515da720e75dc583", "fusion_lon": 0.0, "rental_uris": {"android": "https://dc.lft.to/lastmile_qr_scan", "ios": "https://dc.lft.to/lastmile_qr_scan"}, "name": "ffe954c3a037df5c515da720e75dc583", "type": "electric_scooter", "lat": 38.91785133333333, "is_disabled": 0}, {"fusion_lat": 0.0, "lon": -77.01215, "is_reserved": 0, "bike_id": "6f2a7e2415e2c7cf3ef33a7944623efb", "fusion_lon": 0.0, "rental_uris": {"android": "https://dc.lft.to/lastmile_qr_scan", "ios": "https://dc.lft.to/lastmile_qr_scan"}, "name": "6f2a7e2415e2c7cf3ef33a7944623efb", "type": "electric_bike", "lat": 38.8719155, "is_disabled": 0}, {"fusion_lat": 0.0, "lon": -76.99159816666666, "is_reserved": 0, "bike_id": "07122e0bb0321110c3024922846b3fbd", "fusion_lon": 0.0, "rental_uris": {"android": "https://dc.lft.to/lastmile_qr_scan", "ios": "https://dc.lft.to/lastmile_qr_scan"}, "name": "07122e0bb0321110c3024922846b3fbd", "type": "electric_scooter", "lat": 38.89801716666667, "is_disabled": 0}, {"fusion_lat": 0.0, "lon": -76.99009733333334, "is_reserved": 0, "bike_id": "3cf0ff9fd38b18a2de70628d87c78175", "fusion_lon": 0.0, "rental_uris": {"android": "https://dc.lft.to/lastmile_qr_scan", "ios": "https://dc.lft.to/lastmile_qr_scan"}, "name": "3cf0ff9fd38b18a2de70628d87c78175", "type": "electric_scooter", "lat": 38.903924833333335, "is_disabled": 0}, {"fusion_lat": 0.0, "lon": -77.04292883333333, "is_reserved": 0, "bike_id": "fdcdda57b9ab49eaf3ad9cc1268f7b03", "fusion_lon": 0.0, "rental_uris": {"android": "https://dc.lft.to/lastmile_qr_scan", "ios": "https://dc.lft.to/lastmile_qr_scan"}, "name": "fdcdda57b9ab49eaf3ad9cc1268f7b03", "type": "electric_scooter", "lat": 38.91690166666667, "is_disabled": 0}, {"fusion_lat": 0.0, "lon": -77.01405266666667, "is_reserved": 0, "bike_id": "7528d2ff5faf9735bc611d8d3f1f0a22", "fusion_lon": 0.0, "rental_uris": {"android": "https://dc.lft.to/lastmile_qr_scan", "ios": "https://dc.lft.to/lastmile_qr_scan"}, "name": "7528d2ff5faf9735bc611d8d3f1f0a22", "type": "electric_scooter", "lat": 38.88740716666667, "is_disabled": 0}, {"fusion_lat": 0.0, "lon": -77.02080933333333, "is_reserved": 0, "bike_id": "a062fcffec35790770b61eebfe2d9cc4", "fusion_lon": 0.0, "rental_uris": {"android": "https://dc.lft.to/lastmile_qr_scan", "ios": "https://dc.lft.to/lastmile_qr_scan"}, "name": "a062fcffec35790770b61eebfe2d9cc4", "type": "electric_scooter", "lat": 38.88187716666667, "is_disabled": 0}, {"fusion_lat": 0.0, "lon": -76.98471333333333, "is_reserved": 0, "bike_id": "edccd57490b770679558ab5575120830", "fusion_lon": 0.0, "rental_uris": {"android": "https://dc.lft.to/lastmile_qr_scan", "ios": "https://dc.lft.to/lastmile_qr_scan"}, "name": "edccd57490b770679558ab5575120830", "type": "electric_bike", "lat": 38.928884, "is_disabled": 0}, {"fusion_lat": 0.0, "lon": -77.02657116666667, "is_reserved": 0, "bike_id": "adf67c6489d5cff4ecbcb1d9b93a8829", "fusion_lon": 0.0, "rental_uris": {"android": "https://dc.lft.to/lastmile_qr_scan", "ios": "https://dc.lft.to/lastmile_qr_scan"}, "name": "adf67c6489d5cff4ecbcb1d9b93a8829", "type": "electric_scooter", "lat": 38.8921565, "is_disabled": 0}, {"fusion_lat": 0.0, "lon": -76.95647516666666, "is_reserved": 0, "bike_id": "6397f2cafc617875ecfcbe8db0a5ab06", "fusion_lon": 0.0, "rental_uris": {"android": "https://dc.lft.to/lastmile_qr_scan", "ios": "https://dc.lft.to/lastmile_qr_scan"}, "name": "6397f2cafc617875ecfcbe8db0a5ab06", "type": "electric_scooter", "lat": 38.89546133333333, "is_disabled": 0}, {"fusion_lat": 0.0, "lon": -77.030788, "is_reserved": 0, "bike_id": "f0c165974cd9c6705b8565966ad53e90", "fusion_lon": 0.0, "rental_uris": {"android": "https://dc.lft.to/lastmile_qr_scan", "ios": "https://dc.lft.to/lastmile_qr_scan"}, "name": "f0c165974cd9c6705b8565966ad53e90", "type": "electric_scooter", "lat": 38.90568533333333, "is_disabled": 0}, {"fusion_lat": 0.0, "lon": -77.17840166666667, "is_reserved": 0, "bike_id": "2fce3e524bc359b77115a12223ae93b6", "fusion_lon": 0.0, "rental_uris": {"android": "https://dc.lft.to/lastmile_qr_scan", "ios": "https://dc.lft.to/lastmile_qr_scan"}, "name": "2fce3e524bc359b77115a12223ae93b6", "type": "electric_bike", "lat": 39.088579333333335, "is_disabled": 0}, {"fusion_lat": 0.0, "lon": -77.02848133333333, "is_reserved": 0, "bike_id": "f73c6e86ffedb484086f42ee9982f353", "fusion_lon": 0.0, "rental_uris": {"android": "https://dc.lft.to/lastmile_qr_scan", "ios": "https://dc.lft.to/lastmile_qr_scan"}, "name": "f73c6e86ffedb484086f42ee9982f353", "type": "electric_scooter", "lat": 38.91268816666667, "is_disabled": 0}, {"fusion_lat": 0.0, "lon": -77.0176005, "is_reserved": 0, "bike_id": "74df912793013127e421998813b0a78b", "fusion_lon": 0.0, "rental_uris": {"android": "https://dc.lft.to/lastmile_qr_scan", "ios": "https://dc.lft.to/lastmile_qr_scan"}, "name": "74df912793013127e421998813b0a78b", "type": "electric_scooter", "lat": 38.9026055, "is_disabled": 0}, {"fusion_lat": 0.0, "lon": -77.0483285, "is_reserved": 0, "bike_id": "94cbb73c96fd608593daf191f4aa161f", "fusion_lon": 0.0, "rental_uris": {"android": "https://dc.lft.to/lastmile_qr_scan", "ios": "https://dc.lft.to/lastmile_qr_scan"}, "name": "94cbb73c96fd608593daf191f4aa161f", "type": "electric_scooter", "lat": 38.907193, "is_disabled": 0}, {"fusion_lat": 0.0, "lon": -77.05812116666667, "is_reserved": 0, "bike_id": "1fb2ef618836131b61821ab567d0fe17", "fusion_lon": 0.0, "rental_uris": {"android": "https://dc.lft.to/lastmile_qr_scan", "ios": "https://dc.lft.to/lastmile_qr_scan"}, "name": "1fb2ef618836131b61821ab567d0fe17", "type": "electric_scooter", "lat": 38.9350535, "is_disabled": 0}, {"fusion_lat": 0.0, "lon": -77.0022135, "is_reserved": 0, "bike_id": "f5fe84fcfdcca99e81611d279962138c", "fusion_lon": 0.0, "rental_uris": {"android": "https://dc.lft.to/lastmile_qr_scan", "ios": "https://dc.lft.to/lastmile_qr_scan"}, "name": "f5fe84fcfdcca99e81611d279962138c", "type": "electric_scooter", "lat": 38.894827666666664, "is_disabled": 0}, {"fusion_lat": 0.0, "lon": -77.04679466666667, "is_reserved": 0, "bike_id": "59885139b0138393478cbc3b3dd778d3", "fusion_lon": 0.0, "rental_uris": {"android": "https://dc.lft.to/lastmile_qr_scan", "ios": "https://dc.lft.to/lastmile_qr_scan"}, "name": "59885139b0138393478cbc3b3dd778d3", "type": "electric_scooter", "lat": 38.90733616666667, "is_disabled": 0}, {"fusion_lat": 0.0, "lon": -77.025364, "is_reserved": 0, "bike_id": "c9bdaf812673ac6ff2047e5b3a1b5d21", "fusion_lon": 0.0, "rental_uris": {"android": "https://dc.lft.to/lastmile_qr_scan", "ios": "https://dc.lft.to/lastmile_qr_scan"}, "name": "c9bdaf812673ac6ff2047e5b3a1b5d21", "type": "electric_scooter", "lat": 38.927402666666666, "is_disabled": 0}, {"fusion_lat": 0.0, "lon": -77.04486066666666, "is_reserved": 0, "bike_id": "8a6ac344a3e27a49eb62849555efa4b5", "fusion_lon": 0.0, "rental_uris": {"android": "https://dc.lft.to/lastmile_qr_scan", "ios": "https://dc.lft.to/lastmile_qr_scan"}, "name": "8a6ac344a3e27a49eb62849555efa4b5", "type": "electric_scooter", "lat": 38.9070565, "is_disabled": 0}, {"fusion_lat": 0.0, "lon": -77.0611955, "is_reserved": 0, "bike_id": "c87c7b0b53fb1cb2ee0a3db1f7932fb9", "fusion_lon": 0.0, "rental_uris": {"android": "https://dc.lft.to/lastmile_qr_scan", "ios": "https://dc.lft.to/lastmile_qr_scan"}, "name": "c87c7b0b53fb1cb2ee0a3db1f7932fb9", "type": "electric_scooter", "lat": 38.943516833333334, "is_disabled": 0}, {"fusion_lat": 0.0, "lon": -77.022008, "is_reserved": 0, "bike_id": "3e4cc447c03c6031ddc576873268a9f9", "fusion_lon": 0.0, "rental_uris": {"android": "https://dc.lft.to/lastmile_qr_scan", "ios": "https://dc.lft.to/lastmile_qr_scan"}, "name": "3e4cc447c03c6031ddc576873268a9f9", "type": "electric_scooter", "lat": 38.900418333333334, "is_disabled": 0}, {"fusion_lat": 0.0, "lon": -77.02154483333334, "is_reserved": 0, "bike_id": "2ab524b280a3efb29cdf6089eb56968e", "fusion_lon": 0.0, "rental_uris": {"android": "https://dc.lft.to/lastmile_qr_scan", "ios": "https://dc.lft.to/lastmile_qr_scan"}, "name": "2ab524b280a3efb29cdf6089eb56968e", "type": "electric_scooter", "lat": 38.9260465, "is_disabled": 0}, {"fusion_lat": 0.0, "lon": -77.032096, "is_reserved": 0, "bike_id": "8b6225383fea982186038baff44684a3", "fusion_lon": 0.0, "rental_uris": {"android": "https://dc.lft.to/lastmile_qr_scan", "ios": "https://dc.lft.to/lastmile_qr_scan"}, "name": "8b6225383fea982186038baff44684a3", "type": "electric_scooter", "lat": 38.8953095, "is_disabled": 0}, {"fusion_lat": 0.0, "lon": -77.02180133333333, "is_reserved": 0, "bike_id": "1bc4caec86f8871e084684f2e73e3ed7", "fusion_lon": 0.0, "rental_uris": {"android": "https://dc.lft.to/lastmile_qr_scan", "ios": "https://dc.lft.to/lastmile_qr_scan"}, "name": "1bc4caec86f8871e084684f2e73e3ed7", "type": "electric_scooter", "lat": 38.9095075, "is_disabled": 0}, {"fusion_lat": 0.0, "lon": -77.03706233333334, "is_reserved": 0, "bike_id": "4cd143d00350bb00e447d1a509a0fec3", "fusion_lon": 0.0, "rental_uris": {"android": "https://dc.lft.to/lastmile_qr_scan", "ios": "https://dc.lft.to/lastmile_qr_scan"}, "name": "4cd143d00350bb00e447d1a509a0fec3", "type": "electric_scooter", "lat": 38.92633716666667, "is_disabled": 0}, {"fusion_lat": 0.0, "lon": -77.04356533333333, "is_reserved": 0, "bike_id": "0048ca00243129db3706dc5b6cbb28e7", "fusion_lon": 0.0, "rental_uris": {"android": "https://dc.lft.to/lastmile_qr_scan", "ios": "https://dc.lft.to/lastmile_qr_scan"}, "name": "0048ca00243129db3706dc5b6cbb28e7", "type": "electric_scooter", "lat": 38.908807, "is_disabled": 0}, {"fusion_lat": 0.0, "lon": -77.02690783333334, "is_reserved": 0, "bike_id": "817abc15295befc199ec6b956667c5f2", "fusion_lon": 0.0, "rental_uris": {"android": "https://dc.lft.to/lastmile_qr_scan", "ios": "https://dc.lft.to/lastmile_qr_scan"}, "name": "817abc15295befc199ec6b956667c5f2", "type": "electric_scooter", "lat": 38.9181515, "is_disabled": 0}, {"fusion_lat": 0.0, "lon": -77.0296415, "is_reserved": 0, "bike_id": "cb5649a357bc568a2b2a80b16dd2fb12", "fusion_lon": 0.0, "rental_uris": {"android": "https://dc.lft.to/lastmile_qr_scan", "ios": "https://dc.lft.to/lastmile_qr_scan"}, "name": "cb5649a357bc568a2b2a80b16dd2fb12", "type": "electric_scooter", "lat": 38.925684333333336, "is_disabled": 0}, {"fusion_lat": 0.0, "lon": -77.06402933333334, "is_reserved": 0, "bike_id": "5ba503cfc0a72b310b3ae7c582a676b0", "fusion_lon": 0.0, "rental_uris": {"android": "https://dc.lft.to/lastmile_qr_scan", "ios": "https://dc.lft.to/lastmile_qr_scan"}, "name": "5ba503cfc0a72b310b3ae7c582a676b0", "type": "electric_scooter", "lat": 38.943279833333335, "is_disabled": 0}, {"fusion_lat": 0.0, "lon": -77.03833616666667, "is_reserved": 0, "bike_id": "e152bbcfa88ad8e8e9467d2e2e63870e", "fusion_lon": 0.0, "rental_uris": {"android": "https://dc.lft.to/lastmile_qr_scan", "ios": "https://dc.lft.to/lastmile_qr_scan"}, "name": "e152bbcfa88ad8e8e9467d2e2e63870e", "type": "electric_scooter", "lat": 38.911874, "is_disabled": 0}, {"fusion_lat": 0.0, "lon": -77.025928, "is_reserved": 0, "bike_id": "e421594c735508c435311b9ca697f5d4", "fusion_lon": 0.0, "rental_uris": {"android": "https://dc.lft.to/lastmile_qr_scan", "ios": "https://dc.lft.to/lastmile_qr_scan"}, "name": "e421594c735508c435311b9ca697f5d4", "type": "electric_scooter", "lat": 38.90503016666667, "is_disabled": 0}, {"fusion_lat": 0.0, "lon": -76.937348, "is_reserved": 0, "bike_id": "391c10e3229036a8ffe5b76822e110a7", "fusion_lon": 0.0, "rental_uris": {"android": "https://dc.lft.to/lastmile_qr_scan", "ios": "https://dc.lft.to/lastmile_qr_scan"}, "name": "391c10e3229036a8ffe5b76822e110a7", "type": "electric_scooter", "lat": 38.89012616666667, "is_disabled": 0}, {"fusion_lat": 0.0, "lon": -76.99035533333333, "is_reserved": 0, "bike_id": "312f3c0038f0538e3d48ef1cfb23fb3b", "fusion_lon": 0.0, "rental_uris": {"android": "https://dc.lft.to/lastmile_qr_scan", "ios": "https://dc.lft.to/lastmile_qr_scan"}, "name": "312f3c0038f0538e3d48ef1cfb23fb3b", "type": "electric_scooter", "lat": 38.902871, "is_disabled": 0}, {"fusion_lat": 0.0, "lon": -77.07383833333333, "is_reserved": 0, "bike_id": "e2c2b7577dd81e01c47dc4db10493959", "fusion_lon": 0.0, "rental_uris": {"android": "https://dc.lft.to/lastmile_qr_scan", "ios": "https://dc.lft.to/lastmile_qr_scan"}, "name": "e2c2b7577dd81e01c47dc4db10493959", "type": "electric_bike", "lat": 38.961775333333335, "is_disabled": 0}, {"fusion_lat": 0.0, "lon": -77.08580816666667, "is_reserved": 0, "bike_id": "b77a8ad10f01323ff152cec9d2beb899", "fusion_lon": 0.0, "rental_uris": {"android": "https://dc.lft.to/lastmile_qr_scan", "ios": "https://dc.lft.to/lastmile_qr_scan"}, "name": "b77a8ad10f01323ff152cec9d2beb899", "type": "electric_bike", "lat": 38.84427683333333, "is_disabled": 0}, {"fusion_lat": 0.0, "lon": -77.005973, "is_reserved": 0, "bike_id": "75a87411a9eb249cca94ce6541314f3d", "fusion_lon": 0.0, "rental_uris": {"android": "https://dc.lft.to/lastmile_qr_scan", "ios": "https://dc.lft.to/lastmile_qr_scan"}, "name": "75a87411a9eb249cca94ce6541314f3d", "type": "electric_scooter", "lat": 38.885198833333334, "is_disabled": 0}, {"fusion_lat": 0.0, "lon": -77.02491333333333, "is_reserved": 0, "bike_id": "63f53e014d23a9069278e03b1bcf7277", "fusion_lon": 0.0, "rental_uris": {"android": "https://dc.lft.to/lastmile_qr_scan", "ios": "https://dc.lft.to/lastmile_qr_scan"}, "name": "63f53e014d23a9069278e03b1bcf7277", "type": "electric_scooter", "lat": 38.94181783333333, "is_disabled": 0}, {"fusion_lat": 0.0, "lon": -76.990348, "is_reserved": 0, "bike_id": "cad877e8e9b839bab8c4adde1419f3cf", "fusion_lon": 0.0, "rental_uris": {"android": "https://dc.lft.to/lastmile_qr_scan", "ios": "https://dc.lft.to/lastmile_qr_scan"}, "name": "cad877e8e9b839bab8c4adde1419f3cf", "type": "electric_scooter", "lat": 38.863761, "is_disabled": 0}, {"fusion_lat": 0.0, "lon": -77.0410035, "is_reserved": 0, "bike_id": "cc0635135fbd6b0d2ebaa8a770194f99", "fusion_lon": 0.0, "rental_uris": {"android": "https://dc.lft.to/lastmile_qr_scan", "ios": "https://dc.lft.to/lastmile_qr_scan"}, "name": "cc0635135fbd6b0d2ebaa8a770194f99", "type": "electric_scooter", "lat": 38.9177505, "is_disabled": 0}, {"fusion_lat": 0.0, "lon": -77.03425383333334, "is_reserved": 0, "bike_id": "0116b3b5f69239155f8905b6d7bcac3f", "fusion_lon": 0.0, "rental_uris": {"android": "https://dc.lft.to/lastmile_qr_scan", "ios": "https://dc.lft.to/lastmile_qr_scan"}, "name": "0116b3b5f69239155f8905b6d7bcac3f", "type": "electric_scooter", "lat": 38.91934766666667, "is_disabled": 0}, {"fusion_lat": 0.0, "lon": -77.03267316666667, "is_reserved": 0, "bike_id": "2e41a049c4d260fbb499972a4c422245", "fusion_lon": 0.0, "rental_uris": {"android": "https://dc.lft.to/lastmile_qr_scan", "ios": "https://dc.lft.to/lastmile_qr_scan"}, "name": "2e41a049c4d260fbb499972a4c422245", "type": "electric_scooter", "lat": 38.918136, "is_disabled": 0}, {"fusion_lat": 0.0, "lon": -77.03485283333333, "is_reserved": 0, "bike_id": "56401fef0652a87fd10ac8bea0ed64ec", "fusion_lon": 0.0, "rental_uris": {"android": "https://dc.lft.to/lastmile_qr_scan", "ios": "https://dc.lft.to/lastmile_qr_scan"}, "name": "56401fef0652a87fd10ac8bea0ed64ec", "type": "electric_scooter", "lat": 38.9215095, "is_disabled": 0}, {"fusion_lat": 0.0, "lon": -77.03284066666667, "is_reserved": 0, "bike_id": "56e804b9b370b8d4c1f4969e4d83bc13", "fusion_lon": 0.0, "rental_uris": {"android": "https://dc.lft.to/lastmile_qr_scan", "ios": "https://dc.lft.to/lastmile_qr_scan"}, "name": "56e804b9b370b8d4c1f4969e4d83bc13", "type": "electric_scooter", "lat": 38.93400033333333, "is_disabled": 0}, {"fusion_lat": 0.0, "lon": -77.0433585, "is_reserved": 0, "bike_id": "d858c8d443567dcd95490da662943ded", "fusion_lon": 0.0, "rental_uris": {"android": "https://dc.lft.to/lastmile_qr_scan", "ios": "https://dc.lft.to/lastmile_qr_scan"}, "name": "d858c8d443567dcd95490da662943ded", "type": "electric_scooter", "lat": 38.8922645, "is_disabled": 0}, {"fusion_lat": 0.0, "lon": -77.0061945, "is_reserved": 0, "bike_id": "7640576f1b43e017fcd3a92d140f0094", "fusion_lon": 0.0, "rental_uris": {"android": "https://dc.lft.to/lastmile_qr_scan", "ios": "https://dc.lft.to/lastmile_qr_scan"}, "name": "7640576f1b43e017fcd3a92d140f0094", "type": "electric_scooter", "lat": 38.8717155, "is_disabled": 0}, {"fusion_lat": 0.0, "lon": -76.98388233333333, "is_reserved": 0, "bike_id": "2941d864b1e7788b724f20a41388569e", "fusion_lon": 0.0, "rental_uris": {"android": "https://dc.lft.to/lastmile_qr_scan", "ios": "https://dc.lft.to/lastmile_qr_scan"}, "name": "2941d864b1e7788b724f20a41388569e", "type": "electric_scooter", "lat": 38.926951333333335, "is_disabled": 0}, {"fusion_lat": 0.0, "lon": -77.04507566666666, "is_reserved": 0, "bike_id": "75c2680cdee9a6095966af7d2a063f6d", "fusion_lon": 0.0, "rental_uris": {"android": "https://dc.lft.to/lastmile_qr_scan", "ios": "https://dc.lft.to/lastmile_qr_scan"}, "name": "75c2680cdee9a6095966af7d2a063f6d", "type": "electric_scooter", "lat": 38.91108666666667, "is_disabled": 0}, {"fusion_lat": 0.0, "lon": -77.032074, "is_reserved": 0, "bike_id": "f2a668305feda78e926d0e5b09f7a8bd", "fusion_lon": 0.0, "rental_uris": {"android": "https://dc.lft.to/lastmile_qr_scan", "ios": "https://dc.lft.to/lastmile_qr_scan"}, "name": "f2a668305feda78e926d0e5b09f7a8bd", "type": "electric_scooter", "lat": 38.9132785, "is_disabled": 0}, {"fusion_lat": 0.0, "lon": -77.0205615, "is_reserved": 0, "bike_id": "c9d75e09e44786480d37bdb5601eb4fb", "fusion_lon": 0.0, "rental_uris": {"android": "https://dc.lft.to/lastmile_qr_scan", "ios": "https://dc.lft.to/lastmile_qr_scan"}, "name": "c9d75e09e44786480d37bdb5601eb4fb", "type": "electric_scooter", "lat": 38.92192033333333, "is_disabled": 0}, {"fusion_lat": 0.0, "lon": -77.027009, "is_reserved": 0, "bike_id": "9a64d1a05b8452f3ebf5a4393e39f2f0", "fusion_lon": 0.0, "rental_uris": {"android": "https://dc.lft.to/lastmile_qr_scan", "ios": "https://dc.lft.to/lastmile_qr_scan"}, "name": "9a64d1a05b8452f3ebf5a4393e39f2f0", "type": "electric_scooter", "lat": 38.915797166666664, "is_disabled": 0}, {"fusion_lat": 0.0, "lon": -76.97609566666667, "is_reserved": 0, "bike_id": "40e872a38d7f2bcf7b578f71ee7c455d", "fusion_lon": 0.0, "rental_uris": {"android": "https://dc.lft.to/lastmile_qr_scan", "ios": "https://dc.lft.to/lastmile_qr_scan"}, "name": "40e872a38d7f2bcf7b578f71ee7c455d", "type": "electric_scooter", "lat": 38.91293816666666, "is_disabled": 0}, {"fusion_lat": 0.0, "lon": -77.03609266666666, "is_reserved": 0, "bike_id": "0efe1876b38b5479e34781b8816d965d", "fusion_lon": 0.0, "rental_uris": {"android": "https://dc.lft.to/lastmile_qr_scan", "ios": "https://dc.lft.to/lastmile_qr_scan"}, "name": "0efe1876b38b5479e34781b8816d965d", "type": "electric_scooter", "lat": 38.9303975, "is_disabled": 0}, {"fusion_lat": 0.0, "lon": -77.07821666666666, "is_reserved": 0, "bike_id": "00833b74d122f05d74ca48e5805c49e2", "fusion_lon": 0.0, "rental_uris": {"android": "https://dc.lft.to/lastmile_qr_scan", "ios": "https://dc.lft.to/lastmile_qr_scan"}, "name": "00833b74d122f05d74ca48e5805c49e2", "type": "electric_bike", "lat": 38.93637316666667, "is_disabled": 0}, {"fusion_lat": 0.0, "lon": -77.025964, "is_reserved": 0, "bike_id": "af4a3ed9986ba8574779e79837b1ec84", "fusion_lon": 0.0, "rental_uris": {"android": "https://dc.lft.to/lastmile_qr_scan", "ios": "https://dc.lft.to/lastmile_qr_scan"}, "name": "af4a3ed9986ba8574779e79837b1ec84", "type": "electric_scooter", "lat": 38.894272666666666, "is_disabled": 0}, {"fusion_lat": 0.0, "lon": -76.9807145, "is_reserved": 0, "bike_id": "127678930397cfa4f71f56cdf99001a9", "fusion_lon": 0.0, "rental_uris": {"android": "https://dc.lft.to/lastmile_qr_scan", "ios": "https://dc.lft.to/lastmile_qr_scan"}, "name": "127678930397cfa4f71f56cdf99001a9", "type": "electric_scooter", "lat": 38.901689, "is_disabled": 0}, {"fusion_lat": 0.0, "lon": -77.0422655, "is_reserved": 0, "bike_id": "e36dbe8bd11c01018d66e74ac9a4bce9", "fusion_lon": 0.0, "rental_uris": {"android": "https://dc.lft.to/lastmile_qr_scan", "ios": "https://dc.lft.to/lastmile_qr_scan"}, "name": "e36dbe8bd11c01018d66e74ac9a4bce9", "type": "electric_scooter", "lat": 38.93149783333333, "is_disabled": 0}, {"fusion_lat": 0.0, "lon": -77.045786, "is_reserved": 0, "bike_id": "d652b09a1d508d63adc4e43101fae15c", "fusion_lon": 0.0, "rental_uris": {"android": "https://dc.lft.to/lastmile_qr_scan", "ios": "https://dc.lft.to/lastmile_qr_scan"}, "name": "d652b09a1d508d63adc4e43101fae15c", "type": "electric_scooter", "lat": 38.9212695, "is_disabled": 0}, {"fusion_lat": 0.0, "lon": -76.98836066666667, "is_reserved": 0, "bike_id": "aff92f62cc29bea1861f90004cf99eff", "fusion_lon": 0.0, "rental_uris": {"android": "https://dc.lft.to/lastmile_qr_scan", "ios": "https://dc.lft.to/lastmile_qr_scan"}, "name": "aff92f62cc29bea1861f90004cf99eff", "type": "electric_bike", "lat": 38.84274716666667, "is_disabled": 0}, {"fusion_lat": 0.0, "lon": -77.022285, "is_reserved": 0, "bike_id": "e06fbd26e531c0cc762329ab2f93eefa", "fusion_lon": 0.0, "rental_uris": {"android": "https://dc.lft.to/lastmile_qr_scan", "ios": "https://dc.lft.to/lastmile_qr_scan"}, "name": "e06fbd26e531c0cc762329ab2f93eefa", "type": "electric_scooter", "lat": 38.8921985, "is_disabled": 0}, {"fusion_lat": 0.0, "lon": -77.0564725, "is_reserved": 0, "bike_id": "197008e0bcbee527675e3076a6161c20", "fusion_lon": 0.0, "rental_uris": {"android": "https://dc.lft.to/lastmile_qr_scan", "ios": "https://dc.lft.to/lastmile_qr_scan"}, "name": "197008e0bcbee527675e3076a6161c20", "type": "electric_scooter", "lat": 38.90766383333333, "is_disabled": 0}, {"fusion_lat": 0.0, "lon": -76.97022583333333, "is_reserved": 0, "bike_id": "c15fff47cfa097d75a8dd2463d81ce81", "fusion_lon": 0.0, "rental_uris": {"android": "https://dc.lft.to/lastmile_qr_scan", "ios": "https://dc.lft.to/lastmile_qr_scan"}, "name": "c15fff47cfa097d75a8dd2463d81ce81", "type": "electric_scooter", "lat": 38.9253705, "is_disabled": 0}, {"fusion_lat": 0.0, "lon": -76.98766716666667, "is_reserved": 0, "bike_id": "91f8336499c2e08dd16a172b98b0cd4f", "fusion_lon": 0.0, "rental_uris": {"android": "https://dc.lft.to/lastmile_qr_scan", "ios": "https://dc.lft.to/lastmile_qr_scan"}, "name": "91f8336499c2e08dd16a172b98b0cd4f", "type": "electric_scooter", "lat": 38.900330333333336, "is_disabled": 0}, {"fusion_lat": 0.0, "lon": -76.99777766666666, "is_reserved": 0, "bike_id": "89d8f2baf5b5dca76e50689b04299aeb", "fusion_lon": 0.0, "rental_uris": {"android": "https://dc.lft.to/lastmile_qr_scan", "ios": "https://dc.lft.to/lastmile_qr_scan"}, "name": "89d8f2baf5b5dca76e50689b04299aeb", "type": "electric_scooter", "lat": 38.8443115, "is_disabled": 0}, {"fusion_lat": 0.0, "lon": -77.01766533333333, "is_reserved": 0, "bike_id": "a7254cc8d50fe7b085997a68154c0dfe", "fusion_lon": 0.0, "rental_uris": {"android": "https://dc.lft.to/lastmile_qr_scan", "ios": "https://dc.lft.to/lastmile_qr_scan"}, "name": "a7254cc8d50fe7b085997a68154c0dfe", "type": "electric_scooter", "lat": 38.876879, "is_disabled": 0}, {"fusion_lat": 0.0, "lon": -77.03464283333334, "is_reserved": 0, "bike_id": "0dbd7f34c20b48c2b53edd7652577ebc", "fusion_lon": 0.0, "rental_uris": {"android": "https://dc.lft.to/lastmile_qr_scan", "ios": "https://dc.lft.to/lastmile_qr_scan"}, "name": "0dbd7f34c20b48c2b53edd7652577ebc", "type": "electric_scooter", "lat": 38.9080865, "is_disabled": 0}, {"fusion_lat": 0.0, "lon": -77.0284815, "is_reserved": 0, "bike_id": "50c3d46888d957b414fe4e3839859d13", "fusion_lon": 0.0, "rental_uris": {"android": "https://dc.lft.to/lastmile_qr_scan", "ios": "https://dc.lft.to/lastmile_qr_scan"}, "name": "50c3d46888d957b414fe4e3839859d13", "type": "electric_scooter", "lat": 38.88739916666667, "is_disabled": 0}, {"fusion_lat": 0.0, "lon": -77.04147433333333, "is_reserved": 0, "bike_id": "ac5ca5733e3818bb48ec692a2976394f", "fusion_lon": 0.0, "rental_uris": {"android": "https://dc.lft.to/lastmile_qr_scan", "ios": "https://dc.lft.to/lastmile_qr_scan"}, "name": "ac5ca5733e3818bb48ec692a2976394f", "type": "electric_scooter", "lat": 38.892247, "is_disabled": 0}, {"fusion_lat": 0.0, "lon": -77.00967216666666, "is_reserved": 0, "bike_id": "20eed57f7027e402ae2a617a1bef2917", "fusion_lon": 0.0, "rental_uris": {"android": "https://dc.lft.to/lastmile_qr_scan", "ios": "https://dc.lft.to/lastmile_qr_scan"}, "name": "20eed57f7027e402ae2a617a1bef2917", "type": "electric_scooter", "lat": 38.89746616666667, "is_disabled": 0}, {"fusion_lat": 0.0, "lon": -77.06670583333333, "is_reserved": 0, "bike_id": "582ff74902c4a0245be0fea6cebb1f6f", "fusion_lon": 0.0, "rental_uris": {"android": "https://dc.lft.to/lastmile_qr_scan", "ios": "https://dc.lft.to/lastmile_qr_scan"}, "name": "582ff74902c4a0245be0fea6cebb1f6f", "type": "electric_scooter", "lat": 38.94940883333334, "is_disabled": 0}, {"fusion_lat": 0.0, "lon": -76.937579, "is_reserved": 0, "bike_id": "33d4f7dcb880f9fd67eefa45e4ed15e7", "fusion_lon": 0.0, "rental_uris": {"android": "https://dc.lft.to/lastmile_qr_scan", "ios": "https://dc.lft.to/lastmile_qr_scan"}, "name": "33d4f7dcb880f9fd67eefa45e4ed15e7", "type": "electric_scooter", "lat": 38.90368566666667, "is_disabled": 0}, {"fusion_lat": 0.0, "lon": -77.03432283333333, "is_reserved": 0, "bike_id": "9a62e36d8f72e5ee809518f4f38ea1f9", "fusion_lon": 0.0, "rental_uris": {"android": "https://dc.lft.to/lastmile_qr_scan", "ios": "https://dc.lft.to/lastmile_qr_scan"}, "name": "9a62e36d8f72e5ee809518f4f38ea1f9", "type": "electric_scooter", "lat": 38.919428833333335, "is_disabled": 0}, {"fusion_lat": 0.0, "lon": -76.9988485, "is_reserved": 0, "bike_id": "71ed132f3f297048394fb6e998d793d6", "fusion_lon": 0.0, "rental_uris": {"android": "https://dc.lft.to/lastmile_qr_scan", "ios": "https://dc.lft.to/lastmile_qr_scan"}, "name": "71ed132f3f297048394fb6e998d793d6", "type": "electric_scooter", "lat": 38.92052733333333, "is_disabled": 0}, {"fusion_lat": 0.0, "lon": -77.03635333333334, "is_reserved": 0, "bike_id": "835ead1485f4aebdcf762634ee7f83ee", "fusion_lon": 0.0, "rental_uris": {"android": "https://dc.lft.to/lastmile_qr_scan", "ios": "https://dc.lft.to/lastmile_qr_scan"}, "name": "835ead1485f4aebdcf762634ee7f83ee", "type": "electric_scooter", "lat": 38.936744833333336, "is_disabled": 0}, {"fusion_lat": 0.0, "lon": -77.20839033333333, "is_reserved": 0, "bike_id": "ff62edc90a32baa454d9df70dc808d01", "fusion_lon": 0.0, "rental_uris": {"android": "https://dc.lft.to/lastmile_qr_scan", "ios": "https://dc.lft.to/lastmile_qr_scan"}, "name": "ff62edc90a32baa454d9df70dc808d01", "type": "electric_bike", "lat": 38.924589166666664, "is_disabled": 0}, {"fusion_lat": 0.0, "lon": -77.03722033333334, "is_reserved": 0, "bike_id": "5d06dc2bf5cd17e468d7f1b1bdc7233a", "fusion_lon": 0.0, "rental_uris": {"android": "https://dc.lft.to/lastmile_qr_scan", "ios": "https://dc.lft.to/lastmile_qr_scan"}, "name": "5d06dc2bf5cd17e468d7f1b1bdc7233a", "type": "electric_scooter", "lat": 38.935636833333334, "is_disabled": 0}, {"fusion_lat": 0.0, "lon": -77.02279916666667, "is_reserved": 0, "bike_id": "7a104f9ee0b3714e4a44ca12556861c0", "fusion_lon": 0.0, "rental_uris": {"android": "https://dc.lft.to/lastmile_qr_scan", "ios": "https://dc.lft.to/lastmile_qr_scan"}, "name": "7a104f9ee0b3714e4a44ca12556861c0", "type": "electric_scooter", "lat": 38.912247666666666, "is_disabled": 0}, {"fusion_lat": 0.0, "lon": -76.9869715, "is_reserved": 0, "bike_id": "73a93e4b75bfa003bbf8433aedc1bb54", "fusion_lon": 0.0, "rental_uris": {"android": "https://dc.lft.to/lastmile_qr_scan", "ios": "https://dc.lft.to/lastmile_qr_scan"}, "name": "73a93e4b75bfa003bbf8433aedc1bb54", "type": "electric_scooter", "lat": 38.86252416666667, "is_disabled": 0}, {"fusion_lat": 0.0, "lon": -77.01161533333334, "is_reserved": 0, "bike_id": "d0eac24c85eb5740eb78dc60f4edb940", "fusion_lon": 0.0, "rental_uris": {"android": "https://dc.lft.to/lastmile_qr_scan", "ios": "https://dc.lft.to/lastmile_qr_scan"}, "name": "d0eac24c85eb5740eb78dc60f4edb940", "type": "electric_scooter", "lat": 38.900295166666666, "is_disabled": 0}, {"fusion_lat": 0.0, "lon": -77.06327416666667, "is_reserved": 0, "bike_id": "609e3962a94169b957935f0c5f3fc65a", "fusion_lon": 0.0, "rental_uris": {"android": "https://dc.lft.to/lastmile_qr_scan", "ios": "https://dc.lft.to/lastmile_qr_scan"}, "name": "609e3962a94169b957935f0c5f3fc65a", "type": "electric_scooter", "lat": 38.90767966666667, "is_disabled": 0}, {"fusion_lat": 0.0, "lon": -77.0213625, "is_reserved": 0, "bike_id": "88cb6ecc5c8bcb3d2c6c256c6b738663", "fusion_lon": 0.0, "rental_uris": {"android": "https://dc.lft.to/lastmile_qr_scan", "ios": "https://dc.lft.to/lastmile_qr_scan"}, "name": "88cb6ecc5c8bcb3d2c6c256c6b738663", "type": "electric_scooter", "lat": 38.92319033333333, "is_disabled": 0}, {"fusion_lat": 0.0, "lon": -77.0325315, "is_reserved": 0, "bike_id": "4feee497b69aebeaed6d2d1a7282ebf1", "fusion_lon": 0.0, "rental_uris": {"android": "https://dc.lft.to/lastmile_qr_scan", "ios": "https://dc.lft.to/lastmile_qr_scan"}, "name": "4feee497b69aebeaed6d2d1a7282ebf1", "type": "electric_scooter", "lat": 38.90445166666667, "is_disabled": 0}, {"fusion_lat": 0.0, "lon": -77.007309, "is_reserved": 0, "bike_id": "8a18ea920ed280754aad7b6e8413511a", "fusion_lon": 0.0, "rental_uris": {"android": "https://dc.lft.to/lastmile_qr_scan", "ios": "https://dc.lft.to/lastmile_qr_scan"}, "name": "8a18ea920ed280754aad7b6e8413511a", "type": "electric_scooter", "lat": 38.89706966666667, "is_disabled": 0}, {"fusion_lat": 0.0, "lon": -76.98194383333333, "is_reserved": 0, "bike_id": "9aecfdcf31f618cde953b42aa15c0bf9", "fusion_lon": 0.0, "rental_uris": {"android": "https://dc.lft.to/lastmile_qr_scan", "ios": "https://dc.lft.to/lastmile_qr_scan"}, "name": "9aecfdcf31f618cde953b42aa15c0bf9", "type": "electric_scooter", "lat": 38.902824, "is_disabled": 0}, {"fusion_lat": 0.0, "lon": -77.02765066666667, "is_reserved": 0, "bike_id": "3031019838d029967e61c84830cf9c99", "fusion_lon": 0.0, "rental_uris": {"android": "https://dc.lft.to/lastmile_qr_scan", "ios": "https://dc.lft.to/lastmile_qr_scan"}, "name": "3031019838d029967e61c84830cf9c99", "type": "electric_scooter", "lat": 38.9542415, "is_disabled": 0}, {"fusion_lat": 0.0, "lon": -77.04539533333333, "is_reserved": 0, "bike_id": "3e6844915ce10524d729fec036547082", "fusion_lon": 0.0, "rental_uris": {"android": "https://dc.lft.to/lastmile_qr_scan", "ios": "https://dc.lft.to/lastmile_qr_scan"}, "name": "3e6844915ce10524d729fec036547082", "type": "electric_scooter", "lat": 38.89609083333333, "is_disabled": 0}, {"fusion_lat": 0.0, "lon": -77.13239266666666, "is_reserved": 0, "bike_id": "9a7422d62cf202f6fa9a3a54fe67c080", "fusion_lon": 0.0, "rental_uris": {"android": "https://dc.lft.to/lastmile_qr_scan", "ios": "https://dc.lft.to/lastmile_qr_scan"}, "name": "9a7422d62cf202f6fa9a3a54fe67c080", "type": "electric_bike", "lat": 38.80559216666666, "is_disabled": 0}, {"fusion_lat": 0.0, "lon": -77.03158333333333, "is_reserved": 0, "bike_id": "16bc749da24dd13ce60149005a58d60a", "fusion_lon": 0.0, "rental_uris": {"android": "https://dc.lft.to/lastmile_qr_scan", "ios": "https://dc.lft.to/lastmile_qr_scan"}, "name": "16bc749da24dd13ce60149005a58d60a", "type": "electric_scooter", "lat": 38.90603483333334, "is_disabled": 0}, {"fusion_lat": 0.0, "lon": -77.022815, "is_reserved": 0, "bike_id": "0affd00f9db1ed5340e724f76d91bc7c", "fusion_lon": 0.0, "rental_uris": {"android": "https://dc.lft.to/lastmile_qr_scan", "ios": "https://dc.lft.to/lastmile_qr_scan"}, "name": "0affd00f9db1ed5340e724f76d91bc7c", "type": "electric_scooter", "lat": 38.935281833333335, "is_disabled": 0}, {"fusion_lat": 0.0, "lon": -77.0534445, "is_reserved": 0, "bike_id": "3e38ede9e7228c6023c59de1f6b6ee17", "fusion_lon": 0.0, "rental_uris": {"android": "https://dc.lft.to/lastmile_qr_scan", "ios": "https://dc.lft.to/lastmile_qr_scan"}, "name": "3e38ede9e7228c6023c59de1f6b6ee17", "type": "electric_scooter", "lat": 38.92349266666667, "is_disabled": 0}, {"fusion_lat": 0.0, "lon": -77.00004166666666, "is_reserved": 0, "bike_id": "3f3f199cc90c240d3d6e9dacab84e866", "fusion_lon": 0.0, "rental_uris": {"android": "https://dc.lft.to/lastmile_qr_scan", "ios": "https://dc.lft.to/lastmile_qr_scan"}, "name": "3f3f199cc90c240d3d6e9dacab84e866", "type": "electric_scooter", "lat": 38.907663166666666, "is_disabled": 0}, {"fusion_lat": 0.0, "lon": -77.04237416666666, "is_reserved": 0, "bike_id": "96c0c5850cc88c2b8f5903353111baac", "fusion_lon": 0.0, "rental_uris": {"android": "https://dc.lft.to/lastmile_qr_scan", "ios": "https://dc.lft.to/lastmile_qr_scan"}, "name": "96c0c5850cc88c2b8f5903353111baac", "type": "electric_scooter", "lat": 38.911167, "is_disabled": 0}, {"fusion_lat": 0.0, "lon": -77.02868733333334, "is_reserved": 0, "bike_id": "d50b55a2e5d7884bbb25e6f0dfce1b7f", "fusion_lon": 0.0, "rental_uris": {"android": "https://dc.lft.to/lastmile_qr_scan", "ios": "https://dc.lft.to/lastmile_qr_scan"}, "name": "d50b55a2e5d7884bbb25e6f0dfce1b7f", "type": "electric_scooter", "lat": 38.950881, "is_disabled": 0}, {"fusion_lat": 0.0, "lon": -77.06294983333333, "is_reserved": 0, "bike_id": "2318f0f3f072ba2a0c6165586dbde7b3", "fusion_lon": 0.0, "rental_uris": {"android": "https://dc.lft.to/lastmile_qr_scan", "ios": "https://dc.lft.to/lastmile_qr_scan"}, "name": "2318f0f3f072ba2a0c6165586dbde7b3", "type": "electric_scooter", "lat": 38.9039525, "is_disabled": 0}, {"fusion_lat": 0.0, "lon": -77.00190883333333, "is_reserved": 0, "bike_id": "f497768ed152d42a9e55e52594607408", "fusion_lon": 0.0, "rental_uris": {"android": "https://dc.lft.to/lastmile_qr_scan", "ios": "https://dc.lft.to/lastmile_qr_scan"}, "name": "f497768ed152d42a9e55e52594607408", "type": "electric_scooter", "lat": 38.9037675, "is_disabled": 0}, {"fusion_lat": 0.0, "lon": -77.03787533333333, "is_reserved": 0, "bike_id": "93adf35b6e184afe00dc70ef55b69039", "fusion_lon": 0.0, "rental_uris": {"android": "https://dc.lft.to/lastmile_qr_scan", "ios": "https://dc.lft.to/lastmile_qr_scan"}, "name": "93adf35b6e184afe00dc70ef55b69039", "type": "electric_scooter", "lat": 38.925026333333335, "is_disabled": 0}, {"fusion_lat": 0.0, "lon": -77.07276833333333, "is_reserved": 0, "bike_id": "55f0521a41bae4896af0ab8ea1a08586", "fusion_lon": 0.0, "rental_uris": {"android": "https://dc.lft.to/lastmile_qr_scan", "ios": "https://dc.lft.to/lastmile_qr_scan"}, "name": "55f0521a41bae4896af0ab8ea1a08586", "type": "electric_scooter", "lat": 38.9348515, "is_disabled": 0}, {"fusion_lat": 0.0, "lon": -77.02939433333333, "is_reserved": 0, "bike_id": "ebb978f1ab1f07c9bb3f2c94d08509aa", "fusion_lon": 0.0, "rental_uris": {"android": "https://dc.lft.to/lastmile_qr_scan", "ios": "https://dc.lft.to/lastmile_qr_scan"}, "name": "ebb978f1ab1f07c9bb3f2c94d08509aa", "type": "electric_scooter", "lat": 38.9324305, "is_disabled": 0}, {"fusion_lat": 0.0, "lon": -77.03813983333333, "is_reserved": 0, "bike_id": "70a815d46995bfa81e5c9c1d1d1c6923", "fusion_lon": 0.0, "rental_uris": {"android": "https://dc.lft.to/lastmile_qr_scan", "ios": "https://dc.lft.to/lastmile_qr_scan"}, "name": "70a815d46995bfa81e5c9c1d1d1c6923", "type": "electric_scooter", "lat": 38.909720666666665, "is_disabled": 0}, {"fusion_lat": 0.0, "lon": -77.0386085, "is_reserved": 0, "bike_id": "e37269d4cd217a9c105345e2bcdb08ee", "fusion_lon": 0.0, "rental_uris": {"android": "https://dc.lft.to/lastmile_qr_scan", "ios": "https://dc.lft.to/lastmile_qr_scan"}, "name": "e37269d4cd217a9c105345e2bcdb08ee", "type": "electric_scooter", "lat": 38.906622, "is_disabled": 0}, {"fusion_lat": 0.0, "lon": -77.02309833333334, "is_reserved": 0, "bike_id": "5f9de1c7223c9add43d3f3f36458e3b9", "fusion_lon": 0.0, "rental_uris": {"android": "https://dc.lft.to/lastmile_qr_scan", "ios": "https://dc.lft.to/lastmile_qr_scan"}, "name": "5f9de1c7223c9add43d3f3f36458e3b9", "type": "electric_scooter", "lat": 38.91789216666667, "is_disabled": 0}, {"fusion_lat": 0.0, "lon": -77.01775366666666, "is_reserved": 0, "bike_id": "79b3d874ba1b30c56da336db8f69b5c5", "fusion_lon": 0.0, "rental_uris": {"android": "https://dc.lft.to/lastmile_qr_scan", "ios": "https://dc.lft.to/lastmile_qr_scan"}, "name": "79b3d874ba1b30c56da336db8f69b5c5", "type": "electric_scooter", "lat": 38.8770225, "is_disabled": 0}, {"fusion_lat": 0.0, "lon": -77.07254366666666, "is_reserved": 0, "bike_id": "00eb86e1d6fdffed54f5541ec272377f", "fusion_lon": 0.0, "rental_uris": {"android": "https://dc.lft.to/lastmile_qr_scan", "ios": "https://dc.lft.to/lastmile_qr_scan"}, "name": "00eb86e1d6fdffed54f5541ec272377f", "type": "electric_scooter", "lat": 38.95967566666667, "is_disabled": 0}, {"fusion_lat": 0.0, "lon": -77.018194, "is_reserved": 0, "bike_id": "114494a9a1240b5519e97ec8c9159be5", "fusion_lon": 0.0, "rental_uris": {"android": "https://dc.lft.to/lastmile_qr_scan", "ios": "https://dc.lft.to/lastmile_qr_scan"}, "name": "114494a9a1240b5519e97ec8c9159be5", "type": "electric_scooter", "lat": 38.92368716666667, "is_disabled": 0}, {"fusion_lat": 0.0, "lon": -76.984639, "is_reserved": 0, "bike_id": "b278e6c58ed40eb636faab397c1b37ea", "fusion_lon": 0.0, "rental_uris": {"android": "https://dc.lft.to/lastmile_qr_scan", "ios": "https://dc.lft.to/lastmile_qr_scan"}, "name": "b278e6c58ed40eb636faab397c1b37ea", "type": "electric_scooter", "lat": 38.900087666666664, "is_disabled": 0}, {"fusion_lat": 0.0, "lon": -77.0125775, "is_reserved": 0, "bike_id": "4cc597ac83dab7466504b9a621121f52", "fusion_lon": 0.0, "rental_uris": {"android": "https://dc.lft.to/lastmile_qr_scan", "ios": "https://dc.lft.to/lastmile_qr_scan"}, "name": "4cc597ac83dab7466504b9a621121f52", "type": "electric_scooter", "lat": 38.90849633333333, "is_disabled": 0}, {"fusion_lat": 0.0, "lon": -77.02383233333333, "is_reserved": 0, "bike_id": "b411ce80cff7b6c68f8270b002276b58", "fusion_lon": 0.0, "rental_uris": {"android": "https://dc.lft.to/lastmile_qr_scan", "ios": "https://dc.lft.to/lastmile_qr_scan"}, "name": "b411ce80cff7b6c68f8270b002276b58", "type": "electric_scooter", "lat": 38.929086, "is_disabled": 0}, {"fusion_lat": 0.0, "lon": -77.00587466666667, "is_reserved": 0, "bike_id": "35a8668f775a0d62085915daf63ab7a4", "fusion_lon": 0.0, "rental_uris": {"android": "https://dc.lft.to/lastmile_qr_scan", "ios": "https://dc.lft.to/lastmile_qr_scan"}, "name": "35a8668f775a0d62085915daf63ab7a4", "type": "electric_scooter", "lat": 38.8754965, "is_disabled": 0}, {"fusion_lat": 0.0, "lon": -77.03831966666667, "is_reserved": 0, "bike_id": "c10b3003db90c34edf4b66624d7bb763", "fusion_lon": 0.0, "rental_uris": {"android": "https://dc.lft.to/lastmile_qr_scan", "ios": "https://dc.lft.to/lastmile_qr_scan"}, "name": "c10b3003db90c34edf4b66624d7bb763", "type": "electric_scooter", "lat": 38.911134, "is_disabled": 0}, {"fusion_lat": 0.0, "lon": -77.045432, "is_reserved": 0, "bike_id": "50089bc9aa405fca870dce5e64550251", "fusion_lon": 0.0, "rental_uris": {"android": "https://dc.lft.to/lastmile_qr_scan", "ios": "https://dc.lft.to/lastmile_qr_scan"}, "name": "50089bc9aa405fca870dce5e64550251", "type": "electric_scooter", "lat": 38.90953566666666, "is_disabled": 0}, {"fusion_lat": 0.0, "lon": -77.05137016666667, "is_reserved": 0, "bike_id": "89b7cac3a177b809a0a6ecfa6af00778", "fusion_lon": 0.0, "rental_uris": {"android": "https://dc.lft.to/lastmile_qr_scan", "ios": "https://dc.lft.to/lastmile_qr_scan"}, "name": "89b7cac3a177b809a0a6ecfa6af00778", "type": "electric_scooter", "lat": 38.897482, "is_disabled": 0}, {"fusion_lat": 0.0, "lon": -77.000658, "is_reserved": 0, "bike_id": "8ed9a05dfeb3ad508260af5d1417e4ab", "fusion_lon": 0.0, "rental_uris": {"android": "https://dc.lft.to/lastmile_qr_scan", "ios": "https://dc.lft.to/lastmile_qr_scan"}, "name": "8ed9a05dfeb3ad508260af5d1417e4ab", "type": "electric_scooter", "lat": 38.900457, "is_disabled": 0}, {"fusion_lat": 0.0, "lon": -77.03173283333334, "is_reserved": 0, "bike_id": "4380d67eb47f8f9b7c08eb21bc957d35", "fusion_lon": 0.0, "rental_uris": {"android": "https://dc.lft.to/lastmile_qr_scan", "ios": "https://dc.lft.to/lastmile_qr_scan"}, "name": "4380d67eb47f8f9b7c08eb21bc957d35", "type": "electric_scooter", "lat": 38.915552166666664, "is_disabled": 0}, {"fusion_lat": 0.0, "lon": -77.04405616666666, "is_reserved": 0, "bike_id": "ae3532ef383af84c1b48bc3ef8f85364", "fusion_lon": 0.0, "rental_uris": {"android": "https://dc.lft.to/lastmile_qr_scan", "ios": "https://dc.lft.to/lastmile_qr_scan"}, "name": "ae3532ef383af84c1b48bc3ef8f85364", "type": "electric_scooter", "lat": 38.9135445, "is_disabled": 0}, {"fusion_lat": 0.0, "lon": -77.04393066666667, "is_reserved": 0, "bike_id": "2cf0bf0c8e12f85d457b013360dcaeb2", "fusion_lon": 0.0, "rental_uris": {"android": "https://dc.lft.to/lastmile_qr_scan", "ios": "https://dc.lft.to/lastmile_qr_scan"}, "name": "2cf0bf0c8e12f85d457b013360dcaeb2", "type": "electric_scooter", "lat": 38.932662, "is_disabled": 0}, {"fusion_lat": 0.0, "lon": -77.01759033333333, "is_reserved": 0, "bike_id": "dcee0fc083594ba05a5f1de243092549", "fusion_lon": 0.0, "rental_uris": {"android": "https://dc.lft.to/lastmile_qr_scan", "ios": "https://dc.lft.to/lastmile_qr_scan"}, "name": "dcee0fc083594ba05a5f1de243092549", "type": "electric_scooter", "lat": 38.9026515, "is_disabled": 0}, {"fusion_lat": 0.0, "lon": -77.05955733333333, "is_reserved": 0, "bike_id": "0e777f35f2e4961cfb60f32c990b0ce9", "fusion_lon": 0.0, "rental_uris": {"android": "https://dc.lft.to/lastmile_qr_scan", "ios": "https://dc.lft.to/lastmile_qr_scan"}, "name": "0e777f35f2e4961cfb60f32c990b0ce9", "type": "electric_scooter", "lat": 38.90762766666667, "is_disabled": 0}, {"fusion_lat": 0.0, "lon": -77.02222466666667, "is_reserved": 0, "bike_id": "69a2b56128baaf6890a40c4037d35fb3", "fusion_lon": 0.0, "rental_uris": {"android": "https://dc.lft.to/lastmile_qr_scan", "ios": "https://dc.lft.to/lastmile_qr_scan"}, "name": "69a2b56128baaf6890a40c4037d35fb3", "type": "electric_scooter", "lat": 38.905569, "is_disabled": 0}, {"fusion_lat": 0.0, "lon": -76.93610516666666, "is_reserved": 0, "bike_id": "70cb8f97d9ac69d88253dccc42f1aaee", "fusion_lon": 0.0, "rental_uris": {"android": "https://dc.lft.to/lastmile_qr_scan", "ios": "https://dc.lft.to/lastmile_qr_scan"}, "name": "70cb8f97d9ac69d88253dccc42f1aaee", "type": "electric_scooter", "lat": 38.8968225, "is_disabled": 0}, {"fusion_lat": 0.0, "lon": -77.03196916666667, "is_reserved": 0, "bike_id": "eb23d2ceb6781c00df2c31160277ea5b", "fusion_lon": 0.0, "rental_uris": {"android": "https://dc.lft.to/lastmile_qr_scan", "ios": "https://dc.lft.to/lastmile_qr_scan"}, "name": "eb23d2ceb6781c00df2c31160277ea5b", "type": "electric_scooter", "lat": 38.9206845, "is_disabled": 0}, {"fusion_lat": 0.0, "lon": -77.035702, "is_reserved": 0, "bike_id": "939f34e6b8d141976c58fda56e51eecc", "fusion_lon": 0.0, "rental_uris": {"android": "https://dc.lft.to/lastmile_qr_scan", "ios": "https://dc.lft.to/lastmile_qr_scan"}, "name": "939f34e6b8d141976c58fda56e51eecc", "type": "electric_scooter", "lat": 38.90957683333333, "is_disabled": 0}, {"fusion_lat": 0.0, "lon": -77.02404116666666, "is_reserved": 0, "bike_id": "24d3a21ff8536bee41ce9601733d0f50", "fusion_lon": 0.0, "rental_uris": {"android": "https://dc.lft.to/lastmile_qr_scan", "ios": "https://dc.lft.to/lastmile_qr_scan"}, "name": "24d3a21ff8536bee41ce9601733d0f50", "type": "electric_scooter", "lat": 38.92064466666667, "is_disabled": 0}, {"fusion_lat": 0.0, "lon": -76.975318, "is_reserved": 0, "bike_id": "6c044c94afc94ec46a4348b1e445062f", "fusion_lon": 0.0, "rental_uris": {"android": "https://dc.lft.to/lastmile_qr_scan", "ios": "https://dc.lft.to/lastmile_qr_scan"}, "name": "6c044c94afc94ec46a4348b1e445062f", "type": "electric_scooter", "lat": 38.89955583333333, "is_disabled": 0}, {"fusion_lat": 0.0, "lon": -76.97941383333334, "is_reserved": 0, "bike_id": "f0a390ae7d686601890dea90e24a1dcd", "fusion_lon": 0.0, "rental_uris": {"android": "https://dc.lft.to/lastmile_qr_scan", "ios": "https://dc.lft.to/lastmile_qr_scan"}, "name": "f0a390ae7d686601890dea90e24a1dcd", "type": "electric_scooter", "lat": 38.901879666666666, "is_disabled": 0}, {"fusion_lat": 0.0, "lon": -77.02560583333333, "is_reserved": 0, "bike_id": "775b0d1934f7f4195179b88fc721896a", "fusion_lon": 0.0, "rental_uris": {"android": "https://dc.lft.to/lastmile_qr_scan", "ios": "https://dc.lft.to/lastmile_qr_scan"}, "name": "775b0d1934f7f4195179b88fc721896a", "type": "electric_scooter", "lat": 38.930764333333336, "is_disabled": 0}, {"fusion_lat": 0.0, "lon": -77.03870066666667, "is_reserved": 0, "bike_id": "2409956dec851c85df09921e32ff4365", "fusion_lon": 0.0, "rental_uris": {"android": "https://dc.lft.to/lastmile_qr_scan", "ios": "https://dc.lft.to/lastmile_qr_scan"}, "name": "2409956dec851c85df09921e32ff4365", "type": "electric_scooter", "lat": 38.92152433333333, "is_disabled": 0}, {"fusion_lat": 0.0, "lon": -77.00619716666667, "is_reserved": 0, "bike_id": "004a3740cd057b5d2fdd6008f4e3b513", "fusion_lon": 0.0, "rental_uris": {"android": "https://dc.lft.to/lastmile_qr_scan", "ios": "https://dc.lft.to/lastmile_qr_scan"}, "name": "004a3740cd057b5d2fdd6008f4e3b513", "type": "electric_scooter", "lat": 38.871669, "is_disabled": 0}, {"fusion_lat": 0.0, "lon": -77.07146666666667, "is_reserved": 0, "bike_id": "656c8c06a06d724e06e8e7fedc24a3d5", "fusion_lon": 0.0, "rental_uris": {"android": "https://dc.lft.to/lastmile_qr_scan", "ios": "https://dc.lft.to/lastmile_qr_scan"}, "name": "656c8c06a06d724e06e8e7fedc24a3d5", "type": "electric_scooter", "lat": 38.94556, "is_disabled": 0}, {"fusion_lat": 0.0, "lon": -77.05476783333333, "is_reserved": 0, "bike_id": "a674eee424570d6f3146cda20f5b4dd2", "fusion_lon": 0.0, "rental_uris": {"android": "https://dc.lft.to/lastmile_qr_scan", "ios": "https://dc.lft.to/lastmile_qr_scan"}, "name": "a674eee424570d6f3146cda20f5b4dd2", "type": "electric_scooter", "lat": 38.910598666666665, "is_disabled": 0}, {"fusion_lat": 0.0, "lon": -77.06657716666666, "is_reserved": 0, "bike_id": "4f518f4bd79828da4d5e442ea8b8695e", "fusion_lon": 0.0, "rental_uris": {"android": "https://dc.lft.to/lastmile_qr_scan", "ios": "https://dc.lft.to/lastmile_qr_scan"}, "name": "4f518f4bd79828da4d5e442ea8b8695e", "type": "electric_scooter", "lat": 38.94966466666666, "is_disabled": 0}, {"fusion_lat": 0.0, "lon": -77.02627783333334, "is_reserved": 0, "bike_id": "fc82c2a1180ac9e013678b20d51786e7", "fusion_lon": 0.0, "rental_uris": {"android": "https://dc.lft.to/lastmile_qr_scan", "ios": "https://dc.lft.to/lastmile_qr_scan"}, "name": "fc82c2a1180ac9e013678b20d51786e7", "type": "electric_bike", "lat": 38.962198, "is_disabled": 0}, {"fusion_lat": 0.0, "lon": -77.019277, "is_reserved": 0, "bike_id": "ecb3d57a8ef444ad5c39b139cfa9bb1d", "fusion_lon": 0.0, "rental_uris": {"android": "https://dc.lft.to/lastmile_qr_scan", "ios": "https://dc.lft.to/lastmile_qr_scan"}, "name": "ecb3d57a8ef444ad5c39b139cfa9bb1d", "type": "electric_scooter", "lat": 38.90232783333333, "is_disabled": 0}, {"fusion_lat": 0.0, "lon": -77.03437233333334, "is_reserved": 0, "bike_id": "a535afdbefe73ffd8084204aebbd2501", "fusion_lon": 0.0, "rental_uris": {"android": "https://dc.lft.to/lastmile_qr_scan", "ios": "https://dc.lft.to/lastmile_qr_scan"}, "name": "a535afdbefe73ffd8084204aebbd2501", "type": "electric_scooter", "lat": 38.91806366666667, "is_disabled": 0}, {"fusion_lat": 0.0, "lon": -77.02171066666666, "is_reserved": 0, "bike_id": "e11a0388cd4464c44bb473ddfcdebfa2", "fusion_lon": 0.0, "rental_uris": {"android": "https://dc.lft.to/lastmile_qr_scan", "ios": "https://dc.lft.to/lastmile_qr_scan"}, "name": "e11a0388cd4464c44bb473ddfcdebfa2", "type": "electric_scooter", "lat": 38.942866333333335, "is_disabled": 0}, {"fusion_lat": 0.0, "lon": -77.02369766666666, "is_reserved": 0, "bike_id": "a2ce4964837c410ce29f39863993ebc6", "fusion_lon": 0.0, "rental_uris": {"android": "https://dc.lft.to/lastmile_qr_scan", "ios": "https://dc.lft.to/lastmile_qr_scan"}, "name": "a2ce4964837c410ce29f39863993ebc6", "type": "electric_scooter", "lat": 38.8995555, "is_disabled": 0}, {"fusion_lat": 0.0, "lon": -77.02765866666667, "is_reserved": 0, "bike_id": "5cee79a878a69c2f706a851b3f60abc3", "fusion_lon": 0.0, "rental_uris": {"android": "https://dc.lft.to/lastmile_qr_scan", "ios": "https://dc.lft.to/lastmile_qr_scan"}, "name": "5cee79a878a69c2f706a851b3f60abc3", "type": "electric_scooter", "lat": 38.954278, "is_disabled": 0}, {"fusion_lat": 0.0, "lon": -77.02280633333334, "is_reserved": 0, "bike_id": "c83ba3c0cbdf01cf0f0b574b055d1c7a", "fusion_lon": 0.0, "rental_uris": {"android": "https://dc.lft.to/lastmile_qr_scan", "ios": "https://dc.lft.to/lastmile_qr_scan"}, "name": "c83ba3c0cbdf01cf0f0b574b055d1c7a", "type": "electric_scooter", "lat": 38.89841233333333, "is_disabled": 0}, {"fusion_lat": 0.0, "lon": -76.96603716666667, "is_reserved": 0, "bike_id": "6fcb9e31b15699eb682e639b2386c472", "fusion_lon": 0.0, "rental_uris": {"android": "https://dc.lft.to/lastmile_qr_scan", "ios": "https://dc.lft.to/lastmile_qr_scan"}, "name": "6fcb9e31b15699eb682e639b2386c472", "type": "electric_scooter", "lat": 38.871104333333335, "is_disabled": 0}, {"fusion_lat": 0.0, "lon": -76.99373866666667, "is_reserved": 0, "bike_id": "7c4421d661d6beb66bda3b248e56dbcd", "fusion_lon": 0.0, "rental_uris": {"android": "https://dc.lft.to/lastmile_qr_scan", "ios": "https://dc.lft.to/lastmile_qr_scan"}, "name": "7c4421d661d6beb66bda3b248e56dbcd", "type": "electric_bike", "lat": 38.92300783333334, "is_disabled": 0}, {"fusion_lat": 0.0, "lon": -77.03255983333334, "is_reserved": 0, "bike_id": "febd2edbfc8971abc5d76ac7d75bff7f", "fusion_lon": 0.0, "rental_uris": {"android": "https://dc.lft.to/lastmile_qr_scan", "ios": "https://dc.lft.to/lastmile_qr_scan"}, "name": "febd2edbfc8971abc5d76ac7d75bff7f", "type": "electric_scooter", "lat": 38.928997833333334, "is_disabled": 0}, {"fusion_lat": 0.0, "lon": -77.03478133333333, "is_reserved": 0, "bike_id": "df5dc851bdcdb9fc946f217a9e1fd6e9", "fusion_lon": 0.0, "rental_uris": {"android": "https://dc.lft.to/lastmile_qr_scan", "ios": "https://dc.lft.to/lastmile_qr_scan"}, "name": "df5dc851bdcdb9fc946f217a9e1fd6e9", "type": "electric_scooter", "lat": 38.92532283333333, "is_disabled": 0}, {"fusion_lat": 0.0, "lon": -76.97799416666666, "is_reserved": 0, "bike_id": "8cb0c85df2bac00a251b97b74be02e66", "fusion_lon": 0.0, "rental_uris": {"android": "https://dc.lft.to/lastmile_qr_scan", "ios": "https://dc.lft.to/lastmile_qr_scan"}, "name": "8cb0c85df2bac00a251b97b74be02e66", "type": "electric_scooter", "lat": 38.90314983333333, "is_disabled": 0}, {"fusion_lat": 0.0, "lon": -77.021141, "is_reserved": 0, "bike_id": "b6e9ee8d941ffccd83fbc4a3f2491212", "fusion_lon": 0.0, "rental_uris": {"android": "https://dc.lft.to/lastmile_qr_scan", "ios": "https://dc.lft.to/lastmile_qr_scan"}, "name": "b6e9ee8d941ffccd83fbc4a3f2491212", "type": "electric_scooter", "lat": 38.89468983333333, "is_disabled": 0}, {"fusion_lat": 0.0, "lon": -77.03850683333333, "is_reserved": 0, "bike_id": "eef710845883ab045b9a6e0af1992961", "fusion_lon": 0.0, "rental_uris": {"android": "https://dc.lft.to/lastmile_qr_scan", "ios": "https://dc.lft.to/lastmile_qr_scan"}, "name": "eef710845883ab045b9a6e0af1992961", "type": "electric_scooter", "lat": 38.912781, "is_disabled": 0}, {"fusion_lat": 0.0, "lon": -77.02653683333334, "is_reserved": 0, "bike_id": "90008365bcd4ddcffd1f31d5585d4180", "fusion_lon": 0.0, "rental_uris": {"android": "https://dc.lft.to/lastmile_qr_scan", "ios": "https://dc.lft.to/lastmile_qr_scan"}, "name": "90008365bcd4ddcffd1f31d5585d4180", "type": "electric_scooter", "lat": 38.8921645, "is_disabled": 0}, {"fusion_lat": 0.0, "lon": -77.0386575, "is_reserved": 0, "bike_id": "14a2c1e85d013a3e44a84dbd7d3673bd", "fusion_lon": 0.0, "rental_uris": {"android": "https://dc.lft.to/lastmile_qr_scan", "ios": "https://dc.lft.to/lastmile_qr_scan"}, "name": "14a2c1e85d013a3e44a84dbd7d3673bd", "type": "electric_scooter", "lat": 38.915469, "is_disabled": 0}, {"fusion_lat": 0.0, "lon": -77.00927316666667, "is_reserved": 0, "bike_id": "7b27fc8acac2e4ef4f2b53432164147b", "fusion_lon": 0.0, "rental_uris": {"android": "https://dc.lft.to/lastmile_qr_scan", "ios": "https://dc.lft.to/lastmile_qr_scan"}, "name": "7b27fc8acac2e4ef4f2b53432164147b", "type": "electric_scooter", "lat": 38.918031666666664, "is_disabled": 0}, {"fusion_lat": 0.0, "lon": -77.04357783333333, "is_reserved": 0, "bike_id": "df85aca3012e8cfd4f0a91fb53bacf6d", "fusion_lon": 0.0, "rental_uris": {"android": "https://dc.lft.to/lastmile_qr_scan", "ios": "https://dc.lft.to/lastmile_qr_scan"}, "name": "df85aca3012e8cfd4f0a91fb53bacf6d", "type": "electric_scooter", "lat": 38.89229533333334, "is_disabled": 0}, {"fusion_lat": 0.0, "lon": -77.02514283333333, "is_reserved": 0, "bike_id": "4a833e9621b93f5b9af68ef92e4673ee", "fusion_lon": 0.0, "rental_uris": {"android": "https://dc.lft.to/lastmile_qr_scan", "ios": "https://dc.lft.to/lastmile_qr_scan"}, "name": "4a833e9621b93f5b9af68ef92e4673ee", "type": "electric_scooter", "lat": 38.92078983333333, "is_disabled": 0}, {"fusion_lat": 0.0, "lon": -77.03222216666667, "is_reserved": 0, "bike_id": "d05fade6012c1cf913106897986378ee", "fusion_lon": 0.0, "rental_uris": {"android": "https://dc.lft.to/lastmile_qr_scan", "ios": "https://dc.lft.to/lastmile_qr_scan"}, "name": "d05fade6012c1cf913106897986378ee", "type": "electric_scooter", "lat": 38.892251333333334, "is_disabled": 0}, {"fusion_lat": 0.0, "lon": -77.0043375, "is_reserved": 0, "bike_id": "6d20080d983ec797724b43dfa35e867e", "fusion_lon": 0.0, "rental_uris": {"android": "https://dc.lft.to/lastmile_qr_scan", "ios": "https://dc.lft.to/lastmile_qr_scan"}, "name": "6d20080d983ec797724b43dfa35e867e", "type": "electric_scooter", "lat": 38.90554433333333, "is_disabled": 0}, {"fusion_lat": 0.0, "lon": -77.02768983333333, "is_reserved": 0, "bike_id": "4051bbf12969547c334bfb34d83771ab", "fusion_lon": 0.0, "rental_uris": {"android": "https://dc.lft.to/lastmile_qr_scan", "ios": "https://dc.lft.to/lastmile_qr_scan"}, "name": "4051bbf12969547c334bfb34d83771ab", "type": "electric_scooter", "lat": 38.954158166666666, "is_disabled": 0}, {"fusion_lat": 0.0, "lon": -77.03305016666667, "is_reserved": 0, "bike_id": "33d626c147e470d6e1a2db63004fb53f", "fusion_lon": 0.0, "rental_uris": {"android": "https://dc.lft.to/lastmile_qr_scan", "ios": "https://dc.lft.to/lastmile_qr_scan"}, "name": "33d626c147e470d6e1a2db63004fb53f", "type": "electric_scooter", "lat": 38.9563605, "is_disabled": 0}, {"fusion_lat": 0.0, "lon": -77.0587515, "is_reserved": 0, "bike_id": "34f58850beea47e8ab351cd7049bf946", "fusion_lon": 0.0, "rental_uris": {"android": "https://dc.lft.to/lastmile_qr_scan", "ios": "https://dc.lft.to/lastmile_qr_scan"}, "name": "34f58850beea47e8ab351cd7049bf946", "type": "electric_scooter", "lat": 38.94299516666667, "is_disabled": 0}, {"fusion_lat": 0.0, "lon": -76.99081833333334, "is_reserved": 0, "bike_id": "3c3c5d257197bdbe4931008d9efa0bbf", "fusion_lon": 0.0, "rental_uris": {"android": "https://dc.lft.to/lastmile_qr_scan", "ios": "https://dc.lft.to/lastmile_qr_scan"}, "name": "3c3c5d257197bdbe4931008d9efa0bbf", "type": "electric_bike", "lat": 38.862361666666665, "is_disabled": 0}, {"fusion_lat": 0.0, "lon": -76.99029683333333, "is_reserved": 0, "bike_id": "bf4e39ee84f4308052df114c08e43b6d", "fusion_lon": 0.0, "rental_uris": {"android": "https://dc.lft.to/lastmile_qr_scan", "ios": "https://dc.lft.to/lastmile_qr_scan"}, "name": "bf4e39ee84f4308052df114c08e43b6d", "type": "electric_scooter", "lat": 38.898518, "is_disabled": 0}, {"fusion_lat": 0.0, "lon": -77.03848466666666, "is_reserved": 0, "bike_id": "cc2ab97981560bf63dd563e89c5042fc", "fusion_lon": 0.0, "rental_uris": {"android": "https://dc.lft.to/lastmile_qr_scan", "ios": "https://dc.lft.to/lastmile_qr_scan"}, "name": "cc2ab97981560bf63dd563e89c5042fc", "type": "electric_scooter", "lat": 38.903623833333334, "is_disabled": 0}, {"fusion_lat": 0.0, "lon": -77.026875, "is_reserved": 0, "bike_id": "174598170ae284c267df8f5f8cb4ad05", "fusion_lon": 0.0, "rental_uris": {"android": "https://dc.lft.to/lastmile_qr_scan", "ios": "https://dc.lft.to/lastmile_qr_scan"}, "name": "174598170ae284c267df8f5f8cb4ad05", "type": "electric_scooter", "lat": 38.91813583333333, "is_disabled": 0}, {"fusion_lat": 0.0, "lon": -77.01983816666667, "is_reserved": 0, "bike_id": "a0c0684bdecd26ba677e75d74da7e15f", "fusion_lon": 0.0, "rental_uris": {"android": "https://dc.lft.to/lastmile_qr_scan", "ios": "https://dc.lft.to/lastmile_qr_scan"}, "name": "a0c0684bdecd26ba677e75d74da7e15f", "type": "electric_bike", "lat": 38.9226885, "is_disabled": 0}, {"fusion_lat": 0.0, "lon": -77.06981033333334, "is_reserved": 0, "bike_id": "d5a1600b528d9d9a582bb38365656eaf", "fusion_lon": 0.0, "rental_uris": {"android": "https://dc.lft.to/lastmile_qr_scan", "ios": "https://dc.lft.to/lastmile_qr_scan"}, "name": "d5a1600b528d9d9a582bb38365656eaf", "type": "electric_scooter", "lat": 38.952519833333334, "is_disabled": 0}, {"fusion_lat": 0.0, "lon": -76.98925116666666, "is_reserved": 0, "bike_id": "8dcead43c2f9447814c3753996f8a2c0", "fusion_lon": 0.0, "rental_uris": {"android": "https://dc.lft.to/lastmile_qr_scan", "ios": "https://dc.lft.to/lastmile_qr_scan"}, "name": "8dcead43c2f9447814c3753996f8a2c0", "type": "electric_scooter", "lat": 38.8581085, "is_disabled": 0}, {"fusion_lat": 0.0, "lon": -77.01365566666666, "is_reserved": 0, "bike_id": "ec4492bd8083cc53608ef9c016979e4e", "fusion_lon": 0.0, "rental_uris": {"android": "https://dc.lft.to/lastmile_qr_scan", "ios": "https://dc.lft.to/lastmile_qr_scan"}, "name": "ec4492bd8083cc53608ef9c016979e4e", "type": "electric_scooter", "lat": 38.87583683333333, "is_disabled": 0}, {"fusion_lat": 0.0, "lon": -77.00340933333334, "is_reserved": 0, "bike_id": "71053b7648b884477115e88ed7a6d234", "fusion_lon": 0.0, "rental_uris": {"android": "https://dc.lft.to/lastmile_qr_scan", "ios": "https://dc.lft.to/lastmile_qr_scan"}, "name": "71053b7648b884477115e88ed7a6d234", "type": "electric_scooter", "lat": 38.91609583333333, "is_disabled": 0}, {"fusion_lat": 0.0, "lon": -77.002062, "is_reserved": 0, "bike_id": "dbff9b83f4bb5a38e45ec600dcc7ef24", "fusion_lon": 0.0, "rental_uris": {"android": "https://dc.lft.to/lastmile_qr_scan", "ios": "https://dc.lft.to/lastmile_qr_scan"}, "name": "dbff9b83f4bb5a38e45ec600dcc7ef24", "type": "electric_scooter", "lat": 38.900302833333335, "is_disabled": 0}, {"fusion_lat": 0.0, "lon": -76.90703183333333, "is_reserved": 0, "bike_id": "dfa49167357ab68ed0cf177050087533", "fusion_lon": 0.0, "rental_uris": {"android": "https://dc.lft.to/lastmile_qr_scan", "ios": "https://dc.lft.to/lastmile_qr_scan"}, "name": "dfa49167357ab68ed0cf177050087533", "type": "electric_bike", "lat": 38.895944166666666, "is_disabled": 0}, {"fusion_lat": 0.0, "lon": -76.980838, "is_reserved": 0, "bike_id": "b60df876c63cf06fe267bd456c15aef8", "fusion_lon": 0.0, "rental_uris": {"android": "https://dc.lft.to/lastmile_qr_scan", "ios": "https://dc.lft.to/lastmile_qr_scan"}, "name": "b60df876c63cf06fe267bd456c15aef8", "type": "electric_bike", "lat": 38.953537833333336, "is_disabled": 0}, {"fusion_lat": 0.0, "lon": -77.02185316666667, "is_reserved": 0, "bike_id": "251e89ccb19ec427583ad2106d4046b5", "fusion_lon": 0.0, "rental_uris": {"android": "https://dc.lft.to/lastmile_qr_scan", "ios": "https://dc.lft.to/lastmile_qr_scan"}, "name": "251e89ccb19ec427583ad2106d4046b5", "type": "electric_scooter", "lat": 38.909522333333335, "is_disabled": 0}, {"fusion_lat": 0.0, "lon": -77.03660833333333, "is_reserved": 0, "bike_id": "66f474a27443949c24fcd4d295cd5a93", "fusion_lon": 0.0, "rental_uris": {"android": "https://dc.lft.to/lastmile_qr_scan", "ios": "https://dc.lft.to/lastmile_qr_scan"}, "name": "66f474a27443949c24fcd4d295cd5a93", "type": "electric_scooter", "lat": 38.93156833333333, "is_disabled": 0}, {"fusion_lat": 0.0, "lon": -77.02212516666667, "is_reserved": 0, "bike_id": "627b11e5b2e61f4b46823791e6a3d38a", "fusion_lon": 0.0, "rental_uris": {"android": "https://dc.lft.to/lastmile_qr_scan", "ios": "https://dc.lft.to/lastmile_qr_scan"}, "name": "627b11e5b2e61f4b46823791e6a3d38a", "type": "electric_scooter", "lat": 38.920469, "is_disabled": 0}, {"fusion_lat": 0.0, "lon": -77.043992, "is_reserved": 0, "bike_id": "d40fe68d1aaa4f1e5e5dc4067e5e38f4", "fusion_lon": 0.0, "rental_uris": {"android": "https://dc.lft.to/lastmile_qr_scan", "ios": "https://dc.lft.to/lastmile_qr_scan"}, "name": "d40fe68d1aaa4f1e5e5dc4067e5e38f4", "type": "electric_scooter", "lat": 38.92447683333333, "is_disabled": 0}, {"fusion_lat": 0.0, "lon": -77.02236433333333, "is_reserved": 0, "bike_id": "9bd0d7d91f607cf66a1e487f79b5e81f", "fusion_lon": 0.0, "rental_uris": {"android": "https://dc.lft.to/lastmile_qr_scan", "ios": "https://dc.lft.to/lastmile_qr_scan"}, "name": "9bd0d7d91f607cf66a1e487f79b5e81f", "type": "electric_scooter", "lat": 38.92605266666666, "is_disabled": 0}, {"fusion_lat": 0.0, "lon": -77.03472466666666, "is_reserved": 0, "bike_id": "8869db3756c21bbce6df1d199c305381", "fusion_lon": 0.0, "rental_uris": {"android": "https://dc.lft.to/lastmile_qr_scan", "ios": "https://dc.lft.to/lastmile_qr_scan"}, "name": "8869db3756c21bbce6df1d199c305381", "type": "electric_scooter", "lat": 38.92921033333333, "is_disabled": 0}, {"fusion_lat": 0.0, "lon": -77.0044325, "is_reserved": 0, "bike_id": "a4cebe15ffe046e1577e110734e1f169", "fusion_lon": 0.0, "rental_uris": {"android": "https://dc.lft.to/lastmile_qr_scan", "ios": "https://dc.lft.to/lastmile_qr_scan"}, "name": "a4cebe15ffe046e1577e110734e1f169", "type": "electric_scooter", "lat": 38.876677, "is_disabled": 0}, {"fusion_lat": 0.0, "lon": -77.0432485, "is_reserved": 0, "bike_id": "929f4d0e945b269452f797a90c01c42a", "fusion_lon": 0.0, "rental_uris": {"android": "https://dc.lft.to/lastmile_qr_scan", "ios": "https://dc.lft.to/lastmile_qr_scan"}, "name": "929f4d0e945b269452f797a90c01c42a", "type": "electric_scooter", "lat": 38.902219833333334, "is_disabled": 0}, {"fusion_lat": 0.0, "lon": -77.02656666666667, "is_reserved": 0, "bike_id": "ef989f90318b7d50df963a68cb7a0816", "fusion_lon": 0.0, "rental_uris": {"android": "https://dc.lft.to/lastmile_qr_scan", "ios": "https://dc.lft.to/lastmile_qr_scan"}, "name": "ef989f90318b7d50df963a68cb7a0816", "type": "electric_bike", "lat": 38.98813666666667, "is_disabled": 0}, {"fusion_lat": 0.0, "lon": -77.02221933333334, "is_reserved": 0, "bike_id": "78b1fc8a247731443475ba190cd552b3", "fusion_lon": 0.0, "rental_uris": {"android": "https://dc.lft.to/lastmile_qr_scan", "ios": "https://dc.lft.to/lastmile_qr_scan"}, "name": "78b1fc8a247731443475ba190cd552b3", "type": "electric_scooter", "lat": 38.90555766666667, "is_disabled": 0}, {"fusion_lat": 0.0, "lon": -77.044807, "is_reserved": 0, "bike_id": "611fe47637c2f764020ae07ce094ae12", "fusion_lon": 0.0, "rental_uris": {"android": "https://dc.lft.to/lastmile_qr_scan", "ios": "https://dc.lft.to/lastmile_qr_scan"}, "name": "611fe47637c2f764020ae07ce094ae12", "type": "electric_scooter", "lat": 38.92136416666666, "is_disabled": 0}, {"fusion_lat": 0.0, "lon": -76.990341, "is_reserved": 0, "bike_id": "82af102c94149bf6acdf72d4f190fbce", "fusion_lon": 0.0, "rental_uris": {"android": "https://dc.lft.to/lastmile_qr_scan", "ios": "https://dc.lft.to/lastmile_qr_scan"}, "name": "82af102c94149bf6acdf72d4f190fbce", "type": "electric_bike", "lat": 38.8657305, "is_disabled": 0}, {"fusion_lat": 0.0, "lon": -77.026913, "is_reserved": 0, "bike_id": "8a644609c4795500a1eeb9ad7fa9560b", "fusion_lon": 0.0, "rental_uris": {"android": "https://dc.lft.to/lastmile_qr_scan", "ios": "https://dc.lft.to/lastmile_qr_scan"}, "name": "8a644609c4795500a1eeb9ad7fa9560b", "type": "electric_scooter", "lat": 38.902378666666664, "is_disabled": 0}, {"fusion_lat": 0.0, "lon": -77.03959166666667, "is_reserved": 0, "bike_id": "51d15b4eeb5735d67f6919954d431bea", "fusion_lon": 0.0, "rental_uris": {"android": "https://dc.lft.to/lastmile_qr_scan", "ios": "https://dc.lft.to/lastmile_qr_scan"}, "name": "51d15b4eeb5735d67f6919954d431bea", "type": "electric_scooter", "lat": 38.93144983333333, "is_disabled": 0}, {"fusion_lat": 0.0, "lon": -76.929367, "is_reserved": 0, "bike_id": "bd09ac52466cce2969efd81ae0a3ecaa", "fusion_lon": 0.0, "rental_uris": {"android": "https://dc.lft.to/lastmile_qr_scan", "ios": "https://dc.lft.to/lastmile_qr_scan"}, "name": "bd09ac52466cce2969efd81ae0a3ecaa", "type": "electric_scooter", "lat": 38.88383533333333, "is_disabled": 0}, {"fusion_lat": 0.0, "lon": -77.02190333333333, "is_reserved": 0, "bike_id": "93daedb4a5acbf5a464e30353d26169d", "fusion_lon": 0.0, "rental_uris": {"android": "https://dc.lft.to/lastmile_qr_scan", "ios": "https://dc.lft.to/lastmile_qr_scan"}, "name": "93daedb4a5acbf5a464e30353d26169d", "type": "electric_scooter", "lat": 38.9019075, "is_disabled": 0}, {"fusion_lat": 0.0, "lon": -77.03533633333333, "is_reserved": 0, "bike_id": "db37e1676366992a983214fcf7ed8272", "fusion_lon": 0.0, "rental_uris": {"android": "https://dc.lft.to/lastmile_qr_scan", "ios": "https://dc.lft.to/lastmile_qr_scan"}, "name": "db37e1676366992a983214fcf7ed8272", "type": "electric_scooter", "lat": 38.93475383333333, "is_disabled": 0}, {"fusion_lat": 0.0, "lon": -77.04702233333333, "is_reserved": 0, "bike_id": "5def8de3f96b19e2386e6073ea037e0e", "fusion_lon": 0.0, "rental_uris": {"android": "https://dc.lft.to/lastmile_qr_scan", "ios": "https://dc.lft.to/lastmile_qr_scan"}, "name": "5def8de3f96b19e2386e6073ea037e0e", "type": "electric_scooter", "lat": 38.90206666666667, "is_disabled": 0}, {"fusion_lat": 0.0, "lon": -76.99266466666667, "is_reserved": 0, "bike_id": "6c4a72e5575c5721b9ddb462da8e428f", "fusion_lon": 0.0, "rental_uris": {"android": "https://dc.lft.to/lastmile_qr_scan", "ios": "https://dc.lft.to/lastmile_qr_scan"}, "name": "6c4a72e5575c5721b9ddb462da8e428f", "type": "electric_scooter", "lat": 38.897667, "is_disabled": 0}, {"fusion_lat": 0.0, "lon": -76.97696783333333, "is_reserved": 0, "bike_id": "dd6bb1cfab22212e0a7a622bdc2adb7c", "fusion_lon": 0.0, "rental_uris": {"android": "https://dc.lft.to/lastmile_qr_scan", "ios": "https://dc.lft.to/lastmile_qr_scan"}, "name": "dd6bb1cfab22212e0a7a622bdc2adb7c", "type": "electric_scooter", "lat": 38.89884133333334, "is_disabled": 0}, {"fusion_lat": 0.0, "lon": -77.00781466666666, "is_reserved": 0, "bike_id": "f9d16113f447278ca914bb46739f4ea7", "fusion_lon": 0.0, "rental_uris": {"android": "https://dc.lft.to/lastmile_qr_scan", "ios": "https://dc.lft.to/lastmile_qr_scan"}, "name": "f9d16113f447278ca914bb46739f4ea7", "type": "electric_scooter", "lat": 38.897361833333335, "is_disabled": 0}, {"fusion_lat": 0.0, "lon": -77.02696316666666, "is_reserved": 0, "bike_id": "c3692c86ca266ff9f285d31f2e3a172c", "fusion_lon": 0.0, "rental_uris": {"android": "https://dc.lft.to/lastmile_qr_scan", "ios": "https://dc.lft.to/lastmile_qr_scan"}, "name": "c3692c86ca266ff9f285d31f2e3a172c", "type": "electric_scooter", "lat": 38.911324666666665, "is_disabled": 0}, {"fusion_lat": 0.0, "lon": -77.03463766666667, "is_reserved": 0, "bike_id": "0b3dc547b9f843b04aa90d767f21b16e", "fusion_lon": 0.0, "rental_uris": {"android": "https://dc.lft.to/lastmile_qr_scan", "ios": "https://dc.lft.to/lastmile_qr_scan"}, "name": "0b3dc547b9f843b04aa90d767f21b16e", "type": "electric_scooter", "lat": 38.90809083333333, "is_disabled": 0}, {"fusion_lat": 0.0, "lon": -76.93197066666667, "is_reserved": 0, "bike_id": "738ea8b44d2dd18965eaf03385b359d1", "fusion_lon": 0.0, "rental_uris": {"android": "https://dc.lft.to/lastmile_qr_scan", "ios": "https://dc.lft.to/lastmile_qr_scan"}, "name": "738ea8b44d2dd18965eaf03385b359d1", "type": "electric_scooter", "lat": 38.89876316666667, "is_disabled": 0}, {"fusion_lat": 0.0, "lon": -76.9855765, "is_reserved": 0, "bike_id": "a2665b89cd6802aa95196cdd8866d8b8", "fusion_lon": 0.0, "rental_uris": {"android": "https://dc.lft.to/lastmile_qr_scan", "ios": "https://dc.lft.to/lastmile_qr_scan"}, "name": "a2665b89cd6802aa95196cdd8866d8b8", "type": "electric_scooter", "lat": 38.910306166666665, "is_disabled": 0}, {"fusion_lat": 0.0, "lon": -77.03934683333334, "is_reserved": 0, "bike_id": "8dffb647e9dfff351f7a31d640afe14b", "fusion_lon": 0.0, "rental_uris": {"android": "https://dc.lft.to/lastmile_qr_scan", "ios": "https://dc.lft.to/lastmile_qr_scan"}, "name": "8dffb647e9dfff351f7a31d640afe14b", "type": "electric_scooter", "lat": 38.89709166666667, "is_disabled": 0}, {"fusion_lat": 0.0, "lon": -77.0448015, "is_reserved": 0, "bike_id": "8410278c85c515852a5ac1e4fb376a3d", "fusion_lon": 0.0, "rental_uris": {"android": "https://dc.lft.to/lastmile_qr_scan", "ios": "https://dc.lft.to/lastmile_qr_scan"}, "name": "8410278c85c515852a5ac1e4fb376a3d", "type": "electric_scooter", "lat": 38.91866383333333, "is_disabled": 0}, {"fusion_lat": 0.0, "lon": -76.92372399999999, "is_reserved": 0, "bike_id": "db3c189de407a7d504585adfffd44448", "fusion_lon": 0.0, "rental_uris": {"android": "https://dc.lft.to/lastmile_qr_scan", "ios": "https://dc.lft.to/lastmile_qr_scan"}, "name": "db3c189de407a7d504585adfffd44448", "type": "electric_bike", "lat": 38.8837255, "is_disabled": 0}, {"fusion_lat": 0.0, "lon": -76.935451, "is_reserved": 0, "bike_id": "cb029494d31d553a2d55b317e120afc4", "fusion_lon": 0.0, "rental_uris": {"android": "https://dc.lft.to/lastmile_qr_scan", "ios": "https://dc.lft.to/lastmile_qr_scan"}, "name": "cb029494d31d553a2d55b317e120afc4", "type": "electric_bike", "lat": 38.955523666666664, "is_disabled": 0}, {"fusion_lat": 0.0, "lon": -76.98523833333333, "is_reserved": 0, "bike_id": "47f575b66763eff1742db19b448c6ac5", "fusion_lon": 0.0, "rental_uris": {"android": "https://dc.lft.to/lastmile_qr_scan", "ios": "https://dc.lft.to/lastmile_qr_scan"}, "name": "47f575b66763eff1742db19b448c6ac5", "type": "electric_scooter", "lat": 38.86667833333333, "is_disabled": 0}, {"fusion_lat": 0.0, "lon": -77.051468, "is_reserved": 0, "bike_id": "a7ca6b75b5ad3e6242d3ec70b7d155a8", "fusion_lon": 0.0, "rental_uris": {"android": "https://dc.lft.to/lastmile_qr_scan", "ios": "https://dc.lft.to/lastmile_qr_scan"}, "name": "a7ca6b75b5ad3e6242d3ec70b7d155a8", "type": "electric_scooter", "lat": 38.90523566666667, "is_disabled": 0}, {"fusion_lat": 0.0, "lon": -77.07149166666666, "is_reserved": 0, "bike_id": "5036c3c7f09e9c33e404be098c61d91d", "fusion_lon": 0.0, "rental_uris": {"android": "https://dc.lft.to/lastmile_qr_scan", "ios": "https://dc.lft.to/lastmile_qr_scan"}, "name": "5036c3c7f09e9c33e404be098c61d91d", "type": "electric_scooter", "lat": 38.92028466666667, "is_disabled": 0}, {"fusion_lat": 0.0, "lon": -77.0317675, "is_reserved": 0, "bike_id": "9f95efca84c3513e870f5e46d23f24e2", "fusion_lon": 0.0, "rental_uris": {"android": "https://dc.lft.to/lastmile_qr_scan", "ios": "https://dc.lft.to/lastmile_qr_scan"}, "name": "9f95efca84c3513e870f5e46d23f24e2", "type": "electric_bike", "lat": 38.92109383333333, "is_disabled": 0}, {"fusion_lat": 0.0, "lon": -76.99613366666667, "is_reserved": 0, "bike_id": "953006cdb84416581dd690fb981ada42", "fusion_lon": 0.0, "rental_uris": {"android": "https://dc.lft.to/lastmile_qr_scan", "ios": "https://dc.lft.to/lastmile_qr_scan"}, "name": "953006cdb84416581dd690fb981ada42", "type": "electric_scooter", "lat": 38.88701183333333, "is_disabled": 0}, {"fusion_lat": 0.0, "lon": -77.03589833333334, "is_reserved": 0, "bike_id": "18bc51704a1406867cffaa0720109e68", "fusion_lon": 0.0, "rental_uris": {"android": "https://dc.lft.to/lastmile_qr_scan", "ios": "https://dc.lft.to/lastmile_qr_scan"}, "name": "18bc51704a1406867cffaa0720109e68", "type": "electric_scooter", "lat": 38.93672333333333, "is_disabled": 0}, {"fusion_lat": 0.0, "lon": -77.02376533333333, "is_reserved": 0, "bike_id": "dbf3345e40ff5ad43c7b69af6171cb13", "fusion_lon": 0.0, "rental_uris": {"android": "https://dc.lft.to/lastmile_qr_scan", "ios": "https://dc.lft.to/lastmile_qr_scan"}, "name": "dbf3345e40ff5ad43c7b69af6171cb13", "type": "electric_scooter", "lat": 38.90815166666667, "is_disabled": 0}, {"fusion_lat": 0.0, "lon": -77.02377333333334, "is_reserved": 0, "bike_id": "4d62dac8b92e007b0dd75e2db88ceea1", "fusion_lon": 0.0, "rental_uris": {"android": "https://dc.lft.to/lastmile_qr_scan", "ios": "https://dc.lft.to/lastmile_qr_scan"}, "name": "4d62dac8b92e007b0dd75e2db88ceea1", "type": "electric_scooter", "lat": 38.90949, "is_disabled": 0}, {"fusion_lat": 0.0, "lon": -77.0218235, "is_reserved": 0, "bike_id": "1e4190dc6125bb2eace77792a5f0a8b4", "fusion_lon": 0.0, "rental_uris": {"android": "https://dc.lft.to/lastmile_qr_scan", "ios": "https://dc.lft.to/lastmile_qr_scan"}, "name": "1e4190dc6125bb2eace77792a5f0a8b4", "type": "electric_scooter", "lat": 38.90190783333333, "is_disabled": 0}, {"fusion_lat": 0.0, "lon": -76.972403, "is_reserved": 0, "bike_id": "ac58c066a83bc9295baa530387f247f8", "fusion_lon": 0.0, "rental_uris": {"android": "https://dc.lft.to/lastmile_qr_scan", "ios": "https://dc.lft.to/lastmile_qr_scan"}, "name": "ac58c066a83bc9295baa530387f247f8", "type": "electric_bike", "lat": 38.949048833333336, "is_disabled": 0}, {"fusion_lat": 0.0, "lon": -77.0858685, "is_reserved": 0, "bike_id": "ca0b21a1282ad09186b121d05ce381f1", "fusion_lon": 0.0, "rental_uris": {"android": "https://dc.lft.to/lastmile_qr_scan", "ios": "https://dc.lft.to/lastmile_qr_scan"}, "name": "ca0b21a1282ad09186b121d05ce381f1", "type": "electric_bike", "lat": 38.844386166666666, "is_disabled": 0}, {"fusion_lat": 0.0, "lon": -77.04311716666666, "is_reserved": 0, "bike_id": "c3c919158d4b6d7b8094f851b4c16ef6", "fusion_lon": 0.0, "rental_uris": {"android": "https://dc.lft.to/lastmile_qr_scan", "ios": "https://dc.lft.to/lastmile_qr_scan"}, "name": "c3c919158d4b6d7b8094f851b4c16ef6", "type": "electric_scooter", "lat": 38.92327983333333, "is_disabled": 0}, {"fusion_lat": 0.0, "lon": -76.97319133333333, "is_reserved": 0, "bike_id": "b59dcffad8ca6d317e6582c2297b53ce", "fusion_lon": 0.0, "rental_uris": {"android": "https://dc.lft.to/lastmile_qr_scan", "ios": "https://dc.lft.to/lastmile_qr_scan"}, "name": "b59dcffad8ca6d317e6582c2297b53ce", "type": "electric_scooter", "lat": 38.91776483333334, "is_disabled": 0}, {"fusion_lat": 0.0, "lon": -77.03432766666667, "is_reserved": 0, "bike_id": "de0598e7176848faaac4c08a30c507d7", "fusion_lon": 0.0, "rental_uris": {"android": "https://dc.lft.to/lastmile_qr_scan", "ios": "https://dc.lft.to/lastmile_qr_scan"}, "name": "de0598e7176848faaac4c08a30c507d7", "type": "electric_scooter", "lat": 38.919384, "is_disabled": 0}, {"fusion_lat": 0.0, "lon": -77.03491183333334, "is_reserved": 0, "bike_id": "19fde60a723ed01feb5902d214dfa5c3", "fusion_lon": 0.0, "rental_uris": {"android": "https://dc.lft.to/lastmile_qr_scan", "ios": "https://dc.lft.to/lastmile_qr_scan"}, "name": "19fde60a723ed01feb5902d214dfa5c3", "type": "electric_scooter", "lat": 38.9215965, "is_disabled": 0}, {"fusion_lat": 0.0, "lon": -77.00668016666667, "is_reserved": 0, "bike_id": "f96e5f1b5cb3fdc517c33baf6eb979cb", "fusion_lon": 0.0, "rental_uris": {"android": "https://dc.lft.to/lastmile_qr_scan", "ios": "https://dc.lft.to/lastmile_qr_scan"}, "name": "f96e5f1b5cb3fdc517c33baf6eb979cb", "type": "electric_scooter", "lat": 38.90022966666667, "is_disabled": 0}, {"fusion_lat": 0.0, "lon": -77.03284616666667, "is_reserved": 0, "bike_id": "9f056d9eb285680772ca82f157681c2d", "fusion_lon": 0.0, "rental_uris": {"android": "https://dc.lft.to/lastmile_qr_scan", "ios": "https://dc.lft.to/lastmile_qr_scan"}, "name": "9f056d9eb285680772ca82f157681c2d", "type": "electric_scooter", "lat": 38.935058833333336, "is_disabled": 0}, {"fusion_lat": 0.0, "lon": -77.0257155, "is_reserved": 0, "bike_id": "3b98386fb7f77da977bf0f537383987b", "fusion_lon": 0.0, "rental_uris": {"android": "https://dc.lft.to/lastmile_qr_scan", "ios": "https://dc.lft.to/lastmile_qr_scan"}, "name": "3b98386fb7f77da977bf0f537383987b", "type": "electric_scooter", "lat": 38.91406333333333, "is_disabled": 0}, {"fusion_lat": 0.0, "lon": -77.02292866666667, "is_reserved": 0, "bike_id": "f0d984f99b020a4a4994d1e19b522db3", "fusion_lon": 0.0, "rental_uris": {"android": "https://dc.lft.to/lastmile_qr_scan", "ios": "https://dc.lft.to/lastmile_qr_scan"}, "name": "f0d984f99b020a4a4994d1e19b522db3", "type": "electric_scooter", "lat": 38.886414, "is_disabled": 0}, {"fusion_lat": 0.0, "lon": -77.05742616666667, "is_reserved": 0, "bike_id": "e24aa3401ae3bd9b23701b409ff08a91", "fusion_lon": 0.0, "rental_uris": {"android": "https://dc.lft.to/lastmile_qr_scan", "ios": "https://dc.lft.to/lastmile_qr_scan"}, "name": "e24aa3401ae3bd9b23701b409ff08a91", "type": "electric_scooter", "lat": 38.933923, "is_disabled": 0}, {"fusion_lat": 0.0, "lon": -77.01455733333333, "is_reserved": 0, "bike_id": "296f5c2b90dd20ab008531f49b6a2af0", "fusion_lon": 0.0, "rental_uris": {"android": "https://dc.lft.to/lastmile_qr_scan", "ios": "https://dc.lft.to/lastmile_qr_scan"}, "name": "296f5c2b90dd20ab008531f49b6a2af0", "type": "electric_bike", "lat": 38.8766835, "is_disabled": 0}, {"fusion_lat": 0.0, "lon": -76.9787125, "is_reserved": 0, "bike_id": "9dc39ff0974af04c09c1ba17706bfca8", "fusion_lon": 0.0, "rental_uris": {"android": "https://dc.lft.to/lastmile_qr_scan", "ios": "https://dc.lft.to/lastmile_qr_scan"}, "name": "9dc39ff0974af04c09c1ba17706bfca8", "type": "electric_scooter", "lat": 38.88301466666667, "is_disabled": 0}, {"fusion_lat": 0.0, "lon": -77.07234483333333, "is_reserved": 0, "bike_id": "d318f0f774eb3d0ba263e2ebd0d38ad6", "fusion_lon": 0.0, "rental_uris": {"android": "https://dc.lft.to/lastmile_qr_scan", "ios": "https://dc.lft.to/lastmile_qr_scan"}, "name": "d318f0f774eb3d0ba263e2ebd0d38ad6", "type": "electric_scooter", "lat": 38.9400485, "is_disabled": 0}, {"fusion_lat": 0.0, "lon": -77.00366766666667, "is_reserved": 0, "bike_id": "dbcb6102b874c2c2d3d07c1983d84e65", "fusion_lon": 0.0, "rental_uris": {"android": "https://dc.lft.to/lastmile_qr_scan", "ios": "https://dc.lft.to/lastmile_qr_scan"}, "name": "dbcb6102b874c2c2d3d07c1983d84e65", "type": "electric_scooter", "lat": 38.89728916666667, "is_disabled": 0}, {"fusion_lat": 0.0, "lon": -77.02726383333334, "is_reserved": 0, "bike_id": "dbd1e0ddec712fb182c3a75e74c3dd4d", "fusion_lon": 0.0, "rental_uris": {"android": "https://dc.lft.to/lastmile_qr_scan", "ios": "https://dc.lft.to/lastmile_qr_scan"}, "name": "dbd1e0ddec712fb182c3a75e74c3dd4d", "type": "electric_scooter", "lat": 38.8974895, "is_disabled": 0}, {"fusion_lat": 0.0, "lon": -76.96774233333333, "is_reserved": 0, "bike_id": "9049684db6f8c1ea514f2247be387c35", "fusion_lon": 0.0, "rental_uris": {"android": "https://dc.lft.to/lastmile_qr_scan", "ios": "https://dc.lft.to/lastmile_qr_scan"}, "name": "9049684db6f8c1ea514f2247be387c35", "type": "electric_scooter", "lat": 38.8592175, "is_disabled": 0}, {"fusion_lat": 0.0, "lon": -76.91606166666666, "is_reserved": 0, "bike_id": "58721e597a2a3b87992642873fbd49d4", "fusion_lon": 0.0, "rental_uris": {"android": "https://dc.lft.to/lastmile_qr_scan", "ios": "https://dc.lft.to/lastmile_qr_scan"}, "name": "58721e597a2a3b87992642873fbd49d4", "type": "electric_bike", "lat": 38.87965466666667, "is_disabled": 0}, {"fusion_lat": 0.0, "lon": -77.02309516666666, "is_reserved": 0, "bike_id": "e72aa692aaf8236bb68569bcd563cde3", "fusion_lon": 0.0, "rental_uris": {"android": "https://dc.lft.to/lastmile_qr_scan", "ios": "https://dc.lft.to/lastmile_qr_scan"}, "name": "e72aa692aaf8236bb68569bcd563cde3", "type": "electric_scooter", "lat": 38.917722833333336, "is_disabled": 0}, {"fusion_lat": 0.0, "lon": -76.98378583333333, "is_reserved": 0, "bike_id": "2973ce040ebf8ed572f914245cb7e5a4", "fusion_lon": 0.0, "rental_uris": {"android": "https://dc.lft.to/lastmile_qr_scan", "ios": "https://dc.lft.to/lastmile_qr_scan"}, "name": "2973ce040ebf8ed572f914245cb7e5a4", "type": "electric_scooter", "lat": 38.86122616666667, "is_disabled": 0}, {"fusion_lat": 0.0, "lon": -76.99512233333333, "is_reserved": 0, "bike_id": "29c268ab6f1d694c4bc5e342101f2467", "fusion_lon": 0.0, "rental_uris": {"android": "https://dc.lft.to/lastmile_qr_scan", "ios": "https://dc.lft.to/lastmile_qr_scan"}, "name": "29c268ab6f1d694c4bc5e342101f2467", "type": "electric_scooter", "lat": 38.895433833333335, "is_disabled": 0}, {"fusion_lat": 0.0, "lon": -77.01884133333333, "is_reserved": 0, "bike_id": "60e0af10e205d910c01e788bc15bf199", "fusion_lon": 0.0, "rental_uris": {"android": "https://dc.lft.to/lastmile_qr_scan", "ios": "https://dc.lft.to/lastmile_qr_scan"}, "name": "60e0af10e205d910c01e788bc15bf199", "type": "electric_scooter", "lat": 38.90450533333333, "is_disabled": 0}, {"fusion_lat": 0.0, "lon": -77.02639933333333, "is_reserved": 0, "bike_id": "de9d42747c879671b49d463e1bf58841", "fusion_lon": 0.0, "rental_uris": {"android": "https://dc.lft.to/lastmile_qr_scan", "ios": "https://dc.lft.to/lastmile_qr_scan"}, "name": "de9d42747c879671b49d463e1bf58841", "type": "electric_scooter", "lat": 38.98472066666667, "is_disabled": 0}, {"fusion_lat": 0.0, "lon": -77.02209433333333, "is_reserved": 0, "bike_id": "b6bc5d4c34aa5418fab49cdf8e6ea227", "fusion_lon": 0.0, "rental_uris": {"android": "https://dc.lft.to/lastmile_qr_scan", "ios": "https://dc.lft.to/lastmile_qr_scan"}, "name": "b6bc5d4c34aa5418fab49cdf8e6ea227", "type": "electric_scooter", "lat": 38.902038833333336, "is_disabled": 0}, {"fusion_lat": 0.0, "lon": -77.0324335, "is_reserved": 0, "bike_id": "b5b7c5c8063f8259115ef09c3351d2d6", "fusion_lon": 0.0, "rental_uris": {"android": "https://dc.lft.to/lastmile_qr_scan", "ios": "https://dc.lft.to/lastmile_qr_scan"}, "name": "b5b7c5c8063f8259115ef09c3351d2d6", "type": "electric_scooter", "lat": 38.9284575, "is_disabled": 0}, {"fusion_lat": 0.0, "lon": -76.996117, "is_reserved": 0, "bike_id": "34040cd0cf8154738e9d4c6884e931ff", "fusion_lon": 0.0, "rental_uris": {"android": "https://dc.lft.to/lastmile_qr_scan", "ios": "https://dc.lft.to/lastmile_qr_scan"}, "name": "34040cd0cf8154738e9d4c6884e931ff", "type": "electric_scooter", "lat": 38.8854965, "is_disabled": 0}, {"fusion_lat": 0.0, "lon": -76.98590583333333, "is_reserved": 0, "bike_id": "712ed2976a10e8e4f1fe6ef7e3c9996e", "fusion_lon": 0.0, "rental_uris": {"android": "https://dc.lft.to/lastmile_qr_scan", "ios": "https://dc.lft.to/lastmile_qr_scan"}, "name": "712ed2976a10e8e4f1fe6ef7e3c9996e", "type": "electric_scooter", "lat": 38.90644366666667, "is_disabled": 0}, {"fusion_lat": 0.0, "lon": -77.08773433333333, "is_reserved": 0, "bike_id": "008c6418eda728d6222652af357805ab", "fusion_lon": 0.0, "rental_uris": {"android": "https://dc.lft.to/lastmile_qr_scan", "ios": "https://dc.lft.to/lastmile_qr_scan"}, "name": "008c6418eda728d6222652af357805ab", "type": "electric_bike", "lat": 38.838975166666664, "is_disabled": 0}, {"fusion_lat": 0.0, "lon": -76.977106, "is_reserved": 0, "bike_id": "da0aa251995c3ce29beec5a66f52c913", "fusion_lon": 0.0, "rental_uris": {"android": "https://dc.lft.to/lastmile_qr_scan", "ios": "https://dc.lft.to/lastmile_qr_scan"}, "name": "da0aa251995c3ce29beec5a66f52c913", "type": "electric_scooter", "lat": 38.88775866666667, "is_disabled": 0}, {"fusion_lat": 0.0, "lon": -77.017506, "is_reserved": 0, "bike_id": "5749f94184f086f1dabee6f9ab614f6c", "fusion_lon": 0.0, "rental_uris": {"android": "https://dc.lft.to/lastmile_qr_scan", "ios": "https://dc.lft.to/lastmile_qr_scan"}, "name": "5749f94184f086f1dabee6f9ab614f6c", "type": "electric_scooter", "lat": 38.89459016666667, "is_disabled": 0}, {"fusion_lat": 0.0, "lon": -77.00795483333333, "is_reserved": 0, "bike_id": "c51b4b5c3da9877aafd1a3e39a8f1829", "fusion_lon": 0.0, "rental_uris": {"android": "https://dc.lft.to/lastmile_qr_scan", "ios": "https://dc.lft.to/lastmile_qr_scan"}, "name": "c51b4b5c3da9877aafd1a3e39a8f1829", "type": "electric_scooter", "lat": 38.896415, "is_disabled": 0}, {"fusion_lat": 0.0, "lon": -77.0487115, "is_reserved": 0, "bike_id": "ca26670615fd82553466e1f99af3ff03", "fusion_lon": 0.0, "rental_uris": {"android": "https://dc.lft.to/lastmile_qr_scan", "ios": "https://dc.lft.to/lastmile_qr_scan"}, "name": "ca26670615fd82553466e1f99af3ff03", "type": "electric_scooter", "lat": 38.9011205, "is_disabled": 0}, {"fusion_lat": 0.0, "lon": -76.962396, "is_reserved": 0, "bike_id": "596a54a816e13b6be9a27eeedc0d04d3", "fusion_lon": 0.0, "rental_uris": {"android": "https://dc.lft.to/lastmile_qr_scan", "ios": "https://dc.lft.to/lastmile_qr_scan"}, "name": "596a54a816e13b6be9a27eeedc0d04d3", "type": "electric_scooter", "lat": 38.877711, "is_disabled": 0}, {"fusion_lat": 0.0, "lon": -77.0039905, "is_reserved": 0, "bike_id": "da2e6e2a4aa48b2f92e5afab1efc6c9e", "fusion_lon": 0.0, "rental_uris": {"android": "https://dc.lft.to/lastmile_qr_scan", "ios": "https://dc.lft.to/lastmile_qr_scan"}, "name": "da2e6e2a4aa48b2f92e5afab1efc6c9e", "type": "electric_bike", "lat": 38.9854625, "is_disabled": 0}, {"fusion_lat": 0.0, "lon": -77.07372433333333, "is_reserved": 0, "bike_id": "7432c36ef0d657ca8150cdc17bfdc136", "fusion_lon": 0.0, "rental_uris": {"android": "https://dc.lft.to/lastmile_qr_scan", "ios": "https://dc.lft.to/lastmile_qr_scan"}, "name": "7432c36ef0d657ca8150cdc17bfdc136", "type": "electric_bike", "lat": 38.961831833333335, "is_disabled": 0}, {"fusion_lat": 0.0, "lon": -77.03869033333334, "is_reserved": 0, "bike_id": "3bf85a8c3da0c0f1bef2207693030f21", "fusion_lon": 0.0, "rental_uris": {"android": "https://dc.lft.to/lastmile_qr_scan", "ios": "https://dc.lft.to/lastmile_qr_scan"}, "name": "3bf85a8c3da0c0f1bef2207693030f21", "type": "electric_scooter", "lat": 38.92151966666667, "is_disabled": 0}, {"fusion_lat": 0.0, "lon": -77.012133, "is_reserved": 0, "bike_id": "915bd6b64640956d3c6a59c22968bf78", "fusion_lon": 0.0, "rental_uris": {"android": "https://dc.lft.to/lastmile_qr_scan", "ios": "https://dc.lft.to/lastmile_qr_scan"}, "name": "915bd6b64640956d3c6a59c22968bf78", "type": "electric_scooter", "lat": 38.918282166666664, "is_disabled": 0},