{"data": {"bikes": [{"bike_id": "83ab84527be94575d75fbf45fe975286", "type": "electric_bike", "is_disabled": 0, "lat": 38.99313333333333, "rental_uris": {"ios": "https://dc.lft.to/lastmile_qr_scan", "android": "https://dc.lft.to/lastmile_qr_scan"}, "is_reserved": 0, "fusion_lon": 0.0, "fusion_lat": 0.0, "lon": -77.02306016666667, "name": "83ab84527be94575d75fbf45fe975286"}, {"bike_id": "12e9f2829ff74d22a1ba3c3a872425e1", "type": "electric_scooter", "is_disabled": 0, "lat": 38.917660166666664, "rental_uris": {"ios": "https://dc.lft.to/lastmile_qr_scan", "android": "https://dc.lft.to/lastmile_qr_scan"}, "is_reserved": 0, "fusion_lon": 0.0, "fusion_lat": 0.0, "lon": -77.04773183333333, "name": "12e9f2829ff74d22a1ba3c3a872425e1"}, {"bike_id": "f77dff5c7802de65d304c34ee8250428", "type": "electric_bike", "is_disabled": 0, "lat": 38.93526166666667, "rental_uris": {"ios": "https://dc.lft.to/lastmile_qr_scan", "android": "https://dc.lft.to/lastmile_qr_scan"}, "is_reserved": 0, "fusion_lon": 0.0, "fusion_lat": 0.0, "lon": -76.964514, "name": "f77dff5c7802de65d304c34ee8250428"}, {"bike_id": "30f360592d77e2795a3307576f28b0f3", "type": "electric_scooter", "is_disabled": 0, "lat": 38.9204475, "rental_uris": {"ios": "https://dc.lft.to/lastmile_qr_scan", "android": "https://dc.lft.to/lastmile_qr_scan"}, "is_reserved": 0, "fusion_lon": 0.0, "fusion_lat": 0.0, "lon": -77.02571533333334, "name": "30f360592d77e2795a3307576f28b0f3"}, {"bike_id": "71272328a08f631942ce01c85e48df32", "type": "electric_scooter", "is_disabled": 0, "lat": 38.92340333333333, "rental_uris": {"ios": "https://dc.lft.to/lastmile_qr_scan", "android": "https://dc.lft.to/lastmile_qr_scan"}, "is_reserved": 0, "fusion_lon": 0.0, "fusion_lat": 0.0, "lon": -77.03518766666667, "name": "71272328a08f631942ce01c85e48df32"}, {"bike_id": "42843308c6369fa74e41862d277be6de", "type": "electric_scooter", "is_disabled": 0, "lat": 38.903011166666666, "rental_uris": {"ios": "https://dc.lft.to/lastmile_qr_scan", "android": "https://dc.lft.to/lastmile_qr_scan"}, "is_reserved": 0, "fusion_lon": 0.0, "fusion_lat": 0.0, "lon": -77.017495, "name": "42843308c6369fa74e41862d277be6de"}, {"bike_id": "15ae531d60fc8f4a380e60959682e73d", "type": "electric_scooter", "is_disabled": 0, "lat": 38.9248605, "rental_uris": {"ios": "https://dc.lft.to/lastmile_qr_scan", "android": "https://dc.lft.to/lastmile_qr_scan"}, "is_reserved": 0, "fusion_lon": 0.0, "fusion_lat": 0.0, "lon": -77.031864, "name": "15ae531d60fc8f4a380e60959682e73d"}, {"bike_id": "5089e2a4f7fb9013617d126607f39302", "type": "electric_scooter", "is_disabled": 0, "lat": 38.93712383333333, "rental_uris": {"ios": "https://dc.lft.to/lastmile_qr_scan", "android": "https://dc.lft.to/lastmile_qr_scan"}, "is_reserved": 0, "fusion_lon": 0.0, "fusion_lat": 0.0, "lon": -77.03636316666666, "name": "5089e2a4f7fb9013617d126607f39302"}, {"bike_id": "5763a45e8b869d257f989bc1a0b22b1a", "type": "electric_scooter", "is_disabled": 0, "lat": 38.902228, "rental_uris": {"ios": "https://dc.lft.to/lastmile_qr_scan", "android": "https://dc.lft.to/lastmile_qr_scan"}, "is_reserved": 0, "fusion_lon": 0.0, "fusion_lat": 0.0, "lon": -77.02368933333334, "name": "5763a45e8b869d257f989bc1a0b22b1a"}, {"bike_id": "c6f93d2159a854f62478d719fec2de5a", "type": "electric_scooter", "is_disabled": 0, "lat": 38.903237, "rental_uris": {"ios": "https://dc.lft.to/lastmile_qr_scan", "android": "https://dc.lft.to/lastmile_qr_scan"}, "is_reserved": 0, "fusion_lon": 0.0, "fusion_lat": 0.0, "lon": -76.99127116666666, "name": "c6f93d2159a854f62478d719fec2de5a"}, {"bike_id": "986a5d97082f2363f30e092d7d1a5eb2", "type": "electric_scooter", "is_disabled": 0, "lat": 38.91693133333333, "rental_uris": {"ios": "https://dc.lft.to/lastmile_qr_scan", "android": "https://dc.lft.to/lastmile_qr_scan"}, "is_reserved": 0, "fusion_lon": 0.0, "fusion_lat": 0.0, "lon": -77.02667216666667, "name": "986a5d97082f2363f30e092d7d1a5eb2"}, {"bike_id": "603383c864298a984fd6370d3f347c47", "type": "electric_bike", "is_disabled": 0, "lat": 38.809757166666664, "rental_uris": {"ios": "https://dc.lft.to/lastmile_qr_scan", "android": "https://dc.lft.to/lastmile_qr_scan"}, "is_reserved": 0, "fusion_lon": 0.0, "fusion_lat": 0.0, "lon": -77.08625583333334, "name": "603383c864298a984fd6370d3f347c47"}, {"bike_id": "8ff6990def4e484bc1ef5bb502f088ae", "type": "electric_scooter", "is_disabled": 0, "lat": 38.863748666666666, "rental_uris": {"ios": "https://dc.lft.to/lastmile_qr_scan", "android": "https://dc.lft.to/lastmile_qr_scan"}, "is_reserved": 0, "fusion_lon": 0.0, "fusion_lat": 0.0, "lon": -76.99063283333334, "name": "8ff6990def4e484bc1ef5bb502f088ae"}, {"bike_id": "4bd96885c2135828c3a816438aa7775b", "type": "electric_scooter", "is_disabled": 0, "lat": 38.91637683333333, "rental_uris": {"ios": "https://dc.lft.to/lastmile_qr_scan", "android": "https://dc.lft.to/lastmile_qr_scan"}, "is_reserved": 0, "fusion_lon": 0.0, "fusion_lat": 0.0, "lon": -77.03189383333333, "name": "4bd96885c2135828c3a816438aa7775b"}, {"bike_id": "6ccd6cc87d92e59dc51615aa00f19e78", "type": "electric_scooter", "is_disabled": 0, "lat": 38.8866105, "rental_uris": {"ios": "https://dc.lft.to/lastmile_qr_scan", "android": "https://dc.lft.to/lastmile_qr_scan"}, "is_reserved": 0, "fusion_lon": 0.0, "fusion_lat": 0.0, "lon": -77.02820433333333, "name": "6ccd6cc87d92e59dc51615aa00f19e78"}, {"bike_id": "88727313e1a9790142018f2707ccd648", "type": "electric_scooter", "is_disabled": 0, "lat": 38.90382366666667, "rental_uris": {"ios": "https://dc.lft.to/lastmile_qr_scan", "android": "https://dc.lft.to/lastmile_qr_scan"}, "is_reserved": 0, "fusion_lon": 0.0, "fusion_lat": 0.0, "lon": -77.03191666666666, "name": "88727313e1a9790142018f2707ccd648"}, {"bike_id": "0e8727aabdac86d3b25b5081439224c3", "type": "electric_scooter", "is_disabled": 0, "lat": 38.955742666666666, "rental_uris": {"ios": "https://dc.lft.to/lastmile_qr_scan", "android": "https://dc.lft.to/lastmile_qr_scan"}, "is_reserved": 0, "fusion_lon": 0.0, "fusion_lat": 0.0, "lon": -77.08041, "name": "0e8727aabdac86d3b25b5081439224c3"}, {"bike_id": "5e1dd9d42c7c319a1168642dbeaa7001", "type": "electric_scooter", "is_disabled": 0, "lat": 38.889460666666665, "rental_uris": {"ios": "https://dc.lft.to/lastmile_qr_scan", "android": "https://dc.lft.to/lastmile_qr_scan"}, "is_reserved": 0, "fusion_lon": 0.0, "fusion_lat": 0.0, "lon": -77.04976733333334, "name": "5e1dd9d42c7c319a1168642dbeaa7001"}, {"bike_id": "ea0e9f0cae24c4d32cc92d42bd8cce91", "type": "electric_scooter", "is_disabled": 0, "lat": 38.90781033333333, "rental_uris": {"ios": "https://dc.lft.to/lastmile_qr_scan", "android": "https://dc.lft.to/lastmile_qr_scan"}, "is_reserved": 0, "fusion_lon": 0.0, "fusion_lat": 0.0, "lon": -77.04364333333334, "name": "ea0e9f0cae24c4d32cc92d42bd8cce91"}, {"bike_id": "4fa8d3e99cb8973bf3eb162b0979a60b", "type": "electric_scooter", "is_disabled": 0, "lat": 38.9207025, "rental_uris": {"ios": "https://dc.lft.to/lastmile_qr_scan", "android": "https://dc.lft.to/lastmile_qr_scan"}, "is_reserved": 0, "fusion_lon": 0.0, "fusion_lat": 0.0, "lon": -77.02213683333333, "name": "4fa8d3e99cb8973bf3eb162b0979a60b"}, {"bike_id": "4e071a4da4713cb6f7dd30fc9bca6575", "type": "electric_scooter", "is_disabled": 0, "lat": 38.897476166666664, "rental_uris": {"ios": "https://dc.lft.to/lastmile_qr_scan", "android": "https://dc.lft.to/lastmile_qr_scan"}, "is_reserved": 0, "fusion_lon": 0.0, "fusion_lat": 0.0, "lon": -77.02191533333334, "name": "4e071a4da4713cb6f7dd30fc9bca6575"}, {"bike_id": "94c9f9e7a28e5ef493e9823f00fc5d96", "type": "electric_bike", "is_disabled": 0, "lat": 38.836058333333334, "rental_uris": {"ios": "https://dc.lft.to/lastmile_qr_scan", "android": "https://dc.lft.to/lastmile_qr_scan"}, "is_reserved": 0, "fusion_lon": 0.0, "fusion_lat": 0.0, "lon": -77.00383666666667, "name": "94c9f9e7a28e5ef493e9823f00fc5d96"}, {"bike_id": "8799c1d2d3f7e4061001c78619b2e73d", "type": "electric_scooter", "is_disabled": 0, "lat": 38.90968783333334, "rental_uris": {"ios": "https://dc.lft.to/lastmile_qr_scan", "android": "https://dc.lft.to/lastmile_qr_scan"}, "is_reserved": 0, "fusion_lon": 0.0, "fusion_lat": 0.0, "lon": -77.02208933333333, "name": "8799c1d2d3f7e4061001c78619b2e73d"}, {"bike_id": "cc66eb497ed8546fcb199d13ff32a5df", "type": "electric_scooter", "is_disabled": 0, "lat": 38.905745333333336, "rental_uris": {"ios": "https://dc.lft.to/lastmile_qr_scan", "android": "https://dc.lft.to/lastmile_qr_scan"}, "is_reserved": 0, "fusion_lon": 0.0, "fusion_lat": 0.0, "lon": -77.03423283333333, "name": "cc66eb497ed8546fcb199d13ff32a5df"}, {"bike_id": "ecf8ea7e671bfa5a0603195e636c0bfc", "type": "electric_scooter", "is_disabled": 0, "lat": 38.883764166666666, "rental_uris": {"ios": "https://dc.lft.to/lastmile_qr_scan", "android": "https://dc.lft.to/lastmile_qr_scan"}, "is_reserved": 0, "fusion_lon": 0.0, "fusion_lat": 0.0, "lon": -76.9954215, "name": "ecf8ea7e671bfa5a0603195e636c0bfc"}, {"bike_id": "8fc32a8e673b42a3d6b6435addd408f3", "type": "electric_scooter", "is_disabled": 0, "lat": 38.93231733333333, "rental_uris": {"ios": "https://dc.lft.to/lastmile_qr_scan", "android": "https://dc.lft.to/lastmile_qr_scan"}, "is_reserved": 0, "fusion_lon": 0.0, "fusion_lat": 0.0, "lon": -76.995072, "name": "8fc32a8e673b42a3d6b6435addd408f3"}, {"bike_id": "534b1e2a0d30b10df014d2024c5da60f", "type": "electric_scooter", "is_disabled": 0, "lat": 38.914841833333334, "rental_uris": {"ios": "https://dc.lft.to/lastmile_qr_scan", "android": "https://dc.lft.to/lastmile_qr_scan"}, "is_reserved": 0, "fusion_lon": 0.0, "fusion_lat": 0.0, "lon": -77.02187033333334, "name": "534b1e2a0d30b10df014d2024c5da60f"}, {"bike_id": "0e95ba03a97d2548268b1f8c12f7aa2a", "type": "electric_scooter", "is_disabled": 0, "lat": 38.89692016666667, "rental_uris": {"ios": "https://dc.lft.to/lastmile_qr_scan", "android": "https://dc.lft.to/lastmile_qr_scan"}, "is_reserved": 0, "fusion_lon": 0.0, "fusion_lat": 0.0, "lon": -76.99963316666667, "name": "0e95ba03a97d2548268b1f8c12f7aa2a"}, {"bike_id": "5e0d7a601bbc0a9163790fd0f498919d", "type": "electric_scooter", "is_disabled": 0, "lat": 38.9004445, "rental_uris": {"ios": "https://dc.lft.to/lastmile_qr_scan", "android": "https://dc.lft.to/lastmile_qr_scan"}, "is_reserved": 0, "fusion_lon": 0.0, "fusion_lat": 0.0, "lon": -76.98289266666667, "name": "5e0d7a601bbc0a9163790fd0f498919d"}, {"bike_id": "f8a8f1c6fd951ff950f27734316160cb", "type": "electric_bike", "is_disabled": 0, "lat": 38.97204583333333, "rental_uris": {"ios": "https://dc.lft.to/lastmile_qr_scan", "android": "https://dc.lft.to/lastmile_qr_scan"}, "is_reserved": 0, "fusion_lon": 0.0, "fusion_lat": 0.0, "lon": -77.03328566666667, "name": "f8a8f1c6fd951ff950f27734316160cb"}, {"bike_id": "b2094e8bf37c9879179e46467a4b7efa", "type": "electric_scooter", "is_disabled": 0, "lat": 38.89221233333333, "rental_uris": {"ios": "https://dc.lft.to/lastmile_qr_scan", "android": "https://dc.lft.to/lastmile_qr_scan"}, "is_reserved": 0, "fusion_lon": 0.0, "fusion_lat": 0.0, "lon": -77.0480225, "name": "b2094e8bf37c9879179e46467a4b7efa"}, {"bike_id": "06a55404769df3c9694aaabdfd0392dd", "type": "electric_scooter", "is_disabled": 0, "lat": 38.884911, "rental_uris": {"ios": "https://dc.lft.to/lastmile_qr_scan", "android": "https://dc.lft.to/lastmile_qr_scan"}, "is_reserved": 0, "fusion_lon": 0.0, "fusion_lat": 0.0, "lon": -77.03476833333333, "name": "06a55404769df3c9694aaabdfd0392dd"}, {"bike_id": "d411cb5d85abb854f6a8db0ebf19a9a1", "type": "electric_bike", "is_disabled": 0, "lat": 38.91548783333333, "rental_uris": {"ios": "https://dc.lft.to/lastmile_qr_scan", "android": "https://dc.lft.to/lastmile_qr_scan"}, "is_reserved": 0, "fusion_lon": 0.0, "fusion_lat": 0.0, "lon": -77.06673383333333, "name": "d411cb5d85abb854f6a8db0ebf19a9a1"}, {"bike_id": "929b7d95c2dbc1bfbf9d4822bf1226ce", "type": "electric_scooter", "is_disabled": 0, "lat": 38.912846333333334, "rental_uris": {"ios": "https://dc.lft.to/lastmile_qr_scan", "android": "https://dc.lft.to/lastmile_qr_scan"}, "is_reserved": 0, "fusion_lon": 0.0, "fusion_lat": 0.0, "lon": -77.03196766666667, "name": "929b7d95c2dbc1bfbf9d4822bf1226ce"}, {"bike_id": "4dcb1e2831bb9034664ec3e23e124f17", "type": "electric_scooter", "is_disabled": 0, "lat": 38.911924666666664, "rental_uris": {"ios": "https://dc.lft.to/lastmile_qr_scan", "android": "https://dc.lft.to/lastmile_qr_scan"}, "is_reserved": 0, "fusion_lon": 0.0, "fusion_lat": 0.0, "lon": -77.0383255, "name": "4dcb1e2831bb9034664ec3e23e124f17"}, {"bike_id": "87b0ec2fdb7d4a51b2c73adb94b27b55", "type": "electric_scooter", "is_disabled": 0, "lat": 38.909579666666666, "rental_uris": {"ios": "https://dc.lft.to/lastmile_qr_scan", "android": "https://dc.lft.to/lastmile_qr_scan"}, "is_reserved": 0, "fusion_lon": 0.0, "fusion_lat": 0.0, "lon": -77.048736, "name": "87b0ec2fdb7d4a51b2c73adb94b27b55"}, {"bike_id": "fb512f9dc8d10ed4f5b91824f8323f0b", "type": "electric_scooter", "is_disabled": 0, "lat": 38.9491985, "rental_uris": {"ios": "https://dc.lft.to/lastmile_qr_scan", "android": "https://dc.lft.to/lastmile_qr_scan"}, "is_reserved": 0, "fusion_lon": 0.0, "fusion_lat": 0.0, "lon": -77.0185585, "name": "fb512f9dc8d10ed4f5b91824f8323f0b"}, {"bike_id": "2f74e2d018dd0c195df247e1c1ea951b", "type": "electric_scooter", "is_disabled": 0, "lat": 38.9156865, "rental_uris": {"ios": "https://dc.lft.to/lastmile_qr_scan", "android": "https://dc.lft.to/lastmile_qr_scan"}, "is_reserved": 0, "fusion_lon": 0.0, "fusion_lat": 0.0, "lon": -77.01041383333333, "name": "2f74e2d018dd0c195df247e1c1ea951b"}, {"bike_id": "c7df39b15bfcc73393c8daadf1d65139", "type": "electric_scooter", "is_disabled": 0, "lat": 38.920959333333336, "rental_uris": {"ios": "https://dc.lft.to/lastmile_qr_scan", "android": "https://dc.lft.to/lastmile_qr_scan"}, "is_reserved": 0, "fusion_lon": 0.0, "fusion_lat": 0.0, "lon": -77.03172066666667, "name": "c7df39b15bfcc73393c8daadf1d65139"}, {"bike_id": "43e29ef09c42c165ba60bf3484aef0a6", "type": "electric_scooter", "is_disabled": 0, "lat": 38.92080333333333, "rental_uris": {"ios": "https://dc.lft.to/lastmile_qr_scan", "android": "https://dc.lft.to/lastmile_qr_scan"}, "is_reserved": 0, "fusion_lon": 0.0, "fusion_lat": 0.0, "lon": -77.0230165, "name": "43e29ef09c42c165ba60bf3484aef0a6"}, {"bike_id": "c328c68503a88c21609b7257a32ea6b5", "type": "electric_scooter", "is_disabled": 0, "lat": 38.892398166666666, "rental_uris": {"ios": "https://dc.lft.to/lastmile_qr_scan", "android": "https://dc.lft.to/lastmile_qr_scan"}, "is_reserved": 0, "fusion_lon": 0.0, "fusion_lat": 0.0, "lon": -77.04503633333333, "name": "c328c68503a88c21609b7257a32ea6b5"}, {"bike_id": "70ecf357b21355b2f2b273c8cd3936d6", "type": "electric_scooter", "is_disabled": 0, "lat": 38.90127116666667, "rental_uris": {"ios": "https://dc.lft.to/lastmile_qr_scan", "android": "https://dc.lft.to/lastmile_qr_scan"}, "is_reserved": 0, "fusion_lon": 0.0, "fusion_lat": 0.0, "lon": -77.018202, "name": "70ecf357b21355b2f2b273c8cd3936d6"}, {"bike_id": "611f0a02cdecdff581e8d6de747ee2dc", "type": "electric_scooter", "is_disabled": 0, "lat": 38.91272516666667, "rental_uris": {"ios": "https://dc.lft.to/lastmile_qr_scan", "android": "https://dc.lft.to/lastmile_qr_scan"}, "is_reserved": 0, "fusion_lon": 0.0, "fusion_lat": 0.0, "lon": -77.02302, "name": "611f0a02cdecdff581e8d6de747ee2dc"}, {"bike_id": "01fb4be8a9ce07edd87ed9d9d1f1c2ba", "type": "electric_scooter", "is_disabled": 0, "lat": 38.9232, "rental_uris": {"ios": "https://dc.lft.to/lastmile_qr_scan", "android": "https://dc.lft.to/lastmile_qr_scan"}, "is_reserved": 0, "fusion_lon": 0.0, "fusion_lat": 0.0, "lon": -77.03764283333334, "name": "01fb4be8a9ce07edd87ed9d9d1f1c2ba"}, {"bike_id": "1ad7ff323627b92a3eaf293f92370326", "type": "electric_scooter", "is_disabled": 0, "lat": 38.930796, "rental_uris": {"ios": "https://dc.lft.to/lastmile_qr_scan", "android": "https://dc.lft.to/lastmile_qr_scan"}, "is_reserved": 0, "fusion_lon": 0.0, "fusion_lat": 0.0, "lon": -77.02793916666667, "name": "1ad7ff323627b92a3eaf293f92370326"}, {"bike_id": "c3f1fd95ca6283bf85672fea14f98040", "type": "electric_scooter", "is_disabled": 0, "lat": 38.9150575, "rental_uris": {"ios": "https://dc.lft.to/lastmile_qr_scan", "android": "https://dc.lft.to/lastmile_qr_scan"}, "is_reserved": 0, "fusion_lon": 0.0, "fusion_lat": 0.0, "lon": -77.0177825, "name": "c3f1fd95ca6283bf85672fea14f98040"}, {"bike_id": "f19348e8db7ff22b73bca09e706749a1", "type": "electric_scooter", "is_disabled": 0, "lat": 38.91550683333333, "rental_uris": {"ios": "https://dc.lft.to/lastmile_qr_scan", "android": "https://dc.lft.to/lastmile_qr_scan"}, "is_reserved": 0, "fusion_lon": 0.0, "fusion_lat": 0.0, "lon": -77.0123075, "name": "f19348e8db7ff22b73bca09e706749a1"}, {"bike_id": "2098d5e83109b47bdc50c25f969e6ddb", "type": "electric_scooter", "is_disabled": 0, "lat": 38.90241266666666, "rental_uris": {"ios": "https://dc.lft.to/lastmile_qr_scan", "android": "https://dc.lft.to/lastmile_qr_scan"}, "is_reserved": 0, "fusion_lon": 0.0, "fusion_lat": 0.0, "lon": -77.03263183333334, "name": "2098d5e83109b47bdc50c25f969e6ddb"}, {"bike_id": "8fea0a1da4edd403afad580d604c56a7", "type": "electric_scooter", "is_disabled": 0, "lat": 38.90269383333333, "rental_uris": {"ios": "https://dc.lft.to/lastmile_qr_scan", "android": "https://dc.lft.to/lastmile_qr_scan"}, "is_reserved": 0, "fusion_lon": 0.0, "fusion_lat": 0.0, "lon": -77.01888016666666, "name": "8fea0a1da4edd403afad580d604c56a7"}, {"bike_id": "7a47959cdca2d7c2a3cafb32ff7a5a06", "type": "electric_scooter", "is_disabled": 0, "lat": 38.956498, "rental_uris": {"ios": "https://dc.lft.to/lastmile_qr_scan", "android": "https://dc.lft.to/lastmile_qr_scan"}, "is_reserved": 0, "fusion_lon": 0.0, "fusion_lat": 0.0, "lon": -77.02406783333333, "name": "7a47959cdca2d7c2a3cafb32ff7a5a06"}, {"bike_id": "011a5ec1f01bc5333c409aa6a17c745a", "type": "electric_scooter", "is_disabled": 0, "lat": 38.88716816666667, "rental_uris": {"ios": "https://dc.lft.to/lastmile_qr_scan", "android": "https://dc.lft.to/lastmile_qr_scan"}, "is_reserved": 0, "fusion_lon": 0.0, "fusion_lat": 0.0, "lon": -76.99630783333333, "name": "011a5ec1f01bc5333c409aa6a17c745a"}, {"bike_id": "5c66c1d6625bc6ff0977f2d31e548ff2", "type": "electric_scooter", "is_disabled": 0, "lat": 38.89743966666666, "rental_uris": {"ios": "https://dc.lft.to/lastmile_qr_scan", "android": "https://dc.lft.to/lastmile_qr_scan"}, "is_reserved": 0, "fusion_lon": 0.0, "fusion_lat": 0.0, "lon": -77.04680583333334, "name": "5c66c1d6625bc6ff0977f2d31e548ff2"}, {"bike_id": "82c47a407f498b1b9a8b8c0c64293376", "type": "electric_scooter", "is_disabled": 0, "lat": 38.892924, "rental_uris": {"ios": "https://dc.lft.to/lastmile_qr_scan", "android": "https://dc.lft.to/lastmile_qr_scan"}, "is_reserved": 0, "fusion_lon": 0.0, "fusion_lat": 0.0, "lon": -77.04876, "name": "82c47a407f498b1b9a8b8c0c64293376"}, {"bike_id": "7b9ee49f34b61de348a2684883292912", "type": "electric_scooter", "is_disabled": 0, "lat": 38.90562583333333, "rental_uris": {"ios": "https://dc.lft.to/lastmile_qr_scan", "android": "https://dc.lft.to/lastmile_qr_scan"}, "is_reserved": 0, "fusion_lon": 0.0, "fusion_lat": 0.0, "lon": -77.045007, "name": "7b9ee49f34b61de348a2684883292912"}, {"bike_id": "291afc31df5fa3aa4e9d554f9c6c86f2", "type": "electric_scooter", "is_disabled": 0, "lat": 38.929186666666666, "rental_uris": {"ios": "https://dc.lft.to/lastmile_qr_scan", "android": "https://dc.lft.to/lastmile_qr_scan"}, "is_reserved": 0, "fusion_lon": 0.0, "fusion_lat": 0.0, "lon": -77.0374105, "name": "291afc31df5fa3aa4e9d554f9c6c86f2"}, {"bike_id": "d90d16437b4f856f1c5cbc6d6927bafb", "type": "electric_scooter", "is_disabled": 0, "lat": 38.864413666666664, "rental_uris": {"ios": "https://dc.lft.to/lastmile_qr_scan", "android": "https://dc.lft.to/lastmile_qr_scan"}, "is_reserved": 0, "fusion_lon": 0.0, "fusion_lat": 0.0, "lon": -76.9798655, "name": "d90d16437b4f856f1c5cbc6d6927bafb"}, {"bike_id": "3d8a45e07c2995bdb51df886e6ed18cb", "type": "electric_scooter", "is_disabled": 0, "lat": 38.897319833333334, "rental_uris": {"ios": "https://dc.lft.to/lastmile_qr_scan", "android": "https://dc.lft.to/lastmile_qr_scan"}, "is_reserved": 0, "fusion_lon": 0.0, "fusion_lat": 0.0, "lon": -77.02717433333333, "name": "3d8a45e07c2995bdb51df886e6ed18cb"}, {"bike_id": "39af23f274a101e9698f3977e0353db9", "type": "electric_scooter", "is_disabled": 0, "lat": 38.87917216666666, "rental_uris": {"ios": "https://dc.lft.to/lastmile_qr_scan", "android": "https://dc.lft.to/lastmile_qr_scan"}, "is_reserved": 0, "fusion_lon": 0.0, "fusion_lat": 0.0, "lon": -77.00549133333334, "name": "39af23f274a101e9698f3977e0353db9"}, {"bike_id": "57faca3bfab6b25ad714b779b92244c5", "type": "electric_scooter", "is_disabled": 0, "lat": 38.9064405, "rental_uris": {"ios": "https://dc.lft.to/lastmile_qr_scan", "android": "https://dc.lft.to/lastmile_qr_scan"}, "is_reserved": 0, "fusion_lon": 0.0, "fusion_lat": 0.0, "lon": -77.018306, "name": "57faca3bfab6b25ad714b779b92244c5"}, {"bike_id": "75a7fdfda82aebf9c334173dab78cd14", "type": "electric_scooter", "is_disabled": 0, "lat": 38.89594133333333, "rental_uris": {"ios": "https://dc.lft.to/lastmile_qr_scan", "android": "https://dc.lft.to/lastmile_qr_scan"}, "is_reserved": 0, "fusion_lon": 0.0, "fusion_lat": 0.0, "lon": -77.02341416666667, "name": "75a7fdfda82aebf9c334173dab78cd14"}, {"bike_id": "d0d5030ab41fff6e57011d6ce0b98121", "type": "electric_scooter", "is_disabled": 0, "lat": 38.872224833333334, "rental_uris": {"ios": "https://dc.lft.to/lastmile_qr_scan", "android": "https://dc.lft.to/lastmile_qr_scan"}, "is_reserved": 0, "fusion_lon": 0.0, "fusion_lat": 0.0, "lon": -77.01762083333334, "name": "d0d5030ab41fff6e57011d6ce0b98121"}, {"bike_id": "b37ee42b4b36771a7dc80284067528eb", "type": "electric_scooter", "is_disabled": 0, "lat": 38.897386833333336, "rental_uris": {"ios": "https://dc.lft.to/lastmile_qr_scan", "android": "https://dc.lft.to/lastmile_qr_scan"}, "is_reserved": 0, "fusion_lon": 0.0, "fusion_lat": 0.0, "lon": -77.04676233333333, "name": "b37ee42b4b36771a7dc80284067528eb"}, {"bike_id": "111adc495854fba36291b7e317f024c3", "type": "electric_scooter", "is_disabled": 0, "lat": 38.892585833333335, "rental_uris": {"ios": "https://dc.lft.to/lastmile_qr_scan", "android": "https://dc.lft.to/lastmile_qr_scan"}, "is_reserved": 0, "fusion_lon": 0.0, "fusion_lat": 0.0, "lon": -76.925728, "name": "111adc495854fba36291b7e317f024c3"}, {"bike_id": "f7ef4ff1bb1888417f7518ec62777d33", "type": "electric_scooter", "is_disabled": 0, "lat": 38.88417583333333, "rental_uris": {"ios": "https://dc.lft.to/lastmile_qr_scan", "android": "https://dc.lft.to/lastmile_qr_scan"}, "is_reserved": 0, "fusion_lon": 0.0, "fusion_lat": 0.0, "lon": -77.00062266666667, "name": "f7ef4ff1bb1888417f7518ec62777d33"}, {"bike_id": "5e0b61b06cdc2e0cf7dfd3a332452414", "type": "electric_scooter", "is_disabled": 0, "lat": 38.8922855, "rental_uris": {"ios": "https://dc.lft.to/lastmile_qr_scan", "android": "https://dc.lft.to/lastmile_qr_scan"}, "is_reserved": 0, "fusion_lon": 0.0, "fusion_lat": 0.0, "lon": -77.049526, "name": "5e0b61b06cdc2e0cf7dfd3a332452414"}, {"bike_id": "28bc51705a33df7f7762cd6a4fa8a0f7", "type": "electric_scooter", "is_disabled": 0, "lat": 38.905862166666665, "rental_uris": {"ios": "https://dc.lft.to/lastmile_qr_scan", "android": "https://dc.lft.to/lastmile_qr_scan"}, "is_reserved": 0, "fusion_lon": 0.0, "fusion_lat": 0.0, "lon": -77.03416783333333, "name": "28bc51705a33df7f7762cd6a4fa8a0f7"}, {"bike_id": "b2c76d86fd6fad3ce3d8f45d6a5dcf24", "type": "electric_scooter", "is_disabled": 0, "lat": 38.906149, "rental_uris": {"ios": "https://dc.lft.to/lastmile_qr_scan", "android": "https://dc.lft.to/lastmile_qr_scan"}, "is_reserved": 0, "fusion_lon": 0.0, "fusion_lat": 0.0, "lon": -77.02799933333333, "name": "b2c76d86fd6fad3ce3d8f45d6a5dcf24"}, {"bike_id": "6af7e45b0e179ed9bbb90ae76baf1895", "type": "electric_scooter", "is_disabled": 0, "lat": 38.90569716666667, "rental_uris": {"ios": "https://dc.lft.to/lastmile_qr_scan", "android": "https://dc.lft.to/lastmile_qr_scan"}, "is_reserved": 0, "fusion_lon": 0.0, "fusion_lat": 0.0, "lon": -77.0025405, "name": "6af7e45b0e179ed9bbb90ae76baf1895"}, {"bike_id": "393770e152c9d32d340d79dbb23c6d8e", "type": "electric_scooter", "is_disabled": 0, "lat": 38.895907, "rental_uris": {"ios": "https://dc.lft.to/lastmile_qr_scan", "android": "https://dc.lft.to/lastmile_qr_scan"}, "is_reserved": 0, "fusion_lon": 0.0, "fusion_lat": 0.0, "lon": -77.04433283333333, "name": "393770e152c9d32d340d79dbb23c6d8e"}, {"bike_id": "cda6a3b89c2a404fb9f2656d2a2751b1", "type": "electric_scooter", "is_disabled": 0, "lat": 38.9006505, "rental_uris": {"ios": "https://dc.lft.to/lastmile_qr_scan", "android": "https://dc.lft.to/lastmile_qr_scan"}, "is_reserved": 0, "fusion_lon": 0.0, "fusion_lat": 0.0, "lon": -76.92740683333334, "name": "cda6a3b89c2a404fb9f2656d2a2751b1"}, {"bike_id": "4a405e59738ef39e22334261ed8078fd", "type": "electric_scooter", "is_disabled": 0, "lat": 38.9392705, "rental_uris": {"ios": "https://dc.lft.to/lastmile_qr_scan", "android": "https://dc.lft.to/lastmile_qr_scan"}, "is_reserved": 0, "fusion_lon": 0.0, "fusion_lat": 0.0, "lon": -77.0368225, "name": "4a405e59738ef39e22334261ed8078fd"}, {"bike_id": "64c43cb94a8f811779ffaf8cf683a0c8", "type": "electric_scooter", "is_disabled": 0, "lat": 38.932003333333334, "rental_uris": {"ios": "https://dc.lft.to/lastmile_qr_scan", "android": "https://dc.lft.to/lastmile_qr_scan"}, "is_reserved": 0, "fusion_lon": 0.0, "fusion_lat": 0.0, "lon": -77.02397883333333, "name": "64c43cb94a8f811779ffaf8cf683a0c8"}, {"bike_id": "fed97a7573fbc435119de48dba590cae", "type": "electric_scooter", "is_disabled": 0, "lat": 38.9017555, "rental_uris": {"ios": "https://dc.lft.to/lastmile_qr_scan", "android": "https://dc.lft.to/lastmile_qr_scan"}, "is_reserved": 0, "fusion_lon": 0.0, "fusion_lat": 0.0, "lon": -77.02034866666666, "name": "fed97a7573fbc435119de48dba590cae"}, {"bike_id": "23586248fb59c5c3c8637356e5d4d768", "type": "electric_scooter", "is_disabled": 0, "lat": 38.9006335, "rental_uris": {"ios": "https://dc.lft.to/lastmile_qr_scan", "android": "https://dc.lft.to/lastmile_qr_scan"}, "is_reserved": 0, "fusion_lon": 0.0, "fusion_lat": 0.0, "lon": -77.01302416666667, "name": "23586248fb59c5c3c8637356e5d4d768"}, {"bike_id": "b84eb999aff3a41a751f3a8a6dbfee68", "type": "electric_scooter", "is_disabled": 0, "lat": 38.9003075, "rental_uris": {"ios": "https://dc.lft.to/lastmile_qr_scan", "android": "https://dc.lft.to/lastmile_qr_scan"}, "is_reserved": 0, "fusion_lon": 0.0, "fusion_lat": 0.0, "lon": -76.99855333333333, "name": "b84eb999aff3a41a751f3a8a6dbfee68"}, {"bike_id": "1ed0042c53767fec32502f0ecfa65178", "type": "electric_scooter", "is_disabled": 0, "lat": 38.9231915, "rental_uris": {"ios": "https://dc.lft.to/lastmile_qr_scan", "android": "https://dc.lft.to/lastmile_qr_scan"}, "is_reserved": 0, "fusion_lon": 0.0, "fusion_lat": 0.0, "lon": -77.04441133333333, "name": "1ed0042c53767fec32502f0ecfa65178"}, {"bike_id": "df21b059b39513ad6ee0cb5e3b920884", "type": "electric_bike", "is_disabled": 0, "lat": 38.93293033333333, "rental_uris": {"ios": "https://dc.lft.to/lastmile_qr_scan", "android": "https://dc.lft.to/lastmile_qr_scan"}, "is_reserved": 0, "fusion_lon": 0.0, "fusion_lat": 0.0, "lon": -77.02061616666667, "name": "df21b059b39513ad6ee0cb5e3b920884"}, {"bike_id": "0b79878e29a4b54f8e18e09b9f0f126e", "type": "electric_scooter", "is_disabled": 0, "lat": 38.905718666666665, "rental_uris": {"ios": "https://dc.lft.to/lastmile_qr_scan", "android": "https://dc.lft.to/lastmile_qr_scan"}, "is_reserved": 0, "fusion_lon": 0.0, "fusion_lat": 0.0, "lon": -77.051377, "name": "0b79878e29a4b54f8e18e09b9f0f126e"}, {"bike_id": "78ada4043ca1d8842c74c820a56dbd35", "type": "electric_scooter", "is_disabled": 0, "lat": 38.94996066666667, "rental_uris": {"ios": "https://dc.lft.to/lastmile_qr_scan", "android": "https://dc.lft.to/lastmile_qr_scan"}, "is_reserved": 0, "fusion_lon": 0.0, "fusion_lat": 0.0, "lon": -77.01831716666666, "name": "78ada4043ca1d8842c74c820a56dbd35"}, {"bike_id": "9e7cae2b64917df4b11b4e1e97369770", "type": "electric_scooter", "is_disabled": 0, "lat": 38.87689, "rental_uris": {"ios": "https://dc.lft.to/lastmile_qr_scan", "android": "https://dc.lft.to/lastmile_qr_scan"}, "is_reserved": 0, "fusion_lon": 0.0, "fusion_lat": 0.0, "lon": -77.00054783333333, "name": "9e7cae2b64917df4b11b4e1e97369770"}, {"bike_id": "362b8bf7f10b15ba51c4c903eded6480", "type": "electric_scooter", "is_disabled": 0, "lat": 38.917588, "rental_uris": {"ios": "https://dc.lft.to/lastmile_qr_scan", "android": "https://dc.lft.to/lastmile_qr_scan"}, "is_reserved": 0, "fusion_lon": 0.0, "fusion_lat": 0.0, "lon": -77.04040233333333, "name": "362b8bf7f10b15ba51c4c903eded6480"}, {"bike_id": "5cde4d5fcced3c9562d032e204a25b70", "type": "electric_scooter", "is_disabled": 0, "lat": 38.8762305, "rental_uris": {"ios": "https://dc.lft.to/lastmile_qr_scan", "android": "https://dc.lft.to/lastmile_qr_scan"}, "is_reserved": 0, "fusion_lon": 0.0, "fusion_lat": 0.0, "lon": -76.965285, "name": "5cde4d5fcced3c9562d032e204a25b70"}, {"bike_id": "935c55b3f1be39f1b82a8e958bd75ee2", "type": "electric_bike", "is_disabled": 0, "lat": 38.8956455, "rental_uris": {"ios": "https://dc.lft.to/lastmile_qr_scan", "android": "https://dc.lft.to/lastmile_qr_scan"}, "is_reserved": 0, "fusion_lon": 0.0, "fusion_lat": 0.0, "lon": -77.12737683333333, "name": "935c55b3f1be39f1b82a8e958bd75ee2"}, {"bike_id": "b6d7d8bd5eecc90adb32c14705641b52", "type": "electric_scooter", "is_disabled": 0, "lat": 38.91108216666667, "rental_uris": {"ios": "https://dc.lft.to/lastmile_qr_scan", "android": "https://dc.lft.to/lastmile_qr_scan"}, "is_reserved": 0, "fusion_lon": 0.0, "fusion_lat": 0.0, "lon": -77.02767933333334, "name": "b6d7d8bd5eecc90adb32c14705641b52"}, {"bike_id": "1ae40706e43a02166a75b40b5285df2f", "type": "electric_scooter", "is_disabled": 0, "lat": 38.90724383333333, "rental_uris": {"ios": "https://dc.lft.to/lastmile_qr_scan", "android": "https://dc.lft.to/lastmile_qr_scan"}, "is_reserved": 0, "fusion_lon": 0.0, "fusion_lat": 0.0, "lon": -77.02245183333334, "name": "1ae40706e43a02166a75b40b5285df2f"}, {"bike_id": "4f007000819b4ce21e4408586e78ac04", "type": "electric_bike", "is_disabled": 0, "lat": 39.03989283333333, "rental_uris": {"ios": "https://dc.lft.to/lastmile_qr_scan", "android": "https://dc.lft.to/lastmile_qr_scan"}, "is_reserved": 0, "fusion_lon": 0.0, "fusion_lat": 0.0, "lon": -76.99929716666666, "name": "4f007000819b4ce21e4408586e78ac04"}, {"bike_id": "8924a8d6ffa9e8c953d564eb852c423a", "type": "electric_scooter", "is_disabled": 0, "lat": 38.932414666666666, "rental_uris": {"ios": "https://dc.lft.to/lastmile_qr_scan", "android": "https://dc.lft.to/lastmile_qr_scan"}, "is_reserved": 0, "fusion_lon": 0.0, "fusion_lat": 0.0, "lon": -76.99508833333333, "name": "8924a8d6ffa9e8c953d564eb852c423a"}, {"bike_id": "437ea32e6072f7b9b99d42a9ffce08cb", "type": "electric_scooter", "is_disabled": 0, "lat": 38.89223583333333, "rental_uris": {"ios": "https://dc.lft.to/lastmile_qr_scan", "android": "https://dc.lft.to/lastmile_qr_scan"}, "is_reserved": 0, "fusion_lon": 0.0, "fusion_lat": 0.0, "lon": -77.03169116666666, "name": "437ea32e6072f7b9b99d42a9ffce08cb"}, {"bike_id": "d2feb7f0b1d35800adf6373c83028b25", "type": "electric_scooter", "is_disabled": 0, "lat": 38.9075345, "rental_uris": {"ios": "https://dc.lft.to/lastmile_qr_scan", "android": "https://dc.lft.to/lastmile_qr_scan"}, "is_reserved": 0, "fusion_lon": 0.0, "fusion_lat": 0.0, "lon": -77.04198083333333, "name": "d2feb7f0b1d35800adf6373c83028b25"}, {"bike_id": "50f1b3dd154c577c98a985f7aa750f26", "type": "electric_scooter", "is_disabled": 0, "lat": 38.917063, "rental_uris": {"ios": "https://dc.lft.to/lastmile_qr_scan", "android": "https://dc.lft.to/lastmile_qr_scan"}, "is_reserved": 0, "fusion_lon": 0.0, "fusion_lat": 0.0, "lon": -77.04618383333333, "name": "50f1b3dd154c577c98a985f7aa750f26"}, {"bike_id": "a5b4d03278811d5b02d76eb7a3a540a8", "type": "electric_scooter", "is_disabled": 0, "lat": 38.922187666666666, "rental_uris": {"ios": "https://dc.lft.to/lastmile_qr_scan", "android": "https://dc.lft.to/lastmile_qr_scan"}, "is_reserved": 0, "fusion_lon": 0.0, "fusion_lat": 0.0, "lon": -77.03463283333333, "name": "a5b4d03278811d5b02d76eb7a3a540a8"}, {"bike_id": "81d3ffa3c7fcfb39535b83af2e3d65f5", "type": "electric_scooter", "is_disabled": 0, "lat": 38.929739166666664, "rental_uris": {"ios": "https://dc.lft.to/lastmile_qr_scan", "android": "https://dc.lft.to/lastmile_qr_scan"}, "is_reserved": 0, "fusion_lon": 0.0, "fusion_lat": 0.0, "lon": -77.031904, "name": "81d3ffa3c7fcfb39535b83af2e3d65f5"}, {"bike_id": "f6adbcf577e49b3574743d9caedb63ae", "type": "electric_scooter", "is_disabled": 0, "lat": 38.90292016666667, "rental_uris": {"ios": "https://dc.lft.to/lastmile_qr_scan", "android": "https://dc.lft.to/lastmile_qr_scan"}, "is_reserved": 0, "fusion_lon": 0.0, "fusion_lat": 0.0, "lon": -76.97636216666666, "name": "f6adbcf577e49b3574743d9caedb63ae"}, {"bike_id": "19e429dbd32bea9143331889657dcda3", "type": "electric_scooter", "is_disabled": 0, "lat": 38.92240683333333, "rental_uris": {"ios": "https://dc.lft.to/lastmile_qr_scan", "android": "https://dc.lft.to/lastmile_qr_scan"}, "is_reserved": 0, "fusion_lon": 0.0, "fusion_lat": 0.0, "lon": -77.03663216666666, "name": "19e429dbd32bea9143331889657dcda3"}, {"bike_id": "c622617b5a669ebc00f460c94e90d37f", "type": "electric_scooter", "is_disabled": 0, "lat": 38.90060033333334, "rental_uris": {"ios": "https://dc.lft.to/lastmile_qr_scan", "android": "https://dc.lft.to/lastmile_qr_scan"}, "is_reserved": 0, "fusion_lon": 0.0, "fusion_lat": 0.0, "lon": -77.03652783333334, "name": "c622617b5a669ebc00f460c94e90d37f"}, {"bike_id": "4a739b83a25f8a7b69d91cebeca36781", "type": "electric_scooter", "is_disabled": 0, "lat": 38.89020283333333, "rental_uris": {"ios": "https://dc.lft.to/lastmile_qr_scan", "android": "https://dc.lft.to/lastmile_qr_scan"}, "is_reserved": 0, "fusion_lon": 0.0, "fusion_lat": 0.0, "lon": -76.9373315, "name": "4a739b83a25f8a7b69d91cebeca36781"}, {"bike_id": "e25f584de87647dd61fa87696bf647cc", "type": "electric_scooter", "is_disabled": 0, "lat": 38.91713383333333, "rental_uris": {"ios": "https://dc.lft.to/lastmile_qr_scan", "android": "https://dc.lft.to/lastmile_qr_scan"}, "is_reserved": 0, "fusion_lon": 0.0, "fusion_lat": 0.0, "lon": -77.032004, "name": "e25f584de87647dd61fa87696bf647cc"}, {"bike_id": "c7e6abce4abee6d85261192f0e1c19d7", "type": "electric_scooter", "is_disabled": 0, "lat": 38.9093335, "rental_uris": {"ios": "https://dc.lft.to/lastmile_qr_scan", "android": "https://dc.lft.to/lastmile_qr_scan"}, "is_reserved": 0, "fusion_lon": 0.0, "fusion_lat": 0.0, "lon": -76.99973833333334, "name": "c7e6abce4abee6d85261192f0e1c19d7"}, {"bike_id": "f189f59c651abf10fde876be42beab91", "type": "electric_scooter", "is_disabled": 0, "lat": 38.900317666666666, "rental_uris": {"ios": "https://dc.lft.to/lastmile_qr_scan", "android": "https://dc.lft.to/lastmile_qr_scan"}, "is_reserved": 0, "fusion_lon": 0.0, "fusion_lat": 0.0, "lon": -76.98852833333333, "name": "f189f59c651abf10fde876be42beab91"}, {"bike_id": "03a6a500182a510a4b35bfa9d4694657", "type": "electric_scooter", "is_disabled": 0, "lat": 38.9171065, "rental_uris": {"ios": "https://dc.lft.to/lastmile_qr_scan", "android": "https://dc.lft.to/lastmile_qr_scan"}, "is_reserved": 0, "fusion_lon": 0.0, "fusion_lat": 0.0, "lon": -77.031462, "name": "03a6a500182a510a4b35bfa9d4694657"}, {"bike_id": "0145175509c11022d03e092f89ad8b41", "type": "electric_scooter", "is_disabled": 0, "lat": 38.915068, "rental_uris": {"ios": "https://dc.lft.to/lastmile_qr_scan", "android": "https://dc.lft.to/lastmile_qr_scan"}, "is_reserved": 0, "fusion_lon": 0.0, "fusion_lat": 0.0, "lon": -77.017785, "name": "0145175509c11022d03e092f89ad8b41"}, {"bike_id": "0473d37c85c90a0194cbcdb744725797", "type": "electric_scooter", "is_disabled": 0, "lat": 38.92165933333333, "rental_uris": {"ios": "https://dc.lft.to/lastmile_qr_scan", "android": "https://dc.lft.to/lastmile_qr_scan"}, "is_reserved": 0, "fusion_lon": 0.0, "fusion_lat": 0.0, "lon": -77.0334225, "name": "0473d37c85c90a0194cbcdb744725797"}, {"bike_id": "e2e3ac0b99e101756cf6cd57c4078897", "type": "electric_scooter", "is_disabled": 0, "lat": 38.91269333333334, "rental_uris": {"ios": "https://dc.lft.to/lastmile_qr_scan", "android": "https://dc.lft.to/lastmile_qr_scan"}, "is_reserved": 0, "fusion_lon": 0.0, "fusion_lat": 0.0, "lon": -77.022164, "name": "e2e3ac0b99e101756cf6cd57c4078897"}, {"bike_id": "a819f4a1f2eef2c10d622ba4d6f2d5ac", "type": "electric_scooter", "is_disabled": 0, "lat": 38.914243166666665, "rental_uris": {"ios": "https://dc.lft.to/lastmile_qr_scan", "android": "https://dc.lft.to/lastmile_qr_scan"}, "is_reserved": 0, "fusion_lon": 0.0, "fusion_lat": 0.0, "lon": -77.02411666666667, "name": "a819f4a1f2eef2c10d622ba4d6f2d5ac"}, {"bike_id": "10bda609c2c8dde7ba56a6a2d517818b", "type": "electric_bike", "is_disabled": 0, "lat": 38.9473805, "rental_uris": {"ios": "https://dc.lft.to/lastmile_qr_scan", "android": "https://dc.lft.to/lastmile_qr_scan"}, "is_reserved": 0, "fusion_lon": 0.0, "fusion_lat": 0.0, "lon": -76.99587533333333, "name": "10bda609c2c8dde7ba56a6a2d517818b"}, {"bike_id": "d5700ffdb12eb4e1c8c878a6a51a42c8", "type": "electric_scooter", "is_disabled": 0, "lat": 38.904097666666665, "rental_uris": {"ios": "https://dc.lft.to/lastmile_qr_scan", "android": "https://dc.lft.to/lastmile_qr_scan"}, "is_reserved": 0, "fusion_lon": 0.0, "fusion_lat": 0.0, "lon": -76.973336, "name": "d5700ffdb12eb4e1c8c878a6a51a42c8"}, {"bike_id": "08fa802e22d3624d6d99842bfcd30285", "type": "electric_scooter", "is_disabled": 0, "lat": 38.92082466666667, "rental_uris": {"ios": "https://dc.lft.to/lastmile_qr_scan", "android": "https://dc.lft.to/lastmile_qr_scan"}, "is_reserved": 0, "fusion_lon": 0.0, "fusion_lat": 0.0, "lon": -77.023039, "name": "08fa802e22d3624d6d99842bfcd30285"}, {"bike_id": "46ab64943075b73b82942908d71225c5", "type": "electric_scooter", "is_disabled": 0, "lat": 38.866540666666666, "rental_uris": {"ios": "https://dc.lft.to/lastmile_qr_scan", "android": "https://dc.lft.to/lastmile_qr_scan"}, "is_reserved": 0, "fusion_lon": 0.0, "fusion_lat": 0.0, "lon": -76.98868583333334, "name": "46ab64943075b73b82942908d71225c5"}, {"bike_id": "a2cb3eacd7cf32c666811156f9d5dd7c", "type": "electric_scooter", "is_disabled": 0, "lat": 38.917265666666665, "rental_uris": {"ios": "https://dc.lft.to/lastmile_qr_scan", "android": "https://dc.lft.to/lastmile_qr_scan"}, "is_reserved": 0, "fusion_lon": 0.0, "fusion_lat": 0.0, "lon": -77.0320925, "name": "a2cb3eacd7cf32c666811156f9d5dd7c"}, {"bike_id": "0f0b926e2760cf96c81ae3f72739a8e8", "type": "electric_scooter", "is_disabled": 0, "lat": 38.9046625, "rental_uris": {"ios": "https://dc.lft.to/lastmile_qr_scan", "android": "https://dc.lft.to/lastmile_qr_scan"}, "is_reserved": 0, "fusion_lon": 0.0, "fusion_lat": 0.0, "lon": -77.04850366666666, "name": "0f0b926e2760cf96c81ae3f72739a8e8"}, {"bike_id": "c6efbe6f26499eb3df0de433ae692adb", "type": "electric_scooter", "is_disabled": 0, "lat": 38.903703666666665, "rental_uris": {"ios": "https://dc.lft.to/lastmile_qr_scan", "android": "https://dc.lft.to/lastmile_qr_scan"}, "is_reserved": 0, "fusion_lon": 0.0, "fusion_lat": 0.0, "lon": -77.02206366666667, "name": "c6efbe6f26499eb3df0de433ae692adb"}, {"bike_id": "574496efc624d68106a2899d71d90637", "type": "electric_scooter", "is_disabled": 0, "lat": 38.926391333333335, "rental_uris": {"ios": "https://dc.lft.to/lastmile_qr_scan", "android": "https://dc.lft.to/lastmile_qr_scan"}, "is_reserved": 0, "fusion_lon": 0.0, "fusion_lat": 0.0, "lon": -77.03794866666667, "name": "574496efc624d68106a2899d71d90637"}, {"bike_id": "a0d1143518b95d5fd08fda1820d52c00", "type": "electric_scooter", "is_disabled": 0, "lat": 38.85895583333333, "rental_uris": {"ios": "https://dc.lft.to/lastmile_qr_scan", "android": "https://dc.lft.to/lastmile_qr_scan"}, "is_reserved": 0, "fusion_lon": 0.0, "fusion_lat": 0.0, "lon": -76.9972555, "name": "a0d1143518b95d5fd08fda1820d52c00"}, {"bike_id": "21a6504edcb44a1376a1b9d101ed995b", "type": "electric_scooter", "is_disabled": 0, "lat": 38.878148833333334, "rental_uris": {"ios": "https://dc.lft.to/lastmile_qr_scan", "android": "https://dc.lft.to/lastmile_qr_scan"}, "is_reserved": 0, "fusion_lon": 0.0, "fusion_lat": 0.0, "lon": -76.97174166666667, "name": "21a6504edcb44a1376a1b9d101ed995b"}, {"bike_id": "c9eed0821caa3686c2496d1ef2e58396", "type": "electric_scooter", "is_disabled": 0, "lat": 38.9377115, "rental_uris": {"ios": "https://dc.lft.to/lastmile_qr_scan", "android": "https://dc.lft.to/lastmile_qr_scan"}, "is_reserved": 0, "fusion_lon": 0.0, "fusion_lat": 0.0, "lon": -77.0197015, "name": "c9eed0821caa3686c2496d1ef2e58396"}, {"bike_id": "2cf6658808a596987a896d9e17c86d95", "type": "electric_scooter", "is_disabled": 0, "lat": 38.877519166666666, "rental_uris": {"ios": "https://dc.lft.to/lastmile_qr_scan", "android": "https://dc.lft.to/lastmile_qr_scan"}, "is_reserved": 0, "fusion_lon": 0.0, "fusion_lat": 0.0, "lon": -77.00447633333333, "name": "2cf6658808a596987a896d9e17c86d95"}, {"bike_id": "84cfe900e35af90fa039e5f834e45eb4", "type": "electric_bike", "is_disabled": 0, "lat": 38.99099, "rental_uris": {"ios": "https://dc.lft.to/lastmile_qr_scan", "android": "https://dc.lft.to/lastmile_qr_scan"}, "is_reserved": 0, "fusion_lon": 0.0, "fusion_lat": 0.0, "lon": -76.99367083333334, "name": "84cfe900e35af90fa039e5f834e45eb4"}, {"bike_id": "c6520987fe2ba96c7aff6c3e4381c36c", "type": "electric_scooter", "is_disabled": 0, "lat": 38.91104383333333, "rental_uris": {"ios": "https://dc.lft.to/lastmile_qr_scan", "android": "https://dc.lft.to/lastmile_qr_scan"}, "is_reserved": 0, "fusion_lon": 0.0, "fusion_lat": 0.0, "lon": -77.00219233333333, "name": "c6520987fe2ba96c7aff6c3e4381c36c"}, {"bike_id": "dce5b25e4f29f7c7c3d0e5741ec22992", "type": "electric_scooter", "is_disabled": 0, "lat": 38.91563766666667, "rental_uris": {"ios": "https://dc.lft.to/lastmile_qr_scan", "android": "https://dc.lft.to/lastmile_qr_scan"}, "is_reserved": 0, "fusion_lon": 0.0, "fusion_lat": 0.0, "lon": -77.03143466666667, "name": "dce5b25e4f29f7c7c3d0e5741ec22992"}, {"bike_id": "01801c2940be73741e71b73351aeda78", "type": "electric_bike", "is_disabled": 0, "lat": 38.961421, "rental_uris": {"ios": "https://dc.lft.to/lastmile_qr_scan", "android": "https://dc.lft.to/lastmile_qr_scan"}, "is_reserved": 0, "fusion_lon": 0.0, "fusion_lat": 0.0, "lon": -77.02806533333333, "name": "01801c2940be73741e71b73351aeda78"}, {"bike_id": "eac303fa3ae9ddbf4f22239810badf80", "type": "electric_scooter", "is_disabled": 0, "lat": 38.902624, "rental_uris": {"ios": "https://dc.lft.to/lastmile_qr_scan", "android": "https://dc.lft.to/lastmile_qr_scan"}, "is_reserved": 0, "fusion_lon": 0.0, "fusion_lat": 0.0, "lon": -77.01895433333334, "name": "eac303fa3ae9ddbf4f22239810badf80"}, {"bike_id": "470e6490500e8588de56d4fbd98c1506", "type": "electric_scooter", "is_disabled": 0, "lat": 38.88314666666667, "rental_uris": {"ios": "https://dc.lft.to/lastmile_qr_scan", "android": "https://dc.lft.to/lastmile_qr_scan"}, "is_reserved": 0, "fusion_lon": 0.0, "fusion_lat": 0.0, "lon": -77.00344933333334, "name": "470e6490500e8588de56d4fbd98c1506"}, {"bike_id": "dbfb06deeaa131fa8044f348a39efeb7", "type": "electric_scooter", "is_disabled": 0, "lat": 38.892418, "rental_uris": {"ios": "https://dc.lft.to/lastmile_qr_scan", "android": "https://dc.lft.to/lastmile_qr_scan"}, "is_reserved": 0, "fusion_lon": 0.0, "fusion_lat": 0.0, "lon": -77.03956066666667, "name": "dbfb06deeaa131fa8044f348a39efeb7"}, {"bike_id": "4b106752829d6a33d48afa646c0b09ec", "type": "electric_scooter", "is_disabled": 0, "lat": 38.89239033333333, "rental_uris": {"ios": "https://dc.lft.to/lastmile_qr_scan", "android": "https://dc.lft.to/lastmile_qr_scan"}, "is_reserved": 0, "fusion_lon": 0.0, "fusion_lat": 0.0, "lon": -77.04499766666666, "name": "4b106752829d6a33d48afa646c0b09ec"}, {"bike_id": "f5c41f328f7bc1ad189996532089384b", "type": "electric_scooter", "is_disabled": 0, "lat": 38.927389166666664, "rental_uris": {"ios": "https://dc.lft.to/lastmile_qr_scan", "android": "https://dc.lft.to/lastmile_qr_scan"}, "is_reserved": 0, "fusion_lon": 0.0, "fusion_lat": 0.0, "lon": -77.02267583333334, "name": "f5c41f328f7bc1ad189996532089384b"}, {"bike_id": "52a072ab8afa871dbd44b9321ff953ac", "type": "electric_scooter", "is_disabled": 0, "lat": 38.905007833333336, "rental_uris": {"ios": "https://dc.lft.to/lastmile_qr_scan", "android": "https://dc.lft.to/lastmile_qr_scan"}, "is_reserved": 0, "fusion_lon": 0.0, "fusion_lat": 0.0, "lon": -76.99956116666667, "name": "52a072ab8afa871dbd44b9321ff953ac"}, {"bike_id": "07383d191e988c67cca3dccc01816264", "type": "electric_bike", "is_disabled": 0, "lat": 38.8787725, "rental_uris": {"ios": "https://dc.lft.to/lastmile_qr_scan", "android": "https://dc.lft.to/lastmile_qr_scan"}, "is_reserved": 0, "fusion_lon": 0.0, "fusion_lat": 0.0, "lon": -77.096154, "name": "07383d191e988c67cca3dccc01816264"}, {"bike_id": "15ebd3b90a0a37a27886a4416a016de0", "type": "electric_scooter", "is_disabled": 0, "lat": 38.89882883333333, "rental_uris": {"ios": "https://dc.lft.to/lastmile_qr_scan", "android": "https://dc.lft.to/lastmile_qr_scan"}, "is_reserved": 0, "fusion_lon": 0.0, "fusion_lat": 0.0, "lon": -76.931775, "name": "15ebd3b90a0a37a27886a4416a016de0"}, {"bike_id": "e5883600fc07203820bde9489cf76cab", "type": "electric_scooter", "is_disabled": 0, "lat": 38.923765833333334, "rental_uris": {"ios": "https://dc.lft.to/lastmile_qr_scan", "android": "https://dc.lft.to/lastmile_qr_scan"}, "is_reserved": 0, "fusion_lon": 0.0, "fusion_lat": 0.0, "lon": -77.04131083333333, "name": "e5883600fc07203820bde9489cf76cab"}, {"bike_id": "37dc9d17d8e45e08c8d65201e53ea46d", "type": "electric_scooter", "is_disabled": 0, "lat": 38.90322416666667, "rental_uris": {"ios": "https://dc.lft.to/lastmile_qr_scan", "android": "https://dc.lft.to/lastmile_qr_scan"}, "is_reserved": 0, "fusion_lon": 0.0, "fusion_lat": 0.0, "lon": -77.02891583333333, "name": "37dc9d17d8e45e08c8d65201e53ea46d"}, {"bike_id": "a461815b61cf5c8107e6052564397a4f", "type": "electric_scooter", "is_disabled": 0, "lat": 38.902655, "rental_uris": {"ios": "https://dc.lft.to/lastmile_qr_scan", "android": "https://dc.lft.to/lastmile_qr_scan"}, "is_reserved": 0, "fusion_lon": 0.0, "fusion_lat": 0.0, "lon": -77.01756683333333, "name": "a461815b61cf5c8107e6052564397a4f"}, {"bike_id": "a98479db43b83b2beaef23f9d763a336", "type": "electric_scooter", "is_disabled": 0, "lat": 38.933318666666665, "rental_uris": {"ios": "https://dc.lft.to/lastmile_qr_scan", "android": "https://dc.lft.to/lastmile_qr_scan"}, "is_reserved": 0, "fusion_lon": 0.0, "fusion_lat": 0.0, "lon": -77.02919733333333, "name": "a98479db43b83b2beaef23f9d763a336"}, {"bike_id": "8c4bff6c6b38230130f4a3c9eee6443b", "type": "electric_scooter", "is_disabled": 0, "lat": 38.90754183333333, "rental_uris": {"ios": "https://dc.lft.to/lastmile_qr_scan", "android": "https://dc.lft.to/lastmile_qr_scan"}, "is_reserved": 0, "fusion_lon": 0.0, "fusion_lat": 0.0, "lon": -77.03186266666667, "name": "8c4bff6c6b38230130f4a3c9eee6443b"}, {"bike_id": "ac6da8db25fd081ce235dc65243f0c2b", "type": "electric_scooter", "is_disabled": 0, "lat": 38.90752916666667, "rental_uris": {"ios": "https://dc.lft.to/lastmile_qr_scan", "android": "https://dc.lft.to/lastmile_qr_scan"}, "is_reserved": 0, "fusion_lon": 0.0, "fusion_lat": 0.0, "lon": -77.04152516666667, "name": "ac6da8db25fd081ce235dc65243f0c2b"}, {"bike_id": "5dde4ac6c31d70224838b7f04bc0bc35", "type": "electric_scooter", "is_disabled": 0, "lat": 38.92972116666667, "rental_uris": {"ios": "https://dc.lft.to/lastmile_qr_scan", "android": "https://dc.lft.to/lastmile_qr_scan"}, "is_reserved": 0, "fusion_lon": 0.0, "fusion_lat": 0.0, "lon": -77.02792216666667, "name": "5dde4ac6c31d70224838b7f04bc0bc35"}, {"bike_id": "4be4c547ecfe5e4fd8ea47a06abce21f", "type": "electric_scooter", "is_disabled": 0, "lat": 38.911088166666666, "rental_uris": {"ios": "https://dc.lft.to/lastmile_qr_scan", "android": "https://dc.lft.to/lastmile_qr_scan"}, "is_reserved": 0, "fusion_lon": 0.0, "fusion_lat": 0.0, "lon": -77.03856666666667, "name": "4be4c547ecfe5e4fd8ea47a06abce21f"}, {"bike_id": "655fa593e1d7b018b80259b3d83faf71", "type": "electric_scooter", "is_disabled": 0, "lat": 38.9037665, "rental_uris": {"ios": "https://dc.lft.to/lastmile_qr_scan", "android": "https://dc.lft.to/lastmile_qr_scan"}, "is_reserved": 0, "fusion_lon": 0.0, "fusion_lat": 0.0, "lon": -77.0482465, "name": "655fa593e1d7b018b80259b3d83faf71"}, {"bike_id": "1524879615bba045f6058f2a8af654a3", "type": "electric_scooter", "is_disabled": 0, "lat": 38.87475333333333, "rental_uris": {"ios": "https://dc.lft.to/lastmile_qr_scan", "android": "https://dc.lft.to/lastmile_qr_scan"}, "is_reserved": 0, "fusion_lon": 0.0, "fusion_lat": 0.0, "lon": -77.01071216666666, "name": "1524879615bba045f6058f2a8af654a3"}, {"bike_id": "885429dff519d8254a68d3b278009840", "type": "electric_scooter", "is_disabled": 0, "lat": 38.922987166666665, "rental_uris": {"ios": "https://dc.lft.to/lastmile_qr_scan", "android": "https://dc.lft.to/lastmile_qr_scan"}, "is_reserved": 0, "fusion_lon": 0.0, "fusion_lat": 0.0, "lon": -77.073202, "name": "885429dff519d8254a68d3b278009840"}, {"bike_id": "c56b136e7791c7de8421e1c624fc8f57", "type": "electric_scooter", "is_disabled": 0, "lat": 38.919842833333334, "rental_uris": {"ios": "https://dc.lft.to/lastmile_qr_scan", "android": "https://dc.lft.to/lastmile_qr_scan"}, "is_reserved": 0, "fusion_lon": 0.0, "fusion_lat": 0.0, "lon": -77.01790833333334, "name": "c56b136e7791c7de8421e1c624fc8f57"}, {"bike_id": "978dc079bf1de5331fe8c3224d09b75a", "type": "electric_scooter", "is_disabled": 0, "lat": 38.93251766666667, "rental_uris": {"ios": "https://dc.lft.to/lastmile_qr_scan", "android": "https://dc.lft.to/lastmile_qr_scan"}, "is_reserved": 0, "fusion_lon": 0.0, "fusion_lat": 0.0, "lon": -77.0297515, "name": "978dc079bf1de5331fe8c3224d09b75a"}, {"bike_id": "ec9c457eb8fb89d48e496cbe6b9b1f37", "type": "electric_scooter", "is_disabled": 0, "lat": 38.90417983333333, "rental_uris": {"ios": "https://dc.lft.to/lastmile_qr_scan", "android": "https://dc.lft.to/lastmile_qr_scan"}, "is_reserved": 0, "fusion_lon": 0.0, "fusion_lat": 0.0, "lon": -77.04870216666667, "name": "ec9c457eb8fb89d48e496cbe6b9b1f37"}, {"bike_id": "491c2d4438bb34c9a72fb4b7330618bd", "type": "electric_scooter", "is_disabled": 0, "lat": 38.91839616666667, "rental_uris": {"ios": "https://dc.lft.to/lastmile_qr_scan", "android": "https://dc.lft.to/lastmile_qr_scan"}, "is_reserved": 0, "fusion_lon": 0.0, "fusion_lat": 0.0, "lon": -77.03948566666666, "name": "491c2d4438bb34c9a72fb4b7330618bd"}, {"bike_id": "5fd80adda9e54e6a1e46de57ad2b0ba1", "type": "electric_scooter", "is_disabled": 0, "lat": 38.90087883333333, "rental_uris": {"ios": "https://dc.lft.to/lastmile_qr_scan", "android": "https://dc.lft.to/lastmile_qr_scan"}, "is_reserved": 0, "fusion_lon": 0.0, "fusion_lat": 0.0, "lon": -77.049934, "name": "5fd80adda9e54e6a1e46de57ad2b0ba1"}, {"bike_id": "e4209f3c480178c691c7a4f8e13d45a3", "type": "electric_scooter", "is_disabled": 0, "lat": 38.92211966666667, "rental_uris": {"ios": "https://dc.lft.to/lastmile_qr_scan", "android": "https://dc.lft.to/lastmile_qr_scan"}, "is_reserved": 0, "fusion_lon": 0.0, "fusion_lat": 0.0, "lon": -77.04252583333333, "name": "e4209f3c480178c691c7a4f8e13d45a3"}, {"bike_id": "5eea58ce6b5f59641ed68ad4d3d31e38", "type": "electric_scooter", "is_disabled": 0, "lat": 38.9110755, "rental_uris": {"ios": "https://dc.lft.to/lastmile_qr_scan", "android": "https://dc.lft.to/lastmile_qr_scan"}, "is_reserved": 0, "fusion_lon": 0.0, "fusion_lat": 0.0, "lon": -77.00221916666666, "name": "5eea58ce6b5f59641ed68ad4d3d31e38"}, {"bike_id": "dd04560271acb44c80ac86fca46b6e07", "type": "electric_scooter", "is_disabled": 0, "lat": 38.93822633333333, "rental_uris": {"ios": "https://dc.lft.to/lastmile_qr_scan", "android": "https://dc.lft.to/lastmile_qr_scan"}, "is_reserved": 0, "fusion_lon": 0.0, "fusion_lat": 0.0, "lon": -77.05994366666667, "name": "dd04560271acb44c80ac86fca46b6e07"}, {"bike_id": "dbbd1112815f8ce804c8241c0a0e1b4a", "type": "electric_bike", "is_disabled": 0, "lat": 38.96416683333333, "rental_uris": {"ios": "https://dc.lft.to/lastmile_qr_scan", "android": "https://dc.lft.to/lastmile_qr_scan"}, "is_reserved": 0, "fusion_lon": 0.0, "fusion_lat": 0.0, "lon": -77.00014033333333, "name": "dbbd1112815f8ce804c8241c0a0e1b4a"}, {"bike_id": "3277de2c9f91241bf57f44469f8bda97", "type": "electric_scooter", "is_disabled": 0, "lat": 38.88488983333333, "rental_uris": {"ios": "https://dc.lft.to/lastmile_qr_scan", "android": "https://dc.lft.to/lastmile_qr_scan"}, "is_reserved": 0, "fusion_lon": 0.0, "fusion_lat": 0.0, "lon": -77.0347735, "name": "3277de2c9f91241bf57f44469f8bda97"}, {"bike_id": "3d2d738aae29b99d9390c9874794abec", "type": "electric_scooter", "is_disabled": 0, "lat": 38.90583766666666, "rental_uris": {"ios": "https://dc.lft.to/lastmile_qr_scan", "android": "https://dc.lft.to/lastmile_qr_scan"}, "is_reserved": 0, "fusion_lon": 0.0, "fusion_lat": 0.0, "lon": -77.05143933333333, "name": "3d2d738aae29b99d9390c9874794abec"}, {"bike_id": "ff477daf1d5b79f4b7f8786bf67eedb7", "type": "electric_scooter", "is_disabled": 0, "lat": 38.88213433333333, "rental_uris": {"ios": "https://dc.lft.to/lastmile_qr_scan", "android": "https://dc.lft.to/lastmile_qr_scan"}, "is_reserved": 0, "fusion_lon": 0.0, "fusion_lat": 0.0, "lon": -77.029149, "name": "ff477daf1d5b79f4b7f8786bf67eedb7"}, {"bike_id": "f5e710f0d6073b92b232dcd4967d77e1", "type": "electric_scooter", "is_disabled": 0, "lat": 38.895259333333335, "rental_uris": {"ios": "https://dc.lft.to/lastmile_qr_scan", "android": "https://dc.lft.to/lastmile_qr_scan"}, "is_reserved": 0, "fusion_lon": 0.0, "fusion_lat": 0.0, "lon": -77.02280083333333, "name": "f5e710f0d6073b92b232dcd4967d77e1"}, {"bike_id": "c17c5f32a8fdaad4cdd5c9a03918c560", "type": "electric_scooter", "is_disabled": 0, "lat": 38.887182333333335, "rental_uris": {"ios": "https://dc.lft.to/lastmile_qr_scan", "android": "https://dc.lft.to/lastmile_qr_scan"}, "is_reserved": 0, "fusion_lon": 0.0, "fusion_lat": 0.0, "lon": -77.02175116666666, "name": "c17c5f32a8fdaad4cdd5c9a03918c560"}, {"bike_id": "23e69f0dcc7f9dde4f25f3a9ca7e14d8", "type": "electric_scooter", "is_disabled": 0, "lat": 38.907389333333334, "rental_uris": {"ios": "https://dc.lft.to/lastmile_qr_scan", "android": "https://dc.lft.to/lastmile_qr_scan"}, "is_reserved": 0, "fusion_lon": 0.0, "fusion_lat": 0.0, "lon": -77.0218255, "name": "23e69f0dcc7f9dde4f25f3a9ca7e14d8"}, {"bike_id": "4e1a300987e4c5a791017491b621955f", "type": "electric_scooter", "is_disabled": 0, "lat": 38.908483333333336, "rental_uris": {"ios": "https://dc.lft.to/lastmile_qr_scan", "android": "https://dc.lft.to/lastmile_qr_scan"}, "is_reserved": 0, "fusion_lon": 0.0, "fusion_lat": 0.0, "lon": -77.02057683333334, "name": "4e1a300987e4c5a791017491b621955f"}, {"bike_id": "e8cab6d780c07dd20a342474ca682734", "type": "electric_scooter", "is_disabled": 0, "lat": 38.8663415, "rental_uris": {"ios": "https://dc.lft.to/lastmile_qr_scan", "android": "https://dc.lft.to/lastmile_qr_scan"}, "is_reserved": 0, "fusion_lon": 0.0, "fusion_lat": 0.0, "lon": -76.98911333333334, "name": "e8cab6d780c07dd20a342474ca682734"}, {"bike_id": "20c08029cb001ccb576c9bdb6e854821", "type": "electric_scooter", "is_disabled": 0, "lat": 38.902423166666665, "rental_uris": {"ios": "https://dc.lft.to/lastmile_qr_scan", "android": "https://dc.lft.to/lastmile_qr_scan"}, "is_reserved": 0, "fusion_lon": 0.0, "fusion_lat": 0.0, "lon": -77.03581416666667, "name": "20c08029cb001ccb576c9bdb6e854821"}, {"bike_id": "7a01f478bee1415362d9f30cb7a5a516", "type": "electric_scooter", "is_disabled": 0, "lat": 38.916891166666666, "rental_uris": {"ios": "https://dc.lft.to/lastmile_qr_scan", "android": "https://dc.lft.to/lastmile_qr_scan"}, "is_reserved": 0, "fusion_lon": 0.0, "fusion_lat": 0.0, "lon": -77.03848083333334, "name": "7a01f478bee1415362d9f30cb7a5a516"}, {"bike_id": "0bb3754d5db3d9a8ac691a104c0e9ebc", "type": "electric_scooter", "is_disabled": 0, "lat": 38.8842865, "rental_uris": {"ios": "https://dc.lft.to/lastmile_qr_scan", "android": "https://dc.lft.to/lastmile_qr_scan"}, "is_reserved": 0, "fusion_lon": 0.0, "fusion_lat": 0.0, "lon": -76.95755883333334, "name": "0bb3754d5db3d9a8ac691a104c0e9ebc"}, {"bike_id": "c614c32d15b38db5a87709b0e42045e6", "type": "electric_scooter", "is_disabled": 0, "lat": 38.9262225, "rental_uris": {"ios": "https://dc.lft.to/lastmile_qr_scan", "android": "https://dc.lft.to/lastmile_qr_scan"}, "is_reserved": 0, "fusion_lon": 0.0, "fusion_lat": 0.0, "lon": -77.03704216666667, "name": "c614c32d15b38db5a87709b0e42045e6"}, {"bike_id": "7092eaaed501f93fdc0700e45bb1a356", "type": "electric_scooter", "is_disabled": 0, "lat": 38.915543666666665, "rental_uris": {"ios": "https://dc.lft.to/lastmile_qr_scan", "android": "https://dc.lft.to/lastmile_qr_scan"}, "is_reserved": 0, "fusion_lon": 0.0, "fusion_lat": 0.0, "lon": -77.02139216666667, "name": "7092eaaed501f93fdc0700e45bb1a356"}, {"bike_id": "515f91af24f7bdbadafb04664a26d2d2", "type": "electric_scooter", "is_disabled": 0, "lat": 38.905719, "rental_uris": {"ios": "https://dc.lft.to/lastmile_qr_scan", "android": "https://dc.lft.to/lastmile_qr_scan"}, "is_reserved": 0, "fusion_lon": 0.0, "fusion_lat": 0.0, "lon": -77.04512566666666, "name": "515f91af24f7bdbadafb04664a26d2d2"}, {"bike_id": "2a8543de36d22b92a0d221496b701a95", "type": "electric_scooter", "is_disabled": 0, "lat": 38.908123833333335, "rental_uris": {"ios": "https://dc.lft.to/lastmile_qr_scan", "android": "https://dc.lft.to/lastmile_qr_scan"}, "is_reserved": 0, "fusion_lon": 0.0, "fusion_lat": 0.0, "lon": -77.02602566666667, "name": "2a8543de36d22b92a0d221496b701a95"}, {"bike_id": "84ae07965dd7677dc35e54e511e44ec5", "type": "electric_bike", "is_disabled": 0, "lat": 38.86518483333333, "rental_uris": {"ios": "https://dc.lft.to/lastmile_qr_scan", "android": "https://dc.lft.to/lastmile_qr_scan"}, "is_reserved": 0, "fusion_lon": 0.0, "fusion_lat": 0.0, "lon": -77.12941133333334, "name": "84ae07965dd7677dc35e54e511e44ec5"}, {"bike_id": "070a6105601ae5eac6b754b1195da365", "type": "electric_bike", "is_disabled": 0, "lat": 38.803969333333335, "rental_uris": {"ios": "https://dc.lft.to/lastmile_qr_scan", "android": "https://dc.lft.to/lastmile_qr_scan"}, "is_reserved": 0, "fusion_lon": 0.0, "fusion_lat": 0.0, "lon": -77.05573416666667, "name": "070a6105601ae5eac6b754b1195da365"}, {"bike_id": "b1406f3153c8e4226d864f42818dbad0", "type": "electric_bike", "is_disabled": 0, "lat": 38.9190385, "rental_uris": {"ios": "https://dc.lft.to/lastmile_qr_scan", "android": "https://dc.lft.to/lastmile_qr_scan"}, "is_reserved": 0, "fusion_lon": 0.0, "fusion_lat": 0.0, "lon": -77.00064666666667, "name": "b1406f3153c8e4226d864f42818dbad0"}, {"bike_id": "0a21355d3d4f0ae9a10525034f803f5b", "type": "electric_scooter", "is_disabled": 0, "lat": 38.944709, "rental_uris": {"ios": "https://dc.lft.to/lastmile_qr_scan", "android": "https://dc.lft.to/lastmile_qr_scan"}, "is_reserved": 0, "fusion_lon": 0.0, "fusion_lat": 0.0, "lon": -77.023437, "name": "0a21355d3d4f0ae9a10525034f803f5b"}, {"bike_id": "b62ed1fe9a1779a88111efc46397ece0", "type": "electric_scooter", "is_disabled": 0, "lat": 38.87886183333333, "rental_uris": {"ios": "https://dc.lft.to/lastmile_qr_scan", "android": "https://dc.lft.to/lastmile_qr_scan"}, "is_reserved": 0, "fusion_lon": 0.0, "fusion_lat": 0.0, "lon": -76.99164666666667, "name": "b62ed1fe9a1779a88111efc46397ece0"}, {"bike_id": "f07a043aad3e6498cf02c1b2d959d0c4", "type": "electric_scooter", "is_disabled": 0, "lat": 38.90062233333333, "rental_uris": {"ios": "https://dc.lft.to/lastmile_qr_scan", "android": "https://dc.lft.to/lastmile_qr_scan"}, "is_reserved": 0, "fusion_lon": 0.0, "fusion_lat": 0.0, "lon": -77.05064516666667, "name": "f07a043aad3e6498cf02c1b2d959d0c4"}, {"bike_id": "31f2951bfce1f3a8d250dd60de9fa4a8", "type": "electric_scooter", "is_disabled": 0, "lat": 38.897036, "rental_uris": {"ios": "https://dc.lft.to/lastmile_qr_scan", "android": "https://dc.lft.to/lastmile_qr_scan"}, "is_reserved": 0, "fusion_lon": 0.0, "fusion_lat": 0.0, "lon": -76.92996166666667, "name": "31f2951bfce1f3a8d250dd60de9fa4a8"}, {"bike_id": "f97b36cef39383d68332d61bbb9e71e9", "type": "electric_scooter", "is_disabled": 0, "lat": 38.90733433333333, "rental_uris": {"ios": "https://dc.lft.to/lastmile_qr_scan", "android": "https://dc.lft.to/lastmile_qr_scan"}, "is_reserved": 0, "fusion_lon": 0.0, "fusion_lat": 0.0, "lon": -77.04263466666667, "name": "f97b36cef39383d68332d61bbb9e71e9"}, {"bike_id": "f055ae56d65445e6611ff4f6f9946887", "type": "electric_bike", "is_disabled": 0, "lat": 38.90540883333333, "rental_uris": {"ios": "https://dc.lft.to/lastmile_qr_scan", "android": "https://dc.lft.to/lastmile_qr_scan"}, "is_reserved": 0, "fusion_lon": 0.0, "fusion_lat": 0.0, "lon": -77.02929283333333, "name": "f055ae56d65445e6611ff4f6f9946887"}, {"bike_id": "e3453864aa801bbff9f41afda387d88d", "type": "electric_scooter", "is_disabled": 0, "lat": 38.905064833333334, "rental_uris": {"ios": "https://dc.lft.to/lastmile_qr_scan", "android": "https://dc.lft.to/lastmile_qr_scan"}, "is_reserved": 0, "fusion_lon": 0.0, "fusion_lat": 0.0, "lon": -77.060178, "name": "e3453864aa801bbff9f41afda387d88d"}, {"bike_id": "b40f5228229f76c301106c224dee70fd", "type": "electric_scooter", "is_disabled": 0, "lat": 38.97369166666667, "rental_uris": {"ios": "https://dc.lft.to/lastmile_qr_scan", "android": "https://dc.lft.to/lastmile_qr_scan"}, "is_reserved": 0, "fusion_lon": 0.0, "fusion_lat": 0.0, "lon": -77.018671, "name": "b40f5228229f76c301106c224dee70fd"}, {"bike_id": "bbf3787391a2d5c90c4e15a6bd4bc272", "type": "electric_scooter", "is_disabled": 0, "lat": 38.94787566666667, "rental_uris": {"ios": "https://dc.lft.to/lastmile_qr_scan", "android": "https://dc.lft.to/lastmile_qr_scan"}, "is_reserved": 0, "fusion_lon": 0.0, "fusion_lat": 0.0, "lon": -77.0213595, "name": "bbf3787391a2d5c90c4e15a6bd4bc272"}, {"bike_id": "ae47bbd4823332d475e532f8c64fbac8", "type": "electric_scooter", "is_disabled": 0, "lat": 38.893642666666665, "rental_uris": {"ios": "https://dc.lft.to/lastmile_qr_scan", "android": "https://dc.lft.to/lastmile_qr_scan"}, "is_reserved": 0, "fusion_lon": 0.0, "fusion_lat": 0.0, "lon": -76.947034, "name": "ae47bbd4823332d475e532f8c64fbac8"}, {"bike_id": "82e9cf26b4417c7d158871c1abe7c006", "type": "electric_scooter", "is_disabled": 0, "lat": 38.90269216666667, "rental_uris": {"ios": "https://dc.lft.to/lastmile_qr_scan", "android": "https://dc.lft.to/lastmile_qr_scan"}, "is_reserved": 0, "fusion_lon": 0.0, "fusion_lat": 0.0, "lon": -77.01891183333333, "name": "82e9cf26b4417c7d158871c1abe7c006"}, {"bike_id": "b0a38208b89f6fbbde3e174498d12682", "type": "electric_scooter", "is_disabled": 0, "lat": 38.87662183333333, "rental_uris": {"ios": "https://dc.lft.to/lastmile_qr_scan", "android": "https://dc.lft.to/lastmile_qr_scan"}, "is_reserved": 0, "fusion_lon": 0.0, "fusion_lat": 0.0, "lon": -77.004294, "name": "b0a38208b89f6fbbde3e174498d12682"}, {"bike_id": "0bc5d26e2a8d25d940fcd0c799baeb86", "type": "electric_scooter", "is_disabled": 0, "lat": 38.90564716666667, "rental_uris": {"ios": "https://dc.lft.to/lastmile_qr_scan", "android": "https://dc.lft.to/lastmile_qr_scan"}, "is_reserved": 0, "fusion_lon": 0.0, "fusion_lat": 0.0, "lon": -77.02801783333334, "name": "0bc5d26e2a8d25d940fcd0c799baeb86"}, {"bike_id": "2b35f6f3813b6cd00191f6f5db8445b7", "type": "electric_scooter", "is_disabled": 0, "lat": 38.8970195, "rental_uris": {"ios": "https://dc.lft.to/lastmile_qr_scan", "android": "https://dc.lft.to/lastmile_qr_scan"}, "is_reserved": 0, "fusion_lon": 0.0, "fusion_lat": 0.0, "lon": -77.04883783333334, "name": "2b35f6f3813b6cd00191f6f5db8445b7"}, {"bike_id": "96236baf35968692b084976d09fa5800", "type": "electric_scooter", "is_disabled": 0, "lat": 38.916123, "rental_uris": {"ios": "https://dc.lft.to/lastmile_qr_scan", "android": "https://dc.lft.to/lastmile_qr_scan"}, "is_reserved": 0, "fusion_lon": 0.0, "fusion_lat": 0.0, "lon": -77.03109216666667, "name": "96236baf35968692b084976d09fa5800"}, {"bike_id": "f50b163c6c8a11fe4acf3eaae484a068", "type": "electric_scooter", "is_disabled": 0, "lat": 38.91293266666667, "rental_uris": {"ios": "https://dc.lft.to/lastmile_qr_scan", "android": "https://dc.lft.to/lastmile_qr_scan"}, "is_reserved": 0, "fusion_lon": 0.0, "fusion_lat": 0.0, "lon": -77.02964733333333, "name": "f50b163c6c8a11fe4acf3eaae484a068"}, {"bike_id": "ca326ca4de8fe6f8964918ec5c22361c", "type": "electric_scooter", "is_disabled": 0, "lat": 38.89218833333334, "rental_uris": {"ios": "https://dc.lft.to/lastmile_qr_scan", "android": "https://dc.lft.to/lastmile_qr_scan"}, "is_reserved": 0, "fusion_lon": 0.0, "fusion_lat": 0.0, "lon": -77.02230966666667, "name": "ca326ca4de8fe6f8964918ec5c22361c"}, {"bike_id": "e3de8b0479bb4547f0165846121d35ea", "type": "electric_scooter", "is_disabled": 0, "lat": 38.909149, "rental_uris": {"ios": "https://dc.lft.to/lastmile_qr_scan", "android": "https://dc.lft.to/lastmile_qr_scan"}, "is_reserved": 0, "fusion_lon": 0.0, "fusion_lat": 0.0, "lon": -77.031856, "name": "e3de8b0479bb4547f0165846121d35ea"}, {"bike_id": "a745e187f921bf49269aa6787897c017", "type": "electric_scooter", "is_disabled": 0, "lat": 38.913237333333335, "rental_uris": {"ios": "https://dc.lft.to/lastmile_qr_scan", "android": "https://dc.lft.to/lastmile_qr_scan"}, "is_reserved": 0, "fusion_lon": 0.0, "fusion_lat": 0.0, "lon": -77.0385965, "name": "a745e187f921bf49269aa6787897c017"}, {"bike_id": "dc84e80a3e34b32576949c986dc935fe", "type": "electric_scooter", "is_disabled": 0, "lat": 38.9279275, "rental_uris": {"ios": "https://dc.lft.to/lastmile_qr_scan", "android": "https://dc.lft.to/lastmile_qr_scan"}, "is_reserved": 0, "fusion_lon": 0.0, "fusion_lat": 0.0, "lon": -77.053565, "name": "dc84e80a3e34b32576949c986dc935fe"}, {"bike_id": "fbeef0c85ba2e51e78ef3ae312d4166a", "type": "electric_scooter", "is_disabled": 0, "lat": 38.89513383333333, "rental_uris": {"ios": "https://dc.lft.to/lastmile_qr_scan", "android": "https://dc.lft.to/lastmile_qr_scan"}, "is_reserved": 0, "fusion_lon": 0.0, "fusion_lat": 0.0, "lon": -77.04335083333334, "name": "fbeef0c85ba2e51e78ef3ae312d4166a"}, {"bike_id": "b9ed0d8569837330dc33e188be19ba04", "type": "electric_scooter", "is_disabled": 0, "lat": 38.90794133333333, "rental_uris": {"ios": "https://dc.lft.to/lastmile_qr_scan", "android": "https://dc.lft.to/lastmile_qr_scan"}, "is_reserved": 0, "fusion_lon": 0.0, "fusion_lat": 0.0, "lon": -77.02694216666667, "name": "b9ed0d8569837330dc33e188be19ba04"}, {"bike_id": "1b65f973a750001657e6f9cca1fff24a", "type": "electric_scooter", "is_disabled": 0, "lat": 38.9371075, "rental_uris": {"ios": "https://dc.lft.to/lastmile_qr_scan", "android": "https://dc.lft.to/lastmile_qr_scan"}, "is_reserved": 0, "fusion_lon": 0.0, "fusion_lat": 0.0, "lon": -77.0363645, "name": "1b65f973a750001657e6f9cca1fff24a"}, {"bike_id": "02a8910e7e1a082dfd37198ffcebaa31", "type": "electric_scooter", "is_disabled": 0, "lat": 38.903577, "rental_uris": {"ios": "https://dc.lft.to/lastmile_qr_scan", "android": "https://dc.lft.to/lastmile_qr_scan"}, "is_reserved": 0, "fusion_lon": 0.0, "fusion_lat": 0.0, "lon": -76.99217683333333, "name": "02a8910e7e1a082dfd37198ffcebaa31"}, {"bike_id": "a603716cb8d3671392ec9c187e4413c0", "type": "electric_scooter", "is_disabled": 0, "lat": 38.90028616666667, "rental_uris": {"ios": "https://dc.lft.to/lastmile_qr_scan", "android": "https://dc.lft.to/lastmile_qr_scan"}, "is_reserved": 0, "fusion_lon": 0.0, "fusion_lat": 0.0, "lon": -77.0379665, "name": "a603716cb8d3671392ec9c187e4413c0"}, {"bike_id": "913d5d76b21bf56337fdd1320b1b1c38", "type": "electric_scooter", "is_disabled": 0, "lat": 38.88717616666667, "rental_uris": {"ios": "https://dc.lft.to/lastmile_qr_scan", "android": "https://dc.lft.to/lastmile_qr_scan"}, "is_reserved": 0, "fusion_lon": 0.0, "fusion_lat": 0.0, "lon": -77.02193416666667, "name": "913d5d76b21bf56337fdd1320b1b1c38"}, {"bike_id": "6c3ac1f4e61ef855ef87357e4cc65ec8", "type": "electric_bike", "is_disabled": 0, "lat": 39.051046, "rental_uris": {"ios": "https://dc.lft.to/lastmile_qr_scan", "android": "https://dc.lft.to/lastmile_qr_scan"}, "is_reserved": 0, "fusion_lon": 0.0, "fusion_lat": 0.0, "lon": -77.11748983333334, "name": "6c3ac1f4e61ef855ef87357e4cc65ec8"}, {"bike_id": "c3d0c1bdbbd0d990bb647e3a92fdc29c", "type": "electric_scooter", "is_disabled": 0, "lat": 38.95638866666667, "rental_uris": {"ios": "https://dc.lft.to/lastmile_qr_scan", "android": "https://dc.lft.to/lastmile_qr_scan"}, "is_reserved": 0, "fusion_lon": 0.0, "fusion_lat": 0.0, "lon": -77.03632033333334, "name": "c3d0c1bdbbd0d990bb647e3a92fdc29c"}, {"bike_id": "aec6b4d6cccc65d2ffb4a879b4c2b973", "type": "electric_scooter", "is_disabled": 0, "lat": 38.92239033333333, "rental_uris": {"ios": "https://dc.lft.to/lastmile_qr_scan", "android": "https://dc.lft.to/lastmile_qr_scan"}, "is_reserved": 0, "fusion_lon": 0.0, "fusion_lat": 0.0, "lon": -77.0471045, "name": "aec6b4d6cccc65d2ffb4a879b4c2b973"}, {"bike_id": "0dc8d91d8a0b016127d12e3dcc855a08", "type": "electric_scooter", "is_disabled": 0, "lat": 38.900034833333336, "rental_uris": {"ios": "https://dc.lft.to/lastmile_qr_scan", "android": "https://dc.lft.to/lastmile_qr_scan"}, "is_reserved": 0, "fusion_lon": 0.0, "fusion_lat": 0.0, "lon": -77.01204, "name": "0dc8d91d8a0b016127d12e3dcc855a08"}, {"bike_id": "11b1c394695b08c2817ce1bb7592e482", "type": "electric_scooter", "is_disabled": 0, "lat": 38.930764333333336, "rental_uris": {"ios": "https://dc.lft.to/lastmile_qr_scan", "android": "https://dc.lft.to/lastmile_qr_scan"}, "is_reserved": 0, "fusion_lon": 0.0, "fusion_lat": 0.0, "lon": -77.02150366666666, "name": "11b1c394695b08c2817ce1bb7592e482"}, {"bike_id": "a7a2d0deada2d95c7b008060f7849b4c", "type": "electric_scooter", "is_disabled": 0, "lat": 38.90073783333333, "rental_uris": {"ios": "https://dc.lft.to/lastmile_qr_scan", "android": "https://dc.lft.to/lastmile_qr_scan"}, "is_reserved": 0, "fusion_lon": 0.0, "fusion_lat": 0.0, "lon": -77.01823583333334, "name": "a7a2d0deada2d95c7b008060f7849b4c"}, {"bike_id": "0d3a38446b4a16cb26f77c22d0a98a85", "type": "electric_scooter", "is_disabled": 0, "lat": 38.915291333333336, "rental_uris": {"ios": "https://dc.lft.to/lastmile_qr_scan", "android": "https://dc.lft.to/lastmile_qr_scan"}, "is_reserved": 0, "fusion_lon": 0.0, "fusion_lat": 0.0, "lon": -77.01972416666666, "name": "0d3a38446b4a16cb26f77c22d0a98a85"}, {"bike_id": "ed3735a64171c4b2f7e388b61c9b3265", "type": "electric_scooter", "is_disabled": 0, "lat": 38.896132, "rental_uris": {"ios": "https://dc.lft.to/lastmile_qr_scan", "android": "https://dc.lft.to/lastmile_qr_scan"}, "is_reserved": 0, "fusion_lon": 0.0, "fusion_lat": 0.0, "lon": -77.02632983333334, "name": "ed3735a64171c4b2f7e388b61c9b3265"}, {"bike_id": "446064cd40075a8a99fa04f8bc3e643e", "type": "electric_scooter", "is_disabled": 0, "lat": 38.90238016666667, "rental_uris": {"ios": "https://dc.lft.to/lastmile_qr_scan", "android": "https://dc.lft.to/lastmile_qr_scan"}, "is_reserved": 0, "fusion_lon": 0.0, "fusion_lat": 0.0, "lon": -77.02376016666666, "name": "446064cd40075a8a99fa04f8bc3e643e"}, {"bike_id": "8000c4d0c9b89c7ed0e076573d6f315e", "type": "electric_scooter", "is_disabled": 0, "lat": 38.92155733333333, "rental_uris": {"ios": "https://dc.lft.to/lastmile_qr_scan", "android": "https://dc.lft.to/lastmile_qr_scan"}, "is_reserved": 0, "fusion_lon": 0.0, "fusion_lat": 0.0, "lon": -77.03380433333334, "name": "8000c4d0c9b89c7ed0e076573d6f315e"}, {"bike_id": "235dad6a0da0ca8b667dbd27f6925196", "type": "electric_scooter", "is_disabled": 0, "lat": 38.90145, "rental_uris": {"ios": "https://dc.lft.to/lastmile_qr_scan", "android": "https://dc.lft.to/lastmile_qr_scan"}, "is_reserved": 0, "fusion_lon": 0.0, "fusion_lat": 0.0, "lon": -77.02497216666667, "name": "235dad6a0da0ca8b667dbd27f6925196"}, {"bike_id": "c11c7924b0c238c22a0c92abdf4697b0", "type": "electric_scooter", "is_disabled": 0, "lat": 38.904925666666664, "rental_uris": {"ios": "https://dc.lft.to/lastmile_qr_scan", "android": "https://dc.lft.to/lastmile_qr_scan"}, "is_reserved": 0, "fusion_lon": 0.0, "fusion_lat": 0.0, "lon": -77.0597835, "name": "c11c7924b0c238c22a0c92abdf4697b0"}, {"bike_id": "5fa92cf6bb14a85c85a474fbe223fbb3", "type": "electric_scooter", "is_disabled": 0, "lat": 38.914042333333335, "rental_uris": {"ios": "https://dc.lft.to/lastmile_qr_scan", "android": "https://dc.lft.to/lastmile_qr_scan"}, "is_reserved": 0, "fusion_lon": 0.0, "fusion_lat": 0.0, "lon": -77.03212866666667, "name": "5fa92cf6bb14a85c85a474fbe223fbb3"}, {"bike_id": "2376c6311ca178a7e168478cbfe08aa6", "type": "electric_scooter", "is_disabled": 0, "lat": 38.915569833333336, "rental_uris": {"ios": "https://dc.lft.to/lastmile_qr_scan", "android": "https://dc.lft.to/lastmile_qr_scan"}, "is_reserved": 0, "fusion_lon": 0.0, "fusion_lat": 0.0, "lon": -77.03828683333333, "name": "2376c6311ca178a7e168478cbfe08aa6"}, {"bike_id": "c96cc972af17fda668720ce25a3cddc7", "type": "electric_scooter", "is_disabled": 0, "lat": 38.923806, "rental_uris": {"ios": "https://dc.lft.to/lastmile_qr_scan", "android": "https://dc.lft.to/lastmile_qr_scan"}, "is_reserved": 0, "fusion_lon": 0.0, "fusion_lat": 0.0, "lon": -77.03094016666667, "name": "c96cc972af17fda668720ce25a3cddc7"}, {"bike_id": "0bf2b89e881c4a6d5752e9b1a691212d", "type": "electric_scooter", "is_disabled": 0, "lat": 38.89190466666667, "rental_uris": {"ios": "https://dc.lft.to/lastmile_qr_scan", "android": "https://dc.lft.to/lastmile_qr_scan"}, "is_reserved": 0, "fusion_lon": 0.0, "fusion_lat": 0.0, "lon": -77.02401933333333, "name": "0bf2b89e881c4a6d5752e9b1a691212d"}, {"bike_id": "0be08561d466a83bb6b7a2838e44df8a", "type": "electric_scooter", "is_disabled": 0, "lat": 38.8818445, "rental_uris": {"ios": "https://dc.lft.to/lastmile_qr_scan", "android": "https://dc.lft.to/lastmile_qr_scan"}, "is_reserved": 0, "fusion_lon": 0.0, "fusion_lat": 0.0, "lon": -77.02087083333333, "name": "0be08561d466a83bb6b7a2838e44df8a"}, {"bike_id": "d8a7b8ab9b5b9e905227dd4ac93d141a", "type": "electric_scooter", "is_disabled": 0, "lat": 38.90671966666667, "rental_uris": {"ios": "https://dc.lft.to/lastmile_qr_scan", "android": "https://dc.lft.to/lastmile_qr_scan"}, "is_reserved": 0, "fusion_lon": 0.0, "fusion_lat": 0.0, "lon": -77.027072, "name": "d8a7b8ab9b5b9e905227dd4ac93d141a"}, {"bike_id": "8d991ae6027857344d4d9b925d126aa8", "type": "electric_scooter", "is_disabled": 0, "lat": 38.9017125, "rental_uris": {"ios": "https://dc.lft.to/lastmile_qr_scan", "android": "https://dc.lft.to/lastmile_qr_scan"}, "is_reserved": 0, "fusion_lon": 0.0, "fusion_lat": 0.0, "lon": -76.92656783333334, "name": "8d991ae6027857344d4d9b925d126aa8"}, {"bike_id": "8838059b7178c1b4757d91c6ea8096d6", "type": "electric_bike", "is_disabled": 0, "lat": 38.918385666666666, "rental_uris": {"ios": "https://dc.lft.to/lastmile_qr_scan", "android": "https://dc.lft.to/lastmile_qr_scan"}, "is_reserved": 0, "fusion_lon": 0.0, "fusion_lat": 0.0, "lon": -77.06987, "name": "8838059b7178c1b4757d91c6ea8096d6"}, {"bike_id": "db23db288870f8d354576fe0e6c38b0c", "type": "electric_scooter", "is_disabled": 0, "lat": 38.9012845, "rental_uris": {"ios": "https://dc.lft.to/lastmile_qr_scan", "android": "https://dc.lft.to/lastmile_qr_scan"}, "is_reserved": 0, "fusion_lon": 0.0, "fusion_lat": 0.0, "lon": -77.04189, "name": "db23db288870f8d354576fe0e6c38b0c"}, {"bike_id": "2390d3196e46acc18011bfe13935bbf4", "type": "electric_bike", "is_disabled": 0, "lat": 39.01369616666667, "rental_uris": {"ios": "https://dc.lft.to/lastmile_qr_scan", "android": "https://dc.lft.to/lastmile_qr_scan"}, "is_reserved": 0, "fusion_lon": 0.0, "fusion_lat": 0.0, "lon": -76.92132316666667, "name": "2390d3196e46acc18011bfe13935bbf4"}, {"bike_id": "ba07ab5ee35524d8b6026e25f913de4b", "type": "electric_scooter", "is_disabled": 0, "lat": 38.908192166666666, "rental_uris": {"ios": "https://dc.lft.to/lastmile_qr_scan", "android": "https://dc.lft.to/lastmile_qr_scan"}, "is_reserved": 0, "fusion_lon": 0.0, "fusion_lat": 0.0, "lon": -76.99710016666667, "name": "ba07ab5ee35524d8b6026e25f913de4b"}, {"bike_id": "c4723edaf6f5070c87cc151ba7745adc", "type": "electric_scooter", "is_disabled": 0, "lat": 38.9138285, "rental_uris": {"ios": "https://dc.lft.to/lastmile_qr_scan", "android": "https://dc.lft.to/lastmile_qr_scan"}, "is_reserved": 0, "fusion_lon": 0.0, "fusion_lat": 0.0, "lon": -77.0321195, "name": "c4723edaf6f5070c87cc151ba7745adc"}, {"bike_id": "79ec58c30d235e934e9caa96ea74c99a", "type": "electric_scooter", "is_disabled": 0, "lat": 38.92262316666667, "rental_uris": {"ios": "https://dc.lft.to/lastmile_qr_scan", "android": "https://dc.lft.to/lastmile_qr_scan"}, "is_reserved": 0, "fusion_lon": 0.0, "fusion_lat": 0.0, "lon": -77.0204275, "name": "79ec58c30d235e934e9caa96ea74c99a"}, {"bike_id": "090b20012256dd004c804df9e417b671", "type": "electric_scooter", "is_disabled": 0, "lat": 38.915625, "rental_uris": {"ios": "https://dc.lft.to/lastmile_qr_scan", "android": "https://dc.lft.to/lastmile_qr_scan"}, "is_reserved": 0, "fusion_lon": 0.0, "fusion_lat": 0.0, "lon": -77.02016583333334, "name": "090b20012256dd004c804df9e417b671"}, {"bike_id": "33e40529c0077622cd2600f8f806406b", "type": "electric_scooter", "is_disabled": 0, "lat": 38.89606033333333, "rental_uris": {"ios": "https://dc.lft.to/lastmile_qr_scan", "android": "https://dc.lft.to/lastmile_qr_scan"}, "is_reserved": 0, "fusion_lon": 0.0, "fusion_lat": 0.0, "lon": -77.00926233333334, "name": "33e40529c0077622cd2600f8f806406b"}, {"bike_id": "164626d5d99328de020f401a4e668dd5", "type": "electric_scooter", "is_disabled": 0, "lat": 38.9177145, "rental_uris": {"ios": "https://dc.lft.to/lastmile_qr_scan", "android": "https://dc.lft.to/lastmile_qr_scan"}, "is_reserved": 0, "fusion_lon": 0.0, "fusion_lat": 0.0, "lon": -77.0295425, "name": "164626d5d99328de020f401a4e668dd5"}, {"bike_id": "5e2270be064d0f87d05e9791b3c71c09", "type": "electric_bike", "is_disabled": 0, "lat": 38.921554666666665, "rental_uris": {"ios": "https://dc.lft.to/lastmile_qr_scan", "android": "https://dc.lft.to/lastmile_qr_scan"}, "is_reserved": 0, "fusion_lon": 0.0, "fusion_lat": 0.0, "lon": -77.03671083333333, "name": "5e2270be064d0f87d05e9791b3c71c09"}, {"bike_id": "889de19cb6881c05a63d46d1b22afa8a", "type": "electric_scooter", "is_disabled": 0, "lat": 38.885411, "rental_uris": {"ios": "https://dc.lft.to/lastmile_qr_scan", "android": "https://dc.lft.to/lastmile_qr_scan"}, "is_reserved": 0, "fusion_lon": 0.0, "fusion_lat": 0.0, "lon": -77.00584716666667, "name": "889de19cb6881c05a63d46d1b22afa8a"}, {"bike_id": "b630e2838d12df29c8394b8b883f4ca6", "type": "electric_scooter", "is_disabled": 0, "lat": 38.924014166666666, "rental_uris": {"ios": "https://dc.lft.to/lastmile_qr_scan", "android": "https://dc.lft.to/lastmile_qr_scan"}, "is_reserved": 0, "fusion_lon": 0.0, "fusion_lat": 0.0, "lon": -76.99397916666666, "name": "b630e2838d12df29c8394b8b883f4ca6"}, {"bike_id": "9f1042a56dfe73c0b10da1e6ec69eb2b", "type": "electric_scooter", "is_disabled": 0, "lat": 38.914208, "rental_uris": {"ios": "https://dc.lft.to/lastmile_qr_scan", "android": "https://dc.lft.to/lastmile_qr_scan"}, "is_reserved": 0, "fusion_lon": 0.0, "fusion_lat": 0.0, "lon": -77.01989516666667, "name": "9f1042a56dfe73c0b10da1e6ec69eb2b"}, {"bike_id": "9cf70f8762faf1fa38a0380ffcaf8ca1", "type": "electric_scooter", "is_disabled": 0, "lat": 38.921138166666665, "rental_uris": {"ios": "https://dc.lft.to/lastmile_qr_scan", "android": "https://dc.lft.to/lastmile_qr_scan"}, "is_reserved": 0, "fusion_lon": 0.0, "fusion_lat": 0.0, "lon": -77.04169866666666, "name": "9cf70f8762faf1fa38a0380ffcaf8ca1"}, {"bike_id": "77d6c2e4b088cc16a50a65b9e46264d9", "type": "electric_scooter", "is_disabled": 0, "lat": 38.8871205, "rental_uris": {"ios": "https://dc.lft.to/lastmile_qr_scan", "android": "https://dc.lft.to/lastmile_qr_scan"}, "is_reserved": 0, "fusion_lon": 0.0, "fusion_lat": 0.0, "lon": -77.0177875, "name": "77d6c2e4b088cc16a50a65b9e46264d9"}, {"bike_id": "689133e4cf0de4ea3146e8088a807895", "type": "electric_scooter", "is_disabled": 0, "lat": 38.917014333333334, "rental_uris": {"ios": "https://dc.lft.to/lastmile_qr_scan", "android": "https://dc.lft.to/lastmile_qr_scan"}, "is_reserved": 0, "fusion_lon": 0.0, "fusion_lat": 0.0, "lon": -77.02398383333333, "name": "689133e4cf0de4ea3146e8088a807895"}, {"bike_id": "b240cea796a6f0928dc0a6067149f993", "type": "electric_scooter", "is_disabled": 0, "lat": 38.91636583333333, "rental_uris": {"ios": "https://dc.lft.to/lastmile_qr_scan", "android": "https://dc.lft.to/lastmile_qr_scan"}, "is_reserved": 0, "fusion_lon": 0.0, "fusion_lat": 0.0, "lon": -77.0481625, "name": "b240cea796a6f0928dc0a6067149f993"}, {"bike_id": "18ce9d2a65eb3d73fd057d261a8d556f", "type": "electric_scooter", "is_disabled": 0, "lat": 38.905741166666665, "rental_uris": {"ios": "https://dc.lft.to/lastmile_qr_scan", "android": "https://dc.lft.to/lastmile_qr_scan"}, "is_reserved": 0, "fusion_lon": 0.0, "fusion_lat": 0.0, "lon": -76.97627066666666, "name": "18ce9d2a65eb3d73fd057d261a8d556f"}, {"bike_id": "a816c3930506eb966f97158a0e8170ba", "type": "electric_scooter", "is_disabled": 0, "lat": 38.86253383333333, "rental_uris": {"ios": "https://dc.lft.to/lastmile_qr_scan", "android": "https://dc.lft.to/lastmile_qr_scan"}, "is_reserved": 0, "fusion_lon": 0.0, "fusion_lat": 0.0, "lon": -76.99559483333333, "name": "a816c3930506eb966f97158a0e8170ba"}, {"bike_id": "ef0473653e26a1d15ded27ef78767c81", "type": "electric_scooter", "is_disabled": 0, "lat": 38.910052666666665, "rental_uris": {"ios": "https://dc.lft.to/lastmile_qr_scan", "android": "https://dc.lft.to/lastmile_qr_scan"}, "is_reserved": 0, "fusion_lon": 0.0, "fusion_lat": 0.0, "lon": -77.0209115, "name": "ef0473653e26a1d15ded27ef78767c81"}, {"bike_id": "78c1ee6d2fd47cecb4fffe19bcee9f49", "type": "electric_scooter", "is_disabled": 0, "lat": 38.92163266666667, "rental_uris": {"ios": "https://dc.lft.to/lastmile_qr_scan", "android": "https://dc.lft.to/lastmile_qr_scan"}, "is_reserved": 0, "fusion_lon": 0.0, "fusion_lat": 0.0, "lon": -77.03331966666667, "name": "78c1ee6d2fd47cecb4fffe19bcee9f49"}, {"bike_id": "de395a4e2dccb9657cb036b47478b194", "type": "electric_scooter", "is_disabled": 0, "lat": 38.917944, "rental_uris": {"ios": "https://dc.lft.to/lastmile_qr_scan", "android": "https://dc.lft.to/lastmile_qr_scan"}, "is_reserved": 0, "fusion_lon": 0.0, "fusion_lat": 0.0, "lon": -77.02302416666667, "name": "de395a4e2dccb9657cb036b47478b194"}, {"bike_id": "be1605e6fae8c9848a76cb58b634aa1b", "type": "electric_scooter", "is_disabled": 0, "lat": 38.86504016666667, "rental_uris": {"ios": "https://dc.lft.to/lastmile_qr_scan", "android": "https://dc.lft.to/lastmile_qr_scan"}, "is_reserved": 0, "fusion_lon": 0.0, "fusion_lat": 0.0, "lon": -76.99005766666667, "name": "be1605e6fae8c9848a76cb58b634aa1b"}, {"bike_id": "1a6505b38913ada988b84acda4084da3", "type": "electric_scooter", "is_disabled": 0, "lat": 38.90361683333333, "rental_uris": {"ios": "https://dc.lft.to/lastmile_qr_scan", "android": "https://dc.lft.to/lastmile_qr_scan"}, "is_reserved": 0, "fusion_lon": 0.0, "fusion_lat": 0.0, "lon": -77.03173266666667, "name": "1a6505b38913ada988b84acda4084da3"}, {"bike_id": "51cda7daf672fffc77b9b7cee96e93a2", "type": "electric_scooter", "is_disabled": 0, "lat": 38.92789766666667, "rental_uris": {"ios": "https://dc.lft.to/lastmile_qr_scan", "android": "https://dc.lft.to/lastmile_qr_scan"}, "is_reserved": 0, "fusion_lon": 0.0, "fusion_lat": 0.0, "lon": -77.05357666666667, "name": "51cda7daf672fffc77b9b7cee96e93a2"}, {"bike_id": "15d6a8b2bd79056f26945f3e70a23aee", "type": "electric_scooter", "is_disabled": 0, "lat": 38.93909583333333, "rental_uris": {"ios": "https://dc.lft.to/lastmile_qr_scan", "android": "https://dc.lft.to/lastmile_qr_scan"}, "is_reserved": 0, "fusion_lon": 0.0, "fusion_lat": 0.0, "lon": -77.0604975, "name": "15d6a8b2bd79056f26945f3e70a23aee"}, {"bike_id": "460ba8d28906f19a132a55f5cd4599e2", "type": "electric_scooter", "is_disabled": 0, "lat": 38.86258616666667, "rental_uris": {"ios": "https://dc.lft.to/lastmile_qr_scan", "android": "https://dc.lft.to/lastmile_qr_scan"}, "is_reserved": 0, "fusion_lon": 0.0, "fusion_lat": 0.0, "lon": -76.99270766666666, "name": "460ba8d28906f19a132a55f5cd4599e2"}, {"bike_id": "8010255b9a1a4ac7c9538ad2a4ca8931", "type": "electric_scooter", "is_disabled": 0, "lat": 38.90994833333333, "rental_uris": {"ios": "https://dc.lft.to/lastmile_qr_scan", "android": "https://dc.lft.to/lastmile_qr_scan"}, "is_reserved": 0, "fusion_lon": 0.0, "fusion_lat": 0.0, "lon": -77.02167783333333, "name": "8010255b9a1a4ac7c9538ad2a4ca8931"}, {"bike_id": "922970dde500f70b13915c2f0bf7b19b", "type": "electric_scooter", "is_disabled": 0, "lat": 38.90266233333333, "rental_uris": {"ios": "https://dc.lft.to/lastmile_qr_scan", "android": "https://dc.lft.to/lastmile_qr_scan"}, "is_reserved": 0, "fusion_lon": 0.0, "fusion_lat": 0.0, "lon": -77.02005616666666, "name": "922970dde500f70b13915c2f0bf7b19b"}, {"bike_id": "65926d0cf44cde5df099dd18e2664bc6", "type": "electric_scooter", "is_disabled": 0, "lat": 38.92457366666667, "rental_uris": {"ios": "https://dc.lft.to/lastmile_qr_scan", "android": "https://dc.lft.to/lastmile_qr_scan"}, "is_reserved": 0, "fusion_lon": 0.0, "fusion_lat": 0.0, "lon": -77.052271, "name": "65926d0cf44cde5df099dd18e2664bc6"}, {"bike_id": "690bc84e6e9e1e3a90db46c05b30bcd0", "type": "electric_scooter", "is_disabled": 0, "lat": 38.9233025, "rental_uris": {"ios": "https://dc.lft.to/lastmile_qr_scan", "android": "https://dc.lft.to/lastmile_qr_scan"}, "is_reserved": 0, "fusion_lon": 0.0, "fusion_lat": 0.0, "lon": -77.01956283333334, "name": "690bc84e6e9e1e3a90db46c05b30bcd0"}, {"bike_id": "e431c39e11705fb4678bad2f25760265", "type": "electric_scooter", "is_disabled": 0, "lat": 38.923203, "rental_uris": {"ios": "https://dc.lft.to/lastmile_qr_scan", "android": "https://dc.lft.to/lastmile_qr_scan"}, "is_reserved": 0, "fusion_lon": 0.0, "fusion_lat": 0.0, "lon": -77.036701, "name": "e431c39e11705fb4678bad2f25760265"}, {"bike_id": "9c3d787035780f5507e422d3764b742d", "type": "electric_scooter", "is_disabled": 0, "lat": 38.8870815, "rental_uris": {"ios": "https://dc.lft.to/lastmile_qr_scan", "android": "https://dc.lft.to/lastmile_qr_scan"}, "is_reserved": 0, "fusion_lon": 0.0, "fusion_lat": 0.0, "lon": -77.0136645, "name": "9c3d787035780f5507e422d3764b742d"}, {"bike_id": "9d214ab57c6207cfd4b6d377ebbf5bdb", "type": "electric_scooter", "is_disabled": 0, "lat": 38.915822, "rental_uris": {"ios": "https://dc.lft.to/lastmile_qr_scan", "android": "https://dc.lft.to/lastmile_qr_scan"}, "is_reserved": 0, "fusion_lon": 0.0, "fusion_lat": 0.0, "lon": -77.031834, "name": "9d214ab57c6207cfd4b6d377ebbf5bdb"}, {"bike_id": "1a362af83fc40e0e23eba304e82b545c", "type": "electric_scooter", "is_disabled": 0, "lat": 38.9161985, "rental_uris": {"ios": "https://dc.lft.to/lastmile_qr_scan", "android": "https://dc.lft.to/lastmile_qr_scan"}, "is_reserved": 0, "fusion_lon": 0.0, "fusion_lat": 0.0, "lon": -77.0229775, "name": "1a362af83fc40e0e23eba304e82b545c"}, {"bike_id": "782f3391202139aabdf10900c2d3977d", "type": "electric_bike", "is_disabled": 0, "lat": 38.908286333333336, "rental_uris": {"ios": "https://dc.lft.to/lastmile_qr_scan", "android": "https://dc.lft.to/lastmile_qr_scan"}, "is_reserved": 0, "fusion_lon": 0.0, "fusion_lat": 0.0, "lon": -76.94157516666667, "name": "782f3391202139aabdf10900c2d3977d"}, {"bike_id": "2695217fca578c0c701c3813cc23b39e", "type": "electric_scooter", "is_disabled": 0, "lat": 38.926421, "rental_uris": {"ios": "https://dc.lft.to/lastmile_qr_scan", "android": "https://dc.lft.to/lastmile_qr_scan"}, "is_reserved": 0, "fusion_lon": 0.0, "fusion_lat": 0.0, "lon": -77.03548483333333, "name": "2695217fca578c0c701c3813cc23b39e"}, {"bike_id": "e1947537b6d531c6fad6a1ba33cb1d5f", "type": "electric_scooter", "is_disabled": 0, "lat": 38.91269583333333, "rental_uris": {"ios": "https://dc.lft.to/lastmile_qr_scan", "android": "https://dc.lft.to/lastmile_qr_scan"}, "is_reserved": 0, "fusion_lon": 0.0, "fusion_lat": 0.0, "lon": -77.02213666666667, "name": "e1947537b6d531c6fad6a1ba33cb1d5f"}, {"bike_id": "213447aaa7f763fab156c52c70044683", "type": "electric_scooter", "is_disabled": 0, "lat": 38.9045095, "rental_uris": {"ios": "https://dc.lft.to/lastmile_qr_scan", "android": "https://dc.lft.to/lastmile_qr_scan"}, "is_reserved": 0, "fusion_lon": 0.0, "fusion_lat": 0.0, "lon": -77.05336216666667, "name": "213447aaa7f763fab156c52c70044683"}, {"bike_id": "4aa16a556e9b8bf485148a3b4b8ad6b8", "type": "electric_scooter", "is_disabled": 0, "lat": 38.917606166666666, "rental_uris": {"ios": "https://dc.lft.to/lastmile_qr_scan", "android": "https://dc.lft.to/lastmile_qr_scan"}, "is_reserved": 0, "fusion_lon": 0.0, "fusion_lat": 0.0, "lon": -77.02396516666667, "name": "4aa16a556e9b8bf485148a3b4b8ad6b8"}, {"bike_id": "dd34f311d974917c78a437b4d0eeecf2", "type": "electric_scooter", "is_disabled": 0, "lat": 38.8717735, "rental_uris": {"ios": "https://dc.lft.to/lastmile_qr_scan", "android": "https://dc.lft.to/lastmile_qr_scan"}, "is_reserved": 0, "fusion_lon": 0.0, "fusion_lat": 0.0, "lon": -77.00624433333333, "name": "dd34f311d974917c78a437b4d0eeecf2"}, {"bike_id": "6957a7e095ee55c885d3fd71da3efdd7", "type": "electric_bike", "is_disabled": 0, "lat": 38.872987333333334, "rental_uris": {"ios": "https://dc.lft.to/lastmile_qr_scan", "android": "https://dc.lft.to/lastmile_qr_scan"}, "is_reserved": 0, "fusion_lon": 0.0, "fusion_lat": 0.0, "lon": -77.13921016666667, "name": "6957a7e095ee55c885d3fd71da3efdd7"}, {"bike_id": "2efd42e60233c1603c5202d5c6e6630e", "type": "electric_bike", "is_disabled": 0, "lat": 38.93146, "rental_uris": {"ios": "https://dc.lft.to/lastmile_qr_scan", "android": "https://dc.lft.to/lastmile_qr_scan"}, "is_reserved": 0, "fusion_lon": 0.0, "fusion_lat": 0.0, "lon": -77.00075016666666, "name": "2efd42e60233c1603c5202d5c6e6630e"}, {"bike_id": "bfb501cf08339c108ae11f572bc73106", "type": "electric_scooter", "is_disabled": 0, "lat": 38.900325333333335, "rental_uris": {"ios": "https://dc.lft.to/lastmile_qr_scan", "android": "https://dc.lft.to/lastmile_qr_scan"}, "is_reserved": 0, "fusion_lon": 0.0, "fusion_lat": 0.0, "lon": -77.00216933333333, "name": "bfb501cf08339c108ae11f572bc73106"}, {"bike_id": "06abcb296f7e5f59f2c86fa8344056ea", "type": "electric_scooter", "is_disabled": 0, "lat": 38.90260983333334, "rental_uris": {"ios": "https://dc.lft.to/lastmile_qr_scan", "android": "https://dc.lft.to/lastmile_qr_scan"}, "is_reserved": 0, "fusion_lon": 0.0, "fusion_lat": 0.0, "lon": -77.01753516666666, "name": "06abcb296f7e5f59f2c86fa8344056ea"}, {"bike_id": "da634b4745bdbbeda0d3a0b515de367c", "type": "electric_scooter", "is_disabled": 0, "lat": 38.90525, "rental_uris": {"ios": "https://dc.lft.to/lastmile_qr_scan", "android": "https://dc.lft.to/lastmile_qr_scan"}, "is_reserved": 0, "fusion_lon": 0.0, "fusion_lat": 0.0, "lon": -77.03033866666667, "name": "da634b4745bdbbeda0d3a0b515de367c"}, {"bike_id": "8d3e73dc4c755918c346a0828dd1eb91", "type": "electric_scooter", "is_disabled": 0, "lat": 38.91140516666667, "rental_uris": {"ios": "https://dc.lft.to/lastmile_qr_scan", "android": "https://dc.lft.to/lastmile_qr_scan"}, "is_reserved": 0, "fusion_lon": 0.0, "fusion_lat": 0.0, "lon": -76.9901305, "name": "8d3e73dc4c755918c346a0828dd1eb91"}, {"bike_id": "469e3f2c8e8a8a7992e4d124e76446fa", "type": "electric_scooter", "is_disabled": 0, "lat": 38.917064833333335, "rental_uris": {"ios": "https://dc.lft.to/lastmile_qr_scan", "android": "https://dc.lft.to/lastmile_qr_scan"}, "is_reserved": 0, "fusion_lon": 0.0, "fusion_lat": 0.0, "lon": -77.0316375, "name": "469e3f2c8e8a8a7992e4d124e76446fa"}, {"bike_id": "acad9bcb150ebbdb84d33e6b0521afb9", "type": "electric_scooter", "is_disabled": 0, "lat": 38.927725833333334, "rental_uris": {"ios": "https://dc.lft.to/lastmile_qr_scan", "android": "https://dc.lft.to/lastmile_qr_scan"}, "is_reserved": 0, "fusion_lon": 0.0, "fusion_lat": 0.0, "lon": -77.02743133333334, "name": "acad9bcb150ebbdb84d33e6b0521afb9"}, {"bike_id": "d08aeeb344a69d547c7bbdd8bbc67d86", "type": "electric_scooter", "is_disabled": 0, "lat": 38.875661666666666, "rental_uris": {"ios": "https://dc.lft.to/lastmile_qr_scan", "android": "https://dc.lft.to/lastmile_qr_scan"}, "is_reserved": 0, "fusion_lon": 0.0, "fusion_lat": 0.0, "lon": -77.005363, "name": "d08aeeb344a69d547c7bbdd8bbc67d86"}, {"bike_id": "54c0813c985333b940a552128f91babd", "type": "electric_scooter", "is_disabled": 0, "lat": 38.923163, "rental_uris": {"ios": "https://dc.lft.to/lastmile_qr_scan", "android": "https://dc.lft.to/lastmile_qr_scan"}, "is_reserved": 0, "fusion_lon": 0.0, "fusion_lat": 0.0, "lon": -77.02128316666666, "name": "54c0813c985333b940a552128f91babd"}, {"bike_id": "8814f4663aa5135bdb79f34c2899b018", "type": "electric_scooter", "is_disabled": 0, "lat": 38.89611416666666, "rental_uris": {"ios": "https://dc.lft.to/lastmile_qr_scan", "android": "https://dc.lft.to/lastmile_qr_scan"}, "is_reserved": 0, "fusion_lon": 0.0, "fusion_lat": 0.0, "lon": -77.04476466666667, "name": "8814f4663aa5135bdb79f34c2899b018"}, {"bike_id": "22bf4b47de3ad3b9e5d30e63c9793c5d", "type": "electric_scooter", "is_disabled": 0, "lat": 38.8962315, "rental_uris": {"ios": "https://dc.lft.to/lastmile_qr_scan", "android": "https://dc.lft.to/lastmile_qr_scan"}, "is_reserved": 0, "fusion_lon": 0.0, "fusion_lat": 0.0, "lon": -77.022107, "name": "22bf4b47de3ad3b9e5d30e63c9793c5d"}, {"bike_id": "ce59dbebdc6e4a1368aeff63e6003869", "type": "electric_scooter", "is_disabled": 0, "lat": 38.917772166666666, "rental_uris": {"ios": "https://dc.lft.to/lastmile_qr_scan", "android": "https://dc.lft.to/lastmile_qr_scan"}, "is_reserved": 0, "fusion_lon": 0.0, "fusion_lat": 0.0, "lon": -77.02305683333333, "name": "ce59dbebdc6e4a1368aeff63e6003869"}, {"bike_id": "d3cdb8b5fbf4d71accbda49bf006a544", "type": "electric_scooter", "is_disabled": 0, "lat": 38.8783335, "rental_uris": {"ios": "https://dc.lft.to/lastmile_qr_scan", "android": "https://dc.lft.to/lastmile_qr_scan"}, "is_reserved": 0, "fusion_lon": 0.0, "fusion_lat": 0.0, "lon": -77.00797666666666, "name": "d3cdb8b5fbf4d71accbda49bf006a544"}, {"bike_id": "35ba97860eb992acc2c288934063a2b8", "type": "electric_scooter", "is_disabled": 0, "lat": 38.9181635, "rental_uris": {"ios": "https://dc.lft.to/lastmile_qr_scan", "android": "https://dc.lft.to/lastmile_qr_scan"}, "is_reserved": 0, "fusion_lon": 0.0, "fusion_lat": 0.0, "lon": -77.02703616666666, "name": "35ba97860eb992acc2c288934063a2b8"}, {"bike_id": "0cb3004f0826ababbe1abd257315e38f", "type": "electric_scooter", "is_disabled": 0, "lat": 38.904658, "rental_uris": {"ios": "https://dc.lft.to/lastmile_qr_scan", "android": "https://dc.lft.to/lastmile_qr_scan"}, "is_reserved": 0, "fusion_lon": 0.0, "fusion_lat": 0.0, "lon": -76.97608383333333, "name": "0cb3004f0826ababbe1abd257315e38f"}, {"bike_id": "a2b0dba4323a6144bcba4b097c5fe85e", "type": "electric_scooter", "is_disabled": 0, "lat": 38.91212083333333, "rental_uris": {"ios": "https://dc.lft.to/lastmile_qr_scan", "android": "https://dc.lft.to/lastmile_qr_scan"}, "is_reserved": 0, "fusion_lon": 0.0, "fusion_lat": 0.0, "lon": -77.04461816666667, "name": "a2b0dba4323a6144bcba4b097c5fe85e"}, {"bike_id": "d85373a891752c7a0d7dca587c711fdf", "type": "electric_scooter", "is_disabled": 0, "lat": 38.9068035, "rental_uris": {"ios": "https://dc.lft.to/lastmile_qr_scan", "android": "https://dc.lft.to/lastmile_qr_scan"}, "is_reserved": 0, "fusion_lon": 0.0, "fusion_lat": 0.0, "lon": -76.98007066666666, "name": "d85373a891752c7a0d7dca587c711fdf"}, {"bike_id": "8a3e231acea495a7ceffcb94c004381e", "type": "electric_scooter", "is_disabled": 0, "lat": 38.90352083333333, "rental_uris": {"ios": "https://dc.lft.to/lastmile_qr_scan", "android": "https://dc.lft.to/lastmile_qr_scan"}, "is_reserved": 0, "fusion_lon": 0.0, "fusion_lat": 0.0, "lon": -76.9747585, "name": "8a3e231acea495a7ceffcb94c004381e"}, {"bike_id": "efdde1d8576cb8b5f4d56b7fca401f09", "type": "electric_scooter", "is_disabled": 0, "lat": 38.929693, "rental_uris": {"ios": "https://dc.lft.to/lastmile_qr_scan", "android": "https://dc.lft.to/lastmile_qr_scan"}, "is_reserved": 0, "fusion_lon": 0.0, "fusion_lat": 0.0, "lon": -77.04370816666666, "name": "efdde1d8576cb8b5f4d56b7fca401f09"}, {"bike_id": "bd291fac6a2772ba8caa3d9b803bca60", "type": "electric_scooter", "is_disabled": 0, "lat": 38.9160945, "rental_uris": {"ios": "https://dc.lft.to/lastmile_qr_scan", "android": "https://dc.lft.to/lastmile_qr_scan"}, "is_reserved": 0, "fusion_lon": 0.0, "fusion_lat": 0.0, "lon": -77.04878583333333, "name": "bd291fac6a2772ba8caa3d9b803bca60"}, {"bike_id": "011f30932d4733706e380ed596bcdcce", "type": "electric_bike", "is_disabled": 0, "lat": 38.93226766666667, "rental_uris": {"ios": "https://dc.lft.to/lastmile_qr_scan", "android": "https://dc.lft.to/lastmile_qr_scan"}, "is_reserved": 0, "fusion_lon": 0.0, "fusion_lat": 0.0, "lon": -77.1812165, "name": "011f30932d4733706e380ed596bcdcce"}, {"bike_id": "fa95b0ecf62a07e4c5706ed862a4507c", "type": "electric_scooter", "is_disabled": 0, "lat": 38.921619, "rental_uris": {"ios": "https://dc.lft.to/lastmile_qr_scan", "android": "https://dc.lft.to/lastmile_qr_scan"}, "is_reserved": 0, "fusion_lon": 0.0, "fusion_lat": 0.0, "lon": -77.03381383333334, "name": "fa95b0ecf62a07e4c5706ed862a4507c"}, {"bike_id": "909fba4cac91088ea92f72d7fbbfc029", "type": "electric_bike", "is_disabled": 0, "lat": 38.88324683333333, "rental_uris": {"ios": "https://dc.lft.to/lastmile_qr_scan", "android": "https://dc.lft.to/lastmile_qr_scan"}, "is_reserved": 0, "fusion_lon": 0.0, "fusion_lat": 0.0, "lon": -76.9605485, "name": "909fba4cac91088ea92f72d7fbbfc029"}, {"bike_id": "9ff80a4ff14382ee892e4560080424dc", "type": "electric_scooter", "is_disabled": 0, "lat": 38.9287705, "rental_uris": {"ios": "https://dc.lft.to/lastmile_qr_scan", "android": "https://dc.lft.to/lastmile_qr_scan"}, "is_reserved": 0, "fusion_lon": 0.0, "fusion_lat": 0.0, "lon": -77.02776583333333, "name": "9ff80a4ff14382ee892e4560080424dc"}, {"bike_id": "10b9e09b659c6c3797b3320671236f57", "type": "electric_scooter", "is_disabled": 0, "lat": 38.904740833333335, "rental_uris": {"ios": "https://dc.lft.to/lastmile_qr_scan", "android": "https://dc.lft.to/lastmile_qr_scan"}, "is_reserved": 0, "fusion_lon": 0.0, "fusion_lat": 0.0, "lon": -77.043507, "name": "10b9e09b659c6c3797b3320671236f57"}, {"bike_id": "11b2b7539dc726d6345e00815e56334c", "type": "electric_scooter", "is_disabled": 0, "lat": 38.88114866666667, "rental_uris": {"ios": "https://dc.lft.to/lastmile_qr_scan", "android": "https://dc.lft.to/lastmile_qr_scan"}, "is_reserved": 0, "fusion_lon": 0.0, "fusion_lat": 0.0, "lon": -77.0164915, "name": "11b2b7539dc726d6345e00815e56334c"}, {"bike_id": "8c22c7b3a0b73b7d541ffd11fd6a3128", "type": "electric_scooter", "is_disabled": 0, "lat": 38.909659833333336, "rental_uris": {"ios": "https://dc.lft.to/lastmile_qr_scan", "android": "https://dc.lft.to/lastmile_qr_scan"}, "is_reserved": 0, "fusion_lon": 0.0, "fusion_lat": 0.0, "lon": -77.0217495, "name": "8c22c7b3a0b73b7d541ffd11fd6a3128"}, {"bike_id": "baff735bf657dd80b76522c404235f25", "type": "electric_scooter", "is_disabled": 0, "lat": 38.917207833333336, "rental_uris": {"ios": "https://dc.lft.to/lastmile_qr_scan", "android": "https://dc.lft.to/lastmile_qr_scan"}, "is_reserved": 0, "fusion_lon": 0.0, "fusion_lat": 0.0, "lon": -77.03178466666667, "name": "baff735bf657dd80b76522c404235f25"}, {"bike_id": "aaad29d0a56b1968cd1d0ed6b89324e6", "type": "electric_scooter", "is_disabled": 0, "lat": 38.873731, "rental_uris": {"ios": "https://dc.lft.to/lastmile_qr_scan", "android": "https://dc.lft.to/lastmile_qr_scan"}, "is_reserved": 0, "fusion_lon": 0.0, "fusion_lat": 0.0, "lon": -77.00108766666666, "name": "aaad29d0a56b1968cd1d0ed6b89324e6"},