{"data": {"bikes": [{"is_reserved": 0, "type": "electric_bike", "fusion_lat": 0.0, "is_disabled": 0, "rental_uris": {"ios": "https://dc.lft.to/lastmile_qr_scan", "android": "https://dc.lft.to/lastmile_qr_scan"}, "bike_id": "fac92c0e1577c7b8e5d07a93d0fa64fe", "lat": 38.99499133333333, "name": "fac92c0e1577c7b8e5d07a93d0fa64fe", "lon": -77.00139183333333, "fusion_lon": 0.0}, {"is_reserved": 0, "type": "electric_bike", "fusion_lat": 0.0, "is_disabled": 0, "rental_uris": {"ios": "https://dc.lft.to/lastmile_qr_scan", "android": "https://dc.lft.to/lastmile_qr_scan"}, "bike_id": "7804dc9a56666b8d5f69387417833a82", "lat": 38.9473555, "name": "7804dc9a56666b8d5f69387417833a82", "lon": -76.99584483333334, "fusion_lon": 0.0}, {"is_reserved": 0, "type": "electric_scooter", "fusion_lat": 0.0, "is_disabled": 0, "rental_uris": {"ios": "https://dc.lft.to/lastmile_qr_scan", "android": "https://dc.lft.to/lastmile_qr_scan"}, "bike_id": "84f963fd45d8de308a4d874eb70f47b4", "lat": 38.9191375, "name": "84f963fd45d8de308a4d874eb70f47b4", "lon": -77.04802983333333, "fusion_lon": 0.0}, {"is_reserved": 0, "type": "electric_scooter", "fusion_lat": 0.0, "is_disabled": 0, "rental_uris": {"ios": "https://dc.lft.to/lastmile_qr_scan", "android": "https://dc.lft.to/lastmile_qr_scan"}, "bike_id": "9382a95e0ce204a7ced427f98435841f", "lat": 38.87627533333333, "name": "9382a95e0ce204a7ced427f98435841f", "lon": -77.01574983333333, "fusion_lon": 0.0}, {"is_reserved": 0, "type": "electric_scooter", "fusion_lat": 0.0, "is_disabled": 0, "rental_uris": {"ios": "https://dc.lft.to/lastmile_qr_scan", "android": "https://dc.lft.to/lastmile_qr_scan"}, "bike_id": "87ac9c63d9a927c31c1f000f19910843", "lat": 38.883586666666666, "name": "87ac9c63d9a927c31c1f000f19910843", "lon": -76.92793133333333, "fusion_lon": 0.0}, {"is_reserved": 0, "type": "electric_scooter", "fusion_lat": 0.0, "is_disabled": 0, "rental_uris": {"ios": "https://dc.lft.to/lastmile_qr_scan", "android": "https://dc.lft.to/lastmile_qr_scan"}, "bike_id": "b1841529f532bf75be50209ec5b6b3a3", "lat": 38.91649733333333, "name": "b1841529f532bf75be50209ec5b6b3a3", "lon": -77.0217935, "fusion_lon": 0.0}, {"is_reserved": 0, "type": "electric_scooter", "fusion_lat": 0.0, "is_disabled": 0, "rental_uris": {"ios": "https://dc.lft.to/lastmile_qr_scan", "android": "https://dc.lft.to/lastmile_qr_scan"}, "bike_id": "1ff5ffe04ec0c00d0dc5858a1ad7898a", "lat": 38.931864166666664, "name": "1ff5ffe04ec0c00d0dc5858a1ad7898a", "lon": -77.01965116666666, "fusion_lon": 0.0}, {"is_reserved": 0, "type": "electric_scooter", "fusion_lat": 0.0, "is_disabled": 0, "rental_uris": {"ios": "https://dc.lft.to/lastmile_qr_scan", "android": "https://dc.lft.to/lastmile_qr_scan"}, "bike_id": "53a5af14540018e6feae679170150d8f", "lat": 38.901908666666664, "name": "53a5af14540018e6feae679170150d8f", "lon": -76.93467183333334, "fusion_lon": 0.0}, {"is_reserved": 0, "type": "electric_scooter", "fusion_lat": 0.0, "is_disabled": 0, "rental_uris": {"ios": "https://dc.lft.to/lastmile_qr_scan", "android": "https://dc.lft.to/lastmile_qr_scan"}, "bike_id": "e4404938f50a7ce97134fd0251eea9dd", "lat": 38.930779333333334, "name": "e4404938f50a7ce97134fd0251eea9dd", "lon": -77.07763116666666, "fusion_lon": 0.0}, {"is_reserved": 0, "type": "electric_scooter", "fusion_lat": 0.0, "is_disabled": 0, "rental_uris": {"ios": "https://dc.lft.to/lastmile_qr_scan", "android": "https://dc.lft.to/lastmile_qr_scan"}, "bike_id": "3a1e4ce25d1daacdc51b5f3deffdfc01", "lat": 38.9247785, "name": "3a1e4ce25d1daacdc51b5f3deffdfc01", "lon": -77.02630066666667, "fusion_lon": 0.0}, {"is_reserved": 0, "type": "electric_scooter", "fusion_lat": 0.0, "is_disabled": 0, "rental_uris": {"ios": "https://dc.lft.to/lastmile_qr_scan", "android": "https://dc.lft.to/lastmile_qr_scan"}, "bike_id": "af050a8b6fd7275f75c3c1262b999e1a", "lat": 38.930148833333334, "name": "af050a8b6fd7275f75c3c1262b999e1a", "lon": -77.04054366666666, "fusion_lon": 0.0}, {"is_reserved": 0, "type": "electric_scooter", "fusion_lat": 0.0, "is_disabled": 0, "rental_uris": {"ios": "https://dc.lft.to/lastmile_qr_scan", "android": "https://dc.lft.to/lastmile_qr_scan"}, "bike_id": "875f762951d8e519b41b4c3843d0d5fe", "lat": 38.8791705, "name": "875f762951d8e519b41b4c3843d0d5fe", "lon": -76.94479616666666, "fusion_lon": 0.0}, {"is_reserved": 0, "type": "electric_scooter", "fusion_lat": 0.0, "is_disabled": 0, "rental_uris": {"ios": "https://dc.lft.to/lastmile_qr_scan", "android": "https://dc.lft.to/lastmile_qr_scan"}, "bike_id": "36f2661dd3f86d7d4e9dde39d0e05978", "lat": 38.915648166666664, "name": "36f2661dd3f86d7d4e9dde39d0e05978", "lon": -77.03672366666666, "fusion_lon": 0.0}, {"is_reserved": 0, "type": "electric_scooter", "fusion_lat": 0.0, "is_disabled": 0, "rental_uris": {"ios": "https://dc.lft.to/lastmile_qr_scan", "android": "https://dc.lft.to/lastmile_qr_scan"}, "bike_id": "3d99149b85fe01ccceedd8515db80ed4", "lat": 38.89400666666667, "name": "3d99149b85fe01ccceedd8515db80ed4", "lon": -77.049962, "fusion_lon": 0.0}, {"is_reserved": 0, "type": "electric_scooter", "fusion_lat": 0.0, "is_disabled": 0, "rental_uris": {"ios": "https://dc.lft.to/lastmile_qr_scan", "android": "https://dc.lft.to/lastmile_qr_scan"}, "bike_id": "3958794e304edd998fa04f6302beee85", "lat": 38.90784466666667, "name": "3958794e304edd998fa04f6302beee85", "lon": -77.0451465, "fusion_lon": 0.0}, {"is_reserved": 0, "type": "electric_scooter", "fusion_lat": 0.0, "is_disabled": 0, "rental_uris": {"ios": "https://dc.lft.to/lastmile_qr_scan", "android": "https://dc.lft.to/lastmile_qr_scan"}, "bike_id": "9589754310e646ab105824cbc8503869", "lat": 38.906117, "name": "9589754310e646ab105824cbc8503869", "lon": -76.989831, "fusion_lon": 0.0}, {"is_reserved": 0, "type": "electric_scooter", "fusion_lat": 0.0, "is_disabled": 0, "rental_uris": {"ios": "https://dc.lft.to/lastmile_qr_scan", "android": "https://dc.lft.to/lastmile_qr_scan"}, "bike_id": "f6f9c31a93322d2fa6ee16597a4ee4f2", "lat": 38.92041116666667, "name": "f6f9c31a93322d2fa6ee16597a4ee4f2", "lon": -77.016772, "fusion_lon": 0.0}, {"is_reserved": 0, "type": "electric_scooter", "fusion_lat": 0.0, "is_disabled": 0, "rental_uris": {"ios": "https://dc.lft.to/lastmile_qr_scan", "android": "https://dc.lft.to/lastmile_qr_scan"}, "bike_id": "46cb5dd09b8654fb14b4bd11947a6ff4", "lat": 38.89935, "name": "46cb5dd09b8654fb14b4bd11947a6ff4", "lon": -77.0145265, "fusion_lon": 0.0}, {"is_reserved": 0, "type": "electric_scooter", "fusion_lat": 0.0, "is_disabled": 0, "rental_uris": {"ios": "https://dc.lft.to/lastmile_qr_scan", "android": "https://dc.lft.to/lastmile_qr_scan"}, "bike_id": "67265d865c6fab02bb52d6a99ef7e91a", "lat": 38.9041775, "name": "67265d865c6fab02bb52d6a99ef7e91a", "lon": -76.98534866666667, "fusion_lon": 0.0}, {"is_reserved": 0, "type": "electric_scooter", "fusion_lat": 0.0, "is_disabled": 0, "rental_uris": {"ios": "https://dc.lft.to/lastmile_qr_scan", "android": "https://dc.lft.to/lastmile_qr_scan"}, "bike_id": "dabdd5b15213b8f313bf9796020d9270", "lat": 38.89961566666667, "name": "dabdd5b15213b8f313bf9796020d9270", "lon": -77.047202, "fusion_lon": 0.0}, {"is_reserved": 0, "type": "electric_scooter", "fusion_lat": 0.0, "is_disabled": 0, "rental_uris": {"ios": "https://dc.lft.to/lastmile_qr_scan", "android": "https://dc.lft.to/lastmile_qr_scan"}, "bike_id": "0659aa5feb6a9cdbf04cfcaf8d2e1ac8", "lat": 38.94980433333333, "name": "0659aa5feb6a9cdbf04cfcaf8d2e1ac8", "lon": -77.02448466666667, "fusion_lon": 0.0}, {"is_reserved": 0, "type": "electric_bike", "fusion_lat": 0.0, "is_disabled": 0, "rental_uris": {"ios": "https://dc.lft.to/lastmile_qr_scan", "android": "https://dc.lft.to/lastmile_qr_scan"}, "bike_id": "bc4220803d165feed82cc3583039e4ac", "lat": 38.99096983333333, "name": "bc4220803d165feed82cc3583039e4ac", "lon": -76.99373833333334, "fusion_lon": 0.0}, {"is_reserved": 0, "type": "electric_scooter", "fusion_lat": 0.0, "is_disabled": 0, "rental_uris": {"ios": "https://dc.lft.to/lastmile_qr_scan", "android": "https://dc.lft.to/lastmile_qr_scan"}, "bike_id": "29d1163e3b8dae5c28a8a90f4a2b7268", "lat": 38.914858333333335, "name": "29d1163e3b8dae5c28a8a90f4a2b7268", "lon": -77.04095133333334, "fusion_lon": 0.0}, {"is_reserved": 0, "type": "electric_scooter", "fusion_lat": 0.0, "is_disabled": 0, "rental_uris": {"ios": "https://dc.lft.to/lastmile_qr_scan", "android": "https://dc.lft.to/lastmile_qr_scan"}, "bike_id": "4953b86c79550a2f500139b7844e07af", "lat": 38.905921, "name": "4953b86c79550a2f500139b7844e07af", "lon": -77.06272316666667, "fusion_lon": 0.0}, {"is_reserved": 0, "type": "electric_scooter", "fusion_lat": 0.0, "is_disabled": 0, "rental_uris": {"ios": "https://dc.lft.to/lastmile_qr_scan", "android": "https://dc.lft.to/lastmile_qr_scan"}, "bike_id": "098b5259c2c6de7b1134dbc558c9414f", "lat": 38.924604, "name": "098b5259c2c6de7b1134dbc558c9414f", "lon": -77.037924, "fusion_lon": 0.0}, {"is_reserved": 0, "type": "electric_bike", "fusion_lat": 0.0, "is_disabled": 0, "rental_uris": {"ios": "https://dc.lft.to/lastmile_qr_scan", "android": "https://dc.lft.to/lastmile_qr_scan"}, "bike_id": "ff178e00030cef9c4cf34a9e0a81f0c3", "lat": 38.86628016666667, "name": "ff178e00030cef9c4cf34a9e0a81f0c3", "lon": -76.9900855, "fusion_lon": 0.0}, {"is_reserved": 0, "type": "electric_bike", "fusion_lat": 0.0, "is_disabled": 0, "rental_uris": {"ios": "https://dc.lft.to/lastmile_qr_scan", "android": "https://dc.lft.to/lastmile_qr_scan"}, "bike_id": "4fd9702558606c06de10e66092a63770", "lat": 38.854549, "name": "4fd9702558606c06de10e66092a63770", "lon": -76.97224616666666, "fusion_lon": 0.0}, {"is_reserved": 0, "type": "electric_scooter", "fusion_lat": 0.0, "is_disabled": 0, "rental_uris": {"ios": "https://dc.lft.to/lastmile_qr_scan", "android": "https://dc.lft.to/lastmile_qr_scan"}, "bike_id": "8a7140b0ed1f9629fb2e6397196a23e6", "lat": 38.914365333333336, "name": "8a7140b0ed1f9629fb2e6397196a23e6", "lon": -77.02289216666667, "fusion_lon": 0.0}, {"is_reserved": 0, "type": "electric_scooter", "fusion_lat": 0.0, "is_disabled": 0, "rental_uris": {"ios": "https://dc.lft.to/lastmile_qr_scan", "android": "https://dc.lft.to/lastmile_qr_scan"}, "bike_id": "59527e24cac634b24b377d5db528c159", "lat": 38.898621166666665, "name": "59527e24cac634b24b377d5db528c159", "lon": -77.02288383333334, "fusion_lon": 0.0}, {"is_reserved": 0, "type": "electric_scooter", "fusion_lat": 0.0, "is_disabled": 0, "rental_uris": {"ios": "https://dc.lft.to/lastmile_qr_scan", "android": "https://dc.lft.to/lastmile_qr_scan"}, "bike_id": "adcd9724e2f3ff1150397d4235fbd380", "lat": 38.9147545, "name": "adcd9724e2f3ff1150397d4235fbd380", "lon": -77.02192233333334, "fusion_lon": 0.0}, {"is_reserved": 0, "type": "electric_scooter", "fusion_lat": 0.0, "is_disabled": 0, "rental_uris": {"ios": "https://dc.lft.to/lastmile_qr_scan", "android": "https://dc.lft.to/lastmile_qr_scan"}, "bike_id": "4ab6873b404be6ae92c9c60814a05a3e", "lat": 38.92750433333333, "name": "4ab6873b404be6ae92c9c60814a05a3e", "lon": -77.02149016666667, "fusion_lon": 0.0}, {"is_reserved": 0, "type": "electric_scooter", "fusion_lat": 0.0, "is_disabled": 0, "rental_uris": {"ios": "https://dc.lft.to/lastmile_qr_scan", "android": "https://dc.lft.to/lastmile_qr_scan"}, "bike_id": "f1f5b215d2ab63e86246d2ac2a4282ba", "lat": 38.921054166666664, "name": "f1f5b215d2ab63e86246d2ac2a4282ba", "lon": -77.01776183333334, "fusion_lon": 0.0}, {"is_reserved": 0, "type": "electric_scooter", "fusion_lat": 0.0, "is_disabled": 0, "rental_uris": {"ios": "https://dc.lft.to/lastmile_qr_scan", "android": "https://dc.lft.to/lastmile_qr_scan"}, "bike_id": "343b74bfbaccfa1e405481d0bb1fca9f", "lat": 38.909568166666666, "name": "343b74bfbaccfa1e405481d0bb1fca9f", "lon": -77.022837, "fusion_lon": 0.0}, {"is_reserved": 0, "type": "electric_bike", "fusion_lat": 0.0, "is_disabled": 0, "rental_uris": {"ios": "https://dc.lft.to/lastmile_qr_scan", "android": "https://dc.lft.to/lastmile_qr_scan"}, "bike_id": "f95e3d35efa5a5674a2e1eeb56d43476", "lat": 38.835851, "name": "f95e3d35efa5a5674a2e1eeb56d43476", "lon": -76.99029033333333, "fusion_lon": 0.0}, {"is_reserved": 0, "type": "electric_scooter", "fusion_lat": 0.0, "is_disabled": 0, "rental_uris": {"ios": "https://dc.lft.to/lastmile_qr_scan", "android": "https://dc.lft.to/lastmile_qr_scan"}, "bike_id": "67b7d20dc03decac088ea5f392c7b810", "lat": 38.922435, "name": "67b7d20dc03decac088ea5f392c7b810", "lon": -77.0366425, "fusion_lon": 0.0}, {"is_reserved": 0, "type": "electric_scooter", "fusion_lat": 0.0, "is_disabled": 0, "rental_uris": {"ios": "https://dc.lft.to/lastmile_qr_scan", "android": "https://dc.lft.to/lastmile_qr_scan"}, "bike_id": "77aa22f567fe5c74c325706b67b5c748", "lat": 38.90550733333333, "name": "77aa22f567fe5c74c325706b67b5c748", "lon": -77.02926466666666, "fusion_lon": 0.0}, {"is_reserved": 0, "type": "electric_scooter", "fusion_lat": 0.0, "is_disabled": 0, "rental_uris": {"ios": "https://dc.lft.to/lastmile_qr_scan", "android": "https://dc.lft.to/lastmile_qr_scan"}, "bike_id": "b320a8465e1810495264c5d2845c721d", "lat": 38.89657666666667, "name": "b320a8465e1810495264c5d2845c721d", "lon": -77.04353933333333, "fusion_lon": 0.0}, {"is_reserved": 0, "type": "electric_scooter", "fusion_lat": 0.0, "is_disabled": 0, "rental_uris": {"ios": "https://dc.lft.to/lastmile_qr_scan", "android": "https://dc.lft.to/lastmile_qr_scan"}, "bike_id": "e5a1f5017551d5e7fde3645675faa656", "lat": 38.9197075, "name": "e5a1f5017551d5e7fde3645675faa656", "lon": -77.04075633333333, "fusion_lon": 0.0}, {"is_reserved": 0, "type": "electric_scooter", "fusion_lat": 0.0, "is_disabled": 0, "rental_uris": {"ios": "https://dc.lft.to/lastmile_qr_scan", "android": "https://dc.lft.to/lastmile_qr_scan"}, "bike_id": "2ce1e7c6ac938644928a41a7ffc9bacb", "lat": 38.9104185, "name": "2ce1e7c6ac938644928a41a7ffc9bacb", "lon": -76.998045, "fusion_lon": 0.0}, {"is_reserved": 0, "type": "electric_scooter", "fusion_lat": 0.0, "is_disabled": 0, "rental_uris": {"ios": "https://dc.lft.to/lastmile_qr_scan", "android": "https://dc.lft.to/lastmile_qr_scan"}, "bike_id": "b3bb0c1fd3701f19e97e0d9e76f17bc0", "lat": 38.96799016666667, "name": "b3bb0c1fd3701f19e97e0d9e76f17bc0", "lon": -77.02563383333333, "fusion_lon": 0.0}, {"is_reserved": 0, "type": "electric_scooter", "fusion_lat": 0.0, "is_disabled": 0, "rental_uris": {"ios": "https://dc.lft.to/lastmile_qr_scan", "android": "https://dc.lft.to/lastmile_qr_scan"}, "bike_id": "65cd88cd4b0415cffe4e2da2f3cb0a21", "lat": 38.919844, "name": "65cd88cd4b0415cffe4e2da2f3cb0a21", "lon": -77.0418405, "fusion_lon": 0.0}, {"is_reserved": 0, "type": "electric_scooter", "fusion_lat": 0.0, "is_disabled": 0, "rental_uris": {"ios": "https://dc.lft.to/lastmile_qr_scan", "android": "https://dc.lft.to/lastmile_qr_scan"}, "bike_id": "6bf4791d577f22cd211fa6b0571a1eda", "lat": 38.904841, "name": "6bf4791d577f22cd211fa6b0571a1eda", "lon": -76.94961033333334, "fusion_lon": 0.0}, {"is_reserved": 0, "type": "electric_scooter", "fusion_lat": 0.0, "is_disabled": 0, "rental_uris": {"ios": "https://dc.lft.to/lastmile_qr_scan", "android": "https://dc.lft.to/lastmile_qr_scan"}, "bike_id": "900b792802401a4c61e0beff0263efba", "lat": 38.92459133333333, "name": "900b792802401a4c61e0beff0263efba", "lon": -77.0522035, "fusion_lon": 0.0}, {"is_reserved": 0, "type": "electric_scooter", "fusion_lat": 0.0, "is_disabled": 0, "rental_uris": {"ios": "https://dc.lft.to/lastmile_qr_scan", "android": "https://dc.lft.to/lastmile_qr_scan"}, "bike_id": "9f7550c82d1658f939b74684f60725f2", "lat": 38.9028285, "name": "9f7550c82d1658f939b74684f60725f2", "lon": -77.0488775, "fusion_lon": 0.0}, {"is_reserved": 0, "type": "electric_scooter", "fusion_lat": 0.0, "is_disabled": 0, "rental_uris": {"ios": "https://dc.lft.to/lastmile_qr_scan", "android": "https://dc.lft.to/lastmile_qr_scan"}, "bike_id": "0e0fb3b2ca03e0e908629a7e5e8e940d", "lat": 38.91119966666667, "name": "0e0fb3b2ca03e0e908629a7e5e8e940d", "lon": -77.020915, "fusion_lon": 0.0}, {"is_reserved": 0, "type": "electric_scooter", "fusion_lat": 0.0, "is_disabled": 0, "rental_uris": {"ios": "https://dc.lft.to/lastmile_qr_scan", "android": "https://dc.lft.to/lastmile_qr_scan"}, "bike_id": "45ef6961ce5693e33883c20cac71f241", "lat": 38.92761866666667, "name": "45ef6961ce5693e33883c20cac71f241", "lon": -77.0327705, "fusion_lon": 0.0}, {"is_reserved": 0, "type": "electric_scooter", "fusion_lat": 0.0, "is_disabled": 0, "rental_uris": {"ios": "https://dc.lft.to/lastmile_qr_scan", "android": "https://dc.lft.to/lastmile_qr_scan"}, "bike_id": "4137281351d8baaf69d8fa6d8c21ffc5", "lat": 38.902978833333336, "name": "4137281351d8baaf69d8fa6d8c21ffc5", "lon": -77.02818433333333, "fusion_lon": 0.0}, {"is_reserved": 0, "type": "electric_bike", "fusion_lat": 0.0, "is_disabled": 0, "rental_uris": {"ios": "https://dc.lft.to/lastmile_qr_scan", "android": "https://dc.lft.to/lastmile_qr_scan"}, "bike_id": "30a8d59d370d4e890ecd3b95789f4da1", "lat": 38.950148, "name": "30a8d59d370d4e890ecd3b95789f4da1", "lon": -77.01427433333333, "fusion_lon": 0.0}, {"is_reserved": 0, "type": "electric_scooter", "fusion_lat": 0.0, "is_disabled": 0, "rental_uris": {"ios": "https://dc.lft.to/lastmile_qr_scan", "android": "https://dc.lft.to/lastmile_qr_scan"}, "bike_id": "6648f42bd490acc4459e516c89c0d8a7", "lat": 38.907420333333334, "name": "6648f42bd490acc4459e516c89c0d8a7", "lon": -77.00392116666667, "fusion_lon": 0.0}, {"is_reserved": 0, "type": "electric_bike", "fusion_lat": 0.0, "is_disabled": 0, "rental_uris": {"ios": "https://dc.lft.to/lastmile_qr_scan", "android": "https://dc.lft.to/lastmile_qr_scan"}, "bike_id": "06331790395ede4347cf47362d080e62", "lat": 38.933885, "name": "06331790395ede4347cf47362d080e62", "lon": -77.023831, "fusion_lon": 0.0}, {"is_reserved": 0, "type": "electric_scooter", "fusion_lat": 0.0, "is_disabled": 0, "rental_uris": {"ios": "https://dc.lft.to/lastmile_qr_scan", "android": "https://dc.lft.to/lastmile_qr_scan"}, "bike_id": "c07c0dbceade17c28be1bf56164e7a13", "lat": 38.90783583333333, "name": "c07c0dbceade17c28be1bf56164e7a13", "lon": -77.0024165, "fusion_lon": 0.0}, {"is_reserved": 0, "type": "electric_scooter", "fusion_lat": 0.0, "is_disabled": 0, "rental_uris": {"ios": "https://dc.lft.to/lastmile_qr_scan", "android": "https://dc.lft.to/lastmile_qr_scan"}, "bike_id": "97f244055ed5f33fb7d8c3322f366215", "lat": 38.912187833333334, "name": "97f244055ed5f33fb7d8c3322f366215", "lon": -77.038398, "fusion_lon": 0.0}, {"is_reserved": 0, "type": "electric_bike", "fusion_lat": 0.0, "is_disabled": 0, "rental_uris": {"ios": "https://dc.lft.to/lastmile_qr_scan", "android": "https://dc.lft.to/lastmile_qr_scan"}, "bike_id": "3c9fa74c7b608ede04caa142788d5078", "lat": 39.02298866666667, "name": "3c9fa74c7b608ede04caa142788d5078", "lon": -77.021065, "fusion_lon": 0.0}, {"is_reserved": 0, "type": "electric_bike", "fusion_lat": 0.0, "is_disabled": 0, "rental_uris": {"ios": "https://dc.lft.to/lastmile_qr_scan", "android": "https://dc.lft.to/lastmile_qr_scan"}, "bike_id": "dd2b402d2d00a67cd8895f1b583d176f", "lat": 38.974782833333336, "name": "dd2b402d2d00a67cd8895f1b583d176f", "lon": -76.98671216666666, "fusion_lon": 0.0}, {"is_reserved": 0, "type": "electric_scooter", "fusion_lat": 0.0, "is_disabled": 0, "rental_uris": {"ios": "https://dc.lft.to/lastmile_qr_scan", "android": "https://dc.lft.to/lastmile_qr_scan"}, "bike_id": "4b73106a4b863e78f001e5c13e350fa3", "lat": 38.89958266666667, "name": "4b73106a4b863e78f001e5c13e350fa3", "lon": -77.04749866666667, "fusion_lon": 0.0}, {"is_reserved": 0, "type": "electric_scooter", "fusion_lat": 0.0, "is_disabled": 0, "rental_uris": {"ios": "https://dc.lft.to/lastmile_qr_scan", "android": "https://dc.lft.to/lastmile_qr_scan"}, "bike_id": "582aa35fc84e52dc738f333421efd1de", "lat": 38.88370366666667, "name": "582aa35fc84e52dc738f333421efd1de", "lon": -76.99517016666667, "fusion_lon": 0.0}, {"is_reserved": 0, "type": "electric_scooter", "fusion_lat": 0.0, "is_disabled": 0, "rental_uris": {"ios": "https://dc.lft.to/lastmile_qr_scan", "android": "https://dc.lft.to/lastmile_qr_scan"}, "bike_id": "f7637ffc3c21c23c4b5ee0e9a25336c9", "lat": 38.90656833333333, "name": "f7637ffc3c21c23c4b5ee0e9a25336c9", "lon": -77.01612566666667, "fusion_lon": 0.0}, {"is_reserved": 0, "type": "electric_bike", "fusion_lat": 0.0, "is_disabled": 0, "rental_uris": {"ios": "https://dc.lft.to/lastmile_qr_scan", "android": "https://dc.lft.to/lastmile_qr_scan"}, "bike_id": "73ddfb49efbbd8b9da093288d4d175bc", "lat": 38.8942775, "name": "73ddfb49efbbd8b9da093288d4d175bc", "lon": -77.09444266666667, "fusion_lon": 0.0}, {"is_reserved": 0, "type": "electric_scooter", "fusion_lat": 0.0, "is_disabled": 0, "rental_uris": {"ios": "https://dc.lft.to/lastmile_qr_scan", "android": "https://dc.lft.to/lastmile_qr_scan"}, "bike_id": "c1928e1a2a930263bff0787ba8d66d56", "lat": 38.89844216666667, "name": "c1928e1a2a930263bff0787ba8d66d56", "lon": -77.01883133333334, "fusion_lon": 0.0}, {"is_reserved": 0, "type": "electric_bike", "fusion_lat": 0.0, "is_disabled": 0, "rental_uris": {"ios": "https://dc.lft.to/lastmile_qr_scan", "android": "https://dc.lft.to/lastmile_qr_scan"}, "bike_id": "a70d086ff4fa41014ad5c38a76ad524e", "lat": 38.982345333333335, "name": "a70d086ff4fa41014ad5c38a76ad524e", "lon": -77.09551033333334, "fusion_lon": 0.0}, {"is_reserved": 0, "type": "electric_bike", "fusion_lat": 0.0, "is_disabled": 0, "rental_uris": {"ios": "https://dc.lft.to/lastmile_qr_scan", "android": "https://dc.lft.to/lastmile_qr_scan"}, "bike_id": "7f8dbfca16ad20cb1aafb11bef636906", "lat": 38.840898, "name": "7f8dbfca16ad20cb1aafb11bef636906", "lon": -76.9703, "fusion_lon": 0.0}, {"is_reserved": 0, "type": "electric_scooter", "fusion_lat": 0.0, "is_disabled": 0, "rental_uris": {"ios": "https://dc.lft.to/lastmile_qr_scan", "android": "https://dc.lft.to/lastmile_qr_scan"}, "bike_id": "dd340d668fbe82bf1c0cc5c9d6360249", "lat": 38.892278833333336, "name": "dd340d668fbe82bf1c0cc5c9d6360249", "lon": -77.04492733333333, "fusion_lon": 0.0}, {"is_reserved": 0, "type": "electric_scooter", "fusion_lat": 0.0, "is_disabled": 0, "rental_uris": {"ios": "https://dc.lft.to/lastmile_qr_scan", "android": "https://dc.lft.to/lastmile_qr_scan"}, "bike_id": "c7b35b3e647eec04bfe9cdcee99cbd12", "lat": 38.92031866666667, "name": "c7b35b3e647eec04bfe9cdcee99cbd12", "lon": -77.041948, "fusion_lon": 0.0}, {"is_reserved": 0, "type": "electric_scooter", "fusion_lat": 0.0, "is_disabled": 0, "rental_uris": {"ios": "https://dc.lft.to/lastmile_qr_scan", "android": "https://dc.lft.to/lastmile_qr_scan"}, "bike_id": "b7d87fe4280881f3ac83f3916bcbb139", "lat": 38.9248185, "name": "b7d87fe4280881f3ac83f3916bcbb139", "lon": -77.02551816666667, "fusion_lon": 0.0}, {"is_reserved": 0, "type": "electric_scooter", "fusion_lat": 0.0, "is_disabled": 0, "rental_uris": {"ios": "https://dc.lft.to/lastmile_qr_scan", "android": "https://dc.lft.to/lastmile_qr_scan"}, "bike_id": "6edd1fc38161d3035dfe8aea3c6d170e", "lat": 38.919718833333334, "name": "6edd1fc38161d3035dfe8aea3c6d170e", "lon": -77.07123633333333, "fusion_lon": 0.0}, {"is_reserved": 0, "type": "electric_scooter", "fusion_lat": 0.0, "is_disabled": 0, "rental_uris": {"ios": "https://dc.lft.to/lastmile_qr_scan", "android": "https://dc.lft.to/lastmile_qr_scan"}, "bike_id": "ec4705e4afd84c6bc172a93fb32c6be8", "lat": 38.92820966666667, "name": "ec4705e4afd84c6bc172a93fb32c6be8", "lon": -77.021622, "fusion_lon": 0.0}, {"is_reserved": 0, "type": "electric_scooter", "fusion_lat": 0.0, "is_disabled": 0, "rental_uris": {"ios": "https://dc.lft.to/lastmile_qr_scan", "android": "https://dc.lft.to/lastmile_qr_scan"}, "bike_id": "7955d59e49febcfb51df1b2453ccde80", "lat": 38.91257516666667, "name": "7955d59e49febcfb51df1b2453ccde80", "lon": -77.038797, "fusion_lon": 0.0}, {"is_reserved": 0, "type": "electric_scooter", "fusion_lat": 0.0, "is_disabled": 0, "rental_uris": {"ios": "https://dc.lft.to/lastmile_qr_scan", "android": "https://dc.lft.to/lastmile_qr_scan"}, "bike_id": "cc679bd567a9a1da6cc352dff6ca8c68", "lat": 38.930772, "name": "cc679bd567a9a1da6cc352dff6ca8c68", "lon": -77.03186833333334, "fusion_lon": 0.0}, {"is_reserved": 0, "type": "electric_scooter", "fusion_lat": 0.0, "is_disabled": 0, "rental_uris": {"ios": "https://dc.lft.to/lastmile_qr_scan", "android": "https://dc.lft.to/lastmile_qr_scan"}, "bike_id": "c2857e6cf4055b3839b2432f062d5d9c", "lat": 38.9399315, "name": "c2857e6cf4055b3839b2432f062d5d9c", "lon": -77.02896366666667, "fusion_lon": 0.0}, {"is_reserved": 0, "type": "electric_bike", "fusion_lat": 0.0, "is_disabled": 0, "rental_uris": {"ios": "https://dc.lft.to/lastmile_qr_scan", "android": "https://dc.lft.to/lastmile_qr_scan"}, "bike_id": "40b2b91230e616317dc5af40f849773a", "lat": 38.88274766666667, "name": "40b2b91230e616317dc5af40f849773a", "lon": -76.93234766666667, "fusion_lon": 0.0}, {"is_reserved": 0, "type": "electric_scooter", "fusion_lat": 0.0, "is_disabled": 0, "rental_uris": {"ios": "https://dc.lft.to/lastmile_qr_scan", "android": "https://dc.lft.to/lastmile_qr_scan"}, "bike_id": "c16defd3c5c4e7a088cf32323e05c985", "lat": 38.89509283333334, "name": "c16defd3c5c4e7a088cf32323e05c985", "lon": -77.02720766666667, "fusion_lon": 0.0}, {"is_reserved": 0, "type": "electric_bike", "fusion_lat": 0.0, "is_disabled": 0, "rental_uris": {"ios": "https://dc.lft.to/lastmile_qr_scan", "android": "https://dc.lft.to/lastmile_qr_scan"}, "bike_id": "256972fa1a1abf0879eb1574e437df01", "lat": 38.80978966666667, "name": "256972fa1a1abf0879eb1574e437df01", "lon": -77.0766035, "fusion_lon": 0.0}, {"is_reserved": 0, "type": "electric_scooter", "fusion_lat": 0.0, "is_disabled": 0, "rental_uris": {"ios": "https://dc.lft.to/lastmile_qr_scan", "android": "https://dc.lft.to/lastmile_qr_scan"}, "bike_id": "a9014bdf8d75444a8a5f687b12c056ac", "lat": 38.89819, "name": "a9014bdf8d75444a8a5f687b12c056ac", "lon": -77.01267533333333, "fusion_lon": 0.0}, {"is_reserved": 0, "type": "electric_bike", "fusion_lat": 0.0, "is_disabled": 0, "rental_uris": {"ios": "https://dc.lft.to/lastmile_qr_scan", "android": "https://dc.lft.to/lastmile_qr_scan"}, "bike_id": "c81e4559aba0fd85b64da11a9e3e7292", "lat": 38.920208, "name": "c81e4559aba0fd85b64da11a9e3e7292", "lon": -77.0033735, "fusion_lon": 0.0}, {"is_reserved": 0, "type": "electric_scooter", "fusion_lat": 0.0, "is_disabled": 0, "rental_uris": {"ios": "https://dc.lft.to/lastmile_qr_scan", "android": "https://dc.lft.to/lastmile_qr_scan"}, "bike_id": "f4363e9215daf0536d4b600d1ca9a106", "lat": 38.89446566666667, "name": "f4363e9215daf0536d4b600d1ca9a106", "lon": -76.98086766666667, "fusion_lon": 0.0}, {"is_reserved": 0, "type": "electric_scooter", "fusion_lat": 0.0, "is_disabled": 0, "rental_uris": {"ios": "https://dc.lft.to/lastmile_qr_scan", "android": "https://dc.lft.to/lastmile_qr_scan"}, "bike_id": "9a4d7960d50cf1df42e258714af82d3f", "lat": 38.926682, "name": "9a4d7960d50cf1df42e258714af82d3f", "lon": -76.99544966666667, "fusion_lon": 0.0}, {"is_reserved": 0, "type": "electric_bike", "fusion_lat": 0.0, "is_disabled": 0, "rental_uris": {"ios": "https://dc.lft.to/lastmile_qr_scan", "android": "https://dc.lft.to/lastmile_qr_scan"}, "bike_id": "1ed26a79c0c3388601b3bd39f64ba5a6", "lat": 38.93641783333333, "name": "1ed26a79c0c3388601b3bd39f64ba5a6", "lon": -76.95459866666667, "fusion_lon": 0.0}, {"is_reserved": 0, "type": "electric_scooter", "fusion_lat": 0.0, "is_disabled": 0, "rental_uris": {"ios": "https://dc.lft.to/lastmile_qr_scan", "android": "https://dc.lft.to/lastmile_qr_scan"}, "bike_id": "a32b76fcc0109b4c0f5987b21feff1c7", "lat": 38.907472, "name": "a32b76fcc0109b4c0f5987b21feff1c7", "lon": -77.0076245, "fusion_lon": 0.0}, {"is_reserved": 0, "type": "electric_scooter", "fusion_lat": 0.0, "is_disabled": 0, "rental_uris": {"ios": "https://dc.lft.to/lastmile_qr_scan", "android": "https://dc.lft.to/lastmile_qr_scan"}, "bike_id": "ad8ead9775214975eface54448b4e37f", "lat": 38.92468316666667, "name": "ad8ead9775214975eface54448b4e37f", "lon": -77.02243116666666, "fusion_lon": 0.0}, {"is_reserved": 0, "type": "electric_scooter", "fusion_lat": 0.0, "is_disabled": 0, "rental_uris": {"ios": "https://dc.lft.to/lastmile_qr_scan", "android": "https://dc.lft.to/lastmile_qr_scan"}, "bike_id": "fab7d9a9eeca8ce8d69c5c129d0c9567", "lat": 38.918791, "name": "fab7d9a9eeca8ce8d69c5c129d0c9567", "lon": -77.03515383333334, "fusion_lon": 0.0}, {"is_reserved": 0, "type": "electric_scooter", "fusion_lat": 0.0, "is_disabled": 0, "rental_uris": {"ios": "https://dc.lft.to/lastmile_qr_scan", "android": "https://dc.lft.to/lastmile_qr_scan"}, "bike_id": "b8631670a8e0667f48d3e9c74ade7c59", "lat": 38.9165265, "name": "b8631670a8e0667f48d3e9c74ade7c59", "lon": -77.01028233333334, "fusion_lon": 0.0}, {"is_reserved": 0, "type": "electric_scooter", "fusion_lat": 0.0, "is_disabled": 0, "rental_uris": {"ios": "https://dc.lft.to/lastmile_qr_scan", "android": "https://dc.lft.to/lastmile_qr_scan"}, "bike_id": "0e6300d71dff8a80d51df45a59ef322b", "lat": 38.92157866666667, "name": "0e6300d71dff8a80d51df45a59ef322b", "lon": -77.03390316666666, "fusion_lon": 0.0}, {"is_reserved": 0, "type": "electric_scooter", "fusion_lat": 0.0, "is_disabled": 0, "rental_uris": {"ios": "https://dc.lft.to/lastmile_qr_scan", "android": "https://dc.lft.to/lastmile_qr_scan"}, "bike_id": "acd7288f103aadfc3e8142131c794398", "lat": 38.935992, "name": "acd7288f103aadfc3e8142131c794398", "lon": -77.03765, "fusion_lon": 0.0}, {"is_reserved": 0, "type": "electric_scooter", "fusion_lat": 0.0, "is_disabled": 0, "rental_uris": {"ios": "https://dc.lft.to/lastmile_qr_scan", "android": "https://dc.lft.to/lastmile_qr_scan"}, "bike_id": "dd5034a6b6d0308f7f62664466007513", "lat": 38.8963115, "name": "dd5034a6b6d0308f7f62664466007513", "lon": -77.0286105, "fusion_lon": 0.0}, {"is_reserved": 0, "type": "electric_scooter", "fusion_lat": 0.0, "is_disabled": 0, "rental_uris": {"ios": "https://dc.lft.to/lastmile_qr_scan", "android": "https://dc.lft.to/lastmile_qr_scan"}, "bike_id": "dac1d05fb874216970f334cea9fcaac4", "lat": 38.94481483333333, "name": "dac1d05fb874216970f334cea9fcaac4", "lon": -77.09497183333333, "fusion_lon": 0.0}, {"is_reserved": 0, "type": "electric_bike", "fusion_lat": 0.0, "is_disabled": 0, "rental_uris": {"ios": "https://dc.lft.to/lastmile_qr_scan", "android": "https://dc.lft.to/lastmile_qr_scan"}, "bike_id": "4ce250deb68ce05691a86c2f3003fcef", "lat": 38.883008, "name": "4ce250deb68ce05691a86c2f3003fcef", "lon": -77.00203466666666, "fusion_lon": 0.0}, {"is_reserved": 0, "type": "electric_scooter", "fusion_lat": 0.0, "is_disabled": 0, "rental_uris": {"ios": "https://dc.lft.to/lastmile_qr_scan", "android": "https://dc.lft.to/lastmile_qr_scan"}, "bike_id": "fe8ec12ea36e7849101eae8b42771afb", "lat": 38.89220566666667, "name": "fe8ec12ea36e7849101eae8b42771afb", "lon": -77.0463625, "fusion_lon": 0.0}, {"is_reserved": 0, "type": "electric_scooter", "fusion_lat": 0.0, "is_disabled": 0, "rental_uris": {"ios": "https://dc.lft.to/lastmile_qr_scan", "android": "https://dc.lft.to/lastmile_qr_scan"}, "bike_id": "db43e85844e4e5c74229a1e8dd8dcc1b", "lat": 38.922128, "name": "db43e85844e4e5c74229a1e8dd8dcc1b", "lon": -77.04238433333333, "fusion_lon": 0.0}, {"is_reserved": 0, "type": "electric_scooter", "fusion_lat": 0.0, "is_disabled": 0, "rental_uris": {"ios": "https://dc.lft.to/lastmile_qr_scan", "android": "https://dc.lft.to/lastmile_qr_scan"}, "bike_id": "ef9780b6fcf0f1fc48e99a762cbf954b", "lat": 38.89821933333333, "name": "ef9780b6fcf0f1fc48e99a762cbf954b", "lon": -76.93003483333334, "fusion_lon": 0.0}, {"is_reserved": 0, "type": "electric_scooter", "fusion_lat": 0.0, "is_disabled": 0, "rental_uris": {"ios": "https://dc.lft.to/lastmile_qr_scan", "android": "https://dc.lft.to/lastmile_qr_scan"}, "bike_id": "cf50b486d8e5ac1eef2f73b180371477", "lat": 38.89772633333333, "name": "cf50b486d8e5ac1eef2f73b180371477", "lon": -77.0477605, "fusion_lon": 0.0}, {"is_reserved": 0, "type": "electric_scooter", "fusion_lat": 0.0, "is_disabled": 0, "rental_uris": {"ios": "https://dc.lft.to/lastmile_qr_scan", "android": "https://dc.lft.to/lastmile_qr_scan"}, "bike_id": "4f79cf58ff39c45add31d8977ca0876d", "lat": 38.92024266666667, "name": "4f79cf58ff39c45add31d8977ca0876d", "lon": -77.03978533333333, "fusion_lon": 0.0}, {"is_reserved": 0, "type": "electric_scooter", "fusion_lat": 0.0, "is_disabled": 0, "rental_uris": {"ios": "https://dc.lft.to/lastmile_qr_scan", "android": "https://dc.lft.to/lastmile_qr_scan"}, "bike_id": "86a3e78354e4acac3f2bf618f937ee51", "lat": 38.907816, "name": "86a3e78354e4acac3f2bf618f937ee51", "lon": -77.0025345, "fusion_lon": 0.0}, {"is_reserved": 0, "type": "electric_scooter", "fusion_lat": 0.0, "is_disabled": 0, "rental_uris": {"ios": "https://dc.lft.to/lastmile_qr_scan", "android": "https://dc.lft.to/lastmile_qr_scan"}, "bike_id": "7e3ae8f0eeb8a1c6d62f796be1b7aba1", "lat": 38.920212, "name": "7e3ae8f0eeb8a1c6d62f796be1b7aba1", "lon": -77.01704083333334, "fusion_lon": 0.0}, {"is_reserved": 0, "type": "electric_bike", "fusion_lat": 0.0, "is_disabled": 0, "rental_uris": {"ios": "https://dc.lft.to/lastmile_qr_scan", "android": "https://dc.lft.to/lastmile_qr_scan"}, "bike_id": "b838962e07db28056e7ac161973b072f", "lat": 38.832706, "name": "b838962e07db28056e7ac161973b072f", "lon": -77.08373716666667, "fusion_lon": 0.0}, {"is_reserved": 0, "type": "electric_scooter", "fusion_lat": 0.0, "is_disabled": 0, "rental_uris": {"ios": "https://dc.lft.to/lastmile_qr_scan", "android": "https://dc.lft.to/lastmile_qr_scan"}, "bike_id": "676961ad391f90a9e63854c07f9ed683", "lat": 38.956359, "name": "676961ad391f90a9e63854c07f9ed683", "lon": -77.0221085, "fusion_lon": 0.0}, {"is_reserved": 0, "type": "electric_scooter", "fusion_lat": 0.0, "is_disabled": 0, "rental_uris": {"ios": "https://dc.lft.to/lastmile_qr_scan", "android": "https://dc.lft.to/lastmile_qr_scan"}, "bike_id": "8bf767ff2add257c8ad9f93ec4659e3b", "lat": 38.89736216666667, "name": "8bf767ff2add257c8ad9f93ec4659e3b", "lon": -77.00759183333334, "fusion_lon": 0.0}, {"is_reserved": 0, "type": "electric_scooter", "fusion_lat": 0.0, "is_disabled": 0, "rental_uris": {"ios": "https://dc.lft.to/lastmile_qr_scan", "android": "https://dc.lft.to/lastmile_qr_scan"}, "bike_id": "8bd471d92fe74b9daf701250e899a2da", "lat": 38.930324666666664, "name": "8bd471d92fe74b9daf701250e899a2da", "lon": -77.03814233333334, "fusion_lon": 0.0}, {"is_reserved": 0, "type": "electric_scooter", "fusion_lat": 0.0, "is_disabled": 0, "rental_uris": {"ios": "https://dc.lft.to/lastmile_qr_scan", "android": "https://dc.lft.to/lastmile_qr_scan"}, "bike_id": "d3415bf3436b82f5b46a196fbd8175b2", "lat": 38.88990666666667, "name": "d3415bf3436b82f5b46a196fbd8175b2", "lon": -77.00074366666666, "fusion_lon": 0.0}, {"is_reserved": 0, "type": "electric_scooter", "fusion_lat": 0.0, "is_disabled": 0, "rental_uris": {"ios": "https://dc.lft.to/lastmile_qr_scan", "android": "https://dc.lft.to/lastmile_qr_scan"}, "bike_id": "75d808edd5dd476ae18887dc1c21a3d0", "lat": 38.916996833333336, "name": "75d808edd5dd476ae18887dc1c21a3d0", "lon": -77.02482733333333, "fusion_lon": 0.0}, {"is_reserved": 0, "type": "electric_scooter", "fusion_lat": 0.0, "is_disabled": 0, "rental_uris": {"ios": "https://dc.lft.to/lastmile_qr_scan", "android": "https://dc.lft.to/lastmile_qr_scan"}, "bike_id": "ef3d65de76ac0845c65870cff8cd8aea", "lat": 38.9205685, "name": "ef3d65de76ac0845c65870cff8cd8aea", "lon": -77.0167805, "fusion_lon": 0.0}, {"is_reserved": 0, "type": "electric_scooter", "fusion_lat": 0.0, "is_disabled": 0, "rental_uris": {"ios": "https://dc.lft.to/lastmile_qr_scan", "android": "https://dc.lft.to/lastmile_qr_scan"}, "bike_id": "097b2c158328f9a19d1609cb68c1c49c", "lat": 38.93861916666667, "name": "097b2c158328f9a19d1609cb68c1c49c", "lon": -77.07237033333334, "fusion_lon": 0.0}, {"is_reserved": 0, "type": "electric_scooter", "fusion_lat": 0.0, "is_disabled": 0, "rental_uris": {"ios": "https://dc.lft.to/lastmile_qr_scan", "android": "https://dc.lft.to/lastmile_qr_scan"}, "bike_id": "0761df553b925dec22255511cc3a1a3f", "lat": 38.898929333333335, "name": "0761df553b925dec22255511cc3a1a3f", "lon": -77.0500475, "fusion_lon": 0.0}, {"is_reserved": 0, "type": "electric_scooter", "fusion_lat": 0.0, "is_disabled": 0, "rental_uris": {"ios": "https://dc.lft.to/lastmile_qr_scan", "android": "https://dc.lft.to/lastmile_qr_scan"}, "bike_id": "0a8731a9b4e81fc3aaceaacc1a2abe8f", "lat": 38.927149, "name": "0a8731a9b4e81fc3aaceaacc1a2abe8f", "lon": -77.04052183333333, "fusion_lon": 0.0}, {"is_reserved": 0, "type": "electric_scooter", "fusion_lat": 0.0, "is_disabled": 0, "rental_uris": {"ios": "https://dc.lft.to/lastmile_qr_scan", "android": "https://dc.lft.to/lastmile_qr_scan"}, "bike_id": "1c0d017c6b461c1ea94bf53aa2270193", "lat": 38.899127166666666, "name": "1c0d017c6b461c1ea94bf53aa2270193", "lon": -77.0036425, "fusion_lon": 0.0}, {"is_reserved": 0, "type": "electric_bike", "fusion_lat": 0.0, "is_disabled": 0, "rental_uris": {"ios": "https://dc.lft.to/lastmile_qr_scan", "android": "https://dc.lft.to/lastmile_qr_scan"}, "bike_id": "f1f4dd724bc14ade66baea7212633d49", "lat": 38.926515333333334, "name": "f1f4dd724bc14ade66baea7212633d49", "lon": -77.090198, "fusion_lon": 0.0}, {"is_reserved": 0, "type": "electric_scooter", "fusion_lat": 0.0, "is_disabled": 0, "rental_uris": {"ios": "https://dc.lft.to/lastmile_qr_scan", "android": "https://dc.lft.to/lastmile_qr_scan"}, "bike_id": "6df5f0238bb46b96598cf6e2f8c6adf8", "lat": 38.9164115, "name": "6df5f0238bb46b96598cf6e2f8c6adf8", "lon": -77.04808366666667, "fusion_lon": 0.0}, {"is_reserved": 0, "type": "electric_scooter", "fusion_lat": 0.0, "is_disabled": 0, "rental_uris": {"ios": "https://dc.lft.to/lastmile_qr_scan", "android": "https://dc.lft.to/lastmile_qr_scan"}, "bike_id": "964290b6c0e24b4d245de0b61673e5a9", "lat": 38.92330466666667, "name": "964290b6c0e24b4d245de0b61673e5a9", "lon": -77.028131, "fusion_lon": 0.0}, {"is_reserved": 0, "type": "electric_scooter", "fusion_lat": 0.0, "is_disabled": 0, "rental_uris": {"ios": "https://dc.lft.to/lastmile_qr_scan", "android": "https://dc.lft.to/lastmile_qr_scan"}, "bike_id": "4cefd2697262f56578ccc618e99b0693", "lat": 38.939338, "name": "4cefd2697262f56578ccc618e99b0693", "lon": -77.0258875, "fusion_lon": 0.0}, {"is_reserved": 0, "type": "electric_bike", "fusion_lat": 0.0, "is_disabled": 0, "rental_uris": {"ios": "https://dc.lft.to/lastmile_qr_scan", "android": "https://dc.lft.to/lastmile_qr_scan"}, "bike_id": "62ec33ff4df0540dfb69ae1ca6cd76d0", "lat": 38.97155083333333, "name": "62ec33ff4df0540dfb69ae1ca6cd76d0", "lon": -76.983609, "fusion_lon": 0.0}, {"is_reserved": 0, "type": "electric_scooter", "fusion_lat": 0.0, "is_disabled": 0, "rental_uris": {"ios": "https://dc.lft.to/lastmile_qr_scan", "android": "https://dc.lft.to/lastmile_qr_scan"}, "bike_id": "9c4cec9b9a140b02d9b8f460f5fecfaa", "lat": 38.90344783333333, "name": "9c4cec9b9a140b02d9b8f460f5fecfaa", "lon": -76.974917, "fusion_lon": 0.0}, {"is_reserved": 0, "type": "electric_scooter", "fusion_lat": 0.0, "is_disabled": 0, "rental_uris": {"ios": "https://dc.lft.to/lastmile_qr_scan", "android": "https://dc.lft.to/lastmile_qr_scan"}, "bike_id": "027af0fe6d432d88a4beb7192f3eedd8", "lat": 38.9126615, "name": "027af0fe6d432d88a4beb7192f3eedd8", "lon": -77.0455515, "fusion_lon": 0.0}, {"is_reserved": 0, "type": "electric_scooter", "fusion_lat": 0.0, "is_disabled": 0, "rental_uris": {"ios": "https://dc.lft.to/lastmile_qr_scan", "android": "https://dc.lft.to/lastmile_qr_scan"}, "bike_id": "1da10172e738edb5effc446c0f33b854", "lat": 38.927645, "name": "1da10172e738edb5effc446c0f33b854", "lon": -77.0279205, "fusion_lon": 0.0}, {"is_reserved": 0, "type": "electric_scooter", "fusion_lat": 0.0, "is_disabled": 0, "rental_uris": {"ios": "https://dc.lft.to/lastmile_qr_scan", "android": "https://dc.lft.to/lastmile_qr_scan"}, "bike_id": "96e5c1aeab810f42ebb1585f0ec9c663", "lat": 38.934782, "name": "96e5c1aeab810f42ebb1585f0ec9c663", "lon": -77.03580783333334, "fusion_lon": 0.0}, {"is_reserved": 0, "type": "electric_scooter", "fusion_lat": 0.0, "is_disabled": 0, "rental_uris": {"ios": "https://dc.lft.to/lastmile_qr_scan", "android": "https://dc.lft.to/lastmile_qr_scan"}, "bike_id": "108903e9f87b3f74810def3df253e2fe", "lat": 38.91623833333333, "name": "108903e9f87b3f74810def3df253e2fe", "lon": -77.00503166666667, "fusion_lon": 0.0}, {"is_reserved": 0, "type": "electric_scooter", "fusion_lat": 0.0, "is_disabled": 0, "rental_uris": {"ios": "https://dc.lft.to/lastmile_qr_scan", "android": "https://dc.lft.to/lastmile_qr_scan"}, "bike_id": "44b42f409ea73c5e1d292862bdca110c", "lat": 38.902424333333336, "name": "44b42f409ea73c5e1d292862bdca110c", "lon": -77.01624766666667, "fusion_lon": 0.0}, {"is_reserved": 0, "type": "electric_scooter", "fusion_lat": 0.0, "is_disabled": 0, "rental_uris": {"ios": "https://dc.lft.to/lastmile_qr_scan", "android": "https://dc.lft.to/lastmile_qr_scan"}, "bike_id": "2af730a85488ffe22b9090bd779bd0f2", "lat": 38.91502083333334, "name": "2af730a85488ffe22b9090bd779bd0f2", "lon": -77.03216783333333, "fusion_lon": 0.0}, {"is_reserved": 0, "type": "electric_scooter", "fusion_lat": 0.0, "is_disabled": 0, "rental_uris": {"ios": "https://dc.lft.to/lastmile_qr_scan", "android": "https://dc.lft.to/lastmile_qr_scan"}, "bike_id": "cbaf0f59073c3005333f5d68220dee6c", "lat": 38.879413166666666, "name": "cbaf0f59073c3005333f5d68220dee6c", "lon": -77.00709316666666, "fusion_lon": 0.0}, {"is_reserved": 0, "type": "electric_scooter", "fusion_lat": 0.0, "is_disabled": 0, "rental_uris": {"ios": "https://dc.lft.to/lastmile_qr_scan", "android": "https://dc.lft.to/lastmile_qr_scan"}, "bike_id": "6a24db897417e42f98e0ef74bb6e2e60", "lat": 38.90973683333333, "name": "6a24db897417e42f98e0ef74bb6e2e60", "lon": -77.02207133333333, "fusion_lon": 0.0}, {"is_reserved": 0, "type": "electric_scooter", "fusion_lat": 0.0, "is_disabled": 0, "rental_uris": {"ios": "https://dc.lft.to/lastmile_qr_scan", "android": "https://dc.lft.to/lastmile_qr_scan"}, "bike_id": "6363ce07f83923c3d0f51b265b22a257", "lat": 38.9365665, "name": "6363ce07f83923c3d0f51b265b22a257", "lon": -77.021338, "fusion_lon": 0.0}, {"is_reserved": 0, "type": "electric_scooter", "fusion_lat": 0.0, "is_disabled": 0, "rental_uris": {"ios": "https://dc.lft.to/lastmile_qr_scan", "android": "https://dc.lft.to/lastmile_qr_scan"}, "bike_id": "2451a94b128ed03d4948999c93d80036", "lat": 38.91826016666667, "name": "2451a94b128ed03d4948999c93d80036", "lon": -77.02418933333334, "fusion_lon": 0.0}, {"is_reserved": 0, "type": "electric_scooter", "fusion_lat": 0.0, "is_disabled": 0, "rental_uris": {"ios": "https://dc.lft.to/lastmile_qr_scan", "android": "https://dc.lft.to/lastmile_qr_scan"}, "bike_id": "1cda51bbaab9d801ea0fa28b5170e332", "lat": 38.927484666666665, "name": "1cda51bbaab9d801ea0fa28b5170e332", "lon": -77.02620666666667, "fusion_lon": 0.0}, {"is_reserved": 0, "type": "electric_scooter", "fusion_lat": 0.0, "is_disabled": 0, "rental_uris": {"ios": "https://dc.lft.to/lastmile_qr_scan", "android": "https://dc.lft.to/lastmile_qr_scan"}, "bike_id": "fa50e073c55d1b6fd39dea8803e51506", "lat": 38.9140275, "name": "fa50e073c55d1b6fd39dea8803e51506", "lon": -77.014261, "fusion_lon": 0.0}, {"is_reserved": 0, "type": "electric_scooter", "fusion_lat": 0.0, "is_disabled": 0, "rental_uris": {"ios": "https://dc.lft.to/lastmile_qr_scan", "android": "https://dc.lft.to/lastmile_qr_scan"}, "bike_id": "1ea1583b34329f58cd6b826ef4d2ca33", "lat": 38.923182, "name": "1ea1583b34329f58cd6b826ef4d2ca33", "lon": -77.01955383333333, "fusion_lon": 0.0}, {"is_reserved": 0, "type": "electric_scooter", "fusion_lat": 0.0, "is_disabled": 0, "rental_uris": {"ios": "https://dc.lft.to/lastmile_qr_scan", "android": "https://dc.lft.to/lastmile_qr_scan"}, "bike_id": "20a557d59528a1a4b6f06680a1db9a38", "lat": 38.902643833333336, "name": "20a557d59528a1a4b6f06680a1db9a38", "lon": -77.027849, "fusion_lon": 0.0}, {"is_reserved": 0, "type": "electric_scooter", "fusion_lat": 0.0, "is_disabled": 0, "rental_uris": {"ios": "https://dc.lft.to/lastmile_qr_scan", "android": "https://dc.lft.to/lastmile_qr_scan"}, "bike_id": "803c850d8fbd301dcb620a64b6c5d3f5", "lat": 38.923165833333336, "name": "803c850d8fbd301dcb620a64b6c5d3f5", "lon": -77.045093, "fusion_lon": 0.0}, {"is_reserved": 0, "type": "electric_scooter", "fusion_lat": 0.0, "is_disabled": 0, "rental_uris": {"ios": "https://dc.lft.to/lastmile_qr_scan", "android": "https://dc.lft.to/lastmile_qr_scan"}, "bike_id": "612f86017cf8c6231fe7caa0227bc3f1", "lat": 38.918508833333334, "name": "612f86017cf8c6231fe7caa0227bc3f1", "lon": -77.02592, "fusion_lon": 0.0}, {"is_reserved": 0, "type": "electric_scooter", "fusion_lat": 0.0, "is_disabled": 0, "rental_uris": {"ios": "https://dc.lft.to/lastmile_qr_scan", "android": "https://dc.lft.to/lastmile_qr_scan"}, "bike_id": "03ada16af165fdbf66d74c0fd4de4e35", "lat": 38.92104533333333, "name": "03ada16af165fdbf66d74c0fd4de4e35", "lon": -77.0304505, "fusion_lon": 0.0}, {"is_reserved": 0, "type": "electric_bike", "fusion_lat": 0.0, "is_disabled": 0, "rental_uris": {"ios": "https://dc.lft.to/lastmile_qr_scan", "android": "https://dc.lft.to/lastmile_qr_scan"}, "bike_id": "6035890285ec04741263e27d36a063ec", "lat": 38.92563283333333, "name": "6035890285ec04741263e27d36a063ec", "lon": -77.04038416666667, "fusion_lon": 0.0}, {"is_reserved": 0, "type": "electric_scooter", "fusion_lat": 0.0, "is_disabled": 0, "rental_uris": {"ios": "https://dc.lft.to/lastmile_qr_scan", "android": "https://dc.lft.to/lastmile_qr_scan"}, "bike_id": "ce385043e34724f40544501c5e67a18b", "lat": 38.922945666666664, "name": "ce385043e34724f40544501c5e67a18b", "lon": -76.99773416666666, "fusion_lon": 0.0}, {"is_reserved": 0, "type": "electric_scooter", "fusion_lat": 0.0, "is_disabled": 0, "rental_uris": {"ios": "https://dc.lft.to/lastmile_qr_scan", "android": "https://dc.lft.to/lastmile_qr_scan"}, "bike_id": "5051db6d4429562f574e8ecab1cae2e0", "lat": 38.89690916666667, "name": "5051db6d4429562f574e8ecab1cae2e0", "lon": -77.0434215, "fusion_lon": 0.0}, {"is_reserved": 0, "type": "electric_scooter", "fusion_lat": 0.0, "is_disabled": 0, "rental_uris": {"ios": "https://dc.lft.to/lastmile_qr_scan", "android": "https://dc.lft.to/lastmile_qr_scan"}, "bike_id": "2711b0663d972e212d83b6f7e04a967b", "lat": 38.934430666666664, "name": "2711b0663d972e212d83b6f7e04a967b", "lon": -77.03286366666667, "fusion_lon": 0.0}, {"is_reserved": 0, "type": "electric_scooter", "fusion_lat": 0.0, "is_disabled": 0, "rental_uris": {"ios": "https://dc.lft.to/lastmile_qr_scan", "android": "https://dc.lft.to/lastmile_qr_scan"}, "bike_id": "53891494c3d1e5712389d94b94106693", "lat": 38.88011016666667, "name": "53891494c3d1e5712389d94b94106693", "lon": -76.99743833333333, "fusion_lon": 0.0}, {"is_reserved": 0, "type": "electric_scooter", "fusion_lat": 0.0, "is_disabled": 0, "rental_uris": {"ios": "https://dc.lft.to/lastmile_qr_scan", "android": "https://dc.lft.to/lastmile_qr_scan"}, "bike_id": "49ea12134384d32f2cd2721d12ed632f", "lat": 38.89886966666667, "name": "49ea12134384d32f2cd2721d12ed632f", "lon": -76.93177266666666, "fusion_lon": 0.0}, {"is_reserved": 0, "type": "electric_scooter", "fusion_lat": 0.0, "is_disabled": 0, "rental_uris": {"ios": "https://dc.lft.to/lastmile_qr_scan", "android": "https://dc.lft.to/lastmile_qr_scan"}, "bike_id": "2c7a8b0e9ac8d93e2b59939a9a502089", "lat": 38.9133595, "name": "2c7a8b0e9ac8d93e2b59939a9a502089", "lon": -77.030416, "fusion_lon": 0.0}, {"is_reserved": 0, "type": "electric_scooter", "fusion_lat": 0.0, "is_disabled": 0, "rental_uris": {"ios": "https://dc.lft.to/lastmile_qr_scan", "android": "https://dc.lft.to/lastmile_qr_scan"}, "bike_id": "0a5d521470c52172f0e40efe413eb6c0", "lat": 38.905767166666664, "name": "0a5d521470c52172f0e40efe413eb6c0", "lon": -77.0445285, "fusion_lon": 0.0}, {"is_reserved": 0, "type": "electric_bike", "fusion_lat": 0.0, "is_disabled": 0, "rental_uris": {"ios": "https://dc.lft.to/lastmile_qr_scan", "android": "https://dc.lft.to/lastmile_qr_scan"}, "bike_id": "ee8583254ec032ac754f8e3d23bfab4e", "lat": 38.968915, "name": "ee8583254ec032ac754f8e3d23bfab4e", "lon": -76.95570066666667, "fusion_lon": 0.0}, {"is_reserved": 0, "type": "electric_scooter", "fusion_lat": 0.0, "is_disabled": 0, "rental_uris": {"ios": "https://dc.lft.to/lastmile_qr_scan", "android": "https://dc.lft.to/lastmile_qr_scan"}, "bike_id": "e7ea60f7d8ee1f2d53c1ace60b42ffe9", "lat": 38.97242833333333, "name": "e7ea60f7d8ee1f2d53c1ace60b42ffe9", "lon": -77.02719683333333, "fusion_lon": 0.0}, {"is_reserved": 0, "type": "electric_bike", "fusion_lat": 0.0, "is_disabled": 0, "rental_uris": {"ios": "https://dc.lft.to/lastmile_qr_scan", "android": "https://dc.lft.to/lastmile_qr_scan"}, "bike_id": "dbaaf3159d4e8122aa614a2eacf44b44", "lat": 38.897251, "name": "dbaaf3159d4e8122aa614a2eacf44b44", "lon": -76.97236183333334, "fusion_lon": 0.0}, {"is_reserved": 0, "type": "electric_scooter", "fusion_lat": 0.0, "is_disabled": 0, "rental_uris": {"ios": "https://dc.lft.to/lastmile_qr_scan", "android": "https://dc.lft.to/lastmile_qr_scan"}, "bike_id": "80c2262724133e744d1417acbdbef4c3", "lat": 38.89780416666667, "name": "80c2262724133e744d1417acbdbef4c3", "lon": -77.05017733333334, "fusion_lon": 0.0}, {"is_reserved": 0, "type": "electric_scooter", "fusion_lat": 0.0, "is_disabled": 0, "rental_uris": {"ios": "https://dc.lft.to/lastmile_qr_scan", "android": "https://dc.lft.to/lastmile_qr_scan"}, "bike_id": "9766d2d05a48adb3e34c38b4b615a81a", "lat": 38.915654, "name": "9766d2d05a48adb3e34c38b4b615a81a", "lon": -77.0367435, "fusion_lon": 0.0}, {"is_reserved": 0, "type": "electric_scooter", "fusion_lat": 0.0, "is_disabled": 0, "rental_uris": {"ios": "https://dc.lft.to/lastmile_qr_scan", "android": "https://dc.lft.to/lastmile_qr_scan"}, "bike_id": "b21e3751f8c857f2e250b51074f4f9c3", "lat": 38.948623, "name": "b21e3751f8c857f2e250b51074f4f9c3", "lon": -77.07877533333334, "fusion_lon": 0.0}, {"is_reserved": 0, "type": "electric_scooter", "fusion_lat": 0.0, "is_disabled": 0, "rental_uris": {"ios": "https://dc.lft.to/lastmile_qr_scan", "android": "https://dc.lft.to/lastmile_qr_scan"}, "bike_id": "df8e8f55f888bf81e5674e15dc5bc826", "lat": 38.91655983333333, "name": "df8e8f55f888bf81e5674e15dc5bc826", "lon": -77.04177966666667, "fusion_lon": 0.0}, {"is_reserved": 0, "type": "electric_scooter", "fusion_lat": 0.0, "is_disabled": 0, "rental_uris": {"ios": "https://dc.lft.to/lastmile_qr_scan", "android": "https://dc.lft.to/lastmile_qr_scan"}, "bike_id": "60b3c1ccd2ebae51c84b366677f3cab8", "lat": 38.9265625, "name": "60b3c1ccd2ebae51c84b366677f3cab8", "lon": -77.0243485, "fusion_lon": 0.0}, {"is_reserved": 0, "type": "electric_scooter", "fusion_lat": 0.0, "is_disabled": 0, "rental_uris": {"ios": "https://dc.lft.to/lastmile_qr_scan", "android": "https://dc.lft.to/lastmile_qr_scan"}, "bike_id": "926859ca8825eb35e7789e7bd6945311", "lat": 38.90029833333333, "name": "926859ca8825eb35e7789e7bd6945311", "lon": -76.99851883333334, "fusion_lon": 0.0}, {"is_reserved": 0, "type": "electric_scooter", "fusion_lat": 0.0, "is_disabled": 0, "rental_uris": {"ios": "https://dc.lft.to/lastmile_qr_scan", "android": "https://dc.lft.to/lastmile_qr_scan"}, "bike_id": "957210f33c2c8be0a3a588f1d1f267a6", "lat": 38.902649833333335, "name": "957210f33c2c8be0a3a588f1d1f267a6", "lon": -77.02714066666667, "fusion_lon": 0.0}, {"is_reserved": 0, "type": "electric_bike", "fusion_lat": 0.0, "is_disabled": 0, "rental_uris": {"ios": "https://dc.lft.to/lastmile_qr_scan", "android": "https://dc.lft.to/lastmile_qr_scan"}, "bike_id": "a796aa6535cc9b3b36412cb7ad400061", "lat": 38.925364333333334, "name": "a796aa6535cc9b3b36412cb7ad400061", "lon": -77.07338483333334, "fusion_lon": 0.0}, {"is_reserved": 0, "type": "electric_scooter", "fusion_lat": 0.0, "is_disabled": 0, "rental_uris": {"ios": "https://dc.lft.to/lastmile_qr_scan", "android": "https://dc.lft.to/lastmile_qr_scan"}, "bike_id": "2295984e21f08ed38f9d983d2686fc4d", "lat": 38.92026583333333, "name": "2295984e21f08ed38f9d983d2686fc4d", "lon": -76.9956055, "fusion_lon": 0.0}, {"is_reserved": 0, "type": "electric_scooter", "fusion_lat": 0.0, "is_disabled": 0, "rental_uris": {"ios": "https://dc.lft.to/lastmile_qr_scan", "android": "https://dc.lft.to/lastmile_qr_scan"}, "bike_id": "ce8f59cdea42dba128276b5341986124", "lat": 38.91564116666667, "name": "ce8f59cdea42dba128276b5341986124", "lon": -77.03676183333333, "fusion_lon": 0.0}, {"is_reserved": 0, "type": "electric_scooter", "fusion_lat": 0.0, "is_disabled": 0, "rental_uris": {"ios": "https://dc.lft.to/lastmile_qr_scan", "android": "https://dc.lft.to/lastmile_qr_scan"}, "bike_id": "e2c84619a6490274ac90d82e588fcd33", "lat": 38.93661083333333, "name": "e2c84619a6490274ac90d82e588fcd33", "lon": -77.06621883333334, "fusion_lon": 0.0}, {"is_reserved": 0, "type": "electric_scooter", "fusion_lat": 0.0, "is_disabled": 0, "rental_uris": {"ios": "https://dc.lft.to/lastmile_qr_scan", "android": "https://dc.lft.to/lastmile_qr_scan"}, "bike_id": "bbae7e64eb1f850892d9baaad30a455e", "lat": 38.911182333333336, "name": "bbae7e64eb1f850892d9baaad30a455e", "lon": -77.00376383333334, "fusion_lon": 0.0}, {"is_reserved": 0, "type": "electric_scooter", "fusion_lat": 0.0, "is_disabled": 0, "rental_uris": {"ios": "https://dc.lft.to/lastmile_qr_scan", "android": "https://dc.lft.to/lastmile_qr_scan"}, "bike_id": "5e39ceae6958be9107b5f14f506b9022", "lat": 38.89362916666666, "name": "5e39ceae6958be9107b5f14f506b9022", "lon": -77.02067666666666, "fusion_lon": 0.0}, {"is_reserved": 0, "type": "electric_scooter", "fusion_lat": 0.0, "is_disabled": 0, "rental_uris": {"ios": "https://dc.lft.to/lastmile_qr_scan", "android": "https://dc.lft.to/lastmile_qr_scan"}, "bike_id": "2282562b2905b5e8c7ee53a0ada82fd7", "lat": 38.9291145, "name": "2282562b2905b5e8c7ee53a0ada82fd7", "lon": -77.02092966666666, "fusion_lon": 0.0}, {"is_reserved": 0, "type": "electric_scooter", "fusion_lat": 0.0, "is_disabled": 0, "rental_uris": {"ios": "https://dc.lft.to/lastmile_qr_scan", "android": "https://dc.lft.to/lastmile_qr_scan"}, "bike_id": "f8614af49808cd103d03104b17101d15", "lat": 38.8556385, "name": "f8614af49808cd103d03104b17101d15", "lon": -76.99083633333333, "fusion_lon": 0.0}, {"is_reserved": 0, "type": "electric_scooter", "fusion_lat": 0.0, "is_disabled": 0, "rental_uris": {"ios": "https://dc.lft.to/lastmile_qr_scan", "android": "https://dc.lft.to/lastmile_qr_scan"}, "bike_id": "fc80d5a93700e49e5b469f31e8efb6ca", "lat": 38.93116583333333, "name": "fc80d5a93700e49e5b469f31e8efb6ca", "lon": -77.02103233333334, "fusion_lon": 0.0}, {"is_reserved": 0, "type": "electric_scooter", "fusion_lat": 0.0, "is_disabled": 0, "rental_uris": {"ios": "https://dc.lft.to/lastmile_qr_scan", "android": "https://dc.lft.to/lastmile_qr_scan"}, "bike_id": "ac8a813050e8aced032e11010502b121", "lat": 38.9178515, "name": "ac8a813050e8aced032e11010502b121", "lon": -77.0230735, "fusion_lon": 0.0}, {"is_reserved": 0, "type": "electric_scooter", "fusion_lat": 0.0, "is_disabled": 0, "rental_uris": {"ios": "https://dc.lft.to/lastmile_qr_scan", "android": "https://dc.lft.to/lastmile_qr_scan"}, "bike_id": "6ec5d88e09c4c837c3baba257750ea0a", "lat": 38.90346133333333, "name": "6ec5d88e09c4c837c3baba257750ea0a", "lon": -77.02600683333333, "fusion_lon": 0.0}, {"is_reserved": 0, "type": "electric_scooter", "fusion_lat": 0.0, "is_disabled": 0, "rental_uris": {"ios": "https://dc.lft.to/lastmile_qr_scan", "android": "https://dc.lft.to/lastmile_qr_scan"}, "bike_id": "a77fe8c9fbbe199ba488d4fa7f46966d", "lat": 38.88234333333333, "name": "a77fe8c9fbbe199ba488d4fa7f46966d", "lon": -76.93335116666667, "fusion_lon": 0.0}, {"is_reserved": 0, "type": "electric_scooter", "fusion_lat": 0.0, "is_disabled": 0, "rental_uris": {"ios": "https://dc.lft.to/lastmile_qr_scan", "android": "https://dc.lft.to/lastmile_qr_scan"}, "bike_id": "48ee2b9c222a710f359c801f90b64f97", "lat": 38.93602416666667, "name": "48ee2b9c222a710f359c801f90b64f97", "lon": -77.02416133333334, "fusion_lon": 0.0}, {"is_reserved": 0, "type": "electric_scooter", "fusion_lat": 0.0, "is_disabled": 0, "rental_uris": {"ios": "https://dc.lft.to/lastmile_qr_scan", "android": "https://dc.lft.to/lastmile_qr_scan"}, "bike_id": "bee19eeb9d6d68e37211f800902a057c", "lat": 38.91486366666667, "name": "bee19eeb9d6d68e37211f800902a057c", "lon": -77.049464, "fusion_lon": 0.0}, {"is_reserved": 0, "type": "electric_scooter", "fusion_lat": 0.0, "is_disabled": 0, "rental_uris": {"ios": "https://dc.lft.to/lastmile_qr_scan", "android": "https://dc.lft.to/lastmile_qr_scan"}, "bike_id": "831b57a832cdeaf58a72c95bedfdcebb", "lat": 38.92026633333333, "name": "831b57a832cdeaf58a72c95bedfdcebb", "lon": -77.02508133333333, "fusion_lon": 0.0}, {"is_reserved": 0, "type": "electric_scooter", "fusion_lat": 0.0, "is_disabled": 0, "rental_uris": {"ios": "https://dc.lft.to/lastmile_qr_scan", "android": "https://dc.lft.to/lastmile_qr_scan"}, "bike_id": "6ec14a6dd43e68f2ccf20f5a5e736d7e", "lat": 38.9192265, "name": "6ec14a6dd43e68f2ccf20f5a5e736d7e", "lon": -77.0342535, "fusion_lon": 0.0}, {"is_reserved": 0, "type": "electric_scooter", "fusion_lat": 0.0, "is_disabled": 0, "rental_uris": {"ios": "https://dc.lft.to/lastmile_qr_scan", "android": "https://dc.lft.to/lastmile_qr_scan"}, "bike_id": "f728a074719b0f86b7d3e4f45dc94d1f", "lat": 38.918261666666666, "name": "f728a074719b0f86b7d3e4f45dc94d1f", "lon": -77.01217716666666, "fusion_lon": 0.0}, {"is_reserved": 0, "type": "electric_scooter", "fusion_lat": 0.0, "is_disabled": 0, "rental_uris": {"ios": "https://dc.lft.to/lastmile_qr_scan", "android": "https://dc.lft.to/lastmile_qr_scan"}, "bike_id": "16ce45b7325d7a63a2291a0c63961dbb", "lat": 38.939533833333336, "name": "16ce45b7325d7a63a2291a0c63961dbb", "lon": -77.07244566666667, "fusion_lon": 0.0}, {"is_reserved": 0, "type": "electric_scooter", "fusion_lat": 0.0, "is_disabled": 0, "rental_uris": {"ios": "https://dc.lft.to/lastmile_qr_scan", "android": "https://dc.lft.to/lastmile_qr_scan"}, "bike_id": "e02a21ac2b6f79c62e2ae637351584c3", "lat": 38.9020935, "name": "e02a21ac2b6f79c62e2ae637351584c3", "lon": -77.0482715, "fusion_lon": 0.0}, {"is_reserved": 0, "type": "electric_scooter", "fusion_lat": 0.0, "is_disabled": 0, "rental_uris": {"ios": "https://dc.lft.to/lastmile_qr_scan", "android": "https://dc.lft.to/lastmile_qr_scan"}, "bike_id": "9215e45b16d7d5d0e787afe3e31d6287", "lat": 38.899451166666665, "name": "9215e45b16d7d5d0e787afe3e31d6287", "lon": -77.02538183333333, "fusion_lon": 0.0}, {"is_reserved": 0, "type": "electric_scooter", "fusion_lat": 0.0, "is_disabled": 0, "rental_uris": {"ios": "https://dc.lft.to/lastmile_qr_scan", "android": "https://dc.lft.to/lastmile_qr_scan"}, "bike_id": "a30d838c4a0ec5d8f81ac057a3d745c7", "lat": 38.89534966666667, "name": "a30d838c4a0ec5d8f81ac057a3d745c7", "lon": -76.94899966666667, "fusion_lon": 0.0}, {"is_reserved": 0, "type": "electric_bike", "fusion_lat": 0.0, "is_disabled": 0, "rental_uris": {"ios": "https://dc.lft.to/lastmile_qr_scan", "android": "https://dc.lft.to/lastmile_qr_scan"}, "bike_id": "55eed5726b800c33a4ec7832ca8428c0", "lat": 38.80403333333334, "name": "55eed5726b800c33a4ec7832ca8428c0", "lon": -77.11338816666667, "fusion_lon": 0.0}, {"is_reserved": 0, "type": "electric_scooter", "fusion_lat": 0.0, "is_disabled": 0, "rental_uris": {"ios": "https://dc.lft.to/lastmile_qr_scan", "android": "https://dc.lft.to/lastmile_qr_scan"}, "bike_id": "0ec8320d15acb31ef148126969656e23", "lat": 38.90905816666667, "name": "0ec8320d15acb31ef148126969656e23", "lon": -76.99111816666667, "fusion_lon": 0.0}, {"is_reserved": 0, "type": "electric_scooter", "fusion_lat": 0.0, "is_disabled": 0, "rental_uris": {"ios": "https://dc.lft.to/lastmile_qr_scan", "android": "https://dc.lft.to/lastmile_qr_scan"}, "bike_id": "a3a9040b9798322343fb998d846fa9f7", "lat": 38.874755666666665, "name": "a3a9040b9798322343fb998d846fa9f7", "lon": -76.99165233333333, "fusion_lon": 0.0}, {"is_reserved": 0, "type": "electric_scooter", "fusion_lat": 0.0, "is_disabled": 0, "rental_uris": {"ios": "https://dc.lft.to/lastmile_qr_scan", "android": "https://dc.lft.to/lastmile_qr_scan"}, "bike_id": "7b85a8bef279d8e396d81467c58d16e2", "lat": 38.917841, "name": "7b85a8bef279d8e396d81467c58d16e2", "lon": -77.02312533333334, "fusion_lon": 0.0}, {"is_reserved": 0, "type": "electric_scooter", "fusion_lat": 0.0, "is_disabled": 0, "rental_uris": {"ios": "https://dc.lft.to/lastmile_qr_scan", "android": "https://dc.lft.to/lastmile_qr_scan"}, "bike_id": "efb67e1f1922ed049bed94ee63183dbd", "lat": 38.93265266666667, "name": "efb67e1f1922ed049bed94ee63183dbd", "lon": -77.0209615, "fusion_lon": 0.0}, {"is_reserved": 0, "type": "electric_bike", "fusion_lat": 0.0, "is_disabled": 0, "rental_uris": {"ios": "https://dc.lft.to/lastmile_qr_scan", "android": "https://dc.lft.to/lastmile_qr_scan"}, "bike_id": "33c419927acc81937f918d0a699b2595", "lat": 38.855874166666666, "name": "33c419927acc81937f918d0a699b2595", "lon": -76.97282933333334, "fusion_lon": 0.0}, {"is_reserved": 0, "type": "electric_scooter", "fusion_lat": 0.0, "is_disabled": 0, "rental_uris": {"ios": "https://dc.lft.to/lastmile_qr_scan", "android": "https://dc.lft.to/lastmile_qr_scan"}, "bike_id": "1e0d93ba9b110a89b64dabe712cd49c3", "lat": 38.921784333333335, "name": "1e0d93ba9b110a89b64dabe712cd49c3", "lon": -77.04018, "fusion_lon": 0.0}, {"is_reserved": 0, "type": "electric_scooter", "fusion_lat": 0.0, "is_disabled": 0, "rental_uris": {"ios": "https://dc.lft.to/lastmile_qr_scan", "android": "https://dc.lft.to/lastmile_qr_scan"}, "bike_id": "a343689b186799e612137878570fde2e", "lat": 38.90253366666666, "name": "a343689b186799e612137878570fde2e", "lon": -77.0200225, "fusion_lon": 0.0}, {"is_reserved": 0, "type": "electric_bike", "fusion_lat": 0.0, "is_disabled": 0, "rental_uris": {"ios": "https://dc.lft.to/lastmile_qr_scan", "android": "https://dc.lft.to/lastmile_qr_scan"}, "bike_id": "2c6cde94d0f0b6ee17a1a23c4db2ff7c", "lat": 38.982805166666665, "name": "2c6cde94d0f0b6ee17a1a23c4db2ff7c", "lon": -76.9763955, "fusion_lon": 0.0}, {"is_reserved": 0, "type": "electric_scooter", "fusion_lat": 0.0, "is_disabled": 0, "rental_uris": {"ios": "https://dc.lft.to/lastmile_qr_scan", "android": "https://dc.lft.to/lastmile_qr_scan"}, "bike_id": "246eec16dda361ae5031d8163196da15", "lat": 38.919393166666666, "name": "246eec16dda361ae5031d8163196da15", "lon": -77.03186866666667, "fusion_lon": 0.0}, {"is_reserved": 0, "type": "electric_scooter", "fusion_lat": 0.0, "is_disabled": 0, "rental_uris": {"ios": "https://dc.lft.to/lastmile_qr_scan", "android": "https://dc.lft.to/lastmile_qr_scan"}, "bike_id": "423bf953d74603fbc671f563ad31a267", "lat": 38.90470666666667, "name": "423bf953d74603fbc671f563ad31a267", "lon": -77.035635, "fusion_lon": 0.0}, {"is_reserved": 0, "type": "electric_scooter", "fusion_lat": 0.0, "is_disabled": 0, "rental_uris": {"ios": "https://dc.lft.to/lastmile_qr_scan", "android": "https://dc.lft.to/lastmile_qr_scan"}, "bike_id": "85b5d54965cd956d45975896a8575f28", "lat": 38.9361205, "name": "85b5d54965cd956d45975896a8575f28", "lon": -77.05586983333333, "fusion_lon": 0.0}, {"is_reserved": 0, "type": "electric_scooter", "fusion_lat": 0.0, "is_disabled": 0, "rental_uris": {"ios": "https://dc.lft.to/lastmile_qr_scan", "android": "https://dc.lft.to/lastmile_qr_scan"}, "bike_id": "c1ed72e4c5df5d6f04128005eeb04282", "lat": 38.9182265, "name": "c1ed72e4c5df5d6f04128005eeb04282", "lon": -77.0271735, "fusion_lon": 0.0}, {"is_reserved": 0, "type": "electric_scooter", "fusion_lat": 0.0, "is_disabled": 0, "rental_uris": {"ios": "https://dc.lft.to/lastmile_qr_scan", "android": "https://dc.lft.to/lastmile_qr_scan"}, "bike_id": "38b450d7e405833a625031c83362d213", "lat": 38.9214975, "name": "38b450d7e405833a625031c83362d213", "lon": -77.03507683333333, "fusion_lon": 0.0}, {"is_reserved": 0, "type": "electric_scooter", "fusion_lat": 0.0, "is_disabled": 0, "rental_uris": {"ios": "https://dc.lft.to/lastmile_qr_scan", "android": "https://dc.lft.to/lastmile_qr_scan"}, "bike_id": "235461ae1f968e68f98009eb50d25751", "lat": 38.89733016666667, "name": "235461ae1f968e68f98009eb50d25751", "lon": -77.02801966666667, "fusion_lon": 0.0}, {"is_reserved": 0, "type": "electric_bike", "fusion_lat": 0.0, "is_disabled": 0, "rental_uris": {"ios": "https://dc.lft.to/lastmile_qr_scan", "android": "https://dc.lft.to/lastmile_qr_scan"}, "bike_id": "c23bc24a725aafd944a969fbb2459f62", "lat": 38.87733516666667, "name": "c23bc24a725aafd944a969fbb2459f62", "lon": -77.11852116666667, "fusion_lon": 0.0}, {"is_reserved": 0, "type": "electric_scooter", "fusion_lat": 0.0, "is_disabled": 0, "rental_uris": {"ios": "https://dc.lft.to/lastmile_qr_scan", "android": "https://dc.lft.to/lastmile_qr_scan"}, "bike_id": "ed8efb4d415e4d9980cd01c07f2e8c9d", "lat": 38.901069, "name": "ed8efb4d415e4d9980cd01c07f2e8c9d", "lon": -77.03444683333333, "fusion_lon": 0.0}, {"is_reserved": 0, "type": "electric_scooter", "fusion_lat": 0.0, "is_disabled": 0, "rental_uris": {"ios": "https://dc.lft.to/lastmile_qr_scan", "android": "https://dc.lft.to/lastmile_qr_scan"}, "bike_id": "0244bf36d8f554929b109467ebe402c3", "lat": 38.9159575, "name": "0244bf36d8f554929b109467ebe402c3", "lon": -77.031942, "fusion_lon": 0.0}, {"is_reserved": 0, "type": "electric_scooter", "fusion_lat": 0.0, "is_disabled": 0, "rental_uris": {"ios": "https://dc.lft.to/lastmile_qr_scan", "android": "https://dc.lft.to/lastmile_qr_scan"}, "bike_id": "a471ef9ec4ea219263846b98d7b5c58d", "lat": 38.930916, "name": "a471ef9ec4ea219263846b98d7b5c58d", "lon": -77.03447, "fusion_lon": 0.0}, {"is_reserved": 0, "type": "electric_scooter", "fusion_lat": 0.0, "is_disabled": 0, "rental_uris": {"ios": "https://dc.lft.to/lastmile_qr_scan", "android": "https://dc.lft.to/lastmile_qr_scan"}, "bike_id": "74b2f4986959574d1b2db4ed045b3280", "lat": 38.91331666666667, "name": "74b2f4986959574d1b2db4ed045b3280", "lon": -77.03042466666666, "fusion_lon": 0.0}, {"is_reserved": 0, "type": "electric_scooter", "fusion_lat": 0.0, "is_disabled": 0, "rental_uris": {"ios": "https://dc.lft.to/lastmile_qr_scan", "android": "https://dc.lft.to/lastmile_qr_scan"}, "bike_id": "3cf43468fc4a2d20f9ff4c4a5ab6ef49", "lat": 38.92074683333333, "name": "3cf43468fc4a2d20f9ff4c4a5ab6ef49", "lon": -77.02395183333333, "fusion_lon": 0.0}, {"is_reserved": 0, "type": "electric_scooter", "fusion_lat": 0.0, "is_disabled": 0, "rental_uris": {"ios": "https://dc.lft.to/lastmile_qr_scan", "android": "https://dc.lft.to/lastmile_qr_scan"}, "bike_id": "40be0536f7902df31ca66d5047332351", "lat": 38.9207835, "name": "40be0536f7902df31ca66d5047332351", "lon": -77.02409883333333, "fusion_lon": 0.0}, {"is_reserved": 0, "type": "electric_scooter", "fusion_lat": 0.0, "is_disabled": 0, "rental_uris": {"ios": "https://dc.lft.to/lastmile_qr_scan", "android": "https://dc.lft.to/lastmile_qr_scan"}, "bike_id": "ef834082c27cb765a41bb2430844c471", "lat": 38.9287685, "name": "ef834082c27cb765a41bb2430844c471", "lon": -77.03234416666666, "fusion_lon": 0.0}, {"is_reserved": 0, "type": "electric_scooter", "fusion_lat": 0.0, "is_disabled": 0, "rental_uris": {"ios": "https://dc.lft.to/lastmile_qr_scan", "android": "https://dc.lft.to/lastmile_qr_scan"}, "bike_id": "adeb1c2730f954fa1e0b29fe300a9988", "lat": 38.9297055, "name": "adeb1c2730f954fa1e0b29fe300a9988", "lon": -77.02795233333333, "fusion_lon": 0.0}, {"is_reserved": 0, "type": "electric_scooter", "fusion_lat": 0.0, "is_disabled": 0, "rental_uris": {"ios": "https://dc.lft.to/lastmile_qr_scan", "android": "https://dc.lft.to/lastmile_qr_scan"}, "bike_id": "1ba7148a5e8d67ed65ed61ffd751f598", "lat": 38.92063533333334, "name": "1ba7148a5e8d67ed65ed61ffd751f598", "lon": -77.02513166666667, "fusion_lon": 0.0}, {"is_reserved": 0, "type": "electric_scooter", "fusion_lat": 0.0, "is_disabled": 0, "rental_uris": {"ios": "https://dc.lft.to/lastmile_qr_scan", "android": "https://dc.lft.to/lastmile_qr_scan"}, "bike_id": "046475e648d2509c1165cd2f0ac4eee9", "lat": 38.92381316666667, "name": "046475e648d2509c1165cd2f0ac4eee9", "lon": -77.0308035, "fusion_lon": 0.0}, {"is_reserved": 0, "type": "electric_scooter", "fusion_lat": 0.0, "is_disabled": 0, "rental_uris": {"ios": "https://dc.lft.to/lastmile_qr_scan", "android": "https://dc.lft.to/lastmile_qr_scan"}, "bike_id": "c34d419fac340e3f983bcd8dbb0dcd2c", "lat": 38.899394, "name": "c34d419fac340e3f983bcd8dbb0dcd2c", "lon": -77.01450783333334, "fusion_lon": 0.0}, {"is_reserved": 0, "type": "electric_scooter", "fusion_lat": 0.0, "is_disabled": 0, "rental_uris": {"ios": "https://dc.lft.to/lastmile_qr_scan", "android": "https://dc.lft.to/lastmile_qr_scan"}, "bike_id": "739bbcb8bcc9f80336e70b81e00a365b", "lat": 38.919843, "name": "739bbcb8bcc9f80336e70b81e00a365b", "lon": -77.0237225, "fusion_lon": 0.0}, {"is_reserved": 0, "type": "electric_scooter", "fusion_lat": 0.0, "is_disabled": 0, "rental_uris": {"ios": "https://dc.lft.to/lastmile_qr_scan", "android": "https://dc.lft.to/lastmile_qr_scan"}, "bike_id": "8597383a378007f02040795366125868", "lat": 38.926549333333334, "name": "8597383a378007f02040795366125868", "lon": -77.0243435, "fusion_lon": 0.0}, {"is_reserved": 0, "type": "electric_scooter", "fusion_lat": 0.0, "is_disabled": 0, "rental_uris": {"ios": "https://dc.lft.to/lastmile_qr_scan", "android": "https://dc.lft.to/lastmile_qr_scan"}, "bike_id": "b768073cd9834c01e4f463598b25234e", "lat": 38.916230166666665, "name": "b768073cd9834c01e4f463598b25234e", "lon": -77.02959733333333, "fusion_lon": 0.0}, {"is_reserved": 0, "type": "electric_scooter", "fusion_lat": 0.0, "is_disabled": 0, "rental_uris": {"ios": "https://dc.lft.to/lastmile_qr_scan", "android": "https://dc.lft.to/lastmile_qr_scan"}, "bike_id": "d61e7f62cb856a957c7407ecf0809a5b", "lat": 38.907557833333335, "name": "d61e7f62cb856a957c7407ecf0809a5b", "lon": -76.99921433333333, "fusion_lon": 0.0}, {"is_reserved": 0, "type": "electric_scooter", "fusion_lat": 0.0, "is_disabled": 0, "rental_uris": {"ios": "https://dc.lft.to/lastmile_qr_scan", "android": "https://dc.lft.to/lastmile_qr_scan"}, "bike_id": "3709b38873fcae0d1b092d646164dd59", "lat": 38.9311545, "name": "3709b38873fcae0d1b092d646164dd59", "lon": -77.0209835, "fusion_lon": 0.0}, {"is_reserved": 0, "type": "electric_scooter", "fusion_lat": 0.0, "is_disabled": 0, "rental_uris": {"ios": "https://dc.lft.to/lastmile_qr_scan", "android": "https://dc.lft.to/lastmile_qr_scan"}, "bike_id": "cc307b52c450f2e1a5b5e90be0ae7f16", "lat": 38.899612833333336, "name": "cc307b52c450f2e1a5b5e90be0ae7f16", "lon": -77.04827683333333, "fusion_lon": 0.0}, {"is_reserved": 0, "type": "electric_scooter", "fusion_lat": 0.0, "is_disabled": 0, "rental_uris": {"ios": "https://dc.lft.to/lastmile_qr_scan", "android": "https://dc.lft.to/lastmile_qr_scan"}, "bike_id": "d199133c6155387efe4e5334b4266677", "lat": 38.893265, "name": "d199133c6155387efe4e5334b4266677", "lon": -77.01960966666667, "fusion_lon": 0.0}, {"is_reserved": 0, "type": "electric_scooter", "fusion_lat": 0.0, "is_disabled": 0, "rental_uris": {"ios": "https://dc.lft.to/lastmile_qr_scan", "android": "https://dc.lft.to/lastmile_qr_scan"}, "bike_id": "994fff0f0b6876033a2ec9ca980b74d8", "lat": 38.898130333333334, "name": "994fff0f0b6876033a2ec9ca980b74d8", "lon": -77.0466615, "fusion_lon": 0.0}, {"is_reserved": 0, "type": "electric_scooter", "fusion_lat": 0.0, "is_disabled": 0, "rental_uris": {"ios": "https://dc.lft.to/lastmile_qr_scan", "android": "https://dc.lft.to/lastmile_qr_scan"}, "bike_id": "275a924859992368eb0ecb124e44ba61", "lat": 38.90960966666667, "name": "275a924859992368eb0ecb124e44ba61", "lon": -77.023827, "fusion_lon": 0.0}, {"is_reserved": 0, "type": "electric_scooter", "fusion_lat": 0.0, "is_disabled": 0, "rental_uris": {"ios": "https://dc.lft.to/lastmile_qr_scan", "android": "https://dc.lft.to/lastmile_qr_scan"}, "bike_id": "8db3f45657cb68a20f56046e09162a36", "lat": 38.935229, "name": "8db3f45657cb68a20f56046e09162a36", "lon": -77.054468, "fusion_lon": 0.0}, {"is_reserved": 0, "type": "electric_scooter", "fusion_lat": 0.0, "is_disabled": 0, "rental_uris": {"ios": "https://dc.lft.to/lastmile_qr_scan", "android": "https://dc.lft.to/lastmile_qr_scan"}, "bike_id": "303819ad8b2772b873d7e92f39c6775d", "lat": 38.870702333333334, "name": "303819ad8b2772b873d7e92f39c6775d", "lon": -76.98131216666667, "fusion_lon": 0.0}, {"is_reserved": 0, "type": "electric_scooter", "fusion_lat": 0.0, "is_disabled": 0, "rental_uris": {"ios": "https://dc.lft.to/lastmile_qr_scan", "android": "https://dc.lft.to/lastmile_qr_scan"}, "bike_id": "5d01bb009071c227b711fd4ce9f53217", "lat": 38.92237516666667, "name": "5d01bb009071c227b711fd4ce9f53217", "lon": -77.02821033333333, "fusion_lon": 0.0}, {"is_reserved": 0, "type": "electric_scooter", "fusion_lat": 0.0, "is_disabled": 0, "rental_uris": {"ios": "https://dc.lft.to/lastmile_qr_scan", "android": "https://dc.lft.to/lastmile_qr_scan"}, "bike_id": "2a6d033ed751f18f0c995610cd5f3af0", "lat": 38.91884, "name": "2a6d033ed751f18f0c995610cd5f3af0", "lon": -77.03737383333333, "fusion_lon": 0.0}, {"is_reserved": 0, "type": "electric_scooter", "fusion_lat": 0.0, "is_disabled": 0, "rental_uris": {"ios": "https://dc.lft.to/lastmile_qr_scan", "android": "https://dc.lft.to/lastmile_qr_scan"}, "bike_id": "a694d29cdc1935d7faae6979f8150c4b", "lat": 38.941153, "name": "a694d29cdc1935d7faae6979f8150c4b", "lon": -77.0254715, "fusion_lon": 0.0}, {"is_reserved": 0, "type": "electric_scooter", "fusion_lat": 0.0, "is_disabled": 0, "rental_uris": {"ios": "https://dc.lft.to/lastmile_qr_scan", "android": "https://dc.lft.to/lastmile_qr_scan"}, "bike_id": "ff20f04aa32347018b42392a9d0f171f", "lat": 38.92415166666667, "name": "ff20f04aa32347018b42392a9d0f171f", "lon": -77.02013933333333, "fusion_lon": 0.0}, {"is_reserved": 0, "type": "electric_scooter", "fusion_lat": 0.0, "is_disabled": 0, "rental_uris": {"ios": "https://dc.lft.to/lastmile_qr_scan", "android": "https://dc.lft.to/lastmile_qr_scan"}, "bike_id": "535ec7132ddc552496c9cf93aa01fba9", "lat": 38.9247085, "name": "535ec7132ddc552496c9cf93aa01fba9", "lon": -77.02246633333333, "fusion_lon": 0.0}, {"is_reserved": 0, "type": "electric_scooter", "fusion_lat": 0.0, "is_disabled": 0, "rental_uris": {"ios": "https://dc.lft.to/lastmile_qr_scan", "android": "https://dc.lft.to/lastmile_qr_scan"}, "bike_id": "b744aaff2bd5c3cb6b5e2b5111254957", "lat": 38.90721883333333, "name": "b744aaff2bd5c3cb6b5e2b5111254957", "lon": -77.02510033333333, "fusion_lon": 0.0}, {"is_reserved": 0, "type": "electric_scooter", "fusion_lat": 0.0, "is_disabled": 0, "rental_uris": {"ios": "https://dc.lft.to/lastmile_qr_scan", "android": "https://dc.lft.to/lastmile_qr_scan"}, "bike_id": "932bb783dcfba637c131e5a7ff138eef", "lat": 38.8925925, "name": "932bb783dcfba637c131e5a7ff138eef", "lon": -77.02584783333333, "fusion_lon": 0.0}, {"is_reserved": 0, "type": "electric_scooter", "fusion_lat": 0.0, "is_disabled": 0, "rental_uris": {"ios": "https://dc.lft.to/lastmile_qr_scan", "android": "https://dc.lft.to/lastmile_qr_scan"}, "bike_id": "a170f3f8100c81af891a3890a0d6bd19", "lat": 38.91352216666667, "name": "a170f3f8100c81af891a3890a0d6bd19", "lon": -76.97144016666667, "fusion_lon": 0.0}, {"is_reserved": 0, "type": "electric_scooter", "fusion_lat": 0.0, "is_disabled": 0, "rental_uris": {"ios": "https://dc.lft.to/lastmile_qr_scan", "android": "https://dc.lft.to/lastmile_qr_scan"}, "bike_id": "a34b291eda01093fc2259200e98f0220", "lat": 38.909718, "name": "a34b291eda01093fc2259200e98f0220", "lon": -77.0487455, "fusion_lon": 0.0}, {"is_reserved": 0, "type": "electric_scooter", "fusion_lat": 0.0, "is_disabled": 0, "rental_uris": {"ios": "https://dc.lft.to/lastmile_qr_scan", "android": "https://dc.lft.to/lastmile_qr_scan"}, "bike_id": "83c2e3ff89b3d43f380f00bffb3834cd", "lat": 38.90003333333333, "name": "83c2e3ff89b3d43f380f00bffb3834cd", "lon": -77.00656716666667, "fusion_lon": 0.0}, {"is_reserved": 0, "type": "electric_scooter", "fusion_lat": 0.0, "is_disabled": 0, "rental_uris": {"ios": "https://dc.lft.to/lastmile_qr_scan", "android": "https://dc.lft.to/lastmile_qr_scan"}, "bike_id": "4c53bac7fcb14c6b730841381bd95eb4", "lat": 38.934057833333334, "name": "4c53bac7fcb14c6b730841381bd95eb4", "lon": -77.04554366666666, "fusion_lon": 0.0}, {"is_reserved": 0, "type": "electric_scooter", "fusion_lat": 0.0, "is_disabled": 0, "rental_uris": {"ios": "https://dc.lft.to/lastmile_qr_scan", "android": "https://dc.lft.to/lastmile_qr_scan"}, "bike_id": "c506349ed47c9b28622ecb7d83fc3d17", "lat": 38.9027855, "name": "c506349ed47c9b28622ecb7d83fc3d17", "lon": -77.0398535, "fusion_lon": 0.0}, {"is_reserved": 0, "type": "electric_scooter", "fusion_lat": 0.0, "is_disabled": 0, "rental_uris": {"ios": "https://dc.lft.to/lastmile_qr_scan", "android": "https://dc.lft.to/lastmile_qr_scan"}, "bike_id": "f544a38502a4dfacd6491992714f87db", "lat": 38.92385816666667, "name": "f544a38502a4dfacd6491992714f87db", "lon": -77.0363985, "fusion_lon": 0.0}, {"is_reserved": 0, "type": "electric_bike", "fusion_lat": 0.0, "is_disabled": 0, "rental_uris": {"ios": "https://dc.lft.to/lastmile_qr_scan", "android": "https://dc.lft.to/lastmile_qr_scan"}, "bike_id": "5acbe983c05e3d0d2d4f4b6b55ee7933", "lat": 38.910310333333335, "name": "5acbe983c05e3d0d2d4f4b6b55ee7933", "lon": -76.92338816666667, "fusion_lon": 0.0}, {"is_reserved": 0, "type": "electric_scooter", "fusion_lat": 0.0, "is_disabled": 0, "rental_uris": {"ios": "https://dc.lft.to/lastmile_qr_scan", "android": "https://dc.lft.to/lastmile_qr_scan"}, "bike_id": "cd4977a385c77b3de3835f7fefbecf2e", "lat": 38.8842825, "name": "cd4977a385c77b3de3835f7fefbecf2e", "lon": -77.02895416666667, "fusion_lon": 0.0}, {"is_reserved": 0, "type": "electric_scooter", "fusion_lat": 0.0, "is_disabled": 0, "rental_uris": {"ios": "https://dc.lft.to/lastmile_qr_scan", "android": "https://dc.lft.to/lastmile_qr_scan"}, "bike_id": "94e8861507e511a374d7f6b7167624ef", "lat": 38.930092, "name": "94e8861507e511a374d7f6b7167624ef", "lon": -77.03782116666666, "fusion_lon": 0.0}, {"is_reserved": 0, "type": "electric_scooter", "fusion_lat": 0.0, "is_disabled": 0, "rental_uris": {"ios": "https://dc.lft.to/lastmile_qr_scan", "android": "https://dc.lft.to/lastmile_qr_scan"}, "bike_id": "47470f6796f7fde54b183ec93a125d00", "lat": 38.921568666666666, "name": "47470f6796f7fde54b183ec93a125d00", "lon": -77.04358466666666, "fusion_lon": 0.0}, {"is_reserved": 0, "type": "electric_scooter", "fusion_lat": 0.0, "is_disabled": 0, "rental_uris": {"ios": "https://dc.lft.to/lastmile_qr_scan", "android": "https://dc.lft.to/lastmile_qr_scan"}, "bike_id": "c8ab4e636c46fa85846f4e64e6697b2a", "lat": 38.967681, "name": "c8ab4e636c46fa85846f4e64e6697b2a", "lon": -77.0342405, "fusion_lon": 0.0}, {"is_reserved": 0, "type": "electric_scooter", "fusion_lat": 0.0, "is_disabled": 0, "rental_uris": {"ios": "https://dc.lft.to/lastmile_qr_scan", "android": "https://dc.lft.to/lastmile_qr_scan"}, "bike_id": "23ceae93ed381f6844c364496534e087", "lat": 38.904125, "name": "23ceae93ed381f6844c364496534e087", "lon": -76.97331033333333, "fusion_lon": 0.0}, {"is_reserved": 0, "type": "electric_bike", "fusion_lat": 0.0, "is_disabled": 0, "rental_uris": {"ios": "https://dc.lft.to/lastmile_qr_scan", "android": "https://dc.lft.to/lastmile_qr_scan"}, "bike_id": "0cf9cd9b82477620aca2db58365ad39d", "lat": 38.8154925, "name": "0cf9cd9b82477620aca2db58365ad39d", "lon": -77.0464575, "fusion_lon": 0.0}, {"is_reserved": 0, "type": "electric_scooter", "fusion_lat": 0.0, "is_disabled": 0, "rental_uris": {"ios": "https://dc.lft.to/lastmile_qr_scan", "android": "https://dc.lft.to/lastmile_qr_scan"}, "bike_id": "514eb1ec61c61ba72e9437f9f76bd8e3", "lat": 38.92751116666667, "name": "514eb1ec61c61ba72e9437f9f76bd8e3", "lon": -77.02368083333333, "fusion_lon": 0.0}, {"is_reserved": 0, "type": "electric_scooter", "fusion_lat": 0.0, "is_disabled": 0, "rental_uris": {"ios": "https://dc.lft.to/lastmile_qr_scan", "android": "https://dc.lft.to/lastmile_qr_scan"}, "bike_id": "59fbb49c1f4effc0bd752500b91e4961", "lat": 38.909534, "name": "59fbb49c1f4effc0bd752500b91e4961", "lon": -77.01524716666667, "fusion_lon": 0.0}, {"is_reserved": 0, "type": "electric_scooter", "fusion_lat": 0.0, "is_disabled": 0, "rental_uris": {"ios": "https://dc.lft.to/lastmile_qr_scan", "android": "https://dc.lft.to/lastmile_qr_scan"}, "bike_id": "881df5926de2262498529f9c0c48daee", "lat": 38.93023383333333, "name": "881df5926de2262498529f9c0c48daee", "lon": -77.03785883333333, "fusion_lon": 0.0}, {"is_reserved": 0, "type": "electric_scooter", "fusion_lat": 0.0, "is_disabled": 0, "rental_uris": {"ios": "https://dc.lft.to/lastmile_qr_scan", "android": "https://dc.lft.to/lastmile_qr_scan"}, "bike_id": "ef37169d4c984f982cfbc5802b83d996", "lat": 38.91711633333333, "name": "ef37169d4c984f982cfbc5802b83d996", "lon": -77.04600116666667, "fusion_lon": 0.0}, {"is_reserved": 0, "type": "electric_scooter", "fusion_lat": 0.0, "is_disabled": 0, "rental_uris": {"ios": "https://dc.lft.to/lastmile_qr_scan", "android": "https://dc.lft.to/lastmile_qr_scan"}, "bike_id": "54a3a5f3e6f8ca38063a22b1b9f31eb0", "lat": 38.906842, "name": "54a3a5f3e6f8ca38063a22b1b9f31eb0", "lon": -77.02724716666667, "fusion_lon": 0.0}, {"is_reserved": 0, "type": "electric_bike", "fusion_lat": 0.0, "is_disabled": 0, "rental_uris": {"ios": "https://dc.lft.to/lastmile_qr_scan", "android": "https://dc.lft.to/lastmile_qr_scan"}, "bike_id": "3a5dc20af382298c1d52aad9f4cea2a7", "lat": 38.876699, "name": "3a5dc20af382298c1d52aad9f4cea2a7", "lon": -77.014543, "fusion_lon": 0.0}, {"is_reserved": 0, "type": "electric_scooter", "fusion_lat": 0.0, "is_disabled": 0, "rental_uris": {"ios": "https://dc.lft.to/lastmile_qr_scan", "android": "https://dc.lft.to/lastmile_qr_scan"}, "bike_id": "077045f43dbbb751c45a66cd0bcbcdf8", "lat": 38.900693, "name": "077045f43dbbb751c45a66cd0bcbcdf8", "lon": -77.05017466666666, "fusion_lon": 0.0}, {"is_reserved": 0, "type": "electric_scooter", "fusion_lat": 0.0, "is_disabled": 0, "rental_uris": {"ios": "https://dc.lft.to/lastmile_qr_scan", "android": "https://dc.lft.to/lastmile_qr_scan"}, "bike_id": "036abae8b340bbeef36916e09a226d37", "lat": 38.917154833333335, "name": "036abae8b340bbeef36916e09a226d37", "lon": -77.03860466666667, "fusion_lon": 0.0}, {"is_reserved": 0, "type": "electric_scooter", "fusion_lat": 0.0, "is_disabled": 0, "rental_uris": {"ios": "https://dc.lft.to/lastmile_qr_scan", "android": "https://dc.lft.to/lastmile_qr_scan"}, "bike_id": "79ca7ffee17ba9264a0a28c95d6f1b26", "lat": 38.913522666666665, "name": "79ca7ffee17ba9264a0a28c95d6f1b26", "lon": -77.04352433333334, "fusion_lon": 0.0}, {"is_reserved": 0, "type": "electric_scooter", "fusion_lat": 0.0, "is_disabled": 0, "rental_uris": {"ios": "https://dc.lft.to/lastmile_qr_scan", "android": "https://dc.lft.to/lastmile_qr_scan"}, "bike_id": "edad0f6bce2c6c13766d15ce5e8d57b8", "lat": 38.91559766666666, "name": "edad0f6bce2c6c13766d15ce5e8d57b8", "lon": -77.0409405, "fusion_lon": 0.0}, {"is_reserved": 0, "type": "electric_scooter", "fusion_lat": 0.0, "is_disabled": 0, "rental_uris": {"ios": "https://dc.lft.to/lastmile_qr_scan", "android": "https://dc.lft.to/lastmile_qr_scan"}, "bike_id": "50427ce541e13a5d15916f8a1089148f", "lat": 38.926758666666665, "name": "50427ce541e13a5d15916f8a1089148f", "lon": -77.02691866666666, "fusion_lon": 0.0}, {"is_reserved": 0, "type": "electric_scooter", "fusion_lat": 0.0, "is_disabled": 0, "rental_uris": {"ios": "https://dc.lft.to/lastmile_qr_scan", "android": "https://dc.lft.to/lastmile_qr_scan"}, "bike_id": "0313454ec6da7b0c7797144c4f322a02", "lat": 38.920367166666665, "name": "0313454ec6da7b0c7797144c4f322a02", "lon": -77.01966283333333, "fusion_lon": 0.0}, {"is_reserved": 0, "type": "electric_scooter", "fusion_lat": 0.0, "is_disabled": 0, "rental_uris": {"ios": "https://dc.lft.to/lastmile_qr_scan", "android": "https://dc.lft.to/lastmile_qr_scan"}, "bike_id": "7ffbcb4cfb75ec45311d0f4169c88a61", "lat": 38.87944, "name": "7ffbcb4cfb75ec45311d0f4169c88a61", "lon": -77.01004633333334, "fusion_lon": 0.0}, {"is_reserved": 0, "type": "electric_scooter", "fusion_lat": 0.0, "is_disabled": 0, "rental_uris": {"ios": "https://dc.lft.to/lastmile_qr_scan", "android": "https://dc.lft.to/lastmile_qr_scan"}, "bike_id": "119f035f19fb097ebc0ab8f5173744d8", "lat": 38.907405833333335, "name": "119f035f19fb097ebc0ab8f5173744d8", "lon": -77.00373066666667, "fusion_lon": 0.0}, {"is_reserved": 0, "type": "electric_scooter", "fusion_lat": 0.0, "is_disabled": 0, "rental_uris": {"ios": "https://dc.lft.to/lastmile_qr_scan", "android": "https://dc.lft.to/lastmile_qr_scan"}, "bike_id": "0bcf9c86cebdf33e045c4eb53e605092", "lat": 38.874231333333334, "name": "0bcf9c86cebdf33e045c4eb53e605092", "lon": -76.971819, "fusion_lon": 0.0}, {"is_reserved": 0, "type": "electric_scooter", "fusion_lat": 0.0, "is_disabled": 0, "rental_uris": {"ios": "https://dc.lft.to/lastmile_qr_scan", "android": "https://dc.lft.to/lastmile_qr_scan"}, "bike_id": "f50a9719ce58352123f596e798f3cc07", "lat": 38.92055533333333, "name": "f50a9719ce58352123f596e798f3cc07", "lon": -77.0404615, "fusion_lon": 0.0}, {"is_reserved": 0, "type": "electric_scooter", "fusion_lat": 0.0, "is_disabled": 0, "rental_uris": {"ios": "https://dc.lft.to/lastmile_qr_scan", "android": "https://dc.lft.to/lastmile_qr_scan"}, "bike_id": "db8cc4aa0ad6c541f86ed89e7484279f", "lat": 38.936624, "name": "db8cc4aa0ad6c541f86ed89e7484279f", "lon": -77.06610266666667, "fusion_lon": 0.0}, {"is_reserved": 0, "type": "electric_scooter", "fusion_lat": 0.0, "is_disabled": 0, "rental_uris": {"ios": "https://dc.lft.to/lastmile_qr_scan", "android": "https://dc.lft.to/lastmile_qr_scan"}, "bike_id": "7d2b2f6c63eb7db1f7ae31abb51ed23d", "lat": 38.88711333333333, "name": "7d2b2f6c63eb7db1f7ae31abb51ed23d", "lon": -76.98381566666667, "fusion_lon": 0.0}, {"is_reserved": 0, "type": "electric_scooter", "fusion_lat": 0.0, "is_disabled": 0, "rental_uris": {"ios": "https://dc.lft.to/lastmile_qr_scan", "android": "https://dc.lft.to/lastmile_qr_scan"}, "bike_id": "8c75d90588c94a1a6ca65b17c22a8912", "lat": 38.9068745, "name": "8c75d90588c94a1a6ca65b17c22a8912", "lon": -77.01013783333333, "fusion_lon": 0.0}, {"is_reserved": 0, "type": "electric_scooter", "fusion_lat": 0.0, "is_disabled": 0, "rental_uris": {"ios": "https://dc.lft.to/lastmile_qr_scan", "android": "https://dc.lft.to/lastmile_qr_scan"}, "bike_id": "08faf45a6d8387ccad8d8cd7b74367bc", "lat": 38.9300915, "name": "08faf45a6d8387ccad8d8cd7b74367bc", "lon": -77.0378885, "fusion_lon": 0.0}, {"is_reserved": 0, "type": "electric_scooter", "fusion_lat": 0.0, "is_disabled": 0, "rental_uris": {"ios": "https://dc.lft.to/lastmile_qr_scan", "android": "https://dc.lft.to/lastmile_qr_scan"}, "bike_id": "14abffcf8efd47dc4e3e1f513190ce8a", "lat": 38.92551366666667, "name": "14abffcf8efd47dc4e3e1f513190ce8a", "lon": -77.00324633333334, "fusion_lon": 0.0}, {"is_reserved": 0, "type": "electric_scooter", "fusion_lat": 0.0, "is_disabled": 0, "rental_uris": {"ios": "https://dc.lft.to/lastmile_qr_scan", "android": "https://dc.lft.to/lastmile_qr_scan"}, "bike_id": "61b28b2a8bd346d15d56bda4a3fbb054", "lat": 38.9078295, "name": "61b28b2a8bd346d15d56bda4a3fbb054", "lon": -77.07258483333334, "fusion_lon": 0.0}, {"is_reserved": 0, "type": "electric_scooter", "fusion_lat": 0.0, "is_disabled": 0, "rental_uris": {"ios": "https://dc.lft.to/lastmile_qr_scan", "android": "https://dc.lft.to/lastmile_qr_scan"}, "bike_id": "85cab60f8eba96215adeeedb75c59a3a", "lat": 38.902751, "name": "85cab60f8eba96215adeeedb75c59a3a", "lon": -77.020119, "fusion_lon": 0.0}, {"is_reserved": 0, "type": "electric_scooter", "fusion_lat": 0.0, "is_disabled": 0, "rental_uris": {"ios": "https://dc.lft.to/lastmile_qr_scan", "android": "https://dc.lft.to/lastmile_qr_scan"}, "bike_id": "764c1f65f267f1c2eb9060f294a2bb7d", "lat": 38.90042783333333, "name": "764c1f65f267f1c2eb9060f294a2bb7d", "lon": -77.03318233333333, "fusion_lon": 0.0}, {"is_reserved": 0, "type": "electric_scooter", "fusion_lat": 0.0, "is_disabled": 0, "rental_uris": {"ios": "https://dc.lft.to/lastmile_qr_scan", "android": "https://dc.lft.to/lastmile_qr_scan"}, "bike_id": "3b5539a0cdaa1e880ed7f6e0b995d51c", "lat": 38.906304166666665, "name": "3b5539a0cdaa1e880ed7f6e0b995d51c", "lon": -77.02982483333334, "fusion_lon": 0.0}, {"is_reserved": 0, "type": "electric_scooter", "fusion_lat": 0.0, "is_disabled": 0, "rental_uris": {"ios": "https://dc.lft.to/lastmile_qr_scan", "android": "https://dc.lft.to/lastmile_qr_scan"}, "bike_id": "88f214c1fef9c75b40a043f5baeadd46", "lat": 38.904559666666664, "name": "88f214c1fef9c75b40a043f5baeadd46", "lon": -77.01717716666667, "fusion_lon": 0.0}, {"is_reserved": 0, "type": "electric_scooter", "fusion_lat": 0.0, "is_disabled": 0, "rental_uris": {"ios": "https://dc.lft.to/lastmile_qr_scan", "android": "https://dc.lft.to/lastmile_qr_scan"}, "bike_id": "bf087c78a20197ec288440664f9edf69", "lat": 38.89972483333333, "name": "bf087c78a20197ec288440664f9edf69", "lon": -77.025825, "fusion_lon": 0.0}, {"is_reserved": 0, "type": "electric_scooter", "fusion_lat": 0.0, "is_disabled": 0, "rental_uris": {"ios": "https://dc.lft.to/lastmile_qr_scan", "android": "https://dc.lft.to/lastmile_qr_scan"}, "bike_id": "c8d1407490aad6c32ec7b02509fec6e8", "lat": 38.93697383333333, "name": "c8d1407490aad6c32ec7b02509fec6e8", "lon": -77.0560145, "fusion_lon": 0.0}, {"is_reserved": 0, "type": "electric_scooter", "fusion_lat": 0.0, "is_disabled": 0, "rental_uris": {"ios": "https://dc.lft.to/lastmile_qr_scan", "android": "https://dc.lft.to/lastmile_qr_scan"}, "bike_id": "8834056e12cf532171da66b2027dcc77", "lat": 38.893302166666665, "name": "8834056e12cf532171da66b2027dcc77", "lon": -76.93926883333333, "fusion_lon": 0.0}, {"is_reserved": 0, "type": "electric_scooter", "fusion_lat": 0.0, "is_disabled": 0, "rental_uris": {"ios": "https://dc.lft.to/lastmile_qr_scan", "android": "https://dc.lft.to/lastmile_qr_scan"}, "bike_id": "f38f45f724bd03349eb7be5089db9e9f", "lat": 38.91256683333334, "name": "f38f45f724bd03349eb7be5089db9e9f", "lon": -77.01024316666667, "fusion_lon": 0.0}, {"is_reserved": 0, "type": "electric_scooter", "fusion_lat": 0.0, "is_disabled": 0, "rental_uris": {"ios": "https://dc.lft.to/lastmile_qr_scan", "android": "https://dc.lft.to/lastmile_qr_scan"}, "bike_id": "c1d198e9f74f710daac49583e6545cf7", "lat": 38.9085665, "name": "c1d198e9f74f710daac49583e6545cf7", "lon": -77.04166633333334, "fusion_lon": 0.0}, {"is_reserved": 0, "type": "electric_scooter", "fusion_lat": 0.0, "is_disabled": 0, "rental_uris": {"ios": "https://dc.lft.to/lastmile_qr_scan", "android": "https://dc.lft.to/lastmile_qr_scan"}, "bike_id": "3b6cebb5326a962a9c8e188e6af2616b", "lat": 38.88582533333334, "name": "3b6cebb5326a962a9c8e188e6af2616b", "lon": -77.01226516666667, "fusion_lon": 0.0}, {"is_reserved": 0, "type": "electric_scooter", "fusion_lat": 0.0, "is_disabled": 0, "rental_uris": {"ios": "https://dc.lft.to/lastmile_qr_scan", "android": "https://dc.lft.to/lastmile_qr_scan"}, "bike_id": "78839707f305062dc094df13a9b9ae94", "lat": 38.95260183333333, "name": "78839707f305062dc094df13a9b9ae94", "lon": -77.02075933333333, "fusion_lon": 0.0}, {"is_reserved": 0, "type": "electric_scooter", "fusion_lat": 0.0, "is_disabled": 0, "rental_uris": {"ios": "https://dc.lft.to/lastmile_qr_scan", "android": "https://dc.lft.to/lastmile_qr_scan"}, "bike_id": "8286677726b7c1b16eb6419149cc5cd7", "lat": 38.92359283333333, "name": "8286677726b7c1b16eb6419149cc5cd7", "lon": -77.05241366666667, "fusion_lon": 0.0}, {"is_reserved": 0, "type": "electric_scooter", "fusion_lat": 0.0, "is_disabled": 0, "rental_uris": {"ios": "https://dc.lft.to/lastmile_qr_scan", "android": "https://dc.lft.to/lastmile_qr_scan"}, "bike_id": "78978b777bce6ecaf8b9cf689a43f566", "lat": 38.91566016666667, "name": "78978b777bce6ecaf8b9cf689a43f566", "lon": -77.04008866666666, "fusion_lon": 0.0}, {"is_reserved": 0, "type": "electric_scooter", "fusion_lat": 0.0, "is_disabled": 0, "rental_uris": {"ios": "https://dc.lft.to/lastmile_qr_scan", "android": "https://dc.lft.to/lastmile_qr_scan"}, "bike_id": "025a838e91f3c5bbd59f2aaeea6e15aa", "lat": 38.89905483333333, "name": "025a838e91f3c5bbd59f2aaeea6e15aa", "lon": -77.02305233333334, "fusion_lon": 0.0}, {"is_reserved": 0, "type": "electric_bike", "fusion_lat": 0.0, "is_disabled": 0, "rental_uris": {"ios": "https://dc.lft.to/lastmile_qr_scan", "android": "https://dc.lft.to/lastmile_qr_scan"}, "bike_id": "a7b2a5683b463f2c1206052ad91e86e6", "lat": 38.956848, "name": "a7b2a5683b463f2c1206052ad91e86e6", "lon": -77.022274, "fusion_lon": 0.0}, {"is_reserved": 0, "type": "electric_scooter", "fusion_lat": 0.0, "is_disabled": 0, "rental_uris": {"ios": "https://dc.lft.to/lastmile_qr_scan", "android": "https://dc.lft.to/lastmile_qr_scan"}, "bike_id": "134a6613d09facb6c9a527be2ab359ac", "lat": 38.91280483333333, "name": "134a6613d09facb6c9a527be2ab359ac", "lon": -77.03654116666667, "fusion_lon": 0.0}, {"is_reserved": 0, "type": "electric_scooter", "fusion_lat": 0.0, "is_disabled": 0, "rental_uris": {"ios": "https://dc.lft.to/lastmile_qr_scan", "android": "https://dc.lft.to/lastmile_qr_scan"}, "bike_id": "1f6717fdfadf7997fdafe3d38f3fcd81", "lat": 38.943233, "name": "1f6717fdfadf7997fdafe3d38f3fcd81", "lon": -77.01316966666667, "fusion_lon": 0.0}, {"is_reserved": 0, "type": "electric_scooter", "fusion_lat": 0.0, "is_disabled": 0, "rental_uris": {"ios": "https://dc.lft.to/lastmile_qr_scan", "android": "https://dc.lft.to/lastmile_qr_scan"}, "bike_id": "bdd6e86038531a6e68650af9c07cbb53", "lat": 38.90474316666667, "name": "bdd6e86038531a6e68650af9c07cbb53", "lon": -77.01695633333334, "fusion_lon": 0.0}, {"is_reserved": 0, "type": "electric_scooter", "fusion_lat": 0.0, "is_disabled": 0, "rental_uris": {"ios": "https://dc.lft.to/lastmile_qr_scan", "android": "https://dc.lft.to/lastmile_qr_scan"}, "bike_id": "0ad71165a95091061fe4d6d185fc0770", "lat": 38.90235633333333, "name": "0ad71165a95091061fe4d6d185fc0770", "lon": -77.01676616666667, "fusion_lon": 0.0}, {"is_reserved": 0, "type": "electric_scooter", "fusion_lat": 0.0, "is_disabled": 0, "rental_uris": {"ios": "https://dc.lft.to/lastmile_qr_scan", "android": "https://dc.lft.to/lastmile_qr_scan"}, "bike_id": "2f70312234b6dbef5e1db21fcb4bb317", "lat": 38.937806333333334, "name": "2f70312234b6dbef5e1db21fcb4bb317", "lon": -76.9936895, "fusion_lon": 0.0}, {"is_reserved": 0, "type": "electric_scooter", "fusion_lat": 0.0, "is_disabled": 0, "rental_uris": {"ios": "https://dc.lft.to/lastmile_qr_scan", "android": "https://dc.lft.to/lastmile_qr_scan"}, "bike_id": "5f34756979956b55f02bea7fe265b24c", "lat": 38.882655666666665, "name": "5f34756979956b55f02bea7fe265b24c", "lon": -76.995253, "fusion_lon": 0.0}, {"is_reserved": 0, "type": "electric_scooter", "fusion_lat": 0.0, "is_disabled": 0, "rental_uris": {"ios": "https://dc.lft.to/lastmile_qr_scan", "android": "https://dc.lft.to/lastmile_qr_scan"}, "bike_id": "96cbd0d1d743f8166fdec325cab24ea7", "lat": 38.8967315, "name": "96cbd0d1d743f8166fdec325cab24ea7", "lon": -77.011993, "fusion_lon": 0.0}, {"is_reserved": 0, "type": "electric_scooter", "fusion_lat": 0.0, "is_disabled": 0, "rental_uris": {"ios": "https://dc.lft.to/lastmile_qr_scan", "android": "https://dc.lft.to/lastmile_qr_scan"}, "bike_id": "117bcf960cf09d4e2aaf0efb93934504", "lat": 38.911962, "name": "117bcf960cf09d4e2aaf0efb93934504", "lon": -77.00217866666667, "fusion_lon": 0.0}, {"is_reserved": 0, "type": "electric_scooter", "fusion_lat": 0.0, "is_disabled": 0, "rental_uris": {"ios": "https://dc.lft.to/lastmile_qr_scan", "android": "https://dc.lft.to/lastmile_qr_scan"}, "bike_id": "79d98c7a4d76daab669b5b2dfe61f747", "lat": 38.903345333333334, "name": "79d98c7a4d76daab669b5b2dfe61f747", "lon": -76.97593233333333, "fusion_lon": 0.0}, {"is_reserved": 0, "type": "electric_scooter", "fusion_lat": 0.0, "is_disabled": 0, "rental_uris": {"ios": "https://dc.lft.to/lastmile_qr_scan", "android": "https://dc.lft.to/lastmile_qr_scan"}, "bike_id": "953b9da4ad3b4f72791f0481abb79ed1", "lat": 38.92380716666667, "name": "953b9da4ad3b4f72791f0481abb79ed1", "lon": -77.051854, "fusion_lon": 0.0}, {"is_reserved": 0, "type": "electric_scooter", "fusion_lat": 0.0, "is_disabled": 0, "rental_uris": {"ios": "https://dc.lft.to/lastmile_qr_scan", "android": "https://dc.lft.to/lastmile_qr_scan"}, "bike_id": "82992cdcd74c28bcce38ff307ee9e8c1", "lat": 38.909625166666665, "name": "82992cdcd74c28bcce38ff307ee9e8c1", "lon": -77.02382683333333, "fusion_lon": 0.0}, {"is_reserved": 0, "type": "electric_scooter", "fusion_lat": 0.0, "is_disabled": 0, "rental_uris": {"ios": "https://dc.lft.to/lastmile_qr_scan", "android": "https://dc.lft.to/lastmile_qr_scan"}, "bike_id": "a8f9eb335b9963816a2b93f98fb14582", "lat": 38.924136, "name": "a8f9eb335b9963816a2b93f98fb14582", "lon": -77.0298865, "fusion_lon": 0.0}, {"is_reserved": 0, "type": "electric_scooter", "fusion_lat": 0.0, "is_disabled": 0, "rental_uris": {"ios": "https://dc.lft.to/lastmile_qr_scan", "android": "https://dc.lft.to/lastmile_qr_scan"}, "bike_id": "e91404990f8797f8b6782b2915c11648", "lat": 38.920614, "name": "e91404990f8797f8b6782b2915c11648", "lon": -77.028229, "fusion_lon": 0.0}, {"is_reserved": 0, "type": "electric_scooter", "fusion_lat": 0.0, "is_disabled": 0, "rental_uris": {"ios": "https://dc.lft.to/lastmile_qr_scan", "android": "https://dc.lft.to/lastmile_qr_scan"}, "bike_id": "b44b188af085b05f86759e63adc3fb6b", "lat": 38.89957233333333, "name": "b44b188af085b05f86759e63adc3fb6b", "lon": -77.01510916666666, "fusion_lon": 0.0}, {"is_reserved": 0, "type": "electric_scooter", "fusion_lat": 0.0, "is_disabled": 0, "rental_uris": {"ios": "https://dc.lft.to/lastmile_qr_scan", "android": "https://dc.lft.to/lastmile_qr_scan"}, "bike_id": "fd1e630bd182ee24cce33295e17292e2", "lat": 38.917194333333335, "name": "fd1e630bd182ee24cce33295e17292e2", "lon": -77.03465983333334, "fusion_lon": 0.0}, {"is_reserved": 0, "type": "electric_scooter", "fusion_lat": 0.0, "is_disabled": 0, "rental_uris": {"ios": "https://dc.lft.to/lastmile_qr_scan", "android": "https://dc.lft.to/lastmile_qr_scan"}, "bike_id": "da91ed95ba17c65a1775b258340b29c6", "lat": 38.92995766666667, "name": "da91ed95ba17c65a1775b258340b29c6", "lon": -77.03803016666667, "fusion_lon": 0.0}, {"is_reserved": 0, "type": "electric_scooter", "fusion_lat": 0.0, "is_disabled": 0, "rental_uris": {"ios": "https://dc.lft.to/lastmile_qr_scan", "android": "https://dc.lft.to/lastmile_qr_scan"}, "bike_id": "685029c79082824f7fcf8aa4f016745e", "lat": 38.93765833333333, "name": "685029c79082824f7fcf8aa4f016745e", "lon": -77.02663183333334, "fusion_lon": 0.0}, {"is_reserved": 0, "type": "electric_scooter", "fusion_lat": 0.0, "is_disabled": 0, "rental_uris": {"ios": "https://dc.lft.to/lastmile_qr_scan", "android": "https://dc.lft.to/lastmile_qr_scan"}, "bike_id": "9301c4d4e6352dbe7cb60df364191bfb", "lat": 38.94278383333334, "name": "9301c4d4e6352dbe7cb60df364191bfb", "lon": -77.08197316666667, "fusion_lon": 0.0}, {"is_reserved": 0, "type": "electric_scooter", "fusion_lat": 0.0, "is_disabled": 0, "rental_uris": {"ios": "https://dc.lft.to/lastmile_qr_scan", "android": "https://dc.lft.to/lastmile_qr_scan"}, "bike_id": "e8b9c4d813b6bd29f091160223ae47f3", "lat": 38.912567833333334, "name": "e8b9c4d813b6bd29f091160223ae47f3", "lon": -77.00992, "fusion_lon": 0.0}, {"is_reserved": 0, "type": "electric_scooter", "fusion_lat": 0.0, "is_disabled": 0, "rental_uris": {"ios": "https://dc.lft.to/lastmile_qr_scan", "android": "https://dc.lft.to/lastmile_qr_scan"}, "bike_id": "c3ccbcfb96bc20b58163e5eaade81c0b", "lat": 38.956413, "name": "c3ccbcfb96bc20b58163e5eaade81c0b", "lon": -77.036308, "fusion_lon": 0.0}, {"is_reserved": 0, "type": "electric_scooter", "fusion_lat": 0.0, "is_disabled": 0, "rental_uris": {"ios": "https://dc.lft.to/lastmile_qr_scan", "android": "https://dc.lft.to/lastmile_qr_scan"}, "bike_id": "dac8c767140d91153def97cb4bd52dfc", "lat": 38.900250166666666, "name": "dac8c767140d91153def97cb4bd52dfc", "lon": -77.01992583333333, "fusion_lon": 0.0}, {"is_reserved": 0, "type": "electric_scooter", "fusion_lat": 0.0, "is_disabled": 0, "rental_uris": {"ios": "https://dc.lft.to/lastmile_qr_scan", "android": "https://dc.lft.to/lastmile_qr_scan"},