{"data": {"bikes": [{"bike_id": "49ad2d52cc3c58801e7d1e644e0e4b69", "is_reserved": 0, "fusion_lon": 0.0, "lat": 38.90672966666666, "is_disabled": 0, "name": "49ad2d52cc3c58801e7d1e644e0e4b69", "fusion_lat": 0.0, "rental_uris": {"ios": "https://dc.lft.to/lastmile_qr_scan", "android": "https://dc.lft.to/lastmile_qr_scan"}, "lon": -77.00049916666667, "type": "electric_scooter"}, {"bike_id": "f904146b5c1c63115b5e2b0d0c508244", "is_reserved": 0, "fusion_lon": 0.0, "lat": 38.9040795, "is_disabled": 0, "name": "f904146b5c1c63115b5e2b0d0c508244", "fusion_lat": 0.0, "rental_uris": {"ios": "https://dc.lft.to/lastmile_qr_scan", "android": "https://dc.lft.to/lastmile_qr_scan"}, "lon": -77.0206665, "type": "electric_scooter"}, {"bike_id": "87e11d26e5c32b796997f31d052e8eeb", "is_reserved": 0, "fusion_lon": 0.0, "lat": 38.935343333333336, "is_disabled": 0, "name": "87e11d26e5c32b796997f31d052e8eeb", "fusion_lat": 0.0, "rental_uris": {"ios": "https://dc.lft.to/lastmile_qr_scan", "android": "https://dc.lft.to/lastmile_qr_scan"}, "lon": -77.023614, "type": "electric_scooter"}, {"bike_id": "610fe5b2f70da7d30326718a624e14a6", "is_reserved": 0, "fusion_lon": 0.0, "lat": 38.92021533333333, "is_disabled": 0, "name": "610fe5b2f70da7d30326718a624e14a6", "fusion_lat": 0.0, "rental_uris": {"ios": "https://dc.lft.to/lastmile_qr_scan", "android": "https://dc.lft.to/lastmile_qr_scan"}, "lon": -77.03115133333333, "type": "electric_scooter"}, {"bike_id": "0d19dcbca39f29a05faea36f4395f261", "is_reserved": 0, "fusion_lon": 0.0, "lat": 38.904091333333334, "is_disabled": 0, "name": "0d19dcbca39f29a05faea36f4395f261", "fusion_lat": 0.0, "rental_uris": {"ios": "https://dc.lft.to/lastmile_qr_scan", "android": "https://dc.lft.to/lastmile_qr_scan"}, "lon": -77.0323395, "type": "electric_scooter"}, {"bike_id": "633a6badb344cedb7cfc713ae6e91955", "is_reserved": 0, "fusion_lon": 0.0, "lat": 38.920279, "is_disabled": 0, "name": "633a6badb344cedb7cfc713ae6e91955", "fusion_lat": 0.0, "rental_uris": {"ios": "https://dc.lft.to/lastmile_qr_scan", "android": "https://dc.lft.to/lastmile_qr_scan"}, "lon": -77.017926, "type": "electric_scooter"}, {"bike_id": "58a62f398dd8a304f2ae27c70dd23312", "is_reserved": 0, "fusion_lon": 0.0, "lat": 38.891956666666665, "is_disabled": 0, "name": "58a62f398dd8a304f2ae27c70dd23312", "fusion_lat": 0.0, "rental_uris": {"ios": "https://dc.lft.to/lastmile_qr_scan", "android": "https://dc.lft.to/lastmile_qr_scan"}, "lon": -77.02836083333334, "type": "electric_scooter"}, {"bike_id": "d1bd882a5c5d5ed1e0fd45fc40b649ca", "is_reserved": 0, "fusion_lon": 0.0, "lat": 38.897317, "is_disabled": 0, "name": "d1bd882a5c5d5ed1e0fd45fc40b649ca", "fusion_lat": 0.0, "rental_uris": {"ios": "https://dc.lft.to/lastmile_qr_scan", "android": "https://dc.lft.to/lastmile_qr_scan"}, "lon": -77.05475416666667, "type": "electric_scooter"}, {"bike_id": "55a3de33d16757c19e25b7ead9e022cf", "is_reserved": 0, "fusion_lon": 0.0, "lat": 38.959379, "is_disabled": 0, "name": "55a3de33d16757c19e25b7ead9e022cf", "fusion_lat": 0.0, "rental_uris": {"ios": "https://dc.lft.to/lastmile_qr_scan", "android": "https://dc.lft.to/lastmile_qr_scan"}, "lon": -77.03122233333333, "type": "electric_scooter"}, {"bike_id": "1d08dc29825f38ebe176d3d8a7ee930c", "is_reserved": 0, "fusion_lon": 0.0, "lat": 38.922593666666664, "is_disabled": 0, "name": "1d08dc29825f38ebe176d3d8a7ee930c", "fusion_lat": 0.0, "rental_uris": {"ios": "https://dc.lft.to/lastmile_qr_scan", "android": "https://dc.lft.to/lastmile_qr_scan"}, "lon": -77.04299316666666, "type": "electric_scooter"}, {"bike_id": "4cc9a5191a808beeb435807c43d7d1e6", "is_reserved": 0, "fusion_lon": 0.0, "lat": 38.897412333333335, "is_disabled": 0, "name": "4cc9a5191a808beeb435807c43d7d1e6", "fusion_lat": 0.0, "rental_uris": {"ios": "https://dc.lft.to/lastmile_qr_scan", "android": "https://dc.lft.to/lastmile_qr_scan"}, "lon": -77.0450375, "type": "electric_scooter"}, {"bike_id": "d7e2709549a278b02145cf1570821d20", "is_reserved": 0, "fusion_lon": 0.0, "lat": 38.905032166666665, "is_disabled": 0, "name": "d7e2709549a278b02145cf1570821d20", "fusion_lat": 0.0, "rental_uris": {"ios": "https://dc.lft.to/lastmile_qr_scan", "android": "https://dc.lft.to/lastmile_qr_scan"}, "lon": -76.99014833333334, "type": "electric_scooter"}, {"bike_id": "240d74c028abbf4bda96940fe1289f53", "is_reserved": 0, "fusion_lon": 0.0, "lat": 38.898782, "is_disabled": 0, "name": "240d74c028abbf4bda96940fe1289f53", "fusion_lat": 0.0, "rental_uris": {"ios": "https://dc.lft.to/lastmile_qr_scan", "android": "https://dc.lft.to/lastmile_qr_scan"}, "lon": -76.9316085, "type": "electric_scooter"}, {"bike_id": "37e4074371b74fdde8645b7727383081", "is_reserved": 0, "fusion_lon": 0.0, "lat": 38.92504533333333, "is_disabled": 0, "name": "37e4074371b74fdde8645b7727383081", "fusion_lat": 0.0, "rental_uris": {"ios": "https://dc.lft.to/lastmile_qr_scan", "android": "https://dc.lft.to/lastmile_qr_scan"}, "lon": -77.00894166666667, "type": "electric_scooter"}, {"bike_id": "1f80eb76036ded428e2ef7507ed8f74c", "is_reserved": 0, "fusion_lon": 0.0, "lat": 38.934414333333336, "is_disabled": 0, "name": "1f80eb76036ded428e2ef7507ed8f74c", "fusion_lat": 0.0, "rental_uris": {"ios": "https://dc.lft.to/lastmile_qr_scan", "android": "https://dc.lft.to/lastmile_qr_scan"}, "lon": -77.03438216666666, "type": "electric_scooter"}, {"bike_id": "171d66ab006afd4df2c63c01776f7fe0", "is_reserved": 0, "fusion_lon": 0.0, "lat": 38.90525616666667, "is_disabled": 0, "name": "171d66ab006afd4df2c63c01776f7fe0", "fusion_lat": 0.0, "rental_uris": {"ios": "https://dc.lft.to/lastmile_qr_scan", "android": "https://dc.lft.to/lastmile_qr_scan"}, "lon": -77.04368466666666, "type": "electric_scooter"}, {"bike_id": "b56d3b6358695b5dd7ae7b3296b256bc", "is_reserved": 0, "fusion_lon": 0.0, "lat": 38.9003075, "is_disabled": 0, "name": "b56d3b6358695b5dd7ae7b3296b256bc", "fusion_lat": 0.0, "rental_uris": {"ios": "https://dc.lft.to/lastmile_qr_scan", "android": "https://dc.lft.to/lastmile_qr_scan"}, "lon": -76.998722, "type": "electric_scooter"}, {"bike_id": "801d5b372c7d1b85a6279b81c80fbe77", "is_reserved": 0, "fusion_lon": 0.0, "lat": 38.9617625, "is_disabled": 0, "name": "801d5b372c7d1b85a6279b81c80fbe77", "fusion_lat": 0.0, "rental_uris": {"ios": "https://dc.lft.to/lastmile_qr_scan", "android": "https://dc.lft.to/lastmile_qr_scan"}, "lon": -76.99590833333333, "type": "electric_bike"}, {"bike_id": "586cb365d194de83097b980d1957499b", "is_reserved": 0, "fusion_lon": 0.0, "lat": 38.895303, "is_disabled": 0, "name": "586cb365d194de83097b980d1957499b", "fusion_lat": 0.0, "rental_uris": {"ios": "https://dc.lft.to/lastmile_qr_scan", "android": "https://dc.lft.to/lastmile_qr_scan"}, "lon": -76.94891583333333, "type": "electric_scooter"}, {"bike_id": "c23e1e101344c2b4d6f2adcfedc14217", "is_reserved": 0, "fusion_lon": 0.0, "lat": 38.936877, "is_disabled": 0, "name": "c23e1e101344c2b4d6f2adcfedc14217", "fusion_lat": 0.0, "rental_uris": {"ios": "https://dc.lft.to/lastmile_qr_scan", "android": "https://dc.lft.to/lastmile_qr_scan"}, "lon": -77.056282, "type": "electric_scooter"}, {"bike_id": "1fa2cca2c888d09a702a2a47e8b8ea2c", "is_reserved": 0, "fusion_lon": 0.0, "lat": 38.89967816666667, "is_disabled": 0, "name": "1fa2cca2c888d09a702a2a47e8b8ea2c", "fusion_lat": 0.0, "rental_uris": {"ios": "https://dc.lft.to/lastmile_qr_scan", "android": "https://dc.lft.to/lastmile_qr_scan"}, "lon": -77.03351633333334, "type": "electric_scooter"}, {"bike_id": "8c3ef9ba7f6b03832a42550efe567452", "is_reserved": 0, "fusion_lon": 0.0, "lat": 38.900657, "is_disabled": 0, "name": "8c3ef9ba7f6b03832a42550efe567452", "fusion_lat": 0.0, "rental_uris": {"ios": "https://dc.lft.to/lastmile_qr_scan", "android": "https://dc.lft.to/lastmile_qr_scan"}, "lon": -76.99823866666667, "type": "electric_scooter"}, {"bike_id": "ff3d1a54c708a8267966e23dac0030f3", "is_reserved": 0, "fusion_lon": 0.0, "lat": 38.91813483333333, "is_disabled": 0, "name": "ff3d1a54c708a8267966e23dac0030f3", "fusion_lat": 0.0, "rental_uris": {"ios": "https://dc.lft.to/lastmile_qr_scan", "android": "https://dc.lft.to/lastmile_qr_scan"}, "lon": -77.01021366666667, "type": "electric_scooter"}, {"bike_id": "863e82f7cfea27a55fe0de6696e5bc17", "is_reserved": 0, "fusion_lon": 0.0, "lat": 38.8922555, "is_disabled": 0, "name": "863e82f7cfea27a55fe0de6696e5bc17", "fusion_lat": 0.0, "rental_uris": {"ios": "https://dc.lft.to/lastmile_qr_scan", "android": "https://dc.lft.to/lastmile_qr_scan"}, "lon": -77.04867616666667, "type": "electric_scooter"}, {"bike_id": "572a093ff032b2f5ade94e19507c57bd", "is_reserved": 0, "fusion_lon": 0.0, "lat": 38.91581883333333, "is_disabled": 0, "name": "572a093ff032b2f5ade94e19507c57bd", "fusion_lat": 0.0, "rental_uris": {"ios": "https://dc.lft.to/lastmile_qr_scan", "android": "https://dc.lft.to/lastmile_qr_scan"}, "lon": -77.0123525, "type": "electric_scooter"}, {"bike_id": "a56b92d04efab73e016e4e022a146107", "is_reserved": 0, "fusion_lon": 0.0, "lat": 38.9095595, "is_disabled": 0, "name": "a56b92d04efab73e016e4e022a146107", "fusion_lat": 0.0, "rental_uris": {"ios": "https://dc.lft.to/lastmile_qr_scan", "android": "https://dc.lft.to/lastmile_qr_scan"}, "lon": -76.98538516666666, "type": "electric_scooter"}, {"bike_id": "9886045391e7f55aa76bf160fcb22386", "is_reserved": 0, "fusion_lon": 0.0, "lat": 38.90641933333333, "is_disabled": 0, "name": "9886045391e7f55aa76bf160fcb22386", "fusion_lat": 0.0, "rental_uris": {"ios": "https://dc.lft.to/lastmile_qr_scan", "android": "https://dc.lft.to/lastmile_qr_scan"}, "lon": -77.051264, "type": "electric_scooter"}, {"bike_id": "09662bf674ef8c7aee514f31c715a0fb", "is_reserved": 0, "fusion_lon": 0.0, "lat": 38.91105, "is_disabled": 0, "name": "09662bf674ef8c7aee514f31c715a0fb", "fusion_lat": 0.0, "rental_uris": {"ios": "https://dc.lft.to/lastmile_qr_scan", "android": "https://dc.lft.to/lastmile_qr_scan"}, "lon": -77.0035485, "type": "electric_scooter"}, {"bike_id": "5a106d31d879f2f92b0414ebc889d2f1", "is_reserved": 0, "fusion_lon": 0.0, "lat": 38.928700666666664, "is_disabled": 0, "name": "5a106d31d879f2f92b0414ebc889d2f1", "fusion_lat": 0.0, "rental_uris": {"ios": "https://dc.lft.to/lastmile_qr_scan", "android": "https://dc.lft.to/lastmile_qr_scan"}, "lon": -77.02729983333333, "type": "electric_scooter"}, {"bike_id": "77902c1764b3411f0be30ffe11de8122", "is_reserved": 0, "fusion_lon": 0.0, "lat": 38.902748, "is_disabled": 0, "name": "77902c1764b3411f0be30ffe11de8122", "fusion_lat": 0.0, "rental_uris": {"ios": "https://dc.lft.to/lastmile_qr_scan", "android": "https://dc.lft.to/lastmile_qr_scan"}, "lon": -77.034688, "type": "electric_scooter"}, {"bike_id": "5df230e0528a650d534a8b1316cd9086", "is_reserved": 0, "fusion_lon": 0.0, "lat": 38.97326666666667, "is_disabled": 0, "name": "5df230e0528a650d534a8b1316cd9086", "fusion_lat": 0.0, "rental_uris": {"ios": "https://dc.lft.to/lastmile_qr_scan", "android": "https://dc.lft.to/lastmile_qr_scan"}, "lon": -77.02149416666667, "type": "electric_bike"}, {"bike_id": "03258c4cf46e20fe3a980347ac187b97", "is_reserved": 0, "fusion_lon": 0.0, "lat": 38.95896116666667, "is_disabled": 0, "name": "03258c4cf46e20fe3a980347ac187b97", "fusion_lat": 0.0, "rental_uris": {"ios": "https://dc.lft.to/lastmile_qr_scan", "android": "https://dc.lft.to/lastmile_qr_scan"}, "lon": -76.92480966666666, "type": "electric_bike"}, {"bike_id": "4ef69bf81b58942a910f12322023eb34", "is_reserved": 0, "fusion_lon": 0.0, "lat": 38.903522333333335, "is_disabled": 0, "name": "4ef69bf81b58942a910f12322023eb34", "fusion_lat": 0.0, "rental_uris": {"ios": "https://dc.lft.to/lastmile_qr_scan", "android": "https://dc.lft.to/lastmile_qr_scan"}, "lon": -77.0384345, "type": "electric_scooter"}, {"bike_id": "ed4e1d3046930dc69c889da07c26c59a", "is_reserved": 0, "fusion_lon": 0.0, "lat": 38.88440083333333, "is_disabled": 0, "name": "ed4e1d3046930dc69c889da07c26c59a", "fusion_lat": 0.0, "rental_uris": {"ios": "https://dc.lft.to/lastmile_qr_scan", "android": "https://dc.lft.to/lastmile_qr_scan"}, "lon": -77.030418, "type": "electric_scooter"}, {"bike_id": "02ffe7183c46149c918b99fdb3739a95", "is_reserved": 0, "fusion_lon": 0.0, "lat": 38.90175883333333, "is_disabled": 0, "name": "02ffe7183c46149c918b99fdb3739a95", "fusion_lat": 0.0, "rental_uris": {"ios": "https://dc.lft.to/lastmile_qr_scan", "android": "https://dc.lft.to/lastmile_qr_scan"}, "lon": -77.00004166666666, "type": "electric_scooter"}, {"bike_id": "e6e5e426c6da536eaabde19c0e04f5c1", "is_reserved": 0, "fusion_lon": 0.0, "lat": 38.864207, "is_disabled": 0, "name": "e6e5e426c6da536eaabde19c0e04f5c1", "fusion_lat": 0.0, "rental_uris": {"ios": "https://dc.lft.to/lastmile_qr_scan", "android": "https://dc.lft.to/lastmile_qr_scan"}, "lon": -77.01330333333334, "type": "electric_scooter"}, {"bike_id": "342cca36790168aafa34b747ed765fa2", "is_reserved": 0, "fusion_lon": 0.0, "lat": 38.89221666666667, "is_disabled": 0, "name": "342cca36790168aafa34b747ed765fa2", "fusion_lat": 0.0, "rental_uris": {"ios": "https://dc.lft.to/lastmile_qr_scan", "android": "https://dc.lft.to/lastmile_qr_scan"}, "lon": -77.0465455, "type": "electric_scooter"}, {"bike_id": "a6299600563475908ee5b32c7b39cc32", "is_reserved": 0, "fusion_lon": 0.0, "lat": 38.904286166666665, "is_disabled": 0, "name": "a6299600563475908ee5b32c7b39cc32", "fusion_lat": 0.0, "rental_uris": {"ios": "https://dc.lft.to/lastmile_qr_scan", "android": "https://dc.lft.to/lastmile_qr_scan"}, "lon": -77.0435235, "type": "electric_scooter"}, {"bike_id": "816e56501e89215a80c53c5e01785af3", "is_reserved": 0, "fusion_lon": 0.0, "lat": 38.894737666666664, "is_disabled": 0, "name": "816e56501e89215a80c53c5e01785af3", "fusion_lat": 0.0, "rental_uris": {"ios": "https://dc.lft.to/lastmile_qr_scan", "android": "https://dc.lft.to/lastmile_qr_scan"}, "lon": -77.00070616666666, "type": "electric_scooter"}, {"bike_id": "2db94ee517595887e45bda404d2cb054", "is_reserved": 0, "fusion_lon": 0.0, "lat": 38.90243683333333, "is_disabled": 0, "name": "2db94ee517595887e45bda404d2cb054", "fusion_lat": 0.0, "rental_uris": {"ios": "https://dc.lft.to/lastmile_qr_scan", "android": "https://dc.lft.to/lastmile_qr_scan"}, "lon": -77.00201366666667, "type": "electric_scooter"}, {"bike_id": "5a7f018f806fa061f278fd32229a93b0", "is_reserved": 0, "fusion_lon": 0.0, "lat": 38.933394166666666, "is_disabled": 0, "name": "5a7f018f806fa061f278fd32229a93b0", "fusion_lat": 0.0, "rental_uris": {"ios": "https://dc.lft.to/lastmile_qr_scan", "android": "https://dc.lft.to/lastmile_qr_scan"}, "lon": -77.03263416666667, "type": "electric_scooter"}, {"bike_id": "dea7fa76bd761c05a8b80c751dcb6377", "is_reserved": 0, "fusion_lon": 0.0, "lat": 38.9258165, "is_disabled": 0, "name": "dea7fa76bd761c05a8b80c751dcb6377", "fusion_lat": 0.0, "rental_uris": {"ios": "https://dc.lft.to/lastmile_qr_scan", "android": "https://dc.lft.to/lastmile_qr_scan"}, "lon": -77.05765933333333, "type": "electric_scooter"}, {"bike_id": "8ffa67f5595d00fb711f7c39eca25ea0", "is_reserved": 0, "fusion_lon": 0.0, "lat": 38.90136616666667, "is_disabled": 0, "name": "8ffa67f5595d00fb711f7c39eca25ea0", "fusion_lat": 0.0, "rental_uris": {"ios": "https://dc.lft.to/lastmile_qr_scan", "android": "https://dc.lft.to/lastmile_qr_scan"}, "lon": -77.0448435, "type": "electric_scooter"}, {"bike_id": "d50aeb43342c9e864615daa0311282b0", "is_reserved": 0, "fusion_lon": 0.0, "lat": 38.9052435, "is_disabled": 0, "name": "d50aeb43342c9e864615daa0311282b0", "fusion_lat": 0.0, "rental_uris": {"ios": "https://dc.lft.to/lastmile_qr_scan", "android": "https://dc.lft.to/lastmile_qr_scan"}, "lon": -77.0416105, "type": "electric_scooter"}, {"bike_id": "8e3632eb801497ba7a2f01608dbee3fb", "is_reserved": 0, "fusion_lon": 0.0, "lat": 38.89831433333333, "is_disabled": 0, "name": "8e3632eb801497ba7a2f01608dbee3fb", "fusion_lat": 0.0, "rental_uris": {"ios": "https://dc.lft.to/lastmile_qr_scan", "android": "https://dc.lft.to/lastmile_qr_scan"}, "lon": -77.03329116666667, "type": "electric_scooter"}, {"bike_id": "23869bb809651cb40d3bfbd7232f88a0", "is_reserved": 0, "fusion_lon": 0.0, "lat": 38.92637, "is_disabled": 0, "name": "23869bb809651cb40d3bfbd7232f88a0", "fusion_lat": 0.0, "rental_uris": {"ios": "https://dc.lft.to/lastmile_qr_scan", "android": "https://dc.lft.to/lastmile_qr_scan"}, "lon": -77.035036, "type": "electric_scooter"}, {"bike_id": "063c52e0979765534f2a7fbdf8d7253e", "is_reserved": 0, "fusion_lon": 0.0, "lat": 38.933482833333336, "is_disabled": 0, "name": "063c52e0979765534f2a7fbdf8d7253e", "fusion_lat": 0.0, "rental_uris": {"ios": "https://dc.lft.to/lastmile_qr_scan", "android": "https://dc.lft.to/lastmile_qr_scan"}, "lon": -77.05865833333333, "type": "electric_scooter"}, {"bike_id": "17cd8a00ed58ee9e7c2f59645955b21f", "is_reserved": 0, "fusion_lon": 0.0, "lat": 38.90463033333333, "is_disabled": 0, "name": "17cd8a00ed58ee9e7c2f59645955b21f", "fusion_lat": 0.0, "rental_uris": {"ios": "https://dc.lft.to/lastmile_qr_scan", "android": "https://dc.lft.to/lastmile_qr_scan"}, "lon": -77.04032016666666, "type": "electric_scooter"}, {"bike_id": "f0af363f2c7134a07429fd3e33373cb7", "is_reserved": 0, "fusion_lon": 0.0, "lat": 38.92655533333333, "is_disabled": 0, "name": "f0af363f2c7134a07429fd3e33373cb7", "fusion_lat": 0.0, "rental_uris": {"ios": "https://dc.lft.to/lastmile_qr_scan", "android": "https://dc.lft.to/lastmile_qr_scan"}, "lon": -77.03712433333334, "type": "electric_scooter"}, {"bike_id": "810633775853cefd0cb42604b283f101", "is_reserved": 0, "fusion_lon": 0.0, "lat": 38.9199785, "is_disabled": 0, "name": "810633775853cefd0cb42604b283f101", "fusion_lat": 0.0, "rental_uris": {"ios": "https://dc.lft.to/lastmile_qr_scan", "android": "https://dc.lft.to/lastmile_qr_scan"}, "lon": -77.032327, "type": "electric_scooter"}, {"bike_id": "1d8dd294ddc0ab6ca54bd1c3381c2433", "is_reserved": 0, "fusion_lon": 0.0, "lat": 38.90773683333333, "is_disabled": 0, "name": "1d8dd294ddc0ab6ca54bd1c3381c2433", "fusion_lat": 0.0, "rental_uris": {"ios": "https://dc.lft.to/lastmile_qr_scan", "android": "https://dc.lft.to/lastmile_qr_scan"}, "lon": -77.06912483333333, "type": "electric_scooter"}, {"bike_id": "18a1b25e18c73779794f9ea54a2210cd", "is_reserved": 0, "fusion_lon": 0.0, "lat": 38.887697333333335, "is_disabled": 0, "name": "18a1b25e18c73779794f9ea54a2210cd", "fusion_lat": 0.0, "rental_uris": {"ios": "https://dc.lft.to/lastmile_qr_scan", "android": "https://dc.lft.to/lastmile_qr_scan"}, "lon": -77.02229583333333, "type": "electric_scooter"}, {"bike_id": "7fb37232de425ae2cea85d49989953ab", "is_reserved": 0, "fusion_lon": 0.0, "lat": 38.902825666666665, "is_disabled": 0, "name": "7fb37232de425ae2cea85d49989953ab", "fusion_lat": 0.0, "rental_uris": {"ios": "https://dc.lft.to/lastmile_qr_scan", "android": "https://dc.lft.to/lastmile_qr_scan"}, "lon": -77.04150583333333, "type": "electric_scooter"}, {"bike_id": "2824f38543138b9a0a730ee4f9e2eb36", "is_reserved": 0, "fusion_lon": 0.0, "lat": 38.91805766666667, "is_disabled": 0, "name": "2824f38543138b9a0a730ee4f9e2eb36", "fusion_lat": 0.0, "rental_uris": {"ios": "https://dc.lft.to/lastmile_qr_scan", "android": "https://dc.lft.to/lastmile_qr_scan"}, "lon": -77.03444933333333, "type": "electric_scooter"}, {"bike_id": "132fc501a72a61623dc6e30a0df06021", "is_reserved": 0, "fusion_lon": 0.0, "lat": 38.90167666666667, "is_disabled": 0, "name": "132fc501a72a61623dc6e30a0df06021", "fusion_lat": 0.0, "rental_uris": {"ios": "https://dc.lft.to/lastmile_qr_scan", "android": "https://dc.lft.to/lastmile_qr_scan"}, "lon": -77.0258995, "type": "electric_scooter"}, {"bike_id": "1fd7e588f17135d34b8dce234336742f", "is_reserved": 0, "fusion_lon": 0.0, "lat": 38.99940083333333, "is_disabled": 0, "name": "1fd7e588f17135d34b8dce234336742f", "fusion_lat": 0.0, "rental_uris": {"ios": "https://dc.lft.to/lastmile_qr_scan", "android": "https://dc.lft.to/lastmile_qr_scan"}, "lon": -77.01765416666667, "type": "electric_bike"}, {"bike_id": "19938338d1fc599850ceef391304925f", "is_reserved": 0, "fusion_lon": 0.0, "lat": 38.899585333333334, "is_disabled": 0, "name": "19938338d1fc599850ceef391304925f", "fusion_lat": 0.0, "rental_uris": {"ios": "https://dc.lft.to/lastmile_qr_scan", "android": "https://dc.lft.to/lastmile_qr_scan"}, "lon": -77.0319855, "type": "electric_scooter"}, {"bike_id": "109a3b2971a9ed35c114c7a901882f64", "is_reserved": 0, "fusion_lon": 0.0, "lat": 38.924455333333334, "is_disabled": 0, "name": "109a3b2971a9ed35c114c7a901882f64", "fusion_lat": 0.0, "rental_uris": {"ios": "https://dc.lft.to/lastmile_qr_scan", "android": "https://dc.lft.to/lastmile_qr_scan"}, "lon": -77.03405683333334, "type": "electric_scooter"}, {"bike_id": "752ea3721c1105aebcebba14fe9a1a54", "is_reserved": 0, "fusion_lon": 0.0, "lat": 38.88236716666667, "is_disabled": 0, "name": "752ea3721c1105aebcebba14fe9a1a54", "fusion_lat": 0.0, "rental_uris": {"ios": "https://dc.lft.to/lastmile_qr_scan", "android": "https://dc.lft.to/lastmile_qr_scan"}, "lon": -76.99088383333333, "type": "electric_scooter"}, {"bike_id": "316545c25535fe15c5a64a56b248c5c7", "is_reserved": 0, "fusion_lon": 0.0, "lat": 38.919920166666664, "is_disabled": 0, "name": "316545c25535fe15c5a64a56b248c5c7", "fusion_lat": 0.0, "rental_uris": {"ios": "https://dc.lft.to/lastmile_qr_scan", "android": "https://dc.lft.to/lastmile_qr_scan"}, "lon": -76.973072, "type": "electric_scooter"}, {"bike_id": "b20e104781ece4b14c7d558ef9ef47e3", "is_reserved": 0, "fusion_lon": 0.0, "lat": 38.8874895, "is_disabled": 0, "name": "b20e104781ece4b14c7d558ef9ef47e3", "fusion_lat": 0.0, "rental_uris": {"ios": "https://dc.lft.to/lastmile_qr_scan", "android": "https://dc.lft.to/lastmile_qr_scan"}, "lon": -77.02019783333333, "type": "electric_scooter"}, {"bike_id": "b941e5f0b455f074e4891a9d645e2d88", "is_reserved": 0, "fusion_lon": 0.0, "lat": 38.9508535, "is_disabled": 0, "name": "b941e5f0b455f074e4891a9d645e2d88", "fusion_lat": 0.0, "rental_uris": {"ios": "https://dc.lft.to/lastmile_qr_scan", "android": "https://dc.lft.to/lastmile_qr_scan"}, "lon": -77.0125855, "type": "electric_bike"}, {"bike_id": "b8ab1f5bfbdf2e7ff9a56f7fe3eef9d3", "is_reserved": 0, "fusion_lon": 0.0, "lat": 38.991566, "is_disabled": 0, "name": "b8ab1f5bfbdf2e7ff9a56f7fe3eef9d3", "fusion_lat": 0.0, "rental_uris": {"ios": "https://dc.lft.to/lastmile_qr_scan", "android": "https://dc.lft.to/lastmile_qr_scan"}, "lon": -77.04736416666667, "type": "electric_scooter"}, {"bike_id": "a4c06c4a3b4e214035786e9fd40656a4", "is_reserved": 0, "fusion_lon": 0.0, "lat": 38.9086315, "is_disabled": 0, "name": "a4c06c4a3b4e214035786e9fd40656a4", "fusion_lat": 0.0, "rental_uris": {"ios": "https://dc.lft.to/lastmile_qr_scan", "android": "https://dc.lft.to/lastmile_qr_scan"}, "lon": -77.080784, "type": "electric_bike"}, {"bike_id": "b61c4d21fc2269c092f2bc291b4f428d", "is_reserved": 0, "fusion_lon": 0.0, "lat": 38.88773616666667, "is_disabled": 0, "name": "b61c4d21fc2269c092f2bc291b4f428d", "fusion_lat": 0.0, "rental_uris": {"ios": "https://dc.lft.to/lastmile_qr_scan", "android": "https://dc.lft.to/lastmile_qr_scan"}, "lon": -77.03129266666667, "type": "electric_scooter"}, {"bike_id": "4c93e2652df961699c6c22bd8110331f", "is_reserved": 0, "fusion_lon": 0.0, "lat": 38.902772, "is_disabled": 0, "name": "4c93e2652df961699c6c22bd8110331f", "fusion_lat": 0.0, "rental_uris": {"ios": "https://dc.lft.to/lastmile_qr_scan", "android": "https://dc.lft.to/lastmile_qr_scan"}, "lon": -77.02803116666666, "type": "electric_scooter"}, {"bike_id": "3473ceed7ebfbf54f659b323e32c57a1", "is_reserved": 0, "fusion_lon": 0.0, "lat": 38.9353445, "is_disabled": 0, "name": "3473ceed7ebfbf54f659b323e32c57a1", "fusion_lat": 0.0, "rental_uris": {"ios": "https://dc.lft.to/lastmile_qr_scan", "android": "https://dc.lft.to/lastmile_qr_scan"}, "lon": -77.02344783333334, "type": "electric_scooter"}, {"bike_id": "5ac6577ae320f09250db4e44b1ceec65", "is_reserved": 0, "fusion_lon": 0.0, "lat": 38.883744166666666, "is_disabled": 0, "name": "5ac6577ae320f09250db4e44b1ceec65", "fusion_lat": 0.0, "rental_uris": {"ios": "https://dc.lft.to/lastmile_qr_scan", "android": "https://dc.lft.to/lastmile_qr_scan"}, "lon": -76.995274, "type": "electric_scooter"}, {"bike_id": "25a5e476bdc13208e1e8faac2faa31a5", "is_reserved": 0, "fusion_lon": 0.0, "lat": 38.90074166666667, "is_disabled": 0, "name": "25a5e476bdc13208e1e8faac2faa31a5", "fusion_lat": 0.0, "rental_uris": {"ios": "https://dc.lft.to/lastmile_qr_scan", "android": "https://dc.lft.to/lastmile_qr_scan"}, "lon": -77.02553883333333, "type": "electric_scooter"}, {"bike_id": "1e9e6d457a120dd9885768c5823ffa54", "is_reserved": 0, "fusion_lon": 0.0, "lat": 38.953852166666664, "is_disabled": 0, "name": "1e9e6d457a120dd9885768c5823ffa54", "fusion_lat": 0.0, "rental_uris": {"ios": "https://dc.lft.to/lastmile_qr_scan", "android": "https://dc.lft.to/lastmile_qr_scan"}, "lon": -76.99918033333333, "type": "electric_scooter"}, {"bike_id": "3e3601ca5abd34374921b1609fbbd21a", "is_reserved": 0, "fusion_lon": 0.0, "lat": 38.90047716666667, "is_disabled": 0, "name": "3e3601ca5abd34374921b1609fbbd21a", "fusion_lat": 0.0, "rental_uris": {"ios": "https://dc.lft.to/lastmile_qr_scan", "android": "https://dc.lft.to/lastmile_qr_scan"}, "lon": -77.034135, "type": "electric_bike"}, {"bike_id": "d3abd02667b8403aeab994b896cbb807", "is_reserved": 0, "fusion_lon": 0.0, "lat": 38.90320033333333, "is_disabled": 0, "name": "d3abd02667b8403aeab994b896cbb807", "fusion_lat": 0.0, "rental_uris": {"ios": "https://dc.lft.to/lastmile_qr_scan", "android": "https://dc.lft.to/lastmile_qr_scan"}, "lon": -77.051786, "type": "electric_scooter"}, {"bike_id": "f960500435a01cc780abc56eff8c86b7", "is_reserved": 0, "fusion_lon": 0.0, "lat": 38.903968, "is_disabled": 0, "name": "f960500435a01cc780abc56eff8c86b7", "fusion_lat": 0.0, "rental_uris": {"ios": "https://dc.lft.to/lastmile_qr_scan", "android": "https://dc.lft.to/lastmile_qr_scan"}, "lon": -77.011012, "type": "electric_scooter"}, {"bike_id": "98022d1c92c9a6aaef9b2ac1bdca0b37", "is_reserved": 0, "fusion_lon": 0.0, "lat": 38.91010933333333, "is_disabled": 0, "name": "98022d1c92c9a6aaef9b2ac1bdca0b37", "fusion_lat": 0.0, "rental_uris": {"ios": "https://dc.lft.to/lastmile_qr_scan", "android": "https://dc.lft.to/lastmile_qr_scan"}, "lon": -77.034535, "type": "electric_scooter"}, {"bike_id": "bc6a7f23015cad995a0d3ef2348603a4", "is_reserved": 0, "fusion_lon": 0.0, "lat": 38.9417145, "is_disabled": 0, "name": "bc6a7f23015cad995a0d3ef2348603a4", "fusion_lat": 0.0, "rental_uris": {"ios": "https://dc.lft.to/lastmile_qr_scan", "android": "https://dc.lft.to/lastmile_qr_scan"}, "lon": -77.04131116666667, "type": "electric_scooter"}, {"bike_id": "84f10f84862327b459384902132a0e83", "is_reserved": 0, "fusion_lon": 0.0, "lat": 38.903451833333335, "is_disabled": 0, "name": "84f10f84862327b459384902132a0e83", "fusion_lat": 0.0, "rental_uris": {"ios": "https://dc.lft.to/lastmile_qr_scan", "android": "https://dc.lft.to/lastmile_qr_scan"}, "lon": -77.06640983333334, "type": "electric_scooter"}, {"bike_id": "b4e3a17731e1ce867e5962284e68182e", "is_reserved": 0, "fusion_lon": 0.0, "lat": 38.905572166666666, "is_disabled": 0, "name": "b4e3a17731e1ce867e5962284e68182e", "fusion_lat": 0.0, "rental_uris": {"ios": "https://dc.lft.to/lastmile_qr_scan", "android": "https://dc.lft.to/lastmile_qr_scan"}, "lon": -77.004186, "type": "electric_bike"}, {"bike_id": "41b4d47e9457c20ed75061a1a782cfd8", "is_reserved": 0, "fusion_lon": 0.0, "lat": 38.89223783333333, "is_disabled": 0, "name": "41b4d47e9457c20ed75061a1a782cfd8", "fusion_lat": 0.0, "rental_uris": {"ios": "https://dc.lft.to/lastmile_qr_scan", "android": "https://dc.lft.to/lastmile_qr_scan"}, "lon": -77.04364016666666, "type": "electric_scooter"}, {"bike_id": "6845f8e22526c60c99edc06c1a8eac0b", "is_reserved": 0, "fusion_lon": 0.0, "lat": 38.998214833333336, "is_disabled": 0, "name": "6845f8e22526c60c99edc06c1a8eac0b", "fusion_lat": 0.0, "rental_uris": {"ios": "https://dc.lft.to/lastmile_qr_scan", "android": "https://dc.lft.to/lastmile_qr_scan"}, "lon": -76.8836875, "type": "electric_bike"}, {"bike_id": "d2314a58c68f0281d024af2ba3220636", "is_reserved": 0, "fusion_lon": 0.0, "lat": 38.8639155, "is_disabled": 0, "name": "d2314a58c68f0281d024af2ba3220636", "fusion_lat": 0.0, "rental_uris": {"ios": "https://dc.lft.to/lastmile_qr_scan", "android": "https://dc.lft.to/lastmile_qr_scan"}, "lon": -76.989871, "type": "electric_bike"}, {"bike_id": "d1faee5b1565453c654c3d8a226d7bf3", "is_reserved": 0, "fusion_lon": 0.0, "lat": 38.89879116666667, "is_disabled": 0, "name": "d1faee5b1565453c654c3d8a226d7bf3", "fusion_lat": 0.0, "rental_uris": {"ios": "https://dc.lft.to/lastmile_qr_scan", "android": "https://dc.lft.to/lastmile_qr_scan"}, "lon": -76.93158516666666, "type": "electric_scooter"}, {"bike_id": "05aed8ceeeae03458baf8f62cac6c970", "is_reserved": 0, "fusion_lon": 0.0, "lat": 38.92898233333333, "is_disabled": 0, "name": "05aed8ceeeae03458baf8f62cac6c970", "fusion_lat": 0.0, "rental_uris": {"ios": "https://dc.lft.to/lastmile_qr_scan", "android": "https://dc.lft.to/lastmile_qr_scan"}, "lon": -77.0545705, "type": "electric_scooter"}, {"bike_id": "6f60e8a15fd1c781aa90a7bf57e2ab61", "is_reserved": 0, "fusion_lon": 0.0, "lat": 38.921486, "is_disabled": 0, "name": "6f60e8a15fd1c781aa90a7bf57e2ab61", "fusion_lat": 0.0, "rental_uris": {"ios": "https://dc.lft.to/lastmile_qr_scan", "android": "https://dc.lft.to/lastmile_qr_scan"}, "lon": -77.03479416666667, "type": "electric_scooter"}, {"bike_id": "df7c6ca2267d85c5737c340490898def", "is_reserved": 0, "fusion_lon": 0.0, "lat": 38.90044183333333, "is_disabled": 0, "name": "df7c6ca2267d85c5737c340490898def", "fusion_lat": 0.0, "rental_uris": {"ios": "https://dc.lft.to/lastmile_qr_scan", "android": "https://dc.lft.to/lastmile_qr_scan"}, "lon": -76.99902816666666, "type": "electric_scooter"}, {"bike_id": "88ad12d9f9beac03c0fc758c40f7bcec", "is_reserved": 0, "fusion_lon": 0.0, "lat": 38.8922325, "is_disabled": 0, "name": "88ad12d9f9beac03c0fc758c40f7bcec", "fusion_lat": 0.0, "rental_uris": {"ios": "https://dc.lft.to/lastmile_qr_scan", "android": "https://dc.lft.to/lastmile_qr_scan"}, "lon": -77.03165966666667, "type": "electric_scooter"}, {"bike_id": "bb199e29cd240b608f15fa7ff99d8a80", "is_reserved": 0, "fusion_lon": 0.0, "lat": 38.892229666666665, "is_disabled": 0, "name": "bb199e29cd240b608f15fa7ff99d8a80", "fusion_lat": 0.0, "rental_uris": {"ios": "https://dc.lft.to/lastmile_qr_scan", "android": "https://dc.lft.to/lastmile_qr_scan"}, "lon": -77.03094333333334, "type": "electric_scooter"}, {"bike_id": "dc973be45b58873fab793e065c680c2f", "is_reserved": 0, "fusion_lon": 0.0, "lat": 38.922194833333336, "is_disabled": 0, "name": "dc973be45b58873fab793e065c680c2f", "fusion_lat": 0.0, "rental_uris": {"ios": "https://dc.lft.to/lastmile_qr_scan", "android": "https://dc.lft.to/lastmile_qr_scan"}, "lon": -77.04256, "type": "electric_scooter"}, {"bike_id": "8d9060a49c94c862815b98292a0c47ad", "is_reserved": 0, "fusion_lon": 0.0, "lat": 38.90384666666667, "is_disabled": 0, "name": "8d9060a49c94c862815b98292a0c47ad", "fusion_lat": 0.0, "rental_uris": {"ios": "https://dc.lft.to/lastmile_qr_scan", "android": "https://dc.lft.to/lastmile_qr_scan"}, "lon": -77.03632583333334, "type": "electric_scooter"}, {"bike_id": "0f610c859f2ad6d9208a4e6c9f1d3e15", "is_reserved": 0, "fusion_lon": 0.0, "lat": 38.905206666666665, "is_disabled": 0, "name": "0f610c859f2ad6d9208a4e6c9f1d3e15", "fusion_lat": 0.0, "rental_uris": {"ios": "https://dc.lft.to/lastmile_qr_scan", "android": "https://dc.lft.to/lastmile_qr_scan"}, "lon": -77.06459733333334, "type": "electric_scooter"}, {"bike_id": "a077372d93c643494d80a1807b6884bd", "is_reserved": 0, "fusion_lon": 0.0, "lat": 38.91689916666667, "is_disabled": 0, "name": "a077372d93c643494d80a1807b6884bd", "fusion_lat": 0.0, "rental_uris": {"ios": "https://dc.lft.to/lastmile_qr_scan", "android": "https://dc.lft.to/lastmile_qr_scan"}, "lon": -77.03191733333334, "type": "electric_scooter"}, {"bike_id": "20a04e68195cbbc71725414e42030cdb", "is_reserved": 0, "fusion_lon": 0.0, "lat": 38.88045733333333, "is_disabled": 0, "name": "20a04e68195cbbc71725414e42030cdb", "fusion_lat": 0.0, "rental_uris": {"ios": "https://dc.lft.to/lastmile_qr_scan", "android": "https://dc.lft.to/lastmile_qr_scan"}, "lon": -77.013249, "type": "electric_bike"}, {"bike_id": "bbf1df10e6172028dc649fa4e5288be3", "is_reserved": 0, "fusion_lon": 0.0, "lat": 38.84272333333333, "is_disabled": 0, "name": "bbf1df10e6172028dc649fa4e5288be3", "fusion_lat": 0.0, "rental_uris": {"ios": "https://dc.lft.to/lastmile_qr_scan", "android": "https://dc.lft.to/lastmile_qr_scan"}, "lon": -76.98845266666666, "type": "electric_bike"}, {"bike_id": "2e189a54c47c01e9893177c303cc00ee", "is_reserved": 0, "fusion_lon": 0.0, "lat": 38.90316516666667, "is_disabled": 0, "name": "2e189a54c47c01e9893177c303cc00ee", "fusion_lat": 0.0, "rental_uris": {"ios": "https://dc.lft.to/lastmile_qr_scan", "android": "https://dc.lft.to/lastmile_qr_scan"}, "lon": -77.03326666666666, "type": "electric_scooter"}, {"bike_id": "9ba5587834311256f6e9aef95d2fe7a1", "is_reserved": 0, "fusion_lon": 0.0, "lat": 38.88492, "is_disabled": 0, "name": "9ba5587834311256f6e9aef95d2fe7a1", "fusion_lat": 0.0, "rental_uris": {"ios": "https://dc.lft.to/lastmile_qr_scan", "android": "https://dc.lft.to/lastmile_qr_scan"}, "lon": -77.00730366666667, "type": "electric_scooter"}, {"bike_id": "d65dfca92526ca499fd8f778410e1515", "is_reserved": 0, "fusion_lon": 0.0, "lat": 38.91710633333334, "is_disabled": 0, "name": "d65dfca92526ca499fd8f778410e1515", "fusion_lat": 0.0, "rental_uris": {"ios": "https://dc.lft.to/lastmile_qr_scan", "android": "https://dc.lft.to/lastmile_qr_scan"}, "lon": -77.03219683333333, "type": "electric_scooter"}, {"bike_id": "c9f53dd1434214270b899d5bd983bda2", "is_reserved": 0, "fusion_lon": 0.0, "lat": 38.90363633333333, "is_disabled": 0, "name": "c9f53dd1434214270b899d5bd983bda2", "fusion_lat": 0.0, "rental_uris": {"ios": "https://dc.lft.to/lastmile_qr_scan", "android": "https://dc.lft.to/lastmile_qr_scan"}, "lon": -77.03201316666667, "type": "electric_scooter"}, {"bike_id": "49f56105a79d38bb9e6e13db13102fe1", "is_reserved": 0, "fusion_lon": 0.0, "lat": 38.892352, "is_disabled": 0, "name": "49f56105a79d38bb9e6e13db13102fe1", "fusion_lat": 0.0, "rental_uris": {"ios": "https://dc.lft.to/lastmile_qr_scan", "android": "https://dc.lft.to/lastmile_qr_scan"}, "lon": -77.02207966666667, "type": "electric_scooter"}, {"bike_id": "e8f00363a6e42d18a303f888f0860cfd", "is_reserved": 0, "fusion_lon": 0.0, "lat": 38.83936716666667, "is_disabled": 0, "name": "e8f00363a6e42d18a303f888f0860cfd", "fusion_lat": 0.0, "rental_uris": {"ios": "https://dc.lft.to/lastmile_qr_scan", "android": "https://dc.lft.to/lastmile_qr_scan"}, "lon": -77.079039, "type": "electric_bike"}, {"bike_id": "6e8423f52e349389d4bb6b81e028ccd7", "is_reserved": 0, "fusion_lon": 0.0, "lat": 38.880856666666666, "is_disabled": 0, "name": "6e8423f52e349389d4bb6b81e028ccd7", "fusion_lat": 0.0, "rental_uris": {"ios": "https://dc.lft.to/lastmile_qr_scan", "android": "https://dc.lft.to/lastmile_qr_scan"}, "lon": -76.98537016666667, "type": "electric_scooter"}, {"bike_id": "786e0583561de593eec23c4a51d2701f", "is_reserved": 0, "fusion_lon": 0.0, "lat": 38.89830533333333, "is_disabled": 0, "name": "786e0583561de593eec23c4a51d2701f", "fusion_lat": 0.0, "rental_uris": {"ios": "https://dc.lft.to/lastmile_qr_scan", "android": "https://dc.lft.to/lastmile_qr_scan"}, "lon": -77.03340483333334, "type": "electric_scooter"}, {"bike_id": "92a0d0c7d77d2d2ee7da9cb9b928fdb6", "is_reserved": 0, "fusion_lon": 0.0, "lat": 38.89822766666666, "is_disabled": 0, "name": "92a0d0c7d77d2d2ee7da9cb9b928fdb6", "fusion_lat": 0.0, "rental_uris": {"ios": "https://dc.lft.to/lastmile_qr_scan", "android": "https://dc.lft.to/lastmile_qr_scan"}, "lon": -77.03318166666666, "type": "electric_scooter"}, {"bike_id": "295c6420373385fa15cf94db16472544", "is_reserved": 0, "fusion_lon": 0.0, "lat": 38.87073783333334, "is_disabled": 0, "name": "295c6420373385fa15cf94db16472544", "fusion_lat": 0.0, "rental_uris": {"ios": "https://dc.lft.to/lastmile_qr_scan", "android": "https://dc.lft.to/lastmile_qr_scan"}, "lon": -76.982366, "type": "electric_scooter"}, {"bike_id": "ce7cbf12952f685563f9d7178f79c6a3", "is_reserved": 0, "fusion_lon": 0.0, "lat": 38.9085225, "is_disabled": 0, "name": "ce7cbf12952f685563f9d7178f79c6a3", "fusion_lat": 0.0, "rental_uris": {"ios": "https://dc.lft.to/lastmile_qr_scan", "android": "https://dc.lft.to/lastmile_qr_scan"}, "lon": -77.0852985, "type": "electric_scooter"}, {"bike_id": "cb0d7be90e7a6ec055a99a9e9d24e1c0", "is_reserved": 0, "fusion_lon": 0.0, "lat": 38.9249015, "is_disabled": 0, "name": "cb0d7be90e7a6ec055a99a9e9d24e1c0", "fusion_lat": 0.0, "rental_uris": {"ios": "https://dc.lft.to/lastmile_qr_scan", "android": "https://dc.lft.to/lastmile_qr_scan"}, "lon": -77.02256266666667, "type": "electric_scooter"}, {"bike_id": "ddbd6ee1cdcf9450ab19afa2bb6ad3fe", "is_reserved": 0, "fusion_lon": 0.0, "lat": 38.88364766666667, "is_disabled": 0, "name": "ddbd6ee1cdcf9450ab19afa2bb6ad3fe", "fusion_lat": 0.0, "rental_uris": {"ios": "https://dc.lft.to/lastmile_qr_scan", "android": "https://dc.lft.to/lastmile_qr_scan"}, "lon": -77.03175166666666, "type": "electric_scooter"}, {"bike_id": "38bfb86c7ebc02f7c64e9fc440f44316", "is_reserved": 0, "fusion_lon": 0.0, "lat": 38.89232333333333, "is_disabled": 0, "name": "38bfb86c7ebc02f7c64e9fc440f44316", "fusion_lat": 0.0, "rental_uris": {"ios": "https://dc.lft.to/lastmile_qr_scan", "android": "https://dc.lft.to/lastmile_qr_scan"}, "lon": -77.05000366666667, "type": "electric_scooter"}, {"bike_id": "13d12a27f2e0509a693c5053e07de4a9", "is_reserved": 0, "fusion_lon": 0.0, "lat": 38.89230666666667, "is_disabled": 0, "name": "13d12a27f2e0509a693c5053e07de4a9", "fusion_lat": 0.0, "rental_uris": {"ios": "https://dc.lft.to/lastmile_qr_scan", "android": "https://dc.lft.to/lastmile_qr_scan"}, "lon": -77.02815866666667, "type": "electric_scooter"}, {"bike_id": "7291f8208bc235ea3b08fc083b340c12", "is_reserved": 0, "fusion_lon": 0.0, "lat": 38.91777966666667, "is_disabled": 0, "name": "7291f8208bc235ea3b08fc083b340c12", "fusion_lat": 0.0, "rental_uris": {"ios": "https://dc.lft.to/lastmile_qr_scan", "android": "https://dc.lft.to/lastmile_qr_scan"}, "lon": -77.023142, "type": "electric_scooter"}, {"bike_id": "b4d88770e1d863b56f9ba45d17ed0fa4", "is_reserved": 0, "fusion_lon": 0.0, "lat": 38.9275045, "is_disabled": 0, "name": "b4d88770e1d863b56f9ba45d17ed0fa4", "fusion_lat": 0.0, "rental_uris": {"ios": "https://dc.lft.to/lastmile_qr_scan", "android": "https://dc.lft.to/lastmile_qr_scan"}, "lon": -77.02528866666667, "type": "electric_scooter"}, {"bike_id": "4a03da7a9fd2cab953c241425de0da21", "is_reserved": 0, "fusion_lon": 0.0, "lat": 38.920634666666665, "is_disabled": 0, "name": "4a03da7a9fd2cab953c241425de0da21", "fusion_lat": 0.0, "rental_uris": {"ios": "https://dc.lft.to/lastmile_qr_scan", "android": "https://dc.lft.to/lastmile_qr_scan"}, "lon": -77.04193383333333, "type": "electric_scooter"}, {"bike_id": "8daf66d88c5e60fc45132dd197893a9a", "is_reserved": 0, "fusion_lon": 0.0, "lat": 38.8987875, "is_disabled": 0, "name": "8daf66d88c5e60fc45132dd197893a9a", "fusion_lat": 0.0, "rental_uris": {"ios": "https://dc.lft.to/lastmile_qr_scan", "android": "https://dc.lft.to/lastmile_qr_scan"}, "lon": -76.93189216666667, "type": "electric_scooter"}, {"bike_id": "b26e21dbfdb5ffdac82998cfdc332a2b", "is_reserved": 0, "fusion_lon": 0.0, "lat": 38.917165833333335, "is_disabled": 0, "name": "b26e21dbfdb5ffdac82998cfdc332a2b", "fusion_lat": 0.0, "rental_uris": {"ios": "https://dc.lft.to/lastmile_qr_scan", "android": "https://dc.lft.to/lastmile_qr_scan"}, "lon": -77.034575, "type": "electric_scooter"}, {"bike_id": "8171c58dc4aeb94642f8ddc48d9b7b73", "is_reserved": 0, "fusion_lon": 0.0, "lat": 38.93382483333333, "is_disabled": 0, "name": "8171c58dc4aeb94642f8ddc48d9b7b73", "fusion_lat": 0.0, "rental_uris": {"ios": "https://dc.lft.to/lastmile_qr_scan", "android": "https://dc.lft.to/lastmile_qr_scan"}, "lon": -77.02904533333333, "type": "electric_scooter"}, {"bike_id": "9e2202b19523831d64b1a250cb9b8774", "is_reserved": 0, "fusion_lon": 0.0, "lat": 38.892255166666665, "is_disabled": 0, "name": "9e2202b19523831d64b1a250cb9b8774", "fusion_lat": 0.0, "rental_uris": {"ios": "https://dc.lft.to/lastmile_qr_scan", "android": "https://dc.lft.to/lastmile_qr_scan"}, "lon": -77.0487115, "type": "electric_scooter"}, {"bike_id": "1ef8d2dc34d2219e63597b33f539ce98", "is_reserved": 0, "fusion_lon": 0.0, "lat": 38.89196966666667, "is_disabled": 0, "name": "1ef8d2dc34d2219e63597b33f539ce98", "fusion_lat": 0.0, "rental_uris": {"ios": "https://dc.lft.to/lastmile_qr_scan", "android": "https://dc.lft.to/lastmile_qr_scan"}, "lon": -77.02242566666666, "type": "electric_scooter"}, {"bike_id": "0cf46ada43d2c6670ea40e82ef6997a5", "is_reserved": 0, "fusion_lon": 0.0, "lat": 38.922716333333334, "is_disabled": 0, "name": "0cf46ada43d2c6670ea40e82ef6997a5", "fusion_lat": 0.0, "rental_uris": {"ios": "https://dc.lft.to/lastmile_qr_scan", "android": "https://dc.lft.to/lastmile_qr_scan"}, "lon": -77.0182135, "type": "electric_scooter"}, {"bike_id": "ab0b1d0db1cf98b4089b776d0ed3e6e1", "is_reserved": 0, "fusion_lon": 0.0, "lat": 38.927152166666666, "is_disabled": 0, "name": "ab0b1d0db1cf98b4089b776d0ed3e6e1", "fusion_lat": 0.0, "rental_uris": {"ios": "https://dc.lft.to/lastmile_qr_scan", "android": "https://dc.lft.to/lastmile_qr_scan"}, "lon": -77.04045333333333, "type": "electric_scooter"}, {"bike_id": "48c939509fcc927803cf3389ad691f24", "is_reserved": 0, "fusion_lon": 0.0, "lat": 38.90126033333333, "is_disabled": 0, "name": "48c939509fcc927803cf3389ad691f24", "fusion_lat": 0.0, "rental_uris": {"ios": "https://dc.lft.to/lastmile_qr_scan", "android": "https://dc.lft.to/lastmile_qr_scan"}, "lon": -76.99706283333333, "type": "electric_scooter"}, {"bike_id": "361c7ef5fa33bdc3bea1c1d1fe2b5e0c", "is_reserved": 0, "fusion_lon": 0.0, "lat": 38.91162966666667, "is_disabled": 0, "name": "361c7ef5fa33bdc3bea1c1d1fe2b5e0c", "fusion_lat": 0.0, "rental_uris": {"ios": "https://dc.lft.to/lastmile_qr_scan", "android": "https://dc.lft.to/lastmile_qr_scan"}, "lon": -76.98658283333333, "type": "electric_scooter"}, {"bike_id": "7511643bef808a316797a253641a1556", "is_reserved": 0, "fusion_lon": 0.0, "lat": 38.905294833333336, "is_disabled": 0, "name": "7511643bef808a316797a253641a1556", "fusion_lat": 0.0, "rental_uris": {"ios": "https://dc.lft.to/lastmile_qr_scan", "android": "https://dc.lft.to/lastmile_qr_scan"}, "lon": -77.0653495, "type": "electric_scooter"}, {"bike_id": "e04cbe96171de7a4104e7f025d509092", "is_reserved": 0, "fusion_lon": 0.0, "lat": 38.91670283333333, "is_disabled": 0, "name": "e04cbe96171de7a4104e7f025d509092", "fusion_lat": 0.0, "rental_uris": {"ios": "https://dc.lft.to/lastmile_qr_scan", "android": "https://dc.lft.to/lastmile_qr_scan"}, "lon": -77.02708166666666, "type": "electric_scooter"}, {"bike_id": "3d76e66e4f22c20b14cb32da02a90934", "is_reserved": 0, "fusion_lon": 0.0, "lat": 38.90374, "is_disabled": 0, "name": "3d76e66e4f22c20b14cb32da02a90934", "fusion_lat": 0.0, "rental_uris": {"ios": "https://dc.lft.to/lastmile_qr_scan", "android": "https://dc.lft.to/lastmile_qr_scan"}, "lon": -77.04001466666666, "type": "electric_scooter"}, {"bike_id": "2575fdddd7003518f182cc9f709a4b4e", "is_reserved": 0, "fusion_lon": 0.0, "lat": 38.887353, "is_disabled": 0, "name": "2575fdddd7003518f182cc9f709a4b4e", "fusion_lat": 0.0, "rental_uris": {"ios": "https://dc.lft.to/lastmile_qr_scan", "android": "https://dc.lft.to/lastmile_qr_scan"}, "lon": -77.02582116666666, "type": "electric_scooter"}, {"bike_id": "a9f31ab92b7548ea51697c004cf61431", "is_reserved": 0, "fusion_lon": 0.0, "lat": 38.9045135, "is_disabled": 0, "name": "a9f31ab92b7548ea51697c004cf61431", "fusion_lat": 0.0, "rental_uris": {"ios": "https://dc.lft.to/lastmile_qr_scan", "android": "https://dc.lft.to/lastmile_qr_scan"}, "lon": -77.048989, "type": "electric_scooter"}, {"bike_id": "2dc06c2369f2f07d36b71f98bf494a3a", "is_reserved": 0, "fusion_lon": 0.0, "lat": 38.925878166666664, "is_disabled": 0, "name": "2dc06c2369f2f07d36b71f98bf494a3a", "fusion_lat": 0.0, "rental_uris": {"ios": "https://dc.lft.to/lastmile_qr_scan", "android": "https://dc.lft.to/lastmile_qr_scan"}, "lon": -77.0506015, "type": "electric_scooter"}, {"bike_id": "7f0cc6eb58798de94c80e4719c535040", "is_reserved": 0, "fusion_lon": 0.0, "lat": 38.88437016666666, "is_disabled": 0, "name": "7f0cc6eb58798de94c80e4719c535040", "fusion_lat": 0.0, "rental_uris": {"ios": "https://dc.lft.to/lastmile_qr_scan", "android": "https://dc.lft.to/lastmile_qr_scan"}, "lon": -76.957539, "type": "electric_scooter"}, {"bike_id": "1693e6f7c2a57b58711fe95708b4f279", "is_reserved": 0, "fusion_lon": 0.0, "lat": 38.897611833333336, "is_disabled": 0, "name": "1693e6f7c2a57b58711fe95708b4f279", "fusion_lat": 0.0, "rental_uris": {"ios": "https://dc.lft.to/lastmile_qr_scan", "android": "https://dc.lft.to/lastmile_qr_scan"}, "lon": -76.94183366666667, "type": "electric_scooter"}, {"bike_id": "2e105491f033a81d076ba0a09ac02c01", "is_reserved": 0, "fusion_lon": 0.0, "lat": 38.93119933333333, "is_disabled": 0, "name": "2e105491f033a81d076ba0a09ac02c01", "fusion_lat": 0.0, "rental_uris": {"ios": "https://dc.lft.to/lastmile_qr_scan", "android": "https://dc.lft.to/lastmile_qr_scan"}, "lon": -77.02086166666666, "type": "electric_scooter"}, {"bike_id": "4990bae06ec2f1f8acaf1e25721a4acc", "is_reserved": 0, "fusion_lon": 0.0, "lat": 38.924648, "is_disabled": 0, "name": "4990bae06ec2f1f8acaf1e25721a4acc", "fusion_lat": 0.0, "rental_uris": {"ios": "https://dc.lft.to/lastmile_qr_scan", "android": "https://dc.lft.to/lastmile_qr_scan"}, "lon": -77.02162366666667, "type": "electric_scooter"}, {"bike_id": "002045f034e19481a46906e6bb59e669", "is_reserved": 0, "fusion_lon": 0.0, "lat": 38.90043166666667, "is_disabled": 0, "name": "002045f034e19481a46906e6bb59e669", "fusion_lat": 0.0, "rental_uris": {"ios": "https://dc.lft.to/lastmile_qr_scan", "android": "https://dc.lft.to/lastmile_qr_scan"}, "lon": -76.92475616666667, "type": "electric_scooter"}, {"bike_id": "5f1ff1ee102f668f2fab4ffaa2d1ad6b", "is_reserved": 0, "fusion_lon": 0.0, "lat": 38.900004, "is_disabled": 0, "name": "5f1ff1ee102f668f2fab4ffaa2d1ad6b", "fusion_lat": 0.0, "rental_uris": {"ios": "https://dc.lft.to/lastmile_qr_scan", "android": "https://dc.lft.to/lastmile_qr_scan"}, "lon": -77.040343, "type": "electric_scooter"}, {"bike_id": "3ee73f9397d0766fe85bba4f72813b30", "is_reserved": 0, "fusion_lon": 0.0, "lat": 38.91680366666667, "is_disabled": 0, "name": "3ee73f9397d0766fe85bba4f72813b30", "fusion_lat": 0.0, "rental_uris": {"ios": "https://dc.lft.to/lastmile_qr_scan", "android": "https://dc.lft.to/lastmile_qr_scan"}, "lon": -77.03191983333333, "type": "electric_scooter"}, {"bike_id": "3732d4e4e0eb8e216451835cc8dde07c", "is_reserved": 0, "fusion_lon": 0.0, "lat": 38.902392166666665, "is_disabled": 0, "name": "3732d4e4e0eb8e216451835cc8dde07c", "fusion_lat": 0.0, "rental_uris": {"ios": "https://dc.lft.to/lastmile_qr_scan", "android": "https://dc.lft.to/lastmile_qr_scan"}, "lon": -77.00197416666667, "type": "electric_scooter"}, {"bike_id": "2a1aac2e1adc0a0490e5514e1dfd4f03", "is_reserved": 0, "fusion_lon": 0.0, "lat": 38.934980333333336, "is_disabled": 0, "name": "2a1aac2e1adc0a0490e5514e1dfd4f03", "fusion_lat": 0.0, "rental_uris": {"ios": "https://dc.lft.to/lastmile_qr_scan", "android": "https://dc.lft.to/lastmile_qr_scan"}, "lon": -77.0284425, "type": "electric_scooter"}, {"bike_id": "adcae4b714bf8ba59587de478ed3e353", "is_reserved": 0, "fusion_lon": 0.0, "lat": 38.90320583333333, "is_disabled": 0, "name": "adcae4b714bf8ba59587de478ed3e353", "fusion_lat": 0.0, "rental_uris": {"ios": "https://dc.lft.to/lastmile_qr_scan", "android": "https://dc.lft.to/lastmile_qr_scan"}, "lon": -77.03302416666666, "type": "electric_scooter"}, {"bike_id": "85ca8aa69ac04d695e5185f9f6eb894d", "is_reserved": 0, "fusion_lon": 0.0, "lat": 38.886033833333336, "is_disabled": 0, "name": "85ca8aa69ac04d695e5185f9f6eb894d", "fusion_lat": 0.0, "rental_uris": {"ios": "https://dc.lft.to/lastmile_qr_scan", "android": "https://dc.lft.to/lastmile_qr_scan"}, "lon": -77.00565216666666, "type": "electric_scooter"}, {"bike_id": "39c62d523a4539c1a3824d1c3317e32d", "is_reserved": 0, "fusion_lon": 0.0, "lat": 38.87746933333333, "is_disabled": 0, "name": "39c62d523a4539c1a3824d1c3317e32d", "fusion_lat": 0.0, "rental_uris": {"ios": "https://dc.lft.to/lastmile_qr_scan", "android": "https://dc.lft.to/lastmile_qr_scan"}, "lon": -76.98056466666667, "type": "electric_bike"}, {"bike_id": "28ec98e103c84ad43289fe09766cf983", "is_reserved": 0, "fusion_lon": 0.0, "lat": 38.8543055, "is_disabled": 0, "name": "28ec98e103c84ad43289fe09766cf983", "fusion_lat": 0.0, "rental_uris": {"ios": "https://dc.lft.to/lastmile_qr_scan", "android": "https://dc.lft.to/lastmile_qr_scan"}, "lon": -76.909791, "type": "electric_bike"}, {"bike_id": "faa8dd43761b962ee442fdda83441c77", "is_reserved": 0, "fusion_lon": 0.0, "lat": 38.9104255, "is_disabled": 0, "name": "faa8dd43761b962ee442fdda83441c77", "fusion_lat": 0.0, "rental_uris": {"ios": "https://dc.lft.to/lastmile_qr_scan", "android": "https://dc.lft.to/lastmile_qr_scan"}, "lon": -77.02815616666666, "type": "electric_scooter"}, {"bike_id": "03ee152b8488940653c00b7607e8dc3e", "is_reserved": 0, "fusion_lon": 0.0, "lat": 38.84423483333333, "is_disabled": 0, "name": "03ee152b8488940653c00b7607e8dc3e", "fusion_lat": 0.0, "rental_uris": {"ios": "https://dc.lft.to/lastmile_qr_scan", "android": "https://dc.lft.to/lastmile_qr_scan"}, "lon": -76.99776416666667, "type": "electric_scooter"}, {"bike_id": "849f57365ab807b29e535ef4ecf35514", "is_reserved": 0, "fusion_lon": 0.0, "lat": 38.8922425, "is_disabled": 0, "name": "849f57365ab807b29e535ef4ecf35514", "fusion_lat": 0.0, "rental_uris": {"ios": "https://dc.lft.to/lastmile_qr_scan", "android": "https://dc.lft.to/lastmile_qr_scan"}, "lon": -77.0486235, "type": "electric_scooter"}, {"bike_id": "976fbef867c3461626560551e00e74bf", "is_reserved": 0, "fusion_lon": 0.0, "lat": 38.903846333333334, "is_disabled": 0, "name": "976fbef867c3461626560551e00e74bf", "fusion_lat": 0.0, "rental_uris": {"ios": "https://dc.lft.to/lastmile_qr_scan", "android": "https://dc.lft.to/lastmile_qr_scan"}, "lon": -77.053085, "type": "electric_scooter"}, {"bike_id": "f1f779842346e03132a798d849c36d91", "is_reserved": 0, "fusion_lon": 0.0, "lat": 38.810509333333336, "is_disabled": 0, "name": "f1f779842346e03132a798d849c36d91", "fusion_lat": 0.0, "rental_uris": {"ios": "https://dc.lft.to/lastmile_qr_scan", "android": "https://dc.lft.to/lastmile_qr_scan"}, "lon": -77.08504933333333, "type": "electric_bike"}, {"bike_id": "c4c15b15c89d0e84590624fc7f4a1903", "is_reserved": 0, "fusion_lon": 0.0, "lat": 38.89955833333333, "is_disabled": 0, "name": "c4c15b15c89d0e84590624fc7f4a1903", "fusion_lat": 0.0, "rental_uris": {"ios": "https://dc.lft.to/lastmile_qr_scan", "android": "https://dc.lft.to/lastmile_qr_scan"}, "lon": -77.032007, "type": "electric_scooter"}, {"bike_id": "c8a598c996804ec1677511cf5c774909", "is_reserved": 0, "fusion_lon": 0.0, "lat": 38.92319666666667, "is_disabled": 0, "name": "c8a598c996804ec1677511cf5c774909", "fusion_lat": 0.0, "rental_uris": {"ios": "https://dc.lft.to/lastmile_qr_scan", "android": "https://dc.lft.to/lastmile_qr_scan"}, "lon": -77.03908516666667, "type": "electric_scooter"}, {"bike_id": "7351b6d29128566023b5a3be03f51880", "is_reserved": 0, "fusion_lon": 0.0, "lat": 38.90868716666667, "is_disabled": 0, "name": "7351b6d29128566023b5a3be03f51880", "fusion_lat": 0.0, "rental_uris": {"ios": "https://dc.lft.to/lastmile_qr_scan", "android": "https://dc.lft.to/lastmile_qr_scan"}, "lon": -77.085965, "type": "electric_scooter"}, {"bike_id": "6c333df74677ead72486aa9793f348cf", "is_reserved": 0, "fusion_lon": 0.0, "lat": 38.92040866666667, "is_disabled": 0, "name": "6c333df74677ead72486aa9793f348cf", "fusion_lat": 0.0, "rental_uris": {"ios": "https://dc.lft.to/lastmile_qr_scan", "android": "https://dc.lft.to/lastmile_qr_scan"}, "lon": -77.04192566666667, "type": "electric_scooter"}, {"bike_id": "f8b17d80fb218826d29e151a9ff3f5fb", "is_reserved": 0, "fusion_lon": 0.0, "lat": 38.92470816666667, "is_disabled": 0, "name": "f8b17d80fb218826d29e151a9ff3f5fb", "fusion_lat": 0.0, "rental_uris": {"ios": "https://dc.lft.to/lastmile_qr_scan", "android": "https://dc.lft.to/lastmile_qr_scan"}, "lon": -77.03144, "type": "electric_scooter"}, {"bike_id": "10a31f2f8a923c32921a3a33c32fb299", "is_reserved": 0, "fusion_lon": 0.0, "lat": 38.901964166666666, "is_disabled": 0, "name": "10a31f2f8a923c32921a3a33c32fb299", "fusion_lat": 0.0, "rental_uris": {"ios": "https://dc.lft.to/lastmile_qr_scan", "android": "https://dc.lft.to/lastmile_qr_scan"}, "lon": -76.94181483333334, "type": "electric_scooter"}, {"bike_id": "340ad3911b48b3068b0fb7eb67cc23d3", "is_reserved": 0, "fusion_lon": 0.0, "lat": 38.89951833333333, "is_disabled": 0, "name": "340ad3911b48b3068b0fb7eb67cc23d3", "fusion_lat": 0.0, "rental_uris": {"ios": "https://dc.lft.to/lastmile_qr_scan", "android": "https://dc.lft.to/lastmile_qr_scan"}, "lon": -77.050593, "type": "electric_scooter"}, {"bike_id": "6c7aebb825ed86d66a81cf66e5ceb5ec", "is_reserved": 0, "fusion_lon": 0.0, "lat": 38.9172285, "is_disabled": 0, "name": "6c7aebb825ed86d66a81cf66e5ceb5ec", "fusion_lat": 0.0, "rental_uris": {"ios": "https://dc.lft.to/lastmile_qr_scan", "android": "https://dc.lft.to/lastmile_qr_scan"}, "lon": -77.02402516666666, "type": "electric_scooter"}, {"bike_id": "3eec6196d3a662c64ba6dc4446759372", "is_reserved": 0, "fusion_lon": 0.0, "lat": 38.893385333333335, "is_disabled": 0, "name": "3eec6196d3a662c64ba6dc4446759372", "fusion_lat": 0.0, "rental_uris": {"ios": "https://dc.lft.to/lastmile_qr_scan", "android": "https://dc.lft.to/lastmile_qr_scan"}, "lon": -76.9288255, "type": "electric_scooter"}, {"bike_id": "20e3fc492f99931a6282f29658aef418", "is_reserved": 0, "fusion_lon": 0.0, "lat": 38.917300833333336, "is_disabled": 0, "name": "20e3fc492f99931a6282f29658aef418", "fusion_lat": 0.0, "rental_uris": {"ios": "https://dc.lft.to/lastmile_qr_scan", "android": "https://dc.lft.to/lastmile_qr_scan"}, "lon": -77.036172, "type": "electric_scooter"}, {"bike_id": "201a84f4a805e353fb42fffbd8a2d5c4", "is_reserved": 0, "fusion_lon": 0.0, "lat": 38.90147433333333, "is_disabled": 0, "name": "201a84f4a805e353fb42fffbd8a2d5c4", "fusion_lat": 0.0, "rental_uris": {"ios": "https://dc.lft.to/lastmile_qr_scan", "android": "https://dc.lft.to/lastmile_qr_scan"}, "lon": -77.040394, "type": "electric_scooter"}, {"bike_id": "44960395020cc13b82e6d77655428d60", "is_reserved": 0, "fusion_lon": 0.0, "lat": 38.89909433333333, "is_disabled": 0, "name": "44960395020cc13b82e6d77655428d60", "fusion_lat": 0.0, "rental_uris": {"ios": "https://dc.lft.to/lastmile_qr_scan", "android": "https://dc.lft.to/lastmile_qr_scan"}, "lon": -76.93352383333334, "type": "electric_scooter"}, {"bike_id": "89050a771eac51a67ad2cfc48d028aad", "is_reserved": 0, "fusion_lon": 0.0, "lat": 38.871888, "is_disabled": 0, "name": "89050a771eac51a67ad2cfc48d028aad", "fusion_lat": 0.0, "rental_uris": {"ios": "https://dc.lft.to/lastmile_qr_scan", "android": "https://dc.lft.to/lastmile_qr_scan"}, "lon": -77.01218733333333, "type": "electric_scooter"}, {"bike_id": "b8bc4acb6d2332d5b45f5542dab0ddf9", "is_reserved": 0, "fusion_lon": 0.0, "lat": 38.907978166666666, "is_disabled": 0, "name": "b8bc4acb6d2332d5b45f5542dab0ddf9", "fusion_lat": 0.0, "rental_uris": {"ios": "https://dc.lft.to/lastmile_qr_scan", "android": "https://dc.lft.to/lastmile_qr_scan"}, "lon": -76.99702833333333, "type": "electric_scooter"}, {"bike_id": "ed43eb2bf593c656f21b70def81183d4", "is_reserved": 0, "fusion_lon": 0.0, "lat": 38.9111945, "is_disabled": 0, "name": "ed43eb2bf593c656f21b70def81183d4", "fusion_lat": 0.0, "rental_uris": {"ios": "https://dc.lft.to/lastmile_qr_scan", "android": "https://dc.lft.to/lastmile_qr_scan"}, "lon": -77.00245966666667, "type": "electric_scooter"}, {"bike_id": "ef3f73ffe154c1bd12b3e8c3595c6b9c", "is_reserved": 0, "fusion_lon": 0.0, "lat": 38.94180733333334, "is_disabled": 0, "name": "ef3f73ffe154c1bd12b3e8c3595c6b9c", "fusion_lat": 0.0, "rental_uris": {"ios": "https://dc.lft.to/lastmile_qr_scan", "android": "https://dc.lft.to/lastmile_qr_scan"}, "lon": -77.03094283333333, "type": "electric_scooter"}, {"bike_id": "9576f76856ac55aeef2bac992ef55b6c", "is_reserved": 0, "fusion_lon": 0.0, "lat": 38.858113, "is_disabled": 0, "name": "9576f76856ac55aeef2bac992ef55b6c", "fusion_lat": 0.0, "rental_uris": {"ios": "https://dc.lft.to/lastmile_qr_scan", "android": "https://dc.lft.to/lastmile_qr_scan"}, "lon": -76.9865515, "type": "electric_scooter"}, {"bike_id": "1aed74315a100486dc25dd233095ed29", "is_reserved": 0, "fusion_lon": 0.0, "lat": 38.8580965, "is_disabled": 0, "name": "1aed74315a100486dc25dd233095ed29", "fusion_lat": 0.0, "rental_uris": {"ios": "https://dc.lft.to/lastmile_qr_scan", "android": "https://dc.lft.to/lastmile_qr_scan"}, "lon": -76.98647833333334, "type": "electric_scooter"}, {"bike_id": "0edd21e9060ed856bbafd38de22b2ea4", "is_reserved": 0, "fusion_lon": 0.0, "lat": 38.89221366666666, "is_disabled": 0, "name": "0edd21e9060ed856bbafd38de22b2ea4", "fusion_lat": 0.0, "rental_uris": {"ios": "https://dc.lft.to/lastmile_qr_scan", "android": "https://dc.lft.to/lastmile_qr_scan"}, "lon": -77.02444266666667, "type": "electric_scooter"}, {"bike_id": "7f0544550fa46df4af66e6f438776b1f", "is_reserved": 0, "fusion_lon": 0.0, "lat": 38.9049, "is_disabled": 0, "name": "7f0544550fa46df4af66e6f438776b1f", "fusion_lat": 0.0, "rental_uris": {"ios": "https://dc.lft.to/lastmile_qr_scan", "android": "https://dc.lft.to/lastmile_qr_scan"}, "lon": -77.06015433333333, "type": "electric_scooter"}, {"bike_id": "0caf82f352fe92d0a217036eafe1f44e", "is_reserved": 0, "fusion_lon": 0.0, "lat": 38.90594, "is_disabled": 0, "name": "0caf82f352fe92d0a217036eafe1f44e", "fusion_lat": 0.0, "rental_uris": {"ios": "https://dc.lft.to/lastmile_qr_scan", "android": "https://dc.lft.to/lastmile_qr_scan"}, "lon": -77.06299483333333, "type": "electric_scooter"}, {"bike_id": "3af4b1d76d2a713cfb3432ef0587076c", "is_reserved": 0, "fusion_lon": 0.0, "lat": 38.8877, "is_disabled": 0, "name": "3af4b1d76d2a713cfb3432ef0587076c", "fusion_lat": 0.0, "rental_uris": {"ios": "https://dc.lft.to/lastmile_qr_scan", "android": "https://dc.lft.to/lastmile_qr_scan"}, "lon": -77.03013483333334, "type": "electric_scooter"}, {"bike_id": "dd9841f12c08214a42a8828e254cb4b3", "is_reserved": 0, "fusion_lon": 0.0, "lat": 38.897661, "is_disabled": 0, "name": "dd9841f12c08214a42a8828e254cb4b3", "fusion_lat": 0.0, "rental_uris": {"ios": "https://dc.lft.to/lastmile_qr_scan", "android": "https://dc.lft.to/lastmile_qr_scan"}, "lon": -76.98547983333333, "type": "electric_scooter"}, {"bike_id": "1e5140ee3242e188d135b51f4ca5926b", "is_reserved": 0, "fusion_lon": 0.0, "lat": 38.9096045, "is_disabled": 0, "name": "1e5140ee3242e188d135b51f4ca5926b", "fusion_lat": 0.0, "rental_uris": {"ios": "https://dc.lft.to/lastmile_qr_scan", "android": "https://dc.lft.to/lastmile_qr_scan"}, "lon": -77.048627, "type": "electric_scooter"}, {"bike_id": "a86d80794c4a646b87e13d3da5547074", "is_reserved": 0, "fusion_lon": 0.0, "lat": 38.902814166666666, "is_disabled": 0, "name": "a86d80794c4a646b87e13d3da5547074", "fusion_lat": 0.0, "rental_uris": {"ios": "https://dc.lft.to/lastmile_qr_scan", "android": "https://dc.lft.to/lastmile_qr_scan"}, "lon": -77.0384975, "type": "electric_scooter"}, {"bike_id": "d1c77277e106a255adfc9fa3cb901322", "is_reserved": 0, "fusion_lon": 0.0, "lat": 38.92880316666667, "is_disabled": 0, "name": "d1c77277e106a255adfc9fa3cb901322", "fusion_lat": 0.0, "rental_uris": {"ios": "https://dc.lft.to/lastmile_qr_scan", "android": "https://dc.lft.to/lastmile_qr_scan"}, "lon": -77.0332545, "type": "electric_scooter"}, {"bike_id": "0c46ab88f493f456b9e948f7d17bb4fb", "is_reserved": 0, "fusion_lon": 0.0, "lat": 38.902584, "is_disabled": 0, "name": "0c46ab88f493f456b9e948f7d17bb4fb", "fusion_lat": 0.0, "rental_uris": {"ios": "https://dc.lft.to/lastmile_qr_scan", "android": "https://dc.lft.to/lastmile_qr_scan"}, "lon": -77.039327, "type": "electric_scooter"}, {"bike_id": "000fe6e9b41b50ac6a0ff05605870575", "is_reserved": 0, "fusion_lon": 0.0, "lat": 38.8458875, "is_disabled": 0, "name": "000fe6e9b41b50ac6a0ff05605870575", "fusion_lat": 0.0, "rental_uris": {"ios": "https://dc.lft.to/lastmile_qr_scan", "android": "https://dc.lft.to/lastmile_qr_scan"}, "lon": -76.981614, "type": "electric_scooter"}, {"bike_id": "a80e6fe3f50b06d6b68c78cc3f75f817", "is_reserved": 0, "fusion_lon": 0.0, "lat": 38.91828483333333, "is_disabled": 0, "name": "a80e6fe3f50b06d6b68c78cc3f75f817", "fusion_lat": 0.0, "rental_uris": {"ios": "https://dc.lft.to/lastmile_qr_scan", "android": "https://dc.lft.to/lastmile_qr_scan"}, "lon": -77.0352745, "type": "electric_scooter"}, {"bike_id": "71fbf8060961286c291a1f48974d119d", "is_reserved": 0, "fusion_lon": 0.0, "lat": 38.93514016666666, "is_disabled": 0, "name": "71fbf8060961286c291a1f48974d119d", "fusion_lat": 0.0, "rental_uris": {"ios": "https://dc.lft.to/lastmile_qr_scan", "android": "https://dc.lft.to/lastmile_qr_scan"}, "lon": -77.0329175, "type": "electric_scooter"}, {"bike_id": "5841d24a8f6922703c079b93216bac4e", "is_reserved": 0, "fusion_lon": 0.0, "lat": 38.920719166666665, "is_disabled": 0, "name": "5841d24a8f6922703c079b93216bac4e", "fusion_lat": 0.0, "rental_uris": {"ios": "https://dc.lft.to/lastmile_qr_scan", "android": "https://dc.lft.to/lastmile_qr_scan"}, "lon": -77.022083, "type": "electric_scooter"}, {"bike_id": "3e849921a232342e93f12b9d0650b6a2", "is_reserved": 0, "fusion_lon": 0.0, "lat": 38.886760333333335, "is_disabled": 0, "name": "3e849921a232342e93f12b9d0650b6a2", "fusion_lat": 0.0, "rental_uris": {"ios": "https://dc.lft.to/lastmile_qr_scan", "android": "https://dc.lft.to/lastmile_qr_scan"}, "lon": -77.01366866666666, "type": "electric_scooter"}, {"bike_id": "8380cc9b20798870600d6352203edcf8", "is_reserved": 0, "fusion_lon": 0.0, "lat": 38.92003783333333, "is_disabled": 0, "name": "8380cc9b20798870600d6352203edcf8", "fusion_lat": 0.0, "rental_uris": {"ios": "https://dc.lft.to/lastmile_qr_scan", "android": "https://dc.lft.to/lastmile_qr_scan"}, "lon": -77.03232066666666, "type": "electric_scooter"}, {"bike_id": "87b118dfa3b289446c5d787640077939", "is_reserved": 0, "fusion_lon": 0.0, "lat": 38.9156665, "is_disabled": 0, "name": "87b118dfa3b289446c5d787640077939", "fusion_lat": 0.0, "rental_uris": {"ios": "https://dc.lft.to/lastmile_qr_scan", "android": "https://dc.lft.to/lastmile_qr_scan"}, "lon": -77.033679, "type": "electric_scooter"}, {"bike_id": "53a8c7496085ec7fb2c0b945b8a16d9d", "is_reserved": 0, "fusion_lon": 0.0, "lat": 38.93612866666667, "is_disabled": 0, "name": "53a8c7496085ec7fb2c0b945b8a16d9d", "fusion_lat": 0.0, "rental_uris": {"ios": "https://dc.lft.to/lastmile_qr_scan", "android": "https://dc.lft.to/lastmile_qr_scan"}, "lon": -77.037808, "type": "electric_scooter"}, {"bike_id": "a543d0a4a32f018e2b595c555ea5cb7a", "is_reserved": 0, "fusion_lon": 0.0, "lat": 38.90616133333333, "is_disabled": 0, "name": "a543d0a4a32f018e2b595c555ea5cb7a", "fusion_lat": 0.0, "rental_uris": {"ios": "https://dc.lft.to/lastmile_qr_scan", "android": "https://dc.lft.to/lastmile_qr_scan"}, "lon": -77.00873116666666, "type": "electric_scooter"}, {"bike_id": "fa2238444a8de72aa30699b330ec1827", "is_reserved": 0, "fusion_lon": 0.0, "lat": 38.90383933333333, "is_disabled": 0, "name": "fa2238444a8de72aa30699b330ec1827", "fusion_lat": 0.0, "rental_uris": {"ios": "https://dc.lft.to/lastmile_qr_scan", "android": "https://dc.lft.to/lastmile_qr_scan"}, "lon": -77.04532233333333, "type": "electric_scooter"}, {"bike_id": "3500cfc008600cba1087626fb9e05c88", "is_reserved": 0, "fusion_lon": 0.0, "lat": 38.844244333333336, "is_disabled": 0, "name": "3500cfc008600cba1087626fb9e05c88", "fusion_lat": 0.0, "rental_uris": {"ios": "https://dc.lft.to/lastmile_qr_scan", "android": "https://dc.lft.to/lastmile_qr_scan"}, "lon": -76.997815, "type": "electric_scooter"}, {"bike_id": "24681aec29c3ced251aaac724c74d35f", "is_reserved": 0, "fusion_lon": 0.0, "lat": 38.903937, "is_disabled": 0, "name": "24681aec29c3ced251aaac724c74d35f", "fusion_lat": 0.0, "rental_uris": {"ios": "https://dc.lft.to/lastmile_qr_scan", "android": "https://dc.lft.to/lastmile_qr_scan"}, "lon": -77.042069, "type": "electric_scooter"}, {"bike_id": "ae132baab1598aa005b170c310602c6e", "is_reserved": 0, "fusion_lon": 0.0, "lat": 38.90382916666667, "is_disabled": 0, "name": "ae132baab1598aa005b170c310602c6e", "fusion_lat": 0.0, "rental_uris": {"ios": "https://dc.lft.to/lastmile_qr_scan", "android": "https://dc.lft.to/lastmile_qr_scan"}, "lon": -77.0438105, "type": "electric_scooter"}, {"bike_id": "604f23d114a37792b37812376f8a16b0", "is_reserved": 0, "fusion_lon": 0.0, "lat": 38.9282715, "is_disabled": 0, "name": "604f23d114a37792b37812376f8a16b0", "fusion_lat": 0.0, "rental_uris": {"ios": "https://dc.lft.to/lastmile_qr_scan", "android": "https://dc.lft.to/lastmile_qr_scan"}, "lon": -77.0132015, "type": "electric_scooter"}, {"bike_id": "98f26c466c0da39adf987562dfb821d1", "is_reserved": 0, "fusion_lon": 0.0, "lat": 38.904618, "is_disabled": 0, "name": "98f26c466c0da39adf987562dfb821d1", "fusion_lat": 0.0, "rental_uris": {"ios": "https://dc.lft.to/lastmile_qr_scan", "android": "https://dc.lft.to/lastmile_qr_scan"}, "lon": -77.0394665, "type": "electric_scooter"}, {"bike_id": "117e9cbe138bd708f634dc14efc35c86", "is_reserved": 0, "fusion_lon": 0.0, "lat": 38.87182133333334, "is_disabled": 0, "name": "117e9cbe138bd708f634dc14efc35c86", "fusion_lat": 0.0, "rental_uris": {"ios": "https://dc.lft.to/lastmile_qr_scan", "android": "https://dc.lft.to/lastmile_qr_scan"}, "lon": -77.00609866666667, "type": "electric_scooter"}, {"bike_id": "c9bab7735d47eb85df8c44b10fd12c2c", "is_reserved": 0, "fusion_lon": 0.0, "lat": 38.959569, "is_disabled": 0, "name": "c9bab7735d47eb85df8c44b10fd12c2c", "fusion_lat": 0.0, "rental_uris": {"ios": "https://dc.lft.to/lastmile_qr_scan", "android": "https://dc.lft.to/lastmile_qr_scan"}, "lon": -77.10094216666667, "type": "electric_bike"}, {"bike_id": "c9ff31e2a210110cebf9c55a3a9af8a2", "is_reserved": 0, "fusion_lon": 0.0, "lat": 38.8978765, "is_disabled": 0, "name": "c9ff31e2a210110cebf9c55a3a9af8a2", "fusion_lat": 0.0, "rental_uris": {"ios": "https://dc.lft.to/lastmile_qr_scan", "android": "https://dc.lft.to/lastmile_qr_scan"}, "lon": -76.99956, "type": "electric_bike"}, {"bike_id": "9cc30281c015ea13c2241494c8ea30dc", "is_reserved": 0, "fusion_lon": 0.0, "lat": 38.91953433333333, "is_disabled": 0, "name": "9cc30281c015ea13c2241494c8ea30dc", "fusion_lat": 0.0, "rental_uris": {"ios": "https://dc.lft.to/lastmile_qr_scan", "android": "https://dc.lft.to/lastmile_qr_scan"}, "lon": -77.02487066666667, "type": "electric_scooter"}, {"bike_id": "12790b1797a2acb521762db7a993956e", "is_reserved": 0, "fusion_lon": 0.0, "lat": 38.884981, "is_disabled": 0, "name": "12790b1797a2acb521762db7a993956e", "fusion_lat": 0.0, "rental_uris": {"ios": "https://dc.lft.to/lastmile_qr_scan", "android": "https://dc.lft.to/lastmile_qr_scan"}, "lon": -77.00731283333333, "type": "electric_scooter"}, {"bike_id": "385f45050cc8658c4dbf3744e04e3255", "is_reserved": 0, "fusion_lon": 0.0, "lat": 38.897201333333335, "is_disabled": 0, "name": "385f45050cc8658c4dbf3744e04e3255", "fusion_lat": 0.0, "rental_uris": {"ios": "https://dc.lft.to/lastmile_qr_scan", "android": "https://dc.lft.to/lastmile_qr_scan"}, "lon": -77.0271255, "type": "electric_scooter"}, {"bike_id": "6713f543e7cc44aa1454c56b5cc59667", "is_reserved": 0, "fusion_lon": 0.0, "lat": 38.902690166666666, "is_disabled": 0, "name": "6713f543e7cc44aa1454c56b5cc59667", "fusion_lat": 0.0, "rental_uris": {"ios": "https://dc.lft.to/lastmile_qr_scan", "android": "https://dc.lft.to/lastmile_qr_scan"}, "lon": -77.0334995, "type": "electric_scooter"}, {"bike_id": "00351d3577ff2f7333835995fb2f9c9f", "is_reserved": 0, "fusion_lon": 0.0, "lat": 38.895537, "is_disabled": 0, "name": "00351d3577ff2f7333835995fb2f9c9f", "fusion_lat": 0.0, "rental_uris": {"ios": "https://dc.lft.to/lastmile_qr_scan", "android": "https://dc.lft.to/lastmile_qr_scan"}, "lon": -77.018966, "type": "electric_scooter"}, {"bike_id": "7629026b19ed1d6003251244b400d383", "is_reserved": 0, "fusion_lon": 0.0, "lat": 38.9024165, "is_disabled": 0, "name": "7629026b19ed1d6003251244b400d383", "fusion_lat": 0.0, "rental_uris": {"ios": "https://dc.lft.to/lastmile_qr_scan", "android": "https://dc.lft.to/lastmile_qr_scan"}, "lon": -77.02696683333333, "type": "electric_scooter"}, {"bike_id": "07b7ed5a051af5464fdcf76e08c5fde5", "is_reserved": 0, "fusion_lon": 0.0, "lat": 38.89627183333333, "is_disabled": 0, "name": "07b7ed5a051af5464fdcf76e08c5fde5", "fusion_lat": 0.0, "rental_uris": {"ios": "https://dc.lft.to/lastmile_qr_scan", "android": "https://dc.lft.to/lastmile_qr_scan"}, "lon": -76.984972, "type": "electric_scooter"}, {"bike_id": "96c0cc5b43bf3d5997b5797a941ff72b", "is_reserved": 0, "fusion_lon": 0.0, "lat": 38.92374616666667, "is_disabled": 0, "name": "96c0cc5b43bf3d5997b5797a941ff72b", "fusion_lat": 0.0, "rental_uris": {"ios": "https://dc.lft.to/lastmile_qr_scan", "android": "https://dc.lft.to/lastmile_qr_scan"}, "lon": -77.04126333333333, "type": "electric_scooter"}, {"bike_id": "138666867c449bf83adcf054d798e5ed", "is_reserved": 0, "fusion_lon": 0.0, "lat": 38.906370333333335, "is_disabled": 0, "name": "138666867c449bf83adcf054d798e5ed", "fusion_lat": 0.0, "rental_uris": {"ios": "https://dc.lft.to/lastmile_qr_scan", "android": "https://dc.lft.to/lastmile_qr_scan"}, "lon": -77.04643183333333, "type": "electric_scooter"}, {"bike_id": "50d07fe65e7c549b7cc7278e98b74a26", "is_reserved": 0, "fusion_lon": 0.0, "lat": 39.0563585, "is_disabled": 0, "name": "50d07fe65e7c549b7cc7278e98b74a26", "fusion_lat": 0.0, "rental_uris": {"ios": "https://dc.lft.to/lastmile_qr_scan", "android": "https://dc.lft.to/lastmile_qr_scan"}, "lon": -77.12525433333333, "type": "electric_bike"}, {"bike_id": "debc21c68e624fbbbca6b6380f3d5b2c", "is_reserved": 0, "fusion_lon": 0.0, "lat": 38.89232166666667, "is_disabled": 0, "name": "debc21c68e624fbbbca6b6380f3d5b2c", "fusion_lat": 0.0, "rental_uris": {"ios": "https://dc.lft.to/lastmile_qr_scan", "android": "https://dc.lft.to/lastmile_qr_scan"}, "lon": -77.02176216666666, "type": "electric_scooter"}, {"bike_id": "48cb5059f0f638d4842b49d265b2e62d", "is_reserved": 0, "fusion_lon": 0.0, "lat": 38.88513233333333, "is_disabled": 0, "name": "48cb5059f0f638d4842b49d265b2e62d", "fusion_lat": 0.0, "rental_uris": {"ios": "https://dc.lft.to/lastmile_qr_scan", "android": "https://dc.lft.to/lastmile_qr_scan"}, "lon": -77.0057135, "type": "electric_scooter"}, {"bike_id": "0d4b33f5767889b2fef0d1fc5203944f", "is_reserved": 0, "fusion_lon": 0.0, "lat": 38.89625816666667, "is_disabled": 0, "name": "0d4b33f5767889b2fef0d1fc5203944f", "fusion_lat": 0.0, "rental_uris": {"ios": "https://dc.lft.to/lastmile_qr_scan", "android": "https://dc.lft.to/lastmile_qr_scan"}, "lon": -76.9985105, "type": "electric_scooter"}, {"bike_id": "55943476c546bc843d16e4474d4532c4", "is_reserved": 0, "fusion_lon": 0.0, "lat": 38.917206, "is_disabled": 0, "name": "55943476c546bc843d16e4474d4532c4", "fusion_lat": 0.0, "rental_uris": {"ios": "https://dc.lft.to/lastmile_qr_scan", "android": "https://dc.lft.to/lastmile_qr_scan"}, "lon": -77.03206916666667, "type": "electric_scooter"}, {"bike_id": "c2a12ef86cf7251fda3fcea6187c2408", "is_reserved": 0, "fusion_lon": 0.0, "lat": 38.8955315, "is_disabled": 0, "name": "c2a12ef86cf7251fda3fcea6187c2408", "fusion_lat": 0.0, "rental_uris": {"ios": "https://dc.lft.to/lastmile_qr_scan", "android": "https://dc.lft.to/lastmile_qr_scan"}, "lon": -77.01109333333333, "type": "electric_scooter"}, {"bike_id": "20745aab2855a357c17ceb5101aeb2d3", "is_reserved": 0, "fusion_lon": 0.0, "lat": 38.90299683333333, "is_disabled": 0, "name": "20745aab2855a357c17ceb5101aeb2d3", "fusion_lat": 0.0, "rental_uris": {"ios": "https://dc.lft.to/lastmile_qr_scan", "android": "https://dc.lft.to/lastmile_qr_scan"}, "lon": -76.99860233333334, "type": "electric_scooter"}, {"bike_id": "89b943d9e3c97cdf01e9ded85fc084d9", "is_reserved": 0, "fusion_lon": 0.0, "lat": 38.893733166666664, "is_disabled": 0, "name": "89b943d9e3c97cdf01e9ded85fc084d9", "fusion_lat": 0.0, "rental_uris": {"ios": "https://dc.lft.to/lastmile_qr_scan", "android": "https://dc.lft.to/lastmile_qr_scan"}, "lon": -76.94962366666667, "type": "electric_scooter"}, {"bike_id": "30598fe605ef222b484ba11c5a005ca9", "is_reserved": 0, "fusion_lon": 0.0, "lat": 38.90451766666666, "is_disabled": 0, "name": "30598fe605ef222b484ba11c5a005ca9", "fusion_lat": 0.0, "rental_uris": {"ios": "https://dc.lft.to/lastmile_qr_scan", "android": "https://dc.lft.to/lastmile_qr_scan"}, "lon": -76.99625583333334, "type": "electric_scooter"}, {"bike_id": "5f67f7478378e1652be9a7959131de18", "is_reserved": 0, "fusion_lon": 0.0, "lat": 38.90266466666667, "is_disabled": 0, "name": "5f67f7478378e1652be9a7959131de18", "fusion_lat": 0.0, "rental_uris": {"ios": "https://dc.lft.to/lastmile_qr_scan", "android": "https://dc.lft.to/lastmile_qr_scan"}, "lon": -77.03332533333334, "type": "electric_scooter"}, {"bike_id": "9056f13bcd5d15ea89a8743ce33969dc", "is_reserved": 0, "fusion_lon": 0.0, "lat": 38.9226245, "is_disabled": 0, "name": "9056f13bcd5d15ea89a8743ce33969dc", "fusion_lat": 0.0, "rental_uris": {"ios": "https://dc.lft.to/lastmile_qr_scan", "android": "https://dc.lft.to/lastmile_qr_scan"}, "lon": -77.018288, "type": "electric_scooter"}, {"bike_id": "ea69dcc5c563fed02baada683438b261", "is_reserved": 0, "fusion_lon": 0.0, "lat": 38.920486333333336, "is_disabled": 0, "name": "ea69dcc5c563fed02baada683438b261", "fusion_lat": 0.0, "rental_uris": {"ios": "https://dc.lft.to/lastmile_qr_scan", "android": "https://dc.lft.to/lastmile_qr_scan"}, "lon": -77.0480695, "type": "electric_scooter"}, {"bike_id": "2529daa46b24e1ab8b14e554d4d89611", "is_reserved": 0, "fusion_lon": 0.0, "lat": 38.842959666666665, "is_disabled": 0, "name": "2529daa46b24e1ab8b14e554d4d89611", "fusion_lat": 0.0, "rental_uris": {"ios": "https://dc.lft.to/lastmile_qr_scan", "android": "https://dc.lft.to/lastmile_qr_scan"}, "lon": -76.9994475, "type": "electric_scooter"}, {"bike_id": "6edb886a06c1e6915928d27f82cf89c3", "is_reserved": 0, "fusion_lon": 0.0, "lat": 38.91199116666667, "is_disabled": 0, "name": "6edb886a06c1e6915928d27f82cf89c3", "fusion_lat": 0.0, "rental_uris": {"ios": "https://dc.lft.to/lastmile_qr_scan", "android": "https://dc.lft.to/lastmile_qr_scan"}, "lon": -77.016141, "type": "electric_scooter"}, {"bike_id": "71562dca0fe8dccdc77dfe25e6320c18", "is_reserved": 0, "fusion_lon": 0.0, "lat": 38.918332, "is_disabled": 0, "name": "71562dca0fe8dccdc77dfe25e6320c18", "fusion_lat": 0.0, "rental_uris": {"ios": "https://dc.lft.to/lastmile_qr_scan", "android": "https://dc.lft.to/lastmile_qr_scan"}, "lon": -77.045202, "type": "electric_scooter"}, {"bike_id": "f22339760851dc6d7f5520ef7e8a9815", "is_reserved": 0, "fusion_lon": 0.0, "lat": 38.8807705, "is_disabled": 0, "name": "f22339760851dc6d7f5520ef7e8a9815", "fusion_lat": 0.0, "rental_uris": {"ios": "https://dc.lft.to/lastmile_qr_scan", "android": "https://dc.lft.to/lastmile_qr_scan"}, "lon": -76.9852885, "type": "electric_scooter"}, {"bike_id": "cf653151d6accaa494827c49d4f8139c", "is_reserved": 0, "fusion_lon": 0.0, "lat": 38.94178633333333, "is_disabled": 0, "name": "cf653151d6accaa494827c49d4f8139c", "fusion_lat": 0.0, "rental_uris": {"ios": "https://dc.lft.to/lastmile_qr_scan", "android": "https://dc.lft.to/lastmile_qr_scan"}, "lon": -77.02499416666667, "type": "electric_scooter"}, {"bike_id": "00306462027c6d66add9572d8bc1caca", "is_reserved": 0, "fusion_lon": 0.0, "lat": 38.892007166666666, "is_disabled": 0, "name": "00306462027c6d66add9572d8bc1caca", "fusion_lat": 0.0, "rental_uris": {"ios": "https://dc.lft.to/lastmile_qr_scan", "android": "https://dc.lft.to/lastmile_qr_scan"}, "lon": -77.01538816666667, "type": "electric_scooter"}, {"bike_id": "695846c341b1b2fe1cd6c895e684fea6", "is_reserved": 0, "fusion_lon": 0.0, "lat": 38.925795666666666, "is_disabled": 0, "name": "695846c341b1b2fe1cd6c895e684fea6", "fusion_lat": 0.0, "rental_uris": {"ios": "https://dc.lft.to/lastmile_qr_scan", "android": "https://dc.lft.to/lastmile_qr_scan"}, "lon": -77.03910566666667, "type": "electric_scooter"}, {"bike_id": "1a09947dbbf1df57e0d2276f4b1b677b", "is_reserved": 0, "fusion_lon": 0.0, "lat": 38.927973333333334, "is_disabled": 0, "name": "1a09947dbbf1df57e0d2276f4b1b677b", "fusion_lat": 0.0, "rental_uris": {"ios": "https://dc.lft.to/lastmile_qr_scan", "android": "https://dc.lft.to/lastmile_qr_scan"}, "lon": -77.05535483333334, "type": "electric_scooter"}, {"bike_id": "9ffeb1e12a0232b49e8ea220d99006de", "is_reserved": 0, "fusion_lon": 0.0, "lat": 38.89823833333333, "is_disabled": 0, "name": "9ffeb1e12a0232b49e8ea220d99006de", "fusion_lat": 0.0, "rental_uris": {"ios": "https://dc.lft.to/lastmile_qr_scan", "android": "https://dc.lft.to/lastmile_qr_scan"}, "lon": -77.02944283333333, "type": "electric_scooter"}, {"bike_id": "343b014b0c8f9e63a960ad909442f5bc", "is_reserved": 0, "fusion_lon": 0.0, "lat": 38.89766133333333, "is_disabled": 0, "name": "343b014b0c8f9e63a960ad909442f5bc", "fusion_lat": 0.0, "rental_uris": {"ios": "https://dc.lft.to/lastmile_qr_scan", "android": "https://dc.lft.to/lastmile_qr_scan"}, "lon": -77.030291, "type": "electric_scooter"}, {"bike_id": "91ebc8a3620e6fdbd64ea5ff8a64c592", "is_reserved": 0, "fusion_lon": 0.0, "lat": 38.90576633333333, "is_disabled": 0, "name": "91ebc8a3620e6fdbd64ea5ff8a64c592", "fusion_lat": 0.0, "rental_uris": {"ios": "https://dc.lft.to/lastmile_qr_scan", "android": "https://dc.lft.to/lastmile_qr_scan"}, "lon": -77.03449833333333, "type": "electric_scooter"}, {"bike_id": "fb6e947a7d37dd7290889d09eab19c57", "is_reserved": 0, "fusion_lon": 0.0, "lat": 38.91723266666666, "is_disabled": 0, "name": "fb6e947a7d37dd7290889d09eab19c57", "fusion_lat": 0.0, "rental_uris": {"ios": "https://dc.lft.to/lastmile_qr_scan", "android": "https://dc.lft.to/lastmile_qr_scan"}, "lon": -77.031166, "type": "electric_scooter"}, {"bike_id": "50023f47b4fe5e335929103b15fddd7a", "is_reserved": 0, "fusion_lon": 0.0, "lat": 38.898405333333336, "is_disabled": 0, "name": "50023f47b4fe5e335929103b15fddd7a", "fusion_lat": 0.0, "rental_uris": {"ios": "https://dc.lft.to/lastmile_qr_scan", "android": "https://dc.lft.to/lastmile_qr_scan"}, "lon": -77.0328375, "type": "electric_scooter"}, {"bike_id": "a87c2a5cdf42abbeef52c7019cd004a9", "is_reserved": 0, "fusion_lon": 0.0, "lat": 38.8834045, "is_disabled": 0, "name": "a87c2a5cdf42abbeef52c7019cd004a9", "fusion_lat": 0.0, "rental_uris": {"ios": "https://dc.lft.to/lastmile_qr_scan", "android": "https://dc.lft.to/lastmile_qr_scan"}, "lon": -77.01738983333334, "type": "electric_scooter"}, {"bike_id": "01a93303ed9c90339d827c3f73be0f65", "is_reserved": 0, "fusion_lon": 0.0, "lat": 38.906005666666665, "is_disabled": 0, "name": "01a93303ed9c90339d827c3f73be0f65", "fusion_lat": 0.0, "rental_uris": {"ios": "https://dc.lft.to/lastmile_qr_scan", "android": "https://dc.lft.to/lastmile_qr_scan"}, "lon": -77.06264283333333, "type": "electric_scooter"}, {"bike_id": "0a3e6a176318a5ae0fd8ef9bf37f2958", "is_reserved": 0, "fusion_lon": 0.0, "lat": 38.89802783333333, "is_disabled": 0, "name": "0a3e6a176318a5ae0fd8ef9bf37f2958", "fusion_lat": 0.0, "rental_uris": {"ios": "https://dc.lft.to/lastmile_qr_scan", "android": "https://dc.lft.to/lastmile_qr_scan"}, "lon": -77.03181583333334, "type": "electric_scooter"}, {"bike_id": "37393f7eedfee22a157e64ca9b456bc6", "is_reserved": 0, "fusion_lon": 0.0, "lat": 38.886099, "is_disabled": 0, "name": "37393f7eedfee22a157e64ca9b456bc6", "fusion_lat": 0.0, "rental_uris": {"ios": "https://dc.lft.to/lastmile_qr_scan", "android": "https://dc.lft.to/lastmile_qr_scan"}, "lon": -77.01545666666667, "type": "electric_scooter"}, {"bike_id": "fdfd0f9c1415a517a59539cb566eac99", "is_reserved": 0, "fusion_lon": 0.0, "lat": 38.866586166666664, "is_disabled": 0, "name": "fdfd0f9c1415a517a59539cb566eac99", "fusion_lat": 0.0, "rental_uris": {"ios": "https://dc.lft.to/lastmile_qr_scan", "android": "https://dc.lft.to/lastmile_qr_scan"}, "lon": -76.98886733333333, "type": "electric_scooter"}, {"bike_id": "de6cdbd3d050d5f835c35466b0f6c869", "is_reserved": 0, "fusion_lon": 0.0, "lat": 38.903634333333336, "is_disabled": 0, "name": "de6cdbd3d050d5f835c35466b0f6c869", "fusion_lat": 0.0, "rental_uris": {"ios": "https://dc.lft.to/lastmile_qr_scan", "android": "https://dc.lft.to/lastmile_qr_scan"}, "lon": -77.04340583333334, "type": "electric_scooter"}, {"bike_id": "9c42eae9040b7cd8b3712955ec05c044", "is_reserved": 0, "fusion_lon": 0.0, "lat": 38.92231916666667, "is_disabled": 0, "name": "9c42eae9040b7cd8b3712955ec05c044", "fusion_lat": 0.0, "rental_uris": {"ios": "https://dc.lft.to/lastmile_qr_scan", "android": "https://dc.lft.to/lastmile_qr_scan"}, "lon": -77.04336333333333, "type": "electric_bike"}, {"bike_id": "e40b21e7fc727e114b82028e60afa60f", "is_reserved": 0, "fusion_lon": 0.0, "lat": 38.921164, "is_disabled": 0, "name": "e40b21e7fc727e114b82028e60afa60f", "fusion_lat": 0.0, "rental_uris": {"ios": "https://dc.lft.to/lastmile_qr_scan", "android": "https://dc.lft.to/lastmile_qr_scan"}, "lon": -77.04581733333333, "type": "electric_scooter"}, {"bike_id": "6fa742ce25ff81a06ca55b2e3178867a", "is_reserved": 0, "fusion_lon": 0.0, "lat": 38.90580633333333, "is_disabled": 0, "name": "6fa742ce25ff81a06ca55b2e3178867a", "fusion_lat": 0.0, "rental_uris": {"ios": "https://dc.lft.to/lastmile_qr_scan", "android": "https://dc.lft.to/lastmile_qr_scan"}, "lon": -77.04348816666666, "type": "electric_scooter"}, {"bike_id": "d327317b5d8913877a201f0b7abe9c00", "is_reserved": 0, "fusion_lon": 0.0, "lat": 38.885361833333334, "is_disabled": 0, "name": "d327317b5d8913877a201f0b7abe9c00", "fusion_lat": 0.0, "rental_uris": {"ios": "https://dc.lft.to/lastmile_qr_scan", "android": "https://dc.lft.to/lastmile_qr_scan"}, "lon": -76.99831833333333, "type": "electric_scooter"}, {"bike_id": "97fedcff52c45e03dc7c9f9a66e11871", "is_reserved": 0, "fusion_lon": 0.0, "lat": 38.84427783333334, "is_disabled": 0, "name": "97fedcff52c45e03dc7c9f9a66e11871", "fusion_lat": 0.0, "rental_uris": {"ios": "https://dc.lft.to/lastmile_qr_scan", "android": "https://dc.lft.to/lastmile_qr_scan"}, "lon": -76.99773716666667, "type": "electric_scooter"}, {"bike_id": "7b6c0a6412205af623acdd648ae451ef", "is_reserved": 0, "fusion_lon": 0.0, "lat": 38.9032405, "is_disabled": 0, "name": "7b6c0a6412205af623acdd648ae451ef", "fusion_lat": 0.0, "rental_uris": {"ios": "https://dc.lft.to/lastmile_qr_scan", "android": "https://dc.lft.to/lastmile_qr_scan"}, "lon": -77.03002466666666, "type": "electric_scooter"}, {"bike_id": "ea0685a0abe0cdd721a18a703f6a9b21", "is_reserved": 0, "fusion_lon": 0.0, "lat": 38.88507033333333, "is_disabled": 0, "name": "ea0685a0abe0cdd721a18a703f6a9b21", "fusion_lat": 0.0, "rental_uris": {"ios": "https://dc.lft.to/lastmile_qr_scan", "android": "https://dc.lft.to/lastmile_qr_scan"}, "lon": -77.00562383333333, "type": "electric_scooter"}, {"bike_id": "fa0a6bc0f6777ea157d0e0dbb6fd2a8c", "is_reserved": 0, "fusion_lon": 0.0, "lat": 38.8692255, "is_disabled": 0, "name": "fa0a6bc0f6777ea157d0e0dbb6fd2a8c", "fusion_lat": 0.0, "rental_uris": {"ios": "https://dc.lft.to/lastmile_qr_scan", "android": "https://dc.lft.to/lastmile_qr_scan"}, "lon": -76.98301616666667, "type": "electric_scooter"}, {"bike_id": "92aa0ff60c3b01a2af3223dd580fb907", "is_reserved": 0, "fusion_lon": 0.0, "lat": 38.87213666666667, "is_disabled": 0, "name": "92aa0ff60c3b01a2af3223dd580fb907", "fusion_lat": 0.0, "rental_uris": {"ios": "https://dc.lft.to/lastmile_qr_scan", "android": "https://dc.lft.to/lastmile_qr_scan"}, "lon": -77.0057235, "type": "electric_scooter"}, {"bike_id": "9a9487ff69640859bc912ab8dc3bd375", "is_reserved": 0, "fusion_lon": 0.0, "lat": 38.93988216666666, "is_disabled": 0, "name": "9a9487ff69640859bc912ab8dc3bd375", "fusion_lat": 0.0, "rental_uris": {"ios": "https://dc.lft.to/lastmile_qr_scan", "android": "https://dc.lft.to/lastmile_qr_scan"}, "lon": -77.03696866666667, "type": "electric_scooter"}, {"bike_id": "3c5503a058e4048ea917c763921b0d9e", "is_reserved": 0, "fusion_lon": 0.0, "lat": 38.9127065, "is_disabled": 0, "name": "3c5503a058e4048ea917c763921b0d9e", "fusion_lat": 0.0, "rental_uris": {"ios": "https://dc.lft.to/lastmile_qr_scan", "android": "https://dc.lft.to/lastmile_qr_scan"}, "lon": -77.02266733333333, "type": "electric_scooter"}, {"bike_id": "1f0d84b670f176b9665231ce5f2825f1", "is_reserved": 0, "fusion_lon": 0.0, "lat": 38.93529016666667, "is_disabled": 0, "name": "1f0d84b670f176b9665231ce5f2825f1", "fusion_lat": 0.0, "rental_uris": {"ios": "https://dc.lft.to/lastmile_qr_scan", "android": "https://dc.lft.to/lastmile_qr_scan"}, "lon": -77.02359966666667, "type": "electric_scooter"}, {"bike_id": "427e64b453bd99fed5e1a6b6310981a1", "is_reserved": 0, "fusion_lon": 0.0, "lat": 38.90571516666667, "is_disabled": 0, "name": "427e64b453bd99fed5e1a6b6310981a1", "fusion_lat": 0.0, "rental_uris": {"ios": "https://dc.lft.to/lastmile_qr_scan", "android": "https://dc.lft.to/lastmile_qr_scan"}, "lon": -77.03821, "type": "electric_scooter"}, {"bike_id": "8faf0ca4c104dd2ab0126b8e304f783d", "is_reserved": 0, "fusion_lon": 0.0, "lat": 38.913347, "is_disabled": 0, "name": "8faf0ca4c104dd2ab0126b8e304f783d", "fusion_lat": 0.0, "rental_uris": {"ios": "https://dc.lft.to/lastmile_qr_scan", "android": "https://dc.lft.to/lastmile_qr_scan"}, "lon": -77.048439, "type": "electric_scooter"}, {"bike_id": "e43496ff5b6af6a171d941635852f97b", "is_reserved": 0, "fusion_lon": 0.0, "lat": 38.9044835, "is_disabled": 0, "name": "e43496ff5b6af6a171d941635852f97b", "fusion_lat": 0.0, "rental_uris": {"ios": "https://dc.lft.to/lastmile_qr_scan", "android": "https://dc.lft.to/lastmile_qr_scan"}, "lon": -77.059127, "type": "electric_scooter"}, {"bike_id": "eff5c648d1bdaa8f47b84bc7b70a0438", "is_reserved": 0, "fusion_lon": 0.0, "lat": 38.8908835, "is_disabled": 0, "name": "eff5c648d1bdaa8f47b84bc7b70a0438", "fusion_lat": 0.0, "rental_uris": {"ios": "https://dc.lft.to/lastmile_qr_scan", "android": "https://dc.lft.to/lastmile_qr_scan"}, "lon": -76.987418, "type": "electric_scooter"}, {"bike_id": "ddbf8d1eb9e87fdb5aab9f648310323b", "is_reserved": 0, "fusion_lon": 0.0, "lat": 38.88569866666667, "is_disabled": 0, "name": "ddbf8d1eb9e87fdb5aab9f648310323b", "fusion_lat": 0.0, "rental_uris": {"ios": "https://dc.lft.to/lastmile_qr_scan", "android": "https://dc.lft.to/lastmile_qr_scan"}, "lon": -77.08560366666667, "type": "electric_bike"}, {"bike_id": "897a8852f5d0f83c652725e700758205", "is_reserved": 0, "fusion_lon": 0.0, "lat": 38.903856833333336, "is_disabled": 0, "name": "897a8852f5d0f83c652725e700758205", "fusion_lat": 0.0, "rental_uris": {"ios": "https://dc.lft.to/lastmile_qr_scan", "android": "https://dc.lft.to/lastmile_qr_scan"}, "lon": -77.048467, "type": "electric_scooter"}, {"bike_id": "c0d3d5357be5fbc036d6319c9880d1a4", "is_reserved": 0, "fusion_lon": 0.0, "lat": 38.90151383333333, "is_disabled": 0, "name": "c0d3d5357be5fbc036d6319c9880d1a4", "fusion_lat": 0.0, "rental_uris": {"ios": "https://dc.lft.to/lastmile_qr_scan", "android": "https://dc.lft.to/lastmile_qr_scan"}, "lon": -77.02735166666666, "type": "electric_scooter"}, {"bike_id": "f771f927f13edaf9a5a549772cd8162e", "is_reserved": 0, "fusion_lon": 0.0, "lat": 38.8661835, "is_disabled": 0, "name": "f771f927f13edaf9a5a549772cd8162e", "fusion_lat": 0.0, "rental_uris": {"ios": "https://dc.lft.to/lastmile_qr_scan", "android": "https://dc.lft.to/lastmile_qr_scan"}, "lon": -76.98670366666667, "type": "electric_scooter"}, {"bike_id": "28a3882916a9baf6bc9547f6d1e279e8", "is_reserved": 0, "fusion_lon": 0.0, "lat": 38.908644, "is_disabled": 0, "name": "28a3882916a9baf6bc9547f6d1e279e8", "fusion_lat": 0.0, "rental_uris": {"ios": "https://dc.lft.to/lastmile_qr_scan", "android": "https://dc.lft.to/lastmile_qr_scan"}, "lon": -77.0254115, "type": "electric_scooter"}, {"bike_id": "22c6eeb97533899f8c1c044f9756e9d7", "is_reserved": 0, "fusion_lon": 0.0, "lat": 38.88372783333333, "is_disabled": 0, "name": "22c6eeb97533899f8c1c044f9756e9d7", "fusion_lat": 0.0, "rental_uris": {"ios": "https://dc.lft.to/lastmile_qr_scan", "android": "https://dc.lft.to/lastmile_qr_scan"}, "lon": -76.99563466666666, "type": "electric_scooter"}, {"bike_id": "03461cb9c6b95dd25c1bf47c9a87ce81", "is_reserved": 0, "fusion_lon": 0.0, "lat": 38.9126675, "is_disabled": 0, "name": "03461cb9c6b95dd25c1bf47c9a87ce81", "fusion_lat": 0.0, "rental_uris": {"ios": "https://dc.lft.to/lastmile_qr_scan", "android": "https://dc.lft.to/lastmile_qr_scan"}, "lon": -77.03174083333333, "type": "electric_scooter"}, {"bike_id": "77636b0f11eb019e3247f811c5bc1c5f", "is_reserved": 0, "fusion_lon": 0.0, "lat": 38.897180666666664, "is_disabled": 0, "name": "77636b0f11eb019e3247f811c5bc1c5f", "fusion_lat": 0.0, "rental_uris": {"ios": "https://dc.lft.to/lastmile_qr_scan", "android": "https://dc.lft.to/lastmile_qr_scan"}, "lon": -77.04878866666667, "type": "electric_scooter"}, {"bike_id": "899eaed38272f825927c3615751a5f8a", "is_reserved": 0, "fusion_lon": 0.0, "lat": 38.90361133333333, "is_disabled": 0, "name": "899eaed38272f825927c3615751a5f8a", "fusion_lat": 0.0, "rental_uris": {"ios": "https://dc.lft.to/lastmile_qr_scan", "android": "https://dc.lft.to/lastmile_qr_scan"}, "lon": -77.03762166666667, "type": "electric_scooter"}, {"bike_id": "e36a3ed1a44cd10ff6a0d2a9a1f71bf8", "is_reserved": 0, "fusion_lon": 0.0, "lat": 38.90920666666667, "is_disabled": 0, "name": "e36a3ed1a44cd10ff6a0d2a9a1f71bf8", "fusion_lat": 0.0, "rental_uris": {"ios": "https://dc.lft.to/lastmile_qr_scan", "android": "https://dc.lft.to/lastmile_qr_scan"}, "lon": -77.08003983333333, "type": "electric_scooter"}, {"bike_id": "6ca399c62dea92f95a58f13cafd04c23", "is_reserved": 0, "fusion_lon": 0.0, "lat": 38.920260166666665, "is_disabled": 0, "name": "6ca399c62dea92f95a58f13cafd04c23", "fusion_lat": 0.0, "rental_uris": {"ios": "https://dc.lft.to/lastmile_qr_scan", "android": "https://dc.lft.to/lastmile_qr_scan"}, "lon": -77.02795533333334, "type": "electric_scooter"}, {"bike_id": "4935681a9ead9583222f49c4bc298844", "is_reserved": 0, "fusion_lon": 0.0, "lat": 38.89222683333333, "is_disabled": 0, "name": "4935681a9ead9583222f49c4bc298844", "fusion_lat": 0.0, "rental_uris": {"ios": "https://dc.lft.to/lastmile_qr_scan", "android": "https://dc.lft.to/lastmile_qr_scan"}, "lon": -77.10780983333333, "type": "electric_bike"}, {"bike_id": "d21df52308f96212fac888166379f395", "is_reserved": 0, "fusion_lon": 0.0, "lat": 38.89993183333333, "is_disabled": 0, "name": "d21df52308f96212fac888166379f395", "fusion_lat": 0.0, "rental_uris": {"ios": "https://dc.lft.to/lastmile_qr_scan", "android": "https://dc.lft.to/lastmile_qr_scan"}, "lon": -77.02686683333333, "type": "electric_scooter"}, {"bike_id": "304a26f645f641d13e2402d46d691681", "is_reserved": 0, "fusion_lon": 0.0, "lat": 38.905903333333335, "is_disabled": 0, "name": "304a26f645f641d13e2402d46d691681", "fusion_lat": 0.0, "rental_uris": {"ios": "https://dc.lft.to/lastmile_qr_scan", "android": "https://dc.lft.to/lastmile_qr_scan"}, "lon": -76.98617933333334, "type": "electric_scooter"}, {"bike_id": "a2c00bc42490cb4b1f24d7560adbeba8", "is_reserved": 0, "fusion_lon": 0.0, "lat": 38.91698616666667, "is_disabled": 0, "name": "a2c00bc42490cb4b1f24d7560adbeba8", "fusion_lat": 0.0, "rental_uris": {"ios": "https://dc.lft.to/lastmile_qr_scan", "android": "https://dc.lft.to/lastmile_qr_scan"}, "lon": -77.032046, "type": "electric_scooter"}, {"bike_id": "dd17893cdd43b60722c1682d5b42cbee", "is_reserved": 0, "fusion_lon": 0.0, "lat": 38.845538, "is_disabled": 0, "name": "dd17893cdd43b60722c1682d5b42cbee", "fusion_lat": 0.0, "rental_uris": {"ios": "https://dc.lft.to/lastmile_qr_scan", "android": "https://dc.lft.to/lastmile_qr_scan"}, "lon": -77.06701583333333, "type": "electric_bike"}, {"bike_id": "6029f254dea78e71ebb618c07668d0a3", "is_reserved": 0, "fusion_lon": 0.0, "lat": 38.908576333333336, "is_disabled": 0, "name": "6029f254dea78e71ebb618c07668d0a3", "fusion_lat": 0.0, "rental_uris": {"ios": "https://dc.lft.to/lastmile_qr_scan", "android": "https://dc.lft.to/lastmile_qr_scan"}, "lon": -77.02728866666666, "type": "electric_scooter"}, {"bike_id": "fad19842a9ff68caaa9a4e1e75d39b6e", "is_reserved": 0, "fusion_lon": 0.0, "lat": 38.9148715, "is_disabled": 0, "name": "fad19842a9ff68caaa9a4e1e75d39b6e", "fusion_lat": 0.0, "rental_uris": {"ios": "https://dc.lft.to/lastmile_qr_scan", "android": "https://dc.lft.to/lastmile_qr_scan"}, "lon": -77.02184983333333, "type": "electric_scooter"}, {"bike_id": "a7400c3b13ccefeae0a421d66d903d99", "is_reserved": 0, "fusion_lon": 0.0, "lat": 38.912676833333336, "is_disabled": 0, "name": "a7400c3b13ccefeae0a421d66d903d99", "fusion_lat": 0.0, "rental_uris": {"ios": "https://dc.lft.to/lastmile_qr_scan", "android": "https://dc.lft.to/lastmile_qr_scan"}, "lon": -77.0256955, "type": "electric_scooter"}, {"bike_id": "88f71bbf1c9c83887b579617810b793b", "is_reserved": 0, "fusion_lon": 0.0, "lat": 38.916731, "is_disabled": 0, "name": "88f71bbf1c9c83887b579617810b793b", "fusion_lat": 0.0, "rental_uris": {"ios": "https://dc.lft.to/lastmile_qr_scan", "android": "https://dc.lft.to/lastmile_qr_scan"}, "lon": -77.0237485, "type": "electric_scooter"}, {"bike_id": "bf08de4048dfdfbbd184048ef4ad5862", "is_reserved": 0, "fusion_lon": 0.0, "lat": 38.9103455, "is_disabled": 0, "name": "bf08de4048dfdfbbd184048ef4ad5862", "fusion_lat": 0.0, "rental_uris": {"ios": "https://dc.lft.to/lastmile_qr_scan", "android": "https://dc.lft.to/lastmile_qr_scan"}, "lon": -77.03440066666667, "type": "electric_scooter"}, {"bike_id": "40c2a493b343fd85d5376ff34695cfab", "is_reserved": 0, "fusion_lon": 0.0, "lat": 38.904598, "is_disabled": 0, "name": "40c2a493b343fd85d5376ff34695cfab", "fusion_lat": 0.0, "rental_uris": {"ios": "https://dc.lft.to/lastmile_qr_scan", "android": "https://dc.lft.to/lastmile_qr_scan"}, "lon": -77.03462133333333, "type": "electric_scooter"}, {"bike_id": "257f50bd5e318efa3dfb5822697346c2", "is_reserved": 0, "fusion_lon": 0.0, "lat": 38.898129, "is_disabled": 0, "name": "257f50bd5e318efa3dfb5822697346c2", "fusion_lat": 0.0, "rental_uris": {"ios": "https://dc.lft.to/lastmile_qr_scan", "android": "https://dc.lft.to/lastmile_qr_scan"}, "lon": -77.03308516666667, "type": "electric_scooter"}, {"bike_id": "12e80d8a020a9a7fa676e76f0da1eb85", "is_reserved": 0, "fusion_lon": 0.0, "lat": 38.902416, "is_disabled": 0, "name": "12e80d8a020a9a7fa676e76f0da1eb85", "fusion_lat": 0.0, "rental_uris": {"ios": "https://dc.lft.to/lastmile_qr_scan", "android": "https://dc.lft.to/lastmile_qr_scan"}, "lon": -77.03868383333334, "type": "electric_scooter"}, {"bike_id": "aaf3ffe9d6f4d7a0a0873438f22dfaa0", "is_reserved": 0, "fusion_lon": 0.0, "lat": 38.89626633333334, "is_disabled": 0, "name": "aaf3ffe9d6f4d7a0a0873438f22dfaa0", "fusion_lat": 0.0, "rental_uris": {"ios": "https://dc.lft.to/lastmile_qr_scan", "android": "https://dc.lft.to/lastmile_qr_scan"}, "lon": -76.99848533333333, "type": "electric_scooter"}, {"bike_id": "5067d7d09179728a43046c9c35a3f8eb", "is_reserved": 0, "fusion_lon": 0.0, "lat": 38.893711333333336, "is_disabled": 0, "name": "5067d7d09179728a43046c9c35a3f8eb", "fusion_lat": 0.0, "rental_uris": {"ios": "https://dc.lft.to/lastmile_qr_scan", "android": "https://dc.lft.to/lastmile_qr_scan"}, "lon": -76.94960733333333, "type": "electric_scooter"}, {"bike_id": "63b01a23b50da36085afd45235f71109", "is_reserved": 0, "fusion_lon": 0.0, "lat": 38.918992833333334, "is_disabled": 0, "name": "63b01a23b50da36085afd45235f71109", "fusion_lat": 0.0, "rental_uris": {"ios": "https://dc.lft.to/lastmile_qr_scan", "android": "https://dc.lft.to/lastmile_qr_scan"}, "lon": -77.01969533333333, "type": "electric_scooter"}, {"bike_id": "05393e80b8f07d487f25e7e21c0d7496", "is_reserved": 0, "fusion_lon": 0.0, "lat": 38.934288333333335, "is_disabled": 0, "name": "05393e80b8f07d487f25e7e21c0d7496", "fusion_lat": 0.0, "rental_uris": {"ios": "https://dc.lft.to/lastmile_qr_scan", "android": "https://dc.lft.to/lastmile_qr_scan"}, "lon": -77.04318966666666, "type": "electric_scooter"}, {"bike_id": "cdf00571dee1a24142e3b647eaef7453", "is_reserved": 0, "fusion_lon": 0.0, "lat": 38.89224633333333, "is_disabled": 0, "name": "cdf00571dee1a24142e3b647eaef7453", "fusion_lat": 0.0, "rental_uris": {"ios": "https://dc.lft.to/lastmile_qr_scan", "android": "https://dc.lft.to/lastmile_qr_scan"}, "lon": -77.043667, "type": "electric_scooter"}, {"bike_id": "ca7d80d5b1648555de80aa7168b12077", "is_reserved": 0, "fusion_lon": 0.0, "lat": 38.9037805, "is_disabled": 0, "name": "ca7d80d5b1648555de80aa7168b12077", "fusion_lat": 0.0, "rental_uris": {"ios": "https://dc.lft.to/lastmile_qr_scan", "android": "https://dc.lft.to/lastmile_qr_scan"}, "lon": -77.06267233333334, "type": "electric_bike"}, {"bike_id": "d3d445411ac6e81900c963c94bd88918", "is_reserved": 0, "fusion_lon": 0.0, "lat": 38.8690975, "is_disabled": 0, "name": "d3d445411ac6e81900c963c94bd88918", "fusion_lat": 0.0, "rental_uris": {"ios": "https://dc.lft.to/lastmile_qr_scan", "android": "https://dc.lft.to/lastmile_qr_scan"}, "lon": -77.13177983333334, "type": "electric_bike"}, {"bike_id": "0ba45a92ddcaaffbb63b56e0f8d28266", "is_reserved": 0, "fusion_lon": 0.0, "lat": 38.8956695, "is_disabled": 0, "name": "0ba45a92ddcaaffbb63b56e0f8d28266", "fusion_lat": 0.0, "rental_uris": {"ios": "https://dc.lft.to/lastmile_qr_scan", "android": "https://dc.lft.to/lastmile_qr_scan"}, "lon": -77.04677649999999, "type": "electric_scooter"}, {"bike_id": "81a7816f8920ed7b36ee723781523c04", "is_reserved": 0, "fusion_lon": 0.0, "lat": 38.914197333333334, "is_disabled": 0, "name": "81a7816f8920ed7b36ee723781523c04", "fusion_lat": 0.0, "rental_uris": {"ios": "https://dc.lft.to/lastmile_qr_scan", "android": "https://dc.lft.to/lastmile_qr_scan"}, "lon": -77.0317355, "type": "electric_scooter"}, {"bike_id": "a411416b370459aaa75fc9f3d96c4521", "is_reserved": 0, "fusion_lon": 0.0, "lat": 38.92855266666667, "is_disabled": 0, "name": "a411416b370459aaa75fc9f3d96c4521", "fusion_lat": 0.0, "rental_uris": {"ios": "https://dc.lft.to/lastmile_qr_scan", "android": "https://dc.lft.to/lastmile_qr_scan"}, "lon": -77.054154, "type": "electric_scooter"}, {"bike_id": "b72aa92042099415391ac91504bf3ad7", "is_reserved": 0, "fusion_lon": 0.0, "lat": 38.91061716666667, "is_disabled": 0, "name": "b72aa92042099415391ac91504bf3ad7", "fusion_lat": 0.0, "rental_uris": {"ios": "https://dc.lft.to/lastmile_qr_scan", "android": "https://dc.lft.to/lastmile_qr_scan"}, "lon": -77.05396033333334, "type": "electric_scooter"}, {"bike_id": "260abf22c8eb7e7620bd01fbd77bc28f", "is_reserved": 0, "fusion_lon": 0.0, "lat": 38.905803, "is_disabled": 0, "name": "260abf22c8eb7e7620bd01fbd77bc28f", "fusion_lat": 0.0, "rental_uris": {"ios": "https://dc.lft.to/lastmile_qr_scan", "android": "https://dc.lft.to/lastmile_qr_scan"}, "lon": -77.04423183333333, "type": "electric_scooter"}, {"bike_id": "64869f636882ce17ce0a6a1d555e4c00", "is_reserved": 0, "fusion_lon": 0.0, "lat": 38.92900783333333, "is_disabled": 0, "name": "64869f636882ce17ce0a6a1d555e4c00", "fusion_lat": 0.0, "rental_uris": {"ios": "https://dc.lft.to/lastmile_qr_scan", "android": "https://dc.lft.to/lastmile_qr_scan"}, "lon": -77.03164466666666, "type": "electric_scooter"}, {"bike_id": "b4a81f3a3142ffba9196f91c9011bf54", "is_reserved": 0, "fusion_lon": 0.0, "lat": 38.892255, "is_disabled": 0, "name": "b4a81f3a3142ffba9196f91c9011bf54", "fusion_lat": 0.0, "rental_uris": {"ios": "https://dc.lft.to/lastmile_qr_scan", "android": "https://dc.lft.to/lastmile_qr_scan"}, "lon": -77.04188466666666, "type": "electric_scooter"},