{"data": {"bikes": [{"bike_id": "e3f70dc193b635c4c8f43e33a5c58325", "type": "electric_bike", "is_disabled": 0, "lat": 38.93463933333334, "rental_uris": {"ios": "https://dc.lft.to/lastmile_qr_scan", "android": "https://dc.lft.to/lastmile_qr_scan"}, "is_reserved": 0, "fusion_lon": 0.0, "fusion_lat": 0.0, "lon": -77.02716216666667, "name": "e3f70dc193b635c4c8f43e33a5c58325"}, {"bike_id": "d2c8d2d4d031f414ee26bd52d2fc1951", "type": "electric_scooter", "is_disabled": 0, "lat": 38.90341316666667, "rental_uris": {"ios": "https://dc.lft.to/lastmile_qr_scan", "android": "https://dc.lft.to/lastmile_qr_scan"}, "is_reserved": 0, "fusion_lon": 0.0, "fusion_lat": 0.0, "lon": -77.05291766666667, "name": "d2c8d2d4d031f414ee26bd52d2fc1951"}, {"bike_id": "aee49ae3018313dc4729556467837634", "type": "electric_scooter", "is_disabled": 0, "lat": 38.9094895, "rental_uris": {"ios": "https://dc.lft.to/lastmile_qr_scan", "android": "https://dc.lft.to/lastmile_qr_scan"}, "is_reserved": 0, "fusion_lon": 0.0, "fusion_lat": 0.0, "lon": -77.04490783333334, "name": "aee49ae3018313dc4729556467837634"}, {"bike_id": "bf8eac4c16e864784acde71b9432209e", "type": "electric_scooter", "is_disabled": 0, "lat": 38.905296666666665, "rental_uris": {"ios": "https://dc.lft.to/lastmile_qr_scan", "android": "https://dc.lft.to/lastmile_qr_scan"}, "is_reserved": 0, "fusion_lon": 0.0, "fusion_lat": 0.0, "lon": -77.05933666666667, "name": "bf8eac4c16e864784acde71b9432209e"}, {"bike_id": "9eb9eb503ad459eb2c8a33fbce6433ac", "type": "electric_scooter", "is_disabled": 0, "lat": 38.901544, "rental_uris": {"ios": "https://dc.lft.to/lastmile_qr_scan", "android": "https://dc.lft.to/lastmile_qr_scan"}, "is_reserved": 0, "fusion_lon": 0.0, "fusion_lat": 0.0, "lon": -76.9902725, "name": "9eb9eb503ad459eb2c8a33fbce6433ac"}, {"bike_id": "290d854df6605f01a9a418f37387f651", "type": "electric_scooter", "is_disabled": 0, "lat": 38.89701783333334, "rental_uris": {"ios": "https://dc.lft.to/lastmile_qr_scan", "android": "https://dc.lft.to/lastmile_qr_scan"}, "is_reserved": 0, "fusion_lon": 0.0, "fusion_lat": 0.0, "lon": -76.93001116666667, "name": "290d854df6605f01a9a418f37387f651"}, {"bike_id": "823b2e7a0911036e94ca099aafe02565", "type": "electric_scooter", "is_disabled": 0, "lat": 38.927128, "rental_uris": {"ios": "https://dc.lft.to/lastmile_qr_scan", "android": "https://dc.lft.to/lastmile_qr_scan"}, "is_reserved": 0, "fusion_lon": 0.0, "fusion_lat": 0.0, "lon": -77.014799, "name": "823b2e7a0911036e94ca099aafe02565"}, {"bike_id": "b68a3b8f91e3928385d657aeb0b4951a", "type": "electric_scooter", "is_disabled": 0, "lat": 38.90733133333333, "rental_uris": {"ios": "https://dc.lft.to/lastmile_qr_scan", "android": "https://dc.lft.to/lastmile_qr_scan"}, "is_reserved": 0, "fusion_lon": 0.0, "fusion_lat": 0.0, "lon": -77.01314833333333, "name": "b68a3b8f91e3928385d657aeb0b4951a"}, {"bike_id": "fe99be8d56dc4a7dc8f551bff5325494", "type": "electric_scooter", "is_disabled": 0, "lat": 38.9016015, "rental_uris": {"ios": "https://dc.lft.to/lastmile_qr_scan", "android": "https://dc.lft.to/lastmile_qr_scan"}, "is_reserved": 0, "fusion_lon": 0.0, "fusion_lat": 0.0, "lon": -77.024124, "name": "fe99be8d56dc4a7dc8f551bff5325494"}, {"bike_id": "3a82f2b5ca75cc91b12a11a7fe6fcb0b", "type": "electric_scooter", "is_disabled": 0, "lat": 38.92483433333334, "rental_uris": {"ios": "https://dc.lft.to/lastmile_qr_scan", "android": "https://dc.lft.to/lastmile_qr_scan"}, "is_reserved": 0, "fusion_lon": 0.0, "fusion_lat": 0.0, "lon": -77.028371, "name": "3a82f2b5ca75cc91b12a11a7fe6fcb0b"}, {"bike_id": "2d9c7f0ccfc56ab6d0e5c86e205cd95b", "type": "electric_scooter", "is_disabled": 0, "lat": 38.918137333333334, "rental_uris": {"ios": "https://dc.lft.to/lastmile_qr_scan", "android": "https://dc.lft.to/lastmile_qr_scan"}, "is_reserved": 0, "fusion_lon": 0.0, "fusion_lat": 0.0, "lon": -77.00769116666666, "name": "2d9c7f0ccfc56ab6d0e5c86e205cd95b"}, {"bike_id": "b714135f9b5dfc86c8a183e885d98fa1", "type": "electric_bike", "is_disabled": 0, "lat": 38.8799965, "rental_uris": {"ios": "https://dc.lft.to/lastmile_qr_scan", "android": "https://dc.lft.to/lastmile_qr_scan"}, "is_reserved": 0, "fusion_lon": 0.0, "fusion_lat": 0.0, "lon": -76.98518133333333, "name": "b714135f9b5dfc86c8a183e885d98fa1"}, {"bike_id": "f86720bda500ab211260d044ed808190", "type": "electric_scooter", "is_disabled": 0, "lat": 38.9107395, "rental_uris": {"ios": "https://dc.lft.to/lastmile_qr_scan", "android": "https://dc.lft.to/lastmile_qr_scan"}, "is_reserved": 0, "fusion_lon": 0.0, "fusion_lat": 0.0, "lon": -77.03701233333334, "name": "f86720bda500ab211260d044ed808190"}, {"bike_id": "505fd5a3b2d9dd63a499c3a2d3bb1278", "type": "electric_scooter", "is_disabled": 0, "lat": 38.902440166666665, "rental_uris": {"ios": "https://dc.lft.to/lastmile_qr_scan", "android": "https://dc.lft.to/lastmile_qr_scan"}, "is_reserved": 0, "fusion_lon": 0.0, "fusion_lat": 0.0, "lon": -76.99628916666667, "name": "505fd5a3b2d9dd63a499c3a2d3bb1278"}, {"bike_id": "09bfce837faadcff8ee7b4a8fcb8124d", "type": "electric_scooter", "is_disabled": 0, "lat": 38.90342916666667, "rental_uris": {"ios": "https://dc.lft.to/lastmile_qr_scan", "android": "https://dc.lft.to/lastmile_qr_scan"}, "is_reserved": 0, "fusion_lon": 0.0, "fusion_lat": 0.0, "lon": -77.03633266666667, "name": "09bfce837faadcff8ee7b4a8fcb8124d"}, {"bike_id": "8e4414785d102ae611c808d012937572", "type": "electric_scooter", "is_disabled": 0, "lat": 38.92733283333333, "rental_uris": {"ios": "https://dc.lft.to/lastmile_qr_scan", "android": "https://dc.lft.to/lastmile_qr_scan"}, "is_reserved": 0, "fusion_lon": 0.0, "fusion_lat": 0.0, "lon": -77.03490033333334, "name": "8e4414785d102ae611c808d012937572"}, {"bike_id": "5bf824a16de570bf0391dce4db3f344d", "type": "electric_scooter", "is_disabled": 0, "lat": 38.876401, "rental_uris": {"ios": "https://dc.lft.to/lastmile_qr_scan", "android": "https://dc.lft.to/lastmile_qr_scan"}, "is_reserved": 0, "fusion_lon": 0.0, "fusion_lat": 0.0, "lon": -77.00453283333333, "name": "5bf824a16de570bf0391dce4db3f344d"}, {"bike_id": "1bcacd10dc7ceafd0d67d1ffa82dc4db", "type": "electric_scooter", "is_disabled": 0, "lat": 38.90432166666667, "rental_uris": {"ios": "https://dc.lft.to/lastmile_qr_scan", "android": "https://dc.lft.to/lastmile_qr_scan"}, "is_reserved": 0, "fusion_lon": 0.0, "fusion_lat": 0.0, "lon": -77.03446916666667, "name": "1bcacd10dc7ceafd0d67d1ffa82dc4db"}, {"bike_id": "0748408145a24672cf38ed277636b503", "type": "electric_scooter", "is_disabled": 0, "lat": 38.89612116666667, "rental_uris": {"ios": "https://dc.lft.to/lastmile_qr_scan", "android": "https://dc.lft.to/lastmile_qr_scan"}, "is_reserved": 0, "fusion_lon": 0.0, "fusion_lat": 0.0, "lon": -77.03124766666667, "name": "0748408145a24672cf38ed277636b503"}, {"bike_id": "8018360f3d51181507c53ef295785f5c", "type": "electric_scooter", "is_disabled": 0, "lat": 38.83208533333333, "rental_uris": {"ios": "https://dc.lft.to/lastmile_qr_scan", "android": "https://dc.lft.to/lastmile_qr_scan"}, "is_reserved": 0, "fusion_lon": 0.0, "fusion_lat": 0.0, "lon": -77.00792966666667, "name": "8018360f3d51181507c53ef295785f5c"}, {"bike_id": "02d6cb4e71d46f2244e7ff8832a0300d", "type": "electric_scooter", "is_disabled": 0, "lat": 38.923115333333335, "rental_uris": {"ios": "https://dc.lft.to/lastmile_qr_scan", "android": "https://dc.lft.to/lastmile_qr_scan"}, "is_reserved": 0, "fusion_lon": 0.0, "fusion_lat": 0.0, "lon": -77.03916283333334, "name": "02d6cb4e71d46f2244e7ff8832a0300d"}, {"bike_id": "f0abfe6006e69339e852940492e86a56", "type": "electric_scooter", "is_disabled": 0, "lat": 38.91113716666667, "rental_uris": {"ios": "https://dc.lft.to/lastmile_qr_scan", "android": "https://dc.lft.to/lastmile_qr_scan"}, "is_reserved": 0, "fusion_lon": 0.0, "fusion_lat": 0.0, "lon": -77.02133083333334, "name": "f0abfe6006e69339e852940492e86a56"}, {"bike_id": "e5af76d89f4503d56d64476a906355ec", "type": "electric_scooter", "is_disabled": 0, "lat": 38.88622383333333, "rental_uris": {"ios": "https://dc.lft.to/lastmile_qr_scan", "android": "https://dc.lft.to/lastmile_qr_scan"}, "is_reserved": 0, "fusion_lon": 0.0, "fusion_lat": 0.0, "lon": -76.99608083333334, "name": "e5af76d89f4503d56d64476a906355ec"}, {"bike_id": "2f3e2367b1b3131e4e5969d555e4ad21", "type": "electric_scooter", "is_disabled": 0, "lat": 38.878865166666664, "rental_uris": {"ios": "https://dc.lft.to/lastmile_qr_scan", "android": "https://dc.lft.to/lastmile_qr_scan"}, "is_reserved": 0, "fusion_lon": 0.0, "fusion_lat": 0.0, "lon": -77.0230165, "name": "2f3e2367b1b3131e4e5969d555e4ad21"}, {"bike_id": "e03654ff20a32dfce44509ea89b09a2a", "type": "electric_scooter", "is_disabled": 0, "lat": 38.956599, "rental_uris": {"ios": "https://dc.lft.to/lastmile_qr_scan", "android": "https://dc.lft.to/lastmile_qr_scan"}, "is_reserved": 0, "fusion_lon": 0.0, "fusion_lat": 0.0, "lon": -77.02398633333334, "name": "e03654ff20a32dfce44509ea89b09a2a"}, {"bike_id": "b49603e3a181172a84402229713288cf", "type": "electric_scooter", "is_disabled": 0, "lat": 38.89762366666667, "rental_uris": {"ios": "https://dc.lft.to/lastmile_qr_scan", "android": "https://dc.lft.to/lastmile_qr_scan"}, "is_reserved": 0, "fusion_lon": 0.0, "fusion_lat": 0.0, "lon": -76.92580216666667, "name": "b49603e3a181172a84402229713288cf"}, {"bike_id": "fe471dc353bb8ffacdfdffeecde2407e", "type": "electric_scooter", "is_disabled": 0, "lat": 38.905402333333335, "rental_uris": {"ios": "https://dc.lft.to/lastmile_qr_scan", "android": "https://dc.lft.to/lastmile_qr_scan"}, "is_reserved": 0, "fusion_lon": 0.0, "fusion_lat": 0.0, "lon": -76.981044, "name": "fe471dc353bb8ffacdfdffeecde2407e"}, {"bike_id": "29588940eb21e94c101ed91a93575f82", "type": "electric_scooter", "is_disabled": 0, "lat": 38.91412366666667, "rental_uris": {"ios": "https://dc.lft.to/lastmile_qr_scan", "android": "https://dc.lft.to/lastmile_qr_scan"}, "is_reserved": 0, "fusion_lon": 0.0, "fusion_lat": 0.0, "lon": -77.02423966666667, "name": "29588940eb21e94c101ed91a93575f82"}, {"bike_id": "08c6a1c712cdbb4d6601f2be8530952f", "type": "electric_scooter", "is_disabled": 0, "lat": 38.89263366666667, "rental_uris": {"ios": "https://dc.lft.to/lastmile_qr_scan", "android": "https://dc.lft.to/lastmile_qr_scan"}, "is_reserved": 0, "fusion_lon": 0.0, "fusion_lat": 0.0, "lon": -77.00337666666667, "name": "08c6a1c712cdbb4d6601f2be8530952f"}, {"bike_id": "9661bcdabc93585997930c99725eafd5", "type": "electric_scooter", "is_disabled": 0, "lat": 38.86242566666667, "rental_uris": {"ios": "https://dc.lft.to/lastmile_qr_scan", "android": "https://dc.lft.to/lastmile_qr_scan"}, "is_reserved": 0, "fusion_lon": 0.0, "fusion_lat": 0.0, "lon": -76.99492566666666, "name": "9661bcdabc93585997930c99725eafd5"}, {"bike_id": "65023e7b394b79b199ac2e123cf5df07", "type": "electric_scooter", "is_disabled": 0, "lat": 38.907291, "rental_uris": {"ios": "https://dc.lft.to/lastmile_qr_scan", "android": "https://dc.lft.to/lastmile_qr_scan"}, "is_reserved": 0, "fusion_lon": 0.0, "fusion_lat": 0.0, "lon": -77.0480605, "name": "65023e7b394b79b199ac2e123cf5df07"}, {"bike_id": "261b9ecaff38ec7257e534812dd4f1ee", "type": "electric_scooter", "is_disabled": 0, "lat": 38.9013115, "rental_uris": {"ios": "https://dc.lft.to/lastmile_qr_scan", "android": "https://dc.lft.to/lastmile_qr_scan"}, "is_reserved": 0, "fusion_lon": 0.0, "fusion_lat": 0.0, "lon": -77.01835566666666, "name": "261b9ecaff38ec7257e534812dd4f1ee"}, {"bike_id": "33c68743a1930f1543d3d517cdc8d0d1", "type": "electric_scooter", "is_disabled": 0, "lat": 38.93341266666667, "rental_uris": {"ios": "https://dc.lft.to/lastmile_qr_scan", "android": "https://dc.lft.to/lastmile_qr_scan"}, "is_reserved": 0, "fusion_lon": 0.0, "fusion_lat": 0.0, "lon": -77.03877483333333, "name": "33c68743a1930f1543d3d517cdc8d0d1"}, {"bike_id": "3a2567547f31d85a9b089b5c9f2229db", "type": "electric_scooter", "is_disabled": 0, "lat": 38.91566433333333, "rental_uris": {"ios": "https://dc.lft.to/lastmile_qr_scan", "android": "https://dc.lft.to/lastmile_qr_scan"}, "is_reserved": 0, "fusion_lon": 0.0, "fusion_lat": 0.0, "lon": -77.0314085, "name": "3a2567547f31d85a9b089b5c9f2229db"}, {"bike_id": "ad6fe11130f262c56c98a60311a0ccee", "type": "electric_scooter", "is_disabled": 0, "lat": 38.928515833333336, "rental_uris": {"ios": "https://dc.lft.to/lastmile_qr_scan", "android": "https://dc.lft.to/lastmile_qr_scan"}, "is_reserved": 0, "fusion_lon": 0.0, "fusion_lat": 0.0, "lon": -77.02737966666666, "name": "ad6fe11130f262c56c98a60311a0ccee"}, {"bike_id": "c010b12a58d17ba11f1def2b0cac4f97", "type": "electric_bike", "is_disabled": 0, "lat": 38.924574166666666, "rental_uris": {"ios": "https://dc.lft.to/lastmile_qr_scan", "android": "https://dc.lft.to/lastmile_qr_scan"}, "is_reserved": 0, "fusion_lon": 0.0, "fusion_lat": 0.0, "lon": -76.97557966666666, "name": "c010b12a58d17ba11f1def2b0cac4f97"}, {"bike_id": "d46d293892c462b553600888057e2135", "type": "electric_scooter", "is_disabled": 0, "lat": 38.933657333333336, "rental_uris": {"ios": "https://dc.lft.to/lastmile_qr_scan", "android": "https://dc.lft.to/lastmile_qr_scan"}, "is_reserved": 0, "fusion_lon": 0.0, "fusion_lat": 0.0, "lon": -77.039903, "name": "d46d293892c462b553600888057e2135"}, {"bike_id": "c3cbb3718a531280ff6e48c744d6a0bd", "type": "electric_scooter", "is_disabled": 0, "lat": 38.90681816666667, "rental_uris": {"ios": "https://dc.lft.to/lastmile_qr_scan", "android": "https://dc.lft.to/lastmile_qr_scan"}, "is_reserved": 0, "fusion_lon": 0.0, "fusion_lat": 0.0, "lon": -77.07180883333334, "name": "c3cbb3718a531280ff6e48c744d6a0bd"}, {"bike_id": "d8a9d0c3077a694bd51cd9558a099619", "type": "electric_scooter", "is_disabled": 0, "lat": 38.8624775, "rental_uris": {"ios": "https://dc.lft.to/lastmile_qr_scan", "android": "https://dc.lft.to/lastmile_qr_scan"}, "is_reserved": 0, "fusion_lon": 0.0, "fusion_lat": 0.0, "lon": -76.99500766666667, "name": "d8a9d0c3077a694bd51cd9558a099619"}, {"bike_id": "ca29ee0d76258006e00bd60bfc1e8cdd", "type": "electric_scooter", "is_disabled": 0, "lat": 38.91710033333333, "rental_uris": {"ios": "https://dc.lft.to/lastmile_qr_scan", "android": "https://dc.lft.to/lastmile_qr_scan"}, "is_reserved": 0, "fusion_lon": 0.0, "fusion_lat": 0.0, "lon": -77.0106725, "name": "ca29ee0d76258006e00bd60bfc1e8cdd"}, {"bike_id": "99b14d072ea8cb1644f2035b11756f46", "type": "electric_scooter", "is_disabled": 0, "lat": 38.8805965, "rental_uris": {"ios": "https://dc.lft.to/lastmile_qr_scan", "android": "https://dc.lft.to/lastmile_qr_scan"}, "is_reserved": 0, "fusion_lon": 0.0, "fusion_lat": 0.0, "lon": -76.93216666666666, "name": "99b14d072ea8cb1644f2035b11756f46"}, {"bike_id": "f861263e3d95ff850a595b9ed922d89f", "type": "electric_scooter", "is_disabled": 0, "lat": 38.9219665, "rental_uris": {"ios": "https://dc.lft.to/lastmile_qr_scan", "android": "https://dc.lft.to/lastmile_qr_scan"}, "is_reserved": 0, "fusion_lon": 0.0, "fusion_lat": 0.0, "lon": -77.03509283333334, "name": "f861263e3d95ff850a595b9ed922d89f"}, {"bike_id": "43f7817c2e8dfbd5e3cf857e8951e198", "type": "electric_scooter", "is_disabled": 0, "lat": 38.95404516666667, "rental_uris": {"ios": "https://dc.lft.to/lastmile_qr_scan", "android": "https://dc.lft.to/lastmile_qr_scan"}, "is_reserved": 0, "fusion_lon": 0.0, "fusion_lat": 0.0, "lon": -76.99852633333333, "name": "43f7817c2e8dfbd5e3cf857e8951e198"}, {"bike_id": "d71dea6dd762a84958f0e3c32580e4b3", "type": "electric_scooter", "is_disabled": 0, "lat": 38.92663666666667, "rental_uris": {"ios": "https://dc.lft.to/lastmile_qr_scan", "android": "https://dc.lft.to/lastmile_qr_scan"}, "is_reserved": 0, "fusion_lon": 0.0, "fusion_lat": 0.0, "lon": -77.03727816666667, "name": "d71dea6dd762a84958f0e3c32580e4b3"}, {"bike_id": "9d1754b6285dcebf9f9384471b3e1a0a", "type": "electric_bike", "is_disabled": 0, "lat": 38.8619635, "rental_uris": {"ios": "https://dc.lft.to/lastmile_qr_scan", "android": "https://dc.lft.to/lastmile_qr_scan"}, "is_reserved": 0, "fusion_lon": 0.0, "fusion_lat": 0.0, "lon": -76.94803316666666, "name": "9d1754b6285dcebf9f9384471b3e1a0a"}, {"bike_id": "e4f0578c59b14cb2ce36691709396914", "type": "electric_scooter", "is_disabled": 0, "lat": 38.9040475, "rental_uris": {"ios": "https://dc.lft.to/lastmile_qr_scan", "android": "https://dc.lft.to/lastmile_qr_scan"}, "is_reserved": 0, "fusion_lon": 0.0, "fusion_lat": 0.0, "lon": -77.00572933333333, "name": "e4f0578c59b14cb2ce36691709396914"}, {"bike_id": "a7efa67e635e660c2018f1b393df3084", "type": "electric_scooter", "is_disabled": 0, "lat": 38.92008716666667, "rental_uris": {"ios": "https://dc.lft.to/lastmile_qr_scan", "android": "https://dc.lft.to/lastmile_qr_scan"}, "is_reserved": 0, "fusion_lon": 0.0, "fusion_lat": 0.0, "lon": -77.03162066666667, "name": "a7efa67e635e660c2018f1b393df3084"}, {"bike_id": "0e0cf639127f1886917b43cd2a63ec12", "type": "electric_scooter", "is_disabled": 0, "lat": 38.931028166666664, "rental_uris": {"ios": "https://dc.lft.to/lastmile_qr_scan", "android": "https://dc.lft.to/lastmile_qr_scan"}, "is_reserved": 0, "fusion_lon": 0.0, "fusion_lat": 0.0, "lon": -77.02662166666667, "name": "0e0cf639127f1886917b43cd2a63ec12"}, {"bike_id": "71e650dfd4430a3cbcd3df1db9304b3c", "type": "electric_scooter", "is_disabled": 0, "lat": 38.917972666666664, "rental_uris": {"ios": "https://dc.lft.to/lastmile_qr_scan", "android": "https://dc.lft.to/lastmile_qr_scan"}, "is_reserved": 0, "fusion_lon": 0.0, "fusion_lat": 0.0, "lon": -77.03438233333334, "name": "71e650dfd4430a3cbcd3df1db9304b3c"}, {"bike_id": "f452a39316dea5e573b12baf37d87411", "type": "electric_scooter", "is_disabled": 0, "lat": 38.95098983333333, "rental_uris": {"ios": "https://dc.lft.to/lastmile_qr_scan", "android": "https://dc.lft.to/lastmile_qr_scan"}, "is_reserved": 0, "fusion_lon": 0.0, "fusion_lat": 0.0, "lon": -77.02960666666667, "name": "f452a39316dea5e573b12baf37d87411"}, {"bike_id": "2b33a225b605245a646008990533d708", "type": "electric_scooter", "is_disabled": 0, "lat": 38.905093666666666, "rental_uris": {"ios": "https://dc.lft.to/lastmile_qr_scan", "android": "https://dc.lft.to/lastmile_qr_scan"}, "is_reserved": 0, "fusion_lon": 0.0, "fusion_lat": 0.0, "lon": -77.0620105, "name": "2b33a225b605245a646008990533d708"}, {"bike_id": "f6afb8205d7344da1e8996cf47a461fa", "type": "electric_scooter", "is_disabled": 0, "lat": 38.90140266666667, "rental_uris": {"ios": "https://dc.lft.to/lastmile_qr_scan", "android": "https://dc.lft.to/lastmile_qr_scan"}, "is_reserved": 0, "fusion_lon": 0.0, "fusion_lat": 0.0, "lon": -77.008551, "name": "f6afb8205d7344da1e8996cf47a461fa"}, {"bike_id": "db9bd40d23a7ccf15aa21ff3e3e32fb2", "type": "electric_scooter", "is_disabled": 0, "lat": 38.896204, "rental_uris": {"ios": "https://dc.lft.to/lastmile_qr_scan", "android": "https://dc.lft.to/lastmile_qr_scan"}, "is_reserved": 0, "fusion_lon": 0.0, "fusion_lat": 0.0, "lon": -76.98561266666667, "name": "db9bd40d23a7ccf15aa21ff3e3e32fb2"}, {"bike_id": "19916193b391bae927c85fc021befe9c", "type": "electric_scooter", "is_disabled": 0, "lat": 38.90533683333334, "rental_uris": {"ios": "https://dc.lft.to/lastmile_qr_scan", "android": "https://dc.lft.to/lastmile_qr_scan"}, "is_reserved": 0, "fusion_lon": 0.0, "fusion_lat": 0.0, "lon": -77.02944383333333, "name": "19916193b391bae927c85fc021befe9c"}, {"bike_id": "6475a4633cc1b7fca6e6b196f623f91e", "type": "electric_scooter", "is_disabled": 0, "lat": 38.911833666666666, "rental_uris": {"ios": "https://dc.lft.to/lastmile_qr_scan", "android": "https://dc.lft.to/lastmile_qr_scan"}, "is_reserved": 0, "fusion_lon": 0.0, "fusion_lat": 0.0, "lon": -77.04557583333333, "name": "6475a4633cc1b7fca6e6b196f623f91e"}, {"bike_id": "757c3cb1bcd7abd218d33ce9bf0ed8e5", "type": "electric_scooter", "is_disabled": 0, "lat": 38.916878, "rental_uris": {"ios": "https://dc.lft.to/lastmile_qr_scan", "android": "https://dc.lft.to/lastmile_qr_scan"}, "is_reserved": 0, "fusion_lon": 0.0, "fusion_lat": 0.0, "lon": -77.02513133333333, "name": "757c3cb1bcd7abd218d33ce9bf0ed8e5"}, {"bike_id": "151b7a9dbb2a4795a2d91ac8c428b181", "type": "electric_scooter", "is_disabled": 0, "lat": 38.946187, "rental_uris": {"ios": "https://dc.lft.to/lastmile_qr_scan", "android": "https://dc.lft.to/lastmile_qr_scan"}, "is_reserved": 0, "fusion_lon": 0.0, "fusion_lat": 0.0, "lon": -77.02655916666667, "name": "151b7a9dbb2a4795a2d91ac8c428b181"}, {"bike_id": "5b83adec4146602b0f4aeb14d9e540bf", "type": "electric_scooter", "is_disabled": 0, "lat": 38.90525433333333, "rental_uris": {"ios": "https://dc.lft.to/lastmile_qr_scan", "android": "https://dc.lft.to/lastmile_qr_scan"}, "is_reserved": 0, "fusion_lon": 0.0, "fusion_lat": 0.0, "lon": -77.04159566666667, "name": "5b83adec4146602b0f4aeb14d9e540bf"}, {"bike_id": "f4540b42d48b77052b4234204c10ff49", "type": "electric_scooter", "is_disabled": 0, "lat": 38.923515, "rental_uris": {"ios": "https://dc.lft.to/lastmile_qr_scan", "android": "https://dc.lft.to/lastmile_qr_scan"}, "is_reserved": 0, "fusion_lon": 0.0, "fusion_lat": 0.0, "lon": -77.04144483333333, "name": "f4540b42d48b77052b4234204c10ff49"}, {"bike_id": "e6cfa1dfb0ffb8f341e6afedd9ed15af", "type": "electric_scooter", "is_disabled": 0, "lat": 38.901912333333335, "rental_uris": {"ios": "https://dc.lft.to/lastmile_qr_scan", "android": "https://dc.lft.to/lastmile_qr_scan"}, "is_reserved": 0, "fusion_lon": 0.0, "fusion_lat": 0.0, "lon": -76.9884285, "name": "e6cfa1dfb0ffb8f341e6afedd9ed15af"}, {"bike_id": "839c118d4bea4df6814b27c9ba4c7600", "type": "electric_scooter", "is_disabled": 0, "lat": 38.87938183333333, "rental_uris": {"ios": "https://dc.lft.to/lastmile_qr_scan", "android": "https://dc.lft.to/lastmile_qr_scan"}, "is_reserved": 0, "fusion_lon": 0.0, "fusion_lat": 0.0, "lon": -77.0154055, "name": "839c118d4bea4df6814b27c9ba4c7600"}, {"bike_id": "a5b7d2d3e34139e259c3fe5454e3ea9f", "type": "electric_scooter", "is_disabled": 0, "lat": 38.92364, "rental_uris": {"ios": "https://dc.lft.to/lastmile_qr_scan", "android": "https://dc.lft.to/lastmile_qr_scan"}, "is_reserved": 0, "fusion_lon": 0.0, "fusion_lat": 0.0, "lon": -77.05419516666667, "name": "a5b7d2d3e34139e259c3fe5454e3ea9f"}, {"bike_id": "d57dab5856a54239c3fa4b26b10200a8", "type": "electric_scooter", "is_disabled": 0, "lat": 38.940712, "rental_uris": {"ios": "https://dc.lft.to/lastmile_qr_scan", "android": "https://dc.lft.to/lastmile_qr_scan"}, "is_reserved": 0, "fusion_lon": 0.0, "fusion_lat": 0.0, "lon": -77.05250516666666, "name": "d57dab5856a54239c3fa4b26b10200a8"}, {"bike_id": "56919764ffe8f05b336b106e29bbe6fa", "type": "electric_scooter", "is_disabled": 0, "lat": 38.91364083333333, "rental_uris": {"ios": "https://dc.lft.to/lastmile_qr_scan", "android": "https://dc.lft.to/lastmile_qr_scan"}, "is_reserved": 0, "fusion_lon": 0.0, "fusion_lat": 0.0, "lon": -77.04558266666666, "name": "56919764ffe8f05b336b106e29bbe6fa"}, {"bike_id": "11730f565c4654dc098b47661c6ea155", "type": "electric_scooter", "is_disabled": 0, "lat": 38.904151166666665, "rental_uris": {"ios": "https://dc.lft.to/lastmile_qr_scan", "android": "https://dc.lft.to/lastmile_qr_scan"}, "is_reserved": 0, "fusion_lon": 0.0, "fusion_lat": 0.0, "lon": -77.02877183333334, "name": "11730f565c4654dc098b47661c6ea155"}, {"bike_id": "95a5e28fd53b6799549b3445ce9c51f5", "type": "electric_scooter", "is_disabled": 0, "lat": 38.89898983333333, "rental_uris": {"ios": "https://dc.lft.to/lastmile_qr_scan", "android": "https://dc.lft.to/lastmile_qr_scan"}, "is_reserved": 0, "fusion_lon": 0.0, "fusion_lat": 0.0, "lon": -76.97605783333333, "name": "95a5e28fd53b6799549b3445ce9c51f5"}, {"bike_id": "a088b6d098941e856296f6cf07eba4a5", "type": "electric_scooter", "is_disabled": 0, "lat": 38.892376666666664, "rental_uris": {"ios": "https://dc.lft.to/lastmile_qr_scan", "android": "https://dc.lft.to/lastmile_qr_scan"}, "is_reserved": 0, "fusion_lon": 0.0, "fusion_lat": 0.0, "lon": -77.0237865, "name": "a088b6d098941e856296f6cf07eba4a5"}, {"bike_id": "086aff79fbdf1926cccc154f326bf6c8", "type": "electric_scooter", "is_disabled": 0, "lat": 38.926014, "rental_uris": {"ios": "https://dc.lft.to/lastmile_qr_scan", "android": "https://dc.lft.to/lastmile_qr_scan"}, "is_reserved": 0, "fusion_lon": 0.0, "fusion_lat": 0.0, "lon": -77.02155833333333, "name": "086aff79fbdf1926cccc154f326bf6c8"}, {"bike_id": "27a98639a945f679346f933c6ef37c53", "type": "electric_bike", "is_disabled": 0, "lat": 38.92740883333333, "rental_uris": {"ios": "https://dc.lft.to/lastmile_qr_scan", "android": "https://dc.lft.to/lastmile_qr_scan"}, "is_reserved": 0, "fusion_lon": 0.0, "fusion_lat": 0.0, "lon": -76.99358966666667, "name": "27a98639a945f679346f933c6ef37c53"}, {"bike_id": "69442265fb2e14e7a8e4eb8b3eb68b9d", "type": "electric_scooter", "is_disabled": 0, "lat": 38.93677516666666, "rental_uris": {"ios": "https://dc.lft.to/lastmile_qr_scan", "android": "https://dc.lft.to/lastmile_qr_scan"}, "is_reserved": 0, "fusion_lon": 0.0, "fusion_lat": 0.0, "lon": -77.03566, "name": "69442265fb2e14e7a8e4eb8b3eb68b9d"}, {"bike_id": "36b2012c2e335410f6383d41329e2b43", "type": "electric_scooter", "is_disabled": 0, "lat": 38.862495833333334, "rental_uris": {"ios": "https://dc.lft.to/lastmile_qr_scan", "android": "https://dc.lft.to/lastmile_qr_scan"}, "is_reserved": 0, "fusion_lon": 0.0, "fusion_lat": 0.0, "lon": -76.99503083333333, "name": "36b2012c2e335410f6383d41329e2b43"}, {"bike_id": "e7f184b58026c8f60b184673efedb6ff", "type": "electric_scooter", "is_disabled": 0, "lat": 38.962127833333334, "rental_uris": {"ios": "https://dc.lft.to/lastmile_qr_scan", "android": "https://dc.lft.to/lastmile_qr_scan"}, "is_reserved": 0, "fusion_lon": 0.0, "fusion_lat": 0.0, "lon": -77.02235716666667, "name": "e7f184b58026c8f60b184673efedb6ff"}, {"bike_id": "101b6f5ce4849dc1211813e9bf945189", "type": "electric_bike", "is_disabled": 0, "lat": 38.897335, "rental_uris": {"ios": "https://dc.lft.to/lastmile_qr_scan", "android": "https://dc.lft.to/lastmile_qr_scan"}, "is_reserved": 0, "fusion_lon": 0.0, "fusion_lat": 0.0, "lon": -77.0221535, "name": "101b6f5ce4849dc1211813e9bf945189"}, {"bike_id": "7d563e570ae3afa09647b84b44eff073", "type": "electric_scooter", "is_disabled": 0, "lat": 38.89295516666667, "rental_uris": {"ios": "https://dc.lft.to/lastmile_qr_scan", "android": "https://dc.lft.to/lastmile_qr_scan"}, "is_reserved": 0, "fusion_lon": 0.0, "fusion_lat": 0.0, "lon": -77.01220016666667, "name": "7d563e570ae3afa09647b84b44eff073"}, {"bike_id": "05d2d1f44014247b29323692e36a2084", "type": "electric_scooter", "is_disabled": 0, "lat": 38.90512666666667, "rental_uris": {"ios": "https://dc.lft.to/lastmile_qr_scan", "android": "https://dc.lft.to/lastmile_qr_scan"}, "is_reserved": 0, "fusion_lon": 0.0, "fusion_lat": 0.0, "lon": -77.0297605, "name": "05d2d1f44014247b29323692e36a2084"}, {"bike_id": "00f48474c0c0fc84c89e2d9549afc2d9", "type": "electric_scooter", "is_disabled": 0, "lat": 38.90864283333333, "rental_uris": {"ios": "https://dc.lft.to/lastmile_qr_scan", "android": "https://dc.lft.to/lastmile_qr_scan"}, "is_reserved": 0, "fusion_lon": 0.0, "fusion_lat": 0.0, "lon": -77.0858855, "name": "00f48474c0c0fc84c89e2d9549afc2d9"}, {"bike_id": "bdc1c937889032c5a7a1be458a00ac5d", "type": "electric_bike", "is_disabled": 0, "lat": 38.98367433333333, "rental_uris": {"ios": "https://dc.lft.to/lastmile_qr_scan", "android": "https://dc.lft.to/lastmile_qr_scan"}, "is_reserved": 0, "fusion_lon": 0.0, "fusion_lat": 0.0, "lon": -76.9721325, "name": "bdc1c937889032c5a7a1be458a00ac5d"}, {"bike_id": "d1b7a851c3543be99976b4123aee0dc7", "type": "electric_scooter", "is_disabled": 0, "lat": 38.92748316666667, "rental_uris": {"ios": "https://dc.lft.to/lastmile_qr_scan", "android": "https://dc.lft.to/lastmile_qr_scan"}, "is_reserved": 0, "fusion_lon": 0.0, "fusion_lat": 0.0, "lon": -77.0253245, "name": "d1b7a851c3543be99976b4123aee0dc7"}, {"bike_id": "e1af3c02b1c33e056eafcbead855b6f6", "type": "electric_scooter", "is_disabled": 0, "lat": 38.86472066666666, "rental_uris": {"ios": "https://dc.lft.to/lastmile_qr_scan", "android": "https://dc.lft.to/lastmile_qr_scan"}, "is_reserved": 0, "fusion_lon": 0.0, "fusion_lat": 0.0, "lon": -76.98219, "name": "e1af3c02b1c33e056eafcbead855b6f6"}, {"bike_id": "37df2ad7513571bbe636e29b6756b9b9", "type": "electric_scooter", "is_disabled": 0, "lat": 38.931218, "rental_uris": {"ios": "https://dc.lft.to/lastmile_qr_scan", "android": "https://dc.lft.to/lastmile_qr_scan"}, "is_reserved": 0, "fusion_lon": 0.0, "fusion_lat": 0.0, "lon": -77.0206825, "name": "37df2ad7513571bbe636e29b6756b9b9"}, {"bike_id": "d2ac750dd3ce400802a32b3839481092", "type": "electric_scooter", "is_disabled": 0, "lat": 38.905969166666665, "rental_uris": {"ios": "https://dc.lft.to/lastmile_qr_scan", "android": "https://dc.lft.to/lastmile_qr_scan"}, "is_reserved": 0, "fusion_lon": 0.0, "fusion_lat": 0.0, "lon": -77.02174983333333, "name": "d2ac750dd3ce400802a32b3839481092"}, {"bike_id": "dab6382ede250d0fedcbf18e975fbfdb", "type": "electric_scooter", "is_disabled": 0, "lat": 38.86216316666667, "rental_uris": {"ios": "https://dc.lft.to/lastmile_qr_scan", "android": "https://dc.lft.to/lastmile_qr_scan"}, "is_reserved": 0, "fusion_lon": 0.0, "fusion_lat": 0.0, "lon": -76.994829, "name": "dab6382ede250d0fedcbf18e975fbfdb"}, {"bike_id": "021aed257dfd19d25ace466257377a87", "type": "electric_scooter", "is_disabled": 0, "lat": 38.902682666666664, "rental_uris": {"ios": "https://dc.lft.to/lastmile_qr_scan", "android": "https://dc.lft.to/lastmile_qr_scan"}, "is_reserved": 0, "fusion_lon": 0.0, "fusion_lat": 0.0, "lon": -77.01964033333333, "name": "021aed257dfd19d25ace466257377a87"}, {"bike_id": "ce6a5bddcd53453f3081ee1f807bcde8", "type": "electric_scooter", "is_disabled": 0, "lat": 38.916867333333336, "rental_uris": {"ios": "https://dc.lft.to/lastmile_qr_scan", "android": "https://dc.lft.to/lastmile_qr_scan"}, "is_reserved": 0, "fusion_lon": 0.0, "fusion_lat": 0.0, "lon": -77.02942683333333, "name": "ce6a5bddcd53453f3081ee1f807bcde8"}, {"bike_id": "321b19219c23122b963a5d569fd7a791", "type": "electric_scooter", "is_disabled": 0, "lat": 38.95692783333333, "rental_uris": {"ios": "https://dc.lft.to/lastmile_qr_scan", "android": "https://dc.lft.to/lastmile_qr_scan"}, "is_reserved": 0, "fusion_lon": 0.0, "fusion_lat": 0.0, "lon": -77.02393183333334, "name": "321b19219c23122b963a5d569fd7a791"}, {"bike_id": "6925db7f042854798c8e4c4154444fa7", "type": "electric_scooter", "is_disabled": 0, "lat": 38.920683833333335, "rental_uris": {"ios": "https://dc.lft.to/lastmile_qr_scan", "android": "https://dc.lft.to/lastmile_qr_scan"}, "is_reserved": 0, "fusion_lon": 0.0, "fusion_lat": 0.0, "lon": -77.03455983333333, "name": "6925db7f042854798c8e4c4154444fa7"}, {"bike_id": "6adc1f35e5f47bf3fe9a1b70da3cc2d4", "type": "electric_scooter", "is_disabled": 0, "lat": 38.907320666666664, "rental_uris": {"ios": "https://dc.lft.to/lastmile_qr_scan", "android": "https://dc.lft.to/lastmile_qr_scan"}, "is_reserved": 0, "fusion_lon": 0.0, "fusion_lat": 0.0, "lon": -77.05328983333334, "name": "6adc1f35e5f47bf3fe9a1b70da3cc2d4"}, {"bike_id": "23466b3ab6b2afd794fc7abe2a72c9f1", "type": "electric_scooter", "is_disabled": 0, "lat": 38.8849195, "rental_uris": {"ios": "https://dc.lft.to/lastmile_qr_scan", "android": "https://dc.lft.to/lastmile_qr_scan"}, "is_reserved": 0, "fusion_lon": 0.0, "fusion_lat": 0.0, "lon": -77.015107, "name": "23466b3ab6b2afd794fc7abe2a72c9f1"}, {"bike_id": "5230a96fd73071974285725966da61d0", "type": "electric_scooter", "is_disabled": 0, "lat": 38.911073333333334, "rental_uris": {"ios": "https://dc.lft.to/lastmile_qr_scan", "android": "https://dc.lft.to/lastmile_qr_scan"}, "is_reserved": 0, "fusion_lon": 0.0, "fusion_lat": 0.0, "lon": -77.04483883333333, "name": "5230a96fd73071974285725966da61d0"}, {"bike_id": "55d2c78217f751e6b6456e67828cd82c", "type": "electric_scooter", "is_disabled": 0, "lat": 38.927878666666665, "rental_uris": {"ios": "https://dc.lft.to/lastmile_qr_scan", "android": "https://dc.lft.to/lastmile_qr_scan"}, "is_reserved": 0, "fusion_lon": 0.0, "fusion_lat": 0.0, "lon": -77.021315, "name": "55d2c78217f751e6b6456e67828cd82c"}, {"bike_id": "ba05044167b225345f687929ba9aa075", "type": "electric_scooter", "is_disabled": 0, "lat": 38.90278083333333, "rental_uris": {"ios": "https://dc.lft.to/lastmile_qr_scan", "android": "https://dc.lft.to/lastmile_qr_scan"}, "is_reserved": 0, "fusion_lon": 0.0, "fusion_lat": 0.0, "lon": -77.03935916666667, "name": "ba05044167b225345f687929ba9aa075"}, {"bike_id": "883c5015295eaac9c54e89246a195f8a", "type": "electric_scooter", "is_disabled": 0, "lat": 38.90586, "rental_uris": {"ios": "https://dc.lft.to/lastmile_qr_scan", "android": "https://dc.lft.to/lastmile_qr_scan"}, "is_reserved": 0, "fusion_lon": 0.0, "fusion_lat": 0.0, "lon": -77.01994933333333, "name": "883c5015295eaac9c54e89246a195f8a"}, {"bike_id": "dc9edf4d66dd8047b0698740d8588640", "type": "electric_scooter", "is_disabled": 0, "lat": 38.86416933333334, "rental_uris": {"ios": "https://dc.lft.to/lastmile_qr_scan", "android": "https://dc.lft.to/lastmile_qr_scan"}, "is_reserved": 0, "fusion_lon": 0.0, "fusion_lat": 0.0, "lon": -76.980444, "name": "dc9edf4d66dd8047b0698740d8588640"}, {"bike_id": "4458c0cbbba810789273b256fa0d6ec3", "type": "electric_scooter", "is_disabled": 0, "lat": 38.86376333333333, "rental_uris": {"ios": "https://dc.lft.to/lastmile_qr_scan", "android": "https://dc.lft.to/lastmile_qr_scan"}, "is_reserved": 0, "fusion_lon": 0.0, "fusion_lat": 0.0, "lon": -76.990605, "name": "4458c0cbbba810789273b256fa0d6ec3"}, {"bike_id": "c815c22ee3739a46a6639605a098d319", "type": "electric_scooter", "is_disabled": 0, "lat": 38.908510666666665, "rental_uris": {"ios": "https://dc.lft.to/lastmile_qr_scan", "android": "https://dc.lft.to/lastmile_qr_scan"}, "is_reserved": 0, "fusion_lon": 0.0, "fusion_lat": 0.0, "lon": -76.99797433333333, "name": "c815c22ee3739a46a6639605a098d319"}, {"bike_id": "791d38e61dedaf5d5c62249e8d2ef082", "type": "electric_scooter", "is_disabled": 0, "lat": 38.88367483333333, "rental_uris": {"ios": "https://dc.lft.to/lastmile_qr_scan", "android": "https://dc.lft.to/lastmile_qr_scan"}, "is_reserved": 0, "fusion_lon": 0.0, "fusion_lat": 0.0, "lon": -77.02603716666667, "name": "791d38e61dedaf5d5c62249e8d2ef082"}, {"bike_id": "ef3629b444c5505dd7bf77439acfa205", "type": "electric_scooter", "is_disabled": 0, "lat": 38.91922016666667, "rental_uris": {"ios": "https://dc.lft.to/lastmile_qr_scan", "android": "https://dc.lft.to/lastmile_qr_scan"}, "is_reserved": 0, "fusion_lon": 0.0, "fusion_lat": 0.0, "lon": -77.04241233333333, "name": "ef3629b444c5505dd7bf77439acfa205"}, {"bike_id": "a42216c234f5e0a704d3ad88ace0b912", "type": "electric_scooter", "is_disabled": 0, "lat": 38.866833, "rental_uris": {"ios": "https://dc.lft.to/lastmile_qr_scan", "android": "https://dc.lft.to/lastmile_qr_scan"}, "is_reserved": 0, "fusion_lon": 0.0, "fusion_lat": 0.0, "lon": -76.9855385, "name": "a42216c234f5e0a704d3ad88ace0b912"}, {"bike_id": "b17e1a5525e949852d24b1be27326c94", "type": "electric_scooter", "is_disabled": 0, "lat": 38.905066, "rental_uris": {"ios": "https://dc.lft.to/lastmile_qr_scan", "android": "https://dc.lft.to/lastmile_qr_scan"}, "is_reserved": 0, "fusion_lon": 0.0, "fusion_lat": 0.0, "lon": -77.05143366666667, "name": "b17e1a5525e949852d24b1be27326c94"}, {"bike_id": "ab7d4cc9d262513c4e2464d3a7c66d5f", "type": "electric_scooter", "is_disabled": 0, "lat": 38.920158666666666, "rental_uris": {"ios": "https://dc.lft.to/lastmile_qr_scan", "android": "https://dc.lft.to/lastmile_qr_scan"}, "is_reserved": 0, "fusion_lon": 0.0, "fusion_lat": 0.0, "lon": -77.0311905, "name": "ab7d4cc9d262513c4e2464d3a7c66d5f"}, {"bike_id": "a9796d09f7244fbd202108e060f17ebe", "type": "electric_bike", "is_disabled": 0, "lat": 38.99345783333333, "rental_uris": {"ios": "https://dc.lft.to/lastmile_qr_scan", "android": "https://dc.lft.to/lastmile_qr_scan"}, "is_reserved": 0, "fusion_lon": 0.0, "fusion_lat": 0.0, "lon": -77.11574366666666, "name": "a9796d09f7244fbd202108e060f17ebe"}, {"bike_id": "6cd2453d856f603f0a36a6988b70ee62", "type": "electric_scooter", "is_disabled": 0, "lat": 38.865051666666666, "rental_uris": {"ios": "https://dc.lft.to/lastmile_qr_scan", "android": "https://dc.lft.to/lastmile_qr_scan"}, "is_reserved": 0, "fusion_lon": 0.0, "fusion_lat": 0.0, "lon": -76.99000533333333, "name": "6cd2453d856f603f0a36a6988b70ee62"}, {"bike_id": "bc2eedaa4e5a253b35a8609dfb5256f6", "type": "electric_scooter", "is_disabled": 0, "lat": 38.91403583333334, "rental_uris": {"ios": "https://dc.lft.to/lastmile_qr_scan", "android": "https://dc.lft.to/lastmile_qr_scan"}, "is_reserved": 0, "fusion_lon": 0.0, "fusion_lat": 0.0, "lon": -77.03446466666666, "name": "bc2eedaa4e5a253b35a8609dfb5256f6"}, {"bike_id": "d107239680a5965b58c3679cc6ce0e5a", "type": "electric_scooter", "is_disabled": 0, "lat": 38.919618166666666, "rental_uris": {"ios": "https://dc.lft.to/lastmile_qr_scan", "android": "https://dc.lft.to/lastmile_qr_scan"}, "is_reserved": 0, "fusion_lon": 0.0, "fusion_lat": 0.0, "lon": -77.0347445, "name": "d107239680a5965b58c3679cc6ce0e5a"}, {"bike_id": "a723518a091843e2bfde9b9639cf93e0", "type": "electric_bike", "is_disabled": 0, "lat": 38.807615166666665, "rental_uris": {"ios": "https://dc.lft.to/lastmile_qr_scan", "android": "https://dc.lft.to/lastmile_qr_scan"}, "is_reserved": 0, "fusion_lon": 0.0, "fusion_lat": 0.0, "lon": -77.0946405, "name": "a723518a091843e2bfde9b9639cf93e0"}, {"bike_id": "b5c64d4a06f7e9a35128813a2cf22a74", "type": "electric_scooter", "is_disabled": 0, "lat": 38.93578516666667, "rental_uris": {"ios": "https://dc.lft.to/lastmile_qr_scan", "android": "https://dc.lft.to/lastmile_qr_scan"}, "is_reserved": 0, "fusion_lon": 0.0, "fusion_lat": 0.0, "lon": -77.033591, "name": "b5c64d4a06f7e9a35128813a2cf22a74"}, {"bike_id": "926a9ba3184951cad0c5d5d590dba565", "type": "electric_scooter", "is_disabled": 0, "lat": 38.923221833333336, "rental_uris": {"ios": "https://dc.lft.to/lastmile_qr_scan", "android": "https://dc.lft.to/lastmile_qr_scan"}, "is_reserved": 0, "fusion_lon": 0.0, "fusion_lat": 0.0, "lon": -77.04038683333333, "name": "926a9ba3184951cad0c5d5d590dba565"}, {"bike_id": "ddcc8a970fb1f567bf1773c0bfdcf81c", "type": "electric_scooter", "is_disabled": 0, "lat": 38.903279166666664, "rental_uris": {"ios": "https://dc.lft.to/lastmile_qr_scan", "android": "https://dc.lft.to/lastmile_qr_scan"}, "is_reserved": 0, "fusion_lon": 0.0, "fusion_lat": 0.0, "lon": -76.98283883333333, "name": "ddcc8a970fb1f567bf1773c0bfdcf81c"}, {"bike_id": "0b0072eb82407bd1dbd9123e1765619b", "type": "electric_scooter", "is_disabled": 0, "lat": 38.878089333333335, "rental_uris": {"ios": "https://dc.lft.to/lastmile_qr_scan", "android": "https://dc.lft.to/lastmile_qr_scan"}, "is_reserved": 0, "fusion_lon": 0.0, "fusion_lat": 0.0, "lon": -77.0174685, "name": "0b0072eb82407bd1dbd9123e1765619b"}, {"bike_id": "09a30b26e64b151b76e2b7b4ebed0a11", "type": "electric_scooter", "is_disabled": 0, "lat": 38.916108333333334, "rental_uris": {"ios": "https://dc.lft.to/lastmile_qr_scan", "android": "https://dc.lft.to/lastmile_qr_scan"}, "is_reserved": 0, "fusion_lon": 0.0, "fusion_lat": 0.0, "lon": -77.03389466666667, "name": "09a30b26e64b151b76e2b7b4ebed0a11"}, {"bike_id": "7db25c4598ad13876a7debfe7640920f", "type": "electric_scooter", "is_disabled": 0, "lat": 38.9205945, "rental_uris": {"ios": "https://dc.lft.to/lastmile_qr_scan", "android": "https://dc.lft.to/lastmile_qr_scan"}, "is_reserved": 0, "fusion_lon": 0.0, "fusion_lat": 0.0, "lon": -77.04400833333334, "name": "7db25c4598ad13876a7debfe7640920f"}, {"bike_id": "3748223ed9b8bc72a2f2598b85ae4be9", "type": "electric_scooter", "is_disabled": 0, "lat": 38.929650333333335, "rental_uris": {"ios": "https://dc.lft.to/lastmile_qr_scan", "android": "https://dc.lft.to/lastmile_qr_scan"}, "is_reserved": 0, "fusion_lon": 0.0, "fusion_lat": 0.0, "lon": -77.03136, "name": "3748223ed9b8bc72a2f2598b85ae4be9"}, {"bike_id": "a4f03e1ede2a0a16441564383f6cfa4c", "type": "electric_bike", "is_disabled": 0, "lat": 38.963264, "rental_uris": {"ios": "https://dc.lft.to/lastmile_qr_scan", "android": "https://dc.lft.to/lastmile_qr_scan"}, "is_reserved": 0, "fusion_lon": 0.0, "fusion_lat": 0.0, "lon": -76.97362, "name": "a4f03e1ede2a0a16441564383f6cfa4c"}, {"bike_id": "246a163eed3d09400f1090f889abdc56", "type": "electric_scooter", "is_disabled": 0, "lat": 38.9050225, "rental_uris": {"ios": "https://dc.lft.to/lastmile_qr_scan", "android": "https://dc.lft.to/lastmile_qr_scan"}, "is_reserved": 0, "fusion_lon": 0.0, "fusion_lat": 0.0, "lon": -77.0601805, "name": "246a163eed3d09400f1090f889abdc56"}, {"bike_id": "eff8e08264e95334484b38513207f461", "type": "electric_scooter", "is_disabled": 0, "lat": 38.866751, "rental_uris": {"ios": "https://dc.lft.to/lastmile_qr_scan", "android": "https://dc.lft.to/lastmile_qr_scan"}, "is_reserved": 0, "fusion_lon": 0.0, "fusion_lat": 0.0, "lon": -76.98539016666666, "name": "eff8e08264e95334484b38513207f461"}, {"bike_id": "421e4adafb826e72ac3891d9d803f68b", "type": "electric_scooter", "is_disabled": 0, "lat": 38.920846166666664, "rental_uris": {"ios": "https://dc.lft.to/lastmile_qr_scan", "android": "https://dc.lft.to/lastmile_qr_scan"}, "is_reserved": 0, "fusion_lon": 0.0, "fusion_lat": 0.0, "lon": -77.02506883333334, "name": "421e4adafb826e72ac3891d9d803f68b"}, {"bike_id": "82ba573f8bf4edc0c40e3f0c538c70aa", "type": "electric_scooter", "is_disabled": 0, "lat": 38.897150833333335, "rental_uris": {"ios": "https://dc.lft.to/lastmile_qr_scan", "android": "https://dc.lft.to/lastmile_qr_scan"}, "is_reserved": 0, "fusion_lon": 0.0, "fusion_lat": 0.0, "lon": -77.008493, "name": "82ba573f8bf4edc0c40e3f0c538c70aa"}, {"bike_id": "b90d3812277db88302e8f01c40bdc1ec", "type": "electric_scooter", "is_disabled": 0, "lat": 38.9234255, "rental_uris": {"ios": "https://dc.lft.to/lastmile_qr_scan", "android": "https://dc.lft.to/lastmile_qr_scan"}, "is_reserved": 0, "fusion_lon": 0.0, "fusion_lat": 0.0, "lon": -77.0417735, "name": "b90d3812277db88302e8f01c40bdc1ec"}, {"bike_id": "41dc76899930be3b5e97679f646910c2", "type": "electric_bike", "is_disabled": 0, "lat": 38.96308533333333, "rental_uris": {"ios": "https://dc.lft.to/lastmile_qr_scan", "android": "https://dc.lft.to/lastmile_qr_scan"}, "is_reserved": 0, "fusion_lon": 0.0, "fusion_lat": 0.0, "lon": -77.01103216666667, "name": "41dc76899930be3b5e97679f646910c2"}, {"bike_id": "da2591e736f9aca7fdd5917eb20f3da8", "type": "electric_scooter", "is_disabled": 0, "lat": 38.91785466666666, "rental_uris": {"ios": "https://dc.lft.to/lastmile_qr_scan", "android": "https://dc.lft.to/lastmile_qr_scan"}, "is_reserved": 0, "fusion_lon": 0.0, "fusion_lat": 0.0, "lon": -77.02310033333333, "name": "da2591e736f9aca7fdd5917eb20f3da8"}, {"bike_id": "e94fa43ffbb9b7a18d2833c635d21a27", "type": "electric_scooter", "is_disabled": 0, "lat": 38.89926583333333, "rental_uris": {"ios": "https://dc.lft.to/lastmile_qr_scan", "android": "https://dc.lft.to/lastmile_qr_scan"}, "is_reserved": 0, "fusion_lon": 0.0, "fusion_lat": 0.0, "lon": -77.0536595, "name": "e94fa43ffbb9b7a18d2833c635d21a27"}, {"bike_id": "efb867ef049fd1152d1d60e9fcb2dad6", "type": "electric_scooter", "is_disabled": 0, "lat": 38.90534683333333, "rental_uris": {"ios": "https://dc.lft.to/lastmile_qr_scan", "android": "https://dc.lft.to/lastmile_qr_scan"}, "is_reserved": 0, "fusion_lon": 0.0, "fusion_lat": 0.0, "lon": -77.06133933333334, "name": "efb867ef049fd1152d1d60e9fcb2dad6"}, {"bike_id": "43bb30d3a7a019fe8ab741a7f63e8d47", "type": "electric_scooter", "is_disabled": 0, "lat": 38.900996666666664, "rental_uris": {"ios": "https://dc.lft.to/lastmile_qr_scan", "android": "https://dc.lft.to/lastmile_qr_scan"}, "is_reserved": 0, "fusion_lon": 0.0, "fusion_lat": 0.0, "lon": -77.01819916666666, "name": "43bb30d3a7a019fe8ab741a7f63e8d47"}, {"bike_id": "e95c64cddfd6defeca3e458f0b86edb7", "type": "electric_scooter", "is_disabled": 0, "lat": 38.917015, "rental_uris": {"ios": "https://dc.lft.to/lastmile_qr_scan", "android": "https://dc.lft.to/lastmile_qr_scan"}, "is_reserved": 0, "fusion_lon": 0.0, "fusion_lat": 0.0, "lon": -77.00796716666666, "name": "e95c64cddfd6defeca3e458f0b86edb7"}, {"bike_id": "f0077ea43c9d9309b461ca87793520e8", "type": "electric_scooter", "is_disabled": 0, "lat": 38.92582016666667, "rental_uris": {"ios": "https://dc.lft.to/lastmile_qr_scan", "android": "https://dc.lft.to/lastmile_qr_scan"}, "is_reserved": 0, "fusion_lon": 0.0, "fusion_lat": 0.0, "lon": -77.027576, "name": "f0077ea43c9d9309b461ca87793520e8"}, {"bike_id": "9a6ab677117fae2d502fac73cabc8c04", "type": "electric_scooter", "is_disabled": 0, "lat": 38.9226205, "rental_uris": {"ios": "https://dc.lft.to/lastmile_qr_scan", "android": "https://dc.lft.to/lastmile_qr_scan"}, "is_reserved": 0, "fusion_lon": 0.0, "fusion_lat": 0.0, "lon": -77.0326025, "name": "9a6ab677117fae2d502fac73cabc8c04"}, {"bike_id": "feb34d2a758f417d92c2397bdc7fc2dc", "type": "electric_scooter", "is_disabled": 0, "lat": 38.9265795, "rental_uris": {"ios": "https://dc.lft.to/lastmile_qr_scan", "android": "https://dc.lft.to/lastmile_qr_scan"}, "is_reserved": 0, "fusion_lon": 0.0, "fusion_lat": 0.0, "lon": -77.03729533333333, "name": "feb34d2a758f417d92c2397bdc7fc2dc"}, {"bike_id": "418ae4adffa60258156c5a3ff0be0b08", "type": "electric_scooter", "is_disabled": 0, "lat": 38.909747333333335, "rental_uris": {"ios": "https://dc.lft.to/lastmile_qr_scan", "android": "https://dc.lft.to/lastmile_qr_scan"}, "is_reserved": 0, "fusion_lon": 0.0, "fusion_lat": 0.0, "lon": -77.03756383333334, "name": "418ae4adffa60258156c5a3ff0be0b08"}, {"bike_id": "e355d6470cd3a891d7e801e4120d70c5", "type": "electric_scooter", "is_disabled": 0, "lat": 38.914172, "rental_uris": {"ios": "https://dc.lft.to/lastmile_qr_scan", "android": "https://dc.lft.to/lastmile_qr_scan"}, "is_reserved": 0, "fusion_lon": 0.0, "fusion_lat": 0.0, "lon": -77.022518, "name": "e355d6470cd3a891d7e801e4120d70c5"}, {"bike_id": "e9971833c0722b029402dd893b87b3e9", "type": "electric_scooter", "is_disabled": 0, "lat": 38.90382816666666, "rental_uris": {"ios": "https://dc.lft.to/lastmile_qr_scan", "android": "https://dc.lft.to/lastmile_qr_scan"}, "is_reserved": 0, "fusion_lon": 0.0, "fusion_lat": 0.0, "lon": -77.01639766666666, "name": "e9971833c0722b029402dd893b87b3e9"}, {"bike_id": "549bdf709c215cf677a3a5bff98b94e0", "type": "electric_scooter", "is_disabled": 0, "lat": 38.921382666666666, "rental_uris": {"ios": "https://dc.lft.to/lastmile_qr_scan", "android": "https://dc.lft.to/lastmile_qr_scan"}, "is_reserved": 0, "fusion_lon": 0.0, "fusion_lat": 0.0, "lon": -77.04113016666666, "name": "549bdf709c215cf677a3a5bff98b94e0"}, {"bike_id": "bacef0af3b621fd2ee3db8b452f59644", "type": "electric_scooter", "is_disabled": 0, "lat": 38.91818283333333, "rental_uris": {"ios": "https://dc.lft.to/lastmile_qr_scan", "android": "https://dc.lft.to/lastmile_qr_scan"}, "is_reserved": 0, "fusion_lon": 0.0, "fusion_lat": 0.0, "lon": -77.03672533333334, "name": "bacef0af3b621fd2ee3db8b452f59644"}, {"bike_id": "d83f8ced74e3a2df33b3be78245af97d", "type": "electric_scooter", "is_disabled": 0, "lat": 38.90738866666667, "rental_uris": {"ios": "https://dc.lft.to/lastmile_qr_scan", "android": "https://dc.lft.to/lastmile_qr_scan"}, "is_reserved": 0, "fusion_lon": 0.0, "fusion_lat": 0.0, "lon": -77.02947566666667, "name": "d83f8ced74e3a2df33b3be78245af97d"}, {"bike_id": "39a56a11305061f7f79c8f0a3e536dc9", "type": "electric_bike", "is_disabled": 0, "lat": 38.908793333333335, "rental_uris": {"ios": "https://dc.lft.to/lastmile_qr_scan", "android": "https://dc.lft.to/lastmile_qr_scan"}, "is_reserved": 0, "fusion_lon": 0.0, "fusion_lat": 0.0, "lon": -76.99132666666667, "name": "39a56a11305061f7f79c8f0a3e536dc9"}, {"bike_id": "f739e5e912623dc9ea658696c9028b46", "type": "electric_scooter", "is_disabled": 0, "lat": 38.92317516666667, "rental_uris": {"ios": "https://dc.lft.to/lastmile_qr_scan", "android": "https://dc.lft.to/lastmile_qr_scan"}, "is_reserved": 0, "fusion_lon": 0.0, "fusion_lat": 0.0, "lon": -77.03912516666666, "name": "f739e5e912623dc9ea658696c9028b46"}, {"bike_id": "66290073962a5348e6e06b6e297ba95c", "type": "electric_scooter", "is_disabled": 0, "lat": 38.91967916666667, "rental_uris": {"ios": "https://dc.lft.to/lastmile_qr_scan", "android": "https://dc.lft.to/lastmile_qr_scan"}, "is_reserved": 0, "fusion_lon": 0.0, "fusion_lat": 0.0, "lon": -77.02406866666666, "name": "66290073962a5348e6e06b6e297ba95c"}, {"bike_id": "dbb9e9f6dd50e3184fddc31f361fe9ce", "type": "electric_scooter", "is_disabled": 0, "lat": 38.892604166666665, "rental_uris": {"ios": "https://dc.lft.to/lastmile_qr_scan", "android": "https://dc.lft.to/lastmile_qr_scan"}, "is_reserved": 0, "fusion_lon": 0.0, "fusion_lat": 0.0, "lon": -77.03337533333334, "name": "dbb9e9f6dd50e3184fddc31f361fe9ce"}, {"bike_id": "d550ef471bb29e971342995553159815", "type": "electric_scooter", "is_disabled": 0, "lat": 38.873369333333336, "rental_uris": {"ios": "https://dc.lft.to/lastmile_qr_scan", "android": "https://dc.lft.to/lastmile_qr_scan"}, "is_reserved": 0, "fusion_lon": 0.0, "fusion_lat": 0.0, "lon": -76.967824, "name": "d550ef471bb29e971342995553159815"}, {"bike_id": "af7b200100f47eede13b198e01dd343c", "type": "electric_scooter", "is_disabled": 0, "lat": 38.87733583333333, "rental_uris": {"ios": "https://dc.lft.to/lastmile_qr_scan", "android": "https://dc.lft.to/lastmile_qr_scan"}, "is_reserved": 0, "fusion_lon": 0.0, "fusion_lat": 0.0, "lon": -77.02004666666667, "name": "af7b200100f47eede13b198e01dd343c"}, {"bike_id": "60a4d0d8872bb7d93ecb8eaec742db3d", "type": "electric_scooter", "is_disabled": 0, "lat": 38.928987666666664, "rental_uris": {"ios": "https://dc.lft.to/lastmile_qr_scan", "android": "https://dc.lft.to/lastmile_qr_scan"}, "is_reserved": 0, "fusion_lon": 0.0, "fusion_lat": 0.0, "lon": -77.05453433333334, "name": "60a4d0d8872bb7d93ecb8eaec742db3d"}, {"bike_id": "96fc0d578c637ac94296994771f60ccd", "type": "electric_bike", "is_disabled": 0, "lat": 38.93565866666667, "rental_uris": {"ios": "https://dc.lft.to/lastmile_qr_scan", "android": "https://dc.lft.to/lastmile_qr_scan"}, "is_reserved": 0, "fusion_lon": 0.0, "fusion_lat": 0.0, "lon": -77.0214295, "name": "96fc0d578c637ac94296994771f60ccd"}, {"bike_id": "f5304afc37c4d877e544b75a6beb8cf4", "type": "electric_bike", "is_disabled": 0, "lat": 38.97393316666667, "rental_uris": {"ios": "https://dc.lft.to/lastmile_qr_scan", "android": "https://dc.lft.to/lastmile_qr_scan"}, "is_reserved": 0, "fusion_lon": 0.0, "fusion_lat": 0.0, "lon": -77.06448766666666, "name": "f5304afc37c4d877e544b75a6beb8cf4"}, {"bike_id": "138c2524584f1dab75f4aef63f4d3fc7", "type": "electric_scooter", "is_disabled": 0, "lat": 38.879253, "rental_uris": {"ios": "https://dc.lft.to/lastmile_qr_scan", "android": "https://dc.lft.to/lastmile_qr_scan"}, "is_reserved": 0, "fusion_lon": 0.0, "fusion_lat": 0.0, "lon": -77.00884833333333, "name": "138c2524584f1dab75f4aef63f4d3fc7"}, {"bike_id": "779d0e87e266638ce8f92ffa1b6144b4", "type": "electric_scooter", "is_disabled": 0, "lat": 38.9012, "rental_uris": {"ios": "https://dc.lft.to/lastmile_qr_scan", "android": "https://dc.lft.to/lastmile_qr_scan"}, "is_reserved": 0, "fusion_lon": 0.0, "fusion_lat": 0.0, "lon": -76.92949383333334, "name": "779d0e87e266638ce8f92ffa1b6144b4"}, {"bike_id": "f1841cc0809f52f9110b22a7ae6b85bf", "type": "electric_scooter", "is_disabled": 0, "lat": 38.9375475, "rental_uris": {"ios": "https://dc.lft.to/lastmile_qr_scan", "android": "https://dc.lft.to/lastmile_qr_scan"}, "is_reserved": 0, "fusion_lon": 0.0, "fusion_lat": 0.0, "lon": -77.0247165, "name": "f1841cc0809f52f9110b22a7ae6b85bf"}, {"bike_id": "d869053fd85a68a8abfb359975295d50", "type": "electric_scooter", "is_disabled": 0, "lat": 38.9313365, "rental_uris": {"ios": "https://dc.lft.to/lastmile_qr_scan", "android": "https://dc.lft.to/lastmile_qr_scan"}, "is_reserved": 0, "fusion_lon": 0.0, "fusion_lat": 0.0, "lon": -77.0279065, "name": "d869053fd85a68a8abfb359975295d50"}, {"bike_id": "564fb41c33119cab9dd7ddec43d874fc", "type": "electric_scooter", "is_disabled": 0, "lat": 38.920183333333334, "rental_uris": {"ios": "https://dc.lft.to/lastmile_qr_scan", "android": "https://dc.lft.to/lastmile_qr_scan"}, "is_reserved": 0, "fusion_lon": 0.0, "fusion_lat": 0.0, "lon": -77.0419235, "name": "564fb41c33119cab9dd7ddec43d874fc"}, {"bike_id": "fac983c3228ce789aa85fddb772517a7", "type": "electric_scooter", "is_disabled": 0, "lat": 38.92370316666667, "rental_uris": {"ios": "https://dc.lft.to/lastmile_qr_scan", "android": "https://dc.lft.to/lastmile_qr_scan"}, "is_reserved": 0, "fusion_lon": 0.0, "fusion_lat": 0.0, "lon": -77.01921, "name": "fac983c3228ce789aa85fddb772517a7"}, {"bike_id": "b44d07d03f86effc39b426189666e857", "type": "electric_scooter", "is_disabled": 0, "lat": 38.902809, "rental_uris": {"ios": "https://dc.lft.to/lastmile_qr_scan", "android": "https://dc.lft.to/lastmile_qr_scan"}, "is_reserved": 0, "fusion_lon": 0.0, "fusion_lat": 0.0, "lon": -77.00357733333334, "name": "b44d07d03f86effc39b426189666e857"}, {"bike_id": "d19edda56007cc638628d40d3d2a20b8", "type": "electric_scooter", "is_disabled": 0, "lat": 38.956306166666664, "rental_uris": {"ios": "https://dc.lft.to/lastmile_qr_scan", "android": "https://dc.lft.to/lastmile_qr_scan"}, "is_reserved": 0, "fusion_lon": 0.0, "fusion_lat": 0.0, "lon": -77.03614716666667, "name": "d19edda56007cc638628d40d3d2a20b8"}, {"bike_id": "de44f808116a4f1f1d319ea148d5b82b", "type": "electric_scooter", "is_disabled": 0, "lat": 38.92453366666667, "rental_uris": {"ios": "https://dc.lft.to/lastmile_qr_scan", "android": "https://dc.lft.to/lastmile_qr_scan"}, "is_reserved": 0, "fusion_lon": 0.0, "fusion_lat": 0.0, "lon": -77.0240665, "name": "de44f808116a4f1f1d319ea148d5b82b"}, {"bike_id": "1833cb5f7e69c9cbe65f0c1608ce800e", "type": "electric_scooter", "is_disabled": 0, "lat": 38.92612966666667, "rental_uris": {"ios": "https://dc.lft.to/lastmile_qr_scan", "android": "https://dc.lft.to/lastmile_qr_scan"}, "is_reserved": 0, "fusion_lon": 0.0, "fusion_lat": 0.0, "lon": -77.02159116666667, "name": "1833cb5f7e69c9cbe65f0c1608ce800e"}, {"bike_id": "f606acbc89fd8afe6afadec1e521bc52", "type": "electric_scooter", "is_disabled": 0, "lat": 38.90236766666666, "rental_uris": {"ios": "https://dc.lft.to/lastmile_qr_scan", "android": "https://dc.lft.to/lastmile_qr_scan"}, "is_reserved": 0, "fusion_lon": 0.0, "fusion_lat": 0.0, "lon": -77.00196433333333, "name": "f606acbc89fd8afe6afadec1e521bc52"}, {"bike_id": "e1bcf3107311e15263df6e233c9f76ef", "type": "electric_scooter", "is_disabled": 0, "lat": 38.900047, "rental_uris": {"ios": "https://dc.lft.to/lastmile_qr_scan", "android": "https://dc.lft.to/lastmile_qr_scan"}, "is_reserved": 0, "fusion_lon": 0.0, "fusion_lat": 0.0, "lon": -77.04652616666667, "name": "e1bcf3107311e15263df6e233c9f76ef"}, {"bike_id": "5e3127b172899b89d2b7e593f7112221", "type": "electric_scooter", "is_disabled": 0, "lat": 38.935458, "rental_uris": {"ios": "https://dc.lft.to/lastmile_qr_scan", "android": "https://dc.lft.to/lastmile_qr_scan"}, "is_reserved": 0, "fusion_lon": 0.0, "fusion_lat": 0.0, "lon": -77.05858416666666, "name": "5e3127b172899b89d2b7e593f7112221"}, {"bike_id": "5564f3d0d63891452f222c71d94d2915", "type": "electric_scooter", "is_disabled": 0, "lat": 38.9232145, "rental_uris": {"ios": "https://dc.lft.to/lastmile_qr_scan", "android": "https://dc.lft.to/lastmile_qr_scan"}, "is_reserved": 0, "fusion_lon": 0.0, "fusion_lat": 0.0, "lon": -77.0279635, "name": "5564f3d0d63891452f222c71d94d2915"}, {"bike_id": "ab7006319ac2abcdda4889684714a0da", "type": "electric_scooter", "is_disabled": 0, "lat": 38.92583466666667, "rental_uris": {"ios": "https://dc.lft.to/lastmile_qr_scan", "android": "https://dc.lft.to/lastmile_qr_scan"}, "is_reserved": 0, "fusion_lon": 0.0, "fusion_lat": 0.0, "lon": -77.04404333333333, "name": "ab7006319ac2abcdda4889684714a0da"}, {"bike_id": "afda3b2d96a796b2f00c7fa2e08e91ea", "type": "electric_scooter", "is_disabled": 0, "lat": 38.883015, "rental_uris": {"ios": "https://dc.lft.to/lastmile_qr_scan", "android": "https://dc.lft.to/lastmile_qr_scan"}, "is_reserved": 0, "fusion_lon": 0.0, "fusion_lat": 0.0, "lon": -76.9485195, "name": "afda3b2d96a796b2f00c7fa2e08e91ea"}, {"bike_id": "f20e6e4c3579906c897f6a4a75863439", "type": "electric_scooter", "is_disabled": 0, "lat": 38.900619, "rental_uris": {"ios": "https://dc.lft.to/lastmile_qr_scan", "android": "https://dc.lft.to/lastmile_qr_scan"}, "is_reserved": 0, "fusion_lon": 0.0, "fusion_lat": 0.0, "lon": -77.046728, "name": "f20e6e4c3579906c897f6a4a75863439"}, {"bike_id": "fc5d15640489c81e4903103d6c1dba7b", "type": "electric_bike", "is_disabled": 0, "lat": 38.96961666666667, "rental_uris": {"ios": "https://dc.lft.to/lastmile_qr_scan", "android": "https://dc.lft.to/lastmile_qr_scan"}, "is_reserved": 0, "fusion_lon": 0.0, "fusion_lat": 0.0, "lon": -76.95748, "name": "fc5d15640489c81e4903103d6c1dba7b"}, {"bike_id": "4dec5d3405bc2a135727d9ad210d68bf", "type": "electric_scooter", "is_disabled": 0, "lat": 38.915901, "rental_uris": {"ios": "https://dc.lft.to/lastmile_qr_scan", "android": "https://dc.lft.to/lastmile_qr_scan"}, "is_reserved": 0, "fusion_lon": 0.0, "fusion_lat": 0.0, "lon": -77.04480383333333, "name": "4dec5d3405bc2a135727d9ad210d68bf"}, {"bike_id": "9c89e495e1aea54857fc27d6f38935a7", "type": "electric_scooter", "is_disabled": 0, "lat": 38.864701333333336, "rental_uris": {"ios": "https://dc.lft.to/lastmile_qr_scan", "android": "https://dc.lft.to/lastmile_qr_scan"}, "is_reserved": 0, "fusion_lon": 0.0, "fusion_lat": 0.0, "lon": -76.977399, "name": "9c89e495e1aea54857fc27d6f38935a7"}, {"bike_id": "d3cb6c24d5f01f555c87e069f4861231", "type": "electric_scooter", "is_disabled": 0, "lat": 38.91281816666667, "rental_uris": {"ios": "https://dc.lft.to/lastmile_qr_scan", "android": "https://dc.lft.to/lastmile_qr_scan"}, "is_reserved": 0, "fusion_lon": 0.0, "fusion_lat": 0.0, "lon": -77.02717016666666, "name": "d3cb6c24d5f01f555c87e069f4861231"}, {"bike_id": "f40b37d55915c3b6eae3139a489c9f5e", "type": "electric_scooter", "is_disabled": 0, "lat": 38.90272316666667, "rental_uris": {"ios": "https://dc.lft.to/lastmile_qr_scan", "android": "https://dc.lft.to/lastmile_qr_scan"}, "is_reserved": 0, "fusion_lon": 0.0, "fusion_lat": 0.0, "lon": -77.01895466666667, "name": "f40b37d55915c3b6eae3139a489c9f5e"}, {"bike_id": "dbee708339b92a20023fa6e371e6d938", "type": "electric_scooter", "is_disabled": 0, "lat": 38.92472633333333, "rental_uris": {"ios": "https://dc.lft.to/lastmile_qr_scan", "android": "https://dc.lft.to/lastmile_qr_scan"}, "is_reserved": 0, "fusion_lon": 0.0, "fusion_lat": 0.0, "lon": -77.02830033333333, "name": "dbee708339b92a20023fa6e371e6d938"}, {"bike_id": "8d3b2c9aaf62ab126fa39c57b7a6582c", "type": "electric_scooter", "is_disabled": 0, "lat": 38.9248345, "rental_uris": {"ios": "https://dc.lft.to/lastmile_qr_scan", "android": "https://dc.lft.to/lastmile_qr_scan"}, "is_reserved": 0, "fusion_lon": 0.0, "fusion_lat": 0.0, "lon": -77.021981, "name": "8d3b2c9aaf62ab126fa39c57b7a6582c"}, {"bike_id": "bd6256e0c99053ca689e83990e899fb8", "type": "electric_bike", "is_disabled": 0, "lat": 38.9788275, "rental_uris": {"ios": "https://dc.lft.to/lastmile_qr_scan", "android": "https://dc.lft.to/lastmile_qr_scan"}, "is_reserved": 0, "fusion_lon": 0.0, "fusion_lat": 0.0, "lon": -77.06023166666667, "name": "bd6256e0c99053ca689e83990e899fb8"}, {"bike_id": "f328de98247de528a567140cf8f01948", "type": "electric_scooter", "is_disabled": 0, "lat": 38.9238615, "rental_uris": {"ios": "https://dc.lft.to/lastmile_qr_scan", "android": "https://dc.lft.to/lastmile_qr_scan"}, "is_reserved": 0, "fusion_lon": 0.0, "fusion_lat": 0.0, "lon": -77.02691283333333, "name": "f328de98247de528a567140cf8f01948"}, {"bike_id": "b10ad164a0184c559af1f3746f113acb", "type": "electric_scooter", "is_disabled": 0, "lat": 38.9353925, "rental_uris": {"ios": "https://dc.lft.to/lastmile_qr_scan", "android": "https://dc.lft.to/lastmile_qr_scan"}, "is_reserved": 0, "fusion_lon": 0.0, "fusion_lat": 0.0, "lon": -77.02347133333333, "name": "b10ad164a0184c559af1f3746f113acb"}, {"bike_id": "6dd6ab29afbf58310facb3fdcc00af90", "type": "electric_scooter", "is_disabled": 0, "lat": 38.914789166666665, "rental_uris": {"ios": "https://dc.lft.to/lastmile_qr_scan", "android": "https://dc.lft.to/lastmile_qr_scan"}, "is_reserved": 0, "fusion_lon": 0.0, "fusion_lat": 0.0, "lon": -77.00912633333333, "name": "6dd6ab29afbf58310facb3fdcc00af90"}, {"bike_id": "1c25e18d9ff16eb1d3ae46a3928f24d2", "type": "electric_scooter", "is_disabled": 0, "lat": 38.90257833333333, "rental_uris": {"ios": "https://dc.lft.to/lastmile_qr_scan", "android": "https://dc.lft.to/lastmile_qr_scan"}, "is_reserved": 0, "fusion_lon": 0.0, "fusion_lat": 0.0, "lon": -77.00327716666666, "name": "1c25e18d9ff16eb1d3ae46a3928f24d2"}, {"bike_id": "f60a4c0c1179d0b32af7fcb4920c5c5c", "type": "electric_scooter", "is_disabled": 0, "lat": 38.91611433333333, "rental_uris": {"ios": "https://dc.lft.to/lastmile_qr_scan", "android": "https://dc.lft.to/lastmile_qr_scan"}, "is_reserved": 0, "fusion_lon": 0.0, "fusion_lat": 0.0, "lon": -77.044889, "name": "f60a4c0c1179d0b32af7fcb4920c5c5c"}, {"bike_id": "e5e7bdfa86a6fc9c1e1e96891273f50d", "type": "electric_scooter", "is_disabled": 0, "lat": 38.94495933333334, "rental_uris": {"ios": "https://dc.lft.to/lastmile_qr_scan", "android": "https://dc.lft.to/lastmile_qr_scan"}, "is_reserved": 0, "fusion_lon": 0.0, "fusion_lat": 0.0, "lon": -77.02619766666666, "name": "e5e7bdfa86a6fc9c1e1e96891273f50d"}, {"bike_id": "6e527acd68a3c77764b5a88870544f98", "type": "electric_scooter", "is_disabled": 0, "lat": 38.90502466666667, "rental_uris": {"ios": "https://dc.lft.to/lastmile_qr_scan", "android": "https://dc.lft.to/lastmile_qr_scan"}, "is_reserved": 0, "fusion_lon": 0.0, "fusion_lat": 0.0, "lon": -77.06117383333333, "name": "6e527acd68a3c77764b5a88870544f98"}, {"bike_id": "16919baae6c9d8b2536df353265f68ba", "type": "electric_scooter", "is_disabled": 0, "lat": 38.91633433333333, "rental_uris": {"ios": "https://dc.lft.to/lastmile_qr_scan", "android": "https://dc.lft.to/lastmile_qr_scan"}, "is_reserved": 0, "fusion_lon": 0.0, "fusion_lat": 0.0, "lon": -77.0372425, "name": "16919baae6c9d8b2536df353265f68ba"}, {"bike_id": "40ae0824b71f2930dbcdcd0d3fca7cc5", "type": "electric_scooter", "is_disabled": 0, "lat": 38.922438666666665, "rental_uris": {"ios": "https://dc.lft.to/lastmile_qr_scan", "android": "https://dc.lft.to/lastmile_qr_scan"}, "is_reserved": 0, "fusion_lon": 0.0, "fusion_lat": 0.0, "lon": -77.03887133333333, "name": "40ae0824b71f2930dbcdcd0d3fca7cc5"}, {"bike_id": "6b6fbf37840be1a0a9594dacc9eb7f00", "type": "electric_bike", "is_disabled": 0, "lat": 38.838106833333335, "rental_uris": {"ios": "https://dc.lft.to/lastmile_qr_scan", "android": "https://dc.lft.to/lastmile_qr_scan"}, "is_reserved": 0, "fusion_lon": 0.0, "fusion_lat": 0.0, "lon": -77.09523783333333, "name": "6b6fbf37840be1a0a9594dacc9eb7f00"}, {"bike_id": "8d7734bd85d99ff8f3dbdb9172f42859", "type": "electric_scooter", "is_disabled": 0, "lat": 38.91267116666667, "rental_uris": {"ios": "https://dc.lft.to/lastmile_qr_scan", "android": "https://dc.lft.to/lastmile_qr_scan"}, "is_reserved": 0, "fusion_lon": 0.0, "fusion_lat": 0.0, "lon": -77.01506783333333, "name": "8d7734bd85d99ff8f3dbdb9172f42859"}, {"bike_id": "2c1676f58c9f926accca0c5e0ee41d50", "type": "electric_scooter", "is_disabled": 0, "lat": 38.90688166666666, "rental_uris": {"ios": "https://dc.lft.to/lastmile_qr_scan", "android": "https://dc.lft.to/lastmile_qr_scan"}, "is_reserved": 0, "fusion_lon": 0.0, "fusion_lat": 0.0, "lon": -77.06515316666666, "name": "2c1676f58c9f926accca0c5e0ee41d50"}, {"bike_id": "7750fa2d9e5e9b0cbfd36d24e9865a6b", "type": "electric_scooter", "is_disabled": 0, "lat": 38.96405933333333, "rental_uris": {"ios": "https://dc.lft.to/lastmile_qr_scan", "android": "https://dc.lft.to/lastmile_qr_scan"}, "is_reserved": 0, "fusion_lon": 0.0, "fusion_lat": 0.0, "lon": -77.02766016666666, "name": "7750fa2d9e5e9b0cbfd36d24e9865a6b"}, {"bike_id": "07c397cae4de40ac7236a9cfee73d222", "type": "electric_scooter", "is_disabled": 0, "lat": 38.908556, "rental_uris": {"ios": "https://dc.lft.to/lastmile_qr_scan", "android": "https://dc.lft.to/lastmile_qr_scan"}, "is_reserved": 0, "fusion_lon": 0.0, "fusion_lat": 0.0, "lon": -77.03493983333334, "name": "07c397cae4de40ac7236a9cfee73d222"}, {"bike_id": "94ab8c6dca9407edb61e917bb334596e", "type": "electric_scooter", "is_disabled": 0, "lat": 38.86892483333333, "rental_uris": {"ios": "https://dc.lft.to/lastmile_qr_scan", "android": "https://dc.lft.to/lastmile_qr_scan"}, "is_reserved": 0, "fusion_lon": 0.0, "fusion_lat": 0.0, "lon": -76.9844875, "name": "94ab8c6dca9407edb61e917bb334596e"}, {"bike_id": "5a9f0a34be8605f15cd5dd98d20e5a5a", "type": "electric_scooter", "is_disabled": 0, "lat": 38.8779555, "rental_uris": {"ios": "https://dc.lft.to/lastmile_qr_scan", "android": "https://dc.lft.to/lastmile_qr_scan"}, "is_reserved": 0, "fusion_lon": 0.0, "fusion_lat": 0.0, "lon": -77.00747133333333, "name": "5a9f0a34be8605f15cd5dd98d20e5a5a"}, {"bike_id": "1b1a4a221fd5750f35bfb90722833b69", "type": "electric_scooter", "is_disabled": 0, "lat": 38.95530333333333, "rental_uris": {"ios": "https://dc.lft.to/lastmile_qr_scan", "android": "https://dc.lft.to/lastmile_qr_scan"}, "is_reserved": 0, "fusion_lon": 0.0, "fusion_lat": 0.0, "lon": -77.02775183333334, "name": "1b1a4a221fd5750f35bfb90722833b69"}, {"bike_id": "0740595e79a6229de4f24bb4c026b26b", "type": "electric_scooter", "is_disabled": 0, "lat": 38.89325933333333, "rental_uris": {"ios": "https://dc.lft.to/lastmile_qr_scan", "android": "https://dc.lft.to/lastmile_qr_scan"}, "is_reserved": 0, "fusion_lon": 0.0, "fusion_lat": 0.0, "lon": -77.0487585, "name": "0740595e79a6229de4f24bb4c026b26b"}, {"bike_id": "7ed252635851d98eca4461835d5e37b2", "type": "electric_scooter", "is_disabled": 0, "lat": 38.89893266666667, "rental_uris": {"ios": "https://dc.lft.to/lastmile_qr_scan", "android": "https://dc.lft.to/lastmile_qr_scan"}, "is_reserved": 0, "fusion_lon": 0.0, "fusion_lat": 0.0, "lon": -77.01514283333333, "name": "7ed252635851d98eca4461835d5e37b2"}, {"bike_id": "87e662064a764b618c0928cfa071c1ef", "type": "electric_scooter", "is_disabled": 0, "lat": 38.95153233333333, "rental_uris": {"ios": "https://dc.lft.to/lastmile_qr_scan", "android": "https://dc.lft.to/lastmile_qr_scan"}, "is_reserved": 0, "fusion_lon": 0.0, "fusion_lat": 0.0, "lon": -77.01867166666666, "name": "87e662064a764b618c0928cfa071c1ef"}, {"bike_id": "1dac691e63f5aadc59038adfb84c7371", "type": "electric_scooter", "is_disabled": 0, "lat": 38.916372, "rental_uris": {"ios": "https://dc.lft.to/lastmile_qr_scan", "android": "https://dc.lft.to/lastmile_qr_scan"}, "is_reserved": 0, "fusion_lon": 0.0, "fusion_lat": 0.0, "lon": -77.042393, "name": "1dac691e63f5aadc59038adfb84c7371"}, {"bike_id": "44abf8026045a1a4c8db46f56753c7ac", "type": "electric_scooter", "is_disabled": 0, "lat": 38.874180333333335, "rental_uris": {"ios": "https://dc.lft.to/lastmile_qr_scan", "android": "https://dc.lft.to/lastmile_qr_scan"}, "is_reserved": 0, "fusion_lon": 0.0, "fusion_lat": 0.0, "lon": -76.971117, "name": "44abf8026045a1a4c8db46f56753c7ac"}, {"bike_id": "45c37d8ea766f461db32a3245079c5db", "type": "electric_scooter", "is_disabled": 0, "lat": 38.901537, "rental_uris": {"ios": "https://dc.lft.to/lastmile_qr_scan", "android": "https://dc.lft.to/lastmile_qr_scan"}, "is_reserved": 0, "fusion_lon": 0.0, "fusion_lat": 0.0, "lon": -76.93058333333333, "name": "45c37d8ea766f461db32a3245079c5db"}, {"bike_id": "63df11398ecfd6e04a06171dab97be1e", "type": "electric_scooter", "is_disabled": 0, "lat": 38.8767265, "rental_uris": {"ios": "https://dc.lft.to/lastmile_qr_scan", "android": "https://dc.lft.to/lastmile_qr_scan"}, "is_reserved": 0, "fusion_lon": 0.0, "fusion_lat": 0.0, "lon": -77.00569133333333, "name": "63df11398ecfd6e04a06171dab97be1e"}, {"bike_id": "245c0e82f4b092fb6d11370c5cebf229", "type": "electric_scooter", "is_disabled": 0, "lat": 38.93884383333334, "rental_uris": {"ios": "https://dc.lft.to/lastmile_qr_scan", "android": "https://dc.lft.to/lastmile_qr_scan"}, "is_reserved": 0, "fusion_lon": 0.0, "fusion_lat": 0.0, "lon": -77.02495116666667, "name": "245c0e82f4b092fb6d11370c5cebf229"}, {"bike_id": "d85b86dc56450b533ed9ad4d1780ec09", "type": "electric_scooter", "is_disabled": 0, "lat": 38.9112065, "rental_uris": {"ios": "https://dc.lft.to/lastmile_qr_scan", "android": "https://dc.lft.to/lastmile_qr_scan"}, "is_reserved": 0, "fusion_lon": 0.0, "fusion_lat": 0.0, "lon": -77.042341, "name": "d85b86dc56450b533ed9ad4d1780ec09"}, {"bike_id": "e8cbe0fdcc9f74ca763af5f20767cd01", "type": "electric_scooter", "is_disabled": 0, "lat": 38.892248, "rental_uris": {"ios": "https://dc.lft.to/lastmile_qr_scan", "android": "https://dc.lft.to/lastmile_qr_scan"}, "is_reserved": 0, "fusion_lon": 0.0, "fusion_lat": 0.0, "lon": -77.0257395, "name": "e8cbe0fdcc9f74ca763af5f20767cd01"}, {"bike_id": "3124b9e411683b9dbd879a2ba030e366", "type": "electric_scooter", "is_disabled": 0, "lat": 38.913605, "rental_uris": {"ios": "https://dc.lft.to/lastmile_qr_scan", "android": "https://dc.lft.to/lastmile_qr_scan"}, "is_reserved": 0, "fusion_lon": 0.0, "fusion_lat": 0.0, "lon": -77.04486083333333, "name": "3124b9e411683b9dbd879a2ba030e366"}, {"bike_id": "c12917e099d68e300a1caa589f7d95a5", "type": "electric_bike", "is_disabled": 0, "lat": 39.062952333333335, "rental_uris": {"ios": "https://dc.lft.to/lastmile_qr_scan", "android": "https://dc.lft.to/lastmile_qr_scan"}, "is_reserved": 0, "fusion_lon": 0.0, "fusion_lat": 0.0, "lon": -77.04979216666666, "name": "c12917e099d68e300a1caa589f7d95a5"}, {"bike_id": "f3a8fd3efb32326badf9bccb9ee6cc8f", "type": "electric_scooter", "is_disabled": 0, "lat": 38.90275716666667, "rental_uris": {"ios": "https://dc.lft.to/lastmile_qr_scan", "android": "https://dc.lft.to/lastmile_qr_scan"}, "is_reserved": 0, "fusion_lon": 0.0, "fusion_lat": 0.0, "lon": -77.03833966666667, "name": "f3a8fd3efb32326badf9bccb9ee6cc8f"}, {"bike_id": "df7c1737c99791fe28aa993446edf453", "type": "electric_scooter", "is_disabled": 0, "lat": 38.94129366666667, "rental_uris": {"ios": "https://dc.lft.to/lastmile_qr_scan", "android": "https://dc.lft.to/lastmile_qr_scan"}, "is_reserved": 0, "fusion_lon": 0.0, "fusion_lat": 0.0, "lon": -77.0153155, "name": "df7c1737c99791fe28aa993446edf453"}, {"bike_id": "63b6e5fa32b9b898de67e0447d0ce9b4", "type": "electric_scooter", "is_disabled": 0, "lat": 38.9066885, "rental_uris": {"ios": "https://dc.lft.to/lastmile_qr_scan", "android": "https://dc.lft.to/lastmile_qr_scan"}, "is_reserved": 0, "fusion_lon": 0.0, "fusion_lat": 0.0, "lon": -77.00913866666667, "name": "63b6e5fa32b9b898de67e0447d0ce9b4"}, {"bike_id": "4df9862d1963db8276b8f183929397b7", "type": "electric_bike", "is_disabled": 0, "lat": 39.037421333333334, "rental_uris": {"ios": "https://dc.lft.to/lastmile_qr_scan", "android": "https://dc.lft.to/lastmile_qr_scan"}, "is_reserved": 0, "fusion_lon": 0.0, "fusion_lat": 0.0, "lon": -77.0548915, "name": "4df9862d1963db8276b8f183929397b7"}, {"bike_id": "87aac2549c5fba2b8e6b4c9fa4cb9b3c", "type": "electric_scooter", "is_disabled": 0, "lat": 38.903979166666666, "rental_uris": {"ios": "https://dc.lft.to/lastmile_qr_scan", "android": "https://dc.lft.to/lastmile_qr_scan"}, "is_reserved": 0, "fusion_lon": 0.0, "fusion_lat": 0.0, "lon": -77.00576116666667, "name": "87aac2549c5fba2b8e6b4c9fa4cb9b3c"}, {"bike_id": "b09ba76137f3759442c78c8b9570b9d7", "type": "electric_scooter", "is_disabled": 0, "lat": 38.92884433333333, "rental_uris": {"ios": "https://dc.lft.to/lastmile_qr_scan", "android": "https://dc.lft.to/lastmile_qr_scan"}, "is_reserved": 0, "fusion_lon": 0.0, "fusion_lat": 0.0, "lon": -77.01362516666667, "name": "b09ba76137f3759442c78c8b9570b9d7"}, {"bike_id": "e50030e983018eb6099bd5cb15812c49", "type": "electric_scooter", "is_disabled": 0, "lat": 38.90541066666667, "rental_uris": {"ios": "https://dc.lft.to/lastmile_qr_scan", "android": "https://dc.lft.to/lastmile_qr_scan"}, "is_reserved": 0, "fusion_lon": 0.0, "fusion_lat": 0.0, "lon": -77.068916, "name": "e50030e983018eb6099bd5cb15812c49"}, {"bike_id": "50b18631deb4b403a66da50a5b6da2d8", "type": "electric_bike", "is_disabled": 0, "lat": 38.90830233333333, "rental_uris": {"ios": "https://dc.lft.to/lastmile_qr_scan", "android": "https://dc.lft.to/lastmile_qr_scan"}, "is_reserved": 0, "fusion_lon": 0.0, "fusion_lat": 0.0, "lon": -76.94156716666667, "name": "50b18631deb4b403a66da50a5b6da2d8"}, {"bike_id": "ca4daed446e4d56beb33eaf1caab7c34", "type": "electric_scooter", "is_disabled": 0, "lat": 38.90775433333334, "rental_uris": {"ios": "https://dc.lft.to/lastmile_qr_scan", "android": "https://dc.lft.to/lastmile_qr_scan"}, "is_reserved": 0, "fusion_lon": 0.0, "fusion_lat": 0.0, "lon": -77.043383, "name": "ca4daed446e4d56beb33eaf1caab7c34"}, {"bike_id": "688d84d309db6c52078c1c3b22b7ec2f", "type": "electric_bike", "is_disabled": 0, "lat": 39.05496866666667, "rental_uris": {"ios": "https://dc.lft.to/lastmile_qr_scan", "android": "https://dc.lft.to/lastmile_qr_scan"}, "is_reserved": 0, "fusion_lon": 0.0, "fusion_lat": 0.0, "lon": -77.11787166666667, "name": "688d84d309db6c52078c1c3b22b7ec2f"}, {"bike_id": "9afb463ede4827d8732e7a7cf8a53b0c", "type": "electric_scooter", "is_disabled": 0, "lat": 38.92160483333333, "rental_uris": {"ios": "https://dc.lft.to/lastmile_qr_scan", "android": "https://dc.lft.to/lastmile_qr_scan"}, "is_reserved": 0, "fusion_lon": 0.0, "fusion_lat": 0.0, "lon": -77.02706616666667, "name": "9afb463ede4827d8732e7a7cf8a53b0c"}, {"bike_id": "9f29313e1a5ae2442a3defb9ca55fe93", "type": "electric_scooter", "is_disabled": 0, "lat": 38.91782466666667, "rental_uris": {"ios": "https://dc.lft.to/lastmile_qr_scan", "android": "https://dc.lft.to/lastmile_qr_scan"}, "is_reserved": 0, "fusion_lon": 0.0, "fusion_lat": 0.0, "lon": -77.034503, "name": "9f29313e1a5ae2442a3defb9ca55fe93"}, {"bike_id": "418ec0bf9ab11fe0fe3b5516231800a5", "type": "electric_scooter", "is_disabled": 0, "lat": 38.923926, "rental_uris": {"ios": "https://dc.lft.to/lastmile_qr_scan", "android": "https://dc.lft.to/lastmile_qr_scan"}, "is_reserved": 0, "fusion_lon": 0.0, "fusion_lat": 0.0, "lon": -77.02491, "name": "418ec0bf9ab11fe0fe3b5516231800a5"}, {"bike_id": "0134a2f2b11eb8f88b7df1a4965303f1", "type": "electric_scooter", "is_disabled": 0, "lat": 38.831562166666664, "rental_uris": {"ios": "https://dc.lft.to/lastmile_qr_scan", "android": "https://dc.lft.to/lastmile_qr_scan"}, "is_reserved": 0, "fusion_lon": 0.0, "fusion_lat": 0.0, "lon": -77.05121683333333, "name": "0134a2f2b11eb8f88b7df1a4965303f1"}, {"bike_id": "3303c4d87ff5b7e2cecdd3ad8d6e49d2", "type": "electric_scooter", "is_disabled": 0, "lat": 38.9073855, "rental_uris": {"ios": "https://dc.lft.to/lastmile_qr_scan", "android": "https://dc.lft.to/lastmile_qr_scan"}, "is_reserved": 0, "fusion_lon": 0.0, "fusion_lat": 0.0, "lon": -76.97970283333333, "name": "3303c4d87ff5b7e2cecdd3ad8d6e49d2"}, {"bike_id": "bb1fbd484874ef976b26050a81e37131", "type": "electric_scooter", "is_disabled": 0, "lat": 38.9178615, "rental_uris": {"ios": "https://dc.lft.to/lastmile_qr_scan", "android": "https://dc.lft.to/lastmile_qr_scan"}, "is_reserved": 0, "fusion_lon": 0.0, "fusion_lat": 0.0, "lon": -77.02307466666667, "name": "bb1fbd484874ef976b26050a81e37131"}, {"bike_id": "05fafbb2f7b0c1bd13c112c11c000f32", "type": "electric_bike", "is_disabled": 0, "lat": 38.80127383333333, "rental_uris": {"ios": "https://dc.lft.to/lastmile_qr_scan", "android": "https://dc.lft.to/lastmile_qr_scan"}, "is_reserved": 0, "fusion_lon": 0.0, "fusion_lat": 0.0, "lon": -77.0704055, "name": "05fafbb2f7b0c1bd13c112c11c000f32"}, {"bike_id": "00f1d45ad30b83b92f58b50e90e231c9", "type": "electric_scooter", "is_disabled": 0, "lat": 38.86735316666667, "rental_uris": {"ios": "https://dc.lft.to/lastmile_qr_scan", "android": "https://dc.lft.to/lastmile_qr_scan"}, "is_reserved": 0, "fusion_lon": 0.0, "fusion_lat": 0.0, "lon": -76.9786045, "name": "00f1d45ad30b83b92f58b50e90e231c9"}, {"bike_id": "df31b1e0b3ab1c4bc28804645277909e", "type": "electric_scooter", "is_disabled": 0, "lat": 38.907096833333334, "rental_uris": {"ios": "https://dc.lft.to/lastmile_qr_scan", "android": "https://dc.lft.to/lastmile_qr_scan"}, "is_reserved": 0, "fusion_lon": 0.0, "fusion_lat": 0.0, "lon": -77.03438216666666, "name": "df31b1e0b3ab1c4bc28804645277909e"}, {"bike_id": "79bf1ac284c5af25eda9c4e6328b8e74", "type": "electric_scooter", "is_disabled": 0, "lat": 38.92196533333333, "rental_uris": {"ios": "https://dc.lft.to/lastmile_qr_scan", "android": "https://dc.lft.to/lastmile_qr_scan"}, "is_reserved": 0, "fusion_lon": 0.0, "fusion_lat": 0.0, "lon": -76.99360683333333, "name": "79bf1ac284c5af25eda9c4e6328b8e74"}, {"bike_id": "910c9ab05a5f10d8756436c974ee11e6", "type": "electric_bike", "is_disabled": 0, "lat": 38.8237865, "rental_uris": {"ios": "https://dc.lft.to/lastmile_qr_scan", "android": "https://dc.lft.to/lastmile_qr_scan"}, "is_reserved": 0, "fusion_lon": 0.0, "fusion_lat": 0.0, "lon": -77.002256, "name": "910c9ab05a5f10d8756436c974ee11e6"}, {"bike_id": "0cb5749e4bbcf002aeee104751bd0d03", "type": "electric_bike", "is_disabled": 0, "lat": 38.905134333333336, "rental_uris": {"ios": "https://dc.lft.to/lastmile_qr_scan", "android": "https://dc.lft.to/lastmile_qr_scan"}, "is_reserved": 0, "fusion_lon": 0.0, "fusion_lat": 0.0, "lon": -76.98727333333333, "name": "0cb5749e4bbcf002aeee104751bd0d03"}, {"bike_id": "0830c6779172572fbd7a0ff000177fd4", "type": "electric_scooter", "is_disabled": 0, "lat": 38.9017425, "rental_uris": {"ios": "https://dc.lft.to/lastmile_qr_scan", "android": "https://dc.lft.to/lastmile_qr_scan"}, "is_reserved": 0, "fusion_lon": 0.0, "fusion_lat": 0.0, "lon": -77.03203733333334, "name": "0830c6779172572fbd7a0ff000177fd4"}, {"bike_id": "869f2bbb366bd847d1df4733a4dc06ae", "type": "electric_scooter", "is_disabled": 0, "lat": 38.901053, "rental_uris": {"ios": "https://dc.lft.to/lastmile_qr_scan", "android": "https://dc.lft.to/lastmile_qr_scan"}, "is_reserved": 0, "fusion_lon": 0.0, "fusion_lat": 0.0, "lon": -77.02419933333333, "name": "869f2bbb366bd847d1df4733a4dc06ae"}, {"bike_id": "9ca78126333b7e14de41b6d5ce3387b0", "type": "electric_scooter", "is_disabled": 0, "lat": 38.91873983333333, "rental_uris": {"ios": "https://dc.lft.to/lastmile_qr_scan", "android": "https://dc.lft.to/lastmile_qr_scan"}, "is_reserved": 0, "fusion_lon": 0.0, "fusion_lat": 0.0, "lon": -77.03503266666667, "name": "9ca78126333b7e14de41b6d5ce3387b0"}, {"bike_id": "25e466077575c55fa0ab15d4e52835db", "type": "electric_scooter", "is_disabled": 0, "lat": 38.91042433333333, "rental_uris": {"ios": "https://dc.lft.to/lastmile_qr_scan", "android": "https://dc.lft.to/lastmile_qr_scan"}, "is_reserved": 0, "fusion_lon": 0.0, "fusion_lat": 0.0, "lon": -77.07347616666667, "name": "25e466077575c55fa0ab15d4e52835db"}, {"bike_id": "11f7a1254d0b5df6b83c46d16be6be15", "type": "electric_scooter", "is_disabled": 0, "lat": 38.9281195, "rental_uris": {"ios": "https://dc.lft.to/lastmile_qr_scan", "android": "https://dc.lft.to/lastmile_qr_scan"}, "is_reserved": 0, "fusion_lon": 0.0, "fusion_lat": 0.0, "lon": -77.03197983333334, "name": "11f7a1254d0b5df6b83c46d16be6be15"}, {"bike_id": "9c9e310193cf897b9ddd2eead915a99e", "type": "electric_scooter", "is_disabled": 0, "lat": 38.91545766666667, "rental_uris": {"ios": "https://dc.lft.to/lastmile_qr_scan", "android": "https://dc.lft.to/lastmile_qr_scan"}, "is_reserved": 0, "fusion_lon": 0.0, "fusion_lat": 0.0, "lon": -76.970027, "name": "9c9e310193cf897b9ddd2eead915a99e"}, {"bike_id": "0f693f75ecb10a71e6f0ae36532f52c6", "type": "electric_bike", "is_disabled": 0, "lat": 38.8824485, "rental_uris": {"ios": "https://dc.lft.to/lastmile_qr_scan", "android": "https://dc.lft.to/lastmile_qr_scan"}, "is_reserved": 0, "fusion_lon": 0.0, "fusion_lat": 0.0, "lon": -76.962531, "name": "0f693f75ecb10a71e6f0ae36532f52c6"}, {"bike_id": "b95a2cfa2c77b5f42dd98d6e6b80f72a", "type": "electric_scooter", "is_disabled": 0, "lat": 38.893609166666664, "rental_uris": {"ios": "https://dc.lft.to/lastmile_qr_scan", "android": "https://dc.lft.to/lastmile_qr_scan"}, "is_reserved": 0, "fusion_lon": 0.0, "fusion_lat": 0.0, "lon": -76.9493275, "name": "b95a2cfa2c77b5f42dd98d6e6b80f72a"}, {"bike_id": "43ba742f00927800e9decef398e7ce35", "type": "electric_scooter", "is_disabled": 0, "lat": 38.90005083333333, "rental_uris": {"ios": "https://dc.lft.to/lastmile_qr_scan", "android": "https://dc.lft.to/lastmile_qr_scan"}, "is_reserved": 0, "fusion_lon": 0.0, "fusion_lat": 0.0, "lon": -76.99619916666667, "name": "43ba742f00927800e9decef398e7ce35"}, {"bike_id": "6acec88525f4c2f8d0911b54d008dbff", "type": "electric_scooter", "is_disabled": 0, "lat": 38.90246966666667, "rental_uris": {"ios": "https://dc.lft.to/lastmile_qr_scan", "android": "https://dc.lft.to/lastmile_qr_scan"}, "is_reserved": 0, "fusion_lon": 0.0, "fusion_lat": 0.0, "lon": -77.01856833333333, "name": "6acec88525f4c2f8d0911b54d008dbff"}, {"bike_id": "5370b91f7fe3467cf968cb42aa011559", "type": "electric_scooter", "is_disabled": 0, "lat": 38.879523, "rental_uris": {"ios": "https://dc.lft.to/lastmile_qr_scan", "android": "https://dc.lft.to/lastmile_qr_scan"}, "is_reserved": 0, "fusion_lon": 0.0, "fusion_lat": 0.0, "lon": -77.023597, "name": "5370b91f7fe3467cf968cb42aa011559"}, {"bike_id": "4205fd8496e68238a94e803fc7c743dc", "type": "electric_scooter", "is_disabled": 0, "lat": 38.89496233333333, "rental_uris": {"ios": "https://dc.lft.to/lastmile_qr_scan", "android": "https://dc.lft.to/lastmile_qr_scan"}, "is_reserved": 0, "fusion_lon": 0.0, "fusion_lat": 0.0, "lon": -77.02186533333334, "name": "4205fd8496e68238a94e803fc7c743dc"}, {"bike_id": "0a2e2e31b2b60b9212a9dcb7e593bfd0", "type": "electric_scooter", "is_disabled": 0, "lat": 38.93292266666667, "rental_uris": {"ios": "https://dc.lft.to/lastmile_qr_scan", "android": "https://dc.lft.to/lastmile_qr_scan"}, "is_reserved": 0, "fusion_lon": 0.0, "fusion_lat": 0.0, "lon": -77.03531183333334, "name": "0a2e2e31b2b60b9212a9dcb7e593bfd0"}, {"bike_id": "c1707c0bc9ddf83cbfccc934799d6f39", "type": "electric_scooter", "is_disabled": 0, "lat": 38.923350166666665, "rental_uris": {"ios": "https://dc.lft.to/lastmile_qr_scan", "android": "https://dc.lft.to/lastmile_qr_scan"}, "is_reserved": 0, "fusion_lon": 0.0, "fusion_lat": 0.0, "lon": -77.03591366666667, "name": "c1707c0bc9ddf83cbfccc934799d6f39"}, {"bike_id": "5227f3f7d73589ebb9d537b5fe04d8af", "type": "electric_scooter", "is_disabled": 0, "lat": 38.89965333333333, "rental_uris": {"ios": "https://dc.lft.to/lastmile_qr_scan", "android": "https://dc.lft.to/lastmile_qr_scan"}, "is_reserved": 0, "fusion_lon": 0.0, "fusion_lat": 0.0, "lon": -77.04781983333334, "name": "5227f3f7d73589ebb9d537b5fe04d8af"}, {"bike_id": "bf9cecab5548ab3ee872511d0197a27d", "type": "electric_bike", "is_disabled": 0, "lat": 39.043099166666664, "rental_uris": {"ios": "https://dc.lft.to/lastmile_qr_scan", "android": "https://dc.lft.to/lastmile_qr_scan"}, "is_reserved": 0, "fusion_lon": 0.0, "fusion_lat": 0.0, "lon": -77.05160016666666, "name": "bf9cecab5548ab3ee872511d0197a27d"}, {"bike_id": "a2590be81707b892791bc175376118fc", "type": "electric_scooter", "is_disabled": 0, "lat": 38.91051816666667, "rental_uris": {"ios": "https://dc.lft.to/lastmile_qr_scan", "android": "https://dc.lft.to/lastmile_qr_scan"}, "is_reserved": 0, "fusion_lon": 0.0, "fusion_lat": 0.0, "lon": -77.00917183333334, "name": "a2590be81707b892791bc175376118fc"}, {"bike_id": "c8d86a07d0a429cf1f23faa0d79d0ce0", "type": "electric_scooter", "is_disabled": 0, "lat": 38.861780833333334, "rental_uris": {"ios": "https://dc.lft.to/lastmile_qr_scan", "android": "https://dc.lft.to/lastmile_qr_scan"}, "is_reserved": 0, "fusion_lon": 0.0, "fusion_lat": 0.0, "lon": -77.087893, "name": "c8d86a07d0a429cf1f23faa0d79d0ce0"}, {"bike_id": "0425cf260f8f459fd8388bd4503929fe", "type": "electric_scooter", "is_disabled": 0, "lat": 38.93862266666667, "rental_uris": {"ios": "https://dc.lft.to/lastmile_qr_scan", "android": "https://dc.lft.to/lastmile_qr_scan"}, "is_reserved": 0, "fusion_lon": 0.0, "fusion_lat": 0.0, "lon": -77.03080733333333, "name": "0425cf260f8f459fd8388bd4503929fe"}, {"bike_id": "92fb4664cee2e7beb00cd8f9cf1f9efc", "type": "electric_scooter", "is_disabled": 0, "lat": 38.844375166666666, "rental_uris": {"ios": "https://dc.lft.to/lastmile_qr_scan", "android": "https://dc.lft.to/lastmile_qr_scan"}, "is_reserved": 0, "fusion_lon": 0.0, "fusion_lat": 0.0, "lon": -76.99774766666667, "name": "92fb4664cee2e7beb00cd8f9cf1f9efc"}, {"bike_id": "388130b48108442586a49d53e93d9801", "type": "electric_scooter", "is_disabled": 0, "lat": 38.9183725, "rental_uris": {"ios": "https://dc.lft.to/lastmile_qr_scan", "android": "https://dc.lft.to/lastmile_qr_scan"}, "is_reserved": 0, "fusion_lon": 0.0, "fusion_lat": 0.0, "lon": -77.022973, "name": "388130b48108442586a49d53e93d9801"}, {"bike_id": "9abd1ba6fcb89d510ba19798bc4088e4", "type": "electric_scooter", "is_disabled": 0, "lat": 38.878287666666665, "rental_uris": {"ios": "https://dc.lft.to/lastmile_qr_scan", "android": "https://dc.lft.to/lastmile_qr_scan"}, "is_reserved": 0, "fusion_lon": 0.0, "fusion_lat": 0.0, "lon": -76.96305083333333, "name": "9abd1ba6fcb89d510ba19798bc4088e4"}, {"bike_id": "386679f1fd17ad91a606f817df137c6b", "type": "electric_scooter", "is_disabled": 0, "lat": 38.866982666666665, "rental_uris": {"ios": "https://dc.lft.to/lastmile_qr_scan", "android": "https://dc.lft.to/lastmile_qr_scan"}, "is_reserved": 0, "fusion_lon": 0.0, "fusion_lat": 0.0, "lon": -76.9870915, "name": "386679f1fd17ad91a606f817df137c6b"}, {"bike_id": "3d6d194ae893cb8e8e5b532d9ba5b73b", "type": "electric_scooter", "is_disabled": 0, "lat": 38.87092283333333, "rental_uris": {"ios": "https://dc.lft.to/lastmile_qr_scan", "android": "https://dc.lft.to/lastmile_qr_scan"}, "is_reserved": 0, "fusion_lon": 0.0, "fusion_lat": 0.0, "lon": -76.96583166666667, "name": "3d6d194ae893cb8e8e5b532d9ba5b73b"}, {"bike_id": "25de1791d2fcf8a3b64614cec340144e", "type": "electric_scooter", "is_disabled": 0, "lat": 38.94088583333333, "rental_uris": {"ios": "https://dc.lft.to/lastmile_qr_scan", "android": "https://dc.lft.to/lastmile_qr_scan"}, "is_reserved": 0, "fusion_lon": 0.0, "fusion_lat": 0.0, "lon": -77.027148, "name": "25de1791d2fcf8a3b64614cec340144e"}, {"bike_id": "4ddd6f1b144814c99c25bbf57cf31225", "type": "electric_scooter", "is_disabled": 0, "lat": 38.9146705, "rental_uris": {"ios": "https://dc.lft.to/lastmile_qr_scan", "android": "https://dc.lft.to/lastmile_qr_scan"}, "is_reserved": 0, "fusion_lon": 0.0, "fusion_lat": 0.0, "lon": -76.98410616666666, "name": "4ddd6f1b144814c99c25bbf57cf31225"}, {"bike_id": "dca68a5e7fefa67538b191b00f07a81b", "type": "electric_scooter", "is_disabled": 0, "lat": 38.91545083333333, "rental_uris": {"ios": "https://dc.lft.to/lastmile_qr_scan", "android": "https://dc.lft.to/lastmile_qr_scan"}, "is_reserved": 0, "fusion_lon": 0.0, "fusion_lat": 0.0, "lon": -76.98333650000001, "name": "dca68a5e7fefa67538b191b00f07a81b"}, {"bike_id": "6a36d029cf32705ca7cde408233d2c61", "type": "electric_scooter", "is_disabled": 0, "lat": 38.918251, "rental_uris": {"ios": "https://dc.lft.to/lastmile_qr_scan", "android": "https://dc.lft.to/lastmile_qr_scan"}, "is_reserved": 0, "fusion_lon": 0.0, "fusion_lat": 0.0, "lon": -77.04943116666666, "name": "6a36d029cf32705ca7cde408233d2c61"}, {"bike_id": "fe6cca246f6fb6284336796fd1aaaea3", "type": "electric_bike", "is_disabled": 0, "lat": 39.0528125, "rental_uris": {"ios": "https://dc.lft.to/lastmile_qr_scan", "android": "https://dc.lft.to/lastmile_qr_scan"}, "is_reserved": 0, "fusion_lon": 0.0, "fusion_lat": 0.0, "lon": -77.08065333333333, "name": "fe6cca246f6fb6284336796fd1aaaea3"}, {"bike_id": "4f7c81d026b9592fed8f6e71ad45f262", "type": "electric_scooter", "is_disabled": 0, "lat": 38.9170155, "rental_uris": {"ios": "https://dc.lft.to/lastmile_qr_scan", "android": "https://dc.lft.to/lastmile_qr_scan"}, "is_reserved": 0, "fusion_lon": 0.0, "fusion_lat": 0.0, "lon": -77.00654633333333, "name": "4f7c81d026b9592fed8f6e71ad45f262"}, {"bike_id": "1ce42cb214bb6b37a771e75f3b11d320", "type": "electric_scooter", "is_disabled": 0, "lat": 38.9001375, "rental_uris": {"ios": "https://dc.lft.to/lastmile_qr_scan", "android": "https://dc.lft.to/lastmile_qr_scan"}, "is_reserved": 0, "fusion_lon": 0.0, "fusion_lat": 0.0, "lon": -77.04153733333334, "name": "1ce42cb214bb6b37a771e75f3b11d320"}, {"bike_id": "cd13aa943f00983d6f4b99621215f258", "type": "electric_scooter", "is_disabled": 0, "lat": 38.91049566666667, "rental_uris": {"ios": "https://dc.lft.to/lastmile_qr_scan", "android": "https://dc.lft.to/lastmile_qr_scan"}, "is_reserved": 0, "fusion_lon": 0.0, "fusion_lat": 0.0, "lon": -77.02683233333333, "name": "cd13aa943f00983d6f4b99621215f258"}, {"bike_id": "5f98063958de7c1bf546c6c26ed73eb0", "type": "electric_scooter", "is_disabled": 0, "lat": 38.9033465, "rental_uris": {"ios": "https://dc.lft.to/lastmile_qr_scan", "android": "https://dc.lft.to/lastmile_qr_scan"}, "is_reserved": 0, "fusion_lon": 0.0, "fusion_lat": 0.0, "lon": -77.06928083333334, "name": "5f98063958de7c1bf546c6c26ed73eb0"}, {"bike_id": "90e6e21a7558ffa07ac716df1012398c", "type": "electric_scooter", "is_disabled": 0, "lat": 38.9039295, "rental_uris": {"ios": "https://dc.lft.to/lastmile_qr_scan", "android": "https://dc.lft.to/lastmile_qr_scan"}, "is_reserved": 0, "fusion_lon": 0.0, "fusion_lat": 0.0, "lon": -76.989383, "name": "90e6e21a7558ffa07ac716df1012398c"}, {"bike_id": "d2ee572467973d162eba2ea9676c369b", "type": "electric_scooter", "is_disabled": 0, "lat": 38.9843235, "rental_uris": {"ios": "https://dc.lft.to/lastmile_qr_scan", "android": "https://dc.lft.to/lastmile_qr_scan"}, "is_reserved": 0, "fusion_lon": 0.0, "fusion_lat": 0.0, "lon": -77.02673866666666, "name": "d2ee572467973d162eba2ea9676c369b"}, {"bike_id": "9a395b7bf5263d0219a20cfe63b8ad0f", "type": "electric_scooter", "is_disabled": 0, "lat": 38.91913266666667, "rental_uris": {"ios": "https://dc.lft.to/lastmile_qr_scan", "android": "https://dc.lft.to/lastmile_qr_scan"}, "is_reserved": 0, "fusion_lon": 0.0, "fusion_lat": 0.0, "lon": -77.04470016666667, "name": "9a395b7bf5263d0219a20cfe63b8ad0f"}, {"bike_id": "0d046a19e6f36dd6f2eb9c90d07b9a89", "type": "electric_scooter", "is_disabled": 0, "lat": 38.95786283333333, "rental_uris": {"ios": "https://dc.lft.to/lastmile_qr_scan", "android": "https://dc.lft.to/lastmile_qr_scan"}, "is_reserved": 0, "fusion_lon": 0.0, "fusion_lat": 0.0, "lon": -77.01990616666667, "name": "0d046a19e6f36dd6f2eb9c90d07b9a89"}, {"bike_id": "aea78b3226b9df0bedb98b4cd600d2e2", "type": "electric_scooter", "is_disabled": 0, "lat": 38.9073465, "rental_uris": {"ios": "https://dc.lft.to/lastmile_qr_scan", "android": "https://dc.lft.to/lastmile_qr_scan"}, "is_reserved": 0, "fusion_lon": 0.0, "fusion_lat": 0.0, "lon": -77.0294745, "name": "aea78b3226b9df0bedb98b4cd600d2e2"}, {"bike_id": "b635aee0a700a4634f08264e660af823", "type": "electric_scooter", "is_disabled": 0, "lat": 38.9004355, "rental_uris": {"ios": "https://dc.lft.to/lastmile_qr_scan", "android": "https://dc.lft.to/lastmile_qr_scan"}, "is_reserved": 0, "fusion_lon": 0.0, "fusion_lat": 0.0, "lon": -77.01772183333334, "name": "b635aee0a700a4634f08264e660af823"}, {"bike_id": "f44cfa3b1209262787fba2e7431463af", "type": "electric_scooter", "is_disabled": 0, "lat": 38.9191795, "rental_uris": {"ios": "https://dc.lft.to/lastmile_qr_scan", "android": "https://dc.lft.to/lastmile_qr_scan"}, "is_reserved": 0, "fusion_lon": 0.0, "fusion_lat": 0.0, "lon": -77.0294515, "name": "f44cfa3b1209262787fba2e7431463af"}, {"bike_id": "a49c1c5b7637908a84ace5f74ecab7a2", "type": "electric_scooter", "is_disabled": 0, "lat": 38.961809, "rental_uris": {"ios": "https://dc.lft.to/lastmile_qr_scan", "android": "https://dc.lft.to/lastmile_qr_scan"}, "is_reserved": 0, "fusion_lon": 0.0, "fusion_lat": 0.0, "lon": -77.02807333333334, "name": "a49c1c5b7637908a84ace5f74ecab7a2"}, {"bike_id": "dc463b52d530ac3a6dde267e0ebc4f07", "type": "electric_scooter", "is_disabled": 0, "lat": 38.862494, "rental_uris": {"ios": "https://dc.lft.to/lastmile_qr_scan", "android": "https://dc.lft.to/lastmile_qr_scan"}, "is_reserved": 0, "fusion_lon": 0.0, "fusion_lat": 0.0, "lon": -76.99491333333333, "name": "dc463b52d530ac3a6dde267e0ebc4f07"}, {"bike_id": "d8add4f0bed351d897a774ac547e39ec", "type": "electric_scooter", "is_disabled": 0, "lat": 38.906497, "rental_uris": {"ios": "https://dc.lft.to/lastmile_qr_scan", "android": "https://dc.lft.to/lastmile_qr_scan"}, "is_reserved": 0, "fusion_lon": 0.0, "fusion_lat": 0.0, "lon": -77.01458966666667, "name": "d8add4f0bed351d897a774ac547e39ec"}, {"bike_id": "09facdecea8dfcc85d84fdb9554cb29e", "type": "electric_scooter", "is_disabled": 0, "lat": 38.906693, "rental_uris": {"ios": "https://dc.lft.to/lastmile_qr_scan", "android": "https://dc.lft.to/lastmile_qr_scan"}, "is_reserved": 0, "fusion_lon": 0.0, "fusion_lat": 0.0, "lon": -77.07177466666667, "name": "09facdecea8dfcc85d84fdb9554cb29e"}, {"bike_id": "b4d35d21844aa15943ac03115c3d9b32", "type": "electric_scooter", "is_disabled": 0, "lat": 38.92707333333333, "rental_uris": {"ios": "https://dc.lft.to/lastmile_qr_scan", "android": "https://dc.lft.to/lastmile_qr_scan"}, "is_reserved": 0, "fusion_lon": 0.0, "fusion_lat": 0.0, "lon": -77.023288, "name": "b4d35d21844aa15943ac03115c3d9b32"}, {"bike_id": "0ba395de57b8464fef8bcc821004df56", "type": "electric_scooter", "is_disabled": 0, "lat": 38.90060966666667, "rental_uris": {"ios": "https://dc.lft.to/lastmile_qr_scan", "android": "https://dc.lft.to/lastmile_qr_scan"}, "is_reserved": 0, "fusion_lon": 0.0, "fusion_lat": 0.0, "lon": -77.03474983333334, "name": "0ba395de57b8464fef8bcc821004df56"}, {"bike_id": "76bab978197753f9491fff6ee1822e00", "type": "electric_bike", "is_disabled": 0, "lat": 38.82952516666667, "rental_uris": {"ios": "https://dc.lft.to/lastmile_qr_scan", "android": "https://dc.lft.to/lastmile_qr_scan"}, "is_reserved": 0, "fusion_lon": 0.0, "fusion_lat": 0.0, "lon": -77.12356983333333, "name": "76bab978197753f9491fff6ee1822e00"}, {"bike_id": "b5bcb2488c43d009e4d461e0cd39beff", "type": "electric_scooter", "is_disabled": 0, "lat": 38.943545666666665, "rental_uris": {"ios": "https://dc.lft.to/lastmile_qr_scan", "android": "https://dc.lft.to/lastmile_qr_scan"}, "is_reserved": 0, "fusion_lon": 0.0, "fusion_lat": 0.0, "lon": -77.061296, "name": "b5bcb2488c43d009e4d461e0cd39beff"}, {"bike_id": "60eaf06ddb4bbc4a59c3bf133582ad18", "type": "electric_scooter", "is_disabled": 0, "lat": 38.862068, "rental_uris": {"ios": "https://dc.lft.to/lastmile_qr_scan", "android": "https://dc.lft.to/lastmile_qr_scan"}, "is_reserved": 0, "fusion_lon": 0.0, "fusion_lat": 0.0, "lon": -76.994671, "name": "60eaf06ddb4bbc4a59c3bf133582ad18"}, {"bike_id": "5bdeed30b3549b1fb107b8d305bd658f", "type": "electric_scooter", "is_disabled": 0, "lat": 38.92636366666667, "rental_uris": {"ios": "https://dc.lft.to/lastmile_qr_scan", "android": "https://dc.lft.to/lastmile_qr_scan"}, "is_reserved": 0, "fusion_lon": 0.0, "fusion_lat": 0.0, "lon": -77.02173766666667, "name": "5bdeed30b3549b1fb107b8d305bd658f"}, {"bike_id": "5c013bb5474408358f665b50820d3a62", "type": "electric_scooter", "is_disabled": 0, "lat": 38.907310833333334, "rental_uris": {"ios": "https://dc.lft.to/lastmile_qr_scan", "android": "https://dc.lft.to/lastmile_qr_scan"}, "is_reserved": 0, "fusion_lon": 0.0, "fusion_lat": 0.0, "lon": -77.009684, "name": "5c013bb5474408358f665b50820d3a62"}, {"bike_id": "79ef99d0f6fee48fb5f3c4f2eb86a255", "type": "electric_scooter", "is_disabled": 0, "lat": 38.947162666666664, "rental_uris": {"ios": "https://dc.lft.to/lastmile_qr_scan", "android": "https://dc.lft.to/lastmile_qr_scan"}, "is_reserved": 0, "fusion_lon": 0.0, "fusion_lat": 0.0, "lon": -77.02781233333333, "name": "79ef99d0f6fee48fb5f3c4f2eb86a255"}, {"bike_id": "f484314d1c7ad7989502c32e0fc1070a", "type": "electric_scooter", "is_disabled": 0, "lat": 38.927897333333334, "rental_uris": {"ios": "https://dc.lft.to/lastmile_qr_scan", "android": "https://dc.lft.to/lastmile_qr_scan"}, "is_reserved": 0, "fusion_lon": 0.0, "fusion_lat": 0.0, "lon": -77.05260466666667, "name": "f484314d1c7ad7989502c32e0fc1070a"}, {"bike_id": "26e7244374a0ab68fa7829127b11078d", "type": "electric_scooter", "is_disabled": 0, "lat": 38.88267183333333, "rental_uris": {"ios": "https://dc.lft.to/lastmile_qr_scan", "android": "https://dc.lft.to/lastmile_qr_scan"}, "is_reserved": 0, "fusion_lon": 0.0, "fusion_lat": 0.0, "lon": -76.9950415, "name": "26e7244374a0ab68fa7829127b11078d"}, {"bike_id": "d387bfe2da084ded058afad4cd916efc", "type": "electric_scooter", "is_disabled": 0, "lat": 38.9080165, "rental_uris": {"ios": "https://dc.lft.to/lastmile_qr_scan", "android": "https://dc.lft.to/lastmile_qr_scan"}, "is_reserved": 0, "fusion_lon": 0.0, "fusion_lat": 0.0, "lon": -77.034792, "name": "d387bfe2da084ded058afad4cd916efc"}, {"bike_id": "eef9b13bcae81443b9356b1e189af66c", "type": "electric_bike", "is_disabled": 0, "lat": 38.892921666666666, "rental_uris": {"ios": "https://dc.lft.to/lastmile_qr_scan", "android": "https://dc.lft.to/lastmile_qr_scan"}, "is_reserved": 0, "fusion_lon": 0.0, "fusion_lat": 0.0, "lon": -76.9761765, "name": "eef9b13bcae81443b9356b1e189af66c"}, {"bike_id": "f607c08c2e5d8beb435d801e1b17bad5", "type": "electric_scooter", "is_disabled": 0, "lat": 38.8667655, "rental_uris": {"ios": "https://dc.lft.to/lastmile_qr_scan", "android": "https://dc.lft.to/lastmile_qr_scan"}, "is_reserved": 0, "fusion_lon": 0.0, "fusion_lat": 0.0, "lon": -76.98527433333334, "name": "f607c08c2e5d8beb435d801e1b17bad5"}, {"bike_id": "8ddbfbb06d27226b78074ab95b850041", "type": "electric_scooter", "is_disabled": 0, "lat": 38.93938683333333, "rental_uris": {"ios": "https://dc.lft.to/lastmile_qr_scan", "android": "https://dc.lft.to/lastmile_qr_scan"}, "is_reserved": 0, "fusion_lon": 0.0, "fusion_lat": 0.0, "lon": -77.03681866666666, "name": "8ddbfbb06d27226b78074ab95b850041"}, {"bike_id": "5102d9ab5d5d9be3b12d8dabcf12e75d", "type": "electric_scooter", "is_disabled": 0, "lat": 38.918303333333334, "rental_uris": {"ios": "https://dc.lft.to/lastmile_qr_scan", "android": "https://dc.lft.to/lastmile_qr_scan"}, "is_reserved": 0, "fusion_lon": 0.0, "fusion_lat": 0.0, "lon": -77.04559216666667, "name": "5102d9ab5d5d9be3b12d8dabcf12e75d"}, {"bike_id": "ec27190ff82aa26f4e83d3ef86edc593", "type": "electric_scooter", "is_disabled": 0, "lat": 38.927779666666666, "rental_uris": {"ios": "https://dc.lft.to/lastmile_qr_scan", "android": "https://dc.lft.to/lastmile_qr_scan"}, "is_reserved": 0, "fusion_lon": 0.0, "fusion_lat": 0.0, "lon": -77.054124, "name": "ec27190ff82aa26f4e83d3ef86edc593"}, {"bike_id": "dc7f07a1b3cfe03f0f31799128e5db64", "type": "electric_scooter", "is_disabled": 0, "lat": 38.92017, "rental_uris": {"ios": "https://dc.lft.to/lastmile_qr_scan", "android": "https://dc.lft.to/lastmile_qr_scan"}, "is_reserved": 0, "fusion_lon": 0.0, "fusion_lat": 0.0, "lon": -77.0312045, "name": "dc7f07a1b3cfe03f0f31799128e5db64"}, {"bike_id": "240d82904e11d65176e009c345e5bc51", "type": "electric_scooter", "is_disabled": 0, "lat": 38.9157095, "rental_uris": {"ios": "https://dc.lft.to/lastmile_qr_scan", "android": "https://dc.lft.to/lastmile_qr_scan"}, "is_reserved": 0, "fusion_lon": 0.0, "fusion_lat": 0.0, "lon": -77.03138983333334, "name": "240d82904e11d65176e009c345e5bc51"}, {"bike_id": "8ab9033f62a8ebce57310e55f2a55fc3", "type": "electric_scooter", "is_disabled": 0, "lat": 38.9365375, "rental_uris": {"ios": "https://dc.lft.to/lastmile_qr_scan", "android": "https://dc.lft.to/lastmile_qr_scan"}, "is_reserved": 0, "fusion_lon": 0.0, "fusion_lat": 0.0, "lon": -77.026352, "name": "8ab9033f62a8ebce57310e55f2a55fc3"}, {"bike_id": "67ee0d1864fdc23a07ecb970324fd743", "type": "electric_scooter", "is_disabled": 0, "lat": 38.931167333333335, "rental_uris": {"ios": "https://dc.lft.to/lastmile_qr_scan", "android": "https://dc.lft.to/lastmile_qr_scan"}, "is_reserved": 0, "fusion_lon": 0.0, "fusion_lat": 0.0, "lon": -77.038027, "name": "67ee0d1864fdc23a07ecb970324fd743"},