{"data": {"bikes": [{"bike_id": "4c70c980ee45b29f8fc0f3efe442070b", "fusion_lon": 0.0, "type": "electric_scooter", "name": "4c70c980ee45b29f8fc0f3efe442070b", "rental_uris": {"android": "https://dc.lft.to/lastmile_qr_scan", "ios": "https://dc.lft.to/lastmile_qr_scan"}, "fusion_lat": 0.0, "lat": 38.91724966666666, "is_disabled": 0, "lon": -77.02290383333333, "is_reserved": 0}, {"bike_id": "0d05c29ea12022d004bc270b857de49c", "fusion_lon": 0.0, "type": "electric_scooter", "name": "0d05c29ea12022d004bc270b857de49c", "rental_uris": {"android": "https://dc.lft.to/lastmile_qr_scan", "ios": "https://dc.lft.to/lastmile_qr_scan"}, "fusion_lat": 0.0, "lat": 38.9563415, "is_disabled": 0, "lon": -77.03630966666667, "is_reserved": 0}, {"bike_id": "036de2c1e35613cae76ddd21eeaf0ecb", "fusion_lon": 0.0, "type": "electric_scooter", "name": "036de2c1e35613cae76ddd21eeaf0ecb", "rental_uris": {"android": "https://dc.lft.to/lastmile_qr_scan", "ios": "https://dc.lft.to/lastmile_qr_scan"}, "fusion_lat": 0.0, "lat": 38.93400916666667, "is_disabled": 0, "lon": -76.98030533333333, "is_reserved": 0}, {"bike_id": "04a4a8b33f4037c2149d67e64044af89", "fusion_lon": 0.0, "type": "electric_scooter", "name": "04a4a8b33f4037c2149d67e64044af89", "rental_uris": {"android": "https://dc.lft.to/lastmile_qr_scan", "ios": "https://dc.lft.to/lastmile_qr_scan"}, "fusion_lat": 0.0, "lat": 38.917128166666664, "is_disabled": 0, "lon": -77.0921965, "is_reserved": 0}, {"bike_id": "bf67592227fca1d44b3e8865c391980b", "fusion_lon": 0.0, "type": "electric_scooter", "name": "bf67592227fca1d44b3e8865c391980b", "rental_uris": {"android": "https://dc.lft.to/lastmile_qr_scan", "ios": "https://dc.lft.to/lastmile_qr_scan"}, "fusion_lat": 0.0, "lat": 38.95632616666666, "is_disabled": 0, "lon": -77.0330975, "is_reserved": 0}, {"bike_id": "ebc51f96f5905eb20a7ad0b237ea7b15", "fusion_lon": 0.0, "type": "electric_scooter", "name": "ebc51f96f5905eb20a7ad0b237ea7b15", "rental_uris": {"android": "https://dc.lft.to/lastmile_qr_scan", "ios": "https://dc.lft.to/lastmile_qr_scan"}, "fusion_lat": 0.0, "lat": 38.924125833333335, "is_disabled": 0, "lon": -77.056325, "is_reserved": 0}, {"bike_id": "f46fabd867463fcf9fdceac41d6ecaea", "fusion_lon": 0.0, "type": "electric_scooter", "name": "f46fabd867463fcf9fdceac41d6ecaea", "rental_uris": {"android": "https://dc.lft.to/lastmile_qr_scan", "ios": "https://dc.lft.to/lastmile_qr_scan"}, "fusion_lat": 0.0, "lat": 38.90313866666666, "is_disabled": 0, "lon": -77.034374, "is_reserved": 0}, {"bike_id": "075c36799efb44418c7f358505a5dbc6", "fusion_lon": 0.0, "type": "electric_scooter", "name": "075c36799efb44418c7f358505a5dbc6", "rental_uris": {"android": "https://dc.lft.to/lastmile_qr_scan", "ios": "https://dc.lft.to/lastmile_qr_scan"}, "fusion_lat": 0.0, "lat": 38.89456466666667, "is_disabled": 0, "lon": -77.020974, "is_reserved": 0}, {"bike_id": "79762878cd2537128d8bddd1eb5fc1c3", "fusion_lon": 0.0, "type": "electric_scooter", "name": "79762878cd2537128d8bddd1eb5fc1c3", "rental_uris": {"android": "https://dc.lft.to/lastmile_qr_scan", "ios": "https://dc.lft.to/lastmile_qr_scan"}, "fusion_lat": 0.0, "lat": 38.904199166666665, "is_disabled": 0, "lon": -77.03951133333334, "is_reserved": 0}, {"bike_id": "9851dfc204b1c2e1ed4e48d7050c64bf", "fusion_lon": 0.0, "type": "electric_scooter", "name": "9851dfc204b1c2e1ed4e48d7050c64bf", "rental_uris": {"android": "https://dc.lft.to/lastmile_qr_scan", "ios": "https://dc.lft.to/lastmile_qr_scan"}, "fusion_lat": 0.0, "lat": 38.913502333333334, "is_disabled": 0, "lon": -77.02253266666666, "is_reserved": 0}, {"bike_id": "198507a0ae2de32e6866626d1dc7b654", "fusion_lon": 0.0, "type": "electric_scooter", "name": "198507a0ae2de32e6866626d1dc7b654", "rental_uris": {"android": "https://dc.lft.to/lastmile_qr_scan", "ios": "https://dc.lft.to/lastmile_qr_scan"}, "fusion_lat": 0.0, "lat": 38.90120116666667, "is_disabled": 0, "lon": -77.017825, "is_reserved": 0}, {"bike_id": "1ef4bea60d3226e26a256f66894c965e", "fusion_lon": 0.0, "type": "electric_scooter", "name": "1ef4bea60d3226e26a256f66894c965e", "rental_uris": {"android": "https://dc.lft.to/lastmile_qr_scan", "ios": "https://dc.lft.to/lastmile_qr_scan"}, "fusion_lat": 0.0, "lat": 38.90490033333333, "is_disabled": 0, "lon": -77.0466255, "is_reserved": 0}, {"bike_id": "0214a4f84e543690a3de739ee774ac79", "fusion_lon": 0.0, "type": "electric_scooter", "name": "0214a4f84e543690a3de739ee774ac79", "rental_uris": {"android": "https://dc.lft.to/lastmile_qr_scan", "ios": "https://dc.lft.to/lastmile_qr_scan"}, "fusion_lat": 0.0, "lat": 38.93401333333333, "is_disabled": 0, "lon": -77.02725283333334, "is_reserved": 0}, {"bike_id": "1606a2b6061fd2c5ac880b7427dcfe05", "fusion_lon": 0.0, "type": "electric_scooter", "name": "1606a2b6061fd2c5ac880b7427dcfe05", "rental_uris": {"android": "https://dc.lft.to/lastmile_qr_scan", "ios": "https://dc.lft.to/lastmile_qr_scan"}, "fusion_lat": 0.0, "lat": 38.89559933333334, "is_disabled": 0, "lon": -77.00901166666667, "is_reserved": 0}, {"bike_id": "4a749e645a229114f7a79046c9595a5a", "fusion_lon": 0.0, "type": "electric_scooter", "name": "4a749e645a229114f7a79046c9595a5a", "rental_uris": {"android": "https://dc.lft.to/lastmile_qr_scan", "ios": "https://dc.lft.to/lastmile_qr_scan"}, "fusion_lat": 0.0, "lat": 38.92255733333333, "is_disabled": 0, "lon": -77.0321735, "is_reserved": 0}, {"bike_id": "4ba7e80ecb45b202176ef31110816c45", "fusion_lon": 0.0, "type": "electric_scooter", "name": "4ba7e80ecb45b202176ef31110816c45", "rental_uris": {"android": "https://dc.lft.to/lastmile_qr_scan", "ios": "https://dc.lft.to/lastmile_qr_scan"}, "fusion_lat": 0.0, "lat": 38.925787666666665, "is_disabled": 0, "lon": -77.0399615, "is_reserved": 0}, {"bike_id": "43611d1ae4f22040d3b0a8f498dc567c", "fusion_lon": 0.0, "type": "electric_bike", "name": "43611d1ae4f22040d3b0a8f498dc567c", "rental_uris": {"android": "https://dc.lft.to/lastmile_qr_scan", "ios": "https://dc.lft.to/lastmile_qr_scan"}, "fusion_lat": 0.0, "lat": 38.84099833333333, "is_disabled": 0, "lon": -77.089499, "is_reserved": 0}, {"bike_id": "f824db3f23569c41b3a37eca04c32564", "fusion_lon": 0.0, "type": "electric_scooter", "name": "f824db3f23569c41b3a37eca04c32564", "rental_uris": {"android": "https://dc.lft.to/lastmile_qr_scan", "ios": "https://dc.lft.to/lastmile_qr_scan"}, "fusion_lat": 0.0, "lat": 38.89621483333333, "is_disabled": 0, "lon": -76.947664, "is_reserved": 0}, {"bike_id": "0f83ac31d8fcbfef727f1c213dc6c359", "fusion_lon": 0.0, "type": "electric_scooter", "name": "0f83ac31d8fcbfef727f1c213dc6c359", "rental_uris": {"android": "https://dc.lft.to/lastmile_qr_scan", "ios": "https://dc.lft.to/lastmile_qr_scan"}, "fusion_lat": 0.0, "lat": 38.893340333333335, "is_disabled": 0, "lon": -77.01167316666667, "is_reserved": 0}, {"bike_id": "8c34c1bc753e18fdfb0f18cb114c64d4", "fusion_lon": 0.0, "type": "electric_scooter", "name": "8c34c1bc753e18fdfb0f18cb114c64d4", "rental_uris": {"android": "https://dc.lft.to/lastmile_qr_scan", "ios": "https://dc.lft.to/lastmile_qr_scan"}, "fusion_lat": 0.0, "lat": 38.90005566666667, "is_disabled": 0, "lon": -77.00145916666666, "is_reserved": 0}, {"bike_id": "7c7ff37dce82baf5390e4ab7cbe46131", "fusion_lon": 0.0, "type": "electric_scooter", "name": "7c7ff37dce82baf5390e4ab7cbe46131", "rental_uris": {"android": "https://dc.lft.to/lastmile_qr_scan", "ios": "https://dc.lft.to/lastmile_qr_scan"}, "fusion_lat": 0.0, "lat": 38.8442555, "is_disabled": 0, "lon": -76.99785133333333, "is_reserved": 0}, {"bike_id": "3737d47964b76eefeb6578255ed31f32", "fusion_lon": 0.0, "type": "electric_scooter", "name": "3737d47964b76eefeb6578255ed31f32", "rental_uris": {"android": "https://dc.lft.to/lastmile_qr_scan", "ios": "https://dc.lft.to/lastmile_qr_scan"}, "fusion_lat": 0.0, "lat": 38.8831895, "is_disabled": 0, "lon": -76.94948816666667, "is_reserved": 0}, {"bike_id": "be5f10d6ff93329eb558cbe4c2cf4eb1", "fusion_lon": 0.0, "type": "electric_bike", "name": "be5f10d6ff93329eb558cbe4c2cf4eb1", "rental_uris": {"android": "https://dc.lft.to/lastmile_qr_scan", "ios": "https://dc.lft.to/lastmile_qr_scan"}, "fusion_lat": 0.0, "lat": 38.9758225, "is_disabled": 0, "lon": -77.035295, "is_reserved": 0}, {"bike_id": "d216a9c5fbfee9203041346daa510ecc", "fusion_lon": 0.0, "type": "electric_scooter", "name": "d216a9c5fbfee9203041346daa510ecc", "rental_uris": {"android": "https://dc.lft.to/lastmile_qr_scan", "ios": "https://dc.lft.to/lastmile_qr_scan"}, "fusion_lat": 0.0, "lat": 38.95648416666667, "is_disabled": 0, "lon": -77.03292633333334, "is_reserved": 0}, {"bike_id": "c0c2a8c6286b633d53c6b1cb9ae554c7", "fusion_lon": 0.0, "type": "electric_scooter", "name": "c0c2a8c6286b633d53c6b1cb9ae554c7", "rental_uris": {"android": "https://dc.lft.to/lastmile_qr_scan", "ios": "https://dc.lft.to/lastmile_qr_scan"}, "fusion_lat": 0.0, "lat": 38.9086985, "is_disabled": 0, "lon": -77.02396383333334, "is_reserved": 0}, {"bike_id": "c77d2551011ae1f029bb039a93c5ad59", "fusion_lon": 0.0, "type": "electric_bike", "name": "c77d2551011ae1f029bb039a93c5ad59", "rental_uris": {"android": "https://dc.lft.to/lastmile_qr_scan", "ios": "https://dc.lft.to/lastmile_qr_scan"}, "fusion_lat": 0.0, "lat": 38.836040833333335, "is_disabled": 0, "lon": -77.00376416666667, "is_reserved": 0}, {"bike_id": "225fe63af92aa84f90e34c362baf340d", "fusion_lon": 0.0, "type": "electric_scooter", "name": "225fe63af92aa84f90e34c362baf340d", "rental_uris": {"android": "https://dc.lft.to/lastmile_qr_scan", "ios": "https://dc.lft.to/lastmile_qr_scan"}, "fusion_lat": 0.0, "lat": 38.898564, "is_disabled": 0, "lon": -77.0330665, "is_reserved": 0}, {"bike_id": "863393e368a4ebee10f918de1010002b", "fusion_lon": 0.0, "type": "electric_scooter", "name": "863393e368a4ebee10f918de1010002b", "rental_uris": {"android": "https://dc.lft.to/lastmile_qr_scan", "ios": "https://dc.lft.to/lastmile_qr_scan"}, "fusion_lat": 0.0, "lat": 38.880265, "is_disabled": 0, "lon": -76.996283, "is_reserved": 0}, {"bike_id": "8c41dffb95bb5f9cf32e45442580d418", "fusion_lon": 0.0, "type": "electric_bike", "name": "8c41dffb95bb5f9cf32e45442580d418", "rental_uris": {"android": "https://dc.lft.to/lastmile_qr_scan", "ios": "https://dc.lft.to/lastmile_qr_scan"}, "fusion_lat": 0.0, "lat": 38.8285645, "is_disabled": 0, "lon": -77.1124465, "is_reserved": 0}, {"bike_id": "cf689e6d181bd158ce88d3ed2ec4bb2f", "fusion_lon": 0.0, "type": "electric_scooter", "name": "cf689e6d181bd158ce88d3ed2ec4bb2f", "rental_uris": {"android": "https://dc.lft.to/lastmile_qr_scan", "ios": "https://dc.lft.to/lastmile_qr_scan"}, "fusion_lat": 0.0, "lat": 38.898805833333334, "is_disabled": 0, "lon": -76.9315965, "is_reserved": 0}, {"bike_id": "808273da96a2d3f7c04ae1fd7890bece", "fusion_lon": 0.0, "type": "electric_bike", "name": "808273da96a2d3f7c04ae1fd7890bece", "rental_uris": {"android": "https://dc.lft.to/lastmile_qr_scan", "ios": "https://dc.lft.to/lastmile_qr_scan"}, "fusion_lat": 0.0, "lat": 38.990875, "is_disabled": 0, "lon": -76.87499066666666, "is_reserved": 0}, {"bike_id": "9772ced68601f260b2e40beb9cfdf1a2", "fusion_lon": 0.0, "type": "electric_scooter", "name": "9772ced68601f260b2e40beb9cfdf1a2", "rental_uris": {"android": "https://dc.lft.to/lastmile_qr_scan", "ios": "https://dc.lft.to/lastmile_qr_scan"}, "fusion_lat": 0.0, "lat": 38.921309, "is_disabled": 0, "lon": -77.0096485, "is_reserved": 0}, {"bike_id": "584e2948e22cb1391c84613a613ba409", "fusion_lon": 0.0, "type": "electric_scooter", "name": "584e2948e22cb1391c84613a613ba409", "rental_uris": {"android": "https://dc.lft.to/lastmile_qr_scan", "ios": "https://dc.lft.to/lastmile_qr_scan"}, "fusion_lat": 0.0, "lat": 38.90924483333333, "is_disabled": 0, "lon": -77.0728185, "is_reserved": 0}, {"bike_id": "f54afb73993c6da8680c7edfd99c67e2", "fusion_lon": 0.0, "type": "electric_scooter", "name": "f54afb73993c6da8680c7edfd99c67e2", "rental_uris": {"android": "https://dc.lft.to/lastmile_qr_scan", "ios": "https://dc.lft.to/lastmile_qr_scan"}, "fusion_lat": 0.0, "lat": 38.88730366666667, "is_disabled": 0, "lon": -77.02316983333333, "is_reserved": 0}, {"bike_id": "4c81cd8f47baf4b6cf086a5285f9ffb6", "fusion_lon": 0.0, "type": "electric_scooter", "name": "4c81cd8f47baf4b6cf086a5285f9ffb6", "rental_uris": {"android": "https://dc.lft.to/lastmile_qr_scan", "ios": "https://dc.lft.to/lastmile_qr_scan"}, "fusion_lat": 0.0, "lat": 38.896779333333335, "is_disabled": 0, "lon": -77.00505733333334, "is_reserved": 0}, {"bike_id": "c3a698e53f5b7edc70695386efd6db67", "fusion_lon": 0.0, "type": "electric_bike", "name": "c3a698e53f5b7edc70695386efd6db67", "rental_uris": {"android": "https://dc.lft.to/lastmile_qr_scan", "ios": "https://dc.lft.to/lastmile_qr_scan"}, "fusion_lat": 0.0, "lat": 38.95319166666667, "is_disabled": 0, "lon": -76.95440766666667, "is_reserved": 0}, {"bike_id": "5c4498dbaf5e7644532e5fe2c6cb898f", "fusion_lon": 0.0, "type": "electric_scooter", "name": "5c4498dbaf5e7644532e5fe2c6cb898f", "rental_uris": {"android": "https://dc.lft.to/lastmile_qr_scan", "ios": "https://dc.lft.to/lastmile_qr_scan"}, "fusion_lat": 0.0, "lat": 38.89987716666667, "is_disabled": 0, "lon": -77.045883, "is_reserved": 0}, {"bike_id": "45c869f14d7a4b1a4fca8b5efffa3c7e", "fusion_lon": 0.0, "type": "electric_scooter", "name": "45c869f14d7a4b1a4fca8b5efffa3c7e", "rental_uris": {"android": "https://dc.lft.to/lastmile_qr_scan", "ios": "https://dc.lft.to/lastmile_qr_scan"}, "fusion_lat": 0.0, "lat": 38.92459233333334, "is_disabled": 0, "lon": -77.02972216666667, "is_reserved": 0}, {"bike_id": "46ae58e6bfc533f17eaf8859bfb314ae", "fusion_lon": 0.0, "type": "electric_scooter", "name": "46ae58e6bfc533f17eaf8859bfb314ae", "rental_uris": {"android": "https://dc.lft.to/lastmile_qr_scan", "ios": "https://dc.lft.to/lastmile_qr_scan"}, "fusion_lat": 0.0, "lat": 38.93128633333333, "is_disabled": 0, "lon": -77.0785425, "is_reserved": 0}, {"bike_id": "58118cf34ad1afc0c8dda74ee3e4b7ea", "fusion_lon": 0.0, "type": "electric_scooter", "name": "58118cf34ad1afc0c8dda74ee3e4b7ea", "rental_uris": {"android": "https://dc.lft.to/lastmile_qr_scan", "ios": "https://dc.lft.to/lastmile_qr_scan"}, "fusion_lat": 0.0, "lat": 38.899921, "is_disabled": 0, "lon": -77.00144383333334, "is_reserved": 0}, {"bike_id": "5b96e8bafaf9e05de3f19b43a5683bc6", "fusion_lon": 0.0, "type": "electric_scooter", "name": "5b96e8bafaf9e05de3f19b43a5683bc6", "rental_uris": {"android": "https://dc.lft.to/lastmile_qr_scan", "ios": "https://dc.lft.to/lastmile_qr_scan"}, "fusion_lat": 0.0, "lat": 38.871058833333336, "is_disabled": 0, "lon": -77.01073833333334, "is_reserved": 0}, {"bike_id": "fd5a20e8ec002de14c1fdbf180a46005", "fusion_lon": 0.0, "type": "electric_scooter", "name": "fd5a20e8ec002de14c1fdbf180a46005", "rental_uris": {"android": "https://dc.lft.to/lastmile_qr_scan", "ios": "https://dc.lft.to/lastmile_qr_scan"}, "fusion_lat": 0.0, "lat": 38.90344233333333, "is_disabled": 0, "lon": -77.00570833333333, "is_reserved": 0}, {"bike_id": "dc01abb0f4996cf49b08ade2e92c6b56", "fusion_lon": 0.0, "type": "electric_bike", "name": "dc01abb0f4996cf49b08ade2e92c6b56", "rental_uris": {"android": "https://dc.lft.to/lastmile_qr_scan", "ios": "https://dc.lft.to/lastmile_qr_scan"}, "fusion_lat": 0.0, "lat": 39.052018333333336, "is_disabled": 0, "lon": -77.10921716666667, "is_reserved": 0}, {"bike_id": "07ad43ceb2d731920066a237bd7b51d3", "fusion_lon": 0.0, "type": "electric_scooter", "name": "07ad43ceb2d731920066a237bd7b51d3", "rental_uris": {"android": "https://dc.lft.to/lastmile_qr_scan", "ios": "https://dc.lft.to/lastmile_qr_scan"}, "fusion_lat": 0.0, "lat": 38.91549916666666, "is_disabled": 0, "lon": -77.0418615, "is_reserved": 0}, {"bike_id": "90b6936355a429173a6ed153f2385180", "fusion_lon": 0.0, "type": "electric_scooter", "name": "90b6936355a429173a6ed153f2385180", "rental_uris": {"android": "https://dc.lft.to/lastmile_qr_scan", "ios": "https://dc.lft.to/lastmile_qr_scan"}, "fusion_lat": 0.0, "lat": 38.85866433333333, "is_disabled": 0, "lon": -76.99035966666666, "is_reserved": 0}, {"bike_id": "822ea82e255ab0f3a4483904fda5809e", "fusion_lon": 0.0, "type": "electric_scooter", "name": "822ea82e255ab0f3a4483904fda5809e", "rental_uris": {"android": "https://dc.lft.to/lastmile_qr_scan", "ios": "https://dc.lft.to/lastmile_qr_scan"}, "fusion_lat": 0.0, "lat": 38.90333783333333, "is_disabled": 0, "lon": -77.0434415, "is_reserved": 0}, {"bike_id": "572594bac3b391991cea538bd32f8908", "fusion_lon": 0.0, "type": "electric_scooter", "name": "572594bac3b391991cea538bd32f8908", "rental_uris": {"android": "https://dc.lft.to/lastmile_qr_scan", "ios": "https://dc.lft.to/lastmile_qr_scan"}, "fusion_lat": 0.0, "lat": 38.88737716666667, "is_disabled": 0, "lon": -77.0240675, "is_reserved": 0}, {"bike_id": "8dbb08c2e67bbf232bb12a8cf9182b06", "fusion_lon": 0.0, "type": "electric_scooter", "name": "8dbb08c2e67bbf232bb12a8cf9182b06", "rental_uris": {"android": "https://dc.lft.to/lastmile_qr_scan", "ios": "https://dc.lft.to/lastmile_qr_scan"}, "fusion_lat": 0.0, "lat": 38.896208, "is_disabled": 0, "lon": -77.0091935, "is_reserved": 0}, {"bike_id": "abc467ec1dab71c4d41e44b2592f8b91", "fusion_lon": 0.0, "type": "electric_scooter", "name": "abc467ec1dab71c4d41e44b2592f8b91", "rental_uris": {"android": "https://dc.lft.to/lastmile_qr_scan", "ios": "https://dc.lft.to/lastmile_qr_scan"}, "fusion_lat": 0.0, "lat": 38.87643516666667, "is_disabled": 0, "lon": -76.96516216666667, "is_reserved": 0}, {"bike_id": "395dafbb213c98e82910517de2e0bd47", "fusion_lon": 0.0, "type": "electric_scooter", "name": "395dafbb213c98e82910517de2e0bd47", "rental_uris": {"android": "https://dc.lft.to/lastmile_qr_scan", "ios": "https://dc.lft.to/lastmile_qr_scan"}, "fusion_lat": 0.0, "lat": 38.908560333333334, "is_disabled": 0, "lon": -77.03842816666666, "is_reserved": 0}, {"bike_id": "5dc36a9749cdb844fd5abcd336ff71e9", "fusion_lon": 0.0, "type": "electric_scooter", "name": "5dc36a9749cdb844fd5abcd336ff71e9", "rental_uris": {"android": "https://dc.lft.to/lastmile_qr_scan", "ios": "https://dc.lft.to/lastmile_qr_scan"}, "fusion_lat": 0.0, "lat": 38.90812066666667, "is_disabled": 0, "lon": -77.0181715, "is_reserved": 0}, {"bike_id": "49fce7d0a446d2960d2b3dc079e08cdb", "fusion_lon": 0.0, "type": "electric_scooter", "name": "49fce7d0a446d2960d2b3dc079e08cdb", "rental_uris": {"android": "https://dc.lft.to/lastmile_qr_scan", "ios": "https://dc.lft.to/lastmile_qr_scan"}, "fusion_lat": 0.0, "lat": 38.92273433333333, "is_disabled": 0, "lon": -77.04393466666667, "is_reserved": 0}, {"bike_id": "a151da106e3b21ff4a1297425b6cfab7", "fusion_lon": 0.0, "type": "electric_scooter", "name": "a151da106e3b21ff4a1297425b6cfab7", "rental_uris": {"android": "https://dc.lft.to/lastmile_qr_scan", "ios": "https://dc.lft.to/lastmile_qr_scan"}, "fusion_lat": 0.0, "lat": 38.91842033333333, "is_disabled": 0, "lon": -77.03930266666667, "is_reserved": 0}, {"bike_id": "1dcf46900e2249c609fcce58886373b6", "fusion_lon": 0.0, "type": "electric_bike", "name": "1dcf46900e2249c609fcce58886373b6", "rental_uris": {"android": "https://dc.lft.to/lastmile_qr_scan", "ios": "https://dc.lft.to/lastmile_qr_scan"}, "fusion_lat": 0.0, "lat": 39.10564883333333, "is_disabled": 0, "lon": -77.15272066666667, "is_reserved": 0}, {"bike_id": "4d282c26a322f239113aa246b051df81", "fusion_lon": 0.0, "type": "electric_scooter", "name": "4d282c26a322f239113aa246b051df81", "rental_uris": {"android": "https://dc.lft.to/lastmile_qr_scan", "ios": "https://dc.lft.to/lastmile_qr_scan"}, "fusion_lat": 0.0, "lat": 38.916825833333334, "is_disabled": 0, "lon": -77.02959366666667, "is_reserved": 0}, {"bike_id": "de9845734c09ba701a8b7ccd67e65bee", "fusion_lon": 0.0, "type": "electric_scooter", "name": "de9845734c09ba701a8b7ccd67e65bee", "rental_uris": {"android": "https://dc.lft.to/lastmile_qr_scan", "ios": "https://dc.lft.to/lastmile_qr_scan"}, "fusion_lat": 0.0, "lat": 38.8764635, "is_disabled": 0, "lon": -76.965099, "is_reserved": 0}, {"bike_id": "45b7f8707ccb451e8f1fe945d4f8e278", "fusion_lon": 0.0, "type": "electric_scooter", "name": "45b7f8707ccb451e8f1fe945d4f8e278", "rental_uris": {"android": "https://dc.lft.to/lastmile_qr_scan", "ios": "https://dc.lft.to/lastmile_qr_scan"}, "fusion_lat": 0.0, "lat": 38.861721833333334, "is_disabled": 0, "lon": -76.98326983333334, "is_reserved": 0}, {"bike_id": "c153d28e4d9744e36017af50a87e6e01", "fusion_lon": 0.0, "type": "electric_scooter", "name": "c153d28e4d9744e36017af50a87e6e01", "rental_uris": {"android": "https://dc.lft.to/lastmile_qr_scan", "ios": "https://dc.lft.to/lastmile_qr_scan"}, "fusion_lat": 0.0, "lat": 38.9061375, "is_disabled": 0, "lon": -77.02694766666667, "is_reserved": 0}, {"bike_id": "8983b3ffae2a728604918b1794bbd821", "fusion_lon": 0.0, "type": "electric_scooter", "name": "8983b3ffae2a728604918b1794bbd821", "rental_uris": {"android": "https://dc.lft.to/lastmile_qr_scan", "ios": "https://dc.lft.to/lastmile_qr_scan"}, "fusion_lat": 0.0, "lat": 38.8842925, "is_disabled": 0, "lon": -76.95755783333334, "is_reserved": 0}, {"bike_id": "8b9f2a9e326cfce970cdcad960b5c693", "fusion_lon": 0.0, "type": "electric_bike", "name": "8b9f2a9e326cfce970cdcad960b5c693", "rental_uris": {"android": "https://dc.lft.to/lastmile_qr_scan", "ios": "https://dc.lft.to/lastmile_qr_scan"}, "fusion_lat": 0.0, "lat": 38.924426, "is_disabled": 0, "lon": -76.96844583333333, "is_reserved": 0}, {"bike_id": "4097e6c6e3862be9ac5adfab9e2e231a", "fusion_lon": 0.0, "type": "electric_scooter", "name": "4097e6c6e3862be9ac5adfab9e2e231a", "rental_uris": {"android": "https://dc.lft.to/lastmile_qr_scan", "ios": "https://dc.lft.to/lastmile_qr_scan"}, "fusion_lat": 0.0, "lat": 38.9404865, "is_disabled": 0, "lon": -77.07574716666667, "is_reserved": 0}, {"bike_id": "dcf492d337f57624b6c3e3e45cf34e34", "fusion_lon": 0.0, "type": "electric_scooter", "name": "dcf492d337f57624b6c3e3e45cf34e34", "rental_uris": {"android": "https://dc.lft.to/lastmile_qr_scan", "ios": "https://dc.lft.to/lastmile_qr_scan"}, "fusion_lat": 0.0, "lat": 38.9270195, "is_disabled": 0, "lon": -77.04053166666667, "is_reserved": 0}, {"bike_id": "bcb1efaef0edd29a50caa488f7dcbbb9", "fusion_lon": 0.0, "type": "electric_scooter", "name": "bcb1efaef0edd29a50caa488f7dcbbb9", "rental_uris": {"android": "https://dc.lft.to/lastmile_qr_scan", "ios": "https://dc.lft.to/lastmile_qr_scan"}, "fusion_lat": 0.0, "lat": 38.9076685, "is_disabled": 0, "lon": -77.03216666666667, "is_reserved": 0}, {"bike_id": "5b965af320b678aef8222f1930dc46d1", "fusion_lon": 0.0, "type": "electric_scooter", "name": "5b965af320b678aef8222f1930dc46d1", "rental_uris": {"android": "https://dc.lft.to/lastmile_qr_scan", "ios": "https://dc.lft.to/lastmile_qr_scan"}, "fusion_lat": 0.0, "lat": 38.930404, "is_disabled": 0, "lon": -77.03225816666667, "is_reserved": 0}, {"bike_id": "09065b43d2d7dab923c2d0bcbe2f5e12", "fusion_lon": 0.0, "type": "electric_bike", "name": "09065b43d2d7dab923c2d0bcbe2f5e12", "rental_uris": {"android": "https://dc.lft.to/lastmile_qr_scan", "ios": "https://dc.lft.to/lastmile_qr_scan"}, "fusion_lat": 0.0, "lat": 38.935780333333334, "is_disabled": 0, "lon": -77.10684716666667, "is_reserved": 0}, {"bike_id": "67cce0780eb02746f98c28645b0d4419", "fusion_lon": 0.0, "type": "electric_scooter", "name": "67cce0780eb02746f98c28645b0d4419", "rental_uris": {"android": "https://dc.lft.to/lastmile_qr_scan", "ios": "https://dc.lft.to/lastmile_qr_scan"}, "fusion_lat": 0.0, "lat": 38.900294833333334, "is_disabled": 0, "lon": -76.99132266666666, "is_reserved": 0}, {"bike_id": "c72ea6aa30031803cc9d96863c32ccb5", "fusion_lon": 0.0, "type": "electric_scooter", "name": "c72ea6aa30031803cc9d96863c32ccb5", "rental_uris": {"android": "https://dc.lft.to/lastmile_qr_scan", "ios": "https://dc.lft.to/lastmile_qr_scan"}, "fusion_lat": 0.0, "lat": 38.893360333333334, "is_disabled": 0, "lon": -77.046615, "is_reserved": 0}, {"bike_id": "da90deb99954f63c4d399fad21757332", "fusion_lon": 0.0, "type": "electric_scooter", "name": "da90deb99954f63c4d399fad21757332", "rental_uris": {"android": "https://dc.lft.to/lastmile_qr_scan", "ios": "https://dc.lft.to/lastmile_qr_scan"}, "fusion_lat": 0.0, "lat": 38.9029505, "is_disabled": 0, "lon": -77.04516566666666, "is_reserved": 0}, {"bike_id": "af20e7c12d9293657e6e2b63dd528fa9", "fusion_lon": 0.0, "type": "electric_scooter", "name": "af20e7c12d9293657e6e2b63dd528fa9", "rental_uris": {"android": "https://dc.lft.to/lastmile_qr_scan", "ios": "https://dc.lft.to/lastmile_qr_scan"}, "fusion_lat": 0.0, "lat": 38.92122333333333, "is_disabled": 0, "lon": -77.010264, "is_reserved": 0}, {"bike_id": "55580b9f392512df0c46eebb874a4e2c", "fusion_lon": 0.0, "type": "electric_scooter", "name": "55580b9f392512df0c46eebb874a4e2c", "rental_uris": {"android": "https://dc.lft.to/lastmile_qr_scan", "ios": "https://dc.lft.to/lastmile_qr_scan"}, "fusion_lat": 0.0, "lat": 38.8933725, "is_disabled": 0, "lon": -77.01166133333334, "is_reserved": 0}, {"bike_id": "46ab97f4e790ae7b1d4dd0e0c6144b09", "fusion_lon": 0.0, "type": "electric_scooter", "name": "46ab97f4e790ae7b1d4dd0e0c6144b09", "rental_uris": {"android": "https://dc.lft.to/lastmile_qr_scan", "ios": "https://dc.lft.to/lastmile_qr_scan"}, "fusion_lat": 0.0, "lat": 38.913843666666665, "is_disabled": 0, "lon": -77.03918783333333, "is_reserved": 0}, {"bike_id": "42b7db772bbb45584ac44685d15ec0a2", "fusion_lon": 0.0, "type": "electric_scooter", "name": "42b7db772bbb45584ac44685d15ec0a2", "rental_uris": {"android": "https://dc.lft.to/lastmile_qr_scan", "ios": "https://dc.lft.to/lastmile_qr_scan"}, "fusion_lat": 0.0, "lat": 38.894291833333334, "is_disabled": 0, "lon": -76.97912, "is_reserved": 0}, {"bike_id": "171232c118185cd71c9157f5845e6206", "fusion_lon": 0.0, "type": "electric_scooter", "name": "171232c118185cd71c9157f5845e6206", "rental_uris": {"android": "https://dc.lft.to/lastmile_qr_scan", "ios": "https://dc.lft.to/lastmile_qr_scan"}, "fusion_lat": 0.0, "lat": 38.906710333333336, "is_disabled": 0, "lon": -77.07119883333333, "is_reserved": 0}, {"bike_id": "902e4b50b830639d3f51dd78d001aa8b", "fusion_lon": 0.0, "type": "electric_bike", "name": "902e4b50b830639d3f51dd78d001aa8b", "rental_uris": {"android": "https://dc.lft.to/lastmile_qr_scan", "ios": "https://dc.lft.to/lastmile_qr_scan"}, "fusion_lat": 0.0, "lat": 38.9560855, "is_disabled": 0, "lon": -76.93891983333333, "is_reserved": 0}, {"bike_id": "2f04f7141a313f42c7b78a0fb5fcad4c", "fusion_lon": 0.0, "type": "electric_scooter", "name": "2f04f7141a313f42c7b78a0fb5fcad4c", "rental_uris": {"android": "https://dc.lft.to/lastmile_qr_scan", "ios": "https://dc.lft.to/lastmile_qr_scan"}, "fusion_lat": 0.0, "lat": 38.90439716666667, "is_disabled": 0, "lon": -77.03123316666667, "is_reserved": 0}, {"bike_id": "39572375555d5081d55019f178aae365", "fusion_lon": 0.0, "type": "electric_scooter", "name": "39572375555d5081d55019f178aae365", "rental_uris": {"android": "https://dc.lft.to/lastmile_qr_scan", "ios": "https://dc.lft.to/lastmile_qr_scan"}, "fusion_lat": 0.0, "lat": 38.93568833333333, "is_disabled": 0, "lon": -77.03491416666667, "is_reserved": 0}, {"bike_id": "55641922a7bf58cfeb1d25f6d4127e5d", "fusion_lon": 0.0, "type": "electric_scooter", "name": "55641922a7bf58cfeb1d25f6d4127e5d", "rental_uris": {"android": "https://dc.lft.to/lastmile_qr_scan", "ios": "https://dc.lft.to/lastmile_qr_scan"}, "fusion_lat": 0.0, "lat": 38.90596883333333, "is_disabled": 0, "lon": -77.0716395, "is_reserved": 0}, {"bike_id": "6c17f36d41cf3d52ebb0dd6d25474700", "fusion_lon": 0.0, "type": "electric_scooter", "name": "6c17f36d41cf3d52ebb0dd6d25474700", "rental_uris": {"android": "https://dc.lft.to/lastmile_qr_scan", "ios": "https://dc.lft.to/lastmile_qr_scan"}, "fusion_lat": 0.0, "lat": 38.90301983333333, "is_disabled": 0, "lon": -77.03326983333334, "is_reserved": 0}, {"bike_id": "edb0da92977a6e9c5ca394397d5d4c26", "fusion_lon": 0.0, "type": "electric_scooter", "name": "edb0da92977a6e9c5ca394397d5d4c26", "rental_uris": {"android": "https://dc.lft.to/lastmile_qr_scan", "ios": "https://dc.lft.to/lastmile_qr_scan"}, "fusion_lat": 0.0, "lat": 38.890529, "is_disabled": 0, "lon": -76.95522633333333, "is_reserved": 0}, {"bike_id": "e5673c25a47bc2ea437a3b9c2f21fbb2", "fusion_lon": 0.0, "type": "electric_bike", "name": "e5673c25a47bc2ea437a3b9c2f21fbb2", "rental_uris": {"android": "https://dc.lft.to/lastmile_qr_scan", "ios": "https://dc.lft.to/lastmile_qr_scan"}, "fusion_lat": 0.0, "lat": 38.868833, "is_disabled": 0, "lon": -76.98565566666667, "is_reserved": 0}, {"bike_id": "bf96ce20bdcb1218061452a3c9a4cfdf", "fusion_lon": 0.0, "type": "electric_scooter", "name": "bf96ce20bdcb1218061452a3c9a4cfdf", "rental_uris": {"android": "https://dc.lft.to/lastmile_qr_scan", "ios": "https://dc.lft.to/lastmile_qr_scan"}, "fusion_lat": 0.0, "lat": 38.914600666666665, "is_disabled": 0, "lon": -77.02197033333333, "is_reserved": 0}, {"bike_id": "c1fff4967fd4000b7751afa4c54e06ef", "fusion_lon": 0.0, "type": "electric_scooter", "name": "c1fff4967fd4000b7751afa4c54e06ef", "rental_uris": {"android": "https://dc.lft.to/lastmile_qr_scan", "ios": "https://dc.lft.to/lastmile_qr_scan"}, "fusion_lat": 0.0, "lat": 38.93799883333333, "is_disabled": 0, "lon": -77.0329435, "is_reserved": 0}, {"bike_id": "2aad32e9ef5b71fbca9efa57721e93a8", "fusion_lon": 0.0, "type": "electric_scooter", "name": "2aad32e9ef5b71fbca9efa57721e93a8", "rental_uris": {"android": "https://dc.lft.to/lastmile_qr_scan", "ios": "https://dc.lft.to/lastmile_qr_scan"}, "fusion_lat": 0.0, "lat": 38.920018166666665, "is_disabled": 0, "lon": -77.0247545, "is_reserved": 0}, {"bike_id": "d7170bfb60774e3ce9b0bf2f45d95bf7", "fusion_lon": 0.0, "type": "electric_scooter", "name": "d7170bfb60774e3ce9b0bf2f45d95bf7", "rental_uris": {"android": "https://dc.lft.to/lastmile_qr_scan", "ios": "https://dc.lft.to/lastmile_qr_scan"}, "fusion_lat": 0.0, "lat": 38.916222166666664, "is_disabled": 0, "lon": -77.04834783333334, "is_reserved": 0}, {"bike_id": "1eddfa2e97e1baaf4062d7408f5fef8e", "fusion_lon": 0.0, "type": "electric_scooter", "name": "1eddfa2e97e1baaf4062d7408f5fef8e", "rental_uris": {"android": "https://dc.lft.to/lastmile_qr_scan", "ios": "https://dc.lft.to/lastmile_qr_scan"}, "fusion_lat": 0.0, "lat": 38.8919225, "is_disabled": 0, "lon": -76.98129733333333, "is_reserved": 0}, {"bike_id": "6cf83fa30fb3bb7033855d887c6e53d0", "fusion_lon": 0.0, "type": "electric_scooter", "name": "6cf83fa30fb3bb7033855d887c6e53d0", "rental_uris": {"android": "https://dc.lft.to/lastmile_qr_scan", "ios": "https://dc.lft.to/lastmile_qr_scan"}, "fusion_lat": 0.0, "lat": 38.91684683333333, "is_disabled": 0, "lon": -77.02199116666667, "is_reserved": 0}, {"bike_id": "1ab96312f16b0e63273bb8ae4aa18f3d", "fusion_lon": 0.0, "type": "electric_scooter", "name": "1ab96312f16b0e63273bb8ae4aa18f3d", "rental_uris": {"android": "https://dc.lft.to/lastmile_qr_scan", "ios": "https://dc.lft.to/lastmile_qr_scan"}, "fusion_lat": 0.0, "lat": 38.9110765, "is_disabled": 0, "lon": -77.042325, "is_reserved": 0}, {"bike_id": "d666f8c230360cc002c172c96e45220d", "fusion_lon": 0.0, "type": "electric_scooter", "name": "d666f8c230360cc002c172c96e45220d", "rental_uris": {"android": "https://dc.lft.to/lastmile_qr_scan", "ios": "https://dc.lft.to/lastmile_qr_scan"}, "fusion_lat": 0.0, "lat": 38.906235333333335, "is_disabled": 0, "lon": -77.07667933333333, "is_reserved": 0}, {"bike_id": "c50dc79d8ba1f6c1b43a711ae221851b", "fusion_lon": 0.0, "type": "electric_scooter", "name": "c50dc79d8ba1f6c1b43a711ae221851b", "rental_uris": {"android": "https://dc.lft.to/lastmile_qr_scan", "ios": "https://dc.lft.to/lastmile_qr_scan"}, "fusion_lat": 0.0, "lat": 38.86505416666667, "is_disabled": 0, "lon": -76.9900535, "is_reserved": 0}, {"bike_id": "93872e776b6dbe3d9155716303ea41fc", "fusion_lon": 0.0, "type": "electric_scooter", "name": "93872e776b6dbe3d9155716303ea41fc", "rental_uris": {"android": "https://dc.lft.to/lastmile_qr_scan", "ios": "https://dc.lft.to/lastmile_qr_scan"}, "fusion_lat": 0.0, "lat": 38.908005333333335, "is_disabled": 0, "lon": -77.05147033333333, "is_reserved": 0}, {"bike_id": "8afe9d19aad7405b6bfedde7bfe64b0c", "fusion_lon": 0.0, "type": "electric_scooter", "name": "8afe9d19aad7405b6bfedde7bfe64b0c", "rental_uris": {"android": "https://dc.lft.to/lastmile_qr_scan", "ios": "https://dc.lft.to/lastmile_qr_scan"}, "fusion_lat": 0.0, "lat": 38.933503333333334, "is_disabled": 0, "lon": -76.99452533333333, "is_reserved": 0}, {"bike_id": "84835ae4061a43982f04d8c15b91f95c", "fusion_lon": 0.0, "type": "electric_scooter", "name": "84835ae4061a43982f04d8c15b91f95c", "rental_uris": {"android": "https://dc.lft.to/lastmile_qr_scan", "ios": "https://dc.lft.to/lastmile_qr_scan"}, "fusion_lat": 0.0, "lat": 38.90953183333333, "is_disabled": 0, "lon": -77.04854316666666, "is_reserved": 0}, {"bike_id": "57cdf95f3598e8c6086236c071bd133a", "fusion_lon": 0.0, "type": "electric_scooter", "name": "57cdf95f3598e8c6086236c071bd133a", "rental_uris": {"android": "https://dc.lft.to/lastmile_qr_scan", "ios": "https://dc.lft.to/lastmile_qr_scan"}, "fusion_lat": 0.0, "lat": 38.936618333333335, "is_disabled": 0, "lon": -77.03270433333333, "is_reserved": 0}, {"bike_id": "cc53fc0389a3947a7b7bc0bdea1b3bfc", "fusion_lon": 0.0, "type": "electric_scooter", "name": "cc53fc0389a3947a7b7bc0bdea1b3bfc", "rental_uris": {"android": "https://dc.lft.to/lastmile_qr_scan", "ios": "https://dc.lft.to/lastmile_qr_scan"}, "fusion_lat": 0.0, "lat": 38.923662666666665, "is_disabled": 0, "lon": -77.05032283333334, "is_reserved": 0}, {"bike_id": "3e6c82136284199ea571920f0004e61c", "fusion_lon": 0.0, "type": "electric_scooter", "name": "3e6c82136284199ea571920f0004e61c", "rental_uris": {"android": "https://dc.lft.to/lastmile_qr_scan", "ios": "https://dc.lft.to/lastmile_qr_scan"}, "fusion_lat": 0.0, "lat": 38.896846333333336, "is_disabled": 0, "lon": -77.00505833333334, "is_reserved": 0}, {"bike_id": "584a13d855f43cf19fd933a9fb180565", "fusion_lon": 0.0, "type": "electric_scooter", "name": "584a13d855f43cf19fd933a9fb180565", "rental_uris": {"android": "https://dc.lft.to/lastmile_qr_scan", "ios": "https://dc.lft.to/lastmile_qr_scan"}, "fusion_lat": 0.0, "lat": 38.914733166666664, "is_disabled": 0, "lon": -77.01460133333333, "is_reserved": 0}, {"bike_id": "682f149c3766ed07937e270da080a151", "fusion_lon": 0.0, "type": "electric_scooter", "name": "682f149c3766ed07937e270da080a151", "rental_uris": {"android": "https://dc.lft.to/lastmile_qr_scan", "ios": "https://dc.lft.to/lastmile_qr_scan"}, "fusion_lat": 0.0, "lat": 38.89969466666667, "is_disabled": 0, "lon": -76.9343805, "is_reserved": 0}, {"bike_id": "8594070d6654091731a998aa72059717", "fusion_lon": 0.0, "type": "electric_scooter", "name": "8594070d6654091731a998aa72059717", "rental_uris": {"android": "https://dc.lft.to/lastmile_qr_scan", "ios": "https://dc.lft.to/lastmile_qr_scan"}, "fusion_lat": 0.0, "lat": 38.92897133333334, "is_disabled": 0, "lon": -77.0375885, "is_reserved": 0}, {"bike_id": "fc4137f969932fb32ef20059ebb6bc76", "fusion_lon": 0.0, "type": "electric_scooter", "name": "fc4137f969932fb32ef20059ebb6bc76", "rental_uris": {"android": "https://dc.lft.to/lastmile_qr_scan", "ios": "https://dc.lft.to/lastmile_qr_scan"}, "fusion_lat": 0.0, "lat": 38.89698583333333, "is_disabled": 0, "lon": -77.02284233333333, "is_reserved": 0}, {"bike_id": "605600b292e31fcc1874dd0aecfa1a27", "fusion_lon": 0.0, "type": "electric_scooter", "name": "605600b292e31fcc1874dd0aecfa1a27", "rental_uris": {"android": "https://dc.lft.to/lastmile_qr_scan", "ios": "https://dc.lft.to/lastmile_qr_scan"}, "fusion_lat": 0.0, "lat": 38.90360533333333, "is_disabled": 0, "lon": -77.0200575, "is_reserved": 0}, {"bike_id": "ba354e8d4782e16476e27db761c6596b", "fusion_lon": 0.0, "type": "electric_scooter", "name": "ba354e8d4782e16476e27db761c6596b", "rental_uris": {"android": "https://dc.lft.to/lastmile_qr_scan", "ios": "https://dc.lft.to/lastmile_qr_scan"}, "fusion_lat": 0.0, "lat": 38.892197833333334, "is_disabled": 0, "lon": -77.03229283333333, "is_reserved": 0}, {"bike_id": "b8938b026ab8575f4af2c0c66a64ad65", "fusion_lon": 0.0, "type": "electric_scooter", "name": "b8938b026ab8575f4af2c0c66a64ad65", "rental_uris": {"android": "https://dc.lft.to/lastmile_qr_scan", "ios": "https://dc.lft.to/lastmile_qr_scan"}, "fusion_lat": 0.0, "lat": 38.916885, "is_disabled": 0, "lon": -77.0350125, "is_reserved": 0}, {"bike_id": "be0c14042a2b3d8be09f5e3980108abd", "fusion_lon": 0.0, "type": "electric_bike", "name": "be0c14042a2b3d8be09f5e3980108abd", "rental_uris": {"android": "https://dc.lft.to/lastmile_qr_scan", "ios": "https://dc.lft.to/lastmile_qr_scan"}, "fusion_lat": 0.0, "lat": 38.866174666666666, "is_disabled": 0, "lon": -76.94579833333333, "is_reserved": 0}, {"bike_id": "e1995e1f0dd1020fc8c8cc088b8b339c", "fusion_lon": 0.0, "type": "electric_scooter", "name": "e1995e1f0dd1020fc8c8cc088b8b339c", "rental_uris": {"android": "https://dc.lft.to/lastmile_qr_scan", "ios": "https://dc.lft.to/lastmile_qr_scan"}, "fusion_lat": 0.0, "lat": 38.904401166666666, "is_disabled": 0, "lon": -77.06114083333334, "is_reserved": 0}, {"bike_id": "32d51c086b9bac99d6f3d65eace105db", "fusion_lon": 0.0, "type": "electric_scooter", "name": "32d51c086b9bac99d6f3d65eace105db", "rental_uris": {"android": "https://dc.lft.to/lastmile_qr_scan", "ios": "https://dc.lft.to/lastmile_qr_scan"}, "fusion_lat": 0.0, "lat": 38.91694966666667, "is_disabled": 0, "lon": -77.03857716666667, "is_reserved": 0}, {"bike_id": "4aa0dd7ee7147a867ee0e44f2071145d", "fusion_lon": 0.0, "type": "electric_scooter", "name": "4aa0dd7ee7147a867ee0e44f2071145d", "rental_uris": {"android": "https://dc.lft.to/lastmile_qr_scan", "ios": "https://dc.lft.to/lastmile_qr_scan"}, "fusion_lat": 0.0, "lat": 38.946448833333335, "is_disabled": 0, "lon": -77.0303335, "is_reserved": 0}, {"bike_id": "13f83be0a279473355d9a25512112b8b", "fusion_lon": 0.0, "type": "electric_scooter", "name": "13f83be0a279473355d9a25512112b8b", "rental_uris": {"android": "https://dc.lft.to/lastmile_qr_scan", "ios": "https://dc.lft.to/lastmile_qr_scan"}, "fusion_lat": 0.0, "lat": 38.880787833333336, "is_disabled": 0, "lon": -76.98512683333334, "is_reserved": 0}, {"bike_id": "7e32cd2bb07da2a8a556a37a94103cd6", "fusion_lon": 0.0, "type": "electric_bike", "name": "7e32cd2bb07da2a8a556a37a94103cd6", "rental_uris": {"android": "https://dc.lft.to/lastmile_qr_scan", "ios": "https://dc.lft.to/lastmile_qr_scan"}, "fusion_lat": 0.0, "lat": 38.856192166666666, "is_disabled": 0, "lon": -77.08543183333333, "is_reserved": 0}, {"bike_id": "49d852fd7691de33d1f4444e3d6570ba", "fusion_lon": 0.0, "type": "electric_bike", "name": "49d852fd7691de33d1f4444e3d6570ba", "rental_uris": {"android": "https://dc.lft.to/lastmile_qr_scan", "ios": "https://dc.lft.to/lastmile_qr_scan"}, "fusion_lat": 0.0, "lat": 39.0884035, "is_disabled": 0, "lon": -77.17801716666666, "is_reserved": 0}, {"bike_id": "0d3a7221fdbcb9971beb29d82827e313", "fusion_lon": 0.0, "type": "electric_scooter", "name": "0d3a7221fdbcb9971beb29d82827e313", "rental_uris": {"android": "https://dc.lft.to/lastmile_qr_scan", "ios": "https://dc.lft.to/lastmile_qr_scan"}, "fusion_lat": 0.0, "lat": 38.90102783333333, "is_disabled": 0, "lon": -77.01692533333333, "is_reserved": 0}, {"bike_id": "d9b35a6b023de57ab52c4d48be65dcc4", "fusion_lon": 0.0, "type": "electric_scooter", "name": "d9b35a6b023de57ab52c4d48be65dcc4", "rental_uris": {"android": "https://dc.lft.to/lastmile_qr_scan", "ios": "https://dc.lft.to/lastmile_qr_scan"}, "fusion_lat": 0.0, "lat": 38.93569333333333, "is_disabled": 0, "lon": -77.02127083333333, "is_reserved": 0}, {"bike_id": "2206bcf51e6547ff22f7fc00669a3488", "fusion_lon": 0.0, "type": "electric_scooter", "name": "2206bcf51e6547ff22f7fc00669a3488", "rental_uris": {"android": "https://dc.lft.to/lastmile_qr_scan", "ios": "https://dc.lft.to/lastmile_qr_scan"}, "fusion_lat": 0.0, "lat": 38.866791666666664, "is_disabled": 0, "lon": -76.9890555, "is_reserved": 0}, {"bike_id": "b6afdaf6892c6a06fe10535f545e272d", "fusion_lon": 0.0, "type": "electric_scooter", "name": "b6afdaf6892c6a06fe10535f545e272d", "rental_uris": {"android": "https://dc.lft.to/lastmile_qr_scan", "ios": "https://dc.lft.to/lastmile_qr_scan"}, "fusion_lat": 0.0, "lat": 38.950689833333335, "is_disabled": 0, "lon": -77.0654485, "is_reserved": 0}, {"bike_id": "d7e796a22f0575c34c3f00b7f219d31a", "fusion_lon": 0.0, "type": "electric_scooter", "name": "d7e796a22f0575c34c3f00b7f219d31a", "rental_uris": {"android": "https://dc.lft.to/lastmile_qr_scan", "ios": "https://dc.lft.to/lastmile_qr_scan"}, "fusion_lat": 0.0, "lat": 38.9068225, "is_disabled": 0, "lon": -77.02696316666666, "is_reserved": 0}, {"bike_id": "ebe0671adde713bb78217dce40d775ac", "fusion_lon": 0.0, "type": "electric_bike", "name": "ebe0671adde713bb78217dce40d775ac", "rental_uris": {"android": "https://dc.lft.to/lastmile_qr_scan", "ios": "https://dc.lft.to/lastmile_qr_scan"}, "fusion_lat": 0.0, "lat": 38.96218616666667, "is_disabled": 0, "lon": -77.02629183333333, "is_reserved": 0}, {"bike_id": "3c85ee77a6b913d45b5729d96311d0d7", "fusion_lon": 0.0, "type": "electric_scooter", "name": "3c85ee77a6b913d45b5729d96311d0d7", "rental_uris": {"android": "https://dc.lft.to/lastmile_qr_scan", "ios": "https://dc.lft.to/lastmile_qr_scan"}, "fusion_lat": 0.0, "lat": 38.89278483333333, "is_disabled": 0, "lon": -77.020284, "is_reserved": 0}, {"bike_id": "6c602a99b3ad419bd630a4e6a2c58505", "fusion_lon": 0.0, "type": "electric_scooter", "name": "6c602a99b3ad419bd630a4e6a2c58505", "rental_uris": {"android": "https://dc.lft.to/lastmile_qr_scan", "ios": "https://dc.lft.to/lastmile_qr_scan"}, "fusion_lat": 0.0, "lat": 38.940940166666664, "is_disabled": 0, "lon": -77.02533866666667, "is_reserved": 0}, {"bike_id": "95475ae185963f347ff40b94298a9687", "fusion_lon": 0.0, "type": "electric_scooter", "name": "95475ae185963f347ff40b94298a9687", "rental_uris": {"android": "https://dc.lft.to/lastmile_qr_scan", "ios": "https://dc.lft.to/lastmile_qr_scan"}, "fusion_lat": 0.0, "lat": 38.88501866666667, "is_disabled": 0, "lon": -77.03353116666666, "is_reserved": 0}, {"bike_id": "7ff6d035870146f0830abacd84e1c921", "fusion_lon": 0.0, "type": "electric_scooter", "name": "7ff6d035870146f0830abacd84e1c921", "rental_uris": {"android": "https://dc.lft.to/lastmile_qr_scan", "ios": "https://dc.lft.to/lastmile_qr_scan"}, "fusion_lat": 0.0, "lat": 38.956553, "is_disabled": 0, "lon": -77.03337516666667, "is_reserved": 0}, {"bike_id": "b7f1cfcdaef44718aeb7280b001f0b15", "fusion_lon": 0.0, "type": "electric_scooter", "name": "b7f1cfcdaef44718aeb7280b001f0b15", "rental_uris": {"android": "https://dc.lft.to/lastmile_qr_scan", "ios": "https://dc.lft.to/lastmile_qr_scan"}, "fusion_lat": 0.0, "lat": 38.885914666666665, "is_disabled": 0, "lon": -76.99459066666667, "is_reserved": 0}, {"bike_id": "e1598db3091fbd77e1342fd3a67db272", "fusion_lon": 0.0, "type": "electric_scooter", "name": "e1598db3091fbd77e1342fd3a67db272", "rental_uris": {"android": "https://dc.lft.to/lastmile_qr_scan", "ios": "https://dc.lft.to/lastmile_qr_scan"}, "fusion_lat": 0.0, "lat": 38.907721333333335, "is_disabled": 0, "lon": -77.044912, "is_reserved": 0}, {"bike_id": "0e04f20ca3f028b8fb0550bd35edb4b3", "fusion_lon": 0.0, "type": "electric_scooter", "name": "0e04f20ca3f028b8fb0550bd35edb4b3", "rental_uris": {"android": "https://dc.lft.to/lastmile_qr_scan", "ios": "https://dc.lft.to/lastmile_qr_scan"}, "fusion_lat": 0.0, "lat": 38.9245995, "is_disabled": 0, "lon": -77.0216255, "is_reserved": 0}, {"bike_id": "fad9da4cfbc2ce1fc682cc2bd862c2d2", "fusion_lon": 0.0, "type": "electric_scooter", "name": "fad9da4cfbc2ce1fc682cc2bd862c2d2", "rental_uris": {"android": "https://dc.lft.to/lastmile_qr_scan", "ios": "https://dc.lft.to/lastmile_qr_scan"}, "fusion_lat": 0.0, "lat": 38.90842083333333, "is_disabled": 0, "lon": -77.02700566666667, "is_reserved": 0}, {"bike_id": "abffa817a60382b4835b1f53be0a0d07", "fusion_lon": 0.0, "type": "electric_scooter", "name": "abffa817a60382b4835b1f53be0a0d07", "rental_uris": {"android": "https://dc.lft.to/lastmile_qr_scan", "ios": "https://dc.lft.to/lastmile_qr_scan"}, "fusion_lat": 0.0, "lat": 38.91212483333334, "is_disabled": 0, "lon": -77.0380275, "is_reserved": 0}, {"bike_id": "ac67a7a9b15d196349c4167d9fcc7ada", "fusion_lon": 0.0, "type": "electric_bike", "name": "ac67a7a9b15d196349c4167d9fcc7ada", "rental_uris": {"android": "https://dc.lft.to/lastmile_qr_scan", "ios": "https://dc.lft.to/lastmile_qr_scan"}, "fusion_lat": 0.0, "lat": 38.892348166666665, "is_disabled": 0, "lon": -77.01788133333334, "is_reserved": 0}, {"bike_id": "5188b50a18f4388434de4e0af0ecfed6", "fusion_lon": 0.0, "type": "electric_scooter", "name": "5188b50a18f4388434de4e0af0ecfed6", "rental_uris": {"android": "https://dc.lft.to/lastmile_qr_scan", "ios": "https://dc.lft.to/lastmile_qr_scan"}, "fusion_lat": 0.0, "lat": 38.93562633333333, "is_disabled": 0, "lon": -77.02141766666666, "is_reserved": 0}, {"bike_id": "c45ec83214bd87e500e116eb156e780c", "fusion_lon": 0.0, "type": "electric_scooter", "name": "c45ec83214bd87e500e116eb156e780c", "rental_uris": {"android": "https://dc.lft.to/lastmile_qr_scan", "ios": "https://dc.lft.to/lastmile_qr_scan"}, "fusion_lat": 0.0, "lat": 38.9297725, "is_disabled": 0, "lon": -77.0319525, "is_reserved": 0}, {"bike_id": "01f324cfb739bf803066d99b2732bdf9", "fusion_lon": 0.0, "type": "electric_scooter", "name": "01f324cfb739bf803066d99b2732bdf9", "rental_uris": {"android": "https://dc.lft.to/lastmile_qr_scan", "ios": "https://dc.lft.to/lastmile_qr_scan"}, "fusion_lat": 0.0, "lat": 38.9291075, "is_disabled": 0, "lon": -77.02096616666667, "is_reserved": 0}, {"bike_id": "a8c08a5119301f4020cf8436e93c371a", "fusion_lon": 0.0, "type": "electric_scooter", "name": "a8c08a5119301f4020cf8436e93c371a", "rental_uris": {"android": "https://dc.lft.to/lastmile_qr_scan", "ios": "https://dc.lft.to/lastmile_qr_scan"}, "fusion_lat": 0.0, "lat": 38.842888, "is_disabled": 0, "lon": -76.99948633333334, "is_reserved": 0}, {"bike_id": "2c23a3a3d61a7b3102631fcaeec06088", "fusion_lon": 0.0, "type": "electric_scooter", "name": "2c23a3a3d61a7b3102631fcaeec06088", "rental_uris": {"android": "https://dc.lft.to/lastmile_qr_scan", "ios": "https://dc.lft.to/lastmile_qr_scan"}, "fusion_lat": 0.0, "lat": 38.898431333333335, "is_disabled": 0, "lon": -77.03329616666667, "is_reserved": 0}, {"bike_id": "efab1a8babd1fd4fbeaab27b1ebf8885", "fusion_lon": 0.0, "type": "electric_scooter", "name": "efab1a8babd1fd4fbeaab27b1ebf8885", "rental_uris": {"android": "https://dc.lft.to/lastmile_qr_scan", "ios": "https://dc.lft.to/lastmile_qr_scan"}, "fusion_lat": 0.0, "lat": 38.90047933333334, "is_disabled": 0, "lon": -77.04833033333334, "is_reserved": 0}, {"bike_id": "5f96e1166ef3f5bdb9c15096db4b50f5", "fusion_lon": 0.0, "type": "electric_scooter", "name": "5f96e1166ef3f5bdb9c15096db4b50f5", "rental_uris": {"android": "https://dc.lft.to/lastmile_qr_scan", "ios": "https://dc.lft.to/lastmile_qr_scan"}, "fusion_lat": 0.0, "lat": 38.877123833333336, "is_disabled": 0, "lon": -77.01812433333333, "is_reserved": 0}, {"bike_id": "e2b0deee0cfcdcd4e36d521af6cf066b", "fusion_lon": 0.0, "type": "electric_scooter", "name": "e2b0deee0cfcdcd4e36d521af6cf066b", "rental_uris": {"android": "https://dc.lft.to/lastmile_qr_scan", "ios": "https://dc.lft.to/lastmile_qr_scan"}, "fusion_lat": 0.0, "lat": 38.940990666666664, "is_disabled": 0, "lon": -77.02114666666667, "is_reserved": 0}, {"bike_id": "cf1c1982cd38785ebdb66348fc57de56", "fusion_lon": 0.0, "type": "electric_scooter", "name": "cf1c1982cd38785ebdb66348fc57de56", "rental_uris": {"android": "https://dc.lft.to/lastmile_qr_scan", "ios": "https://dc.lft.to/lastmile_qr_scan"}, "fusion_lat": 0.0, "lat": 38.87195166666667, "is_disabled": 0, "lon": -77.01250883333333, "is_reserved": 0}, {"bike_id": "75d68d8e1af358c1ab3b085ccf360b03", "fusion_lon": 0.0, "type": "electric_scooter", "name": "75d68d8e1af358c1ab3b085ccf360b03", "rental_uris": {"android": "https://dc.lft.to/lastmile_qr_scan", "ios": "https://dc.lft.to/lastmile_qr_scan"}, "fusion_lat": 0.0, "lat": 38.924108, "is_disabled": 0, "lon": -77.05178166666667, "is_reserved": 0}, {"bike_id": "7573cc1d94300b32fe2c7a3d34348a45", "fusion_lon": 0.0, "type": "electric_bike", "name": "7573cc1d94300b32fe2c7a3d34348a45", "rental_uris": {"android": "https://dc.lft.to/lastmile_qr_scan", "ios": "https://dc.lft.to/lastmile_qr_scan"}, "fusion_lat": 0.0, "lat": 38.8963905, "is_disabled": 0, "lon": -77.10568533333333, "is_reserved": 0}, {"bike_id": "c371600488df5d33849ff05da7e5c8a8", "fusion_lon": 0.0, "type": "electric_scooter", "name": "c371600488df5d33849ff05da7e5c8a8", "rental_uris": {"android": "https://dc.lft.to/lastmile_qr_scan", "ios": "https://dc.lft.to/lastmile_qr_scan"}, "fusion_lat": 0.0, "lat": 38.892204666666665, "is_disabled": 0, "lon": -77.02721583333333, "is_reserved": 0}, {"bike_id": "bbd796f41405b16d0ab38d055fb08f2f", "fusion_lon": 0.0, "type": "electric_scooter", "name": "bbd796f41405b16d0ab38d055fb08f2f", "rental_uris": {"android": "https://dc.lft.to/lastmile_qr_scan", "ios": "https://dc.lft.to/lastmile_qr_scan"}, "fusion_lat": 0.0, "lat": 38.915949166666664, "is_disabled": 0, "lon": -77.02825416666667, "is_reserved": 0}, {"bike_id": "47dd99abd11a2f1b8fd089e1591b9d0d", "fusion_lon": 0.0, "type": "electric_bike", "name": "47dd99abd11a2f1b8fd089e1591b9d0d", "rental_uris": {"android": "https://dc.lft.to/lastmile_qr_scan", "ios": "https://dc.lft.to/lastmile_qr_scan"}, "fusion_lat": 0.0, "lat": 38.934867833333335, "is_disabled": 0, "lon": -77.03009733333333, "is_reserved": 0}, {"bike_id": "01f1a87f565a046b32f7cd58948940de", "fusion_lon": 0.0, "type": "electric_scooter", "name": "01f1a87f565a046b32f7cd58948940de", "rental_uris": {"android": "https://dc.lft.to/lastmile_qr_scan", "ios": "https://dc.lft.to/lastmile_qr_scan"}, "fusion_lat": 0.0, "lat": 38.876257333333335, "is_disabled": 0, "lon": -76.96526966666667, "is_reserved": 0}, {"bike_id": "496c51ff30101a1a212779cc1d0aef2f", "fusion_lon": 0.0, "type": "electric_scooter", "name": "496c51ff30101a1a212779cc1d0aef2f", "rental_uris": {"android": "https://dc.lft.to/lastmile_qr_scan", "ios": "https://dc.lft.to/lastmile_qr_scan"}, "fusion_lat": 0.0, "lat": 38.902646833333336, "is_disabled": 0, "lon": -77.03978383333333, "is_reserved": 0}, {"bike_id": "6c43508fa82dc2d697ed2a34642e1579", "fusion_lon": 0.0, "type": "electric_scooter", "name": "6c43508fa82dc2d697ed2a34642e1579", "rental_uris": {"android": "https://dc.lft.to/lastmile_qr_scan", "ios": "https://dc.lft.to/lastmile_qr_scan"}, "fusion_lat": 0.0, "lat": 38.903561, "is_disabled": 0, "lon": -77.011143, "is_reserved": 0}, {"bike_id": "c90b5c4210cd602bb208feed82575e4f", "fusion_lon": 0.0, "type": "electric_bike", "name": "c90b5c4210cd602bb208feed82575e4f", "rental_uris": {"android": "https://dc.lft.to/lastmile_qr_scan", "ios": "https://dc.lft.to/lastmile_qr_scan"}, "fusion_lat": 0.0, "lat": 38.93496366666667, "is_disabled": 0, "lon": -76.94957683333334, "is_reserved": 0}, {"bike_id": "099e099e1daf8e53843140d0b2bde8ed", "fusion_lon": 0.0, "type": "electric_scooter", "name": "099e099e1daf8e53843140d0b2bde8ed", "rental_uris": {"android": "https://dc.lft.to/lastmile_qr_scan", "ios": "https://dc.lft.to/lastmile_qr_scan"}, "fusion_lat": 0.0, "lat": 38.9075965, "is_disabled": 0, "lon": -77.03218616666666, "is_reserved": 0}, {"bike_id": "982c8a60cb0b76b928ced111263aa9bc", "fusion_lon": 0.0, "type": "electric_scooter", "name": "982c8a60cb0b76b928ced111263aa9bc", "rental_uris": {"android": "https://dc.lft.to/lastmile_qr_scan", "ios": "https://dc.lft.to/lastmile_qr_scan"}, "fusion_lat": 0.0, "lat": 38.89718466666667, "is_disabled": 0, "lon": -77.0045865, "is_reserved": 0}, {"bike_id": "673ffb6f0114133eb234f7802ce842a1", "fusion_lon": 0.0, "type": "electric_scooter", "name": "673ffb6f0114133eb234f7802ce842a1", "rental_uris": {"android": "https://dc.lft.to/lastmile_qr_scan", "ios": "https://dc.lft.to/lastmile_qr_scan"}, "fusion_lat": 0.0, "lat": 38.91263383333333, "is_disabled": 0, "lon": -77.03735616666667, "is_reserved": 0}, {"bike_id": "fd1bf30f03c7bd38fb07cb17bfe91f83", "fusion_lon": 0.0, "type": "electric_scooter", "name": "fd1bf30f03c7bd38fb07cb17bfe91f83", "rental_uris": {"android": "https://dc.lft.to/lastmile_qr_scan", "ios": "https://dc.lft.to/lastmile_qr_scan"}, "fusion_lat": 0.0, "lat": 38.8995145, "is_disabled": 0, "lon": -76.98561216666667, "is_reserved": 0}, {"bike_id": "66e7d17c81088348e8f48f15e6dff8af", "fusion_lon": 0.0, "type": "electric_scooter", "name": "66e7d17c81088348e8f48f15e6dff8af", "rental_uris": {"android": "https://dc.lft.to/lastmile_qr_scan", "ios": "https://dc.lft.to/lastmile_qr_scan"}, "fusion_lat": 0.0, "lat": 38.9084055, "is_disabled": 0, "lon": -77.03299166666666, "is_reserved": 0}, {"bike_id": "8a0c038bccbae3b3dab95d83daf9e641", "fusion_lon": 0.0, "type": "electric_scooter", "name": "8a0c038bccbae3b3dab95d83daf9e641", "rental_uris": {"android": "https://dc.lft.to/lastmile_qr_scan", "ios": "https://dc.lft.to/lastmile_qr_scan"}, "fusion_lat": 0.0, "lat": 38.899883833333334, "is_disabled": 0, "lon": -77.00114116666667, "is_reserved": 0}, {"bike_id": "3324d01af78366e2f106c7f390686a28", "fusion_lon": 0.0, "type": "electric_scooter", "name": "3324d01af78366e2f106c7f390686a28", "rental_uris": {"android": "https://dc.lft.to/lastmile_qr_scan", "ios": "https://dc.lft.to/lastmile_qr_scan"}, "fusion_lat": 0.0, "lat": 38.92296116666667, "is_disabled": 0, "lon": -77.041514, "is_reserved": 0}, {"bike_id": "5bde9cafa6a557f44507ad05f4093201", "fusion_lon": 0.0, "type": "electric_scooter", "name": "5bde9cafa6a557f44507ad05f4093201", "rental_uris": {"android": "https://dc.lft.to/lastmile_qr_scan", "ios": "https://dc.lft.to/lastmile_qr_scan"}, "fusion_lat": 0.0, "lat": 38.902363666666666, "is_disabled": 0, "lon": -77.002095, "is_reserved": 0}, {"bike_id": "62f107002a5d809ea9d7b3ecbd41cc6a", "fusion_lon": 0.0, "type": "electric_scooter", "name": "62f107002a5d809ea9d7b3ecbd41cc6a", "rental_uris": {"android": "https://dc.lft.to/lastmile_qr_scan", "ios": "https://dc.lft.to/lastmile_qr_scan"}, "fusion_lat": 0.0, "lat": 38.91880366666667, "is_disabled": 0, "lon": -77.0160665, "is_reserved": 0}, {"bike_id": "db402ebc24a1e300629948cbfdd10a35", "fusion_lon": 0.0, "type": "electric_scooter", "name": "db402ebc24a1e300629948cbfdd10a35", "rental_uris": {"android": "https://dc.lft.to/lastmile_qr_scan", "ios": "https://dc.lft.to/lastmile_qr_scan"}, "fusion_lat": 0.0, "lat": 38.86562766666667, "is_disabled": 0, "lon": -76.97435616666667, "is_reserved": 0}, {"bike_id": "4e6d37262be456ef3e139d1e4c2e3428", "fusion_lon": 0.0, "type": "electric_scooter", "name": "4e6d37262be456ef3e139d1e4c2e3428", "rental_uris": {"android": "https://dc.lft.to/lastmile_qr_scan", "ios": "https://dc.lft.to/lastmile_qr_scan"}, "fusion_lat": 0.0, "lat": 38.9234815, "is_disabled": 0, "lon": -77.04346983333333, "is_reserved": 0}, {"bike_id": "09bcebc75101063c54084fb66159314b", "fusion_lon": 0.0, "type": "electric_scooter", "name": "09bcebc75101063c54084fb66159314b", "rental_uris": {"android": "https://dc.lft.to/lastmile_qr_scan", "ios": "https://dc.lft.to/lastmile_qr_scan"}, "fusion_lat": 0.0, "lat": 38.938479666666666, "is_disabled": 0, "lon": -77.02459133333333, "is_reserved": 0}, {"bike_id": "3cfc256756cc9cd1a1ca968ad86c0f49", "fusion_lon": 0.0, "type": "electric_scooter", "name": "3cfc256756cc9cd1a1ca968ad86c0f49", "rental_uris": {"android": "https://dc.lft.to/lastmile_qr_scan", "ios": "https://dc.lft.to/lastmile_qr_scan"}, "fusion_lat": 0.0, "lat": 38.922413, "is_disabled": 0, "lon": -77.03523216666666, "is_reserved": 0}, {"bike_id": "4fe206af828b833a0e74c6d46df5e4ae", "fusion_lon": 0.0, "type": "electric_scooter", "name": "4fe206af828b833a0e74c6d46df5e4ae", "rental_uris": {"android": "https://dc.lft.to/lastmile_qr_scan", "ios": "https://dc.lft.to/lastmile_qr_scan"}, "fusion_lat": 0.0, "lat": 38.876989, "is_disabled": 0, "lon": -77.00733833333334, "is_reserved": 0}, {"bike_id": "4a2c33f6aeb05a50556dfb22ac6772d8", "fusion_lon": 0.0, "type": "electric_scooter", "name": "4a2c33f6aeb05a50556dfb22ac6772d8", "rental_uris": {"android": "https://dc.lft.to/lastmile_qr_scan", "ios": "https://dc.lft.to/lastmile_qr_scan"}, "fusion_lat": 0.0, "lat": 38.86891816666667, "is_disabled": 0, "lon": -76.98313583333334, "is_reserved": 0}, {"bike_id": "a5ef6967c2aa343ae474835662324741", "fusion_lon": 0.0, "type": "electric_scooter", "name": "a5ef6967c2aa343ae474835662324741", "rental_uris": {"android": "https://dc.lft.to/lastmile_qr_scan", "ios": "https://dc.lft.to/lastmile_qr_scan"}, "fusion_lat": 0.0, "lat": 38.897117, "is_disabled": 0, "lon": -77.03156, "is_reserved": 0}, {"bike_id": "b9d8d69569c1d1724ee8f130d9dac1b0", "fusion_lon": 0.0, "type": "electric_bike", "name": "b9d8d69569c1d1724ee8f130d9dac1b0", "rental_uris": {"android": "https://dc.lft.to/lastmile_qr_scan", "ios": "https://dc.lft.to/lastmile_qr_scan"}, "fusion_lat": 0.0, "lat": 38.861586333333335, "is_disabled": 0, "lon": -77.13098716666667, "is_reserved": 0}, {"bike_id": "75a5bbc93e067c46f0cf94d2d3ac0e6d", "fusion_lon": 0.0, "type": "electric_scooter", "name": "75a5bbc93e067c46f0cf94d2d3ac0e6d", "rental_uris": {"android": "https://dc.lft.to/lastmile_qr_scan", "ios": "https://dc.lft.to/lastmile_qr_scan"}, "fusion_lat": 0.0, "lat": 38.92198066666667, "is_disabled": 0, "lon": -77.04262033333333, "is_reserved": 0}, {"bike_id": "101f8896b1355d32efb8c8233434091e", "fusion_lon": 0.0, "type": "electric_scooter", "name": "101f8896b1355d32efb8c8233434091e", "rental_uris": {"android": "https://dc.lft.to/lastmile_qr_scan", "ios": "https://dc.lft.to/lastmile_qr_scan"}, "fusion_lat": 0.0, "lat": 38.88734066666667, "is_disabled": 0, "lon": -77.03181016666667, "is_reserved": 0}, {"bike_id": "a0baa3bb056e0123aa960ae008e6ad39", "fusion_lon": 0.0, "type": "electric_scooter", "name": "a0baa3bb056e0123aa960ae008e6ad39", "rental_uris": {"android": "https://dc.lft.to/lastmile_qr_scan", "ios": "https://dc.lft.to/lastmile_qr_scan"}, "fusion_lat": 0.0, "lat": 38.932906333333335, "is_disabled": 0, "lon": -77.02446283333333, "is_reserved": 0}, {"bike_id": "0fdb967ccae3413f661273064f4150b8", "fusion_lon": 0.0, "type": "electric_scooter", "name": "0fdb967ccae3413f661273064f4150b8", "rental_uris": {"android": "https://dc.lft.to/lastmile_qr_scan", "ios": "https://dc.lft.to/lastmile_qr_scan"}, "fusion_lat": 0.0, "lat": 38.892213, "is_disabled": 0, "lon": -77.02834116666666, "is_reserved": 0}, {"bike_id": "0d522a1b331d25979c3e46e18300207a", "fusion_lon": 0.0, "type": "electric_scooter", "name": "0d522a1b331d25979c3e46e18300207a", "rental_uris": {"android": "https://dc.lft.to/lastmile_qr_scan", "ios": "https://dc.lft.to/lastmile_qr_scan"}, "fusion_lat": 0.0, "lat": 38.917002, "is_disabled": 0, "lon": -77.02955466666667, "is_reserved": 0}, {"bike_id": "b4ea01217b28c74fa671acefc82bd5ed", "fusion_lon": 0.0, "type": "electric_scooter", "name": "b4ea01217b28c74fa671acefc82bd5ed", "rental_uris": {"android": "https://dc.lft.to/lastmile_qr_scan", "ios": "https://dc.lft.to/lastmile_qr_scan"}, "fusion_lat": 0.0, "lat": 38.904401166666666, "is_disabled": 0, "lon": -77.05154433333334, "is_reserved": 0}, {"bike_id": "8da64fb2807f9cdf19bd93f182949c6c", "fusion_lon": 0.0, "type": "electric_scooter", "name": "8da64fb2807f9cdf19bd93f182949c6c", "rental_uris": {"android": "https://dc.lft.to/lastmile_qr_scan", "ios": "https://dc.lft.to/lastmile_qr_scan"}, "fusion_lat": 0.0, "lat": 38.9290775, "is_disabled": 0, "lon": -77.06381483333334, "is_reserved": 0}, {"bike_id": "c0f57474cf7ae9dc8e6782f9fabc498e", "fusion_lon": 0.0, "type": "electric_scooter", "name": "c0f57474cf7ae9dc8e6782f9fabc498e", "rental_uris": {"android": "https://dc.lft.to/lastmile_qr_scan", "ios": "https://dc.lft.to/lastmile_qr_scan"}, "fusion_lat": 0.0, "lat": 38.926101, "is_disabled": 0, "lon": -77.02163333333333, "is_reserved": 0}, {"bike_id": "407f7404750252cbffeb491a80d3547c", "fusion_lon": 0.0, "type": "electric_scooter", "name": "407f7404750252cbffeb491a80d3547c", "rental_uris": {"android": "https://dc.lft.to/lastmile_qr_scan", "ios": "https://dc.lft.to/lastmile_qr_scan"}, "fusion_lat": 0.0, "lat": 38.90588783333333, "is_disabled": 0, "lon": -77.06275383333333, "is_reserved": 0}, {"bike_id": "85a9fc14b384a3cf483c0e43a9b937e3", "fusion_lon": 0.0, "type": "electric_scooter", "name": "85a9fc14b384a3cf483c0e43a9b937e3", "rental_uris": {"android": "https://dc.lft.to/lastmile_qr_scan", "ios": "https://dc.lft.to/lastmile_qr_scan"}, "fusion_lat": 0.0, "lat": 38.939300333333335, "is_disabled": 0, "lon": -77.0603985, "is_reserved": 0}, {"bike_id": "9c43db3940c8d9ca88faff9b7f4f1132", "fusion_lon": 0.0, "type": "electric_scooter", "name": "9c43db3940c8d9ca88faff9b7f4f1132", "rental_uris": {"android": "https://dc.lft.to/lastmile_qr_scan", "ios": "https://dc.lft.to/lastmile_qr_scan"}, "fusion_lat": 0.0, "lat": 38.904766333333335, "is_disabled": 0, "lon": -77.00739033333333, "is_reserved": 0}, {"bike_id": "e12cd861bbfb49c5fed9504133067f0a", "fusion_lon": 0.0, "type": "electric_scooter", "name": "e12cd861bbfb49c5fed9504133067f0a", "rental_uris": {"android": "https://dc.lft.to/lastmile_qr_scan", "ios": "https://dc.lft.to/lastmile_qr_scan"}, "fusion_lat": 0.0, "lat": 38.884481666666666, "is_disabled": 0, "lon": -76.9961995, "is_reserved": 0}, {"bike_id": "047d502a315749032fe0eaf377bcdcd9", "fusion_lon": 0.0, "type": "electric_scooter", "name": "047d502a315749032fe0eaf377bcdcd9", "rental_uris": {"android": "https://dc.lft.to/lastmile_qr_scan", "ios": "https://dc.lft.to/lastmile_qr_scan"}, "fusion_lat": 0.0, "lat": 38.90785866666667, "is_disabled": 0, "lon": -76.941258, "is_reserved": 0}, {"bike_id": "18667902b3a5a46c77844db890569189", "fusion_lon": 0.0, "type": "electric_scooter", "name": "18667902b3a5a46c77844db890569189", "rental_uris": {"android": "https://dc.lft.to/lastmile_qr_scan", "ios": "https://dc.lft.to/lastmile_qr_scan"}, "fusion_lat": 0.0, "lat": 38.894671333333335, "is_disabled": 0, "lon": -77.02782733333333, "is_reserved": 0}, {"bike_id": "920ea6eea570041136bd7815ef7ff4da", "fusion_lon": 0.0, "type": "electric_scooter", "name": "920ea6eea570041136bd7815ef7ff4da", "rental_uris": {"android": "https://dc.lft.to/lastmile_qr_scan", "ios": "https://dc.lft.to/lastmile_qr_scan"}, "fusion_lat": 0.0, "lat": 38.900031166666665, "is_disabled": 0, "lon": -76.98700716666667, "is_reserved": 0}, {"bike_id": "585d301aebc33fc677e6558ab8e01180", "fusion_lon": 0.0, "type": "electric_scooter", "name": "585d301aebc33fc677e6558ab8e01180", "rental_uris": {"android": "https://dc.lft.to/lastmile_qr_scan", "ios": "https://dc.lft.to/lastmile_qr_scan"}, "fusion_lat": 0.0, "lat": 38.88740683333333, "is_disabled": 0, "lon": -77.0160635, "is_reserved": 0}, {"bike_id": "252968ace9065bcd1d76f57b849fbbe6", "fusion_lon": 0.0, "type": "electric_scooter", "name": "252968ace9065bcd1d76f57b849fbbe6", "rental_uris": {"android": "https://dc.lft.to/lastmile_qr_scan", "ios": "https://dc.lft.to/lastmile_qr_scan"}, "fusion_lat": 0.0, "lat": 38.91701916666667, "is_disabled": 0, "lon": -77.047033, "is_reserved": 0}, {"bike_id": "1fcf5d08b2b31785f857f2a12a4fc80a", "fusion_lon": 0.0, "type": "electric_scooter", "name": "1fcf5d08b2b31785f857f2a12a4fc80a", "rental_uris": {"android": "https://dc.lft.to/lastmile_qr_scan", "ios": "https://dc.lft.to/lastmile_qr_scan"}, "fusion_lat": 0.0, "lat": 38.92246183333334, "is_disabled": 0, "lon": -77.09966183333333, "is_reserved": 0}, {"bike_id": "d2067b18ce14cc869625a64863a2c89f", "fusion_lon": 0.0, "type": "electric_scooter", "name": "d2067b18ce14cc869625a64863a2c89f", "rental_uris": {"android": "https://dc.lft.to/lastmile_qr_scan", "ios": "https://dc.lft.to/lastmile_qr_scan"}, "fusion_lat": 0.0, "lat": 38.906655666666666, "is_disabled": 0, "lon": -77.03486466666666, "is_reserved": 0}, {"bike_id": "fd5b9e304724cc7766200b21ddfdfa90", "fusion_lon": 0.0, "type": "electric_scooter", "name": "fd5b9e304724cc7766200b21ddfdfa90", "rental_uris": {"android": "https://dc.lft.to/lastmile_qr_scan", "ios": "https://dc.lft.to/lastmile_qr_scan"}, "fusion_lat": 0.0, "lat": 38.92672183333333, "is_disabled": 0, "lon": -77.07841233333333, "is_reserved": 0}, {"bike_id": "be19c91f178ec682b6efa152f50e06b3", "fusion_lon": 0.0, "type": "electric_scooter", "name": "be19c91f178ec682b6efa152f50e06b3", "rental_uris": {"android": "https://dc.lft.to/lastmile_qr_scan", "ios": "https://dc.lft.to/lastmile_qr_scan"}, "fusion_lat": 0.0, "lat": 38.938594333333334, "is_disabled": 0, "lon": -77.02650466666667, "is_reserved": 0}, {"bike_id": "52a14ab451afcc54e4a8058842851d25", "fusion_lon": 0.0, "type": "electric_scooter", "name": "52a14ab451afcc54e4a8058842851d25", "rental_uris": {"android": "https://dc.lft.to/lastmile_qr_scan", "ios": "https://dc.lft.to/lastmile_qr_scan"}, "fusion_lat": 0.0, "lat": 38.88731333333333, "is_disabled": 0, "lon": -77.02275866666666, "is_reserved": 0}, {"bike_id": "eac0b0bbfff0b40c2d981851fdcc417a", "fusion_lon": 0.0, "type": "electric_scooter", "name": "eac0b0bbfff0b40c2d981851fdcc417a", "rental_uris": {"android": "https://dc.lft.to/lastmile_qr_scan", "ios": "https://dc.lft.to/lastmile_qr_scan"}, "fusion_lat": 0.0, "lat": 38.90059816666667, "is_disabled": 0, "lon": -77.00205566666666, "is_reserved": 0}, {"bike_id": "c63e9e39d6bea8cdb87ced5fb3927db3", "fusion_lon": 0.0, "type": "electric_scooter", "name": "c63e9e39d6bea8cdb87ced5fb3927db3", "rental_uris": {"android": "https://dc.lft.to/lastmile_qr_scan", "ios": "https://dc.lft.to/lastmile_qr_scan"}, "fusion_lat": 0.0, "lat": 38.900106, "is_disabled": 0, "lon": -77.04503033333333, "is_reserved": 0}, {"bike_id": "08c0bfeff911d7acf46bf7d91f8d6924", "fusion_lon": 0.0, "type": "electric_bike", "name": "08c0bfeff911d7acf46bf7d91f8d6924", "rental_uris": {"android": "https://dc.lft.to/lastmile_qr_scan", "ios": "https://dc.lft.to/lastmile_qr_scan"}, "fusion_lat": 0.0, "lat": 38.85246883333333, "is_disabled": 0, "lon": -77.1143025, "is_reserved": 0}, {"bike_id": "a10f8c4a735265ed7e59266e5fc2fb90", "fusion_lon": 0.0, "type": "electric_scooter", "name": "a10f8c4a735265ed7e59266e5fc2fb90", "rental_uris": {"android": "https://dc.lft.to/lastmile_qr_scan", "ios": "https://dc.lft.to/lastmile_qr_scan"}, "fusion_lat": 0.0, "lat": 38.9203555, "is_disabled": 0, "lon": -77.0370775, "is_reserved": 0}, {"bike_id": "7fe8baec3c225db114543f9541ca547f", "fusion_lon": 0.0, "type": "electric_scooter", "name": "7fe8baec3c225db114543f9541ca547f", "rental_uris": {"android": "https://dc.lft.to/lastmile_qr_scan", "ios": "https://dc.lft.to/lastmile_qr_scan"}, "fusion_lat": 0.0, "lat": 38.86479083333333, "is_disabled": 0, "lon": -76.98384166666666, "is_reserved": 0}, {"bike_id": "3cac8784066d3eaf95cefdbc0ab955ef", "fusion_lon": 0.0, "type": "electric_scooter", "name": "3cac8784066d3eaf95cefdbc0ab955ef", "rental_uris": {"android": "https://dc.lft.to/lastmile_qr_scan", "ios": "https://dc.lft.to/lastmile_qr_scan"}, "fusion_lat": 0.0, "lat": 38.91845933333333, "is_disabled": 0, "lon": -77.03539816666667, "is_reserved": 0}, {"bike_id": "bccf50e902bbbb3f30c19daf730b96ab", "fusion_lon": 0.0, "type": "electric_scooter", "name": "bccf50e902bbbb3f30c19daf730b96ab", "rental_uris": {"android": "https://dc.lft.to/lastmile_qr_scan", "ios": "https://dc.lft.to/lastmile_qr_scan"}, "fusion_lat": 0.0, "lat": 38.92369583333333, "is_disabled": 0, "lon": -77.04026166666667, "is_reserved": 0}, {"bike_id": "41cbc2542e00bdea873b5f89e0dd7d23", "fusion_lon": 0.0, "type": "electric_scooter", "name": "41cbc2542e00bdea873b5f89e0dd7d23", "rental_uris": {"android": "https://dc.lft.to/lastmile_qr_scan", "ios": "https://dc.lft.to/lastmile_qr_scan"}, "fusion_lat": 0.0, "lat": 38.8974155, "is_disabled": 0, "lon": -77.02206916666667, "is_reserved": 0}, {"bike_id": "1150d32519a867a3980f46b2fcf1ef26", "fusion_lon": 0.0, "type": "electric_scooter", "name": "1150d32519a867a3980f46b2fcf1ef26", "rental_uris": {"android": "https://dc.lft.to/lastmile_qr_scan", "ios": "https://dc.lft.to/lastmile_qr_scan"}, "fusion_lat": 0.0, "lat": 38.922632, "is_disabled": 0, "lon": -76.99763533333333, "is_reserved": 0}, {"bike_id": "b7538ecd7705a58ec1f5e06942198b11", "fusion_lon": 0.0, "type": "electric_bike", "name": "b7538ecd7705a58ec1f5e06942198b11", "rental_uris": {"android": "https://dc.lft.to/lastmile_qr_scan", "ios": "https://dc.lft.to/lastmile_qr_scan"}, "fusion_lat": 0.0, "lat": 38.99041, "is_disabled": 0, "lon": -77.06957683333333, "is_reserved": 0}, {"bike_id": "6a0031ff1b1a8519b6faa325b973f174", "fusion_lon": 0.0, "type": "electric_scooter", "name": "6a0031ff1b1a8519b6faa325b973f174", "rental_uris": {"android": "https://dc.lft.to/lastmile_qr_scan", "ios": "https://dc.lft.to/lastmile_qr_scan"}, "fusion_lat": 0.0, "lat": 38.917206666666665, "is_disabled": 0, "lon": -77.02696983333334, "is_reserved": 0}, {"bike_id": "27e1ba2808e2fe01c0caaf84bb726692", "fusion_lon": 0.0, "type": "electric_bike", "name": "27e1ba2808e2fe01c0caaf84bb726692", "rental_uris": {"android": "https://dc.lft.to/lastmile_qr_scan", "ios": "https://dc.lft.to/lastmile_qr_scan"}, "fusion_lat": 0.0, "lat": 38.90621466666666, "is_disabled": 0, "lon": -76.98616866666667, "is_reserved": 0}, {"bike_id": "e93e40510a159c5a2efb2f90c061eb23", "fusion_lon": 0.0, "type": "electric_scooter", "name": "e93e40510a159c5a2efb2f90c061eb23", "rental_uris": {"android": "https://dc.lft.to/lastmile_qr_scan", "ios": "https://dc.lft.to/lastmile_qr_scan"}, "fusion_lat": 0.0, "lat": 38.90219316666666, "is_disabled": 0, "lon": -76.99028816666667, "is_reserved": 0}, {"bike_id": "d57aad6206fd0341491f7501da0bc594", "fusion_lon": 0.0, "type": "electric_scooter", "name": "d57aad6206fd0341491f7501da0bc594", "rental_uris": {"android": "https://dc.lft.to/lastmile_qr_scan", "ios": "https://dc.lft.to/lastmile_qr_scan"}, "fusion_lat": 0.0, "lat": 38.9285365, "is_disabled": 0, "lon": -77.03444116666667, "is_reserved": 0}, {"bike_id": "4cbae6182ebf3c90cee60a08b913320d", "fusion_lon": 0.0, "type": "electric_scooter", "name": "4cbae6182ebf3c90cee60a08b913320d", "rental_uris": {"android": "https://dc.lft.to/lastmile_qr_scan", "ios": "https://dc.lft.to/lastmile_qr_scan"}, "fusion_lat": 0.0, "lat": 38.91817983333333, "is_disabled": 0, "lon": -77.0330445, "is_reserved": 0}, {"bike_id": "f506deb6a0583963d8f6122f76342d53", "fusion_lon": 0.0, "type": "electric_scooter", "name": "f506deb6a0583963d8f6122f76342d53", "rental_uris": {"android": "https://dc.lft.to/lastmile_qr_scan", "ios": "https://dc.lft.to/lastmile_qr_scan"}, "fusion_lat": 0.0, "lat": 38.908666333333336, "is_disabled": 0, "lon": -77.03227, "is_reserved": 0}, {"bike_id": "c5b5df187965884e38c1feec47fa0624", "fusion_lon": 0.0, "type": "electric_scooter", "name": "c5b5df187965884e38c1feec47fa0624", "rental_uris": {"android": "https://dc.lft.to/lastmile_qr_scan", "ios": "https://dc.lft.to/lastmile_qr_scan"}, "fusion_lat": 0.0, "lat": 38.90499583333333, "is_disabled": 0, "lon": -77.029727, "is_reserved": 0}, {"bike_id": "3001643905d4fc1b22cfcdfe8de70ef5", "fusion_lon": 0.0, "type": "electric_scooter", "name": "3001643905d4fc1b22cfcdfe8de70ef5", "rental_uris": {"android": "https://dc.lft.to/lastmile_qr_scan", "ios": "https://dc.lft.to/lastmile_qr_scan"}, "fusion_lat": 0.0, "lat": 38.926286166666664, "is_disabled": 0, "lon": -77.0251765, "is_reserved": 0}, {"bike_id": "ed9b86f09dea84b398e78e50537e1b4f", "fusion_lon": 0.0, "type": "electric_scooter", "name": "ed9b86f09dea84b398e78e50537e1b4f", "rental_uris": {"android": "https://dc.lft.to/lastmile_qr_scan", "ios": "https://dc.lft.to/lastmile_qr_scan"}, "fusion_lat": 0.0, "lat": 38.899633333333334, "is_disabled": 0, "lon": -76.93764633333333, "is_reserved": 0}, {"bike_id": "505a4414ed582ebb78849af9e891fcea", "fusion_lon": 0.0, "type": "electric_scooter", "name": "505a4414ed582ebb78849af9e891fcea", "rental_uris": {"android": "https://dc.lft.to/lastmile_qr_scan", "ios": "https://dc.lft.to/lastmile_qr_scan"}, "fusion_lat": 0.0, "lat": 38.8746805, "is_disabled": 0, "lon": -77.00535533333333, "is_reserved": 0}, {"bike_id": "6c700382d529185c6e75213a583f65e6", "fusion_lon": 0.0, "type": "electric_scooter", "name": "6c700382d529185c6e75213a583f65e6", "rental_uris": {"android": "https://dc.lft.to/lastmile_qr_scan", "ios": "https://dc.lft.to/lastmile_qr_scan"}, "fusion_lat": 0.0, "lat": 38.9078075, "is_disabled": 0, "lon": -77.03054033333333, "is_reserved": 0}, {"bike_id": "939d8d942ee10fd827a695cf4f91bb3c", "fusion_lon": 0.0, "type": "electric_scooter", "name": "939d8d942ee10fd827a695cf4f91bb3c", "rental_uris": {"android": "https://dc.lft.to/lastmile_qr_scan", "ios": "https://dc.lft.to/lastmile_qr_scan"}, "fusion_lat": 0.0, "lat": 38.907342666666665, "is_disabled": 0, "lon": -77.04502333333333, "is_reserved": 0}, {"bike_id": "87e7004d67936c11dd8db1303d9aa9b5", "fusion_lon": 0.0, "type": "electric_scooter", "name": "87e7004d67936c11dd8db1303d9aa9b5", "rental_uris": {"android": "https://dc.lft.to/lastmile_qr_scan", "ios": "https://dc.lft.to/lastmile_qr_scan"}, "fusion_lat": 0.0, "lat": 38.900025, "is_disabled": 0, "lon": -76.97752366666667, "is_reserved": 0}, {"bike_id": "18bd198d576104aa2e93d13293c75cee", "fusion_lon": 0.0, "type": "electric_scooter", "name": "18bd198d576104aa2e93d13293c75cee", "rental_uris": {"android": "https://dc.lft.to/lastmile_qr_scan", "ios": "https://dc.lft.to/lastmile_qr_scan"}, "fusion_lat": 0.0, "lat": 38.89908883333333, "is_disabled": 0, "lon": -77.05519833333334, "is_reserved": 0}, {"bike_id": "6a7e9bd7a05ceed1c61f3f17b27e3227", "fusion_lon": 0.0, "type": "electric_bike", "name": "6a7e9bd7a05ceed1c61f3f17b27e3227", "rental_uris": {"android": "https://dc.lft.to/lastmile_qr_scan", "ios": "https://dc.lft.to/lastmile_qr_scan"}, "fusion_lat": 0.0, "lat": 38.88958083333333, "is_disabled": 0, "lon": -76.94876033333334, "is_reserved": 0}, {"bike_id": "14c8e0d9af7931dbd127c63eb0951331", "fusion_lon": 0.0, "type": "electric_bike", "name": "14c8e0d9af7931dbd127c63eb0951331", "rental_uris": {"android": "https://dc.lft.to/lastmile_qr_scan", "ios": "https://dc.lft.to/lastmile_qr_scan"}, "fusion_lat": 0.0, "lat": 38.926099666666666, "is_disabled": 0, "lon": -77.00618583333333, "is_reserved": 0}, {"bike_id": "4e0b27a07a7b961ebf96583b5ee2a7c0", "fusion_lon": 0.0, "type": "electric_bike", "name": "4e0b27a07a7b961ebf96583b5ee2a7c0", "rental_uris": {"android": "https://dc.lft.to/lastmile_qr_scan", "ios": "https://dc.lft.to/lastmile_qr_scan"}, "fusion_lat": 0.0, "lat": 38.975765833333334, "is_disabled": 0, "lon": -76.96393016666667, "is_reserved": 0}, {"bike_id": "d074d3ff6843f910b285789bfc1c4111", "fusion_lon": 0.0, "type": "electric_scooter", "name": "d074d3ff6843f910b285789bfc1c4111", "rental_uris": {"android": "https://dc.lft.to/lastmile_qr_scan", "ios": "https://dc.lft.to/lastmile_qr_scan"}, "fusion_lat": 0.0, "lat": 38.926270333333335, "is_disabled": 0, "lon": -77.03790983333333, "is_reserved": 0}, {"bike_id": "9b8c5e6e3ebc8cd2ed0fd9ec4362a9a5", "fusion_lon": 0.0, "type": "electric_bike", "name": "9b8c5e6e3ebc8cd2ed0fd9ec4362a9a5", "rental_uris": {"android": "https://dc.lft.to/lastmile_qr_scan", "ios": "https://dc.lft.to/lastmile_qr_scan"}, "fusion_lat": 0.0, "lat": 38.86263366666667, "is_disabled": 0, "lon": -76.99473066666667, "is_reserved": 0}, {"bike_id": "493863e936a16ee2e191b3a4fab358c2", "fusion_lon": 0.0, "type": "electric_scooter", "name": "493863e936a16ee2e191b3a4fab358c2", "rental_uris": {"android": "https://dc.lft.to/lastmile_qr_scan", "ios": "https://dc.lft.to/lastmile_qr_scan"}, "fusion_lat": 0.0, "lat": 38.9017295, "is_disabled": 0, "lon": -76.98079466666667, "is_reserved": 0}, {"bike_id": "74377316e17d8b8c1d87321c8168ab54", "fusion_lon": 0.0, "type": "electric_bike", "name": "74377316e17d8b8c1d87321c8168ab54", "rental_uris": {"android": "https://dc.lft.to/lastmile_qr_scan", "ios": "https://dc.lft.to/lastmile_qr_scan"}, "fusion_lat": 0.0, "lat": 38.9922305, "is_disabled": 0, "lon": -76.8776695, "is_reserved": 0}, {"bike_id": "27a0a8194dabcdedac11c4a8a92e5c19", "fusion_lon": 0.0, "type": "electric_bike", "name": "27a0a8194dabcdedac11c4a8a92e5c19", "rental_uris": {"android": "https://dc.lft.to/lastmile_qr_scan", "ios": "https://dc.lft.to/lastmile_qr_scan"}, "fusion_lat": 0.0, "lat": 38.85530983333334, "is_disabled": 0, "lon": -77.10702566666667, "is_reserved": 0}, {"bike_id": "b8e5dc32b2ceb3386c35e32a0287f75e", "fusion_lon": 0.0, "type": "electric_scooter", "name": "b8e5dc32b2ceb3386c35e32a0287f75e", "rental_uris": {"android": "https://dc.lft.to/lastmile_qr_scan", "ios": "https://dc.lft.to/lastmile_qr_scan"}, "fusion_lat": 0.0, "lat": 38.900236666666665, "is_disabled": 0, "lon": -76.987766, "is_reserved": 0}, {"bike_id": "574d9ecb331cc5b668f81e754cf8985a", "fusion_lon": 0.0, "type": "electric_bike", "name": "574d9ecb331cc5b668f81e754cf8985a", "rental_uris": {"android": "https://dc.lft.to/lastmile_qr_scan", "ios": "https://dc.lft.to/lastmile_qr_scan"}, "fusion_lat": 0.0, "lat": 38.86847233333334, "is_disabled": 0, "lon": -76.966992, "is_reserved": 0}, {"bike_id": "ae034665335e601057e26443afc62ff6", "fusion_lon": 0.0, "type": "electric_scooter", "name": "ae034665335e601057e26443afc62ff6", "rental_uris": {"android": "https://dc.lft.to/lastmile_qr_scan", "ios": "https://dc.lft.to/lastmile_qr_scan"}, "fusion_lat": 0.0, "lat": 38.87642783333333, "is_disabled": 0, "lon": -77.003459, "is_reserved": 0}, {"bike_id": "3dc27b1173c122b02c2a64662d729e36", "fusion_lon": 0.0, "type": "electric_scooter", "name": "3dc27b1173c122b02c2a64662d729e36", "rental_uris": {"android": "https://dc.lft.to/lastmile_qr_scan", "ios": "https://dc.lft.to/lastmile_qr_scan"}, "fusion_lat": 0.0, "lat": 38.91988883333333, "is_disabled": 0, "lon": -77.03252383333333, "is_reserved": 0}, {"bike_id": "e173dfff842ff9740afabe6cb6e89665", "fusion_lon": 0.0, "type": "electric_scooter", "name": "e173dfff842ff9740afabe6cb6e89665", "rental_uris": {"android": "https://dc.lft.to/lastmile_qr_scan", "ios": "https://dc.lft.to/lastmile_qr_scan"}, "fusion_lat": 0.0, "lat": 38.91784166666667, "is_disabled": 0, "lon": -76.97330183333334, "is_reserved": 0}, {"bike_id": "6603eb4bb3c5ecfd35d0c96ff84d7006", "fusion_lon": 0.0, "type": "electric_bike", "name": "6603eb4bb3c5ecfd35d0c96ff84d7006", "rental_uris": {"android": "https://dc.lft.to/lastmile_qr_scan", "ios": "https://dc.lft.to/lastmile_qr_scan"}, "fusion_lat": 0.0, "lat": 39.115101, "is_disabled": 0, "lon": -77.19547483333334, "is_reserved": 0}, {"bike_id": "8b0ac2f886a5419383173a310173ea16", "fusion_lon": 0.0, "type": "electric_scooter", "name": "8b0ac2f886a5419383173a310173ea16", "rental_uris": {"android": "https://dc.lft.to/lastmile_qr_scan", "ios": "https://dc.lft.to/lastmile_qr_scan"}, "fusion_lat": 0.0, "lat": 38.89886933333333, "is_disabled": 0, "lon": -76.97864583333333, "is_reserved": 0}, {"bike_id": "5f6bb9113e34a5d349a0fe5e33b06800", "fusion_lon": 0.0, "type": "electric_bike", "name": "5f6bb9113e34a5d349a0fe5e33b06800", "rental_uris": {"android": "https://dc.lft.to/lastmile_qr_scan", "ios": "https://dc.lft.to/lastmile_qr_scan"}, "fusion_lat": 0.0, "lat": 38.999630833333335, "is_disabled": 0, "lon": -77.05125333333334, "is_reserved": 0}, {"bike_id": "cb4d9db1dddb389d4ad27c9c93dff220", "fusion_lon": 0.0, "type": "electric_scooter", "name": "cb4d9db1dddb389d4ad27c9c93dff220", "rental_uris": {"android": "https://dc.lft.to/lastmile_qr_scan", "ios": "https://dc.lft.to/lastmile_qr_scan"}, "fusion_lat": 0.0, "lat": 38.9142995, "is_disabled": 0, "lon": -77.03204983333333, "is_reserved": 0}, {"bike_id": "b1880f582ca0cfa4619d3d90ce85d0f0", "fusion_lon": 0.0, "type": "electric_scooter", "name": "b1880f582ca0cfa4619d3d90ce85d0f0", "rental_uris": {"android": "https://dc.lft.to/lastmile_qr_scan", "ios": "https://dc.lft.to/lastmile_qr_scan"}, "fusion_lat": 0.0, "lat": 38.92328933333334, "is_disabled": 0, "lon": -77.0390865, "is_reserved": 0}, {"bike_id": "c0cfd683bce7ca575dc1c610707e9a7c", "fusion_lon": 0.0, "type": "electric_scooter", "name": "c0cfd683bce7ca575dc1c610707e9a7c", "rental_uris": {"android": "https://dc.lft.to/lastmile_qr_scan", "ios": "https://dc.lft.to/lastmile_qr_scan"}, "fusion_lat": 0.0, "lat": 38.89530416666667, "is_disabled": 0, "lon": -77.01114083333333, "is_reserved": 0}, {"bike_id": "f8bbe476da0d88f36ed0a9d0ea4bc32f", "fusion_lon": 0.0, "type": "electric_scooter", "name": "f8bbe476da0d88f36ed0a9d0ea4bc32f", "rental_uris": {"android": "https://dc.lft.to/lastmile_qr_scan", "ios": "https://dc.lft.to/lastmile_qr_scan"}, "fusion_lat": 0.0, "lat": 38.928389, "is_disabled": 0, "lon": -76.9937315, "is_reserved": 0}, {"bike_id": "4692e576f24c9785a65d5affc5a2df8d", "fusion_lon": 0.0, "type": "electric_scooter", "name": "4692e576f24c9785a65d5affc5a2df8d", "rental_uris": {"android": "https://dc.lft.to/lastmile_qr_scan", "ios": "https://dc.lft.to/lastmile_qr_scan"}, "fusion_lat": 0.0, "lat": 38.86049716666667, "is_disabled": 0, "lon": -76.99087383333334, "is_reserved": 0}, {"bike_id": "e9c908844c60cc27bc1543f5510dcb84", "fusion_lon": 0.0, "type": "electric_scooter", "name": "e9c908844c60cc27bc1543f5510dcb84", "rental_uris": {"android": "https://dc.lft.to/lastmile_qr_scan", "ios": "https://dc.lft.to/lastmile_qr_scan"}, "fusion_lat": 0.0, "lat": 38.916863, "is_disabled": 0, "lon": -77.02952983333333, "is_reserved": 0}, {"bike_id": "724fd1915c85befa5b71512191e3761a", "fusion_lon": 0.0, "type": "electric_scooter", "name": "724fd1915c85befa5b71512191e3761a", "rental_uris": {"android": "https://dc.lft.to/lastmile_qr_scan", "ios": "https://dc.lft.to/lastmile_qr_scan"}, "fusion_lat": 0.0, "lat": 38.9225765, "is_disabled": 0, "lon": -76.994068, "is_reserved": 0}, {"bike_id": "aa36b7e1ed0e8b03c1d9827cab264f49", "fusion_lon": 0.0, "type": "electric_scooter", "name": "aa36b7e1ed0e8b03c1d9827cab264f49", "rental_uris": {"android": "https://dc.lft.to/lastmile_qr_scan", "ios": "https://dc.lft.to/lastmile_qr_scan"}, "fusion_lat": 0.0, "lat": 38.908119666666664, "is_disabled": 0, "lon": -77.04283666666667, "is_reserved": 0}, {"bike_id": "67e801238c1e7eefb7988d871c49ecc2", "fusion_lon": 0.0, "type": "electric_scooter", "name": "67e801238c1e7eefb7988d871c49ecc2", "rental_uris": {"android": "https://dc.lft.to/lastmile_qr_scan", "ios": "https://dc.lft.to/lastmile_qr_scan"}, "fusion_lat": 0.0, "lat": 38.86505533333333, "is_disabled": 0, "lon": -76.99009083333334, "is_reserved": 0}, {"bike_id": "2cb0d6882e232b04803b57317e88a536", "fusion_lon": 0.0, "type": "electric_scooter", "name": "2cb0d6882e232b04803b57317e88a536", "rental_uris": {"android": "https://dc.lft.to/lastmile_qr_scan", "ios": "https://dc.lft.to/lastmile_qr_scan"}, "fusion_lat": 0.0, "lat": 38.91108216666667, "is_disabled": 0, "lon": -77.0326065, "is_reserved": 0}, {"bike_id": "aa31c96247f57f562d089750a5687cf9", "fusion_lon": 0.0, "type": "electric_scooter", "name": "aa31c96247f57f562d089750a5687cf9", "rental_uris": {"android": "https://dc.lft.to/lastmile_qr_scan", "ios": "https://dc.lft.to/lastmile_qr_scan"}, "fusion_lat": 0.0, "lat": 38.90119983333334, "is_disabled": 0, "lon": -77.040569, "is_reserved": 0}, {"bike_id": "5086053ffb4e38fa3716488bee75c6b5", "fusion_lon": 0.0, "type": "electric_scooter", "name": "5086053ffb4e38fa3716488bee75c6b5", "rental_uris": {"android": "https://dc.lft.to/lastmile_qr_scan", "ios": "https://dc.lft.to/lastmile_qr_scan"}, "fusion_lat": 0.0, "lat": 38.83836133333333, "is_disabled": 0, "lon": -76.99995483333333, "is_reserved": 0}, {"bike_id": "aee3762847236d85c897ca965eda21ad", "fusion_lon": 0.0, "type": "electric_scooter", "name": "aee3762847236d85c897ca965eda21ad", "rental_uris": {"android": "https://dc.lft.to/lastmile_qr_scan", "ios": "https://dc.lft.to/lastmile_qr_scan"}, "fusion_lat": 0.0, "lat": 38.90494116666667, "is_disabled": 0, "lon": -77.04496616666667, "is_reserved": 0}, {"bike_id": "55a6dd378902e6621edf3b7db7d9f9ee", "fusion_lon": 0.0, "type": "electric_scooter", "name": "55a6dd378902e6621edf3b7db7d9f9ee", "rental_uris": {"android": "https://dc.lft.to/lastmile_qr_scan", "ios": "https://dc.lft.to/lastmile_qr_scan"}, "fusion_lat": 0.0, "lat": 38.884212166666664, "is_disabled": 0, "lon": -76.99549333333333, "is_reserved": 0}, {"bike_id": "8651badf7a7f5b3b4203821b8fba7ff9", "fusion_lon": 0.0, "type": "electric_scooter", "name": "8651badf7a7f5b3b4203821b8fba7ff9", "rental_uris": {"android": "https://dc.lft.to/lastmile_qr_scan", "ios": "https://dc.lft.to/lastmile_qr_scan"}, "fusion_lat": 0.0, "lat": 38.9620885, "is_disabled": 0, "lon": -77.02344733333334, "is_reserved": 0}, {"bike_id": "2e8e9c32767022c58bde90c60d2810fc", "fusion_lon": 0.0, "type": "electric_scooter", "name": "2e8e9c32767022c58bde90c60d2810fc", "rental_uris": {"android": "https://dc.lft.to/lastmile_qr_scan", "ios": "https://dc.lft.to/lastmile_qr_scan"}, "fusion_lat": 0.0, "lat": 38.911807333333336, "is_disabled": 0, "lon": -77.0449935, "is_reserved": 0}, {"bike_id": "aebb99387bfc7d2bc1fefa56ec33c2d3", "fusion_lon": 0.0, "type": "electric_scooter", "name": "aebb99387bfc7d2bc1fefa56ec33c2d3", "rental_uris": {"android": "https://dc.lft.to/lastmile_qr_scan", "ios": "https://dc.lft.to/lastmile_qr_scan"}, "fusion_lat": 0.0, "lat": 38.934488333333334, "is_disabled": 0, "lon": -76.96420166666667, "is_reserved": 0}, {"bike_id": "876c7fa87bb5540980cee9efb6ea7d1f", "fusion_lon": 0.0, "type": "electric_scooter", "name": "876c7fa87bb5540980cee9efb6ea7d1f", "rental_uris": {"android": "https://dc.lft.to/lastmile_qr_scan", "ios": "https://dc.lft.to/lastmile_qr_scan"}, "fusion_lat": 0.0, "lat": 38.93367116666667, "is_disabled": 0, "lon": -77.05737283333333, "is_reserved": 0}, {"bike_id": "698824b6e627cd3c5fc3dda85b75a735", "fusion_lon": 0.0, "type": "electric_scooter", "name": "698824b6e627cd3c5fc3dda85b75a735", "rental_uris": {"android": "https://dc.lft.to/lastmile_qr_scan", "ios": "https://dc.lft.to/lastmile_qr_scan"}, "fusion_lat": 0.0, "lat": 38.926748333333336, "is_disabled": 0, "lon": -77.00758316666666, "is_reserved": 0}, {"bike_id": "00b497dba14e5a14cca9b441c81f9de6", "fusion_lon": 0.0, "type": "electric_bike", "name": "00b497dba14e5a14cca9b441c81f9de6", "rental_uris": {"android": "https://dc.lft.to/lastmile_qr_scan", "ios": "https://dc.lft.to/lastmile_qr_scan"}, "fusion_lat": 0.0, "lat": 38.88106116666667, "is_disabled": 0, "lon": -77.11182216666667, "is_reserved": 0}, {"bike_id": "8c3e175fb17609a0c7b60260de875666", "fusion_lon": 0.0, "type": "electric_scooter", "name": "8c3e175fb17609a0c7b60260de875666", "rental_uris": {"android": "https://dc.lft.to/lastmile_qr_scan", "ios": "https://dc.lft.to/lastmile_qr_scan"}, "fusion_lat": 0.0, "lat": 38.903158166666664, "is_disabled": 0, "lon": -77.03461716666666, "is_reserved": 0}, {"bike_id": "14b7e27041e49e871d1b0d91be274961", "fusion_lon": 0.0, "type": "electric_scooter", "name": "14b7e27041e49e871d1b0d91be274961", "rental_uris": {"android": "https://dc.lft.to/lastmile_qr_scan", "ios": "https://dc.lft.to/lastmile_qr_scan"}, "fusion_lat": 0.0, "lat": 38.88494216666667, "is_disabled": 0, "lon": -77.02182016666667, "is_reserved": 0}, {"bike_id": "f7cd7f060efd2161b3762467eec84b03", "fusion_lon": 0.0, "type": "electric_scooter", "name": "f7cd7f060efd2161b3762467eec84b03", "rental_uris": {"android": "https://dc.lft.to/lastmile_qr_scan", "ios": "https://dc.lft.to/lastmile_qr_scan"}, "fusion_lat": 0.0, "lat": 38.922507, "is_disabled": 0, "lon": -77.04299533333334, "is_reserved": 0}, {"bike_id": "516644607fe9619bb11dd77745d617d0", "fusion_lon": 0.0, "type": "electric_scooter", "name": "516644607fe9619bb11dd77745d617d0", "rental_uris": {"android": "https://dc.lft.to/lastmile_qr_scan", "ios": "https://dc.lft.to/lastmile_qr_scan"}, "fusion_lat": 0.0, "lat": 38.905525833333336, "is_disabled": 0, "lon": -77.00431, "is_reserved": 0}, {"bike_id": "bb4b104e9bda34c84d7149e021544b9e", "fusion_lon": 0.0, "type": "electric_scooter", "name": "bb4b104e9bda34c84d7149e021544b9e", "rental_uris": {"android": "https://dc.lft.to/lastmile_qr_scan", "ios": "https://dc.lft.to/lastmile_qr_scan"}, "fusion_lat": 0.0, "lat": 38.922147833333334, "is_disabled": 0, "lon": -77.04338, "is_reserved": 0}, {"bike_id": "fdf5de441c8ccb2888f64b61603d3bd0", "fusion_lon": 0.0, "type": "electric_scooter", "name": "fdf5de441c8ccb2888f64b61603d3bd0", "rental_uris": {"android": "https://dc.lft.to/lastmile_qr_scan", "ios": "https://dc.lft.to/lastmile_qr_scan"}, "fusion_lat": 0.0, "lat": 38.906501, "is_disabled": 0, "lon": -77.051356, "is_reserved": 0}, {"bike_id": "14a9dadab4d7f6a4ed8834326d2f50a3", "fusion_lon": 0.0, "type": "electric_scooter", "name": "14a9dadab4d7f6a4ed8834326d2f50a3", "rental_uris": {"android": "https://dc.lft.to/lastmile_qr_scan", "ios": "https://dc.lft.to/lastmile_qr_scan"}, "fusion_lat": 0.0, "lat": 38.913108333333334, "is_disabled": 0, "lon": -77.03193716666667, "is_reserved": 0}, {"bike_id": "6cde3b048beaeb05c93e13cbcab6b08f", "fusion_lon": 0.0, "type": "electric_scooter", "name": "6cde3b048beaeb05c93e13cbcab6b08f", "rental_uris": {"android": "https://dc.lft.to/lastmile_qr_scan", "ios": "https://dc.lft.to/lastmile_qr_scan"}, "fusion_lat": 0.0, "lat": 38.90035833333334, "is_disabled": 0, "lon": -76.99628133333333, "is_reserved": 0}, {"bike_id": "1b0d2e922db301e9a9b378a8b07e9b8e", "fusion_lon": 0.0, "type": "electric_scooter", "name": "1b0d2e922db301e9a9b378a8b07e9b8e", "rental_uris": {"android": "https://dc.lft.to/lastmile_qr_scan", "ios": "https://dc.lft.to/lastmile_qr_scan"}, "fusion_lat": 0.0, "lat": 38.93575966666667, "is_disabled": 0, "lon": -77.01941283333333, "is_reserved": 0}, {"bike_id": "5900f2c22917059b5b312fb62a3d4b2e", "fusion_lon": 0.0, "type": "electric_scooter", "name": "5900f2c22917059b5b312fb62a3d4b2e", "rental_uris": {"android": "https://dc.lft.to/lastmile_qr_scan", "ios": "https://dc.lft.to/lastmile_qr_scan"}, "fusion_lat": 0.0, "lat": 38.93104616666667, "is_disabled": 0, "lon": -77.037973, "is_reserved": 0}, {"bike_id": "0f1896d517bb2a1c5b303806013ef53a", "fusion_lon": 0.0, "type": "electric_scooter", "name": "0f1896d517bb2a1c5b303806013ef53a", "rental_uris": {"android": "https://dc.lft.to/lastmile_qr_scan", "ios": "https://dc.lft.to/lastmile_qr_scan"}, "fusion_lat": 0.0, "lat": 38.9222785, "is_disabled": 0, "lon": -77.04616366666667, "is_reserved": 0}, {"bike_id": "fc953ee6667329987d0582372a4f516f", "fusion_lon": 0.0, "type": "electric_scooter", "name": "fc953ee6667329987d0582372a4f516f", "rental_uris": {"android": "https://dc.lft.to/lastmile_qr_scan", "ios": "https://dc.lft.to/lastmile_qr_scan"}, "fusion_lat": 0.0, "lat": 38.924180666666665, "is_disabled": 0, "lon": -77.0203365, "is_reserved": 0}, {"bike_id": "5bc06a6490d0100a38035ba180a14f2e", "fusion_lon": 0.0, "type": "electric_scooter", "name": "5bc06a6490d0100a38035ba180a14f2e", "rental_uris": {"android": "https://dc.lft.to/lastmile_qr_scan", "ios": "https://dc.lft.to/lastmile_qr_scan"}, "fusion_lat": 0.0, "lat": 38.893675333333334, "is_disabled": 0, "lon": -76.94971533333333, "is_reserved": 0}, {"bike_id": "4bd6c687adc5461206ed8db4baf5ec61", "fusion_lon": 0.0, "type": "electric_scooter", "name": "4bd6c687adc5461206ed8db4baf5ec61", "rental_uris": {"android": "https://dc.lft.to/lastmile_qr_scan", "ios": "https://dc.lft.to/lastmile_qr_scan"}, "fusion_lat": 0.0, "lat": 38.88174766666667, "is_disabled": 0, "lon": -77.028149, "is_reserved": 0}, {"bike_id": "da6075e0abffeb4ee76a24492507a98e", "fusion_lon": 0.0, "type": "electric_scooter", "name": "da6075e0abffeb4ee76a24492507a98e", "rental_uris": {"android": "https://dc.lft.to/lastmile_qr_scan", "ios": "https://dc.lft.to/lastmile_qr_scan"}, "fusion_lat": 0.0, "lat": 38.902690666666665, "is_disabled": 0, "lon": -77.03682283333333, "is_reserved": 0}, {"bike_id": "c37d9cdcb763f8d4cab8f12288ca7210", "fusion_lon": 0.0, "type": "electric_scooter", "name": "c37d9cdcb763f8d4cab8f12288ca7210", "rental_uris": {"android": "https://dc.lft.to/lastmile_qr_scan", "ios": "https://dc.lft.to/lastmile_qr_scan"}, "fusion_lat": 0.0, "lat": 38.88398, "is_disabled": 0, "lon": -77.03046966666666, "is_reserved": 0}, {"bike_id": "78b4bec7e9c97a93e0fd2b7436fe16b4", "fusion_lon": 0.0, "type": "electric_scooter", "name": "78b4bec7e9c97a93e0fd2b7436fe16b4", "rental_uris": {"android": "https://dc.lft.to/lastmile_qr_scan", "ios": "https://dc.lft.to/lastmile_qr_scan"}, "fusion_lat": 0.0, "lat": 38.90365233333333, "is_disabled": 0, "lon": -77.0676535, "is_reserved": 0}, {"bike_id": "0cbb40301c1faa2a855f6d946d1dcc26", "fusion_lon": 0.0, "type": "electric_scooter", "name": "0cbb40301c1faa2a855f6d946d1dcc26", "rental_uris": {"android": "https://dc.lft.to/lastmile_qr_scan", "ios": "https://dc.lft.to/lastmile_qr_scan"}, "fusion_lat": 0.0, "lat": 38.9335285, "is_disabled": 0, "lon": -77.07224116666667, "is_reserved": 0}, {"bike_id": "3841413e47fb9c5eb42447cd2139c0ca", "fusion_lon": 0.0, "type": "electric_scooter", "name": "3841413e47fb9c5eb42447cd2139c0ca", "rental_uris": {"android": "https://dc.lft.to/lastmile_qr_scan", "ios": "https://dc.lft.to/lastmile_qr_scan"}, "fusion_lat": 0.0, "lat": 38.92248283333333, "is_disabled": 0, "lon": -77.0295685, "is_reserved": 0}, {"bike_id": "8a5a153abf926b33e07b8e2a203f2995", "fusion_lon": 0.0, "type": "electric_scooter", "name": "8a5a153abf926b33e07b8e2a203f2995", "rental_uris": {"android": "https://dc.lft.to/lastmile_qr_scan", "ios": "https://dc.lft.to/lastmile_qr_scan"}, "fusion_lat": 0.0, "lat": 38.92805966666667, "is_disabled": 0, "lon": -77.014161, "is_reserved": 0}, {"bike_id": "16028710a285a4ead6eb6ed5c317c7de", "fusion_lon": 0.0, "type": "electric_scooter", "name": "16028710a285a4ead6eb6ed5c317c7de", "rental_uris": {"android": "https://dc.lft.to/lastmile_qr_scan", "ios": "https://dc.lft.to/lastmile_qr_scan"}, "fusion_lat": 0.0, "lat": 38.86406066666667, "is_disabled": 0, "lon": -76.990308, "is_reserved": 0}, {"bike_id": "d9cb74e8e227ad41348bc800d2a7ea72", "fusion_lon": 0.0, "type": "electric_scooter", "name": "d9cb74e8e227ad41348bc800d2a7ea72", "rental_uris": {"android": "https://dc.lft.to/lastmile_qr_scan", "ios": "https://dc.lft.to/lastmile_qr_scan"}, "fusion_lat": 0.0, "lat": 38.943566, "is_disabled": 0, "lon": -77.06151483333333, "is_reserved": 0}, {"bike_id": "17adfd443a0c2aa58ff5f455736694bb", "fusion_lon": 0.0, "type": "electric_scooter", "name": "17adfd443a0c2aa58ff5f455736694bb", "rental_uris": {"android": "https://dc.lft.to/lastmile_qr_scan", "ios": "https://dc.lft.to/lastmile_qr_scan"}, "fusion_lat": 0.0, "lat": 38.895458833333336, "is_disabled": 0, "lon": -76.99158816666667, "is_reserved": 0}, {"bike_id": "d9b9f528c74483055cdca89e7bf43bf8", "fusion_lon": 0.0, "type": "electric_scooter", "name": "d9b9f528c74483055cdca89e7bf43bf8", "rental_uris": {"android": "https://dc.lft.to/lastmile_qr_scan", "ios": "https://dc.lft.to/lastmile_qr_scan"}, "fusion_lat": 0.0, "lat": 38.908156166666664, "is_disabled": 0, "lon": -77.00606583333334, "is_reserved": 0}, {"bike_id": "a22a40c18b2e0581430f5eb8a37ef339", "fusion_lon": 0.0, "type": "electric_bike", "name": "a22a40c18b2e0581430f5eb8a37ef339", "rental_uris": {"android": "https://dc.lft.to/lastmile_qr_scan", "ios": "https://dc.lft.to/lastmile_qr_scan"}, "fusion_lat": 0.0, "lat": 38.891862, "is_disabled": 0, "lon": -77.12265516666666, "is_reserved": 0}, {"bike_id": "b2dd8ac3363eda3ef8b8a17a9bde63b8", "fusion_lon": 0.0, "type": "electric_bike", "name": "b2dd8ac3363eda3ef8b8a17a9bde63b8", "rental_uris": {"android": "https://dc.lft.to/lastmile_qr_scan", "ios": "https://dc.lft.to/lastmile_qr_scan"}, "fusion_lat": 0.0, "lat": 38.831923333333336, "is_disabled": 0, "lon": -77.07689033333334, "is_reserved": 0}, {"bike_id": "2a159aab3d85d43d38f1a9a60f6aa5d8", "fusion_lon": 0.0, "type": "electric_scooter", "name": "2a159aab3d85d43d38f1a9a60f6aa5d8", "rental_uris": {"android": "https://dc.lft.to/lastmile_qr_scan", "ios": "https://dc.lft.to/lastmile_qr_scan"}, "fusion_lat": 0.0, "lat": 38.90554916666667, "is_disabled": 0, "lon": -77.01098016666667, "is_reserved": 0}, {"bike_id": "f81228b0191483906c99a41b90e07042", "fusion_lon": 0.0, "type": "electric_scooter", "name": "f81228b0191483906c99a41b90e07042", "rental_uris": {"android": "https://dc.lft.to/lastmile_qr_scan", "ios": "https://dc.lft.to/lastmile_qr_scan"}, "fusion_lat": 0.0, "lat": 38.89221883333333, "is_disabled": 0, "lon": -77.04872133333333, "is_reserved": 0}, {"bike_id": "8239e6d31f5d32237420b760f2b9344c", "fusion_lon": 0.0, "type": "electric_scooter", "name": "8239e6d31f5d32237420b760f2b9344c", "rental_uris": {"android": "https://dc.lft.to/lastmile_qr_scan", "ios": "https://dc.lft.to/lastmile_qr_scan"}, "fusion_lat": 0.0, "lat": 38.902958166666664, "is_disabled": 0, "lon": -77.03461333333334, "is_reserved": 0}, {"bike_id": "0280e6d04eeae429970900aa3fd204f3", "fusion_lon": 0.0, "type": "electric_bike", "name": "0280e6d04eeae429970900aa3fd204f3", "rental_uris": {"android": "https://dc.lft.to/lastmile_qr_scan", "ios": "https://dc.lft.to/lastmile_qr_scan"}, "fusion_lat": 0.0, "lat": 38.944301333333335, "is_disabled": 0, "lon": -76.98741916666667, "is_reserved": 0}, {"bike_id": "5bc7e1e9b68e6bb5a9c11d57a50b4c96", "fusion_lon": 0.0, "type": "electric_scooter", "name": "5bc7e1e9b68e6bb5a9c11d57a50b4c96", "rental_uris": {"android": "https://dc.lft.to/lastmile_qr_scan", "ios": "https://dc.lft.to/lastmile_qr_scan"}, "fusion_lat": 0.0, "lat": 38.95608816666667, "is_disabled": 0, "lon": -77.028179, "is_reserved": 0}, {"bike_id": "d81122828cee70f0f49c05cc94256349", "fusion_lon": 0.0, "type": "electric_scooter", "name": "d81122828cee70f0f49c05cc94256349", "rental_uris": {"android": "https://dc.lft.to/lastmile_qr_scan", "ios": "https://dc.lft.to/lastmile_qr_scan"}, "fusion_lat": 0.0, "lat": 38.9242025, "is_disabled": 0, "lon": -77.05639066666667, "is_reserved": 0}, {"bike_id": "40977d05d3ab9ffb8e3b1a383d4c7b4b", "fusion_lon": 0.0, "type": "electric_scooter", "name": "40977d05d3ab9ffb8e3b1a383d4c7b4b", "rental_uris": {"android": "https://dc.lft.to/lastmile_qr_scan", "ios": "https://dc.lft.to/lastmile_qr_scan"}, "fusion_lat": 0.0, "lat": 38.903668833333334, "is_disabled": 0, "lon": -77.06759433333333, "is_reserved": 0}, {"bike_id": "3e1c33a31ec52def64b4877403df7abc", "fusion_lon": 0.0, "type": "electric_scooter", "name": "3e1c33a31ec52def64b4877403df7abc", "rental_uris": {"android": "https://dc.lft.to/lastmile_qr_scan", "ios": "https://dc.lft.to/lastmile_qr_scan"}, "fusion_lat": 0.0, "lat": 38.902209166666665, "is_disabled": 0, "lon": -77.04773666666667, "is_reserved": 0}, {"bike_id": "ead8d8f2accf6841409cff47f09d1b05", "fusion_lon": 0.0, "type": "electric_scooter", "name": "ead8d8f2accf6841409cff47f09d1b05", "rental_uris": {"android": "https://dc.lft.to/lastmile_qr_scan", "ios": "https://dc.lft.to/lastmile_qr_scan"}, "fusion_lat": 0.0, "lat": 38.901064833333336, "is_disabled": 0, "lon": -77.048826, "is_reserved": 0}, {"bike_id": "ebd718d2e220da0b4d0496fe9ec60bd2", "fusion_lon": 0.0, "type": "electric_bike", "name": "ebd718d2e220da0b4d0496fe9ec60bd2", "rental_uris": {"android": "https://dc.lft.to/lastmile_qr_scan", "ios": "https://dc.lft.to/lastmile_qr_scan"}, "fusion_lat": 0.0, "lat": 38.82864816666667, "is_disabled": 0, "lon": -77.112332, "is_reserved": 0}, {"bike_id": "f4d11dda70a1cd4cdfc21b850baa0e69", "fusion_lon": 0.0, "type": "electric_scooter", "name": "f4d11dda70a1cd4cdfc21b850baa0e69", "rental_uris": {"android": "https://dc.lft.to/lastmile_qr_scan", "ios": "https://dc.lft.to/lastmile_qr_scan"}, "fusion_lat": 0.0, "lat": 38.92083616666667, "is_disabled": 0, "lon": -77.07564266666667, "is_reserved": 0}, {"bike_id": "095104f766ee4d96e9b5fd4ec03a2cb9", "fusion_lon": 0.0, "type": "electric_scooter", "name": "095104f766ee4d96e9b5fd4ec03a2cb9", "rental_uris": {"android": "https://dc.lft.to/lastmile_qr_scan", "ios": "https://dc.lft.to/lastmile_qr_scan"}, "fusion_lat": 0.0, "lat": 38.87915183333333, "is_disabled": 0, "lon": -76.99166116666666, "is_reserved": 0}, {"bike_id": "b71cc9812423849c87f6952e9c10ab09", "fusion_lon": 0.0, "type": "electric_bike", "name": "b71cc9812423849c87f6952e9c10ab09", "rental_uris": {"android": "https://dc.lft.to/lastmile_qr_scan", "ios": "https://dc.lft.to/lastmile_qr_scan"}, "fusion_lat": 0.0, "lat": 38.955515166666665, "is_disabled": 0, "lon": -76.93539683333333, "is_reserved": 0}, {"bike_id": "bfdd50c3bfc613811c7ee15267997524", "fusion_lon": 0.0, "type": "electric_scooter", "name": "bfdd50c3bfc613811c7ee15267997524", "rental_uris": {"android": "https://dc.lft.to/lastmile_qr_scan", "ios": "https://dc.lft.to/lastmile_qr_scan"},