{"data": {"bikes": [{"is_disabled": 0, "rental_uris": {"android": "https://dc.lft.to/lastmile_qr_scan", "ios": "https://dc.lft.to/lastmile_qr_scan"}, "is_reserved": 0, "name": "1dbad0359ae1431f77052c79fbb6dee3", "lon": -77.03847783333333, "type": "electric_scooter", "bike_id": "1dbad0359ae1431f77052c79fbb6dee3", "fusion_lon": 0.0, "lat": 38.92165216666667, "fusion_lat": 0.0}, {"is_disabled": 0, "rental_uris": {"android": "https://dc.lft.to/lastmile_qr_scan", "ios": "https://dc.lft.to/lastmile_qr_scan"}, "is_reserved": 0, "name": "d8799434192ad396f8d321e057d68600", "lon": -77.04196366666666, "type": "electric_scooter", "bike_id": "d8799434192ad396f8d321e057d68600", "fusion_lon": 0.0, "lat": 38.926257666666665, "fusion_lat": 0.0}, {"is_disabled": 0, "rental_uris": {"android": "https://dc.lft.to/lastmile_qr_scan", "ios": "https://dc.lft.to/lastmile_qr_scan"}, "is_reserved": 0, "name": "a0fc3ebf67368cb7eca69f7db045eb2b", "lon": -77.04312283333333, "type": "electric_scooter", "bike_id": "a0fc3ebf67368cb7eca69f7db045eb2b", "fusion_lon": 0.0, "lat": 38.91880333333334, "fusion_lat": 0.0}, {"is_disabled": 0, "rental_uris": {"android": "https://dc.lft.to/lastmile_qr_scan", "ios": "https://dc.lft.to/lastmile_qr_scan"}, "is_reserved": 0, "name": "b3d922ba28cee7f89de9a1aefa406ab1", "lon": -77.03125766666666, "type": "electric_scooter", "bike_id": "b3d922ba28cee7f89de9a1aefa406ab1", "fusion_lon": 0.0, "lat": 38.923880833333335, "fusion_lat": 0.0}, {"is_disabled": 0, "rental_uris": {"android": "https://dc.lft.to/lastmile_qr_scan", "ios": "https://dc.lft.to/lastmile_qr_scan"}, "is_reserved": 0, "name": "4c2e21f6d23121f996592309832a8d7f", "lon": -77.05764766666667, "type": "electric_bike", "bike_id": "4c2e21f6d23121f996592309832a8d7f", "fusion_lon": 0.0, "lat": 38.924436166666666, "fusion_lat": 0.0}, {"is_disabled": 0, "rental_uris": {"android": "https://dc.lft.to/lastmile_qr_scan", "ios": "https://dc.lft.to/lastmile_qr_scan"}, "is_reserved": 0, "name": "7a7864c686409af246ce7021a3914afe", "lon": -77.05001216666666, "type": "electric_scooter", "bike_id": "7a7864c686409af246ce7021a3914afe", "fusion_lon": 0.0, "lat": 38.897305, "fusion_lat": 0.0}, {"is_disabled": 0, "rental_uris": {"android": "https://dc.lft.to/lastmile_qr_scan", "ios": "https://dc.lft.to/lastmile_qr_scan"}, "is_reserved": 0, "name": "5e2f5b534862bcc6d7679c7cb629d906", "lon": -76.94637683333333, "type": "electric_scooter", "bike_id": "5e2f5b534862bcc6d7679c7cb629d906", "fusion_lon": 0.0, "lat": 38.898436833333335, "fusion_lat": 0.0}, {"is_disabled": 0, "rental_uris": {"android": "https://dc.lft.to/lastmile_qr_scan", "ios": "https://dc.lft.to/lastmile_qr_scan"}, "is_reserved": 0, "name": "a19d666c2ea025e8ef7c7d3c6a9990b3", "lon": -77.024146, "type": "electric_scooter", "bike_id": "a19d666c2ea025e8ef7c7d3c6a9990b3", "fusion_lon": 0.0, "lat": 38.912576333333334, "fusion_lat": 0.0}, {"is_disabled": 0, "rental_uris": {"android": "https://dc.lft.to/lastmile_qr_scan", "ios": "https://dc.lft.to/lastmile_qr_scan"}, "is_reserved": 0, "name": "7c965be07db677aa9e68ecd813c14d5c", "lon": -77.05052633333334, "type": "electric_scooter", "bike_id": "7c965be07db677aa9e68ecd813c14d5c", "fusion_lon": 0.0, "lat": 38.91667016666667, "fusion_lat": 0.0}, {"is_disabled": 0, "rental_uris": {"android": "https://dc.lft.to/lastmile_qr_scan", "ios": "https://dc.lft.to/lastmile_qr_scan"}, "is_reserved": 0, "name": "62b189f4f685dcf8bc36f6ef937e4725", "lon": -77.0092255, "type": "electric_bike", "bike_id": "62b189f4f685dcf8bc36f6ef937e4725", "fusion_lon": 0.0, "lat": 38.978510166666666, "fusion_lat": 0.0}, {"is_disabled": 0, "rental_uris": {"android": "https://dc.lft.to/lastmile_qr_scan", "ios": "https://dc.lft.to/lastmile_qr_scan"}, "is_reserved": 0, "name": "b98abd4f28bcb4df234ed43b0aa9effa", "lon": -77.02700116666666, "type": "electric_scooter", "bike_id": "b98abd4f28bcb4df234ed43b0aa9effa", "fusion_lon": 0.0, "lat": 38.93644316666666, "fusion_lat": 0.0}, {"is_disabled": 0, "rental_uris": {"android": "https://dc.lft.to/lastmile_qr_scan", "ios": "https://dc.lft.to/lastmile_qr_scan"}, "is_reserved": 0, "name": "8e08c47509b6f85280e294cf2fb0cfcd", "lon": -77.033143, "type": "electric_scooter", "bike_id": "8e08c47509b6f85280e294cf2fb0cfcd", "fusion_lon": 0.0, "lat": 38.91815116666667, "fusion_lat": 0.0}, {"is_disabled": 0, "rental_uris": {"android": "https://dc.lft.to/lastmile_qr_scan", "ios": "https://dc.lft.to/lastmile_qr_scan"}, "is_reserved": 0, "name": "0a6d6d80c2b66755605d430aea5ed8c6", "lon": -76.99617166666667, "type": "electric_scooter", "bike_id": "0a6d6d80c2b66755605d430aea5ed8c6", "fusion_lon": 0.0, "lat": 38.90024616666667, "fusion_lat": 0.0}, {"is_disabled": 0, "rental_uris": {"android": "https://dc.lft.to/lastmile_qr_scan", "ios": "https://dc.lft.to/lastmile_qr_scan"}, "is_reserved": 0, "name": "2da20e664b66bb0cbb7e64837e8a94d9", "lon": -77.03521416666666, "type": "electric_bike", "bike_id": "2da20e664b66bb0cbb7e64837e8a94d9", "fusion_lon": 0.0, "lat": 38.935966, "fusion_lat": 0.0}, {"is_disabled": 0, "rental_uris": {"android": "https://dc.lft.to/lastmile_qr_scan", "ios": "https://dc.lft.to/lastmile_qr_scan"}, "is_reserved": 0, "name": "1ca3f1526f6e87798ae60cc686387b50", "lon": -77.045071, "type": "electric_scooter", "bike_id": "1ca3f1526f6e87798ae60cc686387b50", "fusion_lon": 0.0, "lat": 38.921373, "fusion_lat": 0.0}, {"is_disabled": 0, "rental_uris": {"android": "https://dc.lft.to/lastmile_qr_scan", "ios": "https://dc.lft.to/lastmile_qr_scan"}, "is_reserved": 0, "name": "b956457653984dfae72908e6bd715392", "lon": -76.98995416666666, "type": "electric_scooter", "bike_id": "b956457653984dfae72908e6bd715392", "fusion_lon": 0.0, "lat": 38.864358, "fusion_lat": 0.0}, {"is_disabled": 0, "rental_uris": {"android": "https://dc.lft.to/lastmile_qr_scan", "ios": "https://dc.lft.to/lastmile_qr_scan"}, "is_reserved": 0, "name": "53bcd9687c15fbf37ae4f00febacc0c6", "lon": -77.03870116666667, "type": "electric_scooter", "bike_id": "53bcd9687c15fbf37ae4f00febacc0c6", "fusion_lon": 0.0, "lat": 38.92153616666667, "fusion_lat": 0.0}, {"is_disabled": 0, "rental_uris": {"android": "https://dc.lft.to/lastmile_qr_scan", "ios": "https://dc.lft.to/lastmile_qr_scan"}, "is_reserved": 0, "name": "e861a54aa5a588ff2247a2ebefbcae04", "lon": -77.051574, "type": "electric_scooter", "bike_id": "e861a54aa5a588ff2247a2ebefbcae04", "fusion_lon": 0.0, "lat": 38.897635666666666, "fusion_lat": 0.0}, {"is_disabled": 0, "rental_uris": {"android": "https://dc.lft.to/lastmile_qr_scan", "ios": "https://dc.lft.to/lastmile_qr_scan"}, "is_reserved": 0, "name": "82cd14c72d5081f2b06e242c3b00161c", "lon": -77.03189633333334, "type": "electric_scooter", "bike_id": "82cd14c72d5081f2b06e242c3b00161c", "fusion_lon": 0.0, "lat": 38.893839, "fusion_lat": 0.0}, {"is_disabled": 0, "rental_uris": {"android": "https://dc.lft.to/lastmile_qr_scan", "ios": "https://dc.lft.to/lastmile_qr_scan"}, "is_reserved": 0, "name": "5277ee2b2737fc9faf30208e3b347289", "lon": -77.01660716666666, "type": "electric_bike", "bike_id": "5277ee2b2737fc9faf30208e3b347289", "fusion_lon": 0.0, "lat": 38.954348833333334, "fusion_lat": 0.0}, {"is_disabled": 0, "rental_uris": {"android": "https://dc.lft.to/lastmile_qr_scan", "ios": "https://dc.lft.to/lastmile_qr_scan"}, "is_reserved": 0, "name": "e344968759d3992e27d9c33f2bc3461f", "lon": -77.0326855, "type": "electric_scooter", "bike_id": "e344968759d3992e27d9c33f2bc3461f", "fusion_lon": 0.0, "lat": 38.93331, "fusion_lat": 0.0}, {"is_disabled": 0, "rental_uris": {"android": "https://dc.lft.to/lastmile_qr_scan", "ios": "https://dc.lft.to/lastmile_qr_scan"}, "is_reserved": 0, "name": "12786297c0137cde5cd01e7fc464d2b9", "lon": -76.9871615, "type": "electric_scooter", "bike_id": "12786297c0137cde5cd01e7fc464d2b9", "fusion_lon": 0.0, "lat": 38.867027666666665, "fusion_lat": 0.0}, {"is_disabled": 0, "rental_uris": {"android": "https://dc.lft.to/lastmile_qr_scan", "ios": "https://dc.lft.to/lastmile_qr_scan"}, "is_reserved": 0, "name": "4504a38824db15f7b252f825f9238186", "lon": -77.00606933333333, "type": "electric_scooter", "bike_id": "4504a38824db15f7b252f825f9238186", "fusion_lon": 0.0, "lat": 38.90579833333334, "fusion_lat": 0.0}, {"is_disabled": 0, "rental_uris": {"android": "https://dc.lft.to/lastmile_qr_scan", "ios": "https://dc.lft.to/lastmile_qr_scan"}, "is_reserved": 0, "name": "e5e8abbca419488d1e53b19a825c370c", "lon": -77.00923066666667, "type": "electric_scooter", "bike_id": "e5e8abbca419488d1e53b19a825c370c", "fusion_lon": 0.0, "lat": 38.89787966666667, "fusion_lat": 0.0}, {"is_disabled": 0, "rental_uris": {"android": "https://dc.lft.to/lastmile_qr_scan", "ios": "https://dc.lft.to/lastmile_qr_scan"}, "is_reserved": 0, "name": "1b01bcfd8243168b404f2f5020561f4d", "lon": -77.0269525, "type": "electric_scooter", "bike_id": "1b01bcfd8243168b404f2f5020561f4d", "fusion_lon": 0.0, "lat": 38.9073575, "fusion_lat": 0.0}, {"is_disabled": 0, "rental_uris": {"android": "https://dc.lft.to/lastmile_qr_scan", "ios": "https://dc.lft.to/lastmile_qr_scan"}, "is_reserved": 0, "name": "5f154c62ff52d4f55008ab1c33807858", "lon": -77.042059, "type": "electric_scooter", "bike_id": "5f154c62ff52d4f55008ab1c33807858", "fusion_lon": 0.0, "lat": 38.9296715, "fusion_lat": 0.0}, {"is_disabled": 0, "rental_uris": {"android": "https://dc.lft.to/lastmile_qr_scan", "ios": "https://dc.lft.to/lastmile_qr_scan"}, "is_reserved": 0, "name": "fe2c3982e23ff092922bc6a54b34d023", "lon": -77.04167116666666, "type": "electric_scooter", "bike_id": "fe2c3982e23ff092922bc6a54b34d023", "fusion_lon": 0.0, "lat": 38.91034283333333, "fusion_lat": 0.0}, {"is_disabled": 0, "rental_uris": {"android": "https://dc.lft.to/lastmile_qr_scan", "ios": "https://dc.lft.to/lastmile_qr_scan"}, "is_reserved": 0, "name": "65e2ad290ff6125d049793312fcf073a", "lon": -77.05257416666667, "type": "electric_scooter", "bike_id": "65e2ad290ff6125d049793312fcf073a", "fusion_lon": 0.0, "lat": 38.92735016666666, "fusion_lat": 0.0}, {"is_disabled": 0, "rental_uris": {"android": "https://dc.lft.to/lastmile_qr_scan", "ios": "https://dc.lft.to/lastmile_qr_scan"}, "is_reserved": 0, "name": "5ad74a94dc4fe4d1e3ff9d173bc95de4", "lon": -77.05295583333333, "type": "electric_scooter", "bike_id": "5ad74a94dc4fe4d1e3ff9d173bc95de4", "fusion_lon": 0.0, "lat": 38.9033605, "fusion_lat": 0.0}, {"is_disabled": 0, "rental_uris": {"android": "https://dc.lft.to/lastmile_qr_scan", "ios": "https://dc.lft.to/lastmile_qr_scan"}, "is_reserved": 0, "name": "434fda104972be20be98dc1607e4c701", "lon": -77.02268016666666, "type": "electric_scooter", "bike_id": "434fda104972be20be98dc1607e4c701", "fusion_lon": 0.0, "lat": 38.9273715, "fusion_lat": 0.0}, {"is_disabled": 0, "rental_uris": {"android": "https://dc.lft.to/lastmile_qr_scan", "ios": "https://dc.lft.to/lastmile_qr_scan"}, "is_reserved": 0, "name": "f876e1c671821ae79aa053a4f9a30358", "lon": -77.07070533333334, "type": "electric_scooter", "bike_id": "f876e1c671821ae79aa053a4f9a30358", "fusion_lon": 0.0, "lat": 38.91948766666667, "fusion_lat": 0.0}, {"is_disabled": 0, "rental_uris": {"android": "https://dc.lft.to/lastmile_qr_scan", "ios": "https://dc.lft.to/lastmile_qr_scan"}, "is_reserved": 0, "name": "f273c29920d8588b77b62b047293a79c", "lon": -77.0347285, "type": "electric_scooter", "bike_id": "f273c29920d8588b77b62b047293a79c", "fusion_lon": 0.0, "lat": 38.92153616666667, "fusion_lat": 0.0}, {"is_disabled": 0, "rental_uris": {"android": "https://dc.lft.to/lastmile_qr_scan", "ios": "https://dc.lft.to/lastmile_qr_scan"}, "is_reserved": 0, "name": "5dccadf793fb4e40dea04a58e290e0b5", "lon": -77.0515535, "type": "electric_scooter", "bike_id": "5dccadf793fb4e40dea04a58e290e0b5", "fusion_lon": 0.0, "lat": 38.9061625, "fusion_lat": 0.0}, {"is_disabled": 0, "rental_uris": {"android": "https://dc.lft.to/lastmile_qr_scan", "ios": "https://dc.lft.to/lastmile_qr_scan"}, "is_reserved": 0, "name": "f12dafdaec770799b72d73bc17348a73", "lon": -76.9521325, "type": "electric_scooter", "bike_id": "f12dafdaec770799b72d73bc17348a73", "fusion_lon": 0.0, "lat": 38.892517833333336, "fusion_lat": 0.0}, {"is_disabled": 0, "rental_uris": {"android": "https://dc.lft.to/lastmile_qr_scan", "ios": "https://dc.lft.to/lastmile_qr_scan"}, "is_reserved": 0, "name": "5c5bd7d0ea961b2c9a26ec5846d4edee", "lon": -77.0435, "type": "electric_scooter", "bike_id": "5c5bd7d0ea961b2c9a26ec5846d4edee", "fusion_lon": 0.0, "lat": 38.898354166666664, "fusion_lat": 0.0}, {"is_disabled": 0, "rental_uris": {"android": "https://dc.lft.to/lastmile_qr_scan", "ios": "https://dc.lft.to/lastmile_qr_scan"}, "is_reserved": 0, "name": "e0f87133e0b6630b184047b8fb8ac21f", "lon": -77.046532, "type": "electric_scooter", "bike_id": "e0f87133e0b6630b184047b8fb8ac21f", "fusion_lon": 0.0, "lat": 38.904979833333336, "fusion_lat": 0.0}, {"is_disabled": 0, "rental_uris": {"android": "https://dc.lft.to/lastmile_qr_scan", "ios": "https://dc.lft.to/lastmile_qr_scan"}, "is_reserved": 0, "name": "798b1707d5c352d4d86e2285a00cf13f", "lon": -76.9837925, "type": "electric_scooter", "bike_id": "798b1707d5c352d4d86e2285a00cf13f", "fusion_lon": 0.0, "lat": 38.91501616666667, "fusion_lat": 0.0}, {"is_disabled": 0, "rental_uris": {"android": "https://dc.lft.to/lastmile_qr_scan", "ios": "https://dc.lft.to/lastmile_qr_scan"}, "is_reserved": 0, "name": "894ef2f2fd27a9a5003b0b4b3bad894c", "lon": -76.99905933333334, "type": "electric_scooter", "bike_id": "894ef2f2fd27a9a5003b0b4b3bad894c", "fusion_lon": 0.0, "lat": 38.90031333333334, "fusion_lat": 0.0}, {"is_disabled": 0, "rental_uris": {"android": "https://dc.lft.to/lastmile_qr_scan", "ios": "https://dc.lft.to/lastmile_qr_scan"}, "is_reserved": 0, "name": "37f290f4541eb4263f7bbca1e4b74a6e", "lon": -77.04454183333333, "type": "electric_scooter", "bike_id": "37f290f4541eb4263f7bbca1e4b74a6e", "fusion_lon": 0.0, "lat": 38.918672, "fusion_lat": 0.0}, {"is_disabled": 0, "rental_uris": {"android": "https://dc.lft.to/lastmile_qr_scan", "ios": "https://dc.lft.to/lastmile_qr_scan"}, "is_reserved": 0, "name": "cec029894090f979c421e4097ee63a93", "lon": -77.04016066666667, "type": "electric_scooter", "bike_id": "cec029894090f979c421e4097ee63a93", "fusion_lon": 0.0, "lat": 38.92096166666666, "fusion_lat": 0.0}, {"is_disabled": 0, "rental_uris": {"android": "https://dc.lft.to/lastmile_qr_scan", "ios": "https://dc.lft.to/lastmile_qr_scan"}, "is_reserved": 0, "name": "5e1919d2790892fae4e3a3fdf9b0bad4", "lon": -77.07907233333333, "type": "electric_bike", "bike_id": "5e1919d2790892fae4e3a3fdf9b0bad4", "fusion_lon": 0.0, "lat": 38.839378833333335, "fusion_lat": 0.0}, {"is_disabled": 0, "rental_uris": {"android": "https://dc.lft.to/lastmile_qr_scan", "ios": "https://dc.lft.to/lastmile_qr_scan"}, "is_reserved": 0, "name": "c009374c712a78da41ef7c38b8553e9e", "lon": -77.0035875, "type": "electric_scooter", "bike_id": "c009374c712a78da41ef7c38b8553e9e", "fusion_lon": 0.0, "lat": 38.9046685, "fusion_lat": 0.0}, {"is_disabled": 0, "rental_uris": {"android": "https://dc.lft.to/lastmile_qr_scan", "ios": "https://dc.lft.to/lastmile_qr_scan"}, "is_reserved": 0, "name": "08a66d7fe7478dfe1d59284162c95112", "lon": -77.03668316666666, "type": "electric_scooter", "bike_id": "08a66d7fe7478dfe1d59284162c95112", "fusion_lon": 0.0, "lat": 38.92257983333333, "fusion_lat": 0.0}, {"is_disabled": 0, "rental_uris": {"android": "https://dc.lft.to/lastmile_qr_scan", "ios": "https://dc.lft.to/lastmile_qr_scan"}, "is_reserved": 0, "name": "ea9296bf3839638830caab84b00bc94a", "lon": -77.05113183333333, "type": "electric_bike", "bike_id": "ea9296bf3839638830caab84b00bc94a", "fusion_lon": 0.0, "lat": 38.94562283333333, "fusion_lat": 0.0}, {"is_disabled": 0, "rental_uris": {"android": "https://dc.lft.to/lastmile_qr_scan", "ios": "https://dc.lft.to/lastmile_qr_scan"}, "is_reserved": 0, "name": "735be678567fadbccbc7fc2d4d2d17aa", "lon": -77.03185016666667, "type": "electric_scooter", "bike_id": "735be678567fadbccbc7fc2d4d2d17aa", "fusion_lon": 0.0, "lat": 38.919042166666664, "fusion_lat": 0.0}, {"is_disabled": 0, "rental_uris": {"android": "https://dc.lft.to/lastmile_qr_scan", "ios": "https://dc.lft.to/lastmile_qr_scan"}, "is_reserved": 0, "name": "2b4fa470cd5067984f0fa26e2eee7859", "lon": -77.10724966666666, "type": "electric_bike", "bike_id": "2b4fa470cd5067984f0fa26e2eee7859", "fusion_lon": 0.0, "lat": 38.85549533333333, "fusion_lat": 0.0}, {"is_disabled": 0, "rental_uris": {"android": "https://dc.lft.to/lastmile_qr_scan", "ios": "https://dc.lft.to/lastmile_qr_scan"}, "is_reserved": 0, "name": "d6335b8573f50c03116aaf34a5cd433d", "lon": -76.999608, "type": "electric_scooter", "bike_id": "d6335b8573f50c03116aaf34a5cd433d", "fusion_lon": 0.0, "lat": 38.903453666666664, "fusion_lat": 0.0}, {"is_disabled": 0, "rental_uris": {"android": "https://dc.lft.to/lastmile_qr_scan", "ios": "https://dc.lft.to/lastmile_qr_scan"}, "is_reserved": 0, "name": "4cbddb16127c14e35ba1b98131576cf1", "lon": -77.00650533333334, "type": "electric_bike", "bike_id": "4cbddb16127c14e35ba1b98131576cf1", "fusion_lon": 0.0, "lat": 38.944758666666665, "fusion_lat": 0.0}, {"is_disabled": 0, "rental_uris": {"android": "https://dc.lft.to/lastmile_qr_scan", "ios": "https://dc.lft.to/lastmile_qr_scan"}, "is_reserved": 0, "name": "724281ffc0ca69b71b4c9e5dd9c834ec", "lon": -77.03882083333333, "type": "electric_scooter", "bike_id": "724281ffc0ca69b71b4c9e5dd9c834ec", "fusion_lon": 0.0, "lat": 38.9343165, "fusion_lat": 0.0}, {"is_disabled": 0, "rental_uris": {"android": "https://dc.lft.to/lastmile_qr_scan", "ios": "https://dc.lft.to/lastmile_qr_scan"}, "is_reserved": 0, "name": "9352252a442208431a2cfa37daf323b2", "lon": -77.05840466666666, "type": "electric_scooter", "bike_id": "9352252a442208431a2cfa37daf323b2", "fusion_lon": 0.0, "lat": 38.93430633333333, "fusion_lat": 0.0}, {"is_disabled": 0, "rental_uris": {"android": "https://dc.lft.to/lastmile_qr_scan", "ios": "https://dc.lft.to/lastmile_qr_scan"}, "is_reserved": 0, "name": "23a5f63e975332d2168db7ec5ffa8fd2", "lon": -77.031898, "type": "electric_scooter", "bike_id": "23a5f63e975332d2168db7ec5ffa8fd2", "fusion_lon": 0.0, "lat": 38.9189905, "fusion_lat": 0.0}, {"is_disabled": 0, "rental_uris": {"android": "https://dc.lft.to/lastmile_qr_scan", "ios": "https://dc.lft.to/lastmile_qr_scan"}, "is_reserved": 0, "name": "592ccedab0862305b9cd9d05ced4802c", "lon": -76.98368833333333, "type": "electric_scooter", "bike_id": "592ccedab0862305b9cd9d05ced4802c", "fusion_lon": 0.0, "lat": 38.922025166666664, "fusion_lat": 0.0}, {"is_disabled": 0, "rental_uris": {"android": "https://dc.lft.to/lastmile_qr_scan", "ios": "https://dc.lft.to/lastmile_qr_scan"}, "is_reserved": 0, "name": "237ec1455ecccaa5fee29d16fbdb0379", "lon": -77.0282905, "type": "electric_scooter", "bike_id": "237ec1455ecccaa5fee29d16fbdb0379", "fusion_lon": 0.0, "lat": 38.914188833333334, "fusion_lat": 0.0}, {"is_disabled": 0, "rental_uris": {"android": "https://dc.lft.to/lastmile_qr_scan", "ios": "https://dc.lft.to/lastmile_qr_scan"}, "is_reserved": 0, "name": "3c8a67cd16e9bdb5dee833fe877ef2f3", "lon": -77.03184466666667, "type": "electric_scooter", "bike_id": "3c8a67cd16e9bdb5dee833fe877ef2f3", "fusion_lon": 0.0, "lat": 38.9306055, "fusion_lat": 0.0}, {"is_disabled": 0, "rental_uris": {"android": "https://dc.lft.to/lastmile_qr_scan", "ios": "https://dc.lft.to/lastmile_qr_scan"}, "is_reserved": 0, "name": "5e1b7a5dcbac50db791dea7b1f97ad8d", "lon": -77.06364266666667, "type": "electric_scooter", "bike_id": "5e1b7a5dcbac50db791dea7b1f97ad8d", "fusion_lon": 0.0, "lat": 38.94413733333333, "fusion_lat": 0.0}, {"is_disabled": 0, "rental_uris": {"android": "https://dc.lft.to/lastmile_qr_scan", "ios": "https://dc.lft.to/lastmile_qr_scan"}, "is_reserved": 0, "name": "38bc186d5056bba3e1f69f2552d499d6", "lon": -77.05574983333334, "type": "electric_scooter", "bike_id": "38bc186d5056bba3e1f69f2552d499d6", "fusion_lon": 0.0, "lat": 38.899988666666665, "fusion_lat": 0.0}, {"is_disabled": 0, "rental_uris": {"android": "https://dc.lft.to/lastmile_qr_scan", "ios": "https://dc.lft.to/lastmile_qr_scan"}, "is_reserved": 0, "name": "a8b4d3d862975e69c7441af90c578e88", "lon": -77.061546, "type": "electric_scooter", "bike_id": "a8b4d3d862975e69c7441af90c578e88", "fusion_lon": 0.0, "lat": 38.90513933333333, "fusion_lat": 0.0}, {"is_disabled": 0, "rental_uris": {"android": "https://dc.lft.to/lastmile_qr_scan", "ios": "https://dc.lft.to/lastmile_qr_scan"}, "is_reserved": 0, "name": "3e5874f36e3136bc7f9caf0039179915", "lon": -77.1753155, "type": "electric_bike", "bike_id": "3e5874f36e3136bc7f9caf0039179915", "fusion_lon": 0.0, "lat": 39.0961115, "fusion_lat": 0.0}, {"is_disabled": 0, "rental_uris": {"android": "https://dc.lft.to/lastmile_qr_scan", "ios": "https://dc.lft.to/lastmile_qr_scan"}, "is_reserved": 0, "name": "66f44ffe8daa1016f73afee3d175f86e", "lon": -77.03215383333334, "type": "electric_scooter", "bike_id": "66f44ffe8daa1016f73afee3d175f86e", "fusion_lon": 0.0, "lat": 38.920181666666664, "fusion_lat": 0.0}, {"is_disabled": 0, "rental_uris": {"android": "https://dc.lft.to/lastmile_qr_scan", "ios": "https://dc.lft.to/lastmile_qr_scan"}, "is_reserved": 0, "name": "265199af154fe2573bfe8998f81a6fa5", "lon": -77.04165183333333, "type": "electric_scooter", "bike_id": "265199af154fe2573bfe8998f81a6fa5", "fusion_lon": 0.0, "lat": 38.91028716666667, "fusion_lat": 0.0}, {"is_disabled": 0, "rental_uris": {"android": "https://dc.lft.to/lastmile_qr_scan", "ios": "https://dc.lft.to/lastmile_qr_scan"}, "is_reserved": 0, "name": "c96f26ea1dbea6e8dc0a31586c233629", "lon": -77.12626766666666, "type": "electric_bike", "bike_id": "c96f26ea1dbea6e8dc0a31586c233629", "fusion_lon": 0.0, "lat": 39.058128, "fusion_lat": 0.0}, {"is_disabled": 0, "rental_uris": {"android": "https://dc.lft.to/lastmile_qr_scan", "ios": "https://dc.lft.to/lastmile_qr_scan"}, "is_reserved": 0, "name": "4ab7ec6ae830b252cfb1c6018a196e9a", "lon": -77.03524566666667, "type": "electric_scooter", "bike_id": "4ab7ec6ae830b252cfb1c6018a196e9a", "fusion_lon": 0.0, "lat": 38.927261, "fusion_lat": 0.0}, {"is_disabled": 0, "rental_uris": {"android": "https://dc.lft.to/lastmile_qr_scan", "ios": "https://dc.lft.to/lastmile_qr_scan"}, "is_reserved": 0, "name": "e644803cd23b9038554dae3dca0bfa12", "lon": -77.00338816666667, "type": "electric_scooter", "bike_id": "e644803cd23b9038554dae3dca0bfa12", "fusion_lon": 0.0, "lat": 38.89353933333334, "fusion_lat": 0.0}, {"is_disabled": 0, "rental_uris": {"android": "https://dc.lft.to/lastmile_qr_scan", "ios": "https://dc.lft.to/lastmile_qr_scan"}, "is_reserved": 0, "name": "dbc303aa7f4c9a3e37f136fdca05e55c", "lon": -77.00537183333333, "type": "electric_scooter", "bike_id": "dbc303aa7f4c9a3e37f136fdca05e55c", "fusion_lon": 0.0, "lat": 38.92969, "fusion_lat": 0.0}, {"is_disabled": 0, "rental_uris": {"android": "https://dc.lft.to/lastmile_qr_scan", "ios": "https://dc.lft.to/lastmile_qr_scan"}, "is_reserved": 0, "name": "76ab02fb07160a3408f20a25b6e41ba2", "lon": -77.0074625, "type": "electric_scooter", "bike_id": "76ab02fb07160a3408f20a25b6e41ba2", "fusion_lon": 0.0, "lat": 38.91553616666667, "fusion_lat": 0.0}, {"is_disabled": 0, "rental_uris": {"android": "https://dc.lft.to/lastmile_qr_scan", "ios": "https://dc.lft.to/lastmile_qr_scan"}, "is_reserved": 0, "name": "654db6bbfb8ca13bd6379cd22542752c", "lon": -77.048733, "type": "electric_scooter", "bike_id": "654db6bbfb8ca13bd6379cd22542752c", "fusion_lon": 0.0, "lat": 38.9095035, "fusion_lat": 0.0}, {"is_disabled": 0, "rental_uris": {"android": "https://dc.lft.to/lastmile_qr_scan", "ios": "https://dc.lft.to/lastmile_qr_scan"}, "is_reserved": 0, "name": "fdb160c3f04df250acef2e1ad2a6bf74", "lon": -77.02964416666667, "type": "electric_scooter", "bike_id": "fdb160c3f04df250acef2e1ad2a6bf74", "fusion_lon": 0.0, "lat": 38.8922525, "fusion_lat": 0.0}, {"is_disabled": 0, "rental_uris": {"android": "https://dc.lft.to/lastmile_qr_scan", "ios": "https://dc.lft.to/lastmile_qr_scan"}, "is_reserved": 0, "name": "cc9817e03fa2e91673f9b6fa39ff4c61", "lon": -77.02657166666667, "type": "electric_bike", "bike_id": "cc9817e03fa2e91673f9b6fa39ff4c61", "fusion_lon": 0.0, "lat": 38.988182333333334, "fusion_lat": 0.0}, {"is_disabled": 0, "rental_uris": {"android": "https://dc.lft.to/lastmile_qr_scan", "ios": "https://dc.lft.to/lastmile_qr_scan"}, "is_reserved": 0, "name": "80722911721d6d09806c3babcad7f95d", "lon": -77.02124216666667, "type": "electric_scooter", "bike_id": "80722911721d6d09806c3babcad7f95d", "fusion_lon": 0.0, "lat": 38.887471166666664, "fusion_lat": 0.0}, {"is_disabled": 0, "rental_uris": {"android": "https://dc.lft.to/lastmile_qr_scan", "ios": "https://dc.lft.to/lastmile_qr_scan"}, "is_reserved": 0, "name": "95d2f901df58931b57159dc09dd6968b", "lon": -77.02230033333333, "type": "electric_scooter", "bike_id": "95d2f901df58931b57159dc09dd6968b", "fusion_lon": 0.0, "lat": 38.887468166666665, "fusion_lat": 0.0}, {"is_disabled": 0, "rental_uris": {"android": "https://dc.lft.to/lastmile_qr_scan", "ios": "https://dc.lft.to/lastmile_qr_scan"}, "is_reserved": 0, "name": "8585f44b6337f9b6c25a60f417ba54a8", "lon": -77.03316916666667, "type": "electric_bike", "bike_id": "8585f44b6337f9b6c25a60f417ba54a8", "fusion_lon": 0.0, "lat": 38.92661916666667, "fusion_lat": 0.0}, {"is_disabled": 0, "rental_uris": {"android": "https://dc.lft.to/lastmile_qr_scan", "ios": "https://dc.lft.to/lastmile_qr_scan"}, "is_reserved": 0, "name": "1852f7bdddd7ac6b2978f2390ccfe99e", "lon": -77.0438045, "type": "electric_bike", "bike_id": "1852f7bdddd7ac6b2978f2390ccfe99e", "fusion_lon": 0.0, "lat": 39.052679833333336, "fusion_lat": 0.0}, {"is_disabled": 0, "rental_uris": {"android": "https://dc.lft.to/lastmile_qr_scan", "ios": "https://dc.lft.to/lastmile_qr_scan"}, "is_reserved": 0, "name": "a090b30743bc203c8c3226d963fab16d", "lon": -77.02962416666666, "type": "electric_bike", "bike_id": "a090b30743bc203c8c3226d963fab16d", "fusion_lon": 0.0, "lat": 38.93712033333333, "fusion_lat": 0.0}, {"is_disabled": 0, "rental_uris": {"android": "https://dc.lft.to/lastmile_qr_scan", "ios": "https://dc.lft.to/lastmile_qr_scan"}, "is_reserved": 0, "name": "ed52bda518fc4e16f27a7baf81aab376", "lon": -76.96373916666667, "type": "electric_bike", "bike_id": "ed52bda518fc4e16f27a7baf81aab376", "fusion_lon": 0.0, "lat": 38.949003833333336, "fusion_lat": 0.0}, {"is_disabled": 0, "rental_uris": {"android": "https://dc.lft.to/lastmile_qr_scan", "ios": "https://dc.lft.to/lastmile_qr_scan"}, "is_reserved": 0, "name": "35a400715039cfd8be61e9a09eedf751", "lon": -77.02205, "type": "electric_scooter", "bike_id": "35a400715039cfd8be61e9a09eedf751", "fusion_lon": 0.0, "lat": 38.911102166666666, "fusion_lat": 0.0}, {"is_disabled": 0, "rental_uris": {"android": "https://dc.lft.to/lastmile_qr_scan", "ios": "https://dc.lft.to/lastmile_qr_scan"}, "is_reserved": 0, "name": "7695164f4410e56198794730050e5d37", "lon": -77.0366355, "type": "electric_scooter", "bike_id": "7695164f4410e56198794730050e5d37", "fusion_lon": 0.0, "lat": 38.917194333333335, "fusion_lat": 0.0}, {"is_disabled": 0, "rental_uris": {"android": "https://dc.lft.to/lastmile_qr_scan", "ios": "https://dc.lft.to/lastmile_qr_scan"}, "is_reserved": 0, "name": "3de5796ce2c78f79086f151f2e83d707", "lon": -77.02264316666667, "type": "electric_scooter", "bike_id": "3de5796ce2c78f79086f151f2e83d707", "fusion_lon": 0.0, "lat": 38.928311666666666, "fusion_lat": 0.0}, {"is_disabled": 0, "rental_uris": {"android": "https://dc.lft.to/lastmile_qr_scan", "ios": "https://dc.lft.to/lastmile_qr_scan"}, "is_reserved": 0, "name": "8715fb002d35a7e68d7e2f2ac2d97584", "lon": -77.03210866666667, "type": "electric_scooter", "bike_id": "8715fb002d35a7e68d7e2f2ac2d97584", "fusion_lon": 0.0, "lat": 38.915524833333336, "fusion_lat": 0.0}, {"is_disabled": 0, "rental_uris": {"android": "https://dc.lft.to/lastmile_qr_scan", "ios": "https://dc.lft.to/lastmile_qr_scan"}, "is_reserved": 0, "name": "1537564fdab745df200b6255e93b5202", "lon": -77.031545, "type": "electric_scooter", "bike_id": "1537564fdab745df200b6255e93b5202", "fusion_lon": 0.0, "lat": 38.909792, "fusion_lat": 0.0}, {"is_disabled": 0, "rental_uris": {"android": "https://dc.lft.to/lastmile_qr_scan", "ios": "https://dc.lft.to/lastmile_qr_scan"}, "is_reserved": 0, "name": "e12d88b51dbf24cc407ffc9253582dec", "lon": -77.0019695, "type": "electric_scooter", "bike_id": "e12d88b51dbf24cc407ffc9253582dec", "fusion_lon": 0.0, "lat": 38.91637816666667, "fusion_lat": 0.0}, {"is_disabled": 0, "rental_uris": {"android": "https://dc.lft.to/lastmile_qr_scan", "ios": "https://dc.lft.to/lastmile_qr_scan"}, "is_reserved": 0, "name": "a21715234fb223a82f62aa67592b0125", "lon": -77.0383065, "type": "electric_scooter", "bike_id": "a21715234fb223a82f62aa67592b0125", "fusion_lon": 0.0, "lat": 38.91113883333333, "fusion_lat": 0.0}, {"is_disabled": 0, "rental_uris": {"android": "https://dc.lft.to/lastmile_qr_scan", "ios": "https://dc.lft.to/lastmile_qr_scan"}, "is_reserved": 0, "name": "32c4fbbb8f6352b89e0575133be63fa9", "lon": -77.03195433333333, "type": "electric_scooter", "bike_id": "32c4fbbb8f6352b89e0575133be63fa9", "fusion_lon": 0.0, "lat": 38.9179695, "fusion_lat": 0.0}, {"is_disabled": 0, "rental_uris": {"android": "https://dc.lft.to/lastmile_qr_scan", "ios": "https://dc.lft.to/lastmile_qr_scan"}, "is_reserved": 0, "name": "0403845bede72f6f8e2f94ce351e35b0", "lon": -77.025089, "type": "electric_bike", "bike_id": "0403845bede72f6f8e2f94ce351e35b0", "fusion_lon": 0.0, "lat": 38.93414816666667, "fusion_lat": 0.0}, {"is_disabled": 0, "rental_uris": {"android": "https://dc.lft.to/lastmile_qr_scan", "ios": "https://dc.lft.to/lastmile_qr_scan"}, "is_reserved": 0, "name": "ae77d4971b671c01bd81d3649b8bd2ed", "lon": -77.01185033333333, "type": "electric_scooter", "bike_id": "ae77d4971b671c01bd81d3649b8bd2ed", "fusion_lon": 0.0, "lat": 38.870869666666664, "fusion_lat": 0.0}, {"is_disabled": 0, "rental_uris": {"android": "https://dc.lft.to/lastmile_qr_scan", "ios": "https://dc.lft.to/lastmile_qr_scan"}, "is_reserved": 0, "name": "aa2c3b5ee7e5c9eff44eea92f01e1139", "lon": -77.01506116666667, "type": "electric_scooter", "bike_id": "aa2c3b5ee7e5c9eff44eea92f01e1139", "fusion_lon": 0.0, "lat": 38.902447333333335, "fusion_lat": 0.0}, {"is_disabled": 0, "rental_uris": {"android": "https://dc.lft.to/lastmile_qr_scan", "ios": "https://dc.lft.to/lastmile_qr_scan"}, "is_reserved": 0, "name": "140cd148e80e907bbd3b382584df9372", "lon": -77.02524383333333, "type": "electric_scooter", "bike_id": "140cd148e80e907bbd3b382584df9372", "fusion_lon": 0.0, "lat": 38.975748833333334, "fusion_lat": 0.0}, {"is_disabled": 0, "rental_uris": {"android": "https://dc.lft.to/lastmile_qr_scan", "ios": "https://dc.lft.to/lastmile_qr_scan"}, "is_reserved": 0, "name": "44e436baeb31145017dc66eb30de0f3b", "lon": -76.98800866666667, "type": "electric_scooter", "bike_id": "44e436baeb31145017dc66eb30de0f3b", "fusion_lon": 0.0, "lat": 38.892156166666666, "fusion_lat": 0.0}, {"is_disabled": 0, "rental_uris": {"android": "https://dc.lft.to/lastmile_qr_scan", "ios": "https://dc.lft.to/lastmile_qr_scan"}, "is_reserved": 0, "name": "5889d3746da980b7564f8e2a361dc8af", "lon": -77.03585233333334, "type": "electric_scooter", "bike_id": "5889d3746da980b7564f8e2a361dc8af", "fusion_lon": 0.0, "lat": 38.907623666666666, "fusion_lat": 0.0}, {"is_disabled": 0, "rental_uris": {"android": "https://dc.lft.to/lastmile_qr_scan", "ios": "https://dc.lft.to/lastmile_qr_scan"}, "is_reserved": 0, "name": "82f8cfc3f8d1c06b889dc0df7c2ebb0c", "lon": -77.06356633333333, "type": "electric_scooter", "bike_id": "82f8cfc3f8d1c06b889dc0df7c2ebb0c", "fusion_lon": 0.0, "lat": 38.94444583333333, "fusion_lat": 0.0}, {"is_disabled": 0, "rental_uris": {"android": "https://dc.lft.to/lastmile_qr_scan", "ios": "https://dc.lft.to/lastmile_qr_scan"}, "is_reserved": 0, "name": "af7cb2aed49367dde405a5a891f5105a", "lon": -77.00587133333333, "type": "electric_bike", "bike_id": "af7cb2aed49367dde405a5a891f5105a", "fusion_lon": 0.0, "lat": 38.8369345, "fusion_lat": 0.0}, {"is_disabled": 0, "rental_uris": {"android": "https://dc.lft.to/lastmile_qr_scan", "ios": "https://dc.lft.to/lastmile_qr_scan"}, "is_reserved": 0, "name": "d36182fc65f08f9b84ed086be39105e4", "lon": -77.02490833333333, "type": "electric_scooter", "bike_id": "d36182fc65f08f9b84ed086be39105e4", "fusion_lon": 0.0, "lat": 38.9024305, "fusion_lat": 0.0}, {"is_disabled": 0, "rental_uris": {"android": "https://dc.lft.to/lastmile_qr_scan", "ios": "https://dc.lft.to/lastmile_qr_scan"}, "is_reserved": 0, "name": "338b8fbfb949ec3f60acd697830a8914", "lon": -77.032695, "type": "electric_scooter", "bike_id": "338b8fbfb949ec3f60acd697830a8914", "fusion_lon": 0.0, "lat": 38.93733183333333, "fusion_lat": 0.0}, {"is_disabled": 0, "rental_uris": {"android": "https://dc.lft.to/lastmile_qr_scan", "ios": "https://dc.lft.to/lastmile_qr_scan"}, "is_reserved": 0, "name": "007a01f2c7949d918519a6ec63ab593c", "lon": -77.03101766666667, "type": "electric_scooter", "bike_id": "007a01f2c7949d918519a6ec63ab593c", "fusion_lon": 0.0, "lat": 38.9354765, "fusion_lat": 0.0}, {"is_disabled": 0, "rental_uris": {"android": "https://dc.lft.to/lastmile_qr_scan", "ios": "https://dc.lft.to/lastmile_qr_scan"}, "is_reserved": 0, "name": "c29dca5493451d651f5e10f53d8c6e33", "lon": -76.92932533333334, "type": "electric_bike", "bike_id": "c29dca5493451d651f5e10f53d8c6e33", "fusion_lon": 0.0, "lat": 38.90291416666667, "fusion_lat": 0.0}, {"is_disabled": 0, "rental_uris": {"android": "https://dc.lft.to/lastmile_qr_scan", "ios": "https://dc.lft.to/lastmile_qr_scan"}, "is_reserved": 0, "name": "f2c8a3c295d80fd9657abdce3d943799", "lon": -76.96176433333333, "type": "electric_bike", "bike_id": "f2c8a3c295d80fd9657abdce3d943799", "fusion_lon": 0.0, "lat": 38.9185795, "fusion_lat": 0.0}, {"is_disabled": 0, "rental_uris": {"android": "https://dc.lft.to/lastmile_qr_scan", "ios": "https://dc.lft.to/lastmile_qr_scan"}, "is_reserved": 0, "name": "a4b8a369898ff7225d47175c9e79be14", "lon": -76.9338695, "type": "electric_scooter", "bike_id": "a4b8a369898ff7225d47175c9e79be14", "fusion_lon": 0.0, "lat": 38.8991595, "fusion_lat": 0.0}, {"is_disabled": 0, "rental_uris": {"android": "https://dc.lft.to/lastmile_qr_scan", "ios": "https://dc.lft.to/lastmile_qr_scan"}, "is_reserved": 0, "name": "6f39a4ff8a8e366954676c92c16c69cb", "lon": -77.031318, "type": "electric_scooter", "bike_id": "6f39a4ff8a8e366954676c92c16c69cb", "fusion_lon": 0.0, "lat": 38.92374783333333, "fusion_lat": 0.0}, {"is_disabled": 0, "rental_uris": {"android": "https://dc.lft.to/lastmile_qr_scan", "ios": "https://dc.lft.to/lastmile_qr_scan"}, "is_reserved": 0, "name": "47246476de73a9ce01df90da1f728e69", "lon": -77.02224416666667, "type": "electric_scooter", "bike_id": "47246476de73a9ce01df90da1f728e69", "fusion_lon": 0.0, "lat": 38.912697333333334, "fusion_lat": 0.0}, {"is_disabled": 0, "rental_uris": {"android": "https://dc.lft.to/lastmile_qr_scan", "ios": "https://dc.lft.to/lastmile_qr_scan"}, "is_reserved": 0, "name": "5f684872d5c0c8cb5d32362c8deb81fe", "lon": -76.99649133333334, "type": "electric_scooter", "bike_id": "5f684872d5c0c8cb5d32362c8deb81fe", "fusion_lon": 0.0, "lat": 38.8871985, "fusion_lat": 0.0}, {"is_disabled": 0, "rental_uris": {"android": "https://dc.lft.to/lastmile_qr_scan", "ios": "https://dc.lft.to/lastmile_qr_scan"}, "is_reserved": 0, "name": "4e2408a014e3767cd4f1f993a227a459", "lon": -76.97795733333334, "type": "electric_bike", "bike_id": "4e2408a014e3767cd4f1f993a227a459", "fusion_lon": 0.0, "lat": 38.896102, "fusion_lat": 0.0}, {"is_disabled": 0, "rental_uris": {"android": "https://dc.lft.to/lastmile_qr_scan", "ios": "https://dc.lft.to/lastmile_qr_scan"}, "is_reserved": 0, "name": "fa433f2184efb438477ae91d24ac401c", "lon": -77.02854483333333, "type": "electric_scooter", "bike_id": "fa433f2184efb438477ae91d24ac401c", "fusion_lon": 0.0, "lat": 38.90139666666666, "fusion_lat": 0.0}, {"is_disabled": 0, "rental_uris": {"android": "https://dc.lft.to/lastmile_qr_scan", "ios": "https://dc.lft.to/lastmile_qr_scan"}, "is_reserved": 0, "name": "216dd2216d879b77f5bb79bc9753c308", "lon": -77.02385166666667, "type": "electric_bike", "bike_id": "216dd2216d879b77f5bb79bc9753c308", "fusion_lon": 0.0, "lat": 38.990750166666665, "fusion_lat": 0.0}, {"is_disabled": 0, "rental_uris": {"android": "https://dc.lft.to/lastmile_qr_scan", "ios": "https://dc.lft.to/lastmile_qr_scan"}, "is_reserved": 0, "name": "ad74d77229e73dd61ae3bdd185f91ea0", "lon": -77.04820066666667, "type": "electric_scooter", "bike_id": "ad74d77229e73dd61ae3bdd185f91ea0", "fusion_lon": 0.0, "lat": 38.9203275, "fusion_lat": 0.0}, {"is_disabled": 0, "rental_uris": {"android": "https://dc.lft.to/lastmile_qr_scan", "ios": "https://dc.lft.to/lastmile_qr_scan"}, "is_reserved": 0, "name": "862fb26d47cefce3212243f011b98ad3", "lon": -77.04153933333333, "type": "electric_scooter", "bike_id": "862fb26d47cefce3212243f011b98ad3", "fusion_lon": 0.0, "lat": 38.91270866666667, "fusion_lat": 0.0}, {"is_disabled": 0, "rental_uris": {"android": "https://dc.lft.to/lastmile_qr_scan", "ios": "https://dc.lft.to/lastmile_qr_scan"}, "is_reserved": 0, "name": "ac168f2262d2fe05c390e72835800156", "lon": -77.04403966666666, "type": "electric_scooter", "bike_id": "ac168f2262d2fe05c390e72835800156", "fusion_lon": 0.0, "lat": 38.89396816666667, "fusion_lat": 0.0}, {"is_disabled": 0, "rental_uris": {"android": "https://dc.lft.to/lastmile_qr_scan", "ios": "https://dc.lft.to/lastmile_qr_scan"}, "is_reserved": 0, "name": "a4d764a86f92f138bf4e6a60120a294e", "lon": -77.0298155, "type": "electric_scooter", "bike_id": "a4d764a86f92f138bf4e6a60120a294e", "fusion_lon": 0.0, "lat": 38.92255083333333, "fusion_lat": 0.0}, {"is_disabled": 0, "rental_uris": {"android": "https://dc.lft.to/lastmile_qr_scan", "ios": "https://dc.lft.to/lastmile_qr_scan"}, "is_reserved": 0, "name": "5523c0758385b16cbab0c5608419ff3e", "lon": -77.0208215, "type": "electric_scooter", "bike_id": "5523c0758385b16cbab0c5608419ff3e", "fusion_lon": 0.0, "lat": 38.88123916666667, "fusion_lat": 0.0}, {"is_disabled": 0, "rental_uris": {"android": "https://dc.lft.to/lastmile_qr_scan", "ios": "https://dc.lft.to/lastmile_qr_scan"}, "is_reserved": 0, "name": "4ae7bc61714653175238891295c27d8e", "lon": -77.08827466666666, "type": "electric_bike", "bike_id": "4ae7bc61714653175238891295c27d8e", "fusion_lon": 0.0, "lat": 38.909712, "fusion_lat": 0.0}, {"is_disabled": 0, "rental_uris": {"android": "https://dc.lft.to/lastmile_qr_scan", "ios": "https://dc.lft.to/lastmile_qr_scan"}, "is_reserved": 0, "name": "d2695ac0d44da0c7382d4b57ee3091c6", "lon": -77.02704133333333, "type": "electric_scooter", "bike_id": "d2695ac0d44da0c7382d4b57ee3091c6", "fusion_lon": 0.0, "lat": 38.89656333333333, "fusion_lat": 0.0}, {"is_disabled": 0, "rental_uris": {"android": "https://dc.lft.to/lastmile_qr_scan", "ios": "https://dc.lft.to/lastmile_qr_scan"}, "is_reserved": 0, "name": "2ed056915b27534c732d80328f1103fc", "lon": -76.9888825, "type": "electric_scooter", "bike_id": "2ed056915b27534c732d80328f1103fc", "fusion_lon": 0.0, "lat": 38.8665845, "fusion_lat": 0.0}, {"is_disabled": 0, "rental_uris": {"android": "https://dc.lft.to/lastmile_qr_scan", "ios": "https://dc.lft.to/lastmile_qr_scan"}, "is_reserved": 0, "name": "fd4d8cc2ff690c4acd805fa4d039da61", "lon": -77.0428205, "type": "electric_scooter", "bike_id": "fd4d8cc2ff690c4acd805fa4d039da61", "fusion_lon": 0.0, "lat": 38.934161333333336, "fusion_lat": 0.0}, {"is_disabled": 0, "rental_uris": {"android": "https://dc.lft.to/lastmile_qr_scan", "ios": "https://dc.lft.to/lastmile_qr_scan"}, "is_reserved": 0, "name": "5dfffd829f2a5726e980e57c6b4dddfc", "lon": -77.00536733333334, "type": "electric_scooter", "bike_id": "5dfffd829f2a5726e980e57c6b4dddfc", "fusion_lon": 0.0, "lat": 38.874730166666666, "fusion_lat": 0.0}, {"is_disabled": 0, "rental_uris": {"android": "https://dc.lft.to/lastmile_qr_scan", "ios": "https://dc.lft.to/lastmile_qr_scan"}, "is_reserved": 0, "name": "fcace0192a0813638a0f25917fb66ad0", "lon": -77.03533583333333, "type": "electric_scooter", "bike_id": "fcace0192a0813638a0f25917fb66ad0", "fusion_lon": 0.0, "lat": 38.9234105, "fusion_lat": 0.0}, {"is_disabled": 0, "rental_uris": {"android": "https://dc.lft.to/lastmile_qr_scan", "ios": "https://dc.lft.to/lastmile_qr_scan"}, "is_reserved": 0, "name": "ea5178ecfe6f73ebc1fd4ea8df26e301", "lon": -77.03488183333333, "type": "electric_scooter", "bike_id": "ea5178ecfe6f73ebc1fd4ea8df26e301", "fusion_lon": 0.0, "lat": 38.924841666666666, "fusion_lat": 0.0}, {"is_disabled": 0, "rental_uris": {"android": "https://dc.lft.to/lastmile_qr_scan", "ios": "https://dc.lft.to/lastmile_qr_scan"}, "is_reserved": 0, "name": "550e2967338367222e271423223353eb", "lon": -77.12750066666666, "type": "electric_bike", "bike_id": "550e2967338367222e271423223353eb", "fusion_lon": 0.0, "lat": 38.888273833333336, "fusion_lat": 0.0}, {"is_disabled": 0, "rental_uris": {"android": "https://dc.lft.to/lastmile_qr_scan", "ios": "https://dc.lft.to/lastmile_qr_scan"}, "is_reserved": 0, "name": "55a418d4fd0a00c50e1a7f9900835b58", "lon": -76.9655555, "type": "electric_scooter", "bike_id": "55a418d4fd0a00c50e1a7f9900835b58", "fusion_lon": 0.0, "lat": 38.918391, "fusion_lat": 0.0}, {"is_disabled": 0, "rental_uris": {"android": "https://dc.lft.to/lastmile_qr_scan", "ios": "https://dc.lft.to/lastmile_qr_scan"}, "is_reserved": 0, "name": "a3c96c428afa1a2eb27491b75f2c2a8f", "lon": -77.021645, "type": "electric_scooter", "bike_id": "a3c96c428afa1a2eb27491b75f2c2a8f", "fusion_lon": 0.0, "lat": 38.92616483333333, "fusion_lat": 0.0}, {"is_disabled": 0, "rental_uris": {"android": "https://dc.lft.to/lastmile_qr_scan", "ios": "https://dc.lft.to/lastmile_qr_scan"}, "is_reserved": 0, "name": "85a329b4b35f33f32d285a434fddbe49", "lon": -77.069009, "type": "electric_scooter", "bike_id": "85a329b4b35f33f32d285a434fddbe49", "fusion_lon": 0.0, "lat": 38.9078645, "fusion_lat": 0.0}, {"is_disabled": 0, "rental_uris": {"android": "https://dc.lft.to/lastmile_qr_scan", "ios": "https://dc.lft.to/lastmile_qr_scan"}, "is_reserved": 0, "name": "73d9bdd8a5e593d55c45079932e80312", "lon": -76.98614666666667, "type": "electric_scooter", "bike_id": "73d9bdd8a5e593d55c45079932e80312", "fusion_lon": 0.0, "lat": 38.903490166666664, "fusion_lat": 0.0}, {"is_disabled": 0, "rental_uris": {"android": "https://dc.lft.to/lastmile_qr_scan", "ios": "https://dc.lft.to/lastmile_qr_scan"}, "is_reserved": 0, "name": "ab89121cd63a3b0b5bb5ddeae2fe68ed", "lon": -77.0372965, "type": "electric_scooter", "bike_id": "ab89121cd63a3b0b5bb5ddeae2fe68ed", "fusion_lon": 0.0, "lat": 38.911169666666666, "fusion_lat": 0.0}, {"is_disabled": 0, "rental_uris": {"android": "https://dc.lft.to/lastmile_qr_scan", "ios": "https://dc.lft.to/lastmile_qr_scan"}, "is_reserved": 0, "name": "8f0e5f0d41ffa6b9f2919d49b866e4a6", "lon": -77.0499905, "type": "electric_scooter", "bike_id": "8f0e5f0d41ffa6b9f2919d49b866e4a6", "fusion_lon": 0.0, "lat": 38.892328166666665, "fusion_lat": 0.0}, {"is_disabled": 0, "rental_uris": {"android": "https://dc.lft.to/lastmile_qr_scan", "ios": "https://dc.lft.to/lastmile_qr_scan"}, "is_reserved": 0, "name": "c8e112b9d9f8e50fbc913055ae1f7a7b", "lon": -76.994884, "type": "electric_scooter", "bike_id": "c8e112b9d9f8e50fbc913055ae1f7a7b", "fusion_lon": 0.0, "lat": 38.862366, "fusion_lat": 0.0}, {"is_disabled": 0, "rental_uris": {"android": "https://dc.lft.to/lastmile_qr_scan", "ios": "https://dc.lft.to/lastmile_qr_scan"}, "is_reserved": 0, "name": "5aae520e950b667af3fe668f834b1d26", "lon": -77.02177383333333, "type": "electric_scooter", "bike_id": "5aae520e950b667af3fe668f834b1d26", "fusion_lon": 0.0, "lat": 38.89511316666667, "fusion_lat": 0.0}, {"is_disabled": 0, "rental_uris": {"android": "https://dc.lft.to/lastmile_qr_scan", "ios": "https://dc.lft.to/lastmile_qr_scan"}, "is_reserved": 0, "name": "351d9a48345c29ed836079ab900696f1", "lon": -77.04345283333333, "type": "electric_scooter", "bike_id": "351d9a48345c29ed836079ab900696f1", "fusion_lon": 0.0, "lat": 38.921665833333336, "fusion_lat": 0.0}, {"is_disabled": 0, "rental_uris": {"android": "https://dc.lft.to/lastmile_qr_scan", "ios": "https://dc.lft.to/lastmile_qr_scan"}, "is_reserved": 0, "name": "4ad8052908edeff529a2a9fc7ad7fbc2", "lon": -77.03169116666666, "type": "electric_scooter", "bike_id": "4ad8052908edeff529a2a9fc7ad7fbc2", "fusion_lon": 0.0, "lat": 38.891874, "fusion_lat": 0.0}, {"is_disabled": 0, "rental_uris": {"android": "https://dc.lft.to/lastmile_qr_scan", "ios": "https://dc.lft.to/lastmile_qr_scan"}, "is_reserved": 0, "name": "7e1e83842ff855ca36015876a7b2f0a5", "lon": -77.027774, "type": "electric_scooter", "bike_id": "7e1e83842ff855ca36015876a7b2f0a5", "fusion_lon": 0.0, "lat": 38.91015316666667, "fusion_lat": 0.0}, {"is_disabled": 0, "rental_uris": {"android": "https://dc.lft.to/lastmile_qr_scan", "ios": "https://dc.lft.to/lastmile_qr_scan"}, "is_reserved": 0, "name": "5c69451038b26895f29205f9070dee79", "lon": -76.98619033333334, "type": "electric_scooter", "bike_id": "5c69451038b26895f29205f9070dee79", "fusion_lon": 0.0, "lat": 38.882766, "fusion_lat": 0.0}, {"is_disabled": 0, "rental_uris": {"android": "https://dc.lft.to/lastmile_qr_scan", "ios": "https://dc.lft.to/lastmile_qr_scan"}, "is_reserved": 0, "name": "46ae891dcda7ad8ebf58db3d9de6f1d3", "lon": -77.03463116666667, "type": "electric_scooter", "bike_id": "46ae891dcda7ad8ebf58db3d9de6f1d3", "fusion_lon": 0.0, "lat": 38.92149783333333, "fusion_lat": 0.0}, {"is_disabled": 0, "rental_uris": {"android": "https://dc.lft.to/lastmile_qr_scan", "ios": "https://dc.lft.to/lastmile_qr_scan"}, "is_reserved": 0, "name": "d78f55397c175060c817de386ccd56df", "lon": -77.0327915, "type": "electric_scooter", "bike_id": "d78f55397c175060c817de386ccd56df", "fusion_lon": 0.0, "lat": 38.907276, "fusion_lat": 0.0}, {"is_disabled": 0, "rental_uris": {"android": "https://dc.lft.to/lastmile_qr_scan", "ios": "https://dc.lft.to/lastmile_qr_scan"}, "is_reserved": 0, "name": "f339e43de83ea87a2caf635a8afba07f", "lon": -77.02401283333333, "type": "electric_scooter", "bike_id": "f339e43de83ea87a2caf635a8afba07f", "fusion_lon": 0.0, "lat": 38.892494666666664, "fusion_lat": 0.0}, {"is_disabled": 0, "rental_uris": {"android": "https://dc.lft.to/lastmile_qr_scan", "ios": "https://dc.lft.to/lastmile_qr_scan"}, "is_reserved": 0, "name": "70eeba236595257931e4a41663dbdbc6", "lon": -76.94868383333333, "type": "electric_bike", "bike_id": "70eeba236595257931e4a41663dbdbc6", "fusion_lon": 0.0, "lat": 38.8897555, "fusion_lat": 0.0}, {"is_disabled": 0, "rental_uris": {"android": "https://dc.lft.to/lastmile_qr_scan", "ios": "https://dc.lft.to/lastmile_qr_scan"}, "is_reserved": 0, "name": "77761331660c6fb32ccac784d9154757", "lon": -76.98379566666667, "type": "electric_scooter", "bike_id": "77761331660c6fb32ccac784d9154757", "fusion_lon": 0.0, "lat": 38.8444175, "fusion_lat": 0.0}, {"is_disabled": 0, "rental_uris": {"android": "https://dc.lft.to/lastmile_qr_scan", "ios": "https://dc.lft.to/lastmile_qr_scan"}, "is_reserved": 0, "name": "1a4662e404f6d35ba03c957d202c4ad9", "lon": -76.87773916666667, "type": "electric_bike", "bike_id": "1a4662e404f6d35ba03c957d202c4ad9", "fusion_lon": 0.0, "lat": 38.99222133333333, "fusion_lat": 0.0}, {"is_disabled": 0, "rental_uris": {"android": "https://dc.lft.to/lastmile_qr_scan", "ios": "https://dc.lft.to/lastmile_qr_scan"}, "is_reserved": 0, "name": "52caa6ca45771f03292d3862a535b992", "lon": -77.01655616666666, "type": "electric_scooter", "bike_id": "52caa6ca45771f03292d3862a535b992", "fusion_lon": 0.0, "lat": 38.92893933333333, "fusion_lat": 0.0}, {"is_disabled": 0, "rental_uris": {"android": "https://dc.lft.to/lastmile_qr_scan", "ios": "https://dc.lft.to/lastmile_qr_scan"}, "is_reserved": 0, "name": "885f2b18df3c4fd798d11a35dd2d6b93", "lon": -77.01486, "type": "electric_scooter", "bike_id": "885f2b18df3c4fd798d11a35dd2d6b93", "fusion_lon": 0.0, "lat": 38.87633683333333, "fusion_lat": 0.0}, {"is_disabled": 0, "rental_uris": {"android": "https://dc.lft.to/lastmile_qr_scan", "ios": "https://dc.lft.to/lastmile_qr_scan"}, "is_reserved": 0, "name": "a5b41257604a120b17690cb34505e0fd", "lon": -77.0078325, "type": "electric_bike", "bike_id": "a5b41257604a120b17690cb34505e0fd", "fusion_lon": 0.0, "lat": 38.9812805, "fusion_lat": 0.0}, {"is_disabled": 0, "rental_uris": {"android": "https://dc.lft.to/lastmile_qr_scan", "ios": "https://dc.lft.to/lastmile_qr_scan"}, "is_reserved": 0, "name": "1c76ebf5e5dede9f28e950f3cdaa9138", "lon": -77.01314183333334, "type": "electric_scooter", "bike_id": "1c76ebf5e5dede9f28e950f3cdaa9138", "fusion_lon": 0.0, "lat": 38.90141, "fusion_lat": 0.0}, {"is_disabled": 0, "rental_uris": {"android": "https://dc.lft.to/lastmile_qr_scan", "ios": "https://dc.lft.to/lastmile_qr_scan"}, "is_reserved": 0, "name": "500d908831f7911fa8904a95cf271216", "lon": -76.9638875, "type": "electric_bike", "bike_id": "500d908831f7911fa8904a95cf271216", "fusion_lon": 0.0, "lat": 38.975789666666664, "fusion_lat": 0.0}, {"is_disabled": 0, "rental_uris": {"android": "https://dc.lft.to/lastmile_qr_scan", "ios": "https://dc.lft.to/lastmile_qr_scan"}, "is_reserved": 0, "name": "b9bfc57b430137344295806a37779e79", "lon": -77.02964933333334, "type": "electric_scooter", "bike_id": "b9bfc57b430137344295806a37779e79", "fusion_lon": 0.0, "lat": 38.92462116666667, "fusion_lat": 0.0}, {"is_disabled": 0, "rental_uris": {"android": "https://dc.lft.to/lastmile_qr_scan", "ios": "https://dc.lft.to/lastmile_qr_scan"}, "is_reserved": 0, "name": "ef66decbb522d774b4f61f451af8e70c", "lon": -77.03998716666666, "type": "electric_scooter", "bike_id": "ef66decbb522d774b4f61f451af8e70c", "fusion_lon": 0.0, "lat": 38.914157833333334, "fusion_lat": 0.0}, {"is_disabled": 0, "rental_uris": {"android": "https://dc.lft.to/lastmile_qr_scan", "ios": "https://dc.lft.to/lastmile_qr_scan"}, "is_reserved": 0, "name": "30c1e852f370afdd22502ccad46f7d0e", "lon": -77.03463183333334, "type": "electric_scooter", "bike_id": "30c1e852f370afdd22502ccad46f7d0e", "fusion_lon": 0.0, "lat": 38.921617833333336, "fusion_lat": 0.0}, {"is_disabled": 0, "rental_uris": {"android": "https://dc.lft.to/lastmile_qr_scan", "ios": "https://dc.lft.to/lastmile_qr_scan"}, "is_reserved": 0, "name": "3c5818e26b076ddecd1bce367fd14d06", "lon": -77.04381016666666, "type": "electric_scooter", "bike_id": "3c5818e26b076ddecd1bce367fd14d06", "fusion_lon": 0.0, "lat": 38.91052116666667, "fusion_lat": 0.0}, {"is_disabled": 0, "rental_uris": {"android": "https://dc.lft.to/lastmile_qr_scan", "ios": "https://dc.lft.to/lastmile_qr_scan"}, "is_reserved": 0, "name": "0c1bbaa296ab5b08f16639e3ebd69595", "lon": -77.0293385, "type": "electric_scooter", "bike_id": "0c1bbaa296ab5b08f16639e3ebd69595", "fusion_lon": 0.0, "lat": 38.9040825, "fusion_lat": 0.0}, {"is_disabled": 0, "rental_uris": {"android": "https://dc.lft.to/lastmile_qr_scan", "ios": "https://dc.lft.to/lastmile_qr_scan"}, "is_reserved": 0, "name": "15bfab9e8764f3c523113e6f0416a1e4", "lon": -77.03795233333334, "type": "electric_scooter", "bike_id": "15bfab9e8764f3c523113e6f0416a1e4", "fusion_lon": 0.0, "lat": 38.9302555, "fusion_lat": 0.0}, {"is_disabled": 0, "rental_uris": {"android": "https://dc.lft.to/lastmile_qr_scan", "ios": "https://dc.lft.to/lastmile_qr_scan"}, "is_reserved": 0, "name": "4fbc17ca753aa192def3c5915593748b", "lon": -77.03268466666667, "type": "electric_scooter", "bike_id": "4fbc17ca753aa192def3c5915593748b", "fusion_lon": 0.0, "lat": 38.9333515, "fusion_lat": 0.0}, {"is_disabled": 0, "rental_uris": {"android": "https://dc.lft.to/lastmile_qr_scan", "ios": "https://dc.lft.to/lastmile_qr_scan"}, "is_reserved": 0, "name": "744d95442d03065983fb3a609e8fb1b3", "lon": -76.94718866666666, "type": "electric_scooter", "bike_id": "744d95442d03065983fb3a609e8fb1b3", "fusion_lon": 0.0, "lat": 38.897011166666665, "fusion_lat": 0.0}, {"is_disabled": 0, "rental_uris": {"android": "https://dc.lft.to/lastmile_qr_scan", "ios": "https://dc.lft.to/lastmile_qr_scan"}, "is_reserved": 0, "name": "391919ffa789888b464ab5f99412f8d8", "lon": -76.9919335, "type": "electric_scooter", "bike_id": "391919ffa789888b464ab5f99412f8d8", "fusion_lon": 0.0, "lat": 38.88960266666667, "fusion_lat": 0.0}, {"is_disabled": 0, "rental_uris": {"android": "https://dc.lft.to/lastmile_qr_scan", "ios": "https://dc.lft.to/lastmile_qr_scan"}, "is_reserved": 0, "name": "5791265af2cfa9294fd87457a09e9f0b", "lon": -77.02791483333333, "type": "electric_scooter", "bike_id": "5791265af2cfa9294fd87457a09e9f0b", "fusion_lon": 0.0, "lat": 38.9277635, "fusion_lat": 0.0}, {"is_disabled": 0, "rental_uris": {"android": "https://dc.lft.to/lastmile_qr_scan", "ios": "https://dc.lft.to/lastmile_qr_scan"}, "is_reserved": 0, "name": "ed0da89929c7e3d55bcfff81156e0a34", "lon": -77.03086033333334, "type": "electric_scooter", "bike_id": "ed0da89929c7e3d55bcfff81156e0a34", "fusion_lon": 0.0, "lat": 38.95830633333333, "fusion_lat": 0.0}, {"is_disabled": 0, "rental_uris": {"android": "https://dc.lft.to/lastmile_qr_scan", "ios": "https://dc.lft.to/lastmile_qr_scan"}, "is_reserved": 0, "name": "8bb7e0a7ae1d688d207e7924b11b7665", "lon": -77.00566633333334, "type": "electric_scooter", "bike_id": "8bb7e0a7ae1d688d207e7924b11b7665", "fusion_lon": 0.0, "lat": 38.8850625, "fusion_lat": 0.0}, {"is_disabled": 0, "rental_uris": {"android": "https://dc.lft.to/lastmile_qr_scan", "ios": "https://dc.lft.to/lastmile_qr_scan"}, "is_reserved": 0, "name": "11f55d888e4eb5bf0d30dd68b7c78630", "lon": -77.060077, "type": "electric_scooter", "bike_id": "11f55d888e4eb5bf0d30dd68b7c78630", "fusion_lon": 0.0, "lat": 38.905321666666666, "fusion_lat": 0.0}, {"is_disabled": 0, "rental_uris": {"android": "https://dc.lft.to/lastmile_qr_scan", "ios": "https://dc.lft.to/lastmile_qr_scan"}, "is_reserved": 0, "name": "c1ea2edfecdffd7aaca37234562e8bb7", "lon": -77.0338725, "type": "electric_scooter", "bike_id": "c1ea2edfecdffd7aaca37234562e8bb7", "fusion_lon": 0.0, "lat": 38.9191795, "fusion_lat": 0.0}, {"is_disabled": 0, "rental_uris": {"android": "https://dc.lft.to/lastmile_qr_scan", "ios": "https://dc.lft.to/lastmile_qr_scan"}, "is_reserved": 0, "name": "98c849fa86db1e219698011cb0ac03a5", "lon": -77.01648233333333, "type": "electric_scooter", "bike_id": "98c849fa86db1e219698011cb0ac03a5", "fusion_lon": 0.0, "lat": 38.876354166666665, "fusion_lat": 0.0}, {"is_disabled": 0, "rental_uris": {"android": "https://dc.lft.to/lastmile_qr_scan", "ios": "https://dc.lft.to/lastmile_qr_scan"}, "is_reserved": 0, "name": "51d5780f8d601f97cce99645eab0cdc9", "lon": -77.01777683333333, "type": "electric_scooter", "bike_id": "51d5780f8d601f97cce99645eab0cdc9", "fusion_lon": 0.0, "lat": 38.921218833333334, "fusion_lat": 0.0}, {"is_disabled": 0, "rental_uris": {"android": "https://dc.lft.to/lastmile_qr_scan", "ios": "https://dc.lft.to/lastmile_qr_scan"}, "is_reserved": 0, "name": "ec5aafe73d756db7724ccb0adb0d3b23", "lon": -77.0472645, "type": "electric_scooter", "bike_id": "ec5aafe73d756db7724ccb0adb0d3b23", "fusion_lon": 0.0, "lat": 38.8982935, "fusion_lat": 0.0}, {"is_disabled": 0, "rental_uris": {"android": "https://dc.lft.to/lastmile_qr_scan", "ios": "https://dc.lft.to/lastmile_qr_scan"}, "is_reserved": 0, "name": "63ab3a8bc1ca71bf877509b1c33e3031", "lon": -77.04164066666667, "type": "electric_scooter", "bike_id": "63ab3a8bc1ca71bf877509b1c33e3031", "fusion_lon": 0.0, "lat": 38.9131585, "fusion_lat": 0.0}, {"is_disabled": 0, "rental_uris": {"android": "https://dc.lft.to/lastmile_qr_scan", "ios": "https://dc.lft.to/lastmile_qr_scan"}, "is_reserved": 0, "name": "e9cefb3d44671b67b3f1bc97f98e2433", "lon": -76.97422, "type": "electric_scooter", "bike_id": "e9cefb3d44671b67b3f1bc97f98e2433", "fusion_lon": 0.0, "lat": 38.8651345, "fusion_lat": 0.0}, {"is_disabled": 0, "rental_uris": {"android": "https://dc.lft.to/lastmile_qr_scan", "ios": "https://dc.lft.to/lastmile_qr_scan"}, "is_reserved": 0, "name": "611e93f9df5df6bfa6ebc91b47017ec2", "lon": -77.06763416666666, "type": "electric_scooter", "bike_id": "611e93f9df5df6bfa6ebc91b47017ec2", "fusion_lon": 0.0, "lat": 38.9497685, "fusion_lat": 0.0}, {"is_disabled": 0, "rental_uris": {"android": "https://dc.lft.to/lastmile_qr_scan", "ios": "https://dc.lft.to/lastmile_qr_scan"}, "is_reserved": 0, "name": "531263817c490f3d4e50c4e0a44702b4", "lon": -77.02231783333333, "type": "electric_scooter", "bike_id": "531263817c490f3d4e50c4e0a44702b4", "fusion_lon": 0.0, "lat": 38.915705, "fusion_lat": 0.0}, {"is_disabled": 0, "rental_uris": {"android": "https://dc.lft.to/lastmile_qr_scan", "ios": "https://dc.lft.to/lastmile_qr_scan"}, "is_reserved": 0, "name": "b5dd35c927475e52b101b9a2ee7ceb05", "lon": -77.04954466666666, "type": "electric_bike", "bike_id": "b5dd35c927475e52b101b9a2ee7ceb05", "fusion_lon": 0.0, "lat": 38.91105183333333, "fusion_lat": 0.0}, {"is_disabled": 0, "rental_uris": {"android": "https://dc.lft.to/lastmile_qr_scan", "ios": "https://dc.lft.to/lastmile_qr_scan"}, "is_reserved": 0, "name": "736d0f577f8e2ef1302b80a8eae25a23", "lon": -77.0819765, "type": "electric_bike", "bike_id": "736d0f577f8e2ef1302b80a8eae25a23", "fusion_lon": 0.0, "lat": 38.922109666666664, "fusion_lat": 0.0}, {"is_disabled": 0, "rental_uris": {"android": "https://dc.lft.to/lastmile_qr_scan", "ios": "https://dc.lft.to/lastmile_qr_scan"}, "is_reserved": 0, "name": "b4b4b905d71dd442c7af5bbc58604664", "lon": -76.972212, "type": "electric_bike", "bike_id": "b4b4b905d71dd442c7af5bbc58604664", "fusion_lon": 0.0, "lat": 38.844842166666666, "fusion_lat": 0.0}, {"is_disabled": 0, "rental_uris": {"android": "https://dc.lft.to/lastmile_qr_scan", "ios": "https://dc.lft.to/lastmile_qr_scan"}, "is_reserved": 0, "name": "59b19da4ea430012571e418c4b94d0aa", "lon": -77.05155816666667, "type": "electric_scooter", "bike_id": "59b19da4ea430012571e418c4b94d0aa", "fusion_lon": 0.0, "lat": 38.9004765, "fusion_lat": 0.0}, {"is_disabled": 0, "rental_uris": {"android": "https://dc.lft.to/lastmile_qr_scan", "ios": "https://dc.lft.to/lastmile_qr_scan"}, "is_reserved": 0, "name": "a168d443e8b87b65f7fc8eb6532b8650", "lon": -77.02695133333333, "type": "electric_scooter", "bike_id": "a168d443e8b87b65f7fc8eb6532b8650", "fusion_lon": 0.0, "lat": 38.908789666666664, "fusion_lat": 0.0}, {"is_disabled": 0, "rental_uris": {"android": "https://dc.lft.to/lastmile_qr_scan", "ios": "https://dc.lft.to/lastmile_qr_scan"}, "is_reserved": 0, "name": "75ea55ba3b5b9da048394fec84104886", "lon": -77.02909033333333, "type": "electric_bike", "bike_id": "75ea55ba3b5b9da048394fec84104886", "fusion_lon": 0.0, "lat": 38.9989985, "fusion_lat": 0.0}, {"is_disabled": 0, "rental_uris": {"android": "https://dc.lft.to/lastmile_qr_scan", "ios": "https://dc.lft.to/lastmile_qr_scan"}, "is_reserved": 0, "name": "6210f22f4ef01e1b0bac40bc1443fcd3", "lon": -77.010173, "type": "electric_scooter", "bike_id": "6210f22f4ef01e1b0bac40bc1443fcd3", "fusion_lon": 0.0, "lat": 38.8672365, "fusion_lat": 0.0}, {"is_disabled": 0, "rental_uris": {"android": "https://dc.lft.to/lastmile_qr_scan", "ios": "https://dc.lft.to/lastmile_qr_scan"}, "is_reserved": 0, "name": "3c7ae995ffef77f5d6007fc9331b283a", "lon": -77.030608, "type": "electric_scooter", "bike_id": "3c7ae995ffef77f5d6007fc9331b283a", "fusion_lon": 0.0, "lat": 38.901272, "fusion_lat": 0.0}, {"is_disabled": 0, "rental_uris": {"android": "https://dc.lft.to/lastmile_qr_scan", "ios": "https://dc.lft.to/lastmile_qr_scan"}, "is_reserved": 0, "name": "ba473955dba765a177d625fe5be5f9d6", "lon": -77.0513775, "type": "electric_scooter", "bike_id": "ba473955dba765a177d625fe5be5f9d6", "fusion_lon": 0.0, "lat": 38.907151166666665, "fusion_lat": 0.0}, {"is_disabled": 0, "rental_uris": {"android": "https://dc.lft.to/lastmile_qr_scan", "ios": "https://dc.lft.to/lastmile_qr_scan"}, "is_reserved": 0, "name": "b9660468b44f486078ee7561576c1cc4", "lon": -76.96550783333333, "type": "electric_scooter", "bike_id": "b9660468b44f486078ee7561576c1cc4", "fusion_lon": 0.0, "lat": 38.91839566666667, "fusion_lat": 0.0}, {"is_disabled": 0, "rental_uris": {"android": "https://dc.lft.to/lastmile_qr_scan", "ios": "https://dc.lft.to/lastmile_qr_scan"}, "is_reserved": 0, "name": "479c53f7db7bdb4979c14464a3412a44", "lon": -77.0140765, "type": "electric_scooter", "bike_id": "479c53f7db7bdb4979c14464a3412a44", "fusion_lon": 0.0, "lat": 38.928393166666666, "fusion_lat": 0.0}, {"is_disabled": 0, "rental_uris": {"android": "https://dc.lft.to/lastmile_qr_scan", "ios": "https://dc.lft.to/lastmile_qr_scan"}, "is_reserved": 0, "name": "0957fdc383b04712f42119212a23aa0a", "lon": -76.909637, "type": "electric_bike", "bike_id": "0957fdc383b04712f42119212a23aa0a", "fusion_lon": 0.0, "lat": 38.85410233333333, "fusion_lat": 0.0}, {"is_disabled": 0, "rental_uris": {"android": "https://dc.lft.to/lastmile_qr_scan", "ios": "https://dc.lft.to/lastmile_qr_scan"}, "is_reserved": 0, "name": "a6e8089fc736713aa1e930e154821b10", "lon": -77.02204766666667, "type": "electric_scooter", "bike_id": "a6e8089fc736713aa1e930e154821b10", "fusion_lon": 0.0, "lat": 38.9112905, "fusion_lat": 0.0}, {"is_disabled": 0, "rental_uris": {"android": "https://dc.lft.to/lastmile_qr_scan", "ios": "https://dc.lft.to/lastmile_qr_scan"}, "is_reserved": 0, "name": "28e0489129d8f31f992f124ded16a709", "lon": -76.941579, "type": "electric_scooter", "bike_id": "28e0489129d8f31f992f124ded16a709", "fusion_lon": 0.0, "lat": 38.883647, "fusion_lat": 0.0}, {"is_disabled": 0, "rental_uris": {"android": "https://dc.lft.to/lastmile_qr_scan", "ios": "https://dc.lft.to/lastmile_qr_scan"}, "is_reserved": 0, "name": "941738aa922fdf5cdd7786601b34e917", "lon": -77.031364, "type": "electric_bike", "bike_id": "941738aa922fdf5cdd7786601b34e917", "fusion_lon": 0.0, "lat": 38.962816333333336, "fusion_lat": 0.0}, {"is_disabled": 0, "rental_uris": {"android": "https://dc.lft.to/lastmile_qr_scan", "ios": "https://dc.lft.to/lastmile_qr_scan"}, "is_reserved": 0, "name": "0797b4d2ccb150b11e1176f3797f1f15", "lon": -76.93740516666666, "type": "electric_scooter", "bike_id": "0797b4d2ccb150b11e1176f3797f1f15", "fusion_lon": 0.0, "lat": 38.890164666666664, "fusion_lat": 0.0}, {"is_disabled": 0, "rental_uris": {"android": "https://dc.lft.to/lastmile_qr_scan", "ios": "https://dc.lft.to/lastmile_qr_scan"}, "is_reserved": 0, "name": "77ffe44f4e7682a02d8120ced31915b6", "lon": -77.05330733333334, "type": "electric_scooter", "bike_id": "77ffe44f4e7682a02d8120ced31915b6", "fusion_lon": 0.0, "lat": 38.903129666666665, "fusion_lat": 0.0}, {"is_disabled": 0, "rental_uris": {"android": "https://dc.lft.to/lastmile_qr_scan", "ios": "https://dc.lft.to/lastmile_qr_scan"}, "is_reserved": 0, "name": "ce08845238570f1af2fbfe29161b1379", "lon": -77.0323845, "type": "electric_scooter", "bike_id": "ce08845238570f1af2fbfe29161b1379", "fusion_lon": 0.0, "lat": 38.924932, "fusion_lat": 0.0}, {"is_disabled": 0, "rental_uris": {"android": "https://dc.lft.to/lastmile_qr_scan", "ios": "https://dc.lft.to/lastmile_qr_scan"}, "is_reserved": 0, "name": "6ad02f12ca7290b2d682cff9f7bfa7db", "lon": -77.05299216666667, "type": "electric_scooter", "bike_id": "6ad02f12ca7290b2d682cff9f7bfa7db", "fusion_lon": 0.0, "lat": 38.9034095, "fusion_lat": 0.0}, {"is_disabled": 0, "rental_uris": {"android": "https://dc.lft.to/lastmile_qr_scan", "ios": "https://dc.lft.to/lastmile_qr_scan"}, "is_reserved": 0, "name": "24f9c75b4c79408fa6ed36b6765f3399", "lon": -77.0222725, "type": "electric_scooter", "bike_id": "24f9c75b4c79408fa6ed36b6765f3399", "fusion_lon": 0.0, "lat": 38.91413983333333, "fusion_lat": 0.0}, {"is_disabled": 0, "rental_uris": {"android": "https://dc.lft.to/lastmile_qr_scan", "ios": "https://dc.lft.to/lastmile_qr_scan"}, "is_reserved": 0, "name": "c9f0978f9a52f7d648e429cf39b64873", "lon": -77.02258733333333, "type": "electric_scooter", "bike_id": "c9f0978f9a52f7d648e429cf39b64873", "fusion_lon": 0.0, "lat": 38.92827233333333, "fusion_lat": 0.0}, {"is_disabled": 0, "rental_uris": {"android": "https://dc.lft.to/lastmile_qr_scan", "ios": "https://dc.lft.to/lastmile_qr_scan"}, "is_reserved": 0, "name": "4a0065790807c067a24941c5356741fd", "lon": -77.03665166666667, "type": "electric_scooter", "bike_id": "4a0065790807c067a24941c5356741fd", "fusion_lon": 0.0, "lat": 38.921452, "fusion_lat": 0.0}, {"is_disabled": 0, "rental_uris": {"android": "https://dc.lft.to/lastmile_qr_scan", "ios": "https://dc.lft.to/lastmile_qr_scan"}, "is_reserved": 0, "name": "82a5bc79677e44cfbb469a3cc106b041", "lon": -77.0379285, "type": "electric_scooter", "bike_id": "82a5bc79677e44cfbb469a3cc106b041", "fusion_lon": 0.0, "lat": 38.93602633333333, "fusion_lat": 0.0}, {"is_disabled": 0, "rental_uris": {"android": "https://dc.lft.to/lastmile_qr_scan", "ios": "https://dc.lft.to/lastmile_qr_scan"}, "is_reserved": 0, "name": "7687ced210ce5c80b32ba03c492a65bf", "lon": -77.06100433333333, "type": "electric_scooter", "bike_id": "7687ced210ce5c80b32ba03c492a65bf", "fusion_lon": 0.0, "lat": 38.943727833333334, "fusion_lat": 0.0}, {"is_disabled": 0, "rental_uris": {"android": "https://dc.lft.to/lastmile_qr_scan", "ios": "https://dc.lft.to/lastmile_qr_scan"}, "is_reserved": 0, "name": "6d567c2ca14e6a689c658e76060c0243", "lon": -77.054247, "type": "electric_scooter", "bike_id": "6d567c2ca14e6a689c658e76060c0243", "fusion_lon": 0.0, "lat": 38.92830083333333, "fusion_lat": 0.0}, {"is_disabled": 0, "rental_uris": {"android": "https://dc.lft.to/lastmile_qr_scan", "ios": "https://dc.lft.to/lastmile_qr_scan"}, "is_reserved": 0, "name": "1eea1a9d07716c21462de37bb382e7eb", "lon": -77.04204033333333, "type": "electric_scooter", "bike_id": "1eea1a9d07716c21462de37bb382e7eb", "fusion_lon": 0.0, "lat": 38.91125983333333, "fusion_lat": 0.0}, {"is_disabled": 0, "rental_uris": {"android": "https://dc.lft.to/lastmile_qr_scan", "ios": "https://dc.lft.to/lastmile_qr_scan"}, "is_reserved": 0, "name": "c6dcd81a445c3c7b713175f14ee075da", "lon": -77.04212633333333, "type": "electric_scooter", "bike_id": "c6dcd81a445c3c7b713175f14ee075da", "fusion_lon": 0.0, "lat": 38.90402533333334, "fusion_lat": 0.0}, {"is_disabled": 0, "rental_uris": {"android": "https://dc.lft.to/lastmile_qr_scan", "ios": "https://dc.lft.to/lastmile_qr_scan"}, "is_reserved": 0, "name": "a45355c6d69b9ca577de6ea51a9db382", "lon": -76.994009, "type": "electric_scooter", "bike_id": "a45355c6d69b9ca577de6ea51a9db382", "fusion_lon": 0.0, "lat": 38.92168433333333, "fusion_lat": 0.0}, {"is_disabled": 0, "rental_uris": {"android": "https://dc.lft.to/lastmile_qr_scan", "ios": "https://dc.lft.to/lastmile_qr_scan"}, "is_reserved": 0, "name": "ebe136978a2f939cda68238ef9fdb4d2", "lon": -77.0274925, "type": "electric_scooter", "bike_id": "ebe136978a2f939cda68238ef9fdb4d2", "fusion_lon": 0.0, "lat": 38.93582383333333, "fusion_lat": 0.0}, {"is_disabled": 0, "rental_uris": {"android": "https://dc.lft.to/lastmile_qr_scan", "ios": "https://dc.lft.to/lastmile_qr_scan"}, "is_reserved": 0, "name": "3c4dce25bf11f6aa75e997275ab8af6b", "lon": -76.97358666666666, "type": "electric_bike", "bike_id": "3c4dce25bf11f6aa75e997275ab8af6b", "fusion_lon": 0.0, "lat": 38.865814666666665, "fusion_lat": 0.0}, {"is_disabled": 0, "rental_uris": {"android": "https://dc.lft.to/lastmile_qr_scan", "ios": "https://dc.lft.to/lastmile_qr_scan"}, "is_reserved": 0, "name": "41e3ec571a0a2749d3a20dc8449acbe4", "lon": -77.00227966666667, "type": "electric_scooter", "bike_id": "41e3ec571a0a2749d3a20dc8449acbe4", "fusion_lon": 0.0, "lat": 38.900327, "fusion_lat": 0.0}, {"is_disabled": 0, "rental_uris": {"android": "https://dc.lft.to/lastmile_qr_scan", "ios": "https://dc.lft.to/lastmile_qr_scan"}, "is_reserved": 0, "name": "96cdffa8971d98a14229e37202b559a6", "lon": -77.036648, "type": "electric_scooter", "bike_id": "96cdffa8971d98a14229e37202b559a6", "fusion_lon": 0.0, "lat": 38.922858, "fusion_lat": 0.0}, {"is_disabled": 0, "rental_uris": {"android": "https://dc.lft.to/lastmile_qr_scan", "ios": "https://dc.lft.to/lastmile_qr_scan"}, "is_reserved": 0, "name": "6275b0d965ccb81bfff4a2ebf9b73a40", "lon": -76.98731333333333, "type": "electric_scooter", "bike_id": "6275b0d965ccb81bfff4a2ebf9b73a40", "fusion_lon": 0.0, "lat": 38.867119833333334, "fusion_lat": 0.0}, {"is_disabled": 0, "rental_uris": {"android": "https://dc.lft.to/lastmile_qr_scan", "ios": "https://dc.lft.to/lastmile_qr_scan"}, "is_reserved": 0, "name": "1e1c58e7672e9528eb776cf8fba67fa2", "lon": -77.03446316666667, "type": "electric_scooter", "bike_id": "1e1c58e7672e9528eb776cf8fba67fa2", "fusion_lon": 0.0, "lat": 38.93364366666667, "fusion_lat": 0.0}, {"is_disabled": 0, "rental_uris": {"android": "https://dc.lft.to/lastmile_qr_scan", "ios": "https://dc.lft.to/lastmile_qr_scan"}, "is_reserved": 0, "name": "117026c4623ca02cd941d3728752aeda", "lon": -77.04556266666667, "type": "electric_bike", "bike_id": "117026c4623ca02cd941d3728752aeda", "fusion_lon": 0.0, "lat": 38.91929616666667, "fusion_lat": 0.0}, {"is_disabled": 0, "rental_uris": {"android": "https://dc.lft.to/lastmile_qr_scan", "ios": "https://dc.lft.to/lastmile_qr_scan"}, "is_reserved": 0, "name": "58bd455eab557a61a3f51c5c30bae10d", "lon": -77.0551955, "type": "electric_bike", "bike_id": "58bd455eab557a61a3f51c5c30bae10d", "fusion_lon": 0.0, "lat": 38.91057933333333, "fusion_lat": 0.0}, {"is_disabled": 0, "rental_uris": {"android": "https://dc.lft.to/lastmile_qr_scan", "ios": "https://dc.lft.to/lastmile_qr_scan"}, "is_reserved": 0, "name": "fbd5d757150a93601cd052eaf2510da4", "lon": -77.03871183333334, "type": "electric_scooter", "bike_id": "fbd5d757150a93601cd052eaf2510da4", "fusion_lon": 0.0, "lat": 38.9155795, "fusion_lat": 0.0}, {"is_disabled": 0, "rental_uris": {"android": "https://dc.lft.to/lastmile_qr_scan", "ios": "https://dc.lft.to/lastmile_qr_scan"}, "is_reserved": 0, "name": "e7b75d0ba8ec190d33514b824031661f", "lon": -77.0417555, "type": "electric_scooter", "bike_id": "e7b75d0ba8ec190d33514b824031661f", "fusion_lon": 0.0, "lat": 38.89902383333333, "fusion_lat": 0.0}, {"is_disabled": 0, "rental_uris": {"android": "https://dc.lft.to/lastmile_qr_scan", "ios": "https://dc.lft.to/lastmile_qr_scan"}, "is_reserved": 0, "name": "bc7ac0b3f86dd5a06802a581b429061d", "lon": -77.00195733333334, "type": "electric_scooter", "bike_id": "bc7ac0b3f86dd5a06802a581b429061d", "fusion_lon": 0.0, "lat": 38.91162816666667, "fusion_lat": 0.0}, {"is_disabled": 0, "rental_uris": {"android": "https://dc.lft.to/lastmile_qr_scan", "ios": "https://dc.lft.to/lastmile_qr_scan"}, "is_reserved": 0, "name": "bc1cd3a35581265ce979227cc46e5f30", "lon": -77.0402225, "type": "electric_scooter", "bike_id": "bc1cd3a35581265ce979227cc46e5f30", "fusion_lon": 0.0, "lat": 38.9238915, "fusion_lat": 0.0}, {"is_disabled": 0, "rental_uris": {"android": "https://dc.lft.to/lastmile_qr_scan", "ios": "https://dc.lft.to/lastmile_qr_scan"}, "is_reserved": 0, "name": "9b3949873f15b3cb60e5c25495a4a6f2", "lon": -76.93746633333333, "type": "electric_scooter", "bike_id": "9b3949873f15b3cb60e5c25495a4a6f2", "fusion_lon": 0.0, "lat": 38.89013933333333, "fusion_lat": 0.0}, {"is_disabled": 0, "rental_uris": {"android": "https://dc.lft.to/lastmile_qr_scan", "ios": "https://dc.lft.to/lastmile_qr_scan"}, "is_reserved": 0, "name": "2626099a53b7ac45457c0005f1c615a7", "lon": -77.02916966666666, "type": "electric_scooter", "bike_id": "2626099a53b7ac45457c0005f1c615a7", "fusion_lon": 0.0, "lat": 38.9014225, "fusion_lat": 0.0}, {"is_disabled": 0, "rental_uris": {"android": "https://dc.lft.to/lastmile_qr_scan", "ios": "https://dc.lft.to/lastmile_qr_scan"}, "is_reserved": 0, "name": "cbf360c9a5099f43598e85f6ff2175c2", "lon": -77.0338, "type": "electric_scooter", "bike_id": "cbf360c9a5099f43598e85f6ff2175c2", "fusion_lon": 0.0, "lat": 38.921568666666666, "fusion_lat": 0.0}, {"is_disabled": 0, "rental_uris": {"android": "https://dc.lft.to/lastmile_qr_scan", "ios": "https://dc.lft.to/lastmile_qr_scan"}, "is_reserved": 0, "name": "77b741b040e227b94c069c17e7972aae", "lon": -77.02808066666667, "type": "electric_scooter", "bike_id": "77b741b040e227b94c069c17e7972aae", "fusion_lon": 0.0, "lat": 38.962183333333336, "fusion_lat": 0.0}, {"is_disabled": 0, "rental_uris": {"android": "https://dc.lft.to/lastmile_qr_scan", "ios": "https://dc.lft.to/lastmile_qr_scan"}, "is_reserved": 0, "name": "d8dcb757170b73dadeee22bfb71bb36b", "lon": -77.03634516666666, "type": "electric_scooter", "bike_id": "d8dcb757170b73dadeee22bfb71bb36b", "fusion_lon": 0.0, "lat": 38.9428115, "fusion_lat": 0.0}, {"is_disabled": 0, "rental_uris": {"android": "https://dc.lft.to/lastmile_qr_scan", "ios": "https://dc.lft.to/lastmile_qr_scan"}, "is_reserved": 0, "name": "5bfd74e8a71e8d7c569cf8c37de14585", "lon": -77.0317835, "type": "electric_scooter", "bike_id": "5bfd74e8a71e8d7c569cf8c37de14585", "fusion_lon": 0.0, "lat": 38.914178666666665, "fusion_lat": 0.0}, {"is_disabled": 0, "rental_uris": {"android": "https://dc.lft.to/lastmile_qr_scan", "ios": "https://dc.lft.to/lastmile_qr_scan"}, "is_reserved": 0, "name": "7bf75fae75235b1cebbfce9ebad3e4b0", "lon": -77.02704583333333, "type": "electric_scooter", "bike_id": "7bf75fae75235b1cebbfce9ebad3e4b0", "fusion_lon": 0.0, "lat": 38.9498245, "fusion_lat": 0.0}, {"is_disabled": 0, "rental_uris": {"android": "https://dc.lft.to/lastmile_qr_scan", "ios": "https://dc.lft.to/lastmile_qr_scan"}, "is_reserved": 0, "name": "f12f6fd4da0abbe22deec3c2e0b59875", "lon": -77.00673566666667, "type": "electric_bike", "bike_id": "f12f6fd4da0abbe22deec3c2e0b59875", "fusion_lon": 0.0, "lat": 38.945096166666666, "fusion_lat": 0.0}, {"is_disabled": 0, "rental_uris": {"android": "https://dc.lft.to/lastmile_qr_scan", "ios": "https://dc.lft.to/lastmile_qr_scan"}, "is_reserved": 0, "name": "a82583a96d70ece530b25c44417753a5", "lon": -77.031583, "type": "electric_scooter", "bike_id": "a82583a96d70ece530b25c44417753a5", "fusion_lon": 0.0, "lat": 38.92861766666667, "fusion_lat": 0.0}, {"is_disabled": 0, "rental_uris": {"android": "https://dc.lft.to/lastmile_qr_scan", "ios": "https://dc.lft.to/lastmile_qr_scan"}, "is_reserved": 0, "name": "dc9cb1d376f1951e1b011c825f33e133", "lon": -77.04703683333334, "type": "electric_scooter", "bike_id": "dc9cb1d376f1951e1b011c825f33e133", "fusion_lon": 0.0, "lat": 38.897536333333335, "fusion_lat": 0.0}, {"is_disabled": 0, "rental_uris": {"android": "https://dc.lft.to/lastmile_qr_scan", "ios": "https://dc.lft.to/lastmile_qr_scan"}, "is_reserved": 0, "name": "338460ec27017344fe1c2df768cb2528", "lon": -77.03634466666666, "type": "electric_scooter", "bike_id": "338460ec27017344fe1c2df768cb2528", "fusion_lon": 0.0, "lat": 38.93043933333333, "fusion_lat": 0.0}, {"is_disabled": 0, "rental_uris": {"android": "https://dc.lft.to/lastmile_qr_scan", "ios": "https://dc.lft.to/lastmile_qr_scan"}, "is_reserved": 0, "name": "04967ed4d747c8626c66b03f8ddf4fe7", "lon": -77.026975, "type": "electric_scooter", "bike_id": "04967ed4d747c8626c66b03f8ddf4fe7", "fusion_lon": 0.0, "lat": 38.90635133333333, "fusion_lat": 0.0}, {"is_disabled": 0, "rental_uris": {"android": "https://dc.lft.to/lastmile_qr_scan", "ios": "https://dc.lft.to/lastmile_qr_scan"}, "is_reserved": 0, "name": "dbe1eed5e6885c6234fccee5c4e7f590", "lon": -77.04942983333333, "type": "electric_scooter", "bike_id": "dbe1eed5e6885c6234fccee5c4e7f590", "fusion_lon": 0.0, "lat": 38.90724383333333, "fusion_lat": 0.0}, {"is_disabled": 0, "rental_uris": {"android": "https://dc.lft.to/lastmile_qr_scan", "ios": "https://dc.lft.to/lastmile_qr_scan"}, "is_reserved": 0, "name": "24f176de2a8d33dfc3628a86eb06f29e", "lon": -77.00150983333333, "type": "electric_scooter", "bike_id": "24f176de2a8d33dfc3628a86eb06f29e", "fusion_lon": 0.0, "lat": 38.87385533333333, "fusion_lat": 0.0}, {"is_disabled": 0, "rental_uris": {"android": "https://dc.lft.to/lastmile_qr_scan", "ios": "https://dc.lft.to/lastmile_qr_scan"}, "is_reserved": 0, "name": "d09cc2eb672fe78d507e13a963cd10e7", "lon": -77.0247845, "type": "electric_scooter", "bike_id": "d09cc2eb672fe78d507e13a963cd10e7", "fusion_lon": 0.0, "lat": 38.9385595, "fusion_lat": 0.0}, {"is_disabled": 0, "rental_uris": {"android": "https://dc.lft.to/lastmile_qr_scan", "ios": "https://dc.lft.to/lastmile_qr_scan"}, "is_reserved": 0, "name": "3733fb0dc621b319e35d74627c092c93", "lon": -77.01189766666667, "type": "electric_scooter", "bike_id": "3733fb0dc621b319e35d74627c092c93", "fusion_lon": 0.0, "lat": 38.903705333333335, "fusion_lat": 0.0}, {"is_disabled": 0, "rental_uris": {"android": "https://dc.lft.to/lastmile_qr_scan", "ios": "https://dc.lft.to/lastmile_qr_scan"}, "is_reserved": 0, "name": "130088a9f6853f7abaf3521b288e0dca", "lon": -77.0457585, "type": "electric_scooter", "bike_id": "130088a9f6853f7abaf3521b288e0dca", "fusion_lon": 0.0, "lat": 38.913198333333334, "fusion_lat": 0.0}, {"is_disabled": 0, "rental_uris": {"android": "https://dc.lft.to/lastmile_qr_scan", "ios": "https://dc.lft.to/lastmile_qr_scan"}, "is_reserved": 0, "name": "a027203131e050d93b5972b36883d5c8", "lon": -77.042335, "type": "electric_scooter", "bike_id": "a027203131e050d93b5972b36883d5c8", "fusion_lon": 0.0, "lat": 38.907780333333335, "fusion_lat": 0.0}, {"is_disabled": 0, "rental_uris": {"android": "https://dc.lft.to/lastmile_qr_scan", "ios": "https://dc.lft.to/lastmile_qr_scan"}, "is_reserved": 0, "name": "a6a0857a364d42843adb75d4ca357f30", "lon": -76.98317766666666, "type": "electric_bike", "bike_id": "a6a0857a364d42843adb75d4ca357f30", "fusion_lon": 0.0, "lat": 38.922524333333335, "fusion_lat": 0.0}, {"is_disabled": 0, "rental_uris": {"android": "https://dc.lft.to/lastmile_qr_scan", "ios": "https://dc.lft.to/lastmile_qr_scan"}, "is_reserved": 0, "name": "cf222ef4f76e09677a6601f697c9d89a", "lon": -77.0074685, "type": "electric_scooter", "bike_id": "cf222ef4f76e09677a6601f697c9d89a", "fusion_lon": 0.0, "lat": 38.903634333333336, "fusion_lat": 0.0}, {"is_disabled": 0, "rental_uris": {"android": "https://dc.lft.to/lastmile_qr_scan", "ios": "https://dc.lft.to/lastmile_qr_scan"}, "is_reserved": 0, "name": "3d245f579dfc021ac3335a5d657ddf86", "lon": -76.9987605, "type": "electric_scooter", "bike_id": "3d245f579dfc021ac3335a5d657ddf86", "fusion_lon": 0.0, "lat": 38.90036333333333, "fusion_lat": 0.0}, {"is_disabled": 0, "rental_uris": {"android": "https://dc.lft.to/lastmile_qr_scan", "ios": "https://dc.lft.to/lastmile_qr_scan"}, "is_reserved": 0, "name": "106adab5ca349653b362d5e26fe9233b", "lon": -76.93177016666667, "type": "electric_scooter", "bike_id": "106adab5ca349653b362d5e26fe9233b", "fusion_lon": 0.0, "lat": 38.8812675, "fusion_lat": 0.0}, {"is_disabled": 0, "rental_uris": {"android": "https://dc.lft.to/lastmile_qr_scan", "ios": "https://dc.lft.to/lastmile_qr_scan"}, "is_reserved": 0, "name": "c19cd6f50d808986a51f626314f6eac8", "lon": -77.05217866666666, "type": "electric_scooter", "bike_id": "c19cd6f50d808986a51f626314f6eac8", "fusion_lon": 0.0, "lat": 38.92482316666667, "fusion_lat": 0.0}, {"is_disabled": 0, "rental_uris": {"android": "https://dc.lft.to/lastmile_qr_scan", "ios": "https://dc.lft.to/lastmile_qr_scan"}, "is_reserved": 0, "name": "7d74bdd6881942cc6861676b4a09e9d8", "lon": -77.03857333333333, "type": "electric_scooter", "bike_id": "7d74bdd6881942cc6861676b4a09e9d8", "fusion_lon": 0.0, "lat": 38.93204433333333, "fusion_lat": 0.0}, {"is_disabled": 0, "rental_uris": {"android": "https://dc.lft.to/lastmile_qr_scan", "ios": "https://dc.lft.to/lastmile_qr_scan"}, "is_reserved": 0, "name": "d199bbd2319fa5ce17f391b10250c8dd", "lon": -76.9463235, "type": "electric_scooter", "bike_id": "d199bbd2319fa5ce17f391b10250c8dd", "fusion_lon": 0.0, "lat": 38.89834883333333, "fusion_lat": 0.0}, {"is_disabled": 0, "rental_uris": {"android": "https://dc.lft.to/lastmile_qr_scan", "ios": "https://dc.lft.to/lastmile_qr_scan"}, "is_reserved": 0, "name": "553cb627a54dbeb11c2fbfb6e63048ee", "lon": -77.0594225, "type": "electric_scooter", "bike_id": "553cb627a54dbeb11c2fbfb6e63048ee", "fusion_lon": 0.0, "lat": 38.93679233333334, "fusion_lat": 0.0}, {"is_disabled": 0, "rental_uris": {"android": "https://dc.lft.to/lastmile_qr_scan", "ios": "https://dc.lft.to/lastmile_qr_scan"}, "is_reserved": 0, "name": "e58348ddd98822c5bbb76e5a3c17ce2c", "lon": -76.9985635, "type": "electric_scooter", "bike_id": "e58348ddd98822c5bbb76e5a3c17ce2c", "fusion_lon": 0.0, "lat": 38.908902, "fusion_lat": 0.0}, {"is_disabled": 0, "rental_uris": {"android": "https://dc.lft.to/lastmile_qr_scan", "ios": "https://dc.lft.to/lastmile_qr_scan"}, "is_reserved": 0, "name": "b86e8a2996d088877729632c2600cab2", "lon": -77.032533, "type": "electric_scooter", "bike_id": "b86e8a2996d088877729632c2600cab2", "fusion_lon": 0.0, "lat": 38.9369995, "fusion_lat": 0.0}, {"is_disabled": 0, "rental_uris": {"android": "https://dc.lft.to/lastmile_qr_scan", "ios": "https://dc.lft.to/lastmile_qr_scan"}, "is_reserved": 0, "name": "062a9e75a3c1451862eb0ff87cf641ef", "lon": -77.030587, "type": "electric_scooter", "bike_id": "062a9e75a3c1451862eb0ff87cf641ef", "fusion_lon": 0.0, "lat": 38.92376633333333, "fusion_lat": 0.0}, {"is_disabled": 0, "rental_uris": {"android": "https://dc.lft.to/lastmile_qr_scan", "ios": "https://dc.lft.to/lastmile_qr_scan"}, "is_reserved": 0, "name": "6a87d4c2e46413e96234dc490483ed2a", "lon": -77.04998866666666, "type": "electric_scooter", "bike_id": "6a87d4c2e46413e96234dc490483ed2a", "fusion_lon": 0.0, "lat": 38.90517966666667, "fusion_lat": 0.0}, {"is_disabled": 0, "rental_uris": {"android": "https://dc.lft.to/lastmile_qr_scan", "ios": "https://dc.lft.to/lastmile_qr_scan"}, "is_reserved": 0, "name": "807a8ac948c92aa1225b4ee633c8cd30", "lon": -77.00759566666666, "type": "electric_scooter", "bike_id": "807a8ac948c92aa1225b4ee633c8cd30", "fusion_lon": 0.0, "lat": 38.91025916666667, "fusion_lat": 0.0}, {"is_disabled": 0, "rental_uris": {"android": "https://dc.lft.to/lastmile_qr_scan", "ios": "https://dc.lft.to/lastmile_qr_scan"}, "is_reserved": 0, "name": "dc2d448ce3177c12929acfb69c6a77eb", "lon": -76.97943383333333, "type": "electric_scooter", "bike_id": "dc2d448ce3177c12929acfb69c6a77eb", "fusion_lon": 0.0, "lat": 38.9050415, "fusion_lat": 0.0}, {"is_disabled": 0, "rental_uris": {"android": "https://dc.lft.to/lastmile_qr_scan", "ios": "https://dc.lft.to/lastmile_qr_scan"}, "is_reserved": 0, "name": "ec1e85e551ba9b91f39ba21a7ebd059d", "lon": -77.040157, "type": "electric_scooter", "bike_id": "ec1e85e551ba9b91f39ba21a7ebd059d", "fusion_lon": 0.0, "lat": 38.921015, "fusion_lat": 0.0}, {"is_disabled": 0, "rental_uris": {"android": "https://dc.lft.to/lastmile_qr_scan", "ios": "https://dc.lft.to/lastmile_qr_scan"}, "is_reserved": 0, "name": "36e0a394de27d082ac7325a745c3cd24", "lon": -77.02012683333334, "type": "electric_scooter", "bike_id": "36e0a394de27d082ac7325a745c3cd24", "fusion_lon": 0.0, "lat": 38.924270166666666, "fusion_lat": 0.0}, {"is_disabled": 0, "rental_uris": {"android": "https://dc.lft.to/lastmile_qr_scan", "ios": "https://dc.lft.to/lastmile_qr_scan"}, "is_reserved": 0, "name": "746e71defef1e677ca6d3961280e41f0", "lon": -77.04527016666667, "type": "electric_scooter", "bike_id": "746e71defef1e677ca6d3961280e41f0", "fusion_lon": 0.0, "lat": 38.90370766666667, "fusion_lat": 0.0}, {"is_disabled": 0, "rental_uris": {"android": "https://dc.lft.to/lastmile_qr_scan", "ios": "https://dc.lft.to/lastmile_qr_scan"}, "is_reserved": 0, "name": "e864911366c3c8740ee60cebbcee37b2", "lon": -77.03475333333333, "type": "electric_scooter", "bike_id": "e864911366c3c8740ee60cebbcee37b2", "fusion_lon": 0.0, "lat": 38.90752533333333, "fusion_lat": 0.0}, {"is_disabled": 0, "rental_uris": {"android": "https://dc.lft.to/lastmile_qr_scan", "ios": "https://dc.lft.to/lastmile_qr_scan"}, "is_reserved": 0, "name": "747c6542c3510e1c130b492d496e82c4", "lon": -77.03957483333333, "type": "electric_scooter", "bike_id": "747c6542c3510e1c130b492d496e82c4", "fusion_lon": 0.0, "lat": 38.8979635, "fusion_lat": 0.0}, {"is_disabled": 0, "rental_uris": {"android": "https://dc.lft.to/lastmile_qr_scan", "ios": "https://dc.lft.to/lastmile_qr_scan"}, "is_reserved": 0, "name": "1896c4469ddc32b3f162c153a798d07f", "lon": -77.02518883333333, "type": "electric_scooter", "bike_id": "1896c4469ddc32b3f162c153a798d07f", "fusion_lon": 0.0, "lat": 38.92136966666666, "fusion_lat": 0.0}, {"is_disabled": 0, "rental_uris": {"android": "https://dc.lft.to/lastmile_qr_scan", "ios": "https://dc.lft.to/lastmile_qr_scan"}, "is_reserved": 0, "name": "39e3496886d6881ffb2af96e842e5162", "lon": -77.01641066666667, "type": "electric_scooter", "bike_id": "39e3496886d6881ffb2af96e842e5162", "fusion_lon": 0.0, "lat": 38.903856833333336, "fusion_lat": 0.0}, {"is_disabled": 0, "rental_uris": {"android": "https://dc.lft.to/lastmile_qr_scan", "ios": "https://dc.lft.to/lastmile_qr_scan"}, "is_reserved": 0, "name": "d1e8fe64e53361b099bddc7cd4d743c8", "lon": -77.00122766666667, "type": "electric_scooter", "bike_id": "d1e8fe64e53361b099bddc7cd4d743c8", "fusion_lon": 0.0, "lat": 38.91253916666667, "fusion_lat": 0.0}, {"is_disabled": 0, "rental_uris": {"android": "https://dc.lft.to/lastmile_qr_scan", "ios": "https://dc.lft.to/lastmile_qr_scan"}, "is_reserved": 0, "name": "a1f66c6fee0363b3cdfe4a4f005d3fed", "lon": -77.04347116666666, "type": "electric_scooter", "bike_id": "a1f66c6fee0363b3cdfe4a4f005d3fed", "fusion_lon": 0.0, "lat": 38.89841933333334, "fusion_lat": 0.0}, {"is_disabled": 0, "rental_uris": {"android": "https://dc.lft.to/lastmile_qr_scan", "ios": "https://dc.lft.to/lastmile_qr_scan"}, "is_reserved": 0, "name": "4710f625b90446d4019931a91f34b211", "lon": -77.02816266666666, "type": "electric_scooter", "bike_id": "4710f625b90446d4019931a91f34b211", "fusion_lon": 0.0, "lat": 38.931707, "fusion_lat": 0.0}, {"is_disabled": 0, "rental_uris": {"android": "https://dc.lft.to/lastmile_qr_scan", "ios": "https://dc.lft.to/lastmile_qr_scan"}, "is_reserved": 0, "name": "b66ba07d97295190fc13ff5d5b291b88", "lon": -76.9872815, "type": "electric_scooter", "bike_id": "b66ba07d97295190fc13ff5d5b291b88", "fusion_lon": 0.0, "lat": 38.8670645, "fusion_lat": 0.0}, {"is_disabled": 0, "rental_uris": {"android": "https://dc.lft.to/lastmile_qr_scan", "ios": "https://dc.lft.to/lastmile_qr_scan"}, "is_reserved": 0, "name": "7cc1b6f530fe0024b2bbca6d87dd4765", "lon": -76.9521035, "type": "electric_bike", "bike_id": "7cc1b6f530fe0024b2bbca6d87dd4765", "fusion_lon": 0.0, "lat": 38.93668866666667, "fusion_lat": 0.0}, {"is_disabled": 0, "rental_uris": {"android": "https://dc.lft.to/lastmile_qr_scan", "ios": "https://dc.lft.to/lastmile_qr_scan"}, "is_reserved": 0, "name": "7d814466372ea369c4a11d1329c04843", "lon": -77.04759083333333, "type": "electric_scooter", "bike_id": "7d814466372ea369c4a11d1329c04843", "fusion_lon": 0.0, "lat": 38.9072115, "fusion_lat": 0.0}, {"is_disabled": 0, "rental_uris": {"android": "https://dc.lft.to/lastmile_qr_scan", "ios": "https://dc.lft.to/lastmile_qr_scan"}, "is_reserved": 0, "name": "75cf42b34d26073a90def394fde2dcd9", "lon": -77.0664775, "type": "electric_scooter", "bike_id": "75cf42b34d26073a90def394fde2dcd9", "fusion_lon": 0.0, "lat": 38.926895, "fusion_lat": 0.0}, {"is_disabled": 0, "rental_uris": {"android": "https://dc.lft.to/lastmile_qr_scan", "ios": "https://dc.lft.to/lastmile_qr_scan"}, "is_reserved": 0, "name": "86f99e56712ddf7aa6b3c8e1c924d0fe", "lon": -77.007755, "type": "electric_scooter", "bike_id": "86f99e56712ddf7aa6b3c8e1c924d0fe", "fusion_lon": 0.0, "lat": 38.90742866666667, "fusion_lat": 0.0}, {"is_disabled": 0, "rental_uris": {"android": "https://dc.lft.to/lastmile_qr_scan", "ios": "https://dc.lft.to/lastmile_qr_scan"}, "is_reserved": 0, "name": "cb3bd5bbf36e973520d53933e165e978", "lon": -77.01970866666667, "type": "electric_scooter", "bike_id": "cb3bd5bbf36e973520d53933e165e978", "fusion_lon": 0.0, "lat": 38.87775516666667, "fusion_lat": 0.0}, {"is_disabled": 0, "rental_uris": {"android": "https://dc.lft.to/lastmile_qr_scan", "ios": "https://dc.lft.to/lastmile_qr_scan"}, "is_reserved": 0, "name": "50205e657e8bcd5fbfee4ae89487bc22", "lon": -77.02385933333333, "type": "electric_scooter", "bike_id": "50205e657e8bcd5fbfee4ae89487bc22", "fusion_lon": 0.0, "lat": 38.9167365, "fusion_lat": 0.0}, {"is_disabled": 0, "rental_uris": {"android": "https://dc.lft.to/lastmile_qr_scan", "ios": "https://dc.lft.to/lastmile_qr_scan"}, "is_reserved": 0, "name": "3be616ed4b854172f530e49370b7f310", "lon": -77.0385445, "type": "electric_scooter", "bike_id": "3be616ed4b854172f530e49370b7f310", "fusion_lon": 0.0, "lat": 38.926651, "fusion_lat": 0.0}, {"is_disabled": 0, "rental_uris": {"android": "https://dc.lft.to/lastmile_qr_scan", "ios": "https://dc.lft.to/lastmile_qr_scan"}, "is_reserved": 0, "name": "15b6b2afbd16b4c1db914b046e0e189c", "lon": -77.0319645, "type": "electric_scooter", "bike_id": "15b6b2afbd16b4c1db914b046e0e189c", "fusion_lon": 0.0, "lat": 38.918048666666664, "fusion_lat": 0.0}, {"is_disabled": 0, "rental_uris": {"android": "https://dc.lft.to/lastmile_qr_scan", "ios": "https://dc.lft.to/lastmile_qr_scan"}, "is_reserved": 0, "name": "09028ba9982b441f7d2982030ee60dfa", "lon": -77.0239895, "type": "electric_scooter", "bike_id": "09028ba9982b441f7d2982030ee60dfa", "fusion_lon": 0.0, "lat": 38.931020333333336, "fusion_lat": 0.0}, {"is_disabled": 0, "rental_uris": {"android": "https://dc.lft.to/lastmile_qr_scan", "ios": "https://dc.lft.to/lastmile_qr_scan"}, "is_reserved": 0, "name": "a998c309b183d6c330a672e5393402a3", "lon": -77.01014133333334, "type": "electric_scooter", "bike_id": "a998c309b183d6c330a672e5393402a3", "fusion_lon": 0.0, "lat": 38.906205666666665, "fusion_lat": 0.0}, {"is_disabled": 0, "rental_uris": {"android": "https://dc.lft.to/lastmile_qr_scan", "ios": "https://dc.lft.to/lastmile_qr_scan"}, "is_reserved": 0, "name": "6084abaef0bd0a71a1711cd40a3eefd1", "lon": -77.0235025, "type": "electric_scooter", "bike_id": "6084abaef0bd0a71a1711cd40a3eefd1", "fusion_lon": 0.0, "lat": 38.922637, "fusion_lat": 0.0}, {"is_disabled": 0, "rental_uris": {"android": "https://dc.lft.to/lastmile_qr_scan", "ios": "https://dc.lft.to/lastmile_qr_scan"}, "is_reserved": 0, "name": "6b934a610bbc42ed26bb385083fbd9ba", "lon": -76.93378066666666, "type": "electric_scooter", "bike_id": "6b934a610bbc42ed26bb385083fbd9ba", "fusion_lon": 0.0, "lat": 38.89924666666667, "fusion_lat": 0.0}, {"is_disabled": 0, "rental_uris": {"android": "https://dc.lft.to/lastmile_qr_scan", "ios": "https://dc.lft.to/lastmile_qr_scan"}, "is_reserved": 0, "name": "5a790e4614fba7023b86e9b48db2976b", "lon": -77.00916916666667, "type": "electric_scooter", "bike_id": "5a790e4614fba7023b86e9b48db2976b", "fusion_lon": 0.0, "lat": 38.895563833333334, "fusion_lat": 0.0}, {"is_disabled": 0, "rental_uris": {"android": "https://dc.lft.to/lastmile_qr_scan", "ios": "https://dc.lft.to/lastmile_qr_scan"}, "is_reserved": 0, "name": "0604184eda69361fa6c1aa80104e28e4", "lon": -76.96529, "type": "electric_scooter", "bike_id": "0604184eda69361fa6c1aa80104e28e4", "fusion_lon": 0.0, "lat": 38.8762955, "fusion_lat": 0.0}, {"is_disabled": 0, "rental_uris": {"android": "https://dc.lft.to/lastmile_qr_scan", "ios": "https://dc.lft.to/lastmile_qr_scan"}, "is_reserved": 0, "name": "e0971505aa4cbd5b2902d2a64ea7e57e", "lon": -77.0226195, "type": "electric_scooter", "bike_id": "e0971505aa4cbd5b2902d2a64ea7e57e", "fusion_lon": 0.0, "lat": 38.886544666666666, "fusion_lat": 0.0}, {"is_disabled": 0, "rental_uris": {"android": "https://dc.lft.to/lastmile_qr_scan", "ios": "https://dc.lft.to/lastmile_qr_scan"}, "is_reserved": 0, "name": "f6b099034f151665ef59f0511b479f61", "lon": -77.02516666666666, "type": "electric_scooter", "bike_id": "f6b099034f151665ef59f0511b479f61", "fusion_lon": 0.0, "lat": 38.91922233333333, "fusion_lat": 0.0}, {"is_disabled": 0, "rental_uris": {"android": "https://dc.lft.to/lastmile_qr_scan", "ios": "https://dc.lft.to/lastmile_qr_scan"}, "is_reserved": 0, "name": "fe6d2e48704d0d33c282016dcd47b27c", "lon": -77.03187983333333, "type": "electric_bike", "bike_id": "fe6d2e48704d0d33c282016dcd47b27c", "fusion_lon": 0.0, "lat": 38.91995583333333, "fusion_lat": 0.0}, {"is_disabled": 0, "rental_uris": {"android": "https://dc.lft.to/lastmile_qr_scan", "ios": "https://dc.lft.to/lastmile_qr_scan"}, "is_reserved": 0, "name": "f8e2ad00c22462beae60feb71ee6fa81", "lon": -76.99007266666666, "type": "electric_scooter", "bike_id": "f8e2ad00c22462beae60feb71ee6fa81", "fusion_lon": 0.0, "lat": 38.86504866666667, "fusion_lat": 0.0}, {"is_disabled": 0, "rental_uris": {"android": "https://dc.lft.to/lastmile_qr_scan", "ios": "https://dc.lft.to/lastmile_qr_scan"}, "is_reserved": 0, "name": "71a329c50d46921d9a4ee5c76ea5140a", "lon": -77.028483, "type": "electric_scooter", "bike_id": "71a329c50d46921d9a4ee5c76ea5140a", "fusion_lon": 0.0, "lat": 38.922391166666664, "fusion_lat": 0.0}, {"is_disabled": 0, "rental_uris": {"android": "https://dc.lft.to/lastmile_qr_scan", "ios": "https://dc.lft.to/lastmile_qr_scan"}, "is_reserved": 0, "name": "38e20ce7575610c557726fa028eafaaa", "lon": -77.0125785, "type": "electric_scooter", "bike_id": "38e20ce7575610c557726fa028eafaaa", "fusion_lon": 0.0, "lat": 38.9085065, "fusion_lat": 0.0}, {"is_disabled": 0, "rental_uris": {"android": "https://dc.lft.to/lastmile_qr_scan", "ios": "https://dc.lft.to/lastmile_qr_scan"}, "is_reserved": 0, "name": "c7dcf5ee0e303bc0e67020cb9185df88", "lon": -77.02986166666666, "type": "electric_scooter", "bike_id": "c7dcf5ee0e303bc0e67020cb9185df88", "fusion_lon": 0.0, "lat": 38.90713016666667, "fusion_lat": 0.0}, {"is_disabled": 0, "rental_uris": {"android": "https://dc.lft.to/lastmile_qr_scan", "ios": "https://dc.lft.to/lastmile_qr_scan"}, "is_reserved": 0, "name": "1cdd0fb2fb6f3538b41308c59c1ac53d", "lon": -77.03057416666667, "type": "electric_scooter", "bike_id": "1cdd0fb2fb6f3538b41308c59c1ac53d", "fusion_lon": 0.0, "lat": 38.899789, "fusion_lat": 0.0}, {"is_disabled": 0, "rental_uris": {"android": "https://dc.lft.to/lastmile_qr_scan", "ios": "https://dc.lft.to/lastmile_qr_scan"}, "is_reserved": 0, "name": "c1f06dfd4e71de915acacdba8f76cf70", "lon": -77.02378416666667, "type": "electric_scooter", "bike_id": "c1f06dfd4e71de915acacdba8f76cf70", "fusion_lon": 0.0, "lat": 38.9326345, "fusion_lat": 0.0}, {"is_disabled": 0, "rental_uris": {"android": "https://dc.lft.to/lastmile_qr_scan", "ios": "https://dc.lft.to/lastmile_qr_scan"}, "is_reserved": 0, "name": "34b4583845c2f7d6ea714dd6c4c801d9", "lon": -76.907621, "type": "electric_bike", "bike_id": "34b4583845c2f7d6ea714dd6c4c801d9", "fusion_lon": 0.0, "lat": 38.92439066666667, "fusion_lat": 0.0}, {"is_disabled": 0, "rental_uris": {"android": "https://dc.lft.to/lastmile_qr_scan", "ios": "https://dc.lft.to/lastmile_qr_scan"}, "is_reserved": 0, "name": "6b15f292ff273c1638f75ffdb281675e", "lon": -77.02390483333333, "type": "electric_scooter", "bike_id": "6b15f292ff273c1638f75ffdb281675e", "fusion_lon": 0.0, "lat": 38.89477866666667, "fusion_lat": 0.0}, {"is_disabled": 0, "rental_uris": {"android": "https://dc.lft.to/lastmile_qr_scan", "ios": "https://dc.lft.to/lastmile_qr_scan"}, "is_reserved": 0, "name": "3b7718bbea3c11006c62175a3de08126", "lon": -77.04177266666666, "type": "electric_scooter", "bike_id": "3b7718bbea3c11006c62175a3de08126", "fusion_lon": 0.0, "lat": 38.91275483333333, "fusion_lat": 0.0}, {"is_disabled": 0, "rental_uris": {"android": "https://dc.lft.to/lastmile_qr_scan", "ios": "https://dc.lft.to/lastmile_qr_scan"}, "is_reserved": 0, "name": "83f51b60997bdcfe7f26b9eac90ac5f8", "lon": -77.05939183333334, "type": "electric_scooter", "bike_id": "83f51b60997bdcfe7f26b9eac90ac5f8", "fusion_lon": 0.0, "lat": 38.90529383333333, "fusion_lat": 0.0}, {"is_disabled": 0, "rental_uris": {"android": "https://dc.lft.to/lastmile_qr_scan", "ios": "https://dc.lft.to/lastmile_qr_scan"}, "is_reserved": 0, "name": "fce3157c9a01f7320fbf5789d4f81a13", "lon": -77.02224616666666, "type": "electric_scooter", "bike_id": "fce3157c9a01f7320fbf5789d4f81a13", "fusion_lon": 0.0, "lat": 38.9354885, "fusion_lat": 0.0}, {"is_disabled": 0, "rental_uris": {"android": "https://dc.lft.to/lastmile_qr_scan", "ios": "https://dc.lft.to/lastmile_qr_scan"}, "is_reserved": 0, "name": "055c8d21ce23b5dfafc411735e88063b", "lon": -77.017671, "type": "electric_scooter", "bike_id": "055c8d21ce23b5dfafc411735e88063b", "fusion_lon": 0.0, "lat": 38.903899, "fusion_lat": 0.0}, {"is_disabled": 0, "rental_uris": {"android": "https://dc.lft.to/lastmile_qr_scan", "ios": "https://dc.lft.to/lastmile_qr_scan"}, "is_reserved": 0, "name": "2c1b036640484948ff3e563a77228ba8", "lon": -77.03781883333333, "type": "electric_scooter", "bike_id": "2c1b036640484948ff3e563a77228ba8", "fusion_lon": 0.0, "lat": 38.92332966666667, "fusion_lat": 0.0}, {"is_disabled": 0, "rental_uris": {"android": "https://dc.lft.to/lastmile_qr_scan", "ios": "https://dc.lft.to/lastmile_qr_scan"}, "is_reserved": 0, "name": "7f2981b3c3d22413d74c0aa14fd48f68", "lon": -77.04679816666666, "type": "electric_scooter", "bike_id": "7f2981b3c3d22413d74c0aa14fd48f68", "fusion_lon": 0.0, "lat": 38.915856833333336, "fusion_lat": 0.0}, {"is_disabled": 0, "rental_uris": {"android": "https://dc.lft.to/lastmile_qr_scan", "ios": "https://dc.lft.to/lastmile_qr_scan"}, "is_reserved": 0, "name": "428cc06b2310903a7136889572b03fd3", "lon": -77.0227445, "type": "electric_scooter", "bike_id": "428cc06b2310903a7136889572b03fd3", "fusion_lon": 0.0, "lat": 38.912666333333334, "fusion_lat": 0.0}, {"is_disabled": 0, "rental_uris": {"android": "https://dc.lft.to/lastmile_qr_scan", "ios": "https://dc.lft.to/lastmile_qr_scan"}, "is_reserved": 0, "name": "ef57800d14299fec830eb836ba1ab906", "lon": -77.0384355, "type": "electric_scooter", "bike_id": "ef57800d14299fec830eb836ba1ab906", "fusion_lon": 0.0, "lat": 38.906761333333336, "fusion_lat": 0.0}, {"is_disabled": 0, "rental_uris": {"android": "https://dc.lft.to/lastmile_qr_scan", "ios": "https://dc.lft.to/lastmile_qr_scan"}, "is_reserved": 0, "name": "fdef470dc4b4bcb613d77ad16af37379", "lon": -77.02484383333334, "type": "electric_scooter", "bike_id": "fdef470dc4b4bcb613d77ad16af37379", "fusion_lon": 0.0, "lat": 38.93883783333333, "fusion_lat": 0.0}, {"is_disabled": 0, "rental_uris": {"android": "https://dc.lft.to/lastmile_qr_scan", "ios": "https://dc.lft.to/lastmile_qr_scan"}, "is_reserved": 0, "name": "066e4bd2617a823b18a15f841c743de4", "lon": -77.04868116666667, "type": "electric_scooter", "bike_id": "066e4bd2617a823b18a15f841c743de4", "fusion_lon": 0.0, "lat": 38.892239000000004, "fusion_lat": 0.0}, {"is_disabled": 0, "rental_uris": {"android": "https://dc.lft.to/lastmile_qr_scan", "ios": "https://dc.lft.to/lastmile_qr_scan"}, "is_reserved": 0, "name": "73b295392b47a34cecd6af35167f8dea", "lon": -77.01709716666667, "type": "electric_scooter", "bike_id": "73b295392b47a34cecd6af35167f8dea", "fusion_lon": 0.0, "lat": 38.905206166666666, "fusion_lat": 0.0}, {"is_disabled": 0, "rental_uris": {"android": "https://dc.lft.to/lastmile_qr_scan", "ios": "https://dc.lft.to/lastmile_qr_scan"}, "is_reserved": 0, "name": "fa220df2ce6fa674c0d59c3b73e27858", "lon": -77.04678483333333, "type": "electric_scooter", "bike_id": "fa220df2ce6fa674c0d59c3b73e27858", "fusion_lon": 0.0, "lat": 38.907414333333335, "fusion_lat": 0.0}, {"is_disabled": 0, "rental_uris": {"android": "https://dc.lft.to/lastmile_qr_scan", "ios": "https://dc.lft.to/lastmile_qr_scan"}, "is_reserved": 0, "name": "31ab68e1577ca9f6b2fe8e12a814f291", "lon": -77.060956, "type": "electric_scooter", "bike_id": "31ab68e1577ca9f6b2fe8e12a814f291", "fusion_lon": 0.0, "lat": 38.943716, "fusion_lat": 0.0}, {"is_disabled": 0, "rental_uris": {"android": "https://dc.lft.to/lastmile_qr_scan", "ios": "https://dc.lft.to/lastmile_qr_scan"}, "is_reserved": 0, "name": "fb903b9d90f02f7a442ffa3900bd2d45", "lon": -77.034407, "type": "electric_scooter", "bike_id": "fb903b9d90f02f7a442ffa3900bd2d45", "fusion_lon": 0.0, "lat": 38.934347, "fusion_lat": 0.0}, {"is_disabled": 0, "rental_uris": {"android": "https://dc.lft.to/lastmile_qr_scan", "ios": "https://dc.lft.to/lastmile_qr_scan"}, "is_reserved": 0, "name": "aa2c8727a075d99404e48243476ffe0e", "lon": -77.017625, "type": "electric_scooter", "bike_id": "aa2c8727a075d99404e48243476ffe0e", "fusion_lon": 0.0, "lat": 38.91906383333333, "fusion_lat": 0.0}, {"is_disabled": 0, "rental_uris": {"android": "https://dc.lft.to/lastmile_qr_scan", "ios": "https://dc.lft.to/lastmile_qr_scan"},