{"data": {"bikes": [{"lat": 38.867130333333336, "fusion_lat": 0.0, "type": "electric_scooter", "bike_id": "7432951c4304cbf783a4e9f97628e371", "is_reserved": 0, "rental_uris": {"ios": "https://dc.lft.to/lastmile_qr_scan", "android": "https://dc.lft.to/lastmile_qr_scan"}, "is_disabled": 0, "lon": -76.987244, "name": "7432951c4304cbf783a4e9f97628e371", "fusion_lon": 0.0}, {"lat": 38.93074333333333, "fusion_lat": 0.0, "type": "electric_scooter", "bike_id": "8df9a97da1859f0c05ba289f366bf25f", "is_reserved": 0, "rental_uris": {"ios": "https://dc.lft.to/lastmile_qr_scan", "android": "https://dc.lft.to/lastmile_qr_scan"}, "is_disabled": 0, "lon": -77.0216365, "name": "8df9a97da1859f0c05ba289f366bf25f", "fusion_lon": 0.0}, {"lat": 38.90248833333333, "fusion_lat": 0.0, "type": "electric_scooter", "bike_id": "f037633de3213446f69aa76b59d946a3", "is_reserved": 0, "rental_uris": {"ios": "https://dc.lft.to/lastmile_qr_scan", "android": "https://dc.lft.to/lastmile_qr_scan"}, "is_disabled": 0, "lon": -77.0334125, "name": "f037633de3213446f69aa76b59d946a3", "fusion_lon": 0.0}, {"lat": 38.95683666666667, "fusion_lat": 0.0, "type": "electric_scooter", "bike_id": "f574e0cbb43ec6c06c1feb12b308719c", "is_reserved": 0, "rental_uris": {"ios": "https://dc.lft.to/lastmile_qr_scan", "android": "https://dc.lft.to/lastmile_qr_scan"}, "is_disabled": 0, "lon": -77.02397433333333, "name": "f574e0cbb43ec6c06c1feb12b308719c", "fusion_lon": 0.0}, {"lat": 38.9156265, "fusion_lat": 0.0, "type": "electric_scooter", "bike_id": "dedf1f6445f5e603cf5ea42ed8cb9721", "is_reserved": 0, "rental_uris": {"ios": "https://dc.lft.to/lastmile_qr_scan", "android": "https://dc.lft.to/lastmile_qr_scan"}, "is_disabled": 0, "lon": -77.03952433333333, "name": "dedf1f6445f5e603cf5ea42ed8cb9721", "fusion_lon": 0.0}, {"lat": 38.88499066666667, "fusion_lat": 0.0, "type": "electric_scooter", "bike_id": "d04ce48d60dbffabd79a3c59d97ebbc7", "is_reserved": 0, "rental_uris": {"ios": "https://dc.lft.to/lastmile_qr_scan", "android": "https://dc.lft.to/lastmile_qr_scan"}, "is_disabled": 0, "lon": -77.01510666666667, "name": "d04ce48d60dbffabd79a3c59d97ebbc7", "fusion_lon": 0.0}, {"lat": 38.90837283333333, "fusion_lat": 0.0, "type": "electric_scooter", "bike_id": "da385148a4f6e71ed26fbb30aaab9e16", "is_reserved": 0, "rental_uris": {"ios": "https://dc.lft.to/lastmile_qr_scan", "android": "https://dc.lft.to/lastmile_qr_scan"}, "is_disabled": 0, "lon": -77.00914783333333, "name": "da385148a4f6e71ed26fbb30aaab9e16", "fusion_lon": 0.0}, {"lat": 38.90215366666666, "fusion_lat": 0.0, "type": "electric_scooter", "bike_id": "380688b0a622de2f93bd797484bdc2a0", "is_reserved": 0, "rental_uris": {"ios": "https://dc.lft.to/lastmile_qr_scan", "android": "https://dc.lft.to/lastmile_qr_scan"}, "is_disabled": 0, "lon": -77.02437433333333, "name": "380688b0a622de2f93bd797484bdc2a0", "fusion_lon": 0.0}, {"lat": 38.9065975, "fusion_lat": 0.0, "type": "electric_scooter", "bike_id": "3be332b29e0a7d53116c747851f7406e", "is_reserved": 0, "rental_uris": {"ios": "https://dc.lft.to/lastmile_qr_scan", "android": "https://dc.lft.to/lastmile_qr_scan"}, "is_disabled": 0, "lon": -77.05137783333333, "name": "3be332b29e0a7d53116c747851f7406e", "fusion_lon": 0.0}, {"lat": 38.874636833333334, "fusion_lat": 0.0, "type": "electric_scooter", "bike_id": "4408e97c298c1650ed3eb3fdba18fcf5", "is_reserved": 0, "rental_uris": {"ios": "https://dc.lft.to/lastmile_qr_scan", "android": "https://dc.lft.to/lastmile_qr_scan"}, "is_disabled": 0, "lon": -77.01892583333333, "name": "4408e97c298c1650ed3eb3fdba18fcf5", "fusion_lon": 0.0}, {"lat": 38.92071983333334, "fusion_lat": 0.0, "type": "electric_scooter", "bike_id": "30f1e06c5da2cec4aed0c4f0529a7213", "is_reserved": 0, "rental_uris": {"ios": "https://dc.lft.to/lastmile_qr_scan", "android": "https://dc.lft.to/lastmile_qr_scan"}, "is_disabled": 0, "lon": -77.02213716666667, "name": "30f1e06c5da2cec4aed0c4f0529a7213", "fusion_lon": 0.0}, {"lat": 38.917013833333336, "fusion_lat": 0.0, "type": "electric_scooter", "bike_id": "d6432e65f93284785528ecd1d30117ed", "is_reserved": 0, "rental_uris": {"ios": "https://dc.lft.to/lastmile_qr_scan", "android": "https://dc.lft.to/lastmile_qr_scan"}, "is_disabled": 0, "lon": -77.0289155, "name": "d6432e65f93284785528ecd1d30117ed", "fusion_lon": 0.0}, {"lat": 38.92017883333333, "fusion_lat": 0.0, "type": "electric_scooter", "bike_id": "4d1fe029e06e4730610a3330322e7c80", "is_reserved": 0, "rental_uris": {"ios": "https://dc.lft.to/lastmile_qr_scan", "android": "https://dc.lft.to/lastmile_qr_scan"}, "is_disabled": 0, "lon": -77.02039433333333, "name": "4d1fe029e06e4730610a3330322e7c80", "fusion_lon": 0.0}, {"lat": 38.89837133333333, "fusion_lat": 0.0, "type": "electric_scooter", "bike_id": "c4ce2fc3bdc0d28927e91d885db82132", "is_reserved": 0, "rental_uris": {"ios": "https://dc.lft.to/lastmile_qr_scan", "android": "https://dc.lft.to/lastmile_qr_scan"}, "is_disabled": 0, "lon": -77.03333366666666, "name": "c4ce2fc3bdc0d28927e91d885db82132", "fusion_lon": 0.0}, {"lat": 38.910599166666664, "fusion_lat": 0.0, "type": "electric_scooter", "bike_id": "99303b0cbea558473494b5bb6ce3a555", "is_reserved": 0, "rental_uris": {"ios": "https://dc.lft.to/lastmile_qr_scan", "android": "https://dc.lft.to/lastmile_qr_scan"}, "is_disabled": 0, "lon": -77.03726183333333, "name": "99303b0cbea558473494b5bb6ce3a555", "fusion_lon": 0.0}, {"lat": 38.92725383333333, "fusion_lat": 0.0, "type": "electric_scooter", "bike_id": "1d163a4f20fe4db4eac438fdb4a4dd81", "is_reserved": 0, "rental_uris": {"ios": "https://dc.lft.to/lastmile_qr_scan", "android": "https://dc.lft.to/lastmile_qr_scan"}, "is_disabled": 0, "lon": -77.02273233333334, "name": "1d163a4f20fe4db4eac438fdb4a4dd81", "fusion_lon": 0.0}, {"lat": 38.90126383333333, "fusion_lat": 0.0, "type": "electric_scooter", "bike_id": "8ed09a4cbe5a29ab94c2ec2b83909c96", "is_reserved": 0, "rental_uris": {"ios": "https://dc.lft.to/lastmile_qr_scan", "android": "https://dc.lft.to/lastmile_qr_scan"}, "is_disabled": 0, "lon": -77.0175605, "name": "8ed09a4cbe5a29ab94c2ec2b83909c96", "fusion_lon": 0.0}, {"lat": 38.88565466666667, "fusion_lat": 0.0, "type": "electric_scooter", "bike_id": "960e086f4b28aa34266b4282b3102698", "is_reserved": 0, "rental_uris": {"ios": "https://dc.lft.to/lastmile_qr_scan", "android": "https://dc.lft.to/lastmile_qr_scan"}, "is_disabled": 0, "lon": -77.01991583333333, "name": "960e086f4b28aa34266b4282b3102698", "fusion_lon": 0.0}, {"lat": 38.91690966666667, "fusion_lat": 0.0, "type": "electric_scooter", "bike_id": "7b1c6d5d89ac6c2be25a06e5d66463aa", "is_reserved": 0, "rental_uris": {"ios": "https://dc.lft.to/lastmile_qr_scan", "android": "https://dc.lft.to/lastmile_qr_scan"}, "is_disabled": 0, "lon": -77.03772383333333, "name": "7b1c6d5d89ac6c2be25a06e5d66463aa", "fusion_lon": 0.0}, {"lat": 38.9125505, "fusion_lat": 0.0, "type": "electric_scooter", "bike_id": "9b99c0c8330ba206985a6cff0087e89f", "is_reserved": 0, "rental_uris": {"ios": "https://dc.lft.to/lastmile_qr_scan", "android": "https://dc.lft.to/lastmile_qr_scan"}, "is_disabled": 0, "lon": -77.00801033333333, "name": "9b99c0c8330ba206985a6cff0087e89f", "fusion_lon": 0.0}, {"lat": 38.88814266666667, "fusion_lat": 0.0, "type": "electric_scooter", "bike_id": "ee866aea9d375cb80136ebd3c082d175", "is_reserved": 0, "rental_uris": {"ios": "https://dc.lft.to/lastmile_qr_scan", "android": "https://dc.lft.to/lastmile_qr_scan"}, "is_disabled": 0, "lon": -76.9334555, "name": "ee866aea9d375cb80136ebd3c082d175", "fusion_lon": 0.0}, {"lat": 38.896218166666664, "fusion_lat": 0.0, "type": "electric_scooter", "bike_id": "757783bebae1c06cb4c653ac9b760edd", "is_reserved": 0, "rental_uris": {"ios": "https://dc.lft.to/lastmile_qr_scan", "android": "https://dc.lft.to/lastmile_qr_scan"}, "is_disabled": 0, "lon": -77.0284765, "name": "757783bebae1c06cb4c653ac9b760edd", "fusion_lon": 0.0}, {"lat": 38.89722783333333, "fusion_lat": 0.0, "type": "electric_scooter", "bike_id": "34f375390fb9d9d4d588f534be58474f", "is_reserved": 0, "rental_uris": {"ios": "https://dc.lft.to/lastmile_qr_scan", "android": "https://dc.lft.to/lastmile_qr_scan"}, "is_disabled": 0, "lon": -77.04289333333334, "name": "34f375390fb9d9d4d588f534be58474f", "fusion_lon": 0.0}, {"lat": 38.907766, "fusion_lat": 0.0, "type": "electric_scooter", "bike_id": "4a3d859149bc83d76758637acc063865", "is_reserved": 0, "rental_uris": {"ios": "https://dc.lft.to/lastmile_qr_scan", "android": "https://dc.lft.to/lastmile_qr_scan"}, "is_disabled": 0, "lon": -77.031894, "name": "4a3d859149bc83d76758637acc063865", "fusion_lon": 0.0}, {"lat": 38.91040233333333, "fusion_lat": 0.0, "type": "electric_scooter", "bike_id": "9be8d76e7680c126c615716a35037374", "is_reserved": 0, "rental_uris": {"ios": "https://dc.lft.to/lastmile_qr_scan", "android": "https://dc.lft.to/lastmile_qr_scan"}, "is_disabled": 0, "lon": -77.0162115, "name": "9be8d76e7680c126c615716a35037374", "fusion_lon": 0.0}, {"lat": 38.908403166666666, "fusion_lat": 0.0, "type": "electric_scooter", "bike_id": "39010c08cfcd4e313d7a0e68f7854edf", "is_reserved": 0, "rental_uris": {"ios": "https://dc.lft.to/lastmile_qr_scan", "android": "https://dc.lft.to/lastmile_qr_scan"}, "is_disabled": 0, "lon": -77.0400435, "name": "39010c08cfcd4e313d7a0e68f7854edf", "fusion_lon": 0.0}, {"lat": 38.85357316666666, "fusion_lat": 0.0, "type": "electric_bike", "bike_id": "581f5ffb20d35e6c5e5cdeec57c36285", "is_reserved": 0, "rental_uris": {"ios": "https://dc.lft.to/lastmile_qr_scan", "android": "https://dc.lft.to/lastmile_qr_scan"}, "is_disabled": 0, "lon": -77.13462816666667, "name": "581f5ffb20d35e6c5e5cdeec57c36285", "fusion_lon": 0.0}, {"lat": 38.91725866666667, "fusion_lat": 0.0, "type": "electric_scooter", "bike_id": "9a7cc8fd0599ea0b37b3edcd60544b0b", "is_reserved": 0, "rental_uris": {"ios": "https://dc.lft.to/lastmile_qr_scan", "android": "https://dc.lft.to/lastmile_qr_scan"}, "is_disabled": 0, "lon": -77.02962183333334, "name": "9a7cc8fd0599ea0b37b3edcd60544b0b", "fusion_lon": 0.0}, {"lat": 38.92211566666667, "fusion_lat": 0.0, "type": "electric_bike", "bike_id": "2d78ecba567b83432b1ef4b42aa445ba", "is_reserved": 0, "rental_uris": {"ios": "https://dc.lft.to/lastmile_qr_scan", "android": "https://dc.lft.to/lastmile_qr_scan"}, "is_disabled": 0, "lon": -76.98796633333333, "name": "2d78ecba567b83432b1ef4b42aa445ba", "fusion_lon": 0.0}, {"lat": 38.9203715, "fusion_lat": 0.0, "type": "electric_scooter", "bike_id": "e0daf5d9ba1d96393db1f3b3e610ba91", "is_reserved": 0, "rental_uris": {"ios": "https://dc.lft.to/lastmile_qr_scan", "android": "https://dc.lft.to/lastmile_qr_scan"}, "is_disabled": 0, "lon": -77.0121945, "name": "e0daf5d9ba1d96393db1f3b3e610ba91", "fusion_lon": 0.0}, {"lat": 38.87849283333333, "fusion_lat": 0.0, "type": "electric_scooter", "bike_id": "15d146a111c88fd4abce2493472f9086", "is_reserved": 0, "rental_uris": {"ios": "https://dc.lft.to/lastmile_qr_scan", "android": "https://dc.lft.to/lastmile_qr_scan"}, "is_disabled": 0, "lon": -77.01956616666666, "name": "15d146a111c88fd4abce2493472f9086", "fusion_lon": 0.0}, {"lat": 38.9057445, "fusion_lat": 0.0, "type": "electric_scooter", "bike_id": "c6332f83f38952a6cd220909bda7c5a7", "is_reserved": 0, "rental_uris": {"ios": "https://dc.lft.to/lastmile_qr_scan", "android": "https://dc.lft.to/lastmile_qr_scan"}, "is_disabled": 0, "lon": -77.03440333333333, "name": "c6332f83f38952a6cd220909bda7c5a7", "fusion_lon": 0.0}, {"lat": 38.919095166666665, "fusion_lat": 0.0, "type": "electric_bike", "bike_id": "157ac00913354964617ff4a6aae14ef5", "is_reserved": 0, "rental_uris": {"ios": "https://dc.lft.to/lastmile_qr_scan", "android": "https://dc.lft.to/lastmile_qr_scan"}, "is_disabled": 0, "lon": -77.0200675, "name": "157ac00913354964617ff4a6aae14ef5", "fusion_lon": 0.0}, {"lat": 38.902507666666665, "fusion_lat": 0.0, "type": "electric_scooter", "bike_id": "16a519412ca1579f031751df5f093f67", "is_reserved": 0, "rental_uris": {"ios": "https://dc.lft.to/lastmile_qr_scan", "android": "https://dc.lft.to/lastmile_qr_scan"}, "is_disabled": 0, "lon": -77.04336316666667, "name": "16a519412ca1579f031751df5f093f67", "fusion_lon": 0.0}, {"lat": 38.922379, "fusion_lat": 0.0, "type": "electric_scooter", "bike_id": "55c846cb2ada10e87ee3c7689bdc0356", "is_reserved": 0, "rental_uris": {"ios": "https://dc.lft.to/lastmile_qr_scan", "android": "https://dc.lft.to/lastmile_qr_scan"}, "is_disabled": 0, "lon": -77.03355233333333, "name": "55c846cb2ada10e87ee3c7689bdc0356", "fusion_lon": 0.0}, {"lat": 38.98855616666667, "fusion_lat": 0.0, "type": "electric_bike", "bike_id": "a8311247330511212cfdfc31048985cc", "is_reserved": 0, "rental_uris": {"ios": "https://dc.lft.to/lastmile_qr_scan", "android": "https://dc.lft.to/lastmile_qr_scan"}, "is_disabled": 0, "lon": -77.09559833333333, "name": "a8311247330511212cfdfc31048985cc", "fusion_lon": 0.0}, {"lat": 38.882078666666665, "fusion_lat": 0.0, "type": "electric_bike", "bike_id": "f8f36b6f23800c3801e5d7dc2293ba0a", "is_reserved": 0, "rental_uris": {"ios": "https://dc.lft.to/lastmile_qr_scan", "android": "https://dc.lft.to/lastmile_qr_scan"}, "is_disabled": 0, "lon": -77.11750716666667, "name": "f8f36b6f23800c3801e5d7dc2293ba0a", "fusion_lon": 0.0}, {"lat": 38.86690016666667, "fusion_lat": 0.0, "type": "electric_scooter", "bike_id": "7de647481dd8d760dbaa8a60512868b1", "is_reserved": 0, "rental_uris": {"ios": "https://dc.lft.to/lastmile_qr_scan", "android": "https://dc.lft.to/lastmile_qr_scan"}, "is_disabled": 0, "lon": -76.98567883333334, "name": "7de647481dd8d760dbaa8a60512868b1", "fusion_lon": 0.0}, {"lat": 38.90529216666667, "fusion_lat": 0.0, "type": "electric_scooter", "bike_id": "9213bd8b22c9c14f7aa97f65dbe25302", "is_reserved": 0, "rental_uris": {"ios": "https://dc.lft.to/lastmile_qr_scan", "android": "https://dc.lft.to/lastmile_qr_scan"}, "is_disabled": 0, "lon": -77.0653085, "name": "9213bd8b22c9c14f7aa97f65dbe25302", "fusion_lon": 0.0}, {"lat": 38.895051333333335, "fusion_lat": 0.0, "type": "electric_scooter", "bike_id": "bb563bb2977104058358ad8003bed17d", "is_reserved": 0, "rental_uris": {"ios": "https://dc.lft.to/lastmile_qr_scan", "android": "https://dc.lft.to/lastmile_qr_scan"}, "is_disabled": 0, "lon": -76.93475633333334, "name": "bb563bb2977104058358ad8003bed17d", "fusion_lon": 0.0}, {"lat": 38.926326333333336, "fusion_lat": 0.0, "type": "electric_scooter", "bike_id": "9d89bf506c97120e691ade85eaa24ad5", "is_reserved": 0, "rental_uris": {"ios": "https://dc.lft.to/lastmile_qr_scan", "android": "https://dc.lft.to/lastmile_qr_scan"}, "is_disabled": 0, "lon": -77.04301933333333, "name": "9d89bf506c97120e691ade85eaa24ad5", "fusion_lon": 0.0}, {"lat": 38.79981383333333, "fusion_lat": 0.0, "type": "electric_bike", "bike_id": "4df3e0dfd8bb66a5c270068f82164255", "is_reserved": 0, "rental_uris": {"ios": "https://dc.lft.to/lastmile_qr_scan", "android": "https://dc.lft.to/lastmile_qr_scan"}, "is_disabled": 0, "lon": -77.12982383333333, "name": "4df3e0dfd8bb66a5c270068f82164255", "fusion_lon": 0.0}, {"lat": 38.916768166666664, "fusion_lat": 0.0, "type": "electric_scooter", "bike_id": "bb1281af5fb67e15cf4b280fc48bcffd", "is_reserved": 0, "rental_uris": {"ios": "https://dc.lft.to/lastmile_qr_scan", "android": "https://dc.lft.to/lastmile_qr_scan"}, "is_disabled": 0, "lon": -77.03688683333333, "name": "bb1281af5fb67e15cf4b280fc48bcffd", "fusion_lon": 0.0}, {"lat": 38.89851433333333, "fusion_lat": 0.0, "type": "electric_scooter", "bike_id": "220ab9d5428e816234a60c4b9a79455a", "is_reserved": 0, "rental_uris": {"ios": "https://dc.lft.to/lastmile_qr_scan", "android": "https://dc.lft.to/lastmile_qr_scan"}, "is_disabled": 0, "lon": -77.021875, "name": "220ab9d5428e816234a60c4b9a79455a", "fusion_lon": 0.0}, {"lat": 38.910311666666665, "fusion_lat": 0.0, "type": "electric_scooter", "bike_id": "27453dcfe593bdeba38473e4def18232", "is_reserved": 0, "rental_uris": {"ios": "https://dc.lft.to/lastmile_qr_scan", "android": "https://dc.lft.to/lastmile_qr_scan"}, "is_disabled": 0, "lon": -77.0488575, "name": "27453dcfe593bdeba38473e4def18232", "fusion_lon": 0.0}, {"lat": 38.920250833333334, "fusion_lat": 0.0, "type": "electric_scooter", "bike_id": "d8851c386873c1fd2d2505d878a7044c", "is_reserved": 0, "rental_uris": {"ios": "https://dc.lft.to/lastmile_qr_scan", "android": "https://dc.lft.to/lastmile_qr_scan"}, "is_disabled": 0, "lon": -77.020645, "name": "d8851c386873c1fd2d2505d878a7044c", "fusion_lon": 0.0}, {"lat": 38.86237, "fusion_lat": 0.0, "type": "electric_scooter", "bike_id": "934b18d219ecb0932f48392b1820174b", "is_reserved": 0, "rental_uris": {"ios": "https://dc.lft.to/lastmile_qr_scan", "android": "https://dc.lft.to/lastmile_qr_scan"}, "is_disabled": 0, "lon": -76.995145, "name": "934b18d219ecb0932f48392b1820174b", "fusion_lon": 0.0}, {"lat": 38.900254333333336, "fusion_lat": 0.0, "type": "electric_scooter", "bike_id": "5c57da34be8f9c37b99fbcc4d0428f0c", "is_reserved": 0, "rental_uris": {"ios": "https://dc.lft.to/lastmile_qr_scan", "android": "https://dc.lft.to/lastmile_qr_scan"}, "is_disabled": 0, "lon": -76.99853333333333, "name": "5c57da34be8f9c37b99fbcc4d0428f0c", "fusion_lon": 0.0}, {"lat": 38.89219083333333, "fusion_lat": 0.0, "type": "electric_scooter", "bike_id": "644fbed1a1af7b6f139dbfe4998fc6ca", "is_reserved": 0, "rental_uris": {"ios": "https://dc.lft.to/lastmile_qr_scan", "android": "https://dc.lft.to/lastmile_qr_scan"}, "is_disabled": 0, "lon": -77.02308583333334, "name": "644fbed1a1af7b6f139dbfe4998fc6ca", "fusion_lon": 0.0}, {"lat": 38.904839833333334, "fusion_lat": 0.0, "type": "electric_scooter", "bike_id": "2243097e7850b22c6c3e6af0f71e0f60", "is_reserved": 0, "rental_uris": {"ios": "https://dc.lft.to/lastmile_qr_scan", "android": "https://dc.lft.to/lastmile_qr_scan"}, "is_disabled": 0, "lon": -77.0356205, "name": "2243097e7850b22c6c3e6af0f71e0f60", "fusion_lon": 0.0}, {"lat": 38.934761, "fusion_lat": 0.0, "type": "electric_scooter", "bike_id": "ea0ffc44ecec7031236ede57fed02db9", "is_reserved": 0, "rental_uris": {"ios": "https://dc.lft.to/lastmile_qr_scan", "android": "https://dc.lft.to/lastmile_qr_scan"}, "is_disabled": 0, "lon": -77.0358115, "name": "ea0ffc44ecec7031236ede57fed02db9", "fusion_lon": 0.0}, {"lat": 38.92159933333333, "fusion_lat": 0.0, "type": "electric_scooter", "bike_id": "b5c82d00398614868f17197eda6aa7d7", "is_reserved": 0, "rental_uris": {"ios": "https://dc.lft.to/lastmile_qr_scan", "android": "https://dc.lft.to/lastmile_qr_scan"}, "is_disabled": 0, "lon": -77.043455, "name": "b5c82d00398614868f17197eda6aa7d7", "fusion_lon": 0.0}, {"lat": 38.89751366666667, "fusion_lat": 0.0, "type": "electric_scooter", "bike_id": "d4bf7415cda150f7c6a7c90cd80c5da6", "is_reserved": 0, "rental_uris": {"ios": "https://dc.lft.to/lastmile_qr_scan", "android": "https://dc.lft.to/lastmile_qr_scan"}, "is_disabled": 0, "lon": -77.02985916666667, "name": "d4bf7415cda150f7c6a7c90cd80c5da6", "fusion_lon": 0.0}, {"lat": 38.9071885, "fusion_lat": 0.0, "type": "electric_scooter", "bike_id": "66646247096e78bcc6b4c52026f3537a", "is_reserved": 0, "rental_uris": {"ios": "https://dc.lft.to/lastmile_qr_scan", "android": "https://dc.lft.to/lastmile_qr_scan"}, "is_disabled": 0, "lon": -76.98922733333333, "name": "66646247096e78bcc6b4c52026f3537a", "fusion_lon": 0.0}, {"lat": 38.907727333333334, "fusion_lat": 0.0, "type": "electric_scooter", "bike_id": "cc7c9dc639efe7c2e75468b1455aa8ea", "is_reserved": 0, "rental_uris": {"ios": "https://dc.lft.to/lastmile_qr_scan", "android": "https://dc.lft.to/lastmile_qr_scan"}, "is_disabled": 0, "lon": -77.01220983333333, "name": "cc7c9dc639efe7c2e75468b1455aa8ea", "fusion_lon": 0.0}, {"lat": 38.90880883333333, "fusion_lat": 0.0, "type": "electric_scooter", "bike_id": "7c37ad956901738097044a3d5dac7bff", "is_reserved": 0, "rental_uris": {"ios": "https://dc.lft.to/lastmile_qr_scan", "android": "https://dc.lft.to/lastmile_qr_scan"}, "is_disabled": 0, "lon": -77.07533116666667, "name": "7c37ad956901738097044a3d5dac7bff", "fusion_lon": 0.0}, {"lat": 38.9021395, "fusion_lat": 0.0, "type": "electric_scooter", "bike_id": "d3f9f45e7b72c5b3e21c2b1fbb77e743", "is_reserved": 0, "rental_uris": {"ios": "https://dc.lft.to/lastmile_qr_scan", "android": "https://dc.lft.to/lastmile_qr_scan"}, "is_disabled": 0, "lon": -77.02326533333333, "name": "d3f9f45e7b72c5b3e21c2b1fbb77e743", "fusion_lon": 0.0}, {"lat": 38.9214745, "fusion_lat": 0.0, "type": "electric_scooter", "bike_id": "48fe27cf5b83d2e4bc486911efae60c1", "is_reserved": 0, "rental_uris": {"ios": "https://dc.lft.to/lastmile_qr_scan", "android": "https://dc.lft.to/lastmile_qr_scan"}, "is_disabled": 0, "lon": -77.0181845, "name": "48fe27cf5b83d2e4bc486911efae60c1", "fusion_lon": 0.0}, {"lat": 38.899010833333335, "fusion_lat": 0.0, "type": "electric_scooter", "bike_id": "7ca8a9f68f1281fbf7c2650e23b57991", "is_reserved": 0, "rental_uris": {"ios": "https://dc.lft.to/lastmile_qr_scan", "android": "https://dc.lft.to/lastmile_qr_scan"}, "is_disabled": 0, "lon": -77.03929383333333, "name": "7ca8a9f68f1281fbf7c2650e23b57991", "fusion_lon": 0.0}, {"lat": 38.90030933333333, "fusion_lat": 0.0, "type": "electric_scooter", "bike_id": "994da37131d55c868e8ed2de0902a7f2", "is_reserved": 0, "rental_uris": {"ios": "https://dc.lft.to/lastmile_qr_scan", "android": "https://dc.lft.to/lastmile_qr_scan"}, "is_disabled": 0, "lon": -76.99850883333333, "name": "994da37131d55c868e8ed2de0902a7f2", "fusion_lon": 0.0}, {"lat": 38.859218, "fusion_lat": 0.0, "type": "electric_scooter", "bike_id": "6e10edab07438e34329e371a15f60879", "is_reserved": 0, "rental_uris": {"ios": "https://dc.lft.to/lastmile_qr_scan", "android": "https://dc.lft.to/lastmile_qr_scan"}, "is_disabled": 0, "lon": -76.989752, "name": "6e10edab07438e34329e371a15f60879", "fusion_lon": 0.0}, {"lat": 38.920458833333335, "fusion_lat": 0.0, "type": "electric_scooter", "bike_id": "9e61a198c1dc502343352803e1fa7f6a", "is_reserved": 0, "rental_uris": {"ios": "https://dc.lft.to/lastmile_qr_scan", "android": "https://dc.lft.to/lastmile_qr_scan"}, "is_disabled": 0, "lon": -76.98941733333334, "name": "9e61a198c1dc502343352803e1fa7f6a", "fusion_lon": 0.0}, {"lat": 38.82943133333333, "fusion_lat": 0.0, "type": "electric_bike", "bike_id": "7d691cfebea53de12931212ce8f054ca", "is_reserved": 0, "rental_uris": {"ios": "https://dc.lft.to/lastmile_qr_scan", "android": "https://dc.lft.to/lastmile_qr_scan"}, "is_disabled": 0, "lon": -77.1236245, "name": "7d691cfebea53de12931212ce8f054ca", "fusion_lon": 0.0}, {"lat": 38.903651833333335, "fusion_lat": 0.0, "type": "electric_scooter", "bike_id": "4d6e6e3ffbd565a4c05aa7b765d32415", "is_reserved": 0, "rental_uris": {"ios": "https://dc.lft.to/lastmile_qr_scan", "android": "https://dc.lft.to/lastmile_qr_scan"}, "is_disabled": 0, "lon": -77.04293183333333, "name": "4d6e6e3ffbd565a4c05aa7b765d32415", "fusion_lon": 0.0}, {"lat": 38.905910666666664, "fusion_lat": 0.0, "type": "electric_scooter", "bike_id": "5eea7fc3c14b2f19669876ec40faa076", "is_reserved": 0, "rental_uris": {"ios": "https://dc.lft.to/lastmile_qr_scan", "android": "https://dc.lft.to/lastmile_qr_scan"}, "is_disabled": 0, "lon": -77.05128033333334, "name": "5eea7fc3c14b2f19669876ec40faa076", "fusion_lon": 0.0}, {"lat": 38.863833666666665, "fusion_lat": 0.0, "type": "electric_scooter", "bike_id": "ec6698c459821923590fdad804d2ae66", "is_reserved": 0, "rental_uris": {"ios": "https://dc.lft.to/lastmile_qr_scan", "android": "https://dc.lft.to/lastmile_qr_scan"}, "is_disabled": 0, "lon": -76.99042916666667, "name": "ec6698c459821923590fdad804d2ae66", "fusion_lon": 0.0}, {"lat": 38.90961633333333, "fusion_lat": 0.0, "type": "electric_scooter", "bike_id": "8e6a21b66e2fa4be049fe06b6f6aa62d", "is_reserved": 0, "rental_uris": {"ios": "https://dc.lft.to/lastmile_qr_scan", "android": "https://dc.lft.to/lastmile_qr_scan"}, "is_disabled": 0, "lon": -77.02687533333334, "name": "8e6a21b66e2fa4be049fe06b6f6aa62d", "fusion_lon": 0.0}, {"lat": 38.900496, "fusion_lat": 0.0, "type": "electric_scooter", "bike_id": "756ee6d2b815f99c00470aaad062cd10", "is_reserved": 0, "rental_uris": {"ios": "https://dc.lft.to/lastmile_qr_scan", "android": "https://dc.lft.to/lastmile_qr_scan"}, "is_disabled": 0, "lon": -76.91934166666667, "name": "756ee6d2b815f99c00470aaad062cd10", "fusion_lon": 0.0}, {"lat": 38.92868766666667, "fusion_lat": 0.0, "type": "electric_scooter", "bike_id": "39a5267f6ba86ba414f8260a2dfea72b", "is_reserved": 0, "rental_uris": {"ios": "https://dc.lft.to/lastmile_qr_scan", "android": "https://dc.lft.to/lastmile_qr_scan"}, "is_disabled": 0, "lon": -77.03286183333333, "name": "39a5267f6ba86ba414f8260a2dfea72b", "fusion_lon": 0.0}, {"lat": 38.927650166666666, "fusion_lat": 0.0, "type": "electric_bike", "bike_id": "48a9d1817d1952814d556036b8b40efb", "is_reserved": 0, "rental_uris": {"ios": "https://dc.lft.to/lastmile_qr_scan", "android": "https://dc.lft.to/lastmile_qr_scan"}, "is_disabled": 0, "lon": -77.07012116666667, "name": "48a9d1817d1952814d556036b8b40efb", "fusion_lon": 0.0}, {"lat": 38.90546, "fusion_lat": 0.0, "type": "electric_scooter", "bike_id": "c96ee2a3ac6ca693283aa800ce6f17d2", "is_reserved": 0, "rental_uris": {"ios": "https://dc.lft.to/lastmile_qr_scan", "android": "https://dc.lft.to/lastmile_qr_scan"}, "is_disabled": 0, "lon": -77.04196083333333, "name": "c96ee2a3ac6ca693283aa800ce6f17d2", "fusion_lon": 0.0}, {"lat": 38.8316525, "fusion_lat": 0.0, "type": "electric_scooter", "bike_id": "7c4a3cc21c863112a8ae31cd9f65de52", "is_reserved": 0, "rental_uris": {"ios": "https://dc.lft.to/lastmile_qr_scan", "android": "https://dc.lft.to/lastmile_qr_scan"}, "is_disabled": 0, "lon": -77.0511615, "name": "7c4a3cc21c863112a8ae31cd9f65de52", "fusion_lon": 0.0}, {"lat": 38.801286833333336, "fusion_lat": 0.0, "type": "electric_bike", "bike_id": "67ba0a674a2eb5d6248ec2e1c625ea5c", "is_reserved": 0, "rental_uris": {"ios": "https://dc.lft.to/lastmile_qr_scan", "android": "https://dc.lft.to/lastmile_qr_scan"}, "is_disabled": 0, "lon": -77.07054933333333, "name": "67ba0a674a2eb5d6248ec2e1c625ea5c", "fusion_lon": 0.0}, {"lat": 38.93629583333333, "fusion_lat": 0.0, "type": "electric_bike", "bike_id": "2d85c6e9c9311c0cfea2e1c174f5c12b", "is_reserved": 0, "rental_uris": {"ios": "https://dc.lft.to/lastmile_qr_scan", "android": "https://dc.lft.to/lastmile_qr_scan"}, "is_disabled": 0, "lon": -77.09023533333334, "name": "2d85c6e9c9311c0cfea2e1c174f5c12b", "fusion_lon": 0.0}, {"lat": 38.899646, "fusion_lat": 0.0, "type": "electric_bike", "bike_id": "d84bec57edcd08f3625a7224e7dcb0ea", "is_reserved": 0, "rental_uris": {"ios": "https://dc.lft.to/lastmile_qr_scan", "android": "https://dc.lft.to/lastmile_qr_scan"}, "is_disabled": 0, "lon": -76.986721, "name": "d84bec57edcd08f3625a7224e7dcb0ea", "fusion_lon": 0.0}, {"lat": 38.879377833333336, "fusion_lat": 0.0, "type": "electric_scooter", "bike_id": "b65e3876443e8e6e0613541c6d67c411", "is_reserved": 0, "rental_uris": {"ios": "https://dc.lft.to/lastmile_qr_scan", "android": "https://dc.lft.to/lastmile_qr_scan"}, "is_disabled": 0, "lon": -77.0006185, "name": "b65e3876443e8e6e0613541c6d67c411", "fusion_lon": 0.0}, {"lat": 38.89906383333334, "fusion_lat": 0.0, "type": "electric_scooter", "bike_id": "41ef9ee9facf2ab5a7027e3772d957d0", "is_reserved": 0, "rental_uris": {"ios": "https://dc.lft.to/lastmile_qr_scan", "android": "https://dc.lft.to/lastmile_qr_scan"}, "is_disabled": 0, "lon": -77.03987783333334, "name": "41ef9ee9facf2ab5a7027e3772d957d0", "fusion_lon": 0.0}, {"lat": 38.90736283333333, "fusion_lat": 0.0, "type": "electric_scooter", "bike_id": "e917fffd96dce1640a3eac35b1899622", "is_reserved": 0, "rental_uris": {"ios": "https://dc.lft.to/lastmile_qr_scan", "android": "https://dc.lft.to/lastmile_qr_scan"}, "is_disabled": 0, "lon": -76.9796805, "name": "e917fffd96dce1640a3eac35b1899622", "fusion_lon": 0.0}, {"lat": 38.876669, "fusion_lat": 0.0, "type": "electric_scooter", "bike_id": "e19aebf671e3352c905a98b5db814825", "is_reserved": 0, "rental_uris": {"ios": "https://dc.lft.to/lastmile_qr_scan", "android": "https://dc.lft.to/lastmile_qr_scan"}, "is_disabled": 0, "lon": -77.00434933333334, "name": "e19aebf671e3352c905a98b5db814825", "fusion_lon": 0.0}, {"lat": 38.909976, "fusion_lat": 0.0, "type": "electric_scooter", "bike_id": "015d9352377fffc98025fc776bdfb1f8", "is_reserved": 0, "rental_uris": {"ios": "https://dc.lft.to/lastmile_qr_scan", "android": "https://dc.lft.to/lastmile_qr_scan"}, "is_disabled": 0, "lon": -77.03191566666666, "name": "015d9352377fffc98025fc776bdfb1f8", "fusion_lon": 0.0}, {"lat": 38.90983166666667, "fusion_lat": 0.0, "type": "electric_scooter", "bike_id": "5f78441edd680e005f841293d599331b", "is_reserved": 0, "rental_uris": {"ios": "https://dc.lft.to/lastmile_qr_scan", "android": "https://dc.lft.to/lastmile_qr_scan"}, "is_disabled": 0, "lon": -77.04408466666666, "name": "5f78441edd680e005f841293d599331b", "fusion_lon": 0.0}, {"lat": 38.88404633333333, "fusion_lat": 0.0, "type": "electric_scooter", "bike_id": "16a1bcdf5eac0e6838c17ac10b13fc72", "is_reserved": 0, "rental_uris": {"ios": "https://dc.lft.to/lastmile_qr_scan", "android": "https://dc.lft.to/lastmile_qr_scan"}, "is_disabled": 0, "lon": -76.95390916666666, "name": "16a1bcdf5eac0e6838c17ac10b13fc72", "fusion_lon": 0.0}, {"lat": 38.90834483333333, "fusion_lat": 0.0, "type": "electric_bike", "bike_id": "b0f3a9600b18350c7b3bad899ebf262f", "is_reserved": 0, "rental_uris": {"ios": "https://dc.lft.to/lastmile_qr_scan", "android": "https://dc.lft.to/lastmile_qr_scan"}, "is_disabled": 0, "lon": -76.93323916666667, "name": "b0f3a9600b18350c7b3bad899ebf262f", "fusion_lon": 0.0}, {"lat": 38.96133416666667, "fusion_lat": 0.0, "type": "electric_bike", "bike_id": "c220649e8a405b04c5208e996b421bdc", "is_reserved": 0, "rental_uris": {"ios": "https://dc.lft.to/lastmile_qr_scan", "android": "https://dc.lft.to/lastmile_qr_scan"}, "is_disabled": 0, "lon": -77.01359283333333, "name": "c220649e8a405b04c5208e996b421bdc", "fusion_lon": 0.0}, {"lat": 38.8926755, "fusion_lat": 0.0, "type": "electric_scooter", "bike_id": "5ab3257bbce4fbf1bfdf442f9f9d2eba", "is_reserved": 0, "rental_uris": {"ios": "https://dc.lft.to/lastmile_qr_scan", "android": "https://dc.lft.to/lastmile_qr_scan"}, "is_disabled": 0, "lon": -77.00332233333333, "name": "5ab3257bbce4fbf1bfdf442f9f9d2eba", "fusion_lon": 0.0}, {"lat": 38.920331833333336, "fusion_lat": 0.0, "type": "electric_scooter", "bike_id": "c314e55ae6d6335b1a7af0dc1ad46000", "is_reserved": 0, "rental_uris": {"ios": "https://dc.lft.to/lastmile_qr_scan", "android": "https://dc.lft.to/lastmile_qr_scan"}, "is_disabled": 0, "lon": -77.04174133333333, "name": "c314e55ae6d6335b1a7af0dc1ad46000", "fusion_lon": 0.0}, {"lat": 38.91679633333333, "fusion_lat": 0.0, "type": "electric_scooter", "bike_id": "e16e3bb0dd94be803281990059f0b628", "is_reserved": 0, "rental_uris": {"ios": "https://dc.lft.to/lastmile_qr_scan", "android": "https://dc.lft.to/lastmile_qr_scan"}, "is_disabled": 0, "lon": -77.027077, "name": "e16e3bb0dd94be803281990059f0b628", "fusion_lon": 0.0}, {"lat": 38.940370333333334, "fusion_lat": 0.0, "type": "electric_scooter", "bike_id": "6d0d27ed20899556fc7f4d7739cf84e2", "is_reserved": 0, "rental_uris": {"ios": "https://dc.lft.to/lastmile_qr_scan", "android": "https://dc.lft.to/lastmile_qr_scan"}, "is_disabled": 0, "lon": -77.02918683333333, "name": "6d0d27ed20899556fc7f4d7739cf84e2", "fusion_lon": 0.0}, {"lat": 38.8967135, "fusion_lat": 0.0, "type": "electric_scooter", "bike_id": "a4b7f46674b293793626af438cd3ae3f", "is_reserved": 0, "rental_uris": {"ios": "https://dc.lft.to/lastmile_qr_scan", "android": "https://dc.lft.to/lastmile_qr_scan"}, "is_disabled": 0, "lon": -77.026117, "name": "a4b7f46674b293793626af438cd3ae3f", "fusion_lon": 0.0}, {"lat": 38.910736166666666, "fusion_lat": 0.0, "type": "electric_scooter", "bike_id": "cdd067afe29911c62153d9939129bb99", "is_reserved": 0, "rental_uris": {"ios": "https://dc.lft.to/lastmile_qr_scan", "android": "https://dc.lft.to/lastmile_qr_scan"}, "is_disabled": 0, "lon": -77.03832533333333, "name": "cdd067afe29911c62153d9939129bb99", "fusion_lon": 0.0}, {"lat": 38.907110333333335, "fusion_lat": 0.0, "type": "electric_scooter", "bike_id": "28b0529766c4ebbfa38fd5ccc48deb82", "is_reserved": 0, "rental_uris": {"ios": "https://dc.lft.to/lastmile_qr_scan", "android": "https://dc.lft.to/lastmile_qr_scan"}, "is_disabled": 0, "lon": -77.02977133333333, "name": "28b0529766c4ebbfa38fd5ccc48deb82", "fusion_lon": 0.0}, {"lat": 38.91638, "fusion_lat": 0.0, "type": "electric_scooter", "bike_id": "039f0d0c012fc588068e9790c7a12e5d", "is_reserved": 0, "rental_uris": {"ios": "https://dc.lft.to/lastmile_qr_scan", "android": "https://dc.lft.to/lastmile_qr_scan"}, "is_disabled": 0, "lon": -77.042466, "name": "039f0d0c012fc588068e9790c7a12e5d", "fusion_lon": 0.0}, {"lat": 38.951529, "fusion_lat": 0.0, "type": "electric_scooter", "bike_id": "98c23232f0b8d7ae14b69500e77cfb79", "is_reserved": 0, "rental_uris": {"ios": "https://dc.lft.to/lastmile_qr_scan", "android": "https://dc.lft.to/lastmile_qr_scan"}, "is_disabled": 0, "lon": -77.01868766666666, "name": "98c23232f0b8d7ae14b69500e77cfb79", "fusion_lon": 0.0}, {"lat": 38.89329566666667, "fusion_lat": 0.0, "type": "electric_scooter", "bike_id": "15e54f8cad20def736b1fc953136ac8d", "is_reserved": 0, "rental_uris": {"ios": "https://dc.lft.to/lastmile_qr_scan", "android": "https://dc.lft.to/lastmile_qr_scan"}, "is_disabled": 0, "lon": -77.04875266666667, "name": "15e54f8cad20def736b1fc953136ac8d", "fusion_lon": 0.0}, {"lat": 38.90568533333333, "fusion_lat": 0.0, "type": "electric_scooter", "bike_id": "13c06e2649ac83709c8ca7e21f259326", "is_reserved": 0, "rental_uris": {"ios": "https://dc.lft.to/lastmile_qr_scan", "android": "https://dc.lft.to/lastmile_qr_scan"}, "is_disabled": 0, "lon": -77.029616, "name": "13c06e2649ac83709c8ca7e21f259326", "fusion_lon": 0.0}, {"lat": 38.91697966666667, "fusion_lat": 0.0, "type": "electric_scooter", "bike_id": "9226d33a6dfe46c2f2fa49334584a0ae", "is_reserved": 0, "rental_uris": {"ios": "https://dc.lft.to/lastmile_qr_scan", "android": "https://dc.lft.to/lastmile_qr_scan"}, "is_disabled": 0, "lon": -77.03585716666667, "name": "9226d33a6dfe46c2f2fa49334584a0ae", "fusion_lon": 0.0}, {"lat": 38.874170666666664, "fusion_lat": 0.0, "type": "electric_scooter", "bike_id": "0d0c3c3243570ba7993fe952aa1ef7a9", "is_reserved": 0, "rental_uris": {"ios": "https://dc.lft.to/lastmile_qr_scan", "android": "https://dc.lft.to/lastmile_qr_scan"}, "is_disabled": 0, "lon": -76.971136, "name": "0d0c3c3243570ba7993fe952aa1ef7a9", "fusion_lon": 0.0}, {"lat": 38.899732666666665, "fusion_lat": 0.0, "type": "electric_scooter", "bike_id": "2da761a61e6b68358bf02ef2a19753d1", "is_reserved": 0, "rental_uris": {"ios": "https://dc.lft.to/lastmile_qr_scan", "android": "https://dc.lft.to/lastmile_qr_scan"}, "is_disabled": 0, "lon": -77.046615, "name": "2da761a61e6b68358bf02ef2a19753d1", "fusion_lon": 0.0}, {"lat": 38.92255883333333, "fusion_lat": 0.0, "type": "electric_scooter", "bike_id": "62d1d26747ce9ff45499595dfd21ae2f", "is_reserved": 0, "rental_uris": {"ios": "https://dc.lft.to/lastmile_qr_scan", "android": "https://dc.lft.to/lastmile_qr_scan"}, "is_disabled": 0, "lon": -77.02086833333334, "name": "62d1d26747ce9ff45499595dfd21ae2f", "fusion_lon": 0.0}, {"lat": 38.8540975, "fusion_lat": 0.0, "type": "electric_bike", "bike_id": "d1bc987c1c142d315670ee60e1335adf", "is_reserved": 0, "rental_uris": {"ios": "https://dc.lft.to/lastmile_qr_scan", "android": "https://dc.lft.to/lastmile_qr_scan"}, "is_disabled": 0, "lon": -77.12079433333334, "name": "d1bc987c1c142d315670ee60e1335adf", "fusion_lon": 0.0}, {"lat": 38.9286755, "fusion_lat": 0.0, "type": "electric_scooter", "bike_id": "2c0ffa0770d2485f0d596cf06d5ade22", "is_reserved": 0, "rental_uris": {"ios": "https://dc.lft.to/lastmile_qr_scan", "android": "https://dc.lft.to/lastmile_qr_scan"}, "is_disabled": 0, "lon": -77.0334585, "name": "2c0ffa0770d2485f0d596cf06d5ade22", "fusion_lon": 0.0}, {"lat": 38.8998945, "fusion_lat": 0.0, "type": "electric_scooter", "bike_id": "0994a662348e2680709fbdb98e3fd217", "is_reserved": 0, "rental_uris": {"ios": "https://dc.lft.to/lastmile_qr_scan", "android": "https://dc.lft.to/lastmile_qr_scan"}, "is_disabled": 0, "lon": -77.0069, "name": "0994a662348e2680709fbdb98e3fd217", "fusion_lon": 0.0}, {"lat": 38.9033845, "fusion_lat": 0.0, "type": "electric_scooter", "bike_id": "532f6f13f96158b811ebc3efd230963d", "is_reserved": 0, "rental_uris": {"ios": "https://dc.lft.to/lastmile_qr_scan", "android": "https://dc.lft.to/lastmile_qr_scan"}, "is_disabled": 0, "lon": -76.97583733333333, "name": "532f6f13f96158b811ebc3efd230963d", "fusion_lon": 0.0}, {"lat": 38.91573016666667, "fusion_lat": 0.0, "type": "electric_scooter", "bike_id": "f22b18690e53e90a4763cf492b7a7fdb", "is_reserved": 0, "rental_uris": {"ios": "https://dc.lft.to/lastmile_qr_scan", "android": "https://dc.lft.to/lastmile_qr_scan"}, "is_disabled": 0, "lon": -77.02288483333334, "name": "f22b18690e53e90a4763cf492b7a7fdb", "fusion_lon": 0.0}, {"lat": 38.90152033333333, "fusion_lat": 0.0, "type": "electric_scooter", "bike_id": "57788aa0105c3c0b0dc084ede4cce03b", "is_reserved": 0, "rental_uris": {"ios": "https://dc.lft.to/lastmile_qr_scan", "android": "https://dc.lft.to/lastmile_qr_scan"}, "is_disabled": 0, "lon": -76.92138516666667, "name": "57788aa0105c3c0b0dc084ede4cce03b", "fusion_lon": 0.0}, {"lat": 38.93535683333333, "fusion_lat": 0.0, "type": "electric_scooter", "bike_id": "79c37f369eefb250452635259725127d", "is_reserved": 0, "rental_uris": {"ios": "https://dc.lft.to/lastmile_qr_scan", "android": "https://dc.lft.to/lastmile_qr_scan"}, "is_disabled": 0, "lon": -77.02351266666666, "name": "79c37f369eefb250452635259725127d", "fusion_lon": 0.0}, {"lat": 38.86242883333333, "fusion_lat": 0.0, "type": "electric_scooter", "bike_id": "2f70da873537f06bd367f13e816f6b98", "is_reserved": 0, "rental_uris": {"ios": "https://dc.lft.to/lastmile_qr_scan", "android": "https://dc.lft.to/lastmile_qr_scan"}, "is_disabled": 0, "lon": -76.9949365, "name": "2f70da873537f06bd367f13e816f6b98", "fusion_lon": 0.0}, {"lat": 38.919638166666665, "fusion_lat": 0.0, "type": "electric_scooter", "bike_id": "6be5afee8efff0e4d8dd17a6ca1667d3", "is_reserved": 0, "rental_uris": {"ios": "https://dc.lft.to/lastmile_qr_scan", "android": "https://dc.lft.to/lastmile_qr_scan"}, "is_disabled": 0, "lon": -77.041607, "name": "6be5afee8efff0e4d8dd17a6ca1667d3", "fusion_lon": 0.0}, {"lat": 38.905234, "fusion_lat": 0.0, "type": "electric_scooter", "bike_id": "db5d6c26f27ae9aac99fd46cccc9acfd", "is_reserved": 0, "rental_uris": {"ios": "https://dc.lft.to/lastmile_qr_scan", "android": "https://dc.lft.to/lastmile_qr_scan"}, "is_disabled": 0, "lon": -77.002042, "name": "db5d6c26f27ae9aac99fd46cccc9acfd", "fusion_lon": 0.0}, {"lat": 38.928894166666666, "fusion_lat": 0.0, "type": "electric_bike", "bike_id": "1e32a1539702385eb47ed00d154ade21", "is_reserved": 0, "rental_uris": {"ios": "https://dc.lft.to/lastmile_qr_scan", "android": "https://dc.lft.to/lastmile_qr_scan"}, "is_disabled": 0, "lon": -77.08402666666667, "name": "1e32a1539702385eb47ed00d154ade21", "fusion_lon": 0.0}, {"lat": 38.932704, "fusion_lat": 0.0, "type": "electric_scooter", "bike_id": "4022543bf6c6d1c0cb25d900e1125f8e", "is_reserved": 0, "rental_uris": {"ios": "https://dc.lft.to/lastmile_qr_scan", "android": "https://dc.lft.to/lastmile_qr_scan"}, "is_disabled": 0, "lon": -77.0191995, "name": "4022543bf6c6d1c0cb25d900e1125f8e", "fusion_lon": 0.0}, {"lat": 38.938879666666665, "fusion_lat": 0.0, "type": "electric_scooter", "bike_id": "fe14a27cefdc427228fbeb0873763cdb", "is_reserved": 0, "rental_uris": {"ios": "https://dc.lft.to/lastmile_qr_scan", "android": "https://dc.lft.to/lastmile_qr_scan"}, "is_disabled": 0, "lon": -77.02464433333333, "name": "fe14a27cefdc427228fbeb0873763cdb", "fusion_lon": 0.0}, {"lat": 38.902219833333334, "fusion_lat": 0.0, "type": "electric_scooter", "bike_id": "c49f11b6b23e850298efb07d0eb5cf4c", "is_reserved": 0, "rental_uris": {"ios": "https://dc.lft.to/lastmile_qr_scan", "android": "https://dc.lft.to/lastmile_qr_scan"}, "is_disabled": 0, "lon": -77.0229865, "name": "c49f11b6b23e850298efb07d0eb5cf4c", "fusion_lon": 0.0}, {"lat": 38.906465, "fusion_lat": 0.0, "type": "electric_scooter", "bike_id": "90027f24ba28d9c2484ba5ea339e3e17", "is_reserved": 0, "rental_uris": {"ios": "https://dc.lft.to/lastmile_qr_scan", "android": "https://dc.lft.to/lastmile_qr_scan"}, "is_disabled": 0, "lon": -77.0101805, "name": "90027f24ba28d9c2484ba5ea339e3e17", "fusion_lon": 0.0}, {"lat": 38.95250883333333, "fusion_lat": 0.0, "type": "electric_bike", "bike_id": "53b1c5383e9e9a518c1accb942203bc3", "is_reserved": 0, "rental_uris": {"ios": "https://dc.lft.to/lastmile_qr_scan", "android": "https://dc.lft.to/lastmile_qr_scan"}, "is_disabled": 0, "lon": -76.97673066666667, "name": "53b1c5383e9e9a518c1accb942203bc3", "fusion_lon": 0.0}, {"lat": 38.92292533333333, "fusion_lat": 0.0, "type": "electric_bike", "bike_id": "0ff15f15ec19b960a7649360961ce3e3", "is_reserved": 0, "rental_uris": {"ios": "https://dc.lft.to/lastmile_qr_scan", "android": "https://dc.lft.to/lastmile_qr_scan"}, "is_disabled": 0, "lon": -77.0223985, "name": "0ff15f15ec19b960a7649360961ce3e3", "fusion_lon": 0.0}, {"lat": 38.902111, "fusion_lat": 0.0, "type": "electric_scooter", "bike_id": "fc624a195d3417ce4aa122fd8786fbd9", "is_reserved": 0, "rental_uris": {"ios": "https://dc.lft.to/lastmile_qr_scan", "android": "https://dc.lft.to/lastmile_qr_scan"}, "is_disabled": 0, "lon": -77.02369033333333, "name": "fc624a195d3417ce4aa122fd8786fbd9", "fusion_lon": 0.0}, {"lat": 38.9355075, "fusion_lat": 0.0, "type": "electric_scooter", "bike_id": "7563f6c8aa61fb246b2a894eaeb28956", "is_reserved": 0, "rental_uris": {"ios": "https://dc.lft.to/lastmile_qr_scan", "android": "https://dc.lft.to/lastmile_qr_scan"}, "is_disabled": 0, "lon": -77.05829883333334, "name": "7563f6c8aa61fb246b2a894eaeb28956", "fusion_lon": 0.0}, {"lat": 38.93049416666667, "fusion_lat": 0.0, "type": "electric_scooter", "bike_id": "5c2ef74d20795cb9f2264baf6d5bbbc1", "is_reserved": 0, "rental_uris": {"ios": "https://dc.lft.to/lastmile_qr_scan", "android": "https://dc.lft.to/lastmile_qr_scan"}, "is_disabled": 0, "lon": -77.03257583333334, "name": "5c2ef74d20795cb9f2264baf6d5bbbc1", "fusion_lon": 0.0}, {"lat": 38.9172945, "fusion_lat": 0.0, "type": "electric_scooter", "bike_id": "9e9ee714f5ff1ad49a5959f3a30a456a", "is_reserved": 0, "rental_uris": {"ios": "https://dc.lft.to/lastmile_qr_scan", "android": "https://dc.lft.to/lastmile_qr_scan"}, "is_disabled": 0, "lon": -77.02504833333333, "name": "9e9ee714f5ff1ad49a5959f3a30a456a", "fusion_lon": 0.0}, {"lat": 38.9138145, "fusion_lat": 0.0, "type": "electric_bike", "bike_id": "8e288037e93b609395823315b27e4c31", "is_reserved": 0, "rental_uris": {"ios": "https://dc.lft.to/lastmile_qr_scan", "android": "https://dc.lft.to/lastmile_qr_scan"}, "is_disabled": 0, "lon": -77.089266, "name": "8e288037e93b609395823315b27e4c31", "fusion_lon": 0.0}, {"lat": 38.9136295, "fusion_lat": 0.0, "type": "electric_scooter", "bike_id": "2fa19e36aea637b8e933c459c5b2239b", "is_reserved": 0, "rental_uris": {"ios": "https://dc.lft.to/lastmile_qr_scan", "android": "https://dc.lft.to/lastmile_qr_scan"}, "is_disabled": 0, "lon": -77.06933566666666, "name": "2fa19e36aea637b8e933c459c5b2239b", "fusion_lon": 0.0}, {"lat": 38.8343175, "fusion_lat": 0.0, "type": "electric_bike", "bike_id": "fde2fc262c331c6e6330fc18da0bdec8", "is_reserved": 0, "rental_uris": {"ios": "https://dc.lft.to/lastmile_qr_scan", "android": "https://dc.lft.to/lastmile_qr_scan"}, "is_disabled": 0, "lon": -77.10350183333334, "name": "fde2fc262c331c6e6330fc18da0bdec8", "fusion_lon": 0.0}, {"lat": 38.908319166666665, "fusion_lat": 0.0, "type": "electric_scooter", "bike_id": "84d1c0ed6499da2f7f4c698a940e99bf", "is_reserved": 0, "rental_uris": {"ios": "https://dc.lft.to/lastmile_qr_scan", "android": "https://dc.lft.to/lastmile_qr_scan"}, "is_disabled": 0, "lon": -77.04463466666667, "name": "84d1c0ed6499da2f7f4c698a940e99bf", "fusion_lon": 0.0}, {"lat": 38.92271183333333, "fusion_lat": 0.0, "type": "electric_scooter", "bike_id": "7c77aedf202a7439b540bae55ed8a099", "is_reserved": 0, "rental_uris": {"ios": "https://dc.lft.to/lastmile_qr_scan", "android": "https://dc.lft.to/lastmile_qr_scan"}, "is_disabled": 0, "lon": -77.02186366666666, "name": "7c77aedf202a7439b540bae55ed8a099", "fusion_lon": 0.0}, {"lat": 38.9049395, "fusion_lat": 0.0, "type": "electric_scooter", "bike_id": "39dc2c133b01013e5a171f164e856005", "is_reserved": 0, "rental_uris": {"ios": "https://dc.lft.to/lastmile_qr_scan", "android": "https://dc.lft.to/lastmile_qr_scan"}, "is_disabled": 0, "lon": -77.02957983333333, "name": "39dc2c133b01013e5a171f164e856005", "fusion_lon": 0.0}, {"lat": 38.8813615, "fusion_lat": 0.0, "type": "electric_bike", "bike_id": "24d5e6a336cbeb9fafc7045add3092be", "is_reserved": 0, "rental_uris": {"ios": "https://dc.lft.to/lastmile_qr_scan", "android": "https://dc.lft.to/lastmile_qr_scan"}, "is_disabled": 0, "lon": -76.99546, "name": "24d5e6a336cbeb9fafc7045add3092be", "fusion_lon": 0.0}, {"lat": 38.956612, "fusion_lat": 0.0, "type": "electric_scooter", "bike_id": "9f0962b47281aa8b2be0abba5951b20f", "is_reserved": 0, "rental_uris": {"ios": "https://dc.lft.to/lastmile_qr_scan", "android": "https://dc.lft.to/lastmile_qr_scan"}, "is_disabled": 0, "lon": -77.01033416666667, "name": "9f0962b47281aa8b2be0abba5951b20f", "fusion_lon": 0.0}, {"lat": 38.9132485, "fusion_lat": 0.0, "type": "electric_scooter", "bike_id": "0f05547c281c5e73cc95115c7e99249a", "is_reserved": 0, "rental_uris": {"ios": "https://dc.lft.to/lastmile_qr_scan", "android": "https://dc.lft.to/lastmile_qr_scan"}, "is_disabled": 0, "lon": -77.03647766666667, "name": "0f05547c281c5e73cc95115c7e99249a", "fusion_lon": 0.0}, {"lat": 38.92507716666667, "fusion_lat": 0.0, "type": "electric_scooter", "bike_id": "39ee765a39dd4417a0d9bd159d50f8f4", "is_reserved": 0, "rental_uris": {"ios": "https://dc.lft.to/lastmile_qr_scan", "android": "https://dc.lft.to/lastmile_qr_scan"}, "is_disabled": 0, "lon": -77.0270385, "name": "39ee765a39dd4417a0d9bd159d50f8f4", "fusion_lon": 0.0}, {"lat": 38.958443833333334, "fusion_lat": 0.0, "type": "electric_scooter", "bike_id": "3b28e94ff3e1172e56c49bc5fdb65f08", "is_reserved": 0, "rental_uris": {"ios": "https://dc.lft.to/lastmile_qr_scan", "android": "https://dc.lft.to/lastmile_qr_scan"}, "is_disabled": 0, "lon": -77.02737883333333, "name": "3b28e94ff3e1172e56c49bc5fdb65f08", "fusion_lon": 0.0}, {"lat": 38.949804666666665, "fusion_lat": 0.0, "type": "electric_scooter", "bike_id": "eca86af41855d187d02dda4496f0ced8", "is_reserved": 0, "rental_uris": {"ios": "https://dc.lft.to/lastmile_qr_scan", "android": "https://dc.lft.to/lastmile_qr_scan"}, "is_disabled": 0, "lon": -77.02651016666667, "name": "eca86af41855d187d02dda4496f0ced8", "fusion_lon": 0.0}, {"lat": 38.921784333333335, "fusion_lat": 0.0, "type": "electric_scooter", "bike_id": "3adf1dcca4727add9640b3432554a57a", "is_reserved": 0, "rental_uris": {"ios": "https://dc.lft.to/lastmile_qr_scan", "android": "https://dc.lft.to/lastmile_qr_scan"}, "is_disabled": 0, "lon": -77.04696783333333, "name": "3adf1dcca4727add9640b3432554a57a", "fusion_lon": 0.0}, {"lat": 38.886101833333335, "fusion_lat": 0.0, "type": "electric_scooter", "bike_id": "9489a8e73807a74e31a469029c3e2d5f", "is_reserved": 0, "rental_uris": {"ios": "https://dc.lft.to/lastmile_qr_scan", "android": "https://dc.lft.to/lastmile_qr_scan"}, "is_disabled": 0, "lon": -77.001368, "name": "9489a8e73807a74e31a469029c3e2d5f", "fusion_lon": 0.0}, {"lat": 38.922457666666666, "fusion_lat": 0.0, "type": "electric_scooter", "bike_id": "f8a5e1ad21963487f874e9f16477c9a9", "is_reserved": 0, "rental_uris": {"ios": "https://dc.lft.to/lastmile_qr_scan", "android": "https://dc.lft.to/lastmile_qr_scan"}, "is_disabled": 0, "lon": -77.046997, "name": "f8a5e1ad21963487f874e9f16477c9a9", "fusion_lon": 0.0}, {"lat": 38.85937283333333, "fusion_lat": 0.0, "type": "electric_bike", "bike_id": "030520787b0389607d7d674ef421d562", "is_reserved": 0, "rental_uris": {"ios": "https://dc.lft.to/lastmile_qr_scan", "android": "https://dc.lft.to/lastmile_qr_scan"}, "is_disabled": 0, "lon": -77.11829616666667, "name": "030520787b0389607d7d674ef421d562", "fusion_lon": 0.0}, {"lat": 38.900414, "fusion_lat": 0.0, "type": "electric_scooter", "bike_id": "8c248ebad3eed7744af534b0766b9b43", "is_reserved": 0, "rental_uris": {"ios": "https://dc.lft.to/lastmile_qr_scan", "android": "https://dc.lft.to/lastmile_qr_scan"}, "is_disabled": 0, "lon": -77.01218583333333, "name": "8c248ebad3eed7744af534b0766b9b43", "fusion_lon": 0.0}, {"lat": 38.956913166666666, "fusion_lat": 0.0, "type": "electric_bike", "bike_id": "2acfb0936610129c0515248a4177d237", "is_reserved": 0, "rental_uris": {"ios": "https://dc.lft.to/lastmile_qr_scan", "android": "https://dc.lft.to/lastmile_qr_scan"}, "is_disabled": 0, "lon": -77.02225316666667, "name": "2acfb0936610129c0515248a4177d237", "fusion_lon": 0.0}, {"lat": 38.90591583333333, "fusion_lat": 0.0, "type": "electric_scooter", "bike_id": "e5f82f06ac61237b55f8d4555310959b", "is_reserved": 0, "rental_uris": {"ios": "https://dc.lft.to/lastmile_qr_scan", "android": "https://dc.lft.to/lastmile_qr_scan"}, "is_disabled": 0, "lon": -77.068007, "name": "e5f82f06ac61237b55f8d4555310959b", "fusion_lon": 0.0}, {"lat": 38.8237005, "fusion_lat": 0.0, "type": "electric_bike", "bike_id": "a6b42946c0c6f28ea6a186539ab80827", "is_reserved": 0, "rental_uris": {"ios": "https://dc.lft.to/lastmile_qr_scan", "android": "https://dc.lft.to/lastmile_qr_scan"}, "is_disabled": 0, "lon": -77.0021565, "name": "a6b42946c0c6f28ea6a186539ab80827", "fusion_lon": 0.0}, {"lat": 38.919633833333336, "fusion_lat": 0.0, "type": "electric_scooter", "bike_id": "3689082b2fe336b3f0bfafa0af9223f8", "is_reserved": 0, "rental_uris": {"ios": "https://dc.lft.to/lastmile_qr_scan", "android": "https://dc.lft.to/lastmile_qr_scan"}, "is_disabled": 0, "lon": -77.034763, "name": "3689082b2fe336b3f0bfafa0af9223f8", "fusion_lon": 0.0}, {"lat": 38.91699066666666, "fusion_lat": 0.0, "type": "electric_scooter", "bike_id": "d522cb72f80fbb0fba02192f13a3106f", "is_reserved": 0, "rental_uris": {"ios": "https://dc.lft.to/lastmile_qr_scan", "android": "https://dc.lft.to/lastmile_qr_scan"}, "is_disabled": 0, "lon": -77.02517133333333, "name": "d522cb72f80fbb0fba02192f13a3106f", "fusion_lon": 0.0}, {"lat": 38.918116166666664, "fusion_lat": 0.0, "type": "electric_scooter", "bike_id": "10573f4c549f33fdcaa91cad87ed317c", "is_reserved": 0, "rental_uris": {"ios": "https://dc.lft.to/lastmile_qr_scan", "android": "https://dc.lft.to/lastmile_qr_scan"}, "is_disabled": 0, "lon": -77.03999783333333, "name": "10573f4c549f33fdcaa91cad87ed317c", "fusion_lon": 0.0}, {"lat": 38.94180733333334, "fusion_lat": 0.0, "type": "electric_scooter", "bike_id": "3f1f24e6ced2b371cb112b9cd2fadfe3", "is_reserved": 0, "rental_uris": {"ios": "https://dc.lft.to/lastmile_qr_scan", "android": "https://dc.lft.to/lastmile_qr_scan"}, "is_disabled": 0, "lon": -77.02793683333333, "name": "3f1f24e6ced2b371cb112b9cd2fadfe3", "fusion_lon": 0.0}, {"lat": 38.9934375, "fusion_lat": 0.0, "type": "electric_bike", "bike_id": "2540b565b8f8f9e978fc369db601a0e4", "is_reserved": 0, "rental_uris": {"ios": "https://dc.lft.to/lastmile_qr_scan", "android": "https://dc.lft.to/lastmile_qr_scan"}, "is_disabled": 0, "lon": -77.1157115, "name": "2540b565b8f8f9e978fc369db601a0e4", "fusion_lon": 0.0}, {"lat": 38.923099, "fusion_lat": 0.0, "type": "electric_bike", "bike_id": "0a329cda44b2c4c54a30abd2f0293b89", "is_reserved": 0, "rental_uris": {"ios": "https://dc.lft.to/lastmile_qr_scan", "android": "https://dc.lft.to/lastmile_qr_scan"}, "is_disabled": 0, "lon": -77.02256616666666, "name": "0a329cda44b2c4c54a30abd2f0293b89", "fusion_lon": 0.0}, {"lat": 38.92215083333333, "fusion_lat": 0.0, "type": "electric_scooter", "bike_id": "c22575712a66d4555e5828ed6c405c53", "is_reserved": 0, "rental_uris": {"ios": "https://dc.lft.to/lastmile_qr_scan", "android": "https://dc.lft.to/lastmile_qr_scan"}, "is_disabled": 0, "lon": -77.03287466666667, "name": "c22575712a66d4555e5828ed6c405c53", "fusion_lon": 0.0}, {"lat": 38.92358616666667, "fusion_lat": 0.0, "type": "electric_scooter", "bike_id": "72f9b67e0acfbb22b9fa6671bfa3b8f8", "is_reserved": 0, "rental_uris": {"ios": "https://dc.lft.to/lastmile_qr_scan", "android": "https://dc.lft.to/lastmile_qr_scan"}, "is_disabled": 0, "lon": -77.05282966666667, "name": "72f9b67e0acfbb22b9fa6671bfa3b8f8", "fusion_lon": 0.0}, {"lat": 38.925694, "fusion_lat": 0.0, "type": "electric_scooter", "bike_id": "b2111c7f5c3c8a2263cca620ef319aac", "is_reserved": 0, "rental_uris": {"ios": "https://dc.lft.to/lastmile_qr_scan", "android": "https://dc.lft.to/lastmile_qr_scan"}, "is_disabled": 0, "lon": -77.03215816666666, "name": "b2111c7f5c3c8a2263cca620ef319aac", "fusion_lon": 0.0}, {"lat": 38.941847, "fusion_lat": 0.0, "type": "electric_scooter", "bike_id": "32763e954dbbbff1faceb3f7af81ae10", "is_reserved": 0, "rental_uris": {"ios": "https://dc.lft.to/lastmile_qr_scan", "android": "https://dc.lft.to/lastmile_qr_scan"}, "is_disabled": 0, "lon": -77.02489066666666, "name": "32763e954dbbbff1faceb3f7af81ae10", "fusion_lon": 0.0}, {"lat": 38.87206483333333, "fusion_lat": 0.0, "type": "electric_scooter", "bike_id": "18e487f34dd43aa042c7162d6ca32633", "is_reserved": 0, "rental_uris": {"ios": "https://dc.lft.to/lastmile_qr_scan", "android": "https://dc.lft.to/lastmile_qr_scan"}, "is_disabled": 0, "lon": -77.00966633333333, "name": "18e487f34dd43aa042c7162d6ca32633", "fusion_lon": 0.0}, {"lat": 38.865062333333334, "fusion_lat": 0.0, "type": "electric_scooter", "bike_id": "c88c0b51bdf21d9bdabf3374e949273d", "is_reserved": 0, "rental_uris": {"ios": "https://dc.lft.to/lastmile_qr_scan", "android": "https://dc.lft.to/lastmile_qr_scan"}, "is_disabled": 0, "lon": -76.990071, "name": "c88c0b51bdf21d9bdabf3374e949273d", "fusion_lon": 0.0}, {"lat": 38.926950166666664, "fusion_lat": 0.0, "type": "electric_scooter", "bike_id": "39221ca1925c3abbf418659ef84e5147", "is_reserved": 0, "rental_uris": {"ios": "https://dc.lft.to/lastmile_qr_scan", "android": "https://dc.lft.to/lastmile_qr_scan"}, "is_disabled": 0, "lon": -77.02420266666667, "name": "39221ca1925c3abbf418659ef84e5147", "fusion_lon": 0.0}, {"lat": 38.8076035, "fusion_lat": 0.0, "type": "electric_bike", "bike_id": "50c6a784e18640f37e22c28ac4053f34", "is_reserved": 0, "rental_uris": {"ios": "https://dc.lft.to/lastmile_qr_scan", "android": "https://dc.lft.to/lastmile_qr_scan"}, "is_disabled": 0, "lon": -77.09467433333333, "name": "50c6a784e18640f37e22c28ac4053f34", "fusion_lon": 0.0}, {"lat": 38.91563333333333, "fusion_lat": 0.0, "type": "electric_scooter", "bike_id": "9b04bbb544bc0648daff34a46de6cc35", "is_reserved": 0, "rental_uris": {"ios": "https://dc.lft.to/lastmile_qr_scan", "android": "https://dc.lft.to/lastmile_qr_scan"}, "is_disabled": 0, "lon": -77.03955933333333, "name": "9b04bbb544bc0648daff34a46de6cc35", "fusion_lon": 0.0}, {"lat": 38.915799, "fusion_lat": 0.0, "type": "electric_scooter", "bike_id": "053494844198ccc9f3fab6083be079e5", "is_reserved": 0, "rental_uris": {"ios": "https://dc.lft.to/lastmile_qr_scan", "android": "https://dc.lft.to/lastmile_qr_scan"}, "is_disabled": 0, "lon": -77.012293, "name": "053494844198ccc9f3fab6083be079e5", "fusion_lon": 0.0}, {"lat": 38.8986425, "fusion_lat": 0.0, "type": "electric_scooter", "bike_id": "25a189dd5c3f8b8446d5f594f809890e", "is_reserved": 0, "rental_uris": {"ios": "https://dc.lft.to/lastmile_qr_scan", "android": "https://dc.lft.to/lastmile_qr_scan"}, "is_disabled": 0, "lon": -76.92757233333333, "name": "25a189dd5c3f8b8446d5f594f809890e", "fusion_lon": 0.0}, {"lat": 38.959413833333336, "fusion_lat": 0.0, "type": "electric_scooter", "bike_id": "24374d3cdf360a0937b85884b7b45f90", "is_reserved": 0, "rental_uris": {"ios": "https://dc.lft.to/lastmile_qr_scan", "android": "https://dc.lft.to/lastmile_qr_scan"}, "is_disabled": 0, "lon": -77.03047566666666, "name": "24374d3cdf360a0937b85884b7b45f90", "fusion_lon": 0.0}, {"lat": 38.85539416666667, "fusion_lat": 0.0, "type": "electric_scooter", "bike_id": "9442f6f7e8aa49c0829fe61c02f9933f", "is_reserved": 0, "rental_uris": {"ios": "https://dc.lft.to/lastmile_qr_scan", "android": "https://dc.lft.to/lastmile_qr_scan"}, "is_disabled": 0, "lon": -76.98413283333333, "name": "9442f6f7e8aa49c0829fe61c02f9933f", "fusion_lon": 0.0}, {"lat": 38.986966, "fusion_lat": 0.0, "type": "electric_scooter", "bike_id": "d8e50af118f66cdfab185c78b99201f2", "is_reserved": 0, "rental_uris": {"ios": "https://dc.lft.to/lastmile_qr_scan", "android": "https://dc.lft.to/lastmile_qr_scan"}, "is_disabled": 0, "lon": -77.0298015, "name": "d8e50af118f66cdfab185c78b99201f2", "fusion_lon": 0.0}, {"lat": 38.90079983333333, "fusion_lat": 0.0, "type": "electric_scooter", "bike_id": "7dca464a00d09b9dc0203e37c25b2ed1", "is_reserved": 0, "rental_uris": {"ios": "https://dc.lft.to/lastmile_qr_scan", "android": "https://dc.lft.to/lastmile_qr_scan"}, "is_disabled": 0, "lon": -76.93017266666666, "name": "7dca464a00d09b9dc0203e37c25b2ed1", "fusion_lon": 0.0}, {"lat": 38.929708, "fusion_lat": 0.0, "type": "electric_scooter", "bike_id": "5a6e0323a11d4d4b0ff85c0ca33341c7", "is_reserved": 0, "rental_uris": {"ios": "https://dc.lft.to/lastmile_qr_scan", "android": "https://dc.lft.to/lastmile_qr_scan"}, "is_disabled": 0, "lon": -77.01687016666666, "name": "5a6e0323a11d4d4b0ff85c0ca33341c7", "fusion_lon": 0.0}, {"lat": 38.90015183333333, "fusion_lat": 0.0, "type": "electric_scooter", "bike_id": "cc690cf5b864fb5a30e58163355703c2", "is_reserved": 0, "rental_uris": {"ios": "https://dc.lft.to/lastmile_qr_scan", "android": "https://dc.lft.to/lastmile_qr_scan"}, "is_disabled": 0, "lon": -76.999271, "name": "cc690cf5b864fb5a30e58163355703c2", "fusion_lon": 0.0}, {"lat": 38.921482, "fusion_lat": 0.0, "type": "electric_scooter", "bike_id": "d2fd509aed4bfbe2ca4e82db8356b3aa", "is_reserved": 0, "rental_uris": {"ios": "https://dc.lft.to/lastmile_qr_scan", "android": "https://dc.lft.to/lastmile_qr_scan"}, "is_disabled": 0, "lon": -77.03500216666667, "name": "d2fd509aed4bfbe2ca4e82db8356b3aa", "fusion_lon": 0.0}, {"lat": 38.90865983333333, "fusion_lat": 0.0, "type": "electric_scooter", "bike_id": "779fc77c6193d9772266c3ae4882b900", "is_reserved": 0, "rental_uris": {"ios": "https://dc.lft.to/lastmile_qr_scan", "android": "https://dc.lft.to/lastmile_qr_scan"}, "is_disabled": 0, "lon": -77.03226016666666, "name": "779fc77c6193d9772266c3ae4882b900", "fusion_lon": 0.0}, {"lat": 38.9266465, "fusion_lat": 0.0, "type": "electric_scooter", "bike_id": "bdd43b6f8a146ae3779fa787edacd20c", "is_reserved": 0, "rental_uris": {"ios": "https://dc.lft.to/lastmile_qr_scan", "android": "https://dc.lft.to/lastmile_qr_scan"}, "is_disabled": 0, "lon": -76.99538566666666, "name": "bdd43b6f8a146ae3779fa787edacd20c", "fusion_lon": 0.0}, {"lat": 38.90539483333333, "fusion_lat": 0.0, "type": "electric_scooter", "bike_id": "cd8bec37068af2d984aa47f294acfd66", "is_reserved": 0, "rental_uris": {"ios": "https://dc.lft.to/lastmile_qr_scan", "android": "https://dc.lft.to/lastmile_qr_scan"}, "is_disabled": 0, "lon": -77.0308395, "name": "cd8bec37068af2d984aa47f294acfd66", "fusion_lon": 0.0}, {"lat": 38.904877, "fusion_lat": 0.0, "type": "electric_scooter", "bike_id": "39b5b1d36ee9c72f39a658a924b162ee", "is_reserved": 0, "rental_uris": {"ios": "https://dc.lft.to/lastmile_qr_scan", "android": "https://dc.lft.to/lastmile_qr_scan"}, "is_disabled": 0, "lon": -77.02973733333333, "name": "39b5b1d36ee9c72f39a658a924b162ee", "fusion_lon": 0.0}, {"lat": 38.904987166666665, "fusion_lat": 0.0, "type": "electric_scooter", "bike_id": "77e332c0b7ce7014e14eb3a9cf67c60b", "is_reserved": 0, "rental_uris": {"ios": "https://dc.lft.to/lastmile_qr_scan", "android": "https://dc.lft.to/lastmile_qr_scan"}, "is_disabled": 0, "lon": -77.02952183333333, "name": "77e332c0b7ce7014e14eb3a9cf67c60b", "fusion_lon": 0.0}, {"lat": 38.905674833333336, "fusion_lat": 0.0, "type": "electric_scooter", "bike_id": "fe55d436fae4fd3545de14407173db64", "is_reserved": 0, "rental_uris": {"ios": "https://dc.lft.to/lastmile_qr_scan", "android": "https://dc.lft.to/lastmile_qr_scan"}, "is_disabled": 0, "lon": -77.03862283333333, "name": "fe55d436fae4fd3545de14407173db64", "fusion_lon": 0.0}, {"lat": 38.918376333333335, "fusion_lat": 0.0, "type": "electric_scooter", "bike_id": "619503f039377d7379b7242547cf274c", "is_reserved": 0, "rental_uris": {"ios": "https://dc.lft.to/lastmile_qr_scan", "android": "https://dc.lft.to/lastmile_qr_scan"}, "is_disabled": 0, "lon": -77.0174675, "name": "619503f039377d7379b7242547cf274c", "fusion_lon": 0.0}, {"lat": 38.9008075, "fusion_lat": 0.0, "type": "electric_scooter", "bike_id": "4516c68ca74475ed27990e2968fc1c71", "is_reserved": 0, "rental_uris": {"ios": "https://dc.lft.to/lastmile_qr_scan", "android": "https://dc.lft.to/lastmile_qr_scan"}, "is_disabled": 0, "lon": -77.04758816666667, "name": "4516c68ca74475ed27990e2968fc1c71", "fusion_lon": 0.0}, {"lat": 38.942843333333336, "fusion_lat": 0.0, "type": "electric_bike", "bike_id": "62b9d0df5339301858585ea5549a9dc9", "is_reserved": 0, "rental_uris": {"ios": "https://dc.lft.to/lastmile_qr_scan", "android": "https://dc.lft.to/lastmile_qr_scan"}, "is_disabled": 0, "lon": -76.98783133333333, "name": "62b9d0df5339301858585ea5549a9dc9", "fusion_lon": 0.0}, {"lat": 38.92443133333333, "fusion_lat": 0.0, "type": "electric_scooter", "bike_id": "cee8e7ef84735bb7ab886982a477f2a2", "is_reserved": 0, "rental_uris": {"ios": "https://dc.lft.to/lastmile_qr_scan", "android": "https://dc.lft.to/lastmile_qr_scan"}, "is_disabled": 0, "lon": -77.04396716666666, "name": "cee8e7ef84735bb7ab886982a477f2a2", "fusion_lon": 0.0}, {"lat": 39.0136975, "fusion_lat": 0.0, "type": "electric_bike", "bike_id": "911c7eda8898399062b479de56f2788f", "is_reserved": 0, "rental_uris": {"ios": "https://dc.lft.to/lastmile_qr_scan", "android": "https://dc.lft.to/lastmile_qr_scan"}, "is_disabled": 0, "lon": -76.92135366666666, "name": "911c7eda8898399062b479de56f2788f", "fusion_lon": 0.0}, {"lat": 38.88877816666667, "fusion_lat": 0.0, "type": "electric_scooter", "bike_id": "71dca7e399681899e9109c0d02ee7774", "is_reserved": 0, "rental_uris": {"ios": "https://dc.lft.to/lastmile_qr_scan", "android": "https://dc.lft.to/lastmile_qr_scan"}, "is_disabled": 0, "lon": -76.99025483333334, "name": "71dca7e399681899e9109c0d02ee7774", "fusion_lon": 0.0}, {"lat": 38.923429, "fusion_lat": 0.0, "type": "electric_scooter", "bike_id": "aed79e42bb1fe6de5322e4b58a5a541a", "is_reserved": 0, "rental_uris": {"ios": "https://dc.lft.to/lastmile_qr_scan", "android": "https://dc.lft.to/lastmile_qr_scan"}, "is_disabled": 0, "lon": -77.05081216666666, "name": "aed79e42bb1fe6de5322e4b58a5a541a", "fusion_lon": 0.0}, {"lat": 38.9167645, "fusion_lat": 0.0, "type": "electric_scooter", "bike_id": "38fcdd008471a39d91942876f83de1ea", "is_reserved": 0, "rental_uris": {"ios": "https://dc.lft.to/lastmile_qr_scan", "android": "https://dc.lft.to/lastmile_qr_scan"}, "is_disabled": 0, "lon": -77.0235115, "name": "38fcdd008471a39d91942876f83de1ea", "fusion_lon": 0.0}, {"lat": 38.91965966666667, "fusion_lat": 0.0, "type": "electric_scooter", "bike_id": "33b7dd3a35ac45f937307f9cdab42efd", "is_reserved": 0, "rental_uris": {"ios": "https://dc.lft.to/lastmile_qr_scan", "android": "https://dc.lft.to/lastmile_qr_scan"}, "is_disabled": 0, "lon": -77.03852716666667, "name": "33b7dd3a35ac45f937307f9cdab42efd", "fusion_lon": 0.0}, {"lat": 38.8921995, "fusion_lat": 0.0, "type": "electric_scooter", "bike_id": "6593505ae8d23000b44cf1238fe24bb8", "is_reserved": 0, "rental_uris": {"ios": "https://dc.lft.to/lastmile_qr_scan", "android": "https://dc.lft.to/lastmile_qr_scan"}, "is_disabled": 0, "lon": -77.047991, "name": "6593505ae8d23000b44cf1238fe24bb8", "fusion_lon": 0.0}, {"lat": 38.90859533333333, "fusion_lat": 0.0, "type": "electric_scooter", "bike_id": "c5fdd01b3167e8d55b46018b5ffd477f", "is_reserved": 0, "rental_uris": {"ios": "https://dc.lft.to/lastmile_qr_scan", "android": "https://dc.lft.to/lastmile_qr_scan"}, "is_disabled": 0, "lon": -77.02224133333333, "name": "c5fdd01b3167e8d55b46018b5ffd477f", "fusion_lon": 0.0}, {"lat": 38.8506625, "fusion_lat": 0.0, "type": "electric_scooter", "bike_id": "533367a206ad7b7fe05b022b7eed017c", "is_reserved": 0, "rental_uris": {"ios": "https://dc.lft.to/lastmile_qr_scan", "android": "https://dc.lft.to/lastmile_qr_scan"}, "is_disabled": 0, "lon": -76.970074, "name": "533367a206ad7b7fe05b022b7eed017c", "fusion_lon": 0.0}, {"lat": 38.90130633333333, "fusion_lat": 0.0, "type": "electric_scooter", "bike_id": "af4b7134a97e5d5d31c7ce8517d115ea", "is_reserved": 0, "rental_uris": {"ios": "https://dc.lft.to/lastmile_qr_scan", "android": "https://dc.lft.to/lastmile_qr_scan"}, "is_disabled": 0, "lon": -77.01317016666667, "name": "af4b7134a97e5d5d31c7ce8517d115ea", "fusion_lon": 0.0}, {"lat": 38.90990816666667, "fusion_lat": 0.0, "type": "electric_scooter", "bike_id": "9bae60fe1a5b3e1447d0e1ae98fdf5d6", "is_reserved": 0, "rental_uris": {"ios": "https://dc.lft.to/lastmile_qr_scan", "android": "https://dc.lft.to/lastmile_qr_scan"}, "is_disabled": 0, "lon": -77.03189083333334, "name": "9bae60fe1a5b3e1447d0e1ae98fdf5d6", "fusion_lon": 0.0}, {"lat": 38.916940833333335, "fusion_lat": 0.0, "type": "electric_scooter", "bike_id": "595775bac39c1a2862f37ea7ed7e7804", "is_reserved": 0, "rental_uris": {"ios": "https://dc.lft.to/lastmile_qr_scan", "android": "https://dc.lft.to/lastmile_qr_scan"}, "is_disabled": 0, "lon": -77.0105055, "name": "595775bac39c1a2862f37ea7ed7e7804", "fusion_lon": 0.0}, {"lat": 38.893134333333336, "fusion_lat": 0.0, "type": "electric_scooter", "bike_id": "9477f6be7c097746cda66f3fbadd0640", "is_reserved": 0, "rental_uris": {"ios": "https://dc.lft.to/lastmile_qr_scan", "android": "https://dc.lft.to/lastmile_qr_scan"}, "is_disabled": 0, "lon": -76.9397115, "name": "9477f6be7c097746cda66f3fbadd0640", "fusion_lon": 0.0}, {"lat": 38.9345655, "fusion_lat": 0.0, "type": "electric_scooter", "bike_id": "316d680cb68d0c1ca9b8b88a5a8a1553", "is_reserved": 0, "rental_uris": {"ios": "https://dc.lft.to/lastmile_qr_scan", "android": "https://dc.lft.to/lastmile_qr_scan"}, "is_disabled": 0, "lon": -77.03275466666666, "name": "316d680cb68d0c1ca9b8b88a5a8a1553", "fusion_lon": 0.0}, {"lat": 38.9112015, "fusion_lat": 0.0, "type": "electric_scooter", "bike_id": "014a567f8e588e8a4610d95d3c5a4b67", "is_reserved": 0, "rental_uris": {"ios": "https://dc.lft.to/lastmile_qr_scan", "android": "https://dc.lft.to/lastmile_qr_scan"}, "is_disabled": 0, "lon": -77.04470716666667, "name": "014a567f8e588e8a4610d95d3c5a4b67", "fusion_lon": 0.0}, {"lat": 38.909327166666664, "fusion_lat": 0.0, "type": "electric_scooter", "bike_id": "2f2803bcf684a8813d6f3ac9f3fdad53", "is_reserved": 0, "rental_uris": {"ios": "https://dc.lft.to/lastmile_qr_scan", "android": "https://dc.lft.to/lastmile_qr_scan"}, "is_disabled": 0, "lon": -77.05539983333334, "name": "2f2803bcf684a8813d6f3ac9f3fdad53", "fusion_lon": 0.0}, {"lat": 38.91555533333333, "fusion_lat": 0.0, "type": "electric_scooter", "bike_id": "f16b1c7cd096c8d50414d3ed10efa40a", "is_reserved": 0, "rental_uris": {"ios": "https://dc.lft.to/lastmile_qr_scan", "android": "https://dc.lft.to/lastmile_qr_scan"}, "is_disabled": 0, "lon": -77.03955266666667, "name": "f16b1c7cd096c8d50414d3ed10efa40a", "fusion_lon": 0.0}, {"lat": 38.883725, "fusion_lat": 0.0, "type": "electric_scooter", "bike_id": "87633181e34e9132ec3931ecaa7bd9a2", "is_reserved": 0, "rental_uris": {"ios": "https://dc.lft.to/lastmile_qr_scan", "android": "https://dc.lft.to/lastmile_qr_scan"}, "is_disabled": 0, "lon": -76.99518783333333, "name": "87633181e34e9132ec3931ecaa7bd9a2", "fusion_lon": 0.0}, {"lat": 38.866197666666665, "fusion_lat": 0.0, "type": "electric_scooter", "bike_id": "8a6b34c18b17a0bef9dea82d27defbef", "is_reserved": 0, "rental_uris": {"ios": "https://dc.lft.to/lastmile_qr_scan", "android": "https://dc.lft.to/lastmile_qr_scan"}, "is_disabled": 0, "lon": -77.087852, "name": "8a6b34c18b17a0bef9dea82d27defbef", "fusion_lon": 0.0}, {"lat": 38.876397, "fusion_lat": 0.0, "type": "electric_scooter", "bike_id": "fddcb41389b849381b405a72dfb423d2", "is_reserved": 0, "rental_uris": {"ios": "https://dc.lft.to/lastmile_qr_scan", "android": "https://dc.lft.to/lastmile_qr_scan"}, "is_disabled": 0, "lon": -77.00454533333334, "name": "fddcb41389b849381b405a72dfb423d2", "fusion_lon": 0.0}, {"lat": 38.9162285, "fusion_lat": 0.0, "type": "electric_scooter", "bike_id": "0cfde1a424850009aaf30e5b2673b0d7", "is_reserved": 0, "rental_uris": {"ios": "https://dc.lft.to/lastmile_qr_scan", "android": "https://dc.lft.to/lastmile_qr_scan"}, "is_disabled": 0, "lon": -77.04864016666667, "name": "0cfde1a424850009aaf30e5b2673b0d7", "fusion_lon": 0.0}, {"lat": 38.91366033333333, "fusion_lat": 0.0, "type": "electric_scooter", "bike_id": "7df1a8a6e1557b7e7a24bc904fa3bc67", "is_reserved": 0, "rental_uris": {"ios": "https://dc.lft.to/lastmile_qr_scan", "android": "https://dc.lft.to/lastmile_qr_scan"}, "is_disabled": 0, "lon": -77.06618183333333, "name": "7df1a8a6e1557b7e7a24bc904fa3bc67", "fusion_lon": 0.0}, {"lat": 38.92325683333333, "fusion_lat": 0.0, "type": "electric_scooter", "bike_id": "babd8fbb60d0193e6a89475bee766075", "is_reserved": 0, "rental_uris": {"ios": "https://dc.lft.to/lastmile_qr_scan", "android": "https://dc.lft.to/lastmile_qr_scan"}, "is_disabled": 0, "lon": -77.0431045, "name": "babd8fbb60d0193e6a89475bee766075", "fusion_lon": 0.0}, {"lat": 38.9206895, "fusion_lat": 0.0, "type": "electric_scooter", "bike_id": "ca99cbbf512c10ad3b8742e6495e92b5", "is_reserved": 0, "rental_uris": {"ios": "https://dc.lft.to/lastmile_qr_scan", "android": "https://dc.lft.to/lastmile_qr_scan"}, "is_disabled": 0, "lon": -77.0251015, "name": "ca99cbbf512c10ad3b8742e6495e92b5", "fusion_lon": 0.0}, {"lat": 38.89607733333333, "fusion_lat": 0.0, "type": "electric_scooter", "bike_id": "5b109bb20b14193087161bdfaa0c5470", "is_reserved": 0, "rental_uris": {"ios": "https://dc.lft.to/lastmile_qr_scan", "android": "https://dc.lft.to/lastmile_qr_scan"}, "is_disabled": 0, "lon": -77.05438633333333, "name": "5b109bb20b14193087161bdfaa0c5470", "fusion_lon": 0.0}, {"lat": 38.907787666666664, "fusion_lat": 0.0, "type": "electric_scooter", "bike_id": "ded5b0199b2a8b4e0f4da5cdcd4ba198", "is_reserved": 0, "rental_uris": {"ios": "https://dc.lft.to/lastmile_qr_scan", "android": "https://dc.lft.to/lastmile_qr_scan"}, "is_disabled": 0, "lon": -77.0383275, "name": "ded5b0199b2a8b4e0f4da5cdcd4ba198", "fusion_lon": 0.0}, {"lat": 38.932258833333336, "fusion_lat": 0.0, "type": "electric_bike", "bike_id": "48e662bd0e2e99092adae8db5247d7c8", "is_reserved": 0, "rental_uris": {"ios": "https://dc.lft.to/lastmile_qr_scan", "android": "https://dc.lft.to/lastmile_qr_scan"}, "is_disabled": 0, "lon": -77.18121566666667, "name": "48e662bd0e2e99092adae8db5247d7c8", "fusion_lon": 0.0}, {"lat": 38.92370566666666, "fusion_lat": 0.0, "type": "electric_scooter", "bike_id": "f06a9170ce8d2140894faad756429a72", "is_reserved": 0, "rental_uris": {"ios": "https://dc.lft.to/lastmile_qr_scan", "android": "https://dc.lft.to/lastmile_qr_scan"}, "is_disabled": 0, "lon": -77.030544, "name": "f06a9170ce8d2140894faad756429a72", "fusion_lon": 0.0}, {"lat": 38.91207966666666, "fusion_lat": 0.0, "type": "electric_scooter", "bike_id": "687ee12301a6297c3b3256da3f33e53c", "is_reserved": 0, "rental_uris": {"ios": "https://dc.lft.to/lastmile_qr_scan", "android": "https://dc.lft.to/lastmile_qr_scan"}, "is_disabled": 0, "lon": -77.04335766666667, "name": "687ee12301a6297c3b3256da3f33e53c", "fusion_lon": 0.0}, {"lat": 38.93414883333333, "fusion_lat": 0.0, "type": "electric_scooter", "bike_id": "314fdde041142f83fa4e81db12792264", "is_reserved": 0, "rental_uris": {"ios": "https://dc.lft.to/lastmile_qr_scan", "android": "https://dc.lft.to/lastmile_qr_scan"}, "is_disabled": 0, "lon": -77.04146, "name": "314fdde041142f83fa4e81db12792264", "fusion_lon": 0.0}, {"lat": 38.91334883333333, "fusion_lat": 0.0, "type": "electric_scooter", "bike_id": "2e148edcab17b78bba98accaf2b328a3", "is_reserved": 0, "rental_uris": {"ios": "https://dc.lft.to/lastmile_qr_scan", "android": "https://dc.lft.to/lastmile_qr_scan"}, "is_disabled": 0, "lon": -77.03253416666666, "name": "2e148edcab17b78bba98accaf2b328a3", "fusion_lon": 0.0}, {"lat": 38.928707833333334, "fusion_lat": 0.0, "type": "electric_scooter", "bike_id": "e8c2e7d83e1105b7f74a72bf5399f927", "is_reserved": 0, "rental_uris": {"ios": "https://dc.lft.to/lastmile_qr_scan", "android": "https://dc.lft.to/lastmile_qr_scan"}, "is_disabled": 0, "lon": -77.03409633333334, "name": "e8c2e7d83e1105b7f74a72bf5399f927", "fusion_lon": 0.0}, {"lat": 38.91772916666667, "fusion_lat": 0.0, "type": "electric_scooter", "bike_id": "63140c361748578b02f57fdc477d68a0", "is_reserved": 0, "rental_uris": {"ios": "https://dc.lft.to/lastmile_qr_scan", "android": "https://dc.lft.to/lastmile_qr_scan"}, "is_disabled": 0, "lon": -77.04061466666667, "name": "63140c361748578b02f57fdc477d68a0", "fusion_lon": 0.0}, {"lat": 38.94997466666667, "fusion_lat": 0.0, "type": "electric_scooter", "bike_id": "ee7b2f3fa671d3626f1960dcd94b1db7", "is_reserved": 0, "rental_uris": {"ios": "https://dc.lft.to/lastmile_qr_scan", "android": "https://dc.lft.to/lastmile_qr_scan"}, "is_disabled": 0, "lon": -77.03331066666667, "name": "ee7b2f3fa671d3626f1960dcd94b1db7", "fusion_lon": 0.0}, {"lat": 38.912555166666664, "fusion_lat": 0.0, "type": "electric_scooter", "bike_id": "932517b0cc188f08cf1f81faba9a90d8", "is_reserved": 0, "rental_uris": {"ios": "https://dc.lft.to/lastmile_qr_scan", "android": "https://dc.lft.to/lastmile_qr_scan"}, "is_disabled": 0, "lon": -77.00770683333333, "name": "932517b0cc188f08cf1f81faba9a90d8", "fusion_lon": 0.0}, {"lat": 38.90600516666667, "fusion_lat": 0.0, "type": "electric_scooter", "bike_id": "4faf233eae35150ba414a21a49462fa9", "is_reserved": 0, "rental_uris": {"ios": "https://dc.lft.to/lastmile_qr_scan", "android": "https://dc.lft.to/lastmile_qr_scan"}, "is_disabled": 0, "lon": -77.04138633333334, "name": "4faf233eae35150ba414a21a49462fa9", "fusion_lon": 0.0}, {"lat": 38.878909166666666, "fusion_lat": 0.0, "type": "electric_bike", "bike_id": "166139ad75cd911134c4dacc4c2a7f63", "is_reserved": 0, "rental_uris": {"ios": "https://dc.lft.to/lastmile_qr_scan", "android": "https://dc.lft.to/lastmile_qr_scan"}, "is_disabled": 0, "lon": -77.01926283333333, "name": "166139ad75cd911134c4dacc4c2a7f63", "fusion_lon": 0.0}, {"lat": 38.934358333333336, "fusion_lat": 0.0, "type": "electric_scooter", "bike_id": "cacb198e3dd335686d20324c1d8ca4fa", "is_reserved": 0, "rental_uris": {"ios": "https://dc.lft.to/lastmile_qr_scan", "android": "https://dc.lft.to/lastmile_qr_scan"}, "is_disabled": 0, "lon": -77.04540133333333, "name": "cacb198e3dd335686d20324c1d8ca4fa", "fusion_lon": 0.0}, {"lat": 38.973663, "fusion_lat": 0.0, "type": "electric_scooter", "bike_id": "4c33dbd5d165e8a25338a8365c848dd0", "is_reserved": 0, "rental_uris": {"ios": "https://dc.lft.to/lastmile_qr_scan", "android": "https://dc.lft.to/lastmile_qr_scan"}, "is_disabled": 0, "lon": -77.01850366666666, "name": "4c33dbd5d165e8a25338a8365c848dd0", "fusion_lon": 0.0}, {"lat": 38.90184466666667, "fusion_lat": 0.0, "type": "electric_scooter", "bike_id": "bcf2f3a03345e8ca59f75cfa07765fbb", "is_reserved": 0, "rental_uris": {"ios": "https://dc.lft.to/lastmile_qr_scan", "android": "https://dc.lft.to/lastmile_qr_scan"}, "is_disabled": 0, "lon": -76.98817466666667, "name": "bcf2f3a03345e8ca59f75cfa07765fbb", "fusion_lon": 0.0}, {"lat": 38.9562175, "fusion_lat": 0.0, "type": "electric_scooter", "bike_id": "0d25eb7a6fb3a4ca9c8d38a9d1ea0ce6", "is_reserved": 0, "rental_uris": {"ios": "https://dc.lft.to/lastmile_qr_scan", "android": "https://dc.lft.to/lastmile_qr_scan"}, "is_disabled": 0, "lon": -77.02784683333333, "name": "0d25eb7a6fb3a4ca9c8d38a9d1ea0ce6", "fusion_lon": 0.0}, {"lat": 38.910513333333334, "fusion_lat": 0.0, "type": "electric_scooter", "bike_id": "2a3fd377398bf3ca3da55f5f356c47e2", "is_reserved": 0, "rental_uris": {"ios": "https://dc.lft.to/lastmile_qr_scan", "android": "https://dc.lft.to/lastmile_qr_scan"}, "is_disabled": 0, "lon": -77.04342633333333, "name": "2a3fd377398bf3ca3da55f5f356c47e2", "fusion_lon": 0.0}, {"lat": 38.90306433333333, "fusion_lat": 0.0, "type": "electric_scooter", "bike_id": "6ecf608cf91dcdb8fa1ccdaf5e4b5306", "is_reserved": 0, "rental_uris": {"ios": "https://dc.lft.to/lastmile_qr_scan", "android": "https://dc.lft.to/lastmile_qr_scan"}, "is_disabled": 0, "lon": -77.022196, "name": "6ecf608cf91dcdb8fa1ccdaf5e4b5306", "fusion_lon": 0.0}, {"lat": 38.898760333333335, "fusion_lat": 0.0, "type": "electric_scooter", "bike_id": "aeb356e702bae7d730eb8b9514e4d4fe", "is_reserved": 0, "rental_uris": {"ios": "https://dc.lft.to/lastmile_qr_scan", "android": "https://dc.lft.to/lastmile_qr_scan"}, "is_disabled": 0, "lon": -77.02186066666667, "name": "aeb356e702bae7d730eb8b9514e4d4fe", "fusion_lon": 0.0}, {"lat": 38.88765016666667, "fusion_lat": 0.0, "type": "electric_scooter", "bike_id": "e4f213407dd812e1934cdfef7311750e", "is_reserved": 0, "rental_uris": {"ios": "https://dc.lft.to/lastmile_qr_scan", "android": "https://dc.lft.to/lastmile_qr_scan"}, "is_disabled": 0, "lon": -76.99608083333334, "name": "e4f213407dd812e1934cdfef7311750e", "fusion_lon": 0.0}, {"lat": 38.907968833333335, "fusion_lat": 0.0, "type": "electric_scooter", "bike_id": "3b54a7fa65e27a49ad3d116470a5195d", "is_reserved": 0, "rental_uris": {"ios": "https://dc.lft.to/lastmile_qr_scan", "android": "https://dc.lft.to/lastmile_qr_scan"}, "is_disabled": 0, "lon": -77.03682683333334, "name": "3b54a7fa65e27a49ad3d116470a5195d", "fusion_lon": 0.0}, {"lat": 38.95531183333333, "fusion_lat": 0.0, "type": "electric_scooter", "bike_id": "7fa37bafd16aaee8de893475cfcd7dd2", "is_reserved": 0, "rental_uris": {"ios": "https://dc.lft.to/lastmile_qr_scan", "android": "https://dc.lft.to/lastmile_qr_scan"}, "is_disabled": 0, "lon": -77.02778666666667, "name": "7fa37bafd16aaee8de893475cfcd7dd2", "fusion_lon": 0.0}, {"lat": 38.857662, "fusion_lat": 0.0, "type": "electric_bike", "bike_id": "52479bfd062a9a33154125955d1059cf", "is_reserved": 0, "rental_uris": {"ios": "https://dc.lft.to/lastmile_qr_scan", "android": "https://dc.lft.to/lastmile_qr_scan"}, "is_disabled": 0, "lon": -76.98758183333334, "name": "52479bfd062a9a33154125955d1059cf", "fusion_lon": 0.0}, {"lat": 38.93022716666667, "fusion_lat": 0.0, "type": "electric_scooter", "bike_id": "0f3d9d89b4a026900701411a34062a22", "is_reserved": 0, "rental_uris": {"ios": "https://dc.lft.to/lastmile_qr_scan", "android": "https://dc.lft.to/lastmile_qr_scan"}, "is_disabled": 0, "lon": -77.06083533333333, "name": "0f3d9d89b4a026900701411a34062a22", "fusion_lon": 0.0}, {"lat": 38.92289, "fusion_lat": 0.0, "type": "electric_scooter", "bike_id": "0ddaae334de2ebbcad0dc8c42f77c5b7", "is_reserved": 0, "rental_uris": {"ios": "https://dc.lft.to/lastmile_qr_scan", "android": "https://dc.lft.to/lastmile_qr_scan"}, "is_disabled": 0, "lon": -77.02217833333333, "name": "0ddaae334de2ebbcad0dc8c42f77c5b7", "fusion_lon": 0.0}, {"lat": 38.89906033333333, "fusion_lat": 0.0, "type": "electric_scooter", "bike_id": "a92acee8b43e2fa3a0da9f6cf94c0bff", "is_reserved": 0, "rental_uris": {"ios": "https://dc.lft.to/lastmile_qr_scan", "android": "https://dc.lft.to/lastmile_qr_scan"}, "is_disabled": 0, "lon": -76.97709166666667, "name": "a92acee8b43e2fa3a0da9f6cf94c0bff", "fusion_lon": 0.0}, {"lat": 38.8747165, "fusion_lat": 0.0, "type": "electric_scooter", "bike_id": "00a357743c7fa9a08cc3a2cccd6cbe21", "is_reserved": 0, "rental_uris": {"ios": "https://dc.lft.to/lastmile_qr_scan", "android": "https://dc.lft.to/lastmile_qr_scan"}, "is_disabled": 0, "lon": -77.00563916666667, "name": "00a357743c7fa9a08cc3a2cccd6cbe21", "fusion_lon": 0.0}, {"lat": 38.906630666666665, "fusion_lat": 0.0, "type": "electric_scooter", "bike_id": "0341871931bf6914dd59541ad6e26b77", "is_reserved": 0, "rental_uris": {"ios": "https://dc.lft.to/lastmile_qr_scan", "android": "https://dc.lft.to/lastmile_qr_scan"}, "is_disabled": 0, "lon": -77.07464783333333, "name": "0341871931bf6914dd59541ad6e26b77", "fusion_lon": 0.0}, {"lat": 38.929741666666665, "fusion_lat": 0.0, "type": "electric_scooter", "bike_id": "76e7395cbebe1266f9ca4508cd798b28", "is_reserved": 0, "rental_uris": {"ios": "https://dc.lft.to/lastmile_qr_scan", "android": "https://dc.lft.to/lastmile_qr_scan"}, "is_disabled": 0, "lon": -77.02952566666667, "name": "76e7395cbebe1266f9ca4508cd798b28", "fusion_lon": 0.0}, {"lat": 38.838078333333335, "fusion_lat": 0.0, "type": "electric_bike", "bike_id": "52fc9dc6672452c6e8806af1e7d48c0f", "is_reserved": 0, "rental_uris": {"ios": "https://dc.lft.to/lastmile_qr_scan", "android": "https://dc.lft.to/lastmile_qr_scan"}, "is_disabled": 0, "lon": -77.09520716666667, "name": "52fc9dc6672452c6e8806af1e7d48c0f", "fusion_lon": 0.0}, {"lat": 38.89880333333333, "fusion_lat": 0.0, "type": "electric_scooter", "bike_id": "13bc5b3fdb031ff2d63f27507ea7c9ed", "is_reserved": 0, "rental_uris": {"ios": "https://dc.lft.to/lastmile_qr_scan", "android": "https://dc.lft.to/lastmile_qr_scan"}, "is_disabled": 0, "lon": -77.0125935, "name": "13bc5b3fdb031ff2d63f27507ea7c9ed", "fusion_lon": 0.0}, {"lat": 38.89476333333333, "fusion_lat": 0.0, "type": "electric_scooter", "bike_id": "dfccad0dbf8425f57bcf0dd09443ed66", "is_reserved": 0, "rental_uris": {"ios": "https://dc.lft.to/lastmile_qr_scan", "android": "https://dc.lft.to/lastmile_qr_scan"}, "is_disabled": 0, "lon": -77.01099716666667, "name": "dfccad0dbf8425f57bcf0dd09443ed66", "fusion_lon": 0.0}, {"lat": 38.90329416666667, "fusion_lat": 0.0, "type": "electric_scooter", "bike_id": "f90e915686963b34052caa6b82be7953", "is_reserved": 0, "rental_uris": {"ios": "https://dc.lft.to/lastmile_qr_scan", "android": "https://dc.lft.to/lastmile_qr_scan"}, "is_disabled": 0, "lon": -77.050389, "name": "f90e915686963b34052caa6b82be7953", "fusion_lon": 0.0}, {"lat": 38.905807833333334, "fusion_lat": 0.0, "type": "electric_scooter", "bike_id": "f1e6d2a75a2d2f75b7339f8734489019", "is_reserved": 0, "rental_uris": {"ios": "https://dc.lft.to/lastmile_qr_scan", "android": "https://dc.lft.to/lastmile_qr_scan"}, "is_disabled": 0, "lon": -77.05126416666667, "name": "f1e6d2a75a2d2f75b7339f8734489019", "fusion_lon": 0.0}, {"lat": 38.909696333333336, "fusion_lat": 0.0, "type": "electric_scooter", "bike_id": "c8ff29644f175b31aebd236280e12efe", "is_reserved": 0, "rental_uris": {"ios": "https://dc.lft.to/lastmile_qr_scan", "android": "https://dc.lft.to/lastmile_qr_scan"}, "is_disabled": 0, "lon": -77.00936516666667, "name": "c8ff29644f175b31aebd236280e12efe", "fusion_lon": 0.0}, {"lat": 38.90098616666667, "fusion_lat": 0.0, "type": "electric_scooter", "bike_id": "2cb03f47b15c6f6c34c7d11cb1e75eec", "is_reserved": 0, "rental_uris": {"ios": "https://dc.lft.to/lastmile_qr_scan", "android": "https://dc.lft.to/lastmile_qr_scan"}, "is_disabled": 0, "lon": -77.02722883333334, "name": "2cb03f47b15c6f6c34c7d11cb1e75eec", "fusion_lon": 0.0}, {"lat": 38.915726166666666, "fusion_lat": 0.0, "type": "electric_scooter", "bike_id": "b1f6b53bdbf27b91b7209d6a1ad07b6b", "is_reserved": 0, "rental_uris": {"ios": "https://dc.lft.to/lastmile_qr_scan", "android": "https://dc.lft.to/lastmile_qr_scan"}, "is_disabled": 0, "lon": -77.01245633333333, "name": "b1f6b53bdbf27b91b7209d6a1ad07b6b", "fusion_lon": 0.0}, {"lat": 38.937078666666665, "fusion_lat": 0.0, "type": "electric_scooter", "bike_id": "c60fcb39259bbfe4542608e9d28c12d4", "is_reserved": 0, "rental_uris": {"ios": "https://dc.lft.to/lastmile_qr_scan", "android": "https://dc.lft.to/lastmile_qr_scan"}, "is_disabled": 0, "lon": -77.06101266666667, "name": "c60fcb39259bbfe4542608e9d28c12d4", "fusion_lon": 0.0}, {"lat": 38.916897666666664, "fusion_lat": 0.0, "type": "electric_scooter", "bike_id": "706086329468905eb503e7ef6519cc6d", "is_reserved": 0, "rental_uris": {"ios": "https://dc.lft.to/lastmile_qr_scan", "android": "https://dc.lft.to/lastmile_qr_scan"}, "is_disabled": 0, "lon": -77.03875, "name": "706086329468905eb503e7ef6519cc6d", "fusion_lon": 0.0}, {"lat": 38.96632866666667, "fusion_lat": 0.0, "type": "electric_scooter", "bike_id": "ba1d81821a57d70b0ce712d51d8662a9", "is_reserved": 0, "rental_uris": {"ios": "https://dc.lft.to/lastmile_qr_scan", "android": "https://dc.lft.to/lastmile_qr_scan"}, "is_disabled": 0, "lon": -77.02252066666667, "name": "ba1d81821a57d70b0ce712d51d8662a9", "fusion_lon": 0.0}, {"lat": 38.90671916666667, "fusion_lat": 0.0, "type": "electric_scooter", "bike_id": "aa533d68e705cc077fdb466163d66600", "is_reserved": 0, "rental_uris": {"ios": "https://dc.lft.to/lastmile_qr_scan", "android": "https://dc.lft.to/lastmile_qr_scan"}, "is_disabled": 0, "lon": -77.07177233333333, "name": "aa533d68e705cc077fdb466163d66600", "fusion_lon": 0.0}, {"lat": 38.923482166666666, "fusion_lat": 0.0, "type": "electric_scooter", "bike_id": "980a5cd433c4ac30243bd71930520603", "is_reserved": 0, "rental_uris": {"ios": "https://dc.lft.to/lastmile_qr_scan", "android": "https://dc.lft.to/lastmile_qr_scan"}, "is_disabled": 0, "lon": -77.03533583333333, "name": "980a5cd433c4ac30243bd71930520603", "fusion_lon": 0.0}, {"lat": 38.9003155, "fusion_lat": 0.0, "type": "electric_scooter", "bike_id": "2f19bf00b3338194ec4d7496adc7a946", "is_reserved": 0, "rental_uris": {"ios": "https://dc.lft.to/lastmile_qr_scan", "android": "https://dc.lft.to/lastmile_qr_scan"}, "is_disabled": 0, "lon": -76.9881345, "name": "2f19bf00b3338194ec4d7496adc7a946", "fusion_lon": 0.0}, {"lat": 39.0563435, "fusion_lat": 0.0, "type": "electric_bike", "bike_id": "efac49fa4b90cdd471fb143c62aaa484", "is_reserved": 0, "rental_uris": {"ios": "https://dc.lft.to/lastmile_qr_scan", "android": "https://dc.lft.to/lastmile_qr_scan"}, "is_disabled": 0, "lon": -77.125206, "name": "efac49fa4b90cdd471fb143c62aaa484", "fusion_lon": 0.0}, {"lat": 38.90751066666667, "fusion_lat": 0.0, "type": "electric_scooter", "bike_id": "be169c898c1291eb64a063084a18ced0", "is_reserved": 0, "rental_uris": {"ios": "https://dc.lft.to/lastmile_qr_scan", "android": "https://dc.lft.to/lastmile_qr_scan"}, "is_disabled": 0, "lon": -77.03460666666666, "name": "be169c898c1291eb64a063084a18ced0", "fusion_lon": 0.0}, {"lat": 38.87275066666667, "fusion_lat": 0.0, "type": "electric_bike", "bike_id": "a7de6a7b3633a6f315233674294e59a0", "is_reserved": 0, "rental_uris": {"ios": "https://dc.lft.to/lastmile_qr_scan", "android": "https://dc.lft.to/lastmile_qr_scan"}, "is_disabled": 0, "lon": -77.23325783333334, "name": "a7de6a7b3633a6f315233674294e59a0", "fusion_lon": 0.0}, {"lat": 38.928964, "fusion_lat": 0.0, "type": "electric_scooter", "bike_id": "b42dfd4639b87f2cf6578d37dd202cf4", "is_reserved": 0, "rental_uris": {"ios": "https://dc.lft.to/lastmile_qr_scan", "android": "https://dc.lft.to/lastmile_qr_scan"}, "is_disabled": 0, "lon": -77.01658516666667, "name": "b42dfd4639b87f2cf6578d37dd202cf4", "fusion_lon": 0.0}, {"lat": 38.90012733333333, "fusion_lat": 0.0, "type": "electric_scooter", "bike_id": "07027c1d123a103396687916a3783823", "is_reserved": 0, "rental_uris": {"ios": "https://dc.lft.to/lastmile_qr_scan", "android": "https://dc.lft.to/lastmile_qr_scan"}, "is_disabled": 0, "lon": -77.00688983333333, "name": "07027c1d123a103396687916a3783823", "fusion_lon": 0.0}, {"lat": 38.90754316666667, "fusion_lat": 0.0, "type": "electric_scooter", "bike_id": "5d5cf59e5fdc450c3198d03f167e804a", "is_reserved": 0, "rental_uris": {"ios": "https://dc.lft.to/lastmile_qr_scan", "android": "https://dc.lft.to/lastmile_qr_scan"}, "is_disabled": 0, "lon": -77.03188, "name": "5d5cf59e5fdc450c3198d03f167e804a", "fusion_lon": 0.0}, {"lat": 38.9272205, "fusion_lat": 0.0, "type": "electric_scooter", "bike_id": "558ba5cdf1ae99b25c0da777376ed215", "is_reserved": 0, "rental_uris": {"ios": "https://dc.lft.to/lastmile_qr_scan", "android": "https://dc.lft.to/lastmile_qr_scan"}, "is_disabled": 0, "lon": -77.039915, "name": "558ba5cdf1ae99b25c0da777376ed215", "fusion_lon": 0.0}, {"lat": 38.91096133333333, "fusion_lat": 0.0, "type": "electric_scooter", "bike_id": "cc44341950554d8aeba16236da17393f", "is_reserved": 0, "rental_uris": {"ios": "https://dc.lft.to/lastmile_qr_scan", "android": "https://dc.lft.to/lastmile_qr_scan"}, "is_disabled": 0, "lon": -77.03843166666667, "name": "cc44341950554d8aeba16236da17393f", "fusion_lon": 0.0}, {"lat": 38.90090333333333, "fusion_lat": 0.0, "type": "electric_scooter", "bike_id": "18c5c915bb224bb62a816a218b009a58", "is_reserved": 0, "rental_uris": {"ios": "https://dc.lft.to/lastmile_qr_scan", "android": "https://dc.lft.to/lastmile_qr_scan"}, "is_disabled": 0, "lon": -77.04768516666667, "name": "18c5c915bb224bb62a816a218b009a58", "fusion_lon": 0.0}, {"lat": 38.89784566666667, "fusion_lat": 0.0, "type": "electric_scooter", "bike_id": "42fc3b29e3581f1db85c58237a6a0b8c", "is_reserved": 0, "rental_uris": {"ios": "https://dc.lft.to/lastmile_qr_scan", "android": "https://dc.lft.to/lastmile_qr_scan"}, "is_disabled": 0, "lon": -77.01206433333333, "name": "42fc3b29e3581f1db85c58237a6a0b8c", "fusion_lon": 0.0}, {"lat": 38.91380566666667, "fusion_lat": 0.0, "type": "electric_scooter", "bike_id": "144f40e7e1b3f5f3e2f4a7ca8e6a246d", "is_reserved": 0, "rental_uris": {"ios": "https://dc.lft.to/lastmile_qr_scan", "android": "https://dc.lft.to/lastmile_qr_scan"}, "is_disabled": 0, "lon": -77.04135916666667, "name": "144f40e7e1b3f5f3e2f4a7ca8e6a246d", "fusion_lon": 0.0}, {"lat": 38.908256333333334, "fusion_lat": 0.0, "type": "electric_scooter", "bike_id": "afa560cd12d0eb8762dc32d553c617de", "is_reserved": 0, "rental_uris": {"ios": "https://dc.lft.to/lastmile_qr_scan", "android": "https://dc.lft.to/lastmile_qr_scan"}, "is_disabled": 0, "lon": -76.94155533333333, "name": "afa560cd12d0eb8762dc32d553c617de", "fusion_lon": 0.0}, {"lat": 38.90181183333333, "fusion_lat": 0.0, "type": "electric_scooter", "bike_id": "17072db8e69131bcbe2ffecb6c892f9f", "is_reserved": 0, "rental_uris": {"ios": "https://dc.lft.to/lastmile_qr_scan", "android": "https://dc.lft.to/lastmile_qr_scan"}, "is_disabled": 0, "lon": -77.059935, "name": "17072db8e69131bcbe2ffecb6c892f9f", "fusion_lon": 0.0}, {"lat": 38.964667166666665, "fusion_lat": 0.0, "type": "electric_bike", "bike_id": "1ecf6d2c9bd90d4709b992f172fb9ab4", "is_reserved": 0, "rental_uris": {"ios": "https://dc.lft.to/lastmile_qr_scan", "android": "https://dc.lft.to/lastmile_qr_scan"}, "is_disabled": 0, "lon": -77.03562716666667, "name": "1ecf6d2c9bd90d4709b992f172fb9ab4", "fusion_lon": 0.0}, {"lat": 38.91108933333334, "fusion_lat": 0.0, "type": "electric_scooter", "bike_id": "1e6b1fa7a8f92ae80efae427b54980c0", "is_reserved": 0, "rental_uris": {"ios": "https://dc.lft.to/lastmile_qr_scan", "android": "https://dc.lft.to/lastmile_qr_scan"}, "is_disabled": 0, "lon": -77.03915583333334, "name": "1e6b1fa7a8f92ae80efae427b54980c0", "fusion_lon": 0.0}, {"lat": 38.8788225, "fusion_lat": 0.0, "type": "electric_bike", "bike_id": "c471eb42e4fe81fa4aede904a107bcf8", "is_reserved": 0, "rental_uris": {"ios": "https://dc.lft.to/lastmile_qr_scan", "android": "https://dc.lft.to/lastmile_qr_scan"}, "is_disabled": 0, "lon": -77.09613766666666, "name": "c471eb42e4fe81fa4aede904a107bcf8", "fusion_lon": 0.0}, {"lat": 38.891692166666665, "fusion_lat": 0.0, "type": "electric_scooter", "bike_id": "1449435a998232b0b9faddeaae156923", "is_reserved": 0, "rental_uris": {"ios": "https://dc.lft.to/lastmile_qr_scan", "android": "https://dc.lft.to/lastmile_qr_scan"}, "is_disabled": 0, "lon": -77.02011566666667, "name": "1449435a998232b0b9faddeaae156923", "fusion_lon": 0.0}, {"lat": 38.925058666666665, "fusion_lat": 0.0, "type": "electric_scooter", "bike_id": "e289acccb4fdd24afe941f68d1913c6f", "is_reserved": 0, "rental_uris": {"ios": "https://dc.lft.to/lastmile_qr_scan", "android": "https://dc.lft.to/lastmile_qr_scan"}, "is_disabled": 0, "lon": -77.02357116666667, "name": "e289acccb4fdd24afe941f68d1913c6f", "fusion_lon": 0.0}, {"lat": 38.91695166666667, "fusion_lat": 0.0, "type": "electric_scooter", "bike_id": "00dc5256f14b1048e55d9272a5d1c7a1", "is_reserved": 0, "rental_uris": {"ios": "https://dc.lft.to/lastmile_qr_scan", "android": "https://dc.lft.to/lastmile_qr_scan"}, "is_disabled": 0, "lon": -77.042627, "name": "00dc5256f14b1048e55d9272a5d1c7a1", "fusion_lon": 0.0}, {"lat": 38.897791, "fusion_lat": 0.0, "type": "electric_scooter", "bike_id": "b6d3e19f0755484ff18f5dbbc7d3f2a6", "is_reserved": 0, "rental_uris": {"ios": "https://dc.lft.to/lastmile_qr_scan", "android": "https://dc.lft.to/lastmile_qr_scan"}, "is_disabled": 0, "lon": -77.008897, "name": "b6d3e19f0755484ff18f5dbbc7d3f2a6", "fusion_lon": 0.0}, {"lat": 38.911386, "fusion_lat": 0.0, "type": "electric_scooter", "bike_id": "223318c76080572052e32e49274073b0", "is_reserved": 0, "rental_uris": {"ios": "https://dc.lft.to/lastmile_qr_scan", "android": "https://dc.lft.to/lastmile_qr_scan"}, "is_disabled": 0, "lon": -77.03193083333333, "name": "223318c76080572052e32e49274073b0", "fusion_lon": 0.0}, {"lat": 38.917694166666664, "fusion_lat": 0.0, "type": "electric_scooter", "bike_id": "3c6e529950d7439a52fbd42e48d271c6", "is_reserved": 0, "rental_uris": {"ios": "https://dc.lft.to/lastmile_qr_scan", "android": "https://dc.lft.to/lastmile_qr_scan"}, "is_disabled": 0, "lon": -77.04054116666667, "name": "3c6e529950d7439a52fbd42e48d271c6", "fusion_lon": 0.0}, {"lat": 38.92789583333333, "fusion_lat": 0.0, "type": "electric_scooter", "bike_id": "417f066afa1e582113ff1f1df2279985", "is_reserved": 0, "rental_uris": {"ios": "https://dc.lft.to/lastmile_qr_scan", "android": "https://dc.lft.to/lastmile_qr_scan"}, "is_disabled": 0, "lon": -77.02204066666667, "name": "417f066afa1e582113ff1f1df2279985", "fusion_lon": 0.0}, {"lat": 38.96961133333333, "fusion_lat": 0.0, "type": "electric_bike", "bike_id": "32fc829857399d2e61a14af739b009cc", "is_reserved": 0, "rental_uris": {"ios": "https://dc.lft.to/lastmile_qr_scan", "android": "https://dc.lft.to/lastmile_qr_scan"}, "is_disabled": 0, "lon": -76.95750333333334, "name": "32fc829857399d2e61a14af739b009cc", "fusion_lon": 0.0}, {"lat": 38.895641499999996, "fusion_lat": 0.0, "type": "electric_scooter", "bike_id": "bb3b657a5748735091822d9aa7c092c9", "is_reserved": 0, "rental_uris": {"ios": "https://dc.lft.to/lastmile_qr_scan", "android": "https://dc.lft.to/lastmile_qr_scan"}, "is_disabled": 0, "lon": -77.0467865, "name": "bb3b657a5748735091822d9aa7c092c9", "fusion_lon": 0.0}, {"lat": 38.9233035, "fusion_lat": 0.0, "type": "electric_scooter", "bike_id": "2495e7351f26e3c008dd9d7e9bb24274", "is_reserved": 0, "rental_uris": {"ios": "https://dc.lft.to/lastmile_qr_scan", "android": "https://dc.lft.to/lastmile_qr_scan"}, "is_disabled": 0, "lon": -77.02964233333333, "name": "2495e7351f26e3c008dd9d7e9bb24274", "fusion_lon": 0.0}, {"lat": 38.864739, "fusion_lat": 0.0, "type": "electric_scooter", "bike_id": "6221b195ee31a6b6bdfdb516e4c86e86", "is_reserved": 0, "rental_uris": {"ios": "https://dc.lft.to/lastmile_qr_scan", "android": "https://dc.lft.to/lastmile_qr_scan"}, "is_disabled": 0, "lon": -76.97738183333334, "name": "6221b195ee31a6b6bdfdb516e4c86e86", "fusion_lon": 0.0}, {"lat": 38.9085275, "fusion_lat": 0.0, "type": "electric_scooter", "bike_id": "c69304167f51c7f9415975d3facb9548", "is_reserved": 0, "rental_uris": {"ios": "https://dc.lft.to/lastmile_qr_scan", "android": "https://dc.lft.to/lastmile_qr_scan"}, "is_disabled": 0, "lon": -77.01270883333333, "name": "c69304167f51c7f9415975d3facb9548", "fusion_lon": 0.0}, {"lat": 38.893599, "fusion_lat": 0.0, "type": "electric_scooter", "bike_id": "39de4b7527751aeb8f2ac6c95a8639f0", "is_reserved": 0, "rental_uris": {"ios": "https://dc.lft.to/lastmile_qr_scan", "android": "https://dc.lft.to/lastmile_qr_scan"}, "is_disabled": 0, "lon": -76.94935483333333, "name": "39de4b7527751aeb8f2ac6c95a8639f0", "fusion_lon": 0.0}, {"lat": 38.92418516666667, "fusion_lat": 0.0, "type": "electric_scooter", "bike_id": "719c0aab7f188dccc8e580822c783f56", "is_reserved": 0, "rental_uris": {"ios": "https://dc.lft.to/lastmile_qr_scan", "android": "https://dc.lft.to/lastmile_qr_scan"}, "is_disabled": 0, "lon": -77.02012666666667, "name": "719c0aab7f188dccc8e580822c783f56", "fusion_lon": 0.0}, {"lat": 38.91684983333333, "fusion_lat": 0.0, "type": "electric_scooter", "bike_id": "0c41ce92f2c430e4fd1160e8f280f145", "is_reserved": 0, "rental_uris": {"ios": "https://dc.lft.to/lastmile_qr_scan", "android": "https://dc.lft.to/lastmile_qr_scan"}, "is_disabled": 0, "lon": -77.0269925, "name": "0c41ce92f2c430e4fd1160e8f280f145", "fusion_lon": 0.0}, {"lat": 38.91548216666666, "fusion_lat": 0.0, "type": "electric_scooter", "bike_id": "297a42540be3d94ebfdfa17712123b43", "is_reserved": 0, "rental_uris": {"ios": "https://dc.lft.to/lastmile_qr_scan", "android": "https://dc.lft.to/lastmile_qr_scan"}, "is_disabled": 0, "lon": -77.0451855, "name": "297a42540be3d94ebfdfa17712123b43", "fusion_lon": 0.0}, {"lat": 38.899887166666666, "fusion_lat": 0.0, "type": "electric_scooter", "bike_id": "4ed12f59c24e9b6353cb5e3f9b7542d4", "is_reserved": 0, "rental_uris": {"ios": "https://dc.lft.to/lastmile_qr_scan", "android": "https://dc.lft.to/lastmile_qr_scan"}, "is_disabled": 0, "lon": -77.0260785, "name": "4ed12f59c24e9b6353cb5e3f9b7542d4", "fusion_lon": 0.0}, {"lat": 38.93538216666666, "fusion_lat": 0.0, "type": "electric_scooter", "bike_id": "597dd527de373d6886822c8ab9897eef", "is_reserved": 0, "rental_uris": {"ios": "https://dc.lft.to/lastmile_qr_scan", "android": "https://dc.lft.to/lastmile_qr_scan"}, "is_disabled": 0, "lon": -77.05861866666666, "name": "597dd527de373d6886822c8ab9897eef", "fusion_lon": 0.0}, {"lat": 38.9202065, "fusion_lat": 0.0, "type": "electric_scooter", "bike_id": "7bfcc085cb7c14d47d9c20c4562a3d19", "is_reserved": 0, "rental_uris": {"ios": "https://dc.lft.to/lastmile_qr_scan", "android": "https://dc.lft.to/lastmile_qr_scan"}, "is_disabled": 0, "lon": -77.0186865, "name": "7bfcc085cb7c14d47d9c20c4562a3d19", "fusion_lon": 0.0}, {"lat": 38.932274, "fusion_lat": 0.0, "type": "electric_scooter", "bike_id": "fe8847f0ab16d036d76f94ab1751c187", "is_reserved": 0, "rental_uris": {"ios": "https://dc.lft.to/lastmile_qr_scan", "android": "https://dc.lft.to/lastmile_qr_scan"}, "is_disabled": 0, "lon": -76.995398, "name": "fe8847f0ab16d036d76f94ab1751c187", "fusion_lon": 0.0}, {"lat": 38.91688466666667, "fusion_lat": 0.0, "type": "electric_scooter", "bike_id": "22535b93b7c0b15a2e3362f8a1d3ff49", "is_reserved": 0, "rental_uris": {"ios": "https://dc.lft.to/lastmile_qr_scan", "android": "https://dc.lft.to/lastmile_qr_scan"}, "is_disabled": 0, "lon": -77.03151933333334, "name": "22535b93b7c0b15a2e3362f8a1d3ff49", "fusion_lon": 0.0}, {"lat": 38.900694666666666, "fusion_lat": 0.0, "type": "electric_scooter", "bike_id": "20942be4a80603044b90902624b7ad51", "is_reserved": 0, "rental_uris": {"ios": "https://dc.lft.to/lastmile_qr_scan", "android": "https://dc.lft.to/lastmile_qr_scan"}, "is_disabled": 0, "lon": -77.02393183333334, "name": "20942be4a80603044b90902624b7ad51", "fusion_lon": 0.0}, {"lat": 38.897415333333335, "fusion_lat": 0.0, "type": "electric_scooter", "bike_id": "12cb7ef538b0e4d3695005d8473a79d5", "is_reserved": 0, "rental_uris": {"ios": "https://dc.lft.to/lastmile_qr_scan", "android": "https://dc.lft.to/lastmile_qr_scan"}, "is_disabled": 0, "lon": -77.00772633333334, "name": "12cb7ef538b0e4d3695005d8473a79d5", "fusion_lon": 0.0}, {"lat": 38.937652166666666, "fusion_lat": 0.0, "type": "electric_scooter", "bike_id": "d6914d9412a29a4b4ad04e532df29572", "is_reserved": 0, "rental_uris": {"ios": "https://dc.lft.to/lastmile_qr_scan", "android": "https://dc.lft.to/lastmile_qr_scan"}, "is_disabled": 0, "lon": -77.02514566666666, "name": "d6914d9412a29a4b4ad04e532df29572", "fusion_lon": 0.0}, {"lat": 38.87677566666667, "fusion_lat": 0.0, "type": "electric_scooter", "bike_id": "646380d71723e082cfa94330d7fa2d27", "is_reserved": 0, "rental_uris": {"ios": "https://dc.lft.to/lastmile_qr_scan", "android": "https://dc.lft.to/lastmile_qr_scan"}, "is_disabled": 0, "lon": -76.99824, "name": "646380d71723e082cfa94330d7fa2d27", "fusion_lon": 0.0},